"lineid","car","time","location","longitude","latitude","cityid","cityname"
"234007","207-UY","2018/03/17 20:19:39","新北市永和區環河西路二段229巷1號","121.50143","25.0099783333333","6500400","永和區"
"234081","298-R6","2018/03/17 20:19:34","新北市永和區國中路130號","121.52362","25.0070866666667","6500400","永和區"
"234038","336-UY","2018/03/17 20:19:42","新北市永和區成功路一段93巷4號","121.527301666667","25.0026766666667","6500400","永和區"
"234064","337-UY","2018/03/17 20:19:37","新北市永和區中正路416號","121.517525","25.002145","6500400","永和區"
"234086","338-UY","2018/03/17 20:19:30","新北市永和區永和路二段93號","121.514813333333","25.0115016666667","6500400","永和區"
"234070","552-UM","2018/03/17 20:19:38","新北市永和區福和路263巷7弄1號","121.517888333333","25.0069883333333","6500400","永和區"
"234017","745-BX","2018/03/17 20:19:33","新北市永和區仁愛路30號","121.514626666667","25.0134633333333","6500400","永和區"
"234030","746-BX","2018/03/17 20:19:39","新北市永和區民有街73號","121.51816","24.9956866666667","6500400","永和區"
"234054","KEA-2590","2018/03/17 20:19:35","新北市永和區光復街2巷24號","121.51756","25.0165616666667","6500400","永和區"
"234013","KEA-2591","2018/03/17 20:19:29","新北市永和區仁愛路278號","121.503741666667","25.0082283333333","6500400","永和區"
"234061","AAD-866","2018/03/17 20:19:42","新北市永和區得和路25號","121.515586666667","25.0003916666667","6500400","永和區"
"234042","862-TW","2018/03/17 20:19:41","新北市中和區中安街168號","121.510875","24.999855","6500400","永和區"
"234050","863-TW","2018/03/17 20:19:41","新北市永和區文化路212號","121.510105","25.0167233333333","6500400","永和區"
"234026","9371-KE","2018/03/17 20:19:37","新北市永和區保生路55號","121.50455","25.0107633333333","6500400","永和區"
"249005","172-UM","2018/03/17 20:19:37","新北市八里區下罟子2-5號","121.38764","25.141675","6502300","八里區"
"249001","173-UM","2018/03/17 20:19:38","新北市八里區中華路二段538號","121.399083333333","25.1450116666667","6502300","八里區"
"249004","303-UY","2018/03/17 20:19:27","新北市八里區中山路一段129巷19-1號","121.413931666667","25.1586316666667","6502300","八里區"
"249002","305-UY","2018/03/17 20:19:29","新北市八里區龍米路一段263-2號","121.449825","25.136825","6502300","八里區"
"249003","593-UM","2018/03/17 20:19:41","新北市八里區華峰一街75號","121.39813","25.14587","6502300","八里區"
"248016","026-BX","2018/03/17 20:19:44","新北市五股區天乙路34號","121.448461666667","25.1034566666667","6501500","五股區"
"248012","247-BX","2018/03/17 20:19:25","新北市五股區六合街124號","121.429928333333","25.0907266666667","6501500","五股區"
"248004","677-BX","2018/03/17 20:19:32","新北市五股區成泰路二段24號","121.436931666667","25.080925","6501500","五股區"
"248002","678-BX","2018/03/17 20:19:41","新北市五股區成泰路三段152號","121.44482","25.09129","6501500","五股區"
"234023","9380-KE","2018/03/17 20:19:25","新北市永和區勵行街30號","121.516356666667","25.0138533333333","6500400","永和區"
"234077","969-R7","2018/03/17 20:19:40","新北市永和區民享街10號","121.515205","24.99535","6500400","永和區"
"234074","AAC-211","2018/03/17 20:19:41","新北市永和區豫溪街160巷4號","121.523276666667","25.0095166666667","6500400","永和區"
"234067","AAC-212","2018/03/17 20:19:28","新北市永和區保平路266號","121.508736666667","25.0051433333333","6500400","永和區"
"234003","AAC-295","2018/03/17 20:19:36","新北市永和區自強街6巷1弄12號","121.514666666667","25.0079516666667","6500400","永和區"
"243012","AAD-798","2018/03/17 20:19:39","新北市泰山區楓江路181號","121.440926666667","25.067295","6501600","泰山區"
"243011","297-R6","2018/03/17 20:19:37","新北市新莊區壽山路160巷21號","121.417355","25.0317566666667","6501600","泰山區"
"243015","380-SR","2018/03/17 20:19:32","新北市泰山區泰林路二段166號","121.43386","25.0604683333333","6501600","泰山區"
"243014","421-VK","2018/03/17 20:19:36","新北市泰山區泰林路二段395號","121.427171666667","25.06428","6501600","泰山區"
"243010","KEA-2215","2018/03/17 20:19:30","新北市泰山區明志路二段246巷9號","121.426456666667","25.0477066666667","6501600","泰山區"
"243009","KEA-2216","2018/03/17 20:19:38","新北市泰山區泰林路二段280巷2號","121.431573333333","25.0624266666667","6501600","泰山區"
"243013","646-TV","2018/03/17 20:19:46","新北市泰山區中央路5巷21號","121.427268333333","25.0432866666667","6501600","泰山區"
"243016","680-BX","2018/03/17 20:19:27","新北市泰山區貴子路2號","121.42508","25.0419683333333","6501600","泰山區"
"222003","436-BY","2018/03/17 20:19:23","新北市深坑區文化街74號","121.618126666667","25.00193","6501800","深坑區"
"222002","659-BX","2018/03/17 20:19:38","新北市深坑區萬福路75巷48號","121.598291666667","25.0099616666667","6501800","深坑區"
"231041","002-UM","2018/03/17 20:19:33","新北市新店區民權路44號","121.54022","24.98292","6500600","新店區"
"231059","046-UY","2018/03/17 20:19:26","新北市新店區安德街154號","121.508256666667","24.9597166666667","6500600","新店區"
"231061","047-UY","2018/03/17 20:19:37","新北市新店區安興路32號","121.51575","24.9703866666667","6500600","新店區"
"231060","106-UY","2018/03/17 20:19:28","新北市新店區錦秀路11巷96弄2號","121.480085","24.9421033333333","6500600","新店區"
"231051","107-UY","2018/03/17 20:19:28","新北市新店區中央六街55號","121.527983333333","24.9758666666667","6500600","新店區"
"231048","108-UY","2018/03/17 20:19:36","新北市新店區中興路三段220巷1號","121.543495","24.982765","6500600","新店區"
"231052","187-VK","2018/03/17 20:19:42","新北市新店區松林路1號","121.546768333333","24.9117766666667","6500600","新店區"
"231050","KEA-2219","2018/03/17 20:19:43","新北市新店區博愛街9巷2號","121.540823333333","24.97294","6500600","新店區"
"221015","KEA-2785","2018/03/17 20:19:24","新北市汐止區建成路142巷19弄15號","121.661888333333","25.073925","6501100","汐止區"
"231057","256-BX","2018/03/17 20:19:42","新北市新店區花園五路二段27號","121.554625","24.9348266666667","6500600","新店區"
"231054","AAD-862","2018/03/17 20:19:36","新北市新店區檳榔路109號","121.544486666667","24.9616283333333","6500600","新店區"
"231058","3712-VJ","2018/03/17 20:19:37","新北市新店區中正路360號","121.535561666667","24.9758116666667","6500600","新店區"
"231056","3713-VJ","2018/03/17 20:19:38","新北市新店區中正路275巷26號","121.536973333333","24.9732116666667","6500600","新店區"
"231055","4716-K9","2018/03/17 20:19:45","新北市新店區安康路一段52巷1號","121.529963333333","24.9612483333333","6500600","新店區"
"231067","4772-VM","2018/03/17 20:19:36","新北市新店區溪洲路101-1號","121.531658333333","24.9621166666667","6500600","新店區"
"231065","512-UM","2018/03/17 20:19:35","新北市新店區安祥路104-2號","121.480338333333","24.9623683333333","6500600","新店區"
"231049","513-UM","2018/03/17 20:19:26","新北市新店區太平路6號","121.534483333333","24.957785","6500600","新店區"
"231064","515-UM","2018/03/17 20:19:39","新北市新店區安利街26號","121.519185","24.9746133333333","6500600","新店區"
"231045","617-UM","2018/03/17 20:19:34","新北市新店區新坡一街10號","121.54839","24.961855","6500600","新店區"
"231040","619-UM","2018/03/17 20:19:42","新北市新店區三民路9號","121.539761666667","24.9723916666667","6500600","新店區"
"231042","641-BX","2018/03/17 20:19:41","新北市新店區寶橋路216號","121.551103333333","24.978585","6500600","新店區"
"231063","645-TV","2018/03/17 20:19:29","新北市新店區安康路二段320巷6號","121.504576666667","24.9595916666667","6500600","新店區"
"231068","718-UY","2018/03/17 20:19:35","新北市新店區寶安街30號","121.542003333333","24.9824366666667","6500600","新店區"
"231062","720-UM","2018/03/17 20:19:27","新北市新店區安泰路7巷16號","121.485648333333","24.9509816666667","6500600","新店區"
"231044","897-TW","2018/03/17 20:19:26","新北市新店區北新路三段140號","121.541651666667","24.9821333333333","6500600","新店區"
"231043","899-TW","2018/03/17 20:19:42","新北市新店區建國路133號","121.539258333333","24.97821","6500600","新店區"
"231066","AKT-0513","2018/03/17 20:19:41","新北市新店區安興路112號","121.514626666667","24.9776766666667","6500600","新店區"
"241011","013-R5","2018/03/17 20:19:36","新北市三重區龍門路160號","121.498748333333","25.0730883333333","6500200","三重區"
"241028","022-UY","2018/03/17 20:19:32","新北市三重區大同南路119號","121.49631","25.0582833333333","6500200","三重區"
"241008","059-VK","2018/03/17 20:19:36","新北市三重區永福街211巷14號","121.479373333333","25.074015","6500200","三重區"
"241009","060-VK","2018/03/17 20:19:42","新北市三重區三和路四段382巷44號","121.48118","25.078485","6500200","三重區"
"241031","061-VK","2018/03/17 20:19:28","新北市三重區三寧街15號","121.48939","25.059745","6500200","三重區"
"241015","062-VK","2018/03/17 20:19:44","新北市三重區重新路一段126號","121.50034","25.06288","6500200","三重區"
"241017","063-VK","2018/03/17 20:19:36","新北市三重區自強路一段232號","121.49346","25.0670333333333","6500200","三重區"
"241026","066-VK","2018/03/17 20:19:42","新北市三重區重新路一段52-1號","121.502695","25.063545","6500200","三重區"
"241003","091-VK","2018/03/17 20:19:32","新北市三重區富華街96號","121.49123","25.08363","6500200","三重區"
"241002","156-TC","2018/03/17 20:19:28","新北市三重區仁義街126號","121.497476666667","25.0803183333333","6500200","三重區"
"241005","262-UM","2018/03/17 20:19:31","新北市三重區仁愛街475號","121.489275","25.0822466666667","6500200","三重區"
"241016","265-UM","2018/03/17 20:19:35","新北市三重區大同北路91號","121.494598333333","25.063685","6500200","三重區"
"241022","267-UM","2018/03/17 20:19:43","新北市三重區市前街6號","121.489033333333","25.06212","6500200","三重區"
"241018","268-UM","2018/03/17 20:19:33","新北市三重區自強路一段155-1號","121.49375","25.06726","6500200","三重區"
"241013","270-UM","2018/03/17 20:19:35","新北市三重區三和路三段167巷16號","121.492436666667","25.07424","6500200","三重區"
"241025","271-UM","2018/03/17 20:19:33","新北市三重區三民街277號","121.479125","25.0681433333333","6500200","三重區"
"241007","398-BY","2018/03/17 20:19:30","新北市三重區溪尾街108巷38號","121.487921666667","25.0783133333333","6500200","三重區"
"241020","413-TH","2018/03/17 20:19:30","新北市三重區三和路三段170巷10號","121.492316666667","25.0729866666667","6500200","三重區"
"241004","475-VK","2018/03/17 20:19:32","新北市三重區自強路四段107-1號","121.491618333333","25.079945","6500200","三重區"
"241001","478-VK","2018/03/17 20:19:24","新北市三重區溪尾街24-1號","121.491093333333","25.0763266666667","6500200","三重區"
"241030","480-VK","2018/03/17 20:19:25","新北市三重區環河南路254巷53號","121.487995","25.052315","6500200","三重區"
"241014","543-UM","2018/03/17 20:19:37","新北市三重區龍濱路249號","121.501565","25.0725666666667","6500200","三重區"
"241023","545-UM","2018/03/17 20:19:34","新北市三重區忠孝路三段99巷11號","121.480103333333","25.0645283333333","6500200","三重區"
"241019","KEA-2593","2018/03/17 20:19:34","新北市三重區大智街139號","121.490746666667","25.0710333333333","6500200","三重區"
"241035","743-BX","2018/03/17 20:19:42","新北市三重區正義北路33巷32號","121.498503333333","25.0638316666667","6500200","三重區"
"241024","887-TS","2018/03/17 20:19:42","新北市三重區忠孝路三段15巷7號","121.481276666667","25.0674733333333","6500200","三重區"
"241012","941-UM","2018/03/17 20:19:32","新北市三重區河邊北街379-1號","121.501723333333","25.07648","6500200","三重區"
"241029","942-UM","2018/03/17 20:19:32","新北市三重區光明路114號","121.492691666667","25.056105","6500200","三重區"
"241033","AAC-255","2018/03/17 20:19:44","新北市三重區五谷王北街50巷2號","121.475931666667","25.0514366666667","6500200","三重區"
"235066","003-UY","2018/03/17 20:19:32","新北市中和區保平路326巷21號","121.50652","25.0045883333333","6500300","中和區"
"235039","097-UM","2018/03/17 20:19:37","新北市中和區自強路10號","121.520285","24.99586","6500300","中和區"
"235065","098-UM","2018/03/17 20:19:35","新北市中和區橋和路302號","121.49695","25.006925","6500300","中和區"
"235040","150-BY","2018/03/17 20:19:40","新北市中和區保健路63號","121.509615","24.997215","6500300","中和區"
"235068","377-QA","2018/03/17 20:19:45","新北市中和區勝利路35巷1弄25號","121.499855","25.00786","6500300","中和區"
"235050","4979-A6","2018/03/17 20:19:45","新北市中和區景安路82巷3號","121.505225","24.9961833333333","6500300","中和區"
"235069","4980-A6","2018/03/17 20:19:38","新北市中和區圓通路229號","121.496275","24.994265","6500300","中和區"
"235059","AAC-215","2018/03/17 20:19:43","新北市中和區員山路30-1號","121.483481666667","24.9878783333333","6500300","中和區"
"247024","893-R6","2018/03/17 20:19:29","新北市蘆洲區光榮路120巷8弄39號","121.464601666667","25.0879216666667","6501400","蘆洲區"
"247014","546-UM","2018/03/17 20:19:34","新北市蘆洲區中山二路137巷44號","121.472393333333","25.0807066666667","6501400","蘆洲區"
"247022","500-BY","2018/03/17 20:19:34","新北市蘆洲區民族路451號","121.467438333333","25.088605","6501400","蘆洲區"
"247010","341-TH","2018/03/17 20:19:28","新北市蘆洲區信義路188巷16號","121.480361666667","25.084565","6501400","蘆洲區"
"247012","339-TH","2018/03/17 20:19:30","新北市蘆洲區中興街13號","121.48055","25.0870466666667","6501400","蘆洲區"
"247004","337-TH","2018/03/17 20:19:43","新北市蘆洲區長安街307號","121.457965","25.0852666666667","6501400","蘆洲區"
"247006","336-TH","2018/03/17 20:19:43","新北市蘆洲區九芎街136號","121.464968333333","25.0790383333333","6501400","蘆洲區"
"247018","057-VK","2018/03/17 20:19:40","新北市蘆洲區民族路392號","121.47511","25.0913683333333","6501400","蘆洲區"
"247008","056-VK","2018/03/17 20:19:41","新北市蘆洲區集賢路300號","121.481565","25.0849683333333","6501400","蘆洲區"
"247016","007-UY","2018/03/17 20:19:32","新北市蘆洲區中正路185巷45弄2號","121.465846666667","25.0837366666667","6501400","蘆洲區"
"247002","002-UY","2018/03/17 20:19:26","新北市蘆洲區環堤大道108號","121.45553","25.0866216666667","6501400","蘆洲區"
"224010","AGQ-8101","2018/03/17 20:19:38","新北市瑞芳區豎崎路1號","121.843485","25.108725","6501200","瑞芳區"
"222001","KEA-2212","2018/03/17 20:19:31","新北市深坑區北深路三段253號","121.599155","25.0043966666667","6501800","深坑區"
"251002","012-UM","2018/03/17 20:19:31","新北市淡水區中正路63號","121.441478333333","25.1694333333333","6501000","淡水區"
"251013","179-VK","2018/03/17 20:19:32","新北市淡水區水汴頭4-3號","121.475671666667","25.2041283333333","6501000","淡水區"
"251014","180-VK","2018/03/17 20:19:36","新北市淡水區石頭厝3號","121.458686666667","25.23555","6501000","淡水區"
"251008","181-VK","2018/03/17 20:19:43","新北市淡水區淡海路180巷27號","121.421805","25.1845516666667","6501000","淡水區"
"251015","182-VK","2018/03/17 20:19:43","新北市淡水區埤島3-23號","121.44776","25.1897433333333","6501000","淡水區"
"251010","413-VK","2018/03/17 20:19:37","新北市淡水區新民街一段153號","121.427463333333","25.188815","6501000","淡水區"
"251012","441-VK","2018/03/17 20:19:42","新北市淡水區興仁路46巷1號","121.453328333333","25.2165983333333","6501000","淡水區"
"251016","442-VK","2018/03/17 20:19:27","新北市淡水區番子田16-13號","121.453781666667","25.231515","6501000","淡水區"
"251005","443-VK","2018/03/17 20:19:30","新北市淡水區埤島7-2號","121.444738333333","25.1923983333333","6501000","淡水區"
"251006","561-UM","2018/03/17 20:19:29","新北市淡水區淡金路一段571號","121.452728333333","25.180545","6501000","淡水區"
"251003","673-BX","2018/03/17 20:19:43","新北市淡水區中山北路一段188-5號","121.44442","25.1791366666667","6501000","淡水區"
"207004","225-TW","2018/03/17 20:19:42","新北市萬里區北基里仁三街2號","121.682388333333","25.1755183333333","6502800","萬里區"
"252002","178-VK","2018/03/17 20:19:28","新北市三芝區中正路一段25號","121.502985","25.2585833333333","6502100","三芝區"
"252001","292-VK","2018/03/17 20:19:28","新北市三芝區中山路一段35號","121.500688333333","25.25797","6502100","三芝區"
"237006","5529-G3","2018/03/17 20:19:34","新北市三峽區嘉添1-3號","121.367796666667","24.91175","6500900","三峽區"
"236073","105-UM","2018/03/17 20:19:43","新北市土城區中山路34號","121.42476","24.9637416666667","6501300","土城區"
"236031","253-BX","2018/03/17 20:19:38","新北市土城區學成路128巷11號","121.449508333333","24.9900083333333","6501300","土城區"
"236026","269-VK","2018/03/17 20:19:43","新北市土城區中央路一段249巷22號","121.446351666667","24.9853983333333","6501300","土城區"
"236015","270-VK","2018/03/17 20:19:26","新北市土城區廣明街90巷20號","121.455496666667","24.9945433333333","6501300","土城區"
"236038","271-VK","2018/03/17 20:19:23","新北市土城區明德路一段289號","121.460306666667","24.97733","6501300","土城區"
"236023","401-BY","2018/03/17 20:19:40","新北市土城區延吉街17號","121.472275","24.9887516666667","6501300","土城區"
"236059","912-UM","2018/03/17 20:19:27","新北市土城區中央路三段24號","121.438656666667","24.96925","6501300","土城區"
"242034","AAC-296","2018/03/17 20:19:37","新北市新莊區建中街90巷3弄3號","121.446591666667","25.037185","6500500","新莊區"
"242058","986-R7","2018/03/17 20:19:32","新北市新莊區四維路213號","121.421706666667","25.0200133333333","6500500","新莊區"
"242053","751-BX","2018/03/17 20:19:32","新北市新莊區民安西路261巷2號","121.426311666667","25.013045","6500500","新莊區"
"242029","705-TV","2018/03/17 20:19:25","新北市新莊區中原路112號","121.450501666667","25.05433","6500500","新莊區"
"242027","615-BX","2018/03/17 20:19:33","新北市新莊區中港路390號","121.452416666667","25.0492666666667","6500500","新莊區"
"242025","613-BX","2018/03/17 20:19:30","新北市新莊區五工一路80巷13號","121.461458333333","25.0670116666667","6500500","新莊區"
"242042","566-BX","2018/03/17 20:19:40","新北市新莊區壽山路73號","121.4096","25.03266","6500500","新莊區"
"242046","497-BY","2018/03/17 20:19:40","新北市新莊區中正路新生巷12號","121.416805","25.0239233333333","6500500","新莊區"
"242002","442-UM","2018/03/17 20:19:30","新北市新莊區化成路32號","121.464983333333","25.0430383333333","6500500","新莊區"
"242051","441-UM","2018/03/17 20:19:44","新北市新莊區民安西路212巷1弄2號","121.425523333333","25.0148466666667","6500500","新莊區"
"242056","440-UM","2018/03/17 20:19:32","新北市新莊區新莊路649巷24號","121.44503","25.032175","6500500","新莊區"
"242036","415-TV","2018/03/17 20:19:37","新北市新莊區後港一路56巷24弄8號","121.426333333333","25.025265","6500500","新莊區"
"242007","413-TV","2018/03/17 20:19:43","新北市新莊區福壽街94巷20號","121.459056666667","25.0500683333333","6500500","新莊區"
"242044","400-BY","2018/03/17 20:19:28","新北市新莊區中正路新建巷28弄83號","121.41352","25.0213733333333","6500500","新莊區"
"242023","362-BY","2018/03/17 20:19:32","新北市新莊區化成路850號","121.464778333333","25.06054","6500500","新莊區"
"242061","353-BY","2018/03/17 20:19:33","新北市新莊區新樹路172-13號","121.43462","25.0217116666667","6500500","新莊區"
"242009","132-UY","2018/03/17 20:19:31","新北市新莊區昌平街1號","121.454875","25.0514016666667","6500500","新莊區"
"242039","133-UY","2018/03/17 20:19:39","新北市新莊區成功街76號","121.424231666667","25.0191166666667","6500500","新莊區"
"242031","135-UY","2018/03/17 20:19:25","新北市新莊區三和路13-8號","121.43932","25.036345","6500500","新莊區"
"242048","172-VK","2018/03/17 20:19:35","新北市新莊區龍安路216號","121.420175","25.0199316666667","6500500","新莊區"
"242017","175-VK","2018/03/17 20:19:22","新北市新莊區中港一街95號","121.449253333333","25.0452266666667","6500500","新莊區"
"242004","176-VK","2018/03/17 20:19:46","新北市新莊區頭前路70-1號","121.466543333333","25.0526466666667","6500500","新莊區"
"242015","346-TH","2018/03/17 20:19:42","新北市新莊區中和街42號","121.448151666667","25.0441466666667","6500500","新莊區"
"242021","348-TH","2018/03/17 20:19:44","新北市新莊區和興街45號","121.44666","25.0406016666667","6500500","新莊區"
"242013","351-TH","2018/03/17 20:19:33","新北市新莊區中和街155巷24弄30號","121.446683333333","25.0510483333333","6500500","新莊區"
"238021","KEA-2539","2018/03/17 20:19:41","新北市樹林區八德街680號","121.396035","24.9688816666667","6500700","樹林區"
"221036","130-UY","2018/03/17 20:19:43","新北市汐止區福安街61巷14號","121.664945","25.06371","6501100","汐止區"
"221010","269-BY","2018/03/17 20:19:27","新北市汐止區八連路二段494號","121.628958333333","25.1061966666667","6501100","汐止區"
"221012","278-VK","2018/03/17 20:19:15","新北市汐止區保新街155號","121.688315","25.0694583333333","6501100","汐止區"
"221023","279-VK","2018/03/17 20:19:44","新北市汐止區明峰街317號","121.625216666667","25.066915","6501100","汐止區"
"221032","280-BY","2018/03/17 20:19:42","新北市汐止區弘道街53巷2號","121.618663333333","25.0483833333333","6501100","汐止區"
"221027","281-BY","2018/03/17 20:19:45","新北市汐止區大同路二段353號","121.6569","25.0672016666667","6501100","汐止區"
"221029","298-VK","2018/03/17 20:19:26","新北市汐止區工建路31號","121.639581666667","25.06341","6501100","汐止區"
"221021","299-VK","2018/03/17 20:19:30","新北市汐止區水源路一段293號","121.654303333333","25.05827","6501100","汐止區"
"221031","353-TW","2018/03/17 20:19:33","新北市汐止區中興路150巷8號","121.63306","25.0648133333333","6501100","汐止區"
"221008","129-UY","2018/03/17 20:19:29","新北市汐止區康寧街165號","121.622198333333","25.0667216666667","6501100","汐止區"
"221035","622-UM","2018/03/17 20:19:39","新北市汐止區長江街101-5號","121.658695","25.0731766666667","6501100","汐止區"
"221025","623-UM","2018/03/17 20:19:28","新北市汐止區水源路二段72巷9弄1號","121.655645","25.0559433333333","6501100","汐止區"
"221038","646-BX","2018/03/17 20:19:33","新北市汐止區忠孝東路446號","121.666148333333","25.0726016666667","6501100","汐止區"
"221033","647-BX","2018/03/17 20:19:41","新北市汐止區東勢街102號","121.63376","25.0415916666667","6501100","汐止區"
"221002","707-TV","2018/03/17 20:19:34","新北市汐止區福德三路69號","121.63672","25.0693183333333","6501100","汐止區"
"221018","753-BX","2018/03/17 20:19:39","新北市汐止區茄安路16號","121.673136666667","25.0679083333333","6501100","汐止區"
"220080","200-UY","2018/03/17 20:19:30","新北市板橋區僑中一街124巷74-5號","121.448203333333","25.0172683333333","6500100","板橋區"
"220083","286-VK","2018/03/17 20:19:34","新北市板橋區僑中二街102巷44號","121.444475","25.00856","6500100","板橋區"
"220081","287-VK","2018/03/17 20:19:32","新北市板橋區僑中一街86號","121.44725","25.011645","6500100","板橋區"
"220061","293-UM","2018/03/17 20:19:32","新北市板橋區四川路一段274巷13號","121.45793","25.0014016666667","6500100","板橋區"
"242011","281-VK","2018/03/17 20:19:35","新北市新莊區中信街23巷1號","121.451005","25.0505816666667","6500500","新莊區"
"220089","487-VK","2018/03/17 20:19:42","新北市板橋區四維路245號","121.46375","25.0275566666667","6500100","板橋區"
"242019","280-VK","2018/03/17 20:19:25","新北市新莊區博愛路7巷1號","121.456136666667","25.0438033333333","6500500","新莊區"
"220103","561-BX","2018/03/17 20:19:43","新北市板橋區漢生東路23巷18號","121.465546666667","25.017625","6500100","板橋區"
"220102","KEA-2699","2018/03/17 20:19:35","新北市板橋區縣民大道三段316號","121.479148333333","25.024155","6500100","板橋區"
"220055","827-TW","2018/03/17 20:19:38","新北市板橋區四川路一段371號","121.458353333333","24.9995516666667","6500100","板橋區"
"220097","AAC-210","2018/03/17 20:19:26","新北市板橋區光正街56號","121.461801666667","25.017935","6500100","板橋區"
"220070","AAC-253","2018/03/17 20:19:27","新北市板橋區四川路二段245巷16-2號","121.45106","24.993015","6500100","板橋區"
