"lineid","car","time","location","longitude","latitude","cityid","cityname"
"234062","337-UY","2018/03/17 21:31:01","新北市永和區福和路1號","121.526516666667","25.0100966666667","6500400","永和區"
"234066","AAC-212","2018/03/17 21:49:28","新北市永和區福和路1號","121.526336666667","25.009495","6500400","永和區"
"243003","297-R6","2018/03/17 21:22:17","新北市泰山區黎明路31號","121.421768333333","25.0606183333333","6501600","泰山區"
"241011","013-R5","2018/03/17 21:49:35","新北市五股區芳洲八路98號","121.447796666667","25.0870366666667","6500200","三重區"
"235010","733-UM","2018/03/17 21:49:42","新北市中和區員山路36巷13號","121.484168333333","24.9907766666667","6500300","中和區"
"247010","341-TH","2018/03/17 21:49:27","新北市八里區中山路三段112號","121.386981666667","25.1460516666667","6501400","蘆洲區"
"251009","008-UM","2018/03/17 21:49:43","新北市淡水區民族路35巷11號","121.464926666667","25.1375666666667","6501000","淡水區"
"251004","009-UM","2018/03/17 21:49:40","新北市淡水區民權路92巷35-1號","121.462301666667","25.1266266666667","6501000","淡水區"
"251001","011-UM","2018/03/17 21:49:36","新北市淡水區新市五路一段162號","121.428505","25.2000816666667","6501000","淡水區"
"251002","012-UM","2018/03/17 21:49:28","新北市淡水區學府路198巷1號","121.44739","25.176195","6501000","淡水區"
"251008","181-VK","2018/03/17 21:49:43","新北市淡水區學府路104號","121.449906666667","25.171815","6501000","淡水區"
"251010","413-VK","2018/03/17 21:49:37","新北市淡水區中正路二段211號","121.42617","25.18912","6501000","淡水區"
"251012","441-VK","2018/03/17 21:49:42","新北市淡水區淡金路三段352號","121.449276666667","25.2090383333333","6501000","淡水區"
"251005","443-VK","2018/03/17 21:49:30","新北市淡水區鄧公路30巷30弄2號","121.453595","25.1697566666667","6501000","淡水區"
"251006","561-UM","2018/03/17 21:49:49","新北市淡水區中正路11巷3號","121.437818333333","25.1707766666667","6501000","淡水區"
"251007","577-R6","2018/03/17 21:49:47","新北市淡水區水源街二段177巷41弄1-1號","121.452693333333","25.1767816666667","6501000","淡水區"
"251011","650-BX","2018/03/17 21:49:37","新北市淡水區新民街322巷5弄1-1號","121.436356666667","25.1829683333333","6501000","淡水區"
"251003","673-BX","2018/03/17 21:49:43","新北市淡水區新民街322巷1號","121.435266666667","25.1836833333333","6501000","淡水區"
"220070","AAC-253","2018/03/17 21:49:27","新北市板橋區華東街1-8號","121.447976666667","24.9948166666667","6500100","板橋區"
