"lineid","car","time","location","longitude","latitude","cityid","cityname"
"247010","341-TH","2018/03/17 22:28:07","新北市八里區荖阡坑路34-1號","121.401055","25.1302883333333","6501400","蘆洲區"
"251004","009-UM","2018/03/17 22:21:40","新北市五股區民義路一段220巷17-15號","121.427181666667","25.0984366666667","6501000","淡水區"
"251008","181-VK","2018/03/17 22:29:43","新北市淡水區學府路104號","121.449946666667","25.1719383333333","6501000","淡水區"
"251010","413-VK","2018/03/17 22:29:37","新北市淡水區沙崙路200號","121.42469","25.1839516666667","6501000","淡水區"
"251007","577-R6","2018/03/17 22:29:47","新北市淡水區北新路180號","121.449408333333","25.1787633333333","6501000","淡水區"
"220070","AAC-253","2018/03/17 22:01:21","新北市板橋區華東街1-9號","121.448268333333","24.994865","6500100","板橋區"
