"lineid","car","time","location","longitude","latitude","cityid","cityname"
"248005","653-BX","2018/01/08 07:09:57","新北市五股區新五路二段69-1號","121.436666666667","25.0728716666667","6501500","五股區"
"232001","290-BY","2018/01/08 07:09:39","新北市坪林區桶盤嶼8-2號","121.707085","24.9575483333333","6502000","坪林區"
"232012","291-BY","2018/01/08 07:09:50","新北市坪林區黃舉皮寮21號","121.688828333333","24.9324166666667","6502000","坪林區"
"232010","375-UM","2018/01/08 07:09:45","新北市坪林區水聳淒坑24號","121.717508333333","24.9238466666667","6502000","坪林區"
"232017","705-BZ","2018/01/08 07:09:56","新北市坪林區九芎坑3-3號","121.727566666667","24.9633216666667","6502000","坪林區"
"232005","758-BX","2018/01/08 07:09:42","新北市坪林區魚堀54-1號","121.7055","24.9310116666667","6502000","坪林區"
"244001","248-BX","2018/01/08 07:09:44","新北市林口區頭湖93號","121.368596666667","25.0818633333333","6501700","林口區"
"222005","289-BY","2018/01/08 07:08:13","新北市深坑區平埔街22巷19號","121.614685","25.001035","6501800","深坑區"
"235011","732-UM","2018/01/08 06:39:37","新北市中和區捷運路129號","121.507071666667","24.9906583333333","6500300","中和區"
"226005","5620-A6","2018/01/08 07:09:54","新北市平溪區靜安路二段125號","121.721691666667","25.023105","6502400","平溪區"
"226001","7418-A5","2018/01/08 07:09:41","新北市平溪區石底里石底街34號","121.739646666667","25.0245916666667","6502400","平溪區"
"226003","AGD-0702","2018/01/08 07:09:48","新北市平溪區靜安路二段125號","121.721678333333","25.0231766666667","6502400","平溪區"
"223006","022-BY","2018/01/08 07:09:49","新北市石碇區新興坑3號","121.655145","25.016175","6501900","石碇區"
"223002","198-BX","2018/01/08 07:09:39","新北市石碇區碇格路二段9號","121.64337","24.9562516666667","6501900","石碇區"
"223001","592-UM","2018/01/08 07:09:52","新北市石碇區摸乳巷8-2號","121.660246666667","24.9811566666667","6501900","石碇區"
"223004","660-BX","2018/01/08 07:09:55","新北市石碇區雙溪52號","121.65171","25.0064333333333","6501900","石碇區"
"223007","661-BX","2018/01/08 07:09:36","新北市石碇區番子坑38-9號","121.678106666667","25.0111533333333","6501900","石碇區"
"227005","282-VK","2018/01/08 07:09:52","新北市雙溪區新基里自強路5號","121.866341666667","25.0390816666667","6502500","雙溪區"
"252006","073-UM","2018/01/08 07:09:45","新北市三芝區古庄里山豬堀2號","121.4996","25.2497583333333","6502100","三芝區"
"252004","249-BX","2018/01/08 07:09:57","新北市三芝區錫板里小坑子11-1號","121.501528333333","25.2356083333333","6502100","三芝區"
"236007","165-UM","2018/01/08 07:09:53","新北市土城區中華路二段181號","121.438601666667","24.9748616666667","6501300","土城區"
"236001","339-SR","2018/01/08 07:09:44","新北市土城區忠義路47號","121.440518333333","24.969305","6501300","土城區"
"220064","282-UM","2018/01/08 07:09:57","新北市板橋區國光路47號","121.457938333333","25.0179733333333","6500100","板橋區"
