"lineid","car","time","location","longitude","latitude","cityid","cityname"
"248005","653-BX","2018/04/14 07:52:54","新北市五股區明德路12巷6號","121.433415","25.0718383333333","6501500","五股區"
"244005","248-BX","2018/04/14 08:09:15","新北市林口區下福里99-2號","121.2872","25.117105","6501700","林口區"
"222004","289-BY","2018/04/14 08:09:07","新北市深坑區雲鄉路260號","121.623291666667","24.9974083333333","6501800","深坑區"
"231007","189-VK","2018/04/14 08:09:25","新北市新店區永業路95號","121.528931666667","24.94885","6500600","新店區"
"231008","192-VK","2018/04/14 08:09:12","新北市新店區北新路一段88巷1號","121.541623333333","24.9678866666667","6500600","新店區"
"226005","5620-A6","2018/04/14 08:09:20","新北市平溪區靜安路二段561號","121.748741666667","25.0246366666667","6502400","平溪區"
"226002","7418-A5","2018/04/14 08:09:20","新北市平溪區十分里姜仔坑11號","121.769283333333","25.036005","6502400","平溪區"
"226003","AGD-0702","2018/04/14 08:09:13","新北市平溪區十分里十分街58巷20號","121.77469","25.0434366666667","6502400","平溪區"
"223006","022-BY","2018/04/14 08:09:08","新北市石碇區石碇東街93號","121.659671666667","24.9906733333333","6501900","石碇區"
"223002","KEA-2673","2018/04/14 08:01:46","新北市石碇區小粗坑(潭邊里)9-2號","121.678683333333","24.9856716666667","6501900","石碇區"
"223001","205-TH","2018/04/14 08:09:26","新北市石碇區北宜路六段十三股巷3號","121.64721","24.94427","6501900","石碇區"
"223008","406-TH","2018/04/14 08:09:22","新北市石碇區靜安路一段212號","121.67251","25.0073316666667","6501900","石碇區"
"223001","592-UM","2018/04/14 08:09:13","新北市石碇區北宜路六段十三股巷3號","121.64788","24.94396","6501900","石碇區"
"223004","660-BX","2018/04/14 08:09:13","新北市石碇區外按16-1號","121.650773333333","24.9975033333333","6501900","石碇區"
"223007","661-BX","2018/04/14 08:09:25","新北市石碇區靜安路一段208號","121.672443333333","25.0072266666667","6501900","石碇區"
"223005","677-TV","2018/04/14 08:09:17","新北市石碇區外按16-1號","121.650808333333","24.99741","6501900","石碇區"
"227006","030-BX","2018/04/14 08:09:21","新北市雙溪區牡丹里聖南8-2號","121.858185","25.0518666666667","6502500","雙溪區"
"252004","249-BX","2018/04/14 08:09:26","新北市三芝區興華里車埕16號","121.502376666667","25.19787","6502100","三芝區"
"252007","AAC-283","2018/04/14 08:09:26","新北市三芝區後厝里土地公坑63-1號","121.46621","25.24554","6502100","三芝區"
"237001","159-UY","2018/04/14 08:09:25","新北市樹林區學成路470號","121.378283333333","24.9448366666667","6500900","三峽區"
"236011","165-UM","2018/04/14 08:09:27","新北市土城區青雲路587巷9-3號","121.466668333333","24.97065","6501300","土城區"
"236002","339-SR","2018/04/14 08:09:10","新北市土城區中州路66號","121.412141666667","24.9581416666667","6501300","土城區"
"236006","498-BY","2018/04/14 08:09:11","新北市土城區永平街51號","121.427601666667","24.9591683333333","6501300","土城區"
"220004","461-BY","2018/04/14 08:08:43","新北市樹林區中山路三段210-2號","121.380688333333","24.9677066666667","6500100","板橋區"
