"lineid","car","time","location","longitude","latitude","cityid","cityname"
"249003","759-BX","2018/04/14 09:39:16","新北市八里區龍米路一段219號","121.451276666667","25.1317783333333","6502300","八里區"
"248005","653-BX","2018/04/14 09:39:17","新北市五股區成泰路一段7巷34號","121.432741666667","25.067035","6501500","五股區"
"222004","289-BY","2018/04/14 09:39:17","新北市深坑區大崙腳1號","121.617153333333","24.9966333333333","6501800","深坑區"
"231007","189-VK","2018/04/14 09:39:25","新北市新店區新潭路三段215巷25號","121.508156666667","24.904065","6500600","新店區"
"231008","192-VK","2018/04/14 09:34:12","新北市新店區平廣路一段247號","121.508743333333","24.8889016666667","6500600","新店區"
"223001","205-TH","2018/04/14 09:39:26","新北市石碇區二格路10號","121.624938333333","24.9629033333333","6501900","石碇區"
"223005","677-TV","2018/04/14 09:34:55","新北市石碇區小粗坑(潭邊里)6號","121.675073333333","24.9841983333333","6501900","石碇區"
"227006","030-BX","2018/04/14 09:32:21","新北市雙溪區長源里柑腳58-1號","121.79398","25.006665","6502500","雙溪區"
"252004","249-BX","2018/04/14 09:39:06","新北市三芝區圓山里石曹子坑66號","121.522865","25.2137016666667","6502100","三芝區"
"252007","AAC-283","2018/04/14 09:39:25","新北市三芝區埔坪里埔頭坑41號","121.50444","25.26449","6502100","三芝區"
"237001","159-UY","2018/04/14 09:39:25","新北市樹林區柑園街二段276巷12弄15號","121.374323333333","24.9536333333333","6500900","三峽區"
"236006","498-BY","2018/04/14 09:39:31","新北市土城區中央路二段396巷30號","121.438316666667","24.97113","6501300","土城區"
