"lineid","car","time","location","longitude","latitude","cityid","cityname"
"249003","759-BX","2018/04/14 09:49:16","新北市八里區龍米路一段219號","121.451333333333","25.1317783333333","6502300","八里區"
"248005","653-BX","2018/04/14 09:49:17","新北市五股區成泰路一段241巷13號","121.435785","25.0810766666667","6501500","五股區"
"222004","289-BY","2018/04/14 09:48:57","新北市深坑區北深路二段2巷11弄1號","121.62195","25.0059533333333","6501800","深坑區"
"231007","189-VK","2018/04/14 09:49:25","新北市新店區新潭路三段215巷25號","121.508155","24.9040616666667","6500600","新店區"
"231008","192-VK","2018/04/14 09:34:12","新北市新店區平廣路一段247號","121.508743333333","24.8889016666667","6500600","新店區"
"223001","205-TH","2018/04/14 09:49:26","新北市石碇區內楒仔腳1號","121.632581666667","24.9701","6501900","石碇區"
"227006","030-BX","2018/04/14 09:48:01","新北市雙溪區長源里盤山坑2-1號","121.784983333333","25.002055","6502500","雙溪區"
"252004","249-BX","2018/04/14 09:49:26","新北市三芝區福德里大水堀21號","121.512351666667","25.2201433333333","6502100","三芝區"
"252007","AAC-283","2018/04/14 09:49:25","新北市三芝區新庄里新庄子92-1號","121.511013333333","25.269315","6502100","三芝區"
"237001","159-UY","2018/04/14 09:49:24","新北市三峽區民生街68號","121.374726666667","24.935945","6500900","三峽區"
