"lineid","car","time","location","longitude","latitude","cityid","cityname"
"249003","759-BX","2018/04/14 09:59:16","新北市八里區龍米路一段221號","121.45145","25.1319433333333","6502300","八里區"
"248005","653-BX","2018/04/14 09:59:17","新北市五股區新五路二段119-10號","121.437973333333","25.0786733333333","6501500","五股區"
"222004","289-BY","2018/04/14 09:59:17","新北市深坑區萬福路199號","121.619911666667","25.0139066666667","6501800","深坑區"
"231007","189-VK","2018/04/14 09:59:25","新北市新店區新潭路三段215巷25號","121.508135","24.90406","6500600","新店區"
"231008","192-VK","2018/04/14 09:34:12","新北市新店區平廣路一段247號","121.508743333333","24.8889016666667","6500600","新店區"
"227006","030-BX","2018/04/14 09:59:21","新北市雙溪區長源里柑腳18號","121.804675","25.0141333333333","6502500","雙溪區"
"252004","249-BX","2018/04/14 09:59:26","新北市三芝區福德里埔尾38號","121.510191666667","25.2352083333333","6502100","三芝區"
"252007","AAC-283","2018/04/14 09:59:25","新北市三芝區新庄里新庄子113-8號","121.516566666667","25.26647","6502100","三芝區"
"237001","159-UY","2018/04/14 09:59:25","新北市三峽區中園街11號","121.368598333333","24.927155","6500900","三峽區"
