"lineid","car","time","location","longitude","latitude","cityid","cityname"
"249003","759-BX","2018/04/14 10:19:16","新北市八里區龍米路一段221號","121.451285","25.1317883333333","6502300","八里區"
"248005","653-BX","2018/04/14 10:19:17","新北市五股區中興路二段37巷26號","121.460506666667","25.0750016666667","6501500","五股區"
"231007","189-VK","2018/04/14 10:19:25","新北市新店區新潭路三段215巷25號","121.508045","24.9040316666667","6500600","新店區"
"231008","192-VK","2018/04/14 10:18:52","新北市新店區小坑一路21-1號","121.530365","24.911095","6500600","新店區"
"227006","030-BX","2018/04/14 10:19:20","新北市雙溪區長源里柑腳18號","121.80468","25.014125","6502500","雙溪區"
"252007","AAC-283","2018/04/14 10:19:25","新北市三芝區新庄里新庄子58-1號","121.507661666667","25.275125","6502100","三芝區"
