"lineid","car","time","location","longitude","latitude","cityid","cityname"
"234078","298-R6","2018/04/14 12:29:19","新北市永和區國中路4號","121.524438333333","25.0044066666667","6500400","永和區"
"234036","336-UY","2018/04/14 12:29:31","新北市永和區福和路1號","121.526616666667","25.0101433333333","6500400","永和區"
"234084","338-UY","2018/04/14 12:29:32","新北市永和區福和路1號","121.526343333333","25.0097983333333","6500400","永和區"
"234015","745-BX","2018/04/14 12:29:25","新北市永和區福和路1號","121.526418333333","25.0096833333333","6500400","永和區"
"234076","969-R7","2018/04/14 12:29:22","新北市永和區福和路1號","121.526445","25.009835","6500400","永和區"
"231013","513-UM","2018/04/14 12:28:23","新北市新店區安康路一段355-3號","121.519721666667","24.961645","6500600","新店區"
"228005","097-TW","2018/04/14 12:29:29","新北市貢寮區福連里蓬萊街16號","121.983015","24.9933433333333","6502600","貢寮區"
"228004","212-TW","2018/04/14 12:29:10","新北市貢寮區龍崗里嵩陽街33號","121.904925","25.0186183333333","6502600","貢寮區"
"207002","749-BX","2018/04/14 12:29:30","新北市萬里區雙興里太和路7-2號","121.658565","25.1739883333333","6502800","萬里區"
"221012","276-VK","2018/04/14 12:29:27","新北市汐止區康寧街901號","121.650976666667","25.0752116666667","6501100","汐止區"
