"lineid","car","time","location","longitude","latitude","cityid","cityname"
"234068","149-BY","2018/04/14 12:59:33","新北市永和區竹林路124巷38號","121.517993333333","25.011555","6500400","永和區"
"234005","207-UY","2018/04/14 12:59:18","新北市永和區永和路二段70號","121.514888333333","25.0110733333333","6500400","永和區"
"234078","298-R6","2018/04/14 12:59:19","新北市永和區永貞路35號","121.520965","25.0065566666667","6500400","永和區"
"234036","336-UY","2018/04/14 12:59:31","新北市永和區成功路二段207號","121.526626666667","24.995905","6500400","永和區"
"234062","337-UY","2018/04/14 12:59:35","新北市永和區秀朗路一段172號","121.518758333333","25.0033416666667","6500400","永和區"
"234084","338-UY","2018/04/14 12:59:32","新北市永和區永寧街131巷1號","121.518081666667","25.0051483333333","6500400","永和區"
"234066","553-UM","2018/04/14 12:59:35","新北市永和區永和路一段1號","121.512953333333","25.0050883333333","6500400","永和區"
"234015","745-BX","2018/04/14 12:59:30","新北市永和區永和路二段297號","121.516065","25.01605","6500400","永和區"
"234030","746-BX","2018/04/14 12:59:35","新北市永和區秀朗路二段289號","121.526191666667","24.99804","6500400","永和區"
"234052","KEA-2590","2018/04/14 12:59:20","新北市永和區竹林路66巷2號","121.518308333333","25.0134116666667","6500400","永和區"
"234012","KEA-2591","2018/04/14 12:59:15","新北市永和區信義路17巷20號","121.51327","25.0112616666667","6500400","永和區"
"234060","AAD-866","2018/04/14 12:59:22","新北市永和區福和路309巷1號","121.516295","25.00707","6500400","永和區"
"234044","847-RS","2018/04/14 12:59:30","新北市永和區得和路373巷16弄9號","121.525525","25.0000983333333","6500400","永和區"
"234040","862-TW","2018/04/14 12:59:34","新北市永和區永貞路267號","121.511905","25.004715","6500400","永和區"
"234048","863-TW","2018/04/14 12:59:17","新北市永和區文化路208號","121.510245","25.016535","6500400","永和區"
"234025","9371-KE","2018/04/14 12:59:24","新北市永和區永和路一段5號","121.512783333333","25.0052183333333","6500400","永和區"
"234010","9373-KE","2018/04/14 12:59:22","新北市永和區文化路113巷19號","121.513256666667","25.0140583333333","6500400","永和區"
"248017","225-UY","2018/04/14 12:59:29","新北市五股區中興路二段83巷26-3號","121.460133333333","25.0753833333333","6501500","五股區"
"234022","9380-KE","2018/04/14 12:59:29","新北市永和區竹林路75巷33弄3號","121.52056","25.0142983333333","6500400","永和區"
"234076","969-R7","2018/04/14 12:59:23","新北市永和區民享街10號","121.515263333333","24.995375","6500400","永和區"
"234072","AAC-211","2018/04/14 12:59:33","新北市永和區環河東路二段100號","121.52416","25.0103","6500400","永和區"
"234001","AAC-295","2018/04/14 12:59:33","新北市永和區永和路一段135巷2號","121.513906666667","25.0087266666667","6500400","永和區"
"231027","0293-UT","2018/04/14 12:59:29","新北市新店區安華路28-1號","121.519736666667","24.9606","6500600","新店區"
"231028","046-UY","2018/04/14 12:59:22","新北市新店區安華路28-1號","121.519463333333","24.960995","6500600","新店區"
"231001","047-UY","2018/04/14 12:59:19","新北市新店區安華路28-1號","121.51921","24.96108","6500600","新店區"
"231005","106-UY","2018/04/14 12:59:30","新北市新店區安華路28-1號","121.519708333333","24.96073","6500600","新店區"
"231012","187-VK","2018/04/14 12:59:24","新北市新店區安華路28-1號","121.519633333333","24.9613816666667","6500600","新店區"
"231010","188-VK","2018/04/14 12:59:20","新北市新店區安華路28-1號","121.519483333333","24.9614033333333","6500600","新店區"
"231023","KEA-2219","2018/04/14 12:59:20","新北市新店區安華路28-1號","121.519918333333","24.9611466666667","6500600","新店區"
"231026","256-BX","2018/04/14 12:59:28","新北市新店區安華路28-1號","121.519713333333","24.9611466666667","6500600","新店區"
"231017","AAD-862","2018/04/14 12:59:14","新北市新店區安華路28-1號","121.519893333333","24.9611483333333","6500600","新店區"
"231037","4716-K9","2018/04/14 12:59:33","新北市新店區安華路28-1號","121.519405","24.9612583333333","6500600","新店區"
"231025","4715-K9","2018/04/14 12:59:25","新北市新店區安華路28-1號","121.51952","24.9605983333333","6500600","新店區"
"231036","512-UM","2018/04/14 12:59:27","新北市新店區安華路28-1號","121.519335","24.9614366666667","6500600","新店區"
"231013","513-UM","2018/04/14 12:59:30","新北市新店區安華路28-1號","121.519725","24.96137","6500600","新店區"
"231006","617-UM","2018/04/14 12:49:13","新北市新店區安華路28-1號","121.519623333333","24.96137","6500600","新店區"
"231003","645-TV","2018/04/14 12:59:18","新北市新店區安華路28-1號","121.51944","24.9607066666667","6500600","新店區"
"231035","719-UM","2018/04/14 12:59:26","新北市新店區安華路28-1號","121.519563333333","24.96139","6500600","新店區"
"231033","720-UM","2018/04/14 12:59:32","新北市新店區安華路28-1號","121.519573333333","24.9613966666667","6500600","新店區"
"231029","897-TW","2018/04/14 12:59:24","新北市新店區安華路28-1號","121.519756666667","24.960895","6500600","新店區"
"231004","899-TW","2018/04/14 12:59:34","新北市新店區安華路28-1號","121.519401666667","24.9610633333333","6500600","新店區"
"235028","005-UY","2018/04/14 12:59:17","新北市中和區和城路一段271巷1號","121.485546666667","24.99214","6500300","中和區"
"235027","006-UY","2018/04/14 12:59:24","新北市中和區員山路36巷16-3號","121.484996666667","24.99128","6500300","中和區"
"235029","098-UM","2018/04/14 12:59:13","新北市中和區連城路174巷42號","121.494461666667","25.0005883333333","6500300","中和區"
"235022","151-BY","2018/04/14 12:59:22","新北市中和區圓通路367巷18-4號","121.49186","24.9886616666667","6500300","中和區"
"235002","185-VK","2018/04/14 12:59:24","新北市中和區秀朗路三段10巷14弄24-5號","121.525061666667","24.997205","6500300","中和區"
"235031","255-BX","2018/04/14 12:59:24","新北市中和區中山路二段550號","121.483816666667","25.005285","6500300","中和區"
"235001","611-BX","2018/04/14 12:59:30","新北市中和區中山路三段136巷29號","121.473665","25.007765","6500300","中和區"
"235018","640-BX","2018/04/14 12:59:17","新北市中和區員山路36巷16-2號","121.485035","24.9919433333333","6500300","中和區"
"235011","732-UM","2018/04/14 12:59:28","新北市中和區錦和路350-1號","121.49056","24.9936183333333","6500300","中和區"
"235035","783-BX","2018/04/14 12:59:28","新北市中和區民樂路81號","121.484628333333","25.0013166666667","6500300","中和區"
"235016","805-TS","2018/04/14 12:59:26","新北市中和區員山路36巷16號","121.484361666667","24.9916133333333","6500300","中和區"
"235017","900-TW","2018/04/14 12:59:28","新北市中和區員山路36巷16-4號","121.485196666667","24.9919333333333","6500300","中和區"
"235001","157-BY","2018/04/14 12:59:33","新北市中和區員山路36巷13號","121.484158333333","24.990945","6500300","中和區"
"235001","AAC-213","2018/04/14 12:59:22","新北市中和區圓通路208號","121.496035","24.9940616666667","6500300","中和區"
"228005","097-TW","2018/04/14 12:59:29","新北市貢寮區福隆里東興街31-1號","121.953778333333","25.02114","6502600","貢寮區"
"228004","212-TW","2018/04/14 12:59:30","新北市貢寮區吉林里內寮街10-1號","121.887263333333","24.9888466666667","6502600","貢寮區"
"207002","749-BX","2018/04/14 12:59:30","新北市萬里區雙興里大坪路37-4號","121.629488333333","25.1693283333333","6502800","萬里區"
"207001","662-BX","2018/04/14 12:59:22","新北市萬里區萬里里獅頭路23號","121.693553333333","25.1784033333333","6502800","萬里區"
"236006","498-BY","2018/04/14 12:59:17","新北市土城區亞洲路32巷2號","121.435846666667","24.9744266666667","6501300","土城區"
"221012","276-VK","2018/04/14 12:59:27","新北市汐止區中正路205號","121.658441666667","25.0688933333333","6501100","汐止區"
"221032","280-BY","2018/04/14 12:59:26","新北市汐止區建成路39號","121.663091666667","25.0730066666667","6501100","汐止區"
