"lineid","car","time","location","longitude","latitude","cityid","cityname"
"234068","149-BY","2018/04/14 14:29:33","新北市永和區永亨路7號","121.519406666667","25.0056966666667","6500400","永和區"
"234005","207-UY","2018/04/14 14:29:17","新北市永和區秀朗路一段195巷1號","121.517641666667","25.0037016666667","6500400","永和區"
"234062","337-UY","2018/04/14 14:29:15","新北市永和區中正路520號","121.517266666667","25.0048766666667","6500400","永和區"
"234084","338-UY","2018/04/14 14:29:32","新北市永和區光復街21號","121.516496666667","25.0174066666667","6500400","永和區"
"234066","553-UM","2018/04/14 14:29:35","新北市中和區保平路231號","121.50797","25.0044333333333","6500400","永和區"
"234030","746-BX","2018/04/14 14:29:35","新北市永和區民權路82號","121.519871666667","24.99712","6500400","永和區"
"234052","KEA-2590","2018/04/14 14:29:20","新北市永和區環河東路一段80號","121.519608333333","25.016535","6500400","永和區"
"234060","AAD-866","2018/04/14 14:29:23","新北市永和區秀朗路一段112號","121.51677","25.0037916666667","6500400","永和區"
"234040","862-TW","2018/04/14 14:29:18","新北市永和區安樂路342號","121.514475","25.0061766666667","6500400","永和區"
"234048","863-TW","2018/04/14 14:29:23","新北市永和區新生路92巷3弄1號","121.507101666667","25.0150783333333","6500400","永和區"
"234025","9371-KE","2018/04/14 14:29:23","新北市永和區安樂路64號","121.514918333333","24.99816","6500400","永和區"
"234010","9373-KE","2018/04/14 14:29:22","新北市永和區保生路55-1號","121.504423333333","25.0109733333333","6500400","永和區"
"248017","225-UY","2018/04/14 14:19:29","新北市五股區壟路20-1號","121.413363333333","25.0850633333333","6501500","五股區"
"234072","AAC-211","2018/04/14 14:29:32","新北市永和區環河東路一段124號","121.520668333333","25.0154283333333","6500400","永和區"
"234001","AAC-295","2018/04/14 14:29:33","新北市永和區大新街45巷1號","121.515501666667","25.0086233333333","6500400","永和區"
"222002","016-RS","2018/04/14 14:07:46","新北市深坑區深南路88巷1號","121.621181666667","25.011725","6501800","深坑區"
"231002","002-UM","2018/04/14 14:29:33","新北市新店區中正路374號","121.535068333333","24.9763033333333","6500600","新店區"
"231027","0293-UT","2018/04/14 14:29:29","新北市新店區德正街21巷1號","121.543885","24.9722516666667","6500600","新店區"
"231028","046-UY","2018/04/14 14:29:32","新北市新店區安和路一段1號","121.516728333333","24.963885","6500600","新店區"
"231001","047-UY","2018/04/14 14:29:19","新北市新店區北新路一段96巷23號","121.543033333333","24.9688716666667","6500600","新店區"
"231005","106-UY","2018/04/14 14:29:30","新北市新店區順安街15號","121.540968333333","24.9854083333333","6500600","新店區"
"231012","187-VK","2018/04/14 14:29:24","新北市新店區寶興路61巷1號","121.550831666667","24.9720783333333","6500600","新店區"
"231023","KEA-2219","2018/04/14 14:29:20","新北市新店區光明街190號","121.53966","24.962275","6500600","新店區"
"231018","278-BY","2018/04/14 14:29:21","新北市新店區中央路216-1號","121.529865","24.973165","6500600","新店區"
"231017","AAD-862","2018/04/14 14:29:33","新北市新店區北宜路三段221號","121.592375","24.9532583333333","6500600","新店區"
"231038","3713-VJ","2018/04/14 14:29:29","新北市新店區溪洲路181號","121.529676666667","24.9652116666667","6500600","新店區"
"231037","4716-K9","2018/04/14 14:29:32","新北市新店區安興路20號","121.515016666667","24.9659866666667","6500600","新店區"
"231036","512-UM","2018/04/14 14:29:31","新北市新店區安祥路109巷8號","121.4754","24.9588666666667","6500600","新店區"
"231013","513-UM","2018/04/14 14:29:30","新北市新店區民權路90巷21號","121.53617","24.9836416666667","6500600","新店區"
"231006","617-UM","2018/04/14 14:29:30","新北市新店區北宜路二段417號","121.560106666667","24.9545483333333","6500600","新店區"
"231030","618-UM","2018/04/14 14:29:18","新北市新店區安民街80號","121.516603333333","24.9669383333333","6500600","新店區"
"231034","641-BX","2018/04/14 14:29:33","新北市新店區車子路11號","121.502931666667","24.9518233333333","6500600","新店區"
"231003","645-TV","2018/04/14 14:29:18","新北市新店區中興路一段268-1號","121.545101666667","24.9678","6500600","新店區"
"231035","719-UM","2018/04/14 14:29:26","新北市新店區安和路二段77號","121.518256666667","24.9688516666667","6500600","新店區"
"231020","719-UY","2018/04/14 14:29:36","新北市新店區桂山路37號","121.56167","24.9049716666667","6500600","新店區"
"231033","720-UM","2018/04/14 14:29:32","新北市新店區溪洲路121號","121.530968333333","24.9626466666667","6500600","新店區"
"231029","897-TW","2018/04/14 14:29:24","新北市新店區安康路二段436號","121.495823333333","24.9549583333333","6500600","新店區"
"231004","899-TW","2018/04/14 14:29:34","新北市新店區中正路263-5號","121.538245","24.9739033333333","6500600","新店區"
"231024","AKT-0513","2018/04/14 14:29:33","新北市新店區環河路103-6號","121.531403333333","24.9710366666667","6500600","新店區"
"235030","003-UY","2018/04/14 14:29:15","新北市中和區中和路110號","121.502931666667","24.9996366666667","6500300","中和區"
"235028","005-UY","2018/04/14 14:29:18","新北市中和區南山路47號","121.502108333333","24.9985633333333","6500300","中和區"
"235027","006-UY","2018/04/14 14:29:23","新北市中和區連城路171巷41弄1號","121.496218333333","24.9965983333333","6500300","中和區"
"235020","096-UM","2018/04/14 14:29:29","新北市中和區員山路514巷2號","121.479343333333","25.0096316666667","6500300","中和區"
"235003","097-UM","2018/04/14 14:29:18","新北市中和區秀峰街119巷8弄1號","121.519316666667","24.9891466666667","6500300","中和區"
"235029","098-UM","2018/04/14 14:29:33","新北市中和區永和路1-1號","121.499851666667","25.0030383333333","6500300","中和區"
"235004","150-BY","2018/04/14 14:29:28","新北市中和區保健路106巷24號","121.511371666667","24.9947533333333","6500300","中和區"
"235022","151-BY","2018/04/14 14:29:22","新北市中和區連城路346-1號","121.482401666667","24.99566","6500300","中和區"
"235019","183-VK","2018/04/14 14:29:34","新北市中和區中山路三段181巷18弄11號","121.47274","25.0048083333333","6500300","中和區"
"235002","185-VK","2018/04/14 14:29:24","新北市中和區自立路29巷2號","121.522401666667","24.9957133333333","6500300","中和區"
"235013","186-VK","2018/04/14 14:29:29","新北市中和區景新街285巷20號","121.510623333333","24.9936216666667","6500300","中和區"
"235031","255-BX","2018/04/14 14:28:04","新北市中和區員山路124巷38號","121.482595","24.995935","6500300","中和區"
"235008","293-VK","2018/04/14 14:29:20","新北市中和區景安路247號","121.504016666667","24.9908216666667","6500300","中和區"
"235036","301-VK","2018/04/14 14:29:22","新北市中和區中山路二段3巷22弄24號","121.505943333333","25.0045166666667","6500300","中和區"
"235007","352-BY","2018/04/14 14:29:21","新北市中和區景平路320號","121.512256666667","24.9927316666667","6500300","中和區"
"235032","377-QA","2018/04/14 14:15:53","新北市中和區圓通路137號","121.499001666667","24.99563","6500300","中和區"
"235025","378-QA","2018/04/14 14:29:33","新北市中和區民利街61巷15號","121.478821666667","24.998055","6500300","中和區"
"235024","269-TV","2018/04/14 14:29:35","新北市中和區中山路三段37巷47號","121.480066666667","25.00458","6500300","中和區"
"235014","4979-A6","2018/04/14 14:29:32","新北市中和區員山路36巷16-3號","121.484658333333","24.990945","6500300","中和區"
"235006","551-UM","2018/04/14 14:29:18","新北市中和區安樂路217巷29號","121.513558333333","24.998155","6500300","中和區"
"235009","565-BX","2018/04/14 14:29:27","新北市中和區景新街483號","121.513566666667","24.9874933333333","6500300","中和區"
"235018","640-BX","2018/04/14 14:29:37","新北市中和區國光街112巷22弄2-4號","121.469743333333","25.00218","6500300","中和區"
"235011","732-UM","2018/04/14 14:29:28","新北市中和區景平路259巷24號","121.50744","24.992835","6500300","中和區"
"235010","733-UM","2018/04/14 14:29:24","新北市中和區忠孝街37巷76號","121.511051666667","24.98499","6500300","中和區"
"235035","783-BX","2018/04/14 14:29:28","新北市中和區連城路469巷40號","121.483526666667","24.9946633333333","6500300","中和區"
"235026","800-TS","2018/04/14 14:29:35","新北市中和區中山路二段526巷27號","121.485713333333","25.0058066666667","6500300","中和區"
"235021","801-TS","2018/04/14 14:29:33","新北市中和區員山路300號","121.481411666667","25.002615","6500300","中和區"
"235016","805-TS","2018/04/14 14:29:26","新北市中和區華新街143巷65弄1號","121.506566666667","24.9790833333333","6500300","中和區"
"235012","896-TW","2018/04/14 14:29:33","新北市中和區忠孝街60巷7號","121.511701666667","24.9838216666667","6500300","中和區"
"235017","900-TW","2018/04/14 14:29:28","新北市中和區民德路198號","121.468231666667","24.9988466666667","6500300","中和區"
"235034","911-UM","2018/04/14 14:29:34","新北市中和區南山路75號","121.502078333333","24.9981283333333","6500300","中和區"
"235001","157-BY","2018/04/14 14:29:33","新北市中和區中興街134號","121.499791666667","24.9921083333333","6500300","中和區"
"235001","AAC-213","2018/04/14 14:29:22","新北市中和區秀朗路三段10巷13號","121.52577","24.9964616666667","6500300","中和區"
"235023","AAC-215","2018/04/14 14:29:16","新北市中和區錦和路203巷3號","121.491068333333","24.9904616666667","6500300","中和區"
"220016","013-TV","2018/04/14 14:29:28","新北市板橋區中山路二段559-2號","121.484365","25.0220333333333","6500100","板橋區"
"220013","072-UY","2018/04/14 14:29:31","新北市板橋區實踐路93巷43弄1號","121.46575","25.0053116666667","6500100","板橋區"
"220034","073-UY","2018/04/14 14:29:35","新北市板橋區中正路218號","121.45604","25.018415","6500100","板橋區"
"220105","075-UY","2018/04/14 14:29:30","新北市板橋區文化路二段417巷8號","121.474273333333","25.0330783333333","6500100","板橋區"
"220017","AAD-861","2018/04/14 14:29:22","新北市板橋區縣民大道一段64巷2號","121.455205","25.0039683333333","6500100","板橋區"
"247023","893-R6","2018/04/14 14:29:29","新北市蘆洲區中正路263巷2號","121.467388333333","25.0874533333333","6501400","蘆洲區"
"247013","546-UM","2018/04/14 14:29:25","新北市蘆洲區中正路87號","121.469981666667","25.0837583333333","6501400","蘆洲區"
"247009","341-TH","2018/04/14 14:29:21","新北市蘆洲區三民路26巷20弄1號","121.47741","25.0827916666667","6501400","蘆洲區"
"247011","339-TH","2018/04/14 14:29:14","新北市蘆洲區中興街132號","121.48225","25.0894233333333","6501400","蘆洲區"
"247003","337-TH","2018/04/14 14:29:22","新北市蘆洲區長安街307號","121.457871666667","25.08528","6501400","蘆洲區"
"247005","336-TH","2018/04/14 14:29:18","新北市蘆洲區長安街68巷23號","121.463703333333","25.0808766666667","6501400","蘆洲區"
"247007","056-VK","2018/04/14 14:29:26","新北市蘆洲區民生街38號","121.474043333333","25.0786766666667","6501400","蘆洲區"
"247017","053-VK","2018/04/14 14:29:14","新北市蘆洲區復興路252號","121.479926666667","25.0896983333333","6501400","蘆洲區"
"247015","007-UY","2018/04/14 14:29:26","新北市蘆洲區中正路185巷62號","121.466678333333","25.0847866666667","6501400","蘆洲區"
"247001","002-UY","2018/04/14 14:29:15","新北市蘆洲區永樂街38巷33弄44號","121.456958333333","25.0898833333333","6501400","蘆洲區"
"247019","001-UY","2018/04/14 14:29:23","新北市蘆洲區水湳街389號","121.46989","25.0937783333333","6501400","蘆洲區"
"235005","251-BX","2018/04/14 14:29:30","新北市中和區中和路260號","121.507771666667","24.999385","6500300","中和區"
"228005","097-TW","2018/04/14 14:29:29","新北市貢寮區美豐里巫里岸9-1號","121.901943333333","25.07014","6502600","貢寮區"
"228004","212-TW","2018/04/14 14:29:30","新北市貢寮區雙玉里田寮洋街33-1號","121.932158333333","25.0145166666667","6502600","貢寮區"
"253003","6232-TK","2018/04/14 14:29:25","新北市石門區阿里磅84號","121.583196666667","25.2643133333333","6502200","石門區"
"253001","6251-TK","2018/04/14 14:29:33","新北市石門區崁子腳80號","121.531216666667","25.2782933333333","6502200","石門區"
"253002","637-UY","2018/04/14 14:29:33","新北市石門區七股4-1號","121.546808333333","25.2730683333333","6502200","石門區"
"253004","8270-PC","2018/04/14 14:26:26","新北市石門區內阿里磅55號","121.579263333333","25.2492533333333","6502200","石門區"
"207002","749-BX","2018/04/14 14:28:10","新北市萬里區溪底里福德坑路10號","121.625465","25.1568316666667","6502800","萬里區"
"207001","662-BX","2018/04/14 14:29:21","新北市萬里區磺潭里員潭路5-1號","121.646451666667","25.2000133333333","6502800","萬里區"
"252005","AAC-283","2018/04/14 14:29:19","新北市三芝區橫山里大坑98-2號","121.526435","25.260385","6502100","三芝區"
"236068","105-UM","2018/04/14 14:29:21","新北市土城區永豐路205-5號","121.47453","24.97787","6501300","土城區"
"236040","107-UM","2018/04/14 14:29:36","新北市土城區裕民路61巷15號","121.449726666667","24.9885733333333","6501300","土城區"
"236074","166-UM","2018/04/14 14:29:21","新北市土城區中央路四段47號","121.422251666667","24.9617","6501300","土城區"
"236029","253-BX","2018/04/14 14:29:36","新北市土城區順風路7號","121.440075","24.97634","6501300","土城區"
"236024","269-VK","2018/04/14 14:29:37","新北市土城區承天路43巷4號","121.439186666667","24.9639366666667","6501300","土城區"
"236013","270-VK","2018/04/14 14:29:36","新北市土城區青雲路39巷7號","121.46031","24.98759","6501300","土城區"
"236032","271-VK","2018/04/14 14:29:32","新北市土城區青雲路453號","121.458725","24.9746383333333","6501300","土城區"
"236017","401-BY","2018/04/14 14:29:35","新北市土城區永豐路202巷14號","121.466551666667","24.9834333333333","6501300","土城區"
"236057","912-UM","2018/04/14 14:29:25","新北市土城區中央路四段316號","121.413733333333","24.9559633333333","6501300","土城區"
"236045","913-UM","2018/04/14 14:29:28","新北市土城區明德路一段311號","121.459463333333","24.9771366666667","6501300","土城區"
"236060","915-UM","2018/04/14 14:29:21","新北市土城區延壽路77巷4弄33號","121.469053333333","24.9933016666667","6501300","土城區"
"236054","AAC-216","2018/04/14 14:29:34","新北市土城區中華路一段247號","121.440846666667","24.981585","6501300","土城區"
"242048","172-VK","2018/04/14 14:29:19","新北市樹林區八德街395號","121.415775","24.9715316666667","6500500","新莊區"
"221012","276-VK","2018/04/14 14:29:27","新北市汐止區明峰街2巷2號","121.635706666667","25.0711033333333","6501100","汐止區"
"220027","145-BY","2018/04/14 14:29:33","新北市板橋區民權路202巷13弄28號","121.458836666667","25.0163683333333","6500100","板橋區"
"220028","200-UY","2018/04/14 14:29:17","新北市板橋區大觀路二段37巷208號","121.449368333333","25.0011133333333","6500100","板橋區"
"220030","610-BX","2018/04/14 14:29:34","新北市板橋區金門街124號","121.432865","24.991365","6500100","板橋區"
"220050","245-BX","2018/04/14 14:29:29","新北市板橋區縣民大道三段93巷20號","121.47527","25.0224233333333","6500100","板橋區"
"220052","257-TC","2018/04/14 14:29:36","新北市板橋區介壽街3號","121.467278333333","25.0204933333333","6500100","板橋區"
"220040","267-BY","2018/04/14 14:29:29","新北市板橋區文聖街135巷25號","121.478981666667","25.028955","6500100","板橋區"
"220020","277-BY","2018/04/14 14:29:26","新北市板橋區金門街289號","121.430908333333","24.9873666666667","6500100","板橋區"
"220018","282-UM","2018/04/14 14:29:23","新北市板橋區館前東路80號","121.461618333333","25.007285","6500100","板橋區"
"220019","283-VK","2018/04/14 14:29:29","新北市板橋區忠孝路2號","121.45943","25.0016133333333","6500100","板橋區"
"220043","285-UM","2018/04/14 14:29:28","新北市板橋區松江街124巷4號","121.469385","25.03034","6500100","板橋區"
"220001","285-VK","2018/04/14 14:29:36","新北市板橋區永豐街193號","121.476225","25.0209333333333","6500100","板橋區"
"220031","286-VK","2018/04/14 14:29:19","新北市板橋區龍興街65巷26號","121.443095","25.001615","6500100","板橋區"
"220029","287-VK","2018/04/14 14:29:30","新北市板橋區大觀路一段75巷43號","121.44912","25.0041416666667","6500100","板橋區"
"220039","288-VK","2018/04/14 14:29:24","新北市板橋區長江路一段106巷20弄11號","121.460141666667","25.0282766666667","6500100","板橋區"
"220009","293-UM","2018/04/14 14:29:20","新北市板橋區中山路一段293-1號","121.470676666667","25.014345","6500100","板橋區"
"220023","303-R5","2018/04/14 14:29:37","新北市板橋區中正路275巷93號","121.4509","25.01816","6500100","板橋區"
"220010","305-R5","2018/04/14 14:29:25","新北市板橋區三民路二段181巷3號","121.47975","25.0144216666667","6500100","板橋區"
"220041","307-R5","2018/04/14 14:29:27","新北市板橋區光武街4巷25號","121.468208333333","25.0259383333333","6500100","板橋區"
"220047","317-R6","2018/04/14 14:29:21","新北市板橋區莊敬路140巷9號","121.470555","25.0229433333333","6500100","板橋區"
"220012","486-VK","2018/04/14 14:29:33","新北市板橋區中山路一段104號","121.462533333333","25.0103683333333","6500100","板橋區"
"220037","491-VK","2018/04/14 14:29:32","新北市板橋區雙十路二段4-6號","121.47712","25.0258583333333","6500100","板橋區"
"220104","560-BX","2018/04/14 14:29:27","新北市板橋區新生街98巷24號","121.459148333333","25.0215433333333","6500100","板橋區"
"220032","568-UM","2018/04/14 14:29:24","新北市板橋區溪崑二街138號","121.425841666667","24.98763","6500100","板橋區"
"220011","609-BX","2018/04/14 14:29:31","新北市板橋區三民路二段204-4號","121.47895","25.012495","6500100","板橋區"
"220005","686-BX","2018/04/14 14:29:29","新北市中和區和平路206號","121.463831666667","24.9958966666667","6500100","板橋區"
"220042","689-BX","2018/04/14 14:29:19","新北市板橋區雨農路27巷2號","121.46119","25.0241716666667","6500100","板橋區"
"220002","741-BX","2018/04/14 14:29:17","新北市板橋區四川路一段259號","121.459663333333","25.0023433333333","6500100","板橋區"
"220051","KEA-2699","2018/04/14 14:29:31","新北市板橋區松柏街22巷36號","121.475033333333","25.0289366666667","6500100","板橋區"
"220003","827-TW","2018/04/14 14:29:28","新北市板橋區重慶路290巷3號","121.461593333333","24.9985966666667","6500100","板橋區"
"220014","830-TW","2018/04/14 14:29:24","新北市板橋區漢生東路313巷2弄34號","121.472566666667","25.0077583333333","6500100","板橋區"
"220045","831-TW","2018/04/14 14:29:21","新北市板橋區民生路二段226巷17弄1號","121.470415","25.0219666666667","6500100","板橋區"
"220038","833-TW","2018/04/14 14:29:26","新北市板橋區文化路一段47號","121.460465","25.013235","6500100","板橋區"
"220022","895-R6","2018/04/14 14:29:22","新北市板橋區北門街19號","121.456866666667","25.011045","6500100","板橋區"
"220021","985-R7","2018/04/14 14:29:17","新北市板橋區新生街16號","121.455503333333","25.021185","6500100","板橋區"
"220046","AAC-210","2018/04/14 14:29:33","新北市板橋區漢生西路135號","121.462626666667","25.02159","6500100","板橋區"
"220025","AAC-253","2018/04/14 14:29:25","新北市板橋區僑中二街10巷1號","121.446921666667","25.0109333333333","6500100","板橋區"
