"lineid","car","time","location","longitude","latitude","cityid","cityname"
"248017","225-UY","2018/04/14 15:09:29","新北市五股區登林路97-6號","121.416421666667","25.0752933333333","6501500","五股區"
"231002","002-UM","2018/04/14 15:09:33","新北市新店區中正路669號","121.533866666667","24.9898816666667","6500600","新店區"
"231028","046-UY","2018/04/14 15:09:22","新北市新店區僑信路104號","121.500046666667","24.9472616666667","6500600","新店區"
"231001","047-UY","2018/04/14 15:09:27","新北市新店區中正路190號","121.540585","24.972475","6500600","新店區"
"231005","106-UY","2018/04/14 15:09:30","新北市新店區北新路三段196號","121.541415","24.9833033333333","6500600","新店區"
"231012","187-VK","2018/04/14 15:09:24","新北市新店區寶元路一段65號","121.542235","24.9858366666667","6500600","新店區"
"231023","KEA-2219","2018/04/14 15:09:20","新北市新店區檳榔路109號","121.544415","24.9616283333333","6500600","新店區"
"231026","256-BX","2018/04/14 15:09:36","新北市新店區建安街24號","121.539728333333","24.9754716666667","6500600","新店區"
"231018","278-BY","2018/04/14 15:09:21","新北市新店區中央七街85號","121.526881666667","24.9770233333333","6500600","新店區"
"231017","AAD-862","2018/04/14 15:06:33","新北市新店區明山路93號","121.565165","24.9570033333333","6500600","新店區"
"231038","3713-VJ","2018/04/14 15:09:29","新北市新店區安華路28-1號","121.519861666667","24.9608533333333","6500600","新店區"
"231037","4716-K9","2018/04/14 15:09:32","新北市新店區安興路56號","121.516551666667","24.9749733333333","6500600","新店區"
"231025","4715-K9","2018/04/14 15:09:33","新北市新店區二十張路46巷37弄16號","121.536146666667","24.98186","6500600","新店區"
"231036","512-UM","2018/04/14 15:09:31","新北市新店區安祥路104巷11弄11號","121.480928333333","24.9633866666667","6500600","新店區"
"231006","617-UM","2018/04/14 15:09:30","新北市新店區新坡一街2號","121.547851666667","24.9614983333333","6500600","新店區"
"231030","618-UM","2018/04/14 15:09:18","新北市新店區安民街341-1號","121.516655","24.9748983333333","6500600","新店區"
"231034","641-BX","2018/04/14 15:09:33","新北市新店區玫瑰路4-1號","121.493658333333","24.9513666666667","6500600","新店區"
"231003","645-TV","2018/04/14 15:09:18","新北市新店區寶橋路97號","121.54744","24.9763833333333","6500600","新店區"
"231039","718-UY","2018/04/14 15:09:16","新北市新店區中興路三段226號","121.54333","24.982975","6500600","新店區"
"231035","719-UM","2018/04/14 15:09:26","新北市新店區安和路三段132號","121.516408333333","24.98593","6500600","新店區"
"231020","719-UY","2018/04/14 15:09:36","新北市新店區永福路86-1號","121.562571666667","24.92858","6500600","新店區"
"231033","720-UM","2018/04/14 15:09:32","新北市新店區安泰路60巷55弄1號","121.484315","24.9455583333333","6500600","新店區"
"231029","897-TW","2018/04/14 15:09:24","新北市新店區安康路三段740號","121.473858333333","24.9419383333333","6500600","新店區"
"231004","899-TW","2018/04/14 15:09:34","新北市新店區建國路33巷2號","121.540261666667","24.974215","6500600","新店區"
"231024","AKT-0513","2018/04/14 15:09:33","新北市新店區北新路一段297巷16號","121.540878333333","24.9678116666667","6500600","新店區"
"235030","003-UY","2018/04/14 15:09:35","新北市中和區南工路102號","121.507325","25.0033433333333","6500300","中和區"
"235028","005-UY","2018/04/14 15:09:18","新北市土城區大暖路110巷2號","121.421233333333","24.95739","6500300","中和區"
"235003","097-UM","2018/04/14 15:09:18","新北市中和區宜安路52巷22號","121.51259","24.9974083333333","6500300","中和區"
"235004","150-BY","2018/04/14 15:09:28","新北市中和區安平路38號","121.509733333333","24.9949816666667","6500300","中和區"
"235007","352-BY","2018/04/14 15:09:21","新北市中和區興南路二段159巷12號","121.505183333333","24.9831283333333","6500300","中和區"
"235014","4979-A6","2018/04/14 15:09:32","新北市中和區景新街274巷10號","121.51051","24.99223","6500300","中和區"
"235026","800-TS","2018/04/14 15:09:35","新北市中和區建八路121號","121.489413333333","24.998635","6500300","中和區"
"235012","896-TW","2018/04/14 15:09:33","新北市中和區興南路一段159號","121.508558333333","24.9870516666667","6500300","中和區"
"235034","911-UM","2018/04/14 15:09:34","新北市中和區中正路412號","121.492023333333","24.9942883333333","6500300","中和區"
"235001","AAC-213","2018/04/14 15:09:22","新北市中和區秀朗路三段177號","121.524368333333","24.9911283333333","6500300","中和區"
"235023","AAC-215","2018/04/14 15:09:17","新北市中和區圓通路335巷37弄6號","121.49385","24.9890816666667","6500300","中和區"
"220016","013-TV","2018/04/14 15:09:28","新北市板橋區光復街234-1號","121.484753333333","25.0214366666667","6500100","板橋區"
"228004","212-TW","2018/04/14 15:09:30","新北市貢寮區雙玉里田寮洋街16-2號","121.921818333333","25.0251483333333","6502600","貢寮區"
"253003","6232-TK","2018/04/14 15:09:25","新北市石門區小坑9號","121.59449","25.2892216666667","6502200","石門區"
"253001","6251-TK","2018/04/14 15:09:33","新北市石門區小坑9號","121.594133333333","25.28885","6502200","石門區"
"253002","637-UY","2018/04/14 15:09:33","新北市石門區中央路1-9號","121.56492","25.2911566666667","6502200","石門區"
"253004","8270-PC","2018/04/14 15:09:27","新北市石門區小坑28-2號","121.5957","25.27865","6502200","石門區"
"207002","749-BX","2018/04/14 15:09:30","新北市萬里區崁腳里內中福路64號","121.655068333333","25.167375","6502800","萬里區"
"207001","662-BX","2018/04/14 15:09:13","新北市萬里區磺潭里員潭路36號","121.644286666667","25.1952766666667","6502800","萬里區"
"236068","105-UM","2018/04/14 15:09:16","新北市土城區中央路一段71號","121.447781666667","24.98963","6501300","土城區"
"236040","107-UM","2018/04/14 15:09:36","新北市土城區裕民路251-1號","121.454646666667","24.983125","6501300","土城區"
"236074","166-UM","2018/04/14 15:09:23","新北市土城區中州路26-4號","121.414291666667","24.9577","6501300","土城區"
"236029","253-BX","2018/04/14 15:09:25","新北市土城區中央路一段318巷10號","121.442541666667","24.9819266666667","6501300","土城區"
"236024","269-VK","2018/04/14 15:09:34","新北市土城區中央路二段149巷10弄2號","121.442598333333","24.9761983333333","6501300","土城區"
"236013","270-VK","2018/04/14 15:09:36","新北市土城區學府路一段75巷16弄16號","121.456663333333","24.987215","6501300","土城區"
"236032","271-VK","2018/04/14 15:09:32","新北市土城區明德路一段143號","121.4651","24.9801","6501300","土城區"
"236017","401-BY","2018/04/14 15:09:32","新北市土城區明峰街83號","121.468955","24.9873883333333","6501300","土城區"
"236057","912-UM","2018/04/14 15:09:25","新北市土城區金城路二段23-1號","121.447925","24.9765","6501300","土城區"
"236045","913-UM","2018/04/14 15:09:28","新北市土城區清水路239號","121.461488333333","24.983245","6501300","土城區"
"236054","AAC-216","2018/04/14 15:09:34","新北市土城區學府路一段276號","121.44994","24.98308","6501300","土城區"
"221012","276-VK","2018/04/14 15:09:27","新北市汐止區南興路27號","121.652303333333","25.0610116666667","6501100","汐止區"
"220050","245-BX","2018/04/14 15:09:29","新北市板橋區雙十路二段47巷5-1號","121.476113333333","25.0260666666667","6500100","板橋區"
"220052","257-TC","2018/04/14 15:09:29","新北市板橋區陽明街279巷42-4號","121.460811666667","25.025625","6500100","板橋區"
"220020","277-BY","2018/04/14 15:09:38","新北市板橋區金門街106號","121.433091666667","24.9921616666667","6500100","板橋區"
"220018","282-UM","2018/04/14 15:09:23","新北市板橋區四川路二段245巷37弄10號","121.452196666667","24.992575","6500100","板橋區"
"220019","283-VK","2018/04/14 15:09:29","新北市板橋區四川路二段14號","121.456041666667","24.996375","6500100","板橋區"
"220031","286-VK","2018/04/14 15:09:18","新北市板橋區僑中二街102巷48號","121.444216666667","25.0085716666667","6500100","板橋區"
"220029","287-VK","2018/04/14 15:09:30","新北市板橋區僑中一街102巷7弄20號","121.446136666667","25.0130216666667","6500100","板橋區"
"220009","293-UM","2018/04/14 15:09:20","新北市板橋區中山路一段156號","121.465185","25.0116816666667","6500100","板橋區"
"220041","307-R5","2018/04/14 15:09:27","新北市板橋區漢生西路89巷5弄3號","121.46084","25.0195583333333","6500100","板橋區"
"220037","491-VK","2018/04/14 15:09:32","新北市板橋區懷德街76巷1號","121.477991666667","25.0318466666667","6500100","板橋區"
"220011","609-BX","2018/04/14 15:09:31","新北市板橋區縣民大道三段310號","121.478576666667","25.0236583333333","6500100","板橋區"
"220042","689-BX","2018/04/14 15:09:19","新北市板橋區長江路三段53號","121.473703333333","25.03406","6500100","板橋區"
"220051","KEA-2699","2018/04/14 15:09:32","新北市板橋區民治街139號","121.477485","25.0306733333333","6500100","板橋區"
"220003","827-TW","2018/04/14 15:09:27","新北市板橋區四川路一段367號","121.458383333333","24.99964","6500100","板橋區"
"220014","830-TW","2018/04/14 15:09:24","新北市板橋區中山路一段216巷6號","121.470898333333","25.01292","6500100","板橋區"
"220038","833-TW","2018/04/14 15:09:26","新北市板橋區互助街72號","121.460936666667","25.02658","6500100","板橋區"
"220022","895-R6","2018/04/14 15:09:39","新北市板橋區南雅南路一段3巷25-10號","121.456833333333","25.0056716666667","6500100","板橋區"
"220046","AAC-210","2018/04/14 15:09:33","新北市板橋區公館街104號","121.461258333333","25.016675","6500100","板橋區"
"220025","AAC-253","2018/04/14 15:09:24","新北市板橋區僑中一街124巷62-9號","121.446746666667","25.0171483333333","6500100","板橋區"
