"lineid","car","time","location","longitude","latitude","cityid","cityname"
"248017","225-UY","2018/04/14 15:19:29","新北市五股區成泰路一段104號","121.435891666667","25.0717533333333","6501500","五股區"
"231002","002-UM","2018/04/14 15:19:33","新北市新店區中正路700巷3號","121.533805","24.99123","6500600","新店區"
"231028","046-UY","2018/04/14 15:19:22","新北市新店區僑信路132巷38號","121.499815","24.9454016666667","6500600","新店區"
"231001","047-UY","2018/04/14 15:19:39","新北市新店區北新路一段215號","121.540465","24.9651766666667","6500600","新店區"
"231005","106-UY","2018/04/14 15:19:32","新北市新店區建國路199號","121.537911666667","24.9799666666667","6500600","新店區"
"231012","187-VK","2018/04/14 15:19:24","新北市新店區中興路三段330號","121.54209","24.9864283333333","6500600","新店區"
"231023","KEA-2219","2018/04/14 15:19:20","新北市新店區行政街45號","121.543063333333","24.9656083333333","6500600","新店區"
"231026","256-BX","2018/04/14 15:19:36","新北市新店區中正路247巷4弄1號","121.538791666667","24.9729466666667","6500600","新店區"
"231018","278-BY","2018/04/14 15:19:21","新北市新店區中央八街88號","121.526973333333","24.97754","6500600","新店區"
"231017","AAD-862","2018/04/14 15:19:33","新北市新店區明山路45號","121.563821666667","24.9558866666667","6500600","新店區"
"231038","3713-VJ","2018/04/14 15:19:29","新北市新店區安華路28-1號","121.519785","24.9608866666667","6500600","新店區"
"231037","4716-K9","2018/04/14 15:19:32","新北市新店區安興路69號","121.515926666667","24.975175","6500600","新店區"
"231025","4715-K9","2018/04/14 15:19:25","新北市新店區環河路103-6號","121.531336666667","24.970885","6500600","新店區"
"231036","512-UM","2018/04/14 15:19:31","新北市新店區安祥路69巷17號","121.48193","24.96139","6500600","新店區"
"231006","617-UM","2018/04/14 15:19:30","新北市新店區安康路一段33-1號","121.532328333333","24.9605516666667","6500600","新店區"
"231030","618-UM","2018/04/14 15:19:38","新北市新店區安民街341-1號","121.516768333333","24.9748883333333","6500600","新店區"
"231034","641-BX","2018/04/14 15:19:33","新北市新店區玫瑰路38號","121.495963333333","24.949885","6500600","新店區"
"231003","645-TV","2018/04/14 15:19:18","新北市新店區寶橋路238號","121.551641666667","24.9789466666667","6500600","新店區"
"231039","718-UY","2018/04/14 15:19:36","新北市新店區寶元路一段65號","121.542216666667","24.9858516666667","6500600","新店區"
"231035","719-UM","2018/04/14 15:19:26","新北市新店區安興路112號","121.51495","24.9776633333333","6500600","新店區"
"231020","719-UY","2018/04/14 15:19:36","新北市新店區湖興路109號","121.560526666667","24.9354616666667","6500600","新店區"
"231033","720-UM","2018/04/14 15:19:32","新北市新店區雙城路2巷2號","121.49124","24.9514583333333","6500600","新店區"
"231029","897-TW","2018/04/14 15:19:24","新北市新店區安康路三段738號","121.473853333333","24.9419766666667","6500600","新店區"
"231004","899-TW","2018/04/14 15:19:34","新北市新店區建國路29號","121.540221666667","24.9740683333333","6500600","新店區"
"231024","AKT-0513","2018/04/14 15:19:33","新北市新店區北新路一段99號","121.53904","24.9621366666667","6500600","新店區"
"241013","270-UM","2018/04/14 15:19:25","新北市三重區重新路四段121號","121.48483","25.0524833333333","6500200","三重區"
"235030","003-UY","2018/04/14 15:19:35","新北市中和區中山路二段3巷22弄8號","121.506171666667","25.005005","6500300","中和區"
"235028","005-UY","2018/04/14 15:19:18","新北市鶯歌區中正一路113-1號","121.370415","24.959035","6500300","中和區"
"235004","150-BY","2018/04/14 15:19:28","新北市中和區景安路79巷23號","121.507105","24.9967666666667","6500300","中和區"
"235014","4979-A6","2018/04/14 15:19:32","新北市中和區景平路474號","121.505386666667","24.9937816666667","6500300","中和區"
"235012","896-TW","2018/04/14 15:19:33","新北市中和區景新街377號","121.512306666667","24.9904516666667","6500300","中和區"
"235001","AAC-213","2018/04/14 15:19:22","新北市板橋區民生路三段170號","121.465538333333","25.0280033333333","6500300","中和區"
"235023","AAC-215","2018/04/14 15:19:37","新北市中和區圓通路316號","121.486561666667","24.9877666666667","6500300","中和區"
"253003","6232-TK","2018/04/14 15:19:25","新北市石門區小坑9號","121.594393333333","25.288395","6502200","石門區"
"253001","6251-TK","2018/04/14 15:19:33","新北市石門區小坑9號","121.594358333333","25.2883866666667","6502200","石門區"
"253002","637-UY","2018/04/14 15:19:33","新北市石門區小坑9號","121.593628333333","25.2866833333333","6502200","石門區"
"253004","8270-PC","2018/04/14 15:19:27","新北市石門區小坑9號","121.594496666667","25.2892316666667","6502200","石門區"
"207002","749-BX","2018/04/14 15:19:30","新北市萬里區崁腳里內中福路2-1號","121.669221666667","25.1654533333333","6502800","萬里區"
"207001","662-BX","2018/04/14 15:19:21","新北市萬里區大鵬里萬里加投10號","121.651233333333","25.2069416666667","6502800","萬里區"
"236068","105-UM","2018/04/14 15:19:36","新北市土城區裕民路185巷36弄10號","121.454285","24.9845316666667","6501300","土城區"
"236040","107-UM","2018/04/14 15:19:36","新北市土城區裕民路259巷7號","121.455266666667","24.9831516666667","6501300","土城區"
"236074","166-UM","2018/04/14 15:19:21","新北市土城區溪頭路28-1號","121.412375","24.9552916666667","6501300","土城區"
"236029","253-BX","2018/04/14 15:19:25","新北市土城區中央路一段250巷2號","121.444185","24.984725","6501300","土城區"
"236024","269-VK","2018/04/14 15:19:37","新北市土城區員林街63號","121.444075","24.9775966666667","6501300","土城區"
"236013","270-VK","2018/04/14 15:19:36","新北市土城區廣福街68巷20號","121.458238333333","24.990225","6501300","土城區"
"236032","271-VK","2018/04/14 15:19:32","新北市土城區國際路72-1號","121.466748333333","24.9763416666667","6501300","土城區"
"236017","401-BY","2018/04/14 15:19:33","新北市土城區峰廷街31號","121.46948","24.9865266666667","6501300","土城區"
"236057","912-UM","2018/04/14 15:19:35","新北市土城區中央路二段239-1號","121.44019","24.9719833333333","6501300","土城區"
"236045","913-UM","2018/04/14 15:19:28","新北市土城區明德路一段143號","121.465123333333","24.9802583333333","6501300","土城區"
"236060","915-UM","2018/04/14 15:19:20","新北市土城區延平街71號","121.46764","24.9929116666667","6501300","土城區"
"236054","AAC-216","2018/04/14 15:19:34","新北市土城區青雲路33號","121.460355","24.9883283333333","6501300","土城區"
"221012","276-VK","2018/04/14 15:19:27","新北市汐止區樟樹一路118號","121.642095","25.0638866666667","6501100","汐止區"
"220050","245-BX","2018/04/14 15:19:29","新北市板橋區縣民大道三段32號","121.471506666667","25.0188666666667","6500100","板橋區"
"220052","257-TC","2018/04/14 15:19:36","新北市板橋區文化路一段90號","121.464346666667","25.0176716666667","6500100","板橋區"
"220031","286-VK","2018/04/14 15:19:38","新北市板橋區僑中二街108巷17號","121.444996666667","25.0073266666667","6500100","板橋區"
"220009","293-UM","2018/04/14 15:19:28","新北市板橋區四川路一段286巷12號","121.458345","25.0010633333333","6500100","板橋區"
"220041","307-R5","2018/04/14 15:19:27","新北市板橋區民權路101巷2號","121.459433333333","25.01324","6500100","板橋區"
"220042","689-BX","2018/04/14 15:19:19","新北市板橋區長江路二段8號","121.464686666667","25.03126","6500100","板橋區"
"220051","KEA-2699","2018/04/14 15:19:31","新北市板橋區文化路一段118號","121.464953333333","25.0184783333333","6500100","板橋區"
"220014","830-TW","2018/04/14 15:19:24","新北市板橋區中山路二段494號","121.485433333333","25.0220783333333","6500100","板橋區"
"220038","833-TW","2018/04/14 15:19:26","新北市板橋區四維路156號","121.464885","25.0259083333333","6500100","板橋區"
"220022","895-R6","2018/04/14 15:19:39","新北市板橋區金門街369巷99號","121.428373333333","24.9812416666667","6500100","板橋區"
