"lineid","car","time","location","longitude","latitude","cityid","cityname"
"231046","188-VK","2018/04/14 16:29:31","新北市新店區灣潭路3-3號","121.538221666667","24.9508233333333","6500600","新店區"
"231018","278-BY","2018/04/14 16:29:21","新北市新店區安興路56號","121.516245","24.974475","6500600","新店區"
"241011","013-R5","2018/04/14 16:29:38","新北市三重區秀江街57號","121.500916666667","25.072565","6500200","三重區"
"241028","022-UY","2018/04/14 16:29:32","新北市三重區中正南路212號","121.493935","25.0556066666667","6500200","三重區"
"241008","059-VK","2018/04/14 16:29:32","新北市三重區力行路二段136巷45弄12號","121.479283333333","25.0754066666667","6500200","三重區"
"241009","060-VK","2018/04/14 16:29:17","新北市三重區仁美街97號","121.48591","25.0803583333333","6500200","三重區"
"241031","061-VK","2018/04/14 16:29:27","新北市三重區重陽路一段51號","121.486685","25.0583783333333","6500200","三重區"
"241015","062-VK","2018/04/14 16:29:22","新北市三重區福德北路36號","121.501965","25.0652383333333","6500200","三重區"
"241017","063-VK","2018/04/14 16:29:29","新北市三重區重新路三段1號","121.495548333333","25.0616966666667","6500200","三重區"
"241024","065-VK","2018/04/14 16:29:24","新北市三重區中正北路315巷14號","121.474818333333","25.0714866666667","6500200","三重區"
"241026","066-VK","2018/04/14 16:29:35","新北市三重區文化南路42號","121.500378333333","25.060375","6500200","三重區"
"241002","090-VK","2018/04/14 16:29:26","新北市三重區五華街7巷53號","121.496173333333","25.08058","6500200","三重區"
"241003","091-VK","2018/04/14 16:29:26","新北市三重區仁義街228巷10號","121.494358333333","25.08445","6500200","三重區"
"241005","262-UM","2018/04/14 16:29:36","新北市三重區碧華街167號","121.486965","25.0823683333333","6500200","三重區"
"241016","265-UM","2018/04/14 16:29:31","新北市三重區大智街21號","121.49422","25.06579","6500200","三重區"
"241018","268-UM","2018/04/14 16:29:32","新北市三重區重陽路四段4號","121.490693333333","25.068855","6500200","三重區"
"241032","269-UM","2018/04/14 16:29:25","新北市三重區三陽路100巷3弄15號","121.482895","25.0581183333333","6500200","三重區"
"241013","270-UM","2018/04/14 16:29:25","新北市三重區龍門路62號","121.49669","25.0726166666667","6500200","三重區"
"241025","271-UM","2018/04/14 16:29:25","新北市三重區中正北路560巷100弄2號","121.472463333333","25.0682483333333","6500200","三重區"
"241007","398-BY","2018/04/14 16:29:27","新北市三重區三和路四段167巷186號","121.488083333333","25.080375","6500200","三重區"
"241004","475-VK","2018/04/14 16:29:28","新北市三重區仁愛街377巷24號","121.492045","25.08065","6500200","三重區"
"241020","478-VK","2018/04/14 16:29:24","新北市三重區車路頭街37巷22號","121.484443333333","25.0718316666667","6500200","三重區"
"241014","543-UM","2018/04/14 16:29:28","新北市三重區河邊北街72-6號","121.504286666667","25.0685983333333","6500200","三重區"
"241023","545-UM","2018/04/14 16:29:25","新北市三重區忠孝路三段50巷43號","121.482821666667","25.0645033333333","6500200","三重區"
"241001","547-UM","2018/04/14 16:29:36","新北市三重區仁政街155巷3號","121.491745","25.079325","6500200","三重區"
"241019","KEA-2593","2018/04/14 16:29:27","新北市三重區重陽路三段97號","121.490258333333","25.0680133333333","6500200","三重區"
"241006","AAD-863","2018/04/14 16:29:24","新北市三重區力行路二段136巷23弄35號","121.481476666667","25.0764516666667","6500200","三重區"
"241022","887-TS","2018/04/14 16:29:21","新北市三重區過圳街106號","121.486118333333","25.0623333333333","6500200","三重區"
"241012","941-UM","2018/04/14 16:29:35","新北市三重區河邊北街272號","121.501533333333","25.0766616666667","6500200","三重區"
"241029","942-UM","2018/04/14 16:29:24","新北市三重區集美街126巷14號","121.489531666667","25.053725","6500200","三重區"
"241033","AAC-255","2018/04/14 16:29:23","新北市三重區重新路五段328號","121.477136666667","25.0483333333333","6500200","三重區"
"235046","733-UM","2018/04/14 16:29:25","新北市中和區員山路36巷13號","121.484178333333","24.9908683333333","6500300","中和區"
"247006","336-TH","2018/04/14 16:29:19","新北市五股區中興路三段2巷10號","121.449518333333","25.0810266666667","6501400","蘆洲區"
"224007","275-VK","2018/04/14 16:29:34","新北市瑞芳區瑞竹路36巷9號","121.764205","25.1038766666667","6501200","瑞芳區"
"224005","271-BY","2018/04/14 16:29:29","新北市瑞芳區阿美家園31號","121.821371666667","25.1167516666667","6501200","瑞芳區"
"227002","642-TC","2018/04/14 16:29:36","新北市雙溪區上林里內平林120-2號","121.824491666667","25.0263033333333","6502500","雙溪區"
"227010","400-TW","2018/04/14 16:29:25","新北市雙溪區三港里雙澳路32-2號","121.869891666667","25.049795","6502500","雙溪區"
"251013","179-VK","2018/04/14 16:29:20","新北市淡水區大溪6-2號","121.493711666667","25.1917683333333","6501000","淡水區"
"251014","180-VK","2018/04/14 16:29:24","新北市淡水區中正路二段31號","121.419163333333","25.181875","6501000","淡水區"
"251008","181-VK","2018/04/14 16:29:30","新北市淡水區民權路39號","121.45965","25.140805","6501000","淡水區"
"251015","182-VK","2018/04/14 16:29:17","新北市淡水區中正路二段18號","121.419705","25.1811566666667","6501000","淡水區"
"251011","650-BX","2018/04/14 16:29:37","新北市淡水區中正路二段31號","121.41946","25.1817233333333","6501000","淡水區"
"252002","178-VK","2018/04/14 16:29:23","新北市三芝區埔坪里埔頭坑88-7號","121.506855","25.2548383333333","6502100","三芝區"
"221012","276-VK","2018/04/14 16:04:00","新北市汐止區汐萬路一段256巷3號","121.653381666667","25.0746583333333","6501100","汐止區"
