"lineid","car","time","location","longitude","latitude","cityid","cityname"
"249005","172-UM","2018/04/14 17:09:39","新北市八里區華富山5-1號","121.418728333333","25.1434016666667","6502300","八里區"
"249001","173-UM","2018/04/14 17:09:21","新北市八里區中華路二段201-27號","121.405915","25.1500183333333","6502300","八里區"
"249004","303-UY","2018/04/14 17:09:34","新北市八里區忠孝路185號","121.422896666667","25.1608016666667","6502300","八里區"
"249002","305-UY","2018/04/14 17:09:29","新北市八里區米倉13-2號","121.43857","25.1497333333333","6502300","八里區"
"249003","593-UM","2018/04/14 17:09:31","新北市八里區中山路二段552號","121.39724","25.1463983333333","6502300","八里區"
"244013","069-UM","2018/04/14 17:09:22","新北市林口區粉寮69號","121.405076666667","25.0908083333333","6501700","林口區"
"244007","080-UY","2018/04/14 17:09:38","新北市林口區菁埔路4號","121.379423333333","25.09622","6501700","林口區"
"244023","483-VK","2018/04/14 17:09:33","新北市林口區仁愛路一段380號","121.388203333333","25.0767233333333","6501700","林口區"
"244019","657-BX","2018/04/14 17:09:38","新北市林口區四維路156號","121.3805","25.0755216666667","6501700","林口區"
"244025","837-TS","2018/04/14 17:09:35","新北市林口區粉寮路一段135號","121.398953333333","25.0810733333333","6501700","林口區"
"244021","838-TS","2018/04/14 17:09:22","新北市林口區宏昌街15號","121.403931666667","25.0851383333333","6501700","林口區"
"231046","188-VK","2018/04/14 17:09:31","新北市新店區直潭路92號","121.530778333333","24.9376216666667","6500600","新店區"
"241011","013-R5","2018/04/14 17:09:34","新北市三重區河邊北街124巷3號","121.503576666667","25.071545","6500200","三重區"
"241028","022-UY","2018/04/14 17:09:32","新北市三重區重新路三段110號","121.492246666667","25.0603316666667","6500200","三重區"
"241008","059-VK","2018/04/14 17:09:32","新北市三重區力行路二段136巷13號","121.481955","25.07571","6500200","三重區"
"241009","060-VK","2018/04/14 17:09:37","新北市三重區仁美街108巷5號","121.485356666667","25.080675","6500200","三重區"
"241015","062-VK","2018/04/14 17:09:21","新北市三重區長生街28號","121.499506666667","25.0664316666667","6500200","三重區"
"241017","063-VK","2018/04/14 17:09:29","新北市三重區中正北路25巷8號","121.493386666667","25.0628933333333","6500200","三重區"
"241024","065-VK","2018/04/14 17:09:24","新北市三重區中正北路193巷11弄44號","121.478858333333","25.0706516666667","6500200","三重區"
"241026","066-VK","2018/04/14 17:09:35","新北市三重區正義南路20號","121.498096666667","25.0613383333333","6500200","三重區"
"241002","090-VK","2018/04/14 17:09:25","新北市三重區仁義街225巷42號","121.497821666667","25.0830066666667","6500200","三重區"
"241003","091-VK","2018/04/14 17:09:26","新北市三重區富福街106號","121.493353333333","25.0855566666667","6500200","三重區"
"241005","262-UM","2018/04/14 17:09:36","新北市蘆洲區重陽一街1號","121.481885","25.08144","6500200","三重區"
"241016","265-UM","2018/04/14 17:09:31","新北市三重區中正北路25巷26號","121.493776666667","25.063275","6500200","三重區"
"241018","268-UM","2018/04/14 17:09:32","新北市三重區大智街172-1號","121.491675","25.0692533333333","6500200","三重區"
"241032","269-UM","2018/04/14 17:09:25","新北市三重區三陽路13巷1號","121.486048333333","25.0595416666667","6500200","三重區"
"241013","270-UM","2018/04/14 17:09:24","新北市三重區仁昌街30號","121.496568333333","25.0740916666667","6500200","三重區"
"241025","271-UM","2018/04/14 17:09:25","新北市三重區中正北路560巷61-3號","121.470933333333","25.06893","6500200","三重區"
"241007","398-BY","2018/04/14 17:09:27","新北市三重區三和路四段145巷213號","121.488795","25.0793883333333","6500200","三重區"
"241004","475-VK","2018/04/14 17:09:28","新北市三重區五華街122巷3號","121.491676666667","25.0830933333333","6500200","三重區"
"241020","478-VK","2018/04/14 17:09:24","新北市三重區自強路三段18號","121.48683","25.072185","6500200","三重區"
"241030","480-VK","2018/04/14 17:09:23","新北市三重區集成路13號","121.488728333333","25.052145","6500200","三重區"
"241014","543-UM","2018/04/14 17:09:28","新北市三重區龍濱路199號","121.501845","25.0714833333333","6500200","三重區"
"241023","545-UM","2018/04/14 17:09:26","新北市三重區忠孝路三段84巷1號","121.480225","25.06445","6500200","三重區"
"241001","547-UM","2018/04/14 17:09:35","新北市三重區仁愛街245巷36號","121.49431","25.07853","6500200","三重區"
"241019","KEA-2593","2018/04/14 17:09:27","新北市三重區力行路一段153巷42號","121.486238333333","25.069155","6500200","三重區"
"241006","AAD-863","2018/04/14 17:09:24","新北市三重區車路頭街135-1號","121.484258333333","25.075975","6500200","三重區"
"241022","887-TS","2018/04/14 17:09:21","新北市三重區中正北路118巷10-2號","121.485165","25.0643883333333","6500200","三重區"
"241012","941-UM","2018/04/14 17:09:35","新北市三重區仁壽街207號","121.500481666667","25.0746116666667","6500200","三重區"
"241029","942-UM","2018/04/14 17:09:24","新北市三重區重新路四段120號","121.486953333333","25.0568033333333","6500200","三重區"
"241033","AAC-255","2018/04/14 17:09:23","新北市三重區中興北街271號","121.469211666667","25.060665","6500200","三重區"
"247024","893-R6","2018/04/14 17:09:36","新北市蘆洲區長興路25號","121.463698333333","25.08338","6501400","蘆洲區"
"247014","546-UM","2018/04/14 17:09:26","新北市蘆洲區中央路37巷15號","121.473343333333","25.0824966666667","6501400","蘆洲區"
"247022","500-BY","2018/04/14 17:09:32","新北市蘆洲區三民路134號","121.470741666667","25.08759","6501400","蘆洲區"
"247010","341-TH","2018/04/14 17:09:22","新北市蘆洲區民族路5號","121.47564","25.0839616666667","6501400","蘆洲區"
"247012","339-TH","2018/04/14 17:09:40","新北市蘆洲區信義路296號","121.47762","25.0875133333333","6501400","蘆洲區"
"247004","337-TH","2018/04/14 17:09:20","新北市蘆洲區長安街211號","121.459695","25.08202","6501400","蘆洲區"
"247006","336-TH","2018/04/14 17:09:39","新北市蘆洲區長安街102巷65號","121.462681666667","25.082095","6501400","蘆洲區"
"247018","057-VK","2018/04/14 17:09:35","新北市蘆洲區復興路160號","121.477435","25.0881466666667","6501400","蘆洲區"
"247008","056-VK","2018/04/14 17:09:21","新北市蘆洲區信義路30巷45號","121.474628333333","25.0781983333333","6501400","蘆洲區"
"247016","007-UY","2018/04/14 17:09:39","新北市蘆洲區光華路67號","121.4682","25.082695","6501400","蘆洲區"
"247002","002-UY","2018/04/14 17:09:40","新北市蘆洲區永樂街83號","121.455861666667","25.0887833333333","6501400","蘆洲區"
"247020","001-UY","2018/04/14 17:09:36","新北市蘆洲區仁愛街36巷18號","121.47279","25.0935566666667","6501400","蘆洲區"
"228003","097-TW","2018/04/14 17:09:30","新北市貢寮區福隆里東興街11-4號","121.950526666667","25.0185933333333","6502600","貢寮區"
"228001","212-TW","2018/04/14 17:09:37","新北市貢寮區仁理村尖山腳街20號","121.92509","25.047975","6502600","貢寮區"
"228002","585-TW","2018/04/14 17:09:38","新北市貢寮區龍崗里泮宮路51-1號","121.908261666667","25.0165916666667","6502600","貢寮區"
"224006","676-BX","2018/04/14 17:09:32","新北市瑞芳區大寮路91號","121.780373333333","25.0976866666667","6501200","瑞芳區"
"224008","285-BY","2018/04/14 17:09:20","新北市瑞芳區柴寮路50號","121.827558333333","25.0871216666667","6501200","瑞芳區"
"224009","273-VK","2018/04/14 17:09:30","新北市瑞芳區濱二路30號","121.841115","25.11512","6501200","瑞芳區"
"224005","271-BY","2018/04/14 17:09:29","新北市瑞芳區鼻頭路117號","121.916395","25.1223116666667","6501200","瑞芳區"
"227002","642-TC","2018/04/14 17:09:36","新北市雙溪區外柑里外柑腳77號","121.806926666667","25.017545","6502500","雙溪區"
"227010","400-TW","2018/04/14 17:09:25","新北市雙溪區三貂里子崙坑1-6號","121.849883333333","25.05749","6502500","雙溪區"
"251009","008-UM","2018/04/14 17:09:28","新北市淡水區三民街20號","121.43904","25.1717466666667","6501000","淡水區"
"251004","009-UM","2018/04/14 17:09:40","新北市淡水區中正東路二段17-4號","121.458118333333","25.15766","6501000","淡水區"
"251005","010-UM","2018/04/14 17:09:21","新北市淡水區水源街一段29號","121.44319","25.1722883333333","6501000","淡水區"
"251013","179-VK","2018/04/14 17:09:19","新北市淡水區桂花樹1號","121.483055","25.19682","6501000","淡水區"
"251014","180-VK","2018/04/14 17:09:23","新北市淡水區淡金路四段472巷24號","121.452928333333","25.2239733333333","6501000","淡水區"
"251008","181-VK","2018/04/14 17:09:30","新北市淡水區樹梅坑7-1號","121.472566666667","25.1450016666667","6501000","淡水區"
"251015","182-VK","2018/04/14 17:09:37","新北市淡水區樹林口43號","121.471145","25.168365","6501000","淡水區"
"251010","413-VK","2018/04/14 17:09:26","新北市淡水區新市二路三段16號","121.431956666667","25.1938383333333","6501000","淡水區"
"251012","441-VK","2018/04/14 17:09:37","新北市淡水區中山北路一段207巷40號","121.442963333333","25.1792266666667","6501000","淡水區"
"251016","442-VK","2018/04/14 17:09:35","新北市淡水區口湖子2-8號","121.477501666667","25.1886266666667","6501000","淡水區"
"251006","561-UM","2018/04/14 17:09:21","新北市淡水區新民街21號","121.43905","25.1751183333333","6501000","淡水區"
"251007","577-R6","2018/04/14 17:09:33","新北市淡水區中正東路二段121號","121.459528333333","25.1500766666667","6501000","淡水區"
"251011","650-BX","2018/04/14 17:00:00","新北市淡水區坪頂路50號","121.457925","25.162525","6501000","淡水區"
"251003","673-BX","2018/04/14 17:09:34","新北市淡水區中正路二段31號","121.41944","25.1815","6501000","淡水區"
"252002","178-VK","2018/04/14 17:09:23","新北市三芝區忠孝街1-6號","121.50557","25.25445","6502100","三芝區"
"252001","292-VK","2018/04/14 17:09:37","新北市三芝區埔頭里埔頭17-2號","121.494316666667","25.2602616666667","6502100","三芝區"
"242034","AAC-296","2018/04/14 17:09:36","新北市新莊區新泰路255巷83號","121.442715","25.0394433333333","6500500","新莊區"
"242053","751-BX","2018/04/14 17:09:39","新北市新莊區新泰路357巷3弄51號","121.44236","25.0399883333333","6500500","新莊區"
"242029","705-TV","2018/04/14 17:09:26","新北市新莊區新泰路255巷83號","121.442326666667","25.0392366666667","6500500","新莊區"
"242042","566-BX","2018/04/14 17:08:28","新北市新莊區新泰路357巷3弄57號","121.442148333333","25.0392083333333","6500500","新莊區"
"242046","497-BY","2018/04/14 17:09:03","新北市新莊區新泰路357巷3弄57號","121.442248333333","25.0394266666667","6500500","新莊區"
"242036","442-UM","2018/04/14 17:09:30","新北市新莊區新泰路255巷83號","121.442286666667","25.0388666666667","6500500","新莊區"
"242051","441-UM","2018/04/14 17:09:20","新北市新莊區三和路12-9號","121.44211","25.0366833333333","6500500","新莊區"
"242044","400-BY","2018/04/14 17:09:30","新北市新莊區新泰路357巷2-2號","121.442008333333","25.04123","6500500","新莊區"
"242023","362-BY","2018/04/14 17:09:25","新北市新莊區三和路12-21號","121.442098333333","25.0386866666667","6500500","新莊區"
"242061","353-BY","2018/04/14 17:09:25","新北市新莊區三和路12-21號","121.442143333333","25.0387066666667","6500500","新莊區"
"242039","133-UY","2018/04/14 17:09:25","新北市新莊區三和路12-21號","121.442401666667","25.0384583333333","6500500","新莊區"
"242048","172-VK","2018/04/14 17:09:35","新北市新莊區中正路517-2號","121.439678333333","25.0334433333333","6500500","新莊區"
"242017","175-VK","2018/04/14 17:09:38","新北市新莊區三和路12-21號","121.441938333333","25.0387516666667","6500500","新莊區"
"242004","176-VK","2018/04/14 17:09:30","新北市新莊區三和路12-21號","121.442056666667","25.0388066666667","6500500","新莊區"
"242015","346-TH","2018/04/14 17:09:22","新北市新莊區三和路12-18號","121.44186","25.0376633333333","6500500","新莊區"
"242002","349-TH","2018/04/14 17:09:34","新北市新莊區三和路12-17號","121.442083333333","25.0375683333333","6500500","新莊區"
"242013","351-TH","2018/04/14 17:09:25","新北市新莊區新泰路357巷3弄57號","121.442123333333","25.039665","6500500","新莊區"
"238019","599-UM","2018/04/14 17:09:20","新北市樹林區太平路273巷23號","121.421175","24.9763233333333","6500700","樹林區"
"238018","571-TV","2018/04/14 17:09:37","新北市樹林區水源街96-2號","121.425926666667","24.97975","6500700","樹林區"
"238024","5061-A6","2018/04/14 17:09:27","新北市樹林區鎮前街158號","121.424375","24.9902283333333","6500700","樹林區"
"238022","KEA-2213","2018/04/14 17:09:22","新北市樹林區和平街51號","121.423811666667","24.9822683333333","6500700","樹林區"
"238016","169-UY","2018/04/14 17:09:24","新北市樹林區中山路二段125號","121.40765","24.9794416666667","6500700","樹林區"
"239007","AAC-297","2018/04/14 17:09:29","新北市鶯歌區信義街48號","121.353338333333","24.9552966666667","6500800","鶯歌區"
"239006","891-R6","2018/04/14 17:09:35","新北市鶯歌區八德路2巷3-3號","121.33757","24.9479016666667","6500800","鶯歌區"
"239008","527-UM","2018/04/14 17:09:39","新北市鶯歌區文化路116號","121.352121666667","24.9521016666667","6500800","鶯歌區"
"239005","526-UM","2018/04/14 17:09:37","新北市鶯歌區鶯桃路324號","121.333978333333","24.962045","6500800","鶯歌區"
"239001","417-VK","2018/04/14 17:09:21","新北市鶯歌區尖山路86巷26號","121.347035","24.9496116666667","6500800","鶯歌區"
"239003","360-BY","2018/04/14 17:09:35","新北市鶯歌區德昌二街70巷32弄67號","121.330155","24.95816","6500800","鶯歌區"
"239002","359-BY","2018/04/14 17:09:33","新北市鶯歌區建國路280號","121.346273333333","24.953245","6500800","鶯歌區"
"239004","193-VK","2018/04/14 17:09:36","新北市鶯歌區文化路324巷1-1號","121.351091666667","24.945165","6500800","鶯歌區"
"242009","281-VK","2018/04/14 17:09:21","新北市新莊區新泰路255巷83號","121.442163333333","25.0389516666667","6500500","新莊區"
"242031","280-VK","2018/04/14 17:09:38","新北市新莊區三和路12-21號","121.44204","25.03841","6500500","新莊區"
