"lineid","car","time","location","longitude","latitude","cityid","cityname"
"249005","172-UM","2018/04/14 17:19:19","新北市八里區荖阡坑路50-1號","121.412776666667","25.1227583333333","6502300","八里區"
"249001","173-UM","2018/04/14 17:19:20","新北市八里區中華路二段165巷3號","121.407696666667","25.15083","6502300","八里區"
"249004","303-UY","2018/04/14 17:19:34","新北市八里區賢三街17號","121.41903","25.1592583333333","6502300","八里區"
"249002","305-UY","2018/04/14 17:19:29","新北市八里區龍米路二段117巷18號","121.44517","25.1428416666667","6502300","八里區"
"249003","593-UM","2018/04/14 17:19:31","新北市八里區中山路二段462號","121.398961666667","25.1472716666667","6502300","八里區"
"244013","069-UM","2018/04/14 17:19:22","新北市林口區粉寮69號","121.405086666667","25.09082","6501700","林口區"
"244007","080-UY","2018/04/14 17:19:38","新北市林口區湖子10-1號","121.387616666667","25.090375","6501700","林口區"
"244023","483-VK","2018/04/14 17:19:33","新北市林口區隆林街32號","121.388225","25.0753933333333","6501700","林口區"
"244019","657-BX","2018/04/14 17:19:38","新北市林口區文化二路一段382號","121.3744","25.07668","6501700","林口區"
"244025","837-TS","2018/04/14 17:19:35","新北市林口區文化三路一段589號","121.371051666667","25.076655","6501700","林口區"
"244021","838-TS","2018/04/14 17:19:22","新北市林口區粉寮路二段160巷17號","121.40571","25.0923366666667","6501700","林口區"
"231046","188-VK","2018/04/14 17:19:31","新北市新店區直潭路92號","121.530785","24.937635","6500600","新店區"
"241011","013-R5","2018/04/14 17:19:34","新北市三重區龍濱路257號","121.501485","25.0727633333333","6500200","三重區"
"241028","022-UY","2018/04/14 17:19:32","新北市三重區仁化街56號","121.493811666667","25.0591483333333","6500200","三重區"
"241008","059-VK","2018/04/14 17:19:32","新北市三重區永福街72巷37號","121.480231666667","25.0763133333333","6500200","三重區"
"241009","060-VK","2018/04/14 17:19:38","新北市三重區三和路四段211-6號","121.481893333333","25.0797683333333","6500200","三重區"
"241015","062-VK","2018/04/14 17:19:21","新北市三重區長元街82-1號","121.501865","25.0662666666667","6500200","三重區"
"241017","063-VK","2018/04/14 17:19:29","新北市三重區大同北路44巷5號","121.494846666667","25.0630083333333","6500200","三重區"
"241024","065-VK","2018/04/14 17:19:24","新北市三重區大勇街82巷15弄3號","121.479903333333","25.0717566666667","6500200","三重區"
"241026","066-VK","2018/04/14 17:19:35","新北市三重區和平街39號","121.501501666667","25.0625416666667","6500200","三重區"
"241002","090-VK","2018/04/14 17:19:25","新北市三重區自強路五段29號","121.493476666667","25.0809783333333","6500200","三重區"
"241003","091-VK","2018/04/14 17:19:26","新北市三重區富福街42號","121.49103","25.0838616666667","6500200","三重區"
"241005","262-UM","2018/04/14 17:19:36","新北市三重區永安北路二段33號","121.482428333333","25.0821666666667","6500200","三重區"
"241016","265-UM","2018/04/14 17:19:31","新北市三重區大同北路60巷6號","121.494026666667","25.06372","6500200","三重區"
"241018","268-UM","2018/04/14 17:19:32","新北市三重區安慶街142號","121.494545","25.0687983333333","6500200","三重區"
"241032","269-UM","2018/04/14 17:19:25","新北市三重區新北大道一段133巷12號","121.482338333333","25.060885","6500200","三重區"
"241013","270-UM","2018/04/14 17:19:24","新北市三重區三和路三段107巷11號","121.494815","25.0729883333333","6500200","三重區"
"241025","271-UM","2018/04/14 17:19:25","新北市三重區中正北路406號","121.475375","25.0706183333333","6500200","三重區"
"241007","398-BY","2018/04/14 17:19:27","新北市三重區三和路四段163巷33號","121.484248333333","25.0788766666667","6500200","三重區"
"241004","475-VK","2018/04/14 17:19:28","新北市三重區碧華街428號","121.49257","25.0854716666667","6500200","三重區"
"241020","478-VK","2018/04/14 17:19:24","新北市三重區自強路三段7巷60號","121.488776666667","25.07247","6500200","三重區"
"241030","480-VK","2018/04/14 17:19:23","新北市三重區成功路73巷11號","121.489481666667","25.0518733333333","6500200","三重區"
"241014","543-UM","2018/04/14 17:19:28","新北市三重區長榮路6號","121.500068333333","25.068495","6500200","三重區"
"241023","545-UM","2018/04/14 17:19:25","新北市三重區三民街206號","121.48108","25.0661916666667","6500200","三重區"
"241001","547-UM","2018/04/14 17:19:36","新北市三重區仁愛街269巷37號","121.494048333333","25.0793033333333","6500200","三重區"
"241019","KEA-2593","2018/04/14 17:19:27","新北市三重區忠孝路一段183號","121.487281666667","25.0715016666667","6500200","三重區"
"241022","887-TS","2018/04/14 17:19:40","新北市三重區重陽路二段36號","121.48684","25.0630683333333","6500200","三重區"
"241012","941-UM","2018/04/14 17:19:35","新北市三重區龍門路274巷49號","121.500985","25.075695","6500200","三重區"
"241033","AAC-255","2018/04/14 17:19:25","新北市三重區中興北街136巷24號","121.467788333333","25.0559233333333","6500200","三重區"
"247024","893-R6","2018/04/14 17:19:31","新北市蘆洲區長榮路262號","121.460373333333","25.08611","6501400","蘆洲區"
"247014","546-UM","2018/04/14 17:19:26","新北市蘆洲區中正路94號","121.470348333333","25.0840066666667","6501400","蘆洲區"
"247022","500-BY","2018/04/14 17:19:30","新北市蘆洲區三民路128巷68號","121.470165","25.0892966666667","6501400","蘆洲區"
"247010","341-TH","2018/04/14 17:19:22","新北市蘆洲區中山一路120巷7弄8號","121.477666666667","25.0821866666667","6501400","蘆洲區"
"247012","339-TH","2018/04/14 17:19:40","新北市蘆洲區信義路319巷12號","121.47765","25.086335","6501400","蘆洲區"
"247004","337-TH","2018/04/14 17:19:20","新北市蘆洲區中原路38號","121.459838333333","25.08263","6501400","蘆洲區"
"247006","336-TH","2018/04/14 17:19:19","新北市蘆洲區長安街73巷13號","121.462221666667","25.07956","6501400","蘆洲區"
"247018","057-VK","2018/04/14 17:19:35","新北市蘆洲區民權路68巷10號","121.475431666667","25.08764","6501400","蘆洲區"
"247008","056-VK","2018/04/14 17:19:22","新北市蘆洲區永安北路一段72巷40號","121.476338333333","25.07702","6501400","蘆洲區"
"247016","007-UY","2018/04/14 17:19:39","新北市蘆洲區正和街96巷7號","121.467766666667","25.0811933333333","6501400","蘆洲區"
"247002","002-UY","2018/04/14 17:19:40","新北市蘆洲區永樂街38巷33弄19號","121.457313333333","25.089635","6501400","蘆洲區"
"247020","001-UY","2018/04/14 17:19:36","新北市蘆洲區仁愛街37號","121.47214","25.09285","6501400","蘆洲區"
"228003","097-TW","2018/04/14 17:19:30","新北市貢寮區福隆里虎子山街21號","121.93852","25.0185033333333","6502600","貢寮區"
"228001","212-TW","2018/04/14 17:19:37","新北市貢寮區仁理村尖山腳街20號","121.924916666667","25.0478883333333","6502600","貢寮區"
"228002","585-TW","2018/04/14 17:19:38","新北市貢寮區雙玉里下雙溪街28號","121.925001666667","25.0116766666667","6502600","貢寮區"
"224006","676-BX","2018/04/14 17:19:32","新北市瑞芳區傑魚坑路314號","121.786825","25.1054116666667","6501200","瑞芳區"
"224008","285-BY","2018/04/14 17:19:40","新北市瑞芳區侯硐路47號","121.830056666667","25.088965","6501200","瑞芳區"
"224009","273-VK","2018/04/14 17:19:30","新北市瑞芳區石崁巷49號","121.837618333333","25.1095816666667","6501200","瑞芳區"
"224005","271-BY","2018/04/14 17:19:29","新北市瑞芳區南雅路1號","121.895563333333","25.1199433333333","6501200","瑞芳區"
"227002","642-TC","2018/04/14 17:19:36","新北市雙溪區上林里內平林90號","121.827576666667","25.027495","6502500","雙溪區"
"227010","400-TW","2018/04/14 17:19:25","新北市雙溪區三貂里十三層9-5號","121.853425","25.0774","6502500","雙溪區"
"251009","008-UM","2018/04/14 17:19:28","新北市淡水區三民街20號","121.43904","25.1717466666667","6501000","淡水區"
"251004","009-UM","2018/04/14 17:19:20","新北市淡水區中正東路二段88巷15號","121.459026666667","25.1504766666667","6501000","淡水區"
"251005","010-UM","2018/04/14 17:19:21","新北市淡水區鄧公路19-1號","121.45025","25.1699483333333","6501000","淡水區"
"251013","179-VK","2018/04/14 17:19:39","新北市淡水區大竹圍6-1號","121.470813333333","25.1953583333333","6501000","淡水區"
"251014","180-VK","2018/04/14 17:19:23","新北市淡水區八里堆9-8號","121.464361666667","25.2234683333333","6501000","淡水區"
"251008","181-VK","2018/04/14 17:19:30","新北市淡水區大同路287號","121.468136666667","25.1425883333333","6501000","淡水區"
"251015","182-VK","2018/04/14 17:19:37","新北市淡水區三空泉17-6號","121.473993333333","25.1658883333333","6501000","淡水區"
"251010","413-VK","2018/04/14 17:19:26","新北市淡水區新市二路二段200號","121.42971","25.1948766666667","6501000","淡水區"
"251012","441-VK","2018/04/14 17:19:37","新北市淡水區中山北路一段158號","121.444233333333","25.177905","6501000","淡水區"
"251016","442-VK","2018/04/14 17:19:35","新北市淡水區鄒厝崙1-11號","121.472016666667","25.1875216666667","6501000","淡水區"
"251006","561-UM","2018/04/14 17:19:21","新北市淡水區大智街48號","121.442751666667","25.1741883333333","6501000","淡水區"
"251007","577-R6","2018/04/14 17:19:33","新北市淡水區民生路60號","121.462043333333","25.1379483333333","6501000","淡水區"
"251011","650-BX","2018/04/14 17:19:28","新北市淡水區坪頂路151號","121.467846666667","25.162095","6501000","淡水區"
"251002","672-BX","2018/04/14 17:19:26","新北市淡水區中正路二段31號","121.419465","25.1816683333333","6501000","淡水區"
"251003","673-BX","2018/04/14 17:19:34","新北市淡水區中正路一段64號","121.425363333333","25.1768916666667","6501000","淡水區"
"207003","550-UM","2018/04/14 17:19:30","新北市萬里區萬里里瑪鋉路340號","121.68789","25.1828216666667","6502800","萬里區"
"252002","178-VK","2018/04/14 17:19:23","新北市三芝區忠孝街1-14號","121.505558333333","25.253965","6502100","三芝區"
"252001","292-VK","2018/04/14 17:19:17","新北市三芝區長安街119號","121.49808","25.2596583333333","6502100","三芝區"
"242034","AAC-296","2018/04/14 17:19:36","新北市新莊區中環路一段285號","121.442093333333","25.0316866666667","6500500","新莊區"
"242058","986-R7","2018/04/14 17:19:20","新北市新莊區新泰路357巷2-2號","121.441935","25.0410283333333","6500500","新莊區"
"242053","751-BX","2018/04/14 17:19:19","新北市新莊區環河路636-1號","121.436665","25.0107433333333","6500500","新莊區"
"242029","705-TV","2018/04/14 17:19:26","新北市新莊區幸福路790號","121.446661666667","25.049225","6500500","新莊區"
"242027","615-BX","2018/04/14 17:19:41","新北市新莊區中港路280號","121.453058333333","25.04412","6500500","新莊區"
"242025","613-BX","2018/04/14 17:19:37","新北市新莊區復興路一段89號","121.44865","25.0427533333333","6500500","新莊區"
"242042","566-BX","2018/04/14 17:19:28","新北市新莊區中正路471號","121.441751666667","25.0338383333333","6500500","新莊區"
"242046","497-BY","2018/04/14 17:19:23","新北市新莊區中正路400號","121.441593333333","25.03386","6500500","新莊區"
"242036","442-UM","2018/04/14 17:19:30","新北市新莊區福營路94號","121.4368","25.03296","6500500","新莊區"
"242051","441-UM","2018/04/14 17:19:20","新北市新莊區瓊林南路46-2號","121.435901666667","25.0177533333333","6500500","新莊區"
"242056","440-UM","2018/04/14 17:19:32","新北市新莊區中正路459號","121.442216666667","25.03347","6500500","新莊區"
"242007","413-TV","2018/04/14 17:19:22","新北市新莊區中環路二段392-1號","121.442423333333","25.0455333333333","6500500","新莊區"
"242044","400-BY","2018/04/14 17:19:30","新北市新莊區中正路562號","121.428311666667","25.0307366666667","6500500","新莊區"
"242023","362-BY","2018/04/14 17:19:25","新北市新莊區新泰路488號","121.442561666667","25.0458516666667","6500500","新莊區"
"242061","353-BY","2018/04/14 17:19:25","新北市泰山區磚雅厝3號","121.441926666667","25.0418483333333","6500500","新莊區"
"242039","133-UY","2018/04/14 17:19:25","新北市新莊區新樹路223號","121.435416666667","25.0231233333333","6500500","新莊區"
"242048","172-VK","2018/04/14 17:19:35","新北市新莊區龍安路249巷1號","121.41905","25.0209916666667","6500500","新莊區"
"242017","175-VK","2018/04/14 17:19:38","新北市新莊區中港一街161號","121.447368333333","25.0450166666667","6500500","新莊區"
"242004","176-VK","2018/04/14 17:19:30","新北市新莊區新泰路480號","121.442533333333","25.045545","6500500","新莊區"
"242015","346-TH","2018/04/14 17:19:22","新北市新莊區新泰路338號","121.44474","25.0422116666667","6500500","新莊區"
"242019","347-TH","2018/04/14 17:19:29","新北市新莊區中港一街159號","121.447428333333","25.0450533333333","6500500","新莊區"
"242021","348-TH","2018/04/14 17:19:38","新北市新莊區中港路281號","121.453285","25.0437916666667","6500500","新莊區"
"242002","349-TH","2018/04/14 17:19:34","新北市新莊區新泰路50號","121.449458333333","25.0344533333333","6500500","新莊區"
"242013","351-TH","2018/04/14 17:19:25","新北市新莊區三和路12-10號","121.442205","25.0367483333333","6500500","新莊區"
"238019","599-UM","2018/04/14 17:19:40","新北市樹林區八德街111號","121.420506666667","24.9807566666667","6500700","樹林區"
"238018","571-TV","2018/04/14 17:19:37","新北市樹林區樹中街32巷16號","121.420218333333","24.98544","6500700","樹林區"
"238024","5061-A6","2018/04/14 17:19:27","新北市樹林區保安街一段48巷25號","121.426433333333","24.995185","6500700","樹林區"
"238022","KEA-2213","2018/04/14 17:19:22","新北市樹林區中華路37巷12號","121.424026666667","24.983005","6500700","樹林區"
"238026","172-UY","2018/04/14 17:19:33","新北市樹林區味王街46巷21號","121.40345","24.973715","6500700","樹林區"
"238016","169-UY","2018/04/14 17:19:24","新北市樹林區中山路二段10號","121.417516666667","24.985025","6500700","樹林區"
"239007","AAC-297","2018/04/14 17:19:29","新北市鶯歌區行政路7號","121.35127","24.9555716666667","6500800","鶯歌區"
"239006","891-R6","2018/04/14 17:19:35","新北市鶯歌區福昌街24號","121.332945","24.9609383333333","6500800","鶯歌區"
"239008","527-UM","2018/04/14 17:19:20","新北市鶯歌區西湖街279巷15號","121.34051","24.9679916666667","6500800","鶯歌區"
"239005","526-UM","2018/04/14 17:19:37","新北市鶯歌區福德三街23號","121.32939","24.9672333333333","6500800","鶯歌區"
"239001","417-VK","2018/04/14 17:19:21","新北市鶯歌區尖山路246號","121.342601666667","24.946445","6500800","鶯歌區"
"239003","360-BY","2018/04/14 17:19:34","新北市鶯歌區德昌街98號","121.332351666667","24.96022","6500800","鶯歌區"
"239002","359-BY","2018/04/14 17:19:33","新北市鶯歌區南雅路24號","121.349231666667","24.9540866666667","6500800","鶯歌區"
"239004","193-VK","2018/04/14 17:19:36","新北市鶯歌區文化路324巷1-35號","121.352328333333","24.94564","6500800","鶯歌區"
"242009","281-VK","2018/04/14 17:19:41","新北市新莊區中和街63號","121.447538333333","25.047145","6500500","新莊區"
"242031","280-VK","2018/04/14 17:19:38","新北市新莊區中環路二段392-1號","121.44244","25.0454433333333","6500500","新莊區"
