"lineid","car","time","location","longitude","latitude","cityid","cityname"
"234026","9371-KE","2018/04/14 18:09:37","新北市永和區永和路一段1號","121.513046666667","25.0050716666667","6500400","永和區"
"249005","172-UM","2018/04/14 18:09:39","新北市八里區荖阡坑路15號","121.401726666667","25.1397666666667","6502300","八里區"
"249001","173-UM","2018/04/14 18:09:40","新北市八里區龍米路二段26號","121.448876666667","25.139365","6502300","八里區"
"249004","303-UY","2018/04/14 18:09:34","新北市八里區龍米路二段156號","121.43534","25.157665","6502300","八里區"
"249002","305-UY","2018/04/14 18:09:29","新北市八里區龍米路一段356巷46號","121.45216","25.1301966666667","6502300","八里區"
"249003","593-UM","2018/04/14 18:09:31","新北市八里區松子腳4-3號","121.403023333333","25.1442383333333","6502300","八里區"
"248016","026-BX","2018/04/14 18:09:32","新北市五股區成泰路三段221巷14號","121.445768333333","25.09341","6501500","五股區"
"248006","077-UY","2018/04/14 18:09:35","新北市五股區中興路二段70號","121.461221666667","25.077","6501500","五股區"
"248008","095-VK","2018/04/14 18:09:35","新北市蘆洲區永安南路二段294號","121.457271666667","25.0818033333333","6501500","五股區"
"248020","225-UY","2018/04/14 18:09:04","新北市五股區凌雲路一段21號","121.45452","25.09905","6501500","五股區"
"248014","261-SL","2018/04/14 18:09:36","新北市五股區成泰路一段189巷34號","121.433456666667","25.0763316666667","6501500","五股區"
"248010","272-BY","2018/04/14 18:09:24","新北市五股區成泰路一段229-1號","121.434205","25.07765","6501500","五股區"
"248004","677-BX","2018/04/14 18:09:23","新北市五股區成泰路二段186號","121.438821666667","25.0845833333333","6501500","五股區"
"248002","678-BX","2018/04/14 18:09:34","新北市五股區成泰路三段79號","121.443748333333","25.08993","6501500","五股區"
"232011","375-UM","2018/04/14 18:08:30","新北市坪林區坪雙路一段31號","121.711688333333","24.94242","6502000","坪林區"
"244013","069-UM","2018/04/14 18:09:22","新北市林口區中山路158號","121.39073","25.0787916666667","6501700","林口區"
"244007","080-UY","2018/04/14 18:09:38","新北市林口區林口路124巷8號","121.388985","25.08182","6501700","林口區"
"244009","410-SL","2018/04/14 18:09:31","新北市林口區佳林路56巷6弄5號","121.385696666667","25.0821533333333","6501700","林口區"
"244023","483-VK","2018/04/14 18:09:33","新北市林口區東湖路105巷16號","121.383885","25.0724983333333","6501700","林口區"
"244017","485-VK","2018/04/14 18:09:42","新北市林口區文化一路一段21巷1號","121.369316666667","25.06946","6501700","林口區"
"244019","657-BX","2018/04/14 18:09:38","新北市林口區忠孝路561巷10號","121.373246666667","25.0687666666667","6501700","林口區"
"244011","701-TV","2018/04/14 18:09:24","新北市林口區中正路99號","121.394251666667","25.0772816666667","6501700","林口區"
"244025","837-TS","2018/04/14 18:09:35","新北市林口區文化北路一段271號","121.358926666667","25.07175","6501700","林口區"
"244021","838-TS","2018/04/14 18:09:36","新北市林口區自強八街23號","121.399901666667","25.07588","6501700","林口區"
"243013","646-TV","2018/04/14 18:09:38","新北市泰山區南林路93號","121.41554","25.0511566666667","6501600","泰山區"
"222003","436-BY","2018/04/14 18:09:35","新北市深坑區阿柔洋45號","121.612381666667","24.9979983333333","6501800","深坑區"
"222002","659-BX","2018/04/14 18:09:33","新北市深坑區文化街37號","121.619088333333","25.0015616666667","6501800","深坑區"
"231041","002-UM","2018/04/14 18:09:26","新北市新店區安華路28-1號","121.519751666667","24.9606966666667","6500600","新店區"
"231059","046-UY","2018/04/14 18:09:31","新北市新店區安華路28-1號","121.51955","24.96069","6500600","新店區"
"231040","047-UY","2018/04/14 18:09:42","新北市新店區安華路28-1號","121.519161666667","24.96089","6500600","新店區"
"231044","106-UY","2018/04/14 18:09:20","新北市新店區安華路28-1號","121.519608333333","24.9607616666667","6500600","新店區"
"231046","188-VK","2018/04/14 18:09:31","新北市新店區直潭七街60號","121.532245","24.9397833333333","6500600","新店區"
"231054","KEA-2219","2018/04/14 18:09:40","新北市新店區安華路28-1號","121.519818333333","24.9611783333333","6500600","新店區"
"231051","278-BY","2018/04/14 18:09:36","新北市新店區安華路28-1號","121.519743333333","24.9611116666667","6500600","新店區"
"231050","AAD-862","2018/04/14 18:09:23","新北市新店區安華路28-1號","121.52007","24.96126","6500600","新店區"
"231058","3713-VJ","2018/04/14 18:09:40","新北市新店區安華路28-1號","121.519243333333","24.96067","6500600","新店區"
"231066","4716-K9","2018/04/14 18:09:38","新北市新店區安華路28-1號","121.519241666667","24.96122","6500600","新店區"
"231056","4715-K9","2018/04/14 18:09:24","新北市新店區安華路28-1號","121.519621666667","24.9606516666667","6500600","新店區"
"231067","4772-VM","2018/04/14 18:09:22","新北市新店區安華路1-1號","121.51918","24.960565","6500600","新店區"
"231049","513-UM","2018/04/14 18:09:38","新北市新店區安華路28-1號","121.519623333333","24.9610733333333","6500600","新店區"
"231063","641-BX","2018/04/14 18:09:22","新北市新店區安華路1-1號","121.519618333333","24.9604116666667","6500600","新店區"
"231042","645-TV","2018/04/14 18:09:31","新北市新店區安華路28-1號","121.519343333333","24.960595","6500600","新店區"
"231052","719-UY","2018/04/14 18:09:31","新北市新店區安華路28-1號","121.51962","24.9610966666667","6500600","新店區"
"231062","720-UM","2018/04/14 18:09:28","新北市新店區安華路28-1號","121.519126666667","24.9611966666667","6500600","新店區"
"231060","897-TW","2018/04/14 18:09:26","新北市新店區安華路28-1號","121.519586666667","24.960585","6500600","新店區"
"231043","899-TW","2018/04/14 18:09:28","新北市新店區安華路28-1號","121.518871666667","24.9610516666667","6500600","新店區"
"231066","AKT-0513","2018/04/14 18:09:32","新北市新店區安華路28-1號","121.519456666667","24.9605833333333","6500600","新店區"
"241033","AAC-255","2018/04/14 18:09:40","新北市三重區中興北街42巷30號","121.468651666667","25.0491833333333","6500200","三重區"
"235064","005-UY","2018/04/14 18:09:35","新北市中和區中正路275號","121.49546","24.99369","6500300","中和區"
"235063","006-UY","2018/04/14 18:09:22","新北市中和區員山路36巷16-3號","121.484988333333","24.9911583333333","6500300","中和區"
"235066","031-BX","2018/04/14 18:09:33","新北市中和區中正路226號","121.496178333333","24.9940833333333","6500300","中和區"
"235056","096-UM","2018/04/14 18:09:28","新北市中和區新生街230號","121.483791666667","24.998235","6500300","中和區"
"235039","097-UM","2018/04/14 18:09:29","新北市中和區和城路一段271巷1號","121.485358333333","24.9919283333333","6500300","中和區"
"235065","098-UM","2018/04/14 18:09:31","新北市中和區莊敬路49巷18號","121.501596666667","25.0060983333333","6500300","中和區"
"235058","151-BY","2018/04/14 18:09:37","新北市中和區圓通路367巷33弄15號","121.495285","24.9850433333333","6500300","中和區"
"235038","185-VK","2018/04/14 18:09:36","新北市中和區大智街26號","121.520868333333","24.9920216666667","6500300","中和區"
"235043","352-BY","2018/04/14 18:09:36","新北市中和區中正路637巷52弄1號","121.485588333333","24.99357","6500300","中和區"
"235061","378-QA","2018/04/14 18:09:35","新北市中和區連城路518巷1號","121.476848333333","24.991995","6500300","中和區"
"235050","4979-A6","2018/04/14 18:09:34","新北市中和區錦和路350-1號","121.490268333333","24.9935466666667","6500300","中和區"
"235042","551-UM","2018/04/14 18:09:37","新北市中和區興南路一段12號","121.511453333333","24.99133","6500300","中和區"
"235045","565-BX","2018/04/14 18:09:20","新北市中和區錦和路350-1號","121.490521666667","24.9935733333333","6500300","中和區"
"235054","640-BX","2018/04/14 18:09:30","新北市土城區延壽路115巷1號","121.469101666667","24.99409","6500300","中和區"
"235047","732-UM","2018/04/14 18:09:39","新北市中和區中正路395號","121.489935","24.9935366666667","6500300","中和區"
"235046","733-UM","2018/04/14 18:09:26","新北市中和區員山路36巷13號","121.48417","24.9909083333333","6500300","中和區"
"235062","800-TS","2018/04/14 18:09:28","新北市中和區景平路999巷1號","121.495481666667","25.006035","6500300","中和區"
"235057","801-TS","2018/04/14 18:09:30","新北市中和區員山路36巷16-3號","121.485161666667","24.9913066666667","6500300","中和區"
"235052","805-TS","2018/04/14 18:09:32","新北市中和區錦和路350-1號","121.490488333333","24.99357","6500300","中和區"
"235048","896-TW","2018/04/14 18:09:31","新北市中和區錦和路350-1號","121.490381666667","24.9935433333333","6500300","中和區"
"235053","900-TW","2018/04/14 18:09:34","新北市中和區員山路36巷16-2號","121.485258333333","24.9915383333333","6500300","中和區"
"235070","911-UM","2018/04/14 18:09:31","新北市中和區中正路305號","121.492371666667","24.9939","6500300","中和區"
"235051","157-BY","2018/04/14 18:09:38","新北市中和區復興路75號","121.503521666667","24.9901933333333","6500300","中和區"
"235037","AAC-213","2018/04/14 18:09:33","新北市中和區景平路155號","121.513671666667","24.9921766666667","6500300","中和區"
"247016","007-UY","2018/04/14 18:09:39","新北市蘆洲區光榮路130號","121.464893333333","25.0896366666667","6501400","蘆洲區"
"247002","002-UY","2018/04/14 18:09:39","新北市蘆洲區永平街32巷69弄4號","121.459238333333","25.0936416666667","6501400","蘆洲區"
"226004","312-R5","2018/04/14 18:09:34","新北市平溪區白石里白石腳6-1號","121.72101","25.021575","6502400","平溪區"
"228003","097-TW","2018/04/14 18:09:30","新北市貢寮區真理里美艷山街6-2號","121.928761666667","25.0607366666667","6502600","貢寮區"
"228001","212-TW","2018/04/14 18:09:36","新北市貢寮區真理里新港街26巷55弄2-1號","121.927403333333","25.0528483333333","6502600","貢寮區"
"228002","585-TW","2018/04/14 18:09:37","新北市貢寮區福連里馬崗街1號","121.997561666667","25.016885","6502600","貢寮區"
"224010","AGQ-8101","2018/04/14 18:01:34","新北市瑞芳區烏勢巷145號","121.847381666667","25.1087766666667","6501200","瑞芳區"
"224006","676-BX","2018/04/14 18:09:32","新北市瑞芳區中正路2號","121.809308333333","25.107045","6501200","瑞芳區"
"224002","639-TC","2018/04/14 18:09:24","新北市瑞芳區三爪子坑路106巷1-7號","121.808541666667","25.1050866666667","6501200","瑞芳區"
"224008","285-BY","2018/04/14 18:09:20","新北市瑞芳區員山子路23號","121.821371666667","25.103005","6501200","瑞芳區"
"224007","275-VK","2018/04/14 18:09:22","新北市瑞芳區四腳亭坑路2-7號","121.776621666667","25.1080066666667","6501200","瑞芳區"
"224009","273-VK","2018/04/14 18:09:30","新北市瑞芳區金光路115號","121.853605","25.106265","6501200","瑞芳區"
"224005","271-BY","2018/04/14 18:09:28","新北市瑞芳區建基路一段62巷24-1號","121.81637","25.1283633333333","6501200","瑞芳區"
"227002","642-TC","2018/04/14 18:09:30","新北市雙溪區共和里東榮街29號","121.866121666667","25.0335783333333","6502500","雙溪區"
"253005","032-BX","2018/04/14 18:09:40","新北市石門區中央路46號","121.568171666667","25.29295","6502200","石門區"
"253006","295-VK","2018/04/14 18:09:26","新北市石門區老梅路52巷21號","121.546413333333","25.2885766666667","6502200","石門區"
"222001","KEA-2212","2018/04/14 18:09:24","新北市深坑區北深路二段190號","121.613935","25.0022116666667","6501800","深坑區"
"208002","KEA-2872","2018/04/14 18:09:40","新北市金山區三界壇路111巷20-3號","121.617773333333","25.2320483333333","6502700","金山區"
"208003","665-BX","2018/04/14 18:09:31","新北市金山區民生路44號","121.649068333333","25.2240116666667","6502700","金山區"
"208001","761-BX","2018/04/14 18:09:38","新北市金山區磺港里磺港路73號","121.64756","25.227125","6502700","金山區"
"251009","008-UM","2018/04/14 18:09:28","新北市淡水區大仁街6巷13號","121.442821666667","25.1748966666667","6501000","淡水區"
"251004","009-UM","2018/04/14 18:09:40","新北市淡水區民族路110巷2號","121.462398333333","25.1354083333333","6501000","淡水區"
"251005","010-UM","2018/04/14 18:09:21","新北市淡水區學府路104號","121.449966666667","25.17199","6501000","淡水區"
"251013","179-VK","2018/04/14 18:09:39","新北市淡水區桂花樹3號","121.47621","25.19679","6501000","淡水區"
"251014","180-VK","2018/04/14 18:09:32","新北市淡水區南平14-3號","121.486066666667","25.2207283333333","6501000","淡水區"
"251008","181-VK","2018/04/14 18:09:30","新北市淡水區淡金路16巷60弄1號","121.459685","25.1609233333333","6501000","淡水區"
"251015","182-VK","2018/04/14 18:09:37","新北市淡水區興福寮88巷1號","121.485488333333","25.1649816666667","6501000","淡水區"
"251010","413-VK","2018/04/14 18:09:26","新北市淡水區中正路二段50巷10號","121.419896666667","25.183335","6501000","淡水區"
"251012","441-VK","2018/04/14 18:09:37","新北市淡水區泉洲厝19號","121.490398333333","25.1908283333333","6501000","淡水區"
"251016","442-VK","2018/04/14 18:09:35","新北市淡水區下圭柔山15-2號","121.453301666667","25.2023266666667","6501000","淡水區"
"251001","559-UM","2018/04/14 18:09:30","新北市淡水區自立路10號","121.463091666667","25.1297466666667","6501000","淡水區"
"251006","561-UM","2018/04/14 18:09:41","新北市淡水區真理街3巷24-1號","121.437931666667","25.17656","6501000","淡水區"
"251011","650-BX","2018/04/14 18:09:28","新北市淡水區三空泉5號","121.477846666667","25.16159","6501000","淡水區"
"251002","672-BX","2018/04/14 18:09:25","新北市淡水區中正東路一段125號","121.455258333333","25.1593183333333","6501000","淡水區"
"251003","673-BX","2018/04/14 18:09:34","新北市淡水區大忠街113巷24號","121.447443333333","25.1774116666667","6501000","淡水區"
"207003","550-UM","2018/04/14 18:09:30","新北市萬里區野柳里港西路70-3號","121.68543","25.2046366666667","6502800","萬里區"
"207004","225-TW","2018/04/14 18:09:30","新北市萬里區中幅里中福路115號","121.676281666667","25.1681483333333","6502800","萬里區"
"252002","178-VK","2018/04/14 18:09:22","新北市三芝區中山路二段39號","121.502956666667","25.2551066666667","6502100","三芝區"
"252003","249-BX","2018/04/14 18:09:26","新北市三芝區埔頭里埔頭37號","121.498436666667","25.2602883333333","6502100","三芝區"
"252001","292-VK","2018/04/14 18:09:37","新北市三芝區中興街二段2號","121.498376666667","25.25659","6502100","三芝區"
"237004","KEA-2597","2018/04/14 18:09:23","新北市三峽區大埔路152號","121.3658","24.9006416666667","6500900","三峽區"
"237007","153-BY","2018/04/14 18:09:37","新北市三峽區中正路二段368號","121.365561666667","24.909785","6500900","三峽區"
"237011","572-TV","2018/04/14 18:09:23","新北市三峽區溪東路182號","121.406695","24.9325383333333","6500900","三峽區"
"237009","210-TH","2018/04/14 18:09:40","新北市三峽區大仁路66巷3號","121.364813333333","24.9376033333333","6500900","三峽區"
"237013","252-BX","2018/04/14 18:09:33","新北市三峽區長泰街70-2號","121.376616666667","24.9334566666667","6500900","三峽區"
"237012","275-BY","2018/04/14 18:09:33","新北市三峽區民生街1巷1-14號","121.377685","24.9359583333333","6500900","三峽區"
"237008","302-VK","2018/04/14 18:09:28","新北市三峽區白雞58-2號","121.383976666667","24.91054","6500900","三峽區"
"237014","433-BY","2018/04/14 18:09:27","新北市三峽區國光街63巷2號","121.37397","24.93806","6500900","三峽區"
"237006","5529-G3","2018/04/14 18:09:36","新北市三峽區溪東路235號","121.406521666667","24.932595","6500900","三峽區"
"237010","706-TV","2018/04/14 18:09:41","新北市三峽區民族街17號","121.36937","24.9308733333333","6500900","三峽區"
"237005","AKY-6261","2018/04/14 18:09:33","新北市三峽區文化路65巷2號","121.37198","24.9357116666667","6500900","三峽區"
"236070","105-UM","2018/04/14 18:09:37","新北市土城區明德路一段303號","121.459823333333","24.9771966666667","6501300","土城區"
"236042","107-UM","2018/04/14 18:09:20","新北市土城區城林路6巷80號","121.438118333333","24.9795366666667","6501300","土城區"
"236079","166-UM","2018/04/14 18:09:30","新北市土城區永安街3號","121.434411666667","24.9652883333333","6501300","土城區"
"236030","253-BX","2018/04/14 18:09:37","新北市土城區城林路6巷80號","121.43847","24.979765","6501300","土城區"
"236026","269-VK","2018/04/14 18:09:24","新北市土城區承天路18號","121.43925","24.963665","6501300","土城區"
"236014","270-VK","2018/04/14 18:09:31","新北市土城區學府路一段144巷2號","121.455091666667","24.9872583333333","6501300","土城區"
"236038","271-VK","2018/04/14 18:09:37","新北市土城區青雲路322巷2弄4號","121.458223333333","24.9772233333333","6501300","土城區"
"236021","401-BY","2018/04/14 18:09:31","新北市土城區城林路6巷80號","121.438693333333","24.9797516666667","6501300","土城區"
"236059","912-UM","2018/04/14 18:09:25","新北市土城區中央路四段174號","121.416681666667","24.957985","6501300","土城區"
"236049","913-UM","2018/04/14 18:09:31","新北市土城區金城路二段28-6號","121.450683333333","24.9783583333333","6501300","土城區"
"236063","915-UM","2018/04/14 18:09:40","新北市土城區金城路二段200號","121.454708333333","24.9816516666667","6501300","土城區"
"236055","AAC-216","2018/04/14 18:09:26","新北市土城區中華路二段98號","121.43808","24.9744383333333","6501300","土城區"
"242034","AAC-296","2018/04/14 18:09:36","新北市新莊區新豐街65號","121.446325","25.0335216666667","6500500","新莊區"
"242058","986-R7","2018/04/14 18:09:40","新北市新莊區新北大道七段219號","121.413761666667","25.0302483333333","6500500","新莊區"
"242053","751-BX","2018/04/14 18:09:39","新北市新莊區民安西路358號","121.427406666667","25.0111783333333","6500500","新莊區"
"242029","705-TV","2018/04/14 18:09:26","新北市新莊區中平路136號","121.44479","25.0468166666667","6500500","新莊區"
"242027","615-BX","2018/04/14 18:09:41","新北市新莊區幸福路553號","121.454553333333","25.0491283333333","6500500","新莊區"
"242025","613-BX","2018/04/14 18:08:52","新北市新莊區五工二路91號","121.459303333333","25.066485","6500500","新莊區"
"242042","566-BX","2018/04/14 18:09:27","新北市新莊區天祥街131號","121.414158333333","25.02978","6500500","新莊區"
"242046","497-BY","2018/04/14 18:09:23","新北市新莊區福營路227巷13號","121.430103333333","25.03002","6500500","新莊區"
"242036","442-UM","2018/04/14 18:09:38","新北市新莊區後港一路65巷11弄12號","121.425703333333","25.027175","6500500","新莊區"
"242051","441-UM","2018/04/14 18:09:40","新北市新莊區民本街23巷17號","121.429085","25.0198083333333","6500500","新莊區"
"242056","440-UM","2018/04/14 18:09:32","新北市新莊區豐年街55-3號","121.446505","25.0311333333333","6500500","新莊區"
"242007","413-TV","2018/04/14 18:09:33","新北市新莊區中華路二段56號","121.454146666667","25.0459983333333","6500500","新莊區"
"242044","400-BY","2018/04/14 18:09:40","新北市新莊區中正路力行巷1弄2號","121.41692","25.0263233333333","6500500","新莊區"
"242023","362-BY","2018/04/14 18:09:25","新北市泰山區泰林路一段2號","121.441961666667","25.0478616666667","6500500","新莊區"
"242061","353-BY","2018/04/14 18:09:25","新北市新莊區新樹路69-34號","121.438366666667","25.0291083333333","6500500","新莊區"
"242039","133-UY","2018/04/14 18:09:25","新北市新莊區民安西路38巷14號","121.426755","25.0206483333333","6500500","新莊區"
"242048","172-VK","2018/04/14 18:09:35","新北市新莊區富國路152號","121.423155","25.0249316666667","6500500","新莊區"
"242011","173-VK","2018/04/14 18:09:40","新北市新莊區中信街86號","121.448018333333","25.0533166666667","6500500","新莊區"
"242017","175-VK","2018/04/14 18:09:38","新北市新莊區永樂街40號","121.451498333333","25.0450333333333","6500500","新莊區"
"242004","176-VK","2018/04/14 18:09:30","新北市新莊區自立街80號","121.45448","25.0453133333333","6500500","新莊區"
"242015","346-TH","2018/04/14 18:09:42","新北市新莊區中平路132巷14號","121.445626666667","25.0467033333333","6500500","新莊區"
"242019","347-TH","2018/04/14 18:09:28","新北市新莊區明中街49巷16號","121.456576666667","25.039115","6500500","新莊區"
"242021","348-TH","2018/04/14 18:09:38","新北市新莊區建興街66號","121.449933333333","25.0391783333333","6500500","新莊區"
"242002","349-TH","2018/04/14 18:09:34","新北市新莊區新莊路61號","121.458371666667","25.0370733333333","6500500","新莊區"
"242013","351-TH","2018/04/14 18:09:25","新北市新莊區中正路384號","121.441966666667","25.03445","6500500","新莊區"
"238015","755-BX","2018/04/14 18:09:30","新北市樹林區大安路493號","121.414308333333","24.9867333333333","6500700","樹林區"
"238023","601-UM","2018/04/14 18:09:39","新北市樹林區龍興街46巷30號","121.40188","25.015215","6500700","樹林區"
"238019","599-UM","2018/04/14 18:09:40","新北市樹林區水源街32巷74號","121.42499","24.9801733333333","6500700","樹林區"
"238018","571-TV","2018/04/14 18:09:37","新北市樹林區樹新路148號","121.430486666667","24.99902","6500700","樹林區"
"238024","5061-A6","2018/04/14 18:09:27","新北市樹林區豐林街64號","121.422131666667","24.9978766666667","6500700","樹林區"
"238022","KEA-2213","2018/04/14 18:09:22","新北市樹林區太平路150巷23弄20號","121.417236666667","24.9769083333333","6500700","樹林區"
"238021","KEA-2539","2018/04/14 18:09:31","新北市樹林區柑園街二段95號","121.3859","24.9549416666667","6500700","樹林區"
"238025","303-VK","2018/04/14 18:09:31","新北市樹林區保安街二段67號","121.416068333333","25.0005716666667","6500700","樹林區"
"238014","282-BY","2018/04/14 18:09:24","新北市樹林區潭興街89號","121.42455","24.9983533333333","6500700","樹林區"
"238026","172-UY","2018/04/14 18:09:33","新北市樹林區佳園路一段50號","121.392923333333","24.97065","6500700","樹林區"
"238016","169-UY","2018/04/14 18:09:24","新北市樹林區中山路一段238號","121.42108","24.9877233333333","6500700","樹林區"
"239007","AAC-297","2018/04/14 18:09:28","新北市鶯歌區尖山埔路102號","121.347293333333","24.9511316666667","6500800","鶯歌區"
"239006","891-R6","2018/04/14 18:09:35","新北市鶯歌區德昌街140巷52號","121.33235","24.9625233333333","6500800","鶯歌區"
"239008","527-UM","2018/04/14 18:09:39","新北市鶯歌區國際一路179號","121.336238333333","24.9765033333333","6500800","鶯歌區"
"239005","526-UM","2018/04/14 18:09:37","新北市鶯歌區鶯桃路668巷73號","121.329856666667","24.9717033333333","6500800","鶯歌區"
"239001","417-VK","2018/04/14 18:09:21","新北市鶯歌區中正三路5巷23號","121.340248333333","24.9427933333333","6500800","鶯歌區"
"239003","360-BY","2018/04/14 18:09:34","新北市鶯歌區福安街58號","121.335568333333","24.965175","6500800","鶯歌區"
"239002","359-BY","2018/04/14 18:09:33","新北市鶯歌區中山路133號","121.349326666667","24.9569866666667","6500800","鶯歌區"
"239004","193-VK","2018/04/14 18:09:36","新北市鶯歌區尖山路164-2號","121.345753333333","24.9481316666667","6500800","鶯歌區"
"221036","130-UY","2018/04/14 18:09:24","新北市汐止區大同路三段101號","121.668275","25.0775133333333","6501100","汐止區"
"221015","131-UY","2018/04/14 18:08:42","新北市汐止區鄉長路二段146號","121.663248333333","25.0854483333333","6501100","汐止區"
"221010","269-BY","2018/04/14 18:09:41","新北市汐止區汐萬路二段273號","121.646035","25.0889416666667","6501100","汐止區"
"221012","278-VK","2018/04/14 18:09:23","新北市汐止區保一街39號","121.674173333333","25.0799233333333","6501100","汐止區"
"221023","279-VK","2018/04/14 18:09:32","新北市汐止區民族五街92號","121.627343333333","25.069615","6501100","汐止區"
"221032","280-BY","2018/04/14 18:09:38","新北市汐止區橫科路25號","121.618026666667","25.051155","6501100","汐止區"
"221027","281-BY","2018/04/14 18:09:20","新北市汐止區大同路二段530號","121.661265","25.0685733333333","6501100","汐止區"
"221029","298-VK","2018/04/14 18:09:29","新北市汐止區樟樹二路101號","121.640375","25.0669483333333","6501100","汐止區"
"221021","299-VK","2018/04/14 18:09:19","新北市汐止區龍安路202巷11號","121.652583333333","25.0633483333333","6501100","汐止區"
"221031","353-TW","2018/04/14 18:09:33","新北市汐止區中興路152-3號","121.632368333333","25.0647766666667","6501100","汐止區"
"221008","129-UY","2018/04/14 18:09:38","新北市汐止區康寧街397號","121.629466666667","25.06787","6501100","汐止區"
"221035","622-UM","2018/04/14 18:09:24","新北市汐止區大同路二段196號","121.652995","25.0645566666667","6501100","汐止區"
"221025","623-UM","2018/04/14 18:09:39","新北市汐止區勤進路1號","121.660456666667","25.0620733333333","6501100","汐止區"
"221038","646-BX","2018/04/14 18:09:30","新北市汐止區仁愛路119巷1號","121.66261","25.0636733333333","6501100","汐止區"
"221033","647-BX","2018/04/14 18:09:32","新北市汐止區宜興街30巷20號","121.62235","25.041055","6501100","汐止區"
"221002","707-TV","2018/04/14 18:09:33","新北市汐止區福德一路197號","121.635528333333","25.06552","6501100","汐止區"
"242009","281-VK","2018/04/14 18:09:41","新北市新莊區中華路二段210巷10號","121.453411666667","25.0522166666667","6500500","新莊區"
"242031","280-VK","2018/04/14 18:09:38","新北市新莊區新泰路277巷17號","121.445161666667","25.0402583333333","6500500","新莊區"
