"lineid","car","time","location","longitude","latitude","cityid","cityname"
"234070","149-BY","2018/04/14 18:55:39","新北市永和區竹林路96巷2號","121.519278333333","25.0121183333333","6500400","永和區"
"234007","207-UY","2018/04/14 18:59:34","新北市永和區永和路二段48號","121.514748333333","25.0107433333333","6500400","永和區"
"234081","298-R6","2018/04/14 18:59:43","新北市永和區永亨路61號","121.521056666667","25.0060433333333","6500400","永和區"
"234038","336-UY","2018/04/14 18:59:27","新北市永和區成功路二段207號","121.526576666667","24.9959233333333","6500400","永和區"
"234064","337-UY","2018/04/14 18:59:38","新北市永和區秀朗路一段180號","121.518911666667","25.0032233333333","6500400","永和區"
"234086","338-UY","2018/04/14 18:59:35","新北市永和區永寧街129巷2號","121.518065","25.005425","6500400","永和區"
"234067","553-UM","2018/04/14 18:59:27","新北市永和區中和路625號","121.513036666667","25.0049033333333","6500400","永和區"
"234017","745-BX","2018/04/14 18:59:26","新北市永和區永和路二段310號","121.516138333333","25.0161","6500400","永和區"
"234030","746-BX","2018/04/14 18:59:36","新北市永和區秀朗路二段274號","121.525993333333","24.9979883333333","6500400","永和區"
"234054","KEA-2590","2018/04/14 18:59:37","新北市永和區竹林路66巷5號","121.518271666667","25.0132916666667","6500400","永和區"
"234013","KEA-2591","2018/04/14 18:59:23","新北市永和區中山路一段60巷10號","121.513186666667","25.0110616666667","6500400","永和區"
"234061","AAD-866","2018/04/14 18:59:25","新北市永和區福和路309巷1號","121.51643","25.0070783333333","6500400","永和區"
"234046","847-RS","2018/04/14 18:59:34","新北市永和區秀朗路二段196巷3號","121.526071666667","25.000545","6500400","永和區"
"234042","862-TW","2018/04/14 18:59:34","新北市永和區永貞路306號","121.51188","25.004845","6500400","永和區"
"234050","863-TW","2018/04/14 18:59:33","新北市永和區文化路194號","121.510776666667","25.0162383333333","6500400","永和區"
"234026","9371-KE","2018/04/14 18:59:37","新北市永和區安樂路449號","121.514303333333","25.0049183333333","6500400","永和區"
"234011","9373-KE","2018/04/14 18:59:28","新北市永和區忠孝街34巷18號","121.514475","25.016795","6500400","永和區"
"249005","172-UM","2018/04/14 18:59:39","新北市八里區長道坑11號","121.396205","25.1230583333333","6502300","八里區"
"249001","173-UM","2018/04/14 18:59:20","新北市八里區龍米路二段228-1號","121.432678333333","25.1585033333333","6502300","八里區"
"248016","026-BX","2018/04/14 18:59:32","新北市五股區成泰路三段543巷1號","121.450925","25.1021733333333","6501500","五股區"
"248006","077-UY","2018/04/14 18:59:31","新北市五股區中興路一段68號","121.467305","25.0729616666667","6501500","五股區"
"248008","095-VK","2018/04/14 18:59:34","新北市五股區中興路一段120號","121.465868333333","25.073605","6501500","五股區"
"248020","225-UY","2018/04/14 18:59:24","新北市五股區凌雲路三段田埔巷1號","121.432511666667","25.1173416666667","6501500","五股區"
"248012","247-BX","2018/04/14 18:59:37","新北市五股區中興路四段48巷16號","121.438641666667","25.0834466666667","6501500","五股區"
"248010","272-BY","2018/04/14 18:59:24","新北市五股區自強路90巷72號","121.43075","25.0713016666667","6501500","五股區"
"248004","677-BX","2018/04/14 18:59:23","新北市五股區民義路二段64號","121.405645","25.1079733333333","6501500","五股區"
"248002","678-BX","2018/04/14 18:59:34","新北市五股區凌雲路一段90號","121.450578333333","25.101515","6501500","五股區"
"234023","9380-KE","2018/04/14 18:59:35","新北市永和區竹林路75巷33弄3號","121.52052","25.0142516666667","6500400","永和區"
"234077","969-R7","2018/04/14 18:59:30","新北市永和區中正路314號","121.51783","24.9993433333333","6500400","永和區"
"234074","AAC-211","2018/04/14 18:59:31","新北市永和區環河東路二段100號","121.524195","25.0103816666667","6500400","永和區"
"234003","AAC-295","2018/04/14 18:59:31","新北市永和區和平街19號","121.513493333333","25.0098633333333","6500400","永和區"
"244013","069-UM","2018/04/14 18:59:42","新北市林口區麗園一街11巷3號","121.37755","25.0704383333333","6501700","林口區"
"244009","410-SL","2018/04/14 18:59:31","新北市林口區竹林路348巷26號","121.393095","25.08358","6501700","林口區"
"244023","483-VK","2018/04/14 18:59:33","新北市林口區民權路10號","121.37115","25.080035","6501700","林口區"
"244017","485-VK","2018/04/14 18:59:23","新北市林口區文化二路一段96巷26-1號","121.367423333333","25.06916","6501700","林口區"
"244019","657-BX","2018/04/14 18:59:38","新北市林口區麗園二街3巷5號","121.377681666667","25.0700016666667","6501700","林口區"
"244011","701-TV","2018/04/14 18:59:24","新北市林口區粉寮路一段7號","121.39633","25.0762633333333","6501700","林口區"
"244025","837-TS","2018/04/14 18:59:36","新北市林口區民族路86-1號","121.366301666667","25.075215","6501700","林口區"
"243012","AAD-798","2018/04/14 18:59:40","新北市泰山區仁德路112號","121.432773333333","25.05696","6501600","泰山區"
"243015","380-SR","2018/04/14 18:59:21","新北市泰山區泰林路二段328號","121.43015","25.0631883333333","6501600","泰山區"
"243014","421-VK","2018/04/14 18:59:38","新北市泰山區黎明路23號","121.42091","25.0626116666667","6501600","泰山區"
"243010","KEA-2215","2018/04/14 18:59:32","新北市泰山區辭修路24號","121.429018333333","25.0581283333333","6501600","泰山區"
"243009","KEA-2216","2018/04/14 18:59:23","新北市泰山區泰林路二段362號","121.428878333333","25.0636433333333","6501600","泰山區"
"243013","646-TV","2018/04/14 18:59:38","新北市泰山區明志路三段351巷8號","121.422325","25.034955","6501600","泰山區"
"243016","680-BX","2018/04/14 18:59:28","新北市泰山區明志路二段152-3號","121.42757","25.050405","6501600","泰山區"
"222003","436-BY","2018/04/14 18:59:35","新北市深坑區深南路51-1號","121.621355","25.01013","6501800","深坑區"
"222002","659-BX","2018/04/14 18:59:33","新北市深坑區文山路一段31巷2號","121.629858333333","25.0033633333333","6501800","深坑區"
"231041","002-UM","2018/04/14 18:59:26","新北市新店區環河路62號","121.536986666667","24.96261","6500600","新店區"
"231059","046-UY","2018/04/14 18:59:31","新北市新店區安華路28-1號","121.519555","24.9609066666667","6500600","新店區"
"231040","047-UY","2018/04/14 18:59:22","新北市新店區中正路394號","121.534606666667","24.9773433333333","6500600","新店區"
"231044","106-UY","2018/04/14 18:59:40","新北市新店區寶中路99號","121.5488","24.9803483333333","6500600","新店區"
"231048","187-VK","2018/04/14 18:59:30","新北市新店區德正街29號","121.544626666667","24.9713983333333","6500600","新店區"
"231046","188-VK","2018/04/14 18:59:34","新北市新店區直潭八街2號","121.534606666667","24.9401583333333","6500600","新店區"
"231054","KEA-2219","2018/04/14 18:59:40","新北市新店區新店路15號","121.540266666667","24.952805","6500600","新店區"
"231051","278-BY","2018/04/14 18:59:36","新北市新店區百忍街5號","121.534826666667","24.9754966666667","6500600","新店區"
"231050","AAD-862","2018/04/14 18:59:43","新北市新店區北宜路二段30巷5弄18號","121.548618333333","24.9506483333333","6500600","新店區"
"231058","3713-VJ","2018/04/14 18:59:40","新北市新店區中興路一段222號","121.544031666667","24.9661116666667","6500600","新店區"
"231066","4716-K9","2018/04/14 18:59:38","新北市新店區安祥路22號","121.4932","24.9555466666667","6500600","新店區"
"231056","4715-K9","2018/04/14 18:59:24","新北市新店區二十張路46巷37弄7號","121.536328333333","24.9818583333333","6500600","新店區"
"231067","4772-VM","2018/04/14 18:59:41","新北市新店區安康路一段247巷7號","121.525051666667","24.96267","6500600","新店區"
"231065","512-UM","2018/04/14 18:59:27","新北市新店區安祥路147巷86號","121.475516666667","24.9553833333333","6500600","新店區"
"231049","513-UM","2018/04/14 18:59:39","新北市新店區中正路454-5號","121.534558333333","24.9789883333333","6500600","新店區"
"231045","617-UM","2018/04/14 18:59:31","新北市新店區光明街9號","121.538135","24.9593333333333","6500600","新店區"
"231061","618-UM","2018/04/14 18:59:40","新北市新店區安華路16號","121.516995","24.958025","6500600","新店區"
"231063","641-BX","2018/04/14 18:59:42","新北市新店區車子路110號","121.50524","24.952035","6500600","新店區"
"231042","645-TV","2018/04/14 18:59:31","新北市新店區中興路一段289號","121.545586666667","24.968635","6500600","新店區"
"231064","719-UM","2018/04/14 18:59:38","新北市新店區安華路28-1號","121.519526666667","24.9612633333333","6500600","新店區"
"231052","719-UY","2018/04/14 18:59:31","新北市新店區屈尺路12號","121.548968333333","24.9225883333333","6500600","新店區"
"231062","720-UM","2018/04/14 18:59:28","新北市新店區安豐路60-1號","121.497868333333","24.9535916666667","6500600","新店區"
"231060","897-TW","2018/04/14 18:59:05","新北市新店區安忠路57巷13號","121.513273333333","24.9573583333333","6500600","新店區"
"231043","899-TW","2018/04/14 18:59:28","新北市新店區北新路二段1號","121.542631666667","24.9712216666667","6500600","新店區"
"231055","AKT-0513","2018/04/14 18:59:36","新北市新店區力行路14巷10號","121.539256666667","24.9650516666667","6500600","新店區"
"235064","005-UY","2018/04/14 18:59:35","新北市中和區景平路517號","121.49931","24.9988433333333","6500300","中和區"
"235063","006-UY","2018/04/14 18:59:22","新北市中和區中正路524號","121.488008333333","24.99437","6500300","中和區"
"235066","031-BX","2018/04/14 18:59:32","新北市中和區中山路二段131巷5弄3號","121.502835","25.00287","6500300","中和區"
"235056","096-UM","2018/04/14 18:59:28","新北市中和區中山路二段568巷46號","121.48227","25.0068233333333","6500300","中和區"
"235039","097-UM","2018/04/14 18:59:29","新北市中和區安樂路217巷40弄1號","121.513313333333","24.9979666666667","6500300","中和區"
"235065","098-UM","2018/04/14 18:59:40","新北市中和區勝利路35巷1弄1號","121.498913333333","25.0075483333333","6500300","中和區"
"235040","150-BY","2018/04/14 18:59:35","新北市中和區安樂路101-3號","121.513361666667","24.9951716666667","6500300","中和區"
"235058","151-BY","2018/04/14 18:59:37","新北市中和區員山路86號","121.4809","24.99425","6500300","中和區"
"235055","183-VK","2018/04/14 18:59:31","新北市中和區民德路17號","121.468888333333","25.0028516666667","6500300","中和區"
"235038","185-VK","2018/04/14 18:59:36","新北市中和區大勇街27巷2號","121.517368333333","24.9938433333333","6500300","中和區"
"235049","186-VK","2018/04/14 18:59:41","新北市中和區景新街210巷2弄6號","121.506935","24.9941733333333","6500300","中和區"
"235067","255-BX","2018/04/14 18:59:24","新北市中和區新生街187號","121.4838","25.0004","6500300","中和區"
"235044","293-VK","2018/04/14 18:59:26","新北市中和區中興街161巷3弄2號","121.500605","24.9909066666667","6500300","中和區"
"235072","301-VK","2018/04/14 18:59:20","新北市中和區中山路二段258號","121.497628333333","25.0024416666667","6500300","中和區"
"235043","352-BY","2018/04/14 18:59:36","新北市中和區景平路1號","121.525595","24.99026","6500300","中和區"
"235068","377-QA","2018/04/14 18:59:22","新北市中和區圓通路198巷3號","121.495878333333","24.9943283333333","6500300","中和區"
"235061","378-QA","2018/04/14 18:59:35","新北市中和區民享街79巷5號","121.474638333333","25.0019833333333","6500300","中和區"
"235060","269-TV","2018/04/14 18:59:30","新北市中和區民治街11巷2號","121.475205","25.0042416666667","6500300","中和區"
"235050","4979-A6","2018/04/14 18:59:34","新北市中和區興南路二段3巷1號","121.508085","24.9864483333333","6500300","中和區"
"235042","551-UM","2018/04/14 18:59:37","新北市中和區秀朗路三段100巷3號","121.525386666667","24.9932916666667","6500300","中和區"
"235045","565-BX","2018/04/14 18:59:40","新北市中和區景新街467巷32弄10號","121.51431","24.9880883333333","6500300","中和區"
"235054","640-BX","2018/04/14 18:59:30","新北市中和區民享街6號","121.474023333333","25.0048583333333","6500300","中和區"
"235047","732-UM","2018/04/14 18:59:39","新北市中和區興南路二段74巷14號","121.505293333333","24.9850083333333","6500300","中和區"
"235046","733-UM","2018/04/14 18:59:26","新北市中和區興南路一段135巷22弄6號","121.509086666667","24.98685","6500300","中和區"
"235062","800-TS","2018/04/14 18:59:28","新北市中和區中山路二段417號","121.486116666667","25.0048166666667","6500300","中和區"
"235057","801-TS","2018/04/14 18:59:30","新北市中和區民安街65巷5號","121.478808333333","24.99931","6500300","中和區"
"235052","805-TS","2018/04/14 18:59:32","新北市中和區興南路二段114巷6號","121.50409","24.984335","6500300","中和區"
"235048","896-TW","2018/04/14 18:59:31","新北市中和區忠孝街2號","121.508815","24.9828566666667","6500300","中和區"
"235053","900-TW","2018/04/14 18:59:34","新北市中和區壽德街26號","121.466545","24.994405","6500300","中和區"
"235070","911-UM","2018/04/14 18:59:31","新北市中和區安和路213號","121.505993333333","24.999015","6500300","中和區"
"235051","157-BY","2018/04/14 18:59:38","新北市中和區忠孝街19巷23號","121.509803333333","24.9842366666667","6500300","中和區"
"235037","AAC-213","2018/04/14 18:59:24","新北市中和區自立路3號","121.5226","24.99669","6500300","中和區"
"235059","AAC-215","2018/04/14 18:59:28","新北市中和區圓通路367巷20弄7號","121.491951666667","24.9884316666667","6500300","中和區"
"220068","013-TV","2018/04/14 18:59:38","新北市板橋區中山路二段465巷92-1號","121.481223333333","25.0225383333333","6500100","板橋區"
"220056","015-TV","2018/04/14 18:59:34","新北市板橋區信義路151號","121.458373333333","24.9930583333333","6500100","板橋區"
"220065","072-UY","2018/04/14 18:59:36","新北市板橋區民族路287巷10號","121.471213333333","25.00715","6500100","板橋區"
"220086","073-UY","2018/04/14 18:59:30","新北市板橋區中正路80巷15號","121.457375","25.014575","6500100","板橋區"
"220106","075-UY","2018/04/14 18:59:23","新北市板橋區莊敬路94號","121.471298333333","25.0246316666667","6500100","板橋區"
"220069","AAD-861","2018/04/14 18:59:30","新北市板橋區大華街38號","121.458775","25.0054066666667","6500100","板橋區"
"226004","312-R5","2018/04/14 18:59:20","新北市平溪區靜安路三段67號","121.765221666667","25.0321083333333","6502400","平溪區"
"235041","251-BX","2018/04/14 18:59:35","新北市中和區安平路145巷16號","121.51149","24.99848","6500300","中和區"
"228003","097-TW","2018/04/14 18:59:29","新北市貢寮區和美里龍洞街44號","121.911985","25.1128466666667","6502600","貢寮區"
"228001","212-TW","2018/04/14 18:59:36","新北市貢寮區仁理村研海街12-1號","121.923816666667","25.051545","6502600","貢寮區"
"228002","585-TW","2018/04/14 18:59:37","新北市貢寮區福隆里東興街104號","121.945951666667","25.01744","6502600","貢寮區"
"224006","676-BX","2018/04/14 18:59:32","新北市瑞芳區三爪子坑路106巷118號","121.809336666667","25.1043933333333","6501200","瑞芳區"
"224002","639-TC","2018/04/14 18:59:24","新北市瑞芳區八分寮路50號","121.796035","25.0831033333333","6501200","瑞芳區"
"224008","285-BY","2018/04/14 18:59:40","新北市瑞芳區逢甲路343-7號","121.799798333333","25.1123266666667","6501200","瑞芳區"
"224007","275-VK","2018/04/14 18:59:41","新北市瑞芳區大埔路242號","121.759655","25.1013166666667","6501200","瑞芳區"
"224009","273-VK","2018/04/14 18:59:30","新北市瑞芳區長仁路38號","121.864166666667","25.117095","6501200","瑞芳區"
"224005","271-BY","2018/04/14 18:59:28","新北市瑞芳區瑞芳街32-10號","121.82221","25.1209483333333","6501200","瑞芳區"
"227002","642-TC","2018/04/14 18:59:30","新北市雙溪區平林里康福家園10號","121.8588","25.037315","6502500","雙溪區"
"227010","400-TW","2018/04/14 18:59:25","新北市雙溪區牡丹里中正路58巷23號","121.866453333333","25.0415166666667","6502500","雙溪區"
"253005","032-BX","2018/04/14 18:59:40","新北市石門區尖子鹿76號","121.571521666667","25.2968183333333","6502200","石門區"
"253006","295-VK","2018/04/14 18:59:26","新北市石門區下員坑30-7號","121.51978","25.2821983333333","6502200","石門區"
"222001","KEA-2212","2018/04/14 18:59:24","新北市深坑區北深路一段196號","121.633356666667","25.0108483333333","6501800","深坑區"
"208002","KEA-2872","2018/04/14 18:59:39","新北市金山區信義路72號","121.635156666667","25.2194716666667","6502700","金山區"
"208003","665-BX","2018/04/14 18:59:32","新北市金山區中正路85號","121.63339","25.2216416666667","6502700","金山區"
"208001","761-BX","2018/04/14 18:59:38","新北市金山區民生路51巷1-2號","121.641883333333","25.2193133333333","6502700","金山區"
"251009","008-UM","2018/04/14 18:59:28","新北市淡水區重建街永興巷2號","121.439655","25.172515","6501000","淡水區"
"251013","179-VK","2018/04/14 18:59:39","新北市淡水區安子內12號","121.481613333333","25.219035","6501000","淡水區"
"251014","180-VK","2018/04/14 18:59:23","新北市淡水區小中寮32-1號","121.491736666667","25.2266133333333","6501000","淡水區"
"251015","182-VK","2018/04/14 18:59:37","新北市淡水區糞箕湖129巷5號","121.488531666667","25.1721833333333","6501000","淡水區"
"251010","413-VK","2018/04/14 18:59:25","新北市淡水區淡海路98號","121.422825","25.182065","6501000","淡水區"
"251016","442-VK","2018/04/14 18:59:35","新北市淡水區埤島27號","121.446353333333","25.1996083333333","6501000","淡水區"
"251001","559-UM","2018/04/14 18:59:30","新北市淡水區自強路249號","121.463045","25.1274833333333","6501000","淡水區"
"251007","577-R6","2018/04/14 18:59:33","新北市淡水區民生路113巷1弄46號","121.462828333333","25.1386683333333","6501000","淡水區"
"251002","672-BX","2018/04/14 18:59:25","新北市淡水區中正東路55-4號","121.446756666667","25.1678433333333","6501000","淡水區"
"251003","673-BX","2018/04/14 18:59:34","新北市淡水區中山北路一段149巷24號","121.442923333333","25.17798","6501000","淡水區"
"207003","550-UM","2018/04/14 18:59:30","新北市萬里區大鵬里頂社13號","121.656078333333","25.2095316666667","6502800","萬里區"
"207004","225-TW","2018/04/14 18:59:30","新北市萬里區萬里里獅頭路23號","121.693305","25.1782166666667","6502800","萬里區"
"252002","178-VK","2018/04/14 18:59:42","新北市三芝區中正路一段74號","121.503978333333","25.2575416666667","6502100","三芝區"
"252003","249-BX","2018/04/14 18:59:28","新北市三芝區後厝里北勢子42-3號","121.472291666667","25.2525916666667","6502100","三芝區"
"252001","292-VK","2018/04/14 18:59:37","新北市三芝區中興街二段260號","121.501715","25.2530116666667","6502100","三芝區"
"237004","KEA-2597","2018/04/14 18:59:23","新北市三峽區有木189號","121.449256666667","24.8428716666667","6500900","三峽區"
"237007","153-BY","2018/04/14 18:59:31","新北市三峽區大埔路77號","121.36632","24.908325","6500900","三峽區"
"237011","572-TV","2018/04/14 18:59:23","新北市三峽區介壽路一段286號","121.379895","24.9302633333333","6500900","三峽區"
"237013","252-BX","2018/04/14 18:59:33","新北市三峽區光明路69巷25號","121.376651666667","24.92927","6500900","三峽區"
"237012","275-BY","2018/04/14 18:59:33","新北市三峽區三樹路222巷196-1號","121.388923333333","24.9426666666667","6500900","三峽區"
"237008","302-VK","2018/04/14 18:59:28","新北市三峽區中正路一段279號","121.371665","24.9258616666667","6500900","三峽區"
"237014","433-BY","2018/04/14 18:59:27","新北市三峽區復興路553號","121.356736666667","24.94052","6500900","三峽區"
"237006","5529-G3","2018/04/14 18:59:36","新北市三峽區溪東路43號","121.40049","24.9348783333333","6500900","三峽區"
"237010","706-TV","2018/04/14 18:59:41","新北市三峽區復興路44號","121.373593333333","24.9369183333333","6500900","三峽區"
"237005","AKY-6261","2018/04/14 18:59:33","新北市三峽區中山路459巷163-3號","121.348671666667","24.9329166666667","6500900","三峽區"
"236070","105-UM","2018/04/14 18:59:37","新北市土城區明德路二段201號","121.446761666667","24.9834116666667","6501300","土城區"
"236042","107-UM","2018/04/14 18:59:40","新北市土城區學府路一段258號","121.451293333333","24.984455","6501300","土城區"
"236079","166-UM","2018/04/14 18:59:26","新北市土城區中央路四段208號","121.415828333333","24.9573716666667","6501300","土城區"
"236030","253-BX","2018/04/14 18:59:37","新北市土城區中華路二段2號","121.439705","24.9793466666667","6501300","土城區"
"236026","269-VK","2018/04/14 18:59:35","新北市土城區光明街4號","121.441966666667","24.9744866666667","6501300","土城區"
"236014","270-VK","2018/04/14 18:59:31","新北市土城區延和路13巷14號","121.463708333333","24.98846","6501300","土城區"
"236038","271-VK","2018/04/14 18:59:37","新北市土城區青仁路51號","121.461541666667","24.9795416666667","6501300","土城區"
"236021","401-BY","2018/04/14 18:59:31","新北市土城區延吉街217巷3弄1號","121.468673333333","24.9848483333333","6501300","土城區"
"236059","912-UM","2018/04/14 18:59:25","新北市土城區金城路二段200號","121.45474","24.9816733333333","6501300","土城區"
"236049","913-UM","2018/04/14 18:59:34","新北市土城區青雲路322巷2弄4號","121.45809","24.9773166666667","6501300","土城區"
"236063","915-UM","2018/04/14 18:59:40","新北市土城區延和路41巷2弄15號","121.46669","24.990175","6501300","土城區"
"236055","AAC-216","2018/04/14 18:59:25","新北市土城區學成路147號","121.448746666667","24.98953","6501300","土城區"
"238023","601-UM","2018/04/14 18:59:39","新北市樹林區工興街33號","121.400773333333","25.0132833333333","6500700","樹林區"
"238019","599-UM","2018/04/14 18:59:40","新北市樹林區鎮前街425巷2弄4號","121.413743333333","24.9826066666667","6500700","樹林區"
"238018","571-TV","2018/04/14 18:59:01","新北市樹林區太元街1號","121.417628333333","24.98108","6500700","樹林區"
"238022","KEA-2213","2018/04/14 18:59:22","新北市樹林區東興街2-1號","121.409105","24.9797266666667","6500700","樹林區"
"238021","KEA-2539","2018/04/14 18:59:35","新北市樹林區西圳街二段135巷7-6號","121.382768333333","24.95716","6500700","樹林區"
"238025","303-VK","2018/04/14 18:59:31","新北市樹林區民和街77號","121.380305","24.9720783333333","6500700","樹林區"
"238014","282-BY","2018/04/14 18:59:21","新北市樹林區千歲街94號","121.42651","24.9979183333333","6500700","樹林區"
"238026","172-UY","2018/04/14 18:59:33","新北市樹林區佳園路一段41巷32號","121.39487","24.9709633333333","6500700","樹林區"
"238016","169-UY","2018/04/14 18:59:44","新北市樹林區復興路373巷7弄14號","121.417861666667","24.9868166666667","6500700","樹林區"
"239007","AAC-297","2018/04/14 18:59:28","新北市鶯歌區中正一路333-2號","121.356618333333","24.9578016666667","6500800","鶯歌區"
"239006","891-R6","2018/04/14 18:59:41","新北市鶯歌區鶯桃路266號","121.335598333333","24.9599133333333","6500800","鶯歌區"
"239008","527-UM","2018/04/14 18:59:39","新北市鶯歌區國際二路12巷1號","121.337748333333","24.9743933333333","6500800","鶯歌區"
"239005","526-UM","2018/04/14 18:59:36","新北市鶯歌區大湖路361巷24弄10號","121.330203333333","24.97795","6500800","鶯歌區"
"239001","417-VK","2018/04/14 18:59:41","新北市鶯歌區永智街16號","121.336898333333","24.9548483333333","6500800","鶯歌區"
"239003","360-BY","2018/04/14 18:59:34","新北市鶯歌區鶯桃路429號","121.332685","24.965145","6500800","鶯歌區"
"239002","359-BY","2018/04/14 18:59:33","新北市鶯歌區中山路315號","121.344046666667","24.956905","6500800","鶯歌區"
"239004","193-VK","2018/04/14 18:59:36","新北市鶯歌區中正三路297號","121.329233333333","24.936095","6500800","鶯歌區"
"221036","130-UY","2018/04/14 18:59:24","新北市汐止區汐萬路一段125號","121.654028333333","25.0711333333333","6501100","汐止區"
"221015","131-UY","2018/04/14 18:59:42","新北市汐止區汐萬路一段147號","121.653298333333","25.071055","6501100","汐止區"
"221010","269-BY","2018/04/14 18:59:21","新北市汐止區康寧街901號","121.65155","25.0749383333333","6501100","汐止區"
"221012","278-VK","2018/04/14 18:59:23","新北市汐止區康寧街901號","121.6508","25.07536","6501100","汐止區"
"221032","280-BY","2018/04/14 18:59:26","新北市汐止區橫科路407巷30弄29號","121.626778333333","25.0479266666667","6501100","汐止區"
"221027","281-BY","2018/04/14 18:59:40","新北市汐止區康寧街901號","121.65144","25.0749416666667","6501100","汐止區"
"221029","298-VK","2018/04/14 18:59:29","新北市汐止區樟樹一路256號","121.642345","25.06731","6501100","汐止區"
"221031","353-TW","2018/04/14 18:59:33","新北市汐止區福德三路131號","121.633296666667","25.0674983333333","6501100","汐止區"
"221008","129-UY","2018/04/14 18:59:38","新北市汐止區康寧街753巷2弄8號","121.639323333333","25.0738966666667","6501100","汐止區"
"221025","623-UM","2018/04/14 18:59:19","新北市汐止區汐萬路一段132號","121.653498333333","25.07121","6501100","汐止區"
"221038","646-BX","2018/04/14 18:59:29","新北市汐止區汐萬路一段312號","121.650691666667","25.075315","6501100","汐止區"
"221033","647-BX","2018/04/14 18:59:32","新北市汐止區南勢街1巷1號","121.627085","25.0374733333333","6501100","汐止區"
"221002","707-TV","2018/04/14 18:59:33","新北市汐止區大同路一段2號","121.6211","25.0550016666667","6501100","汐止區"
"220079","145-BY","2018/04/14 18:59:36","新北市板橋區民權路202巷14弄1號","121.460678333333","25.0159416666667","6500100","板橋區"
"220080","200-UY","2018/04/14 18:59:36","新北市板橋區大觀路二段265巷1弄14號","121.443551666667","24.998465","6500100","板橋區"
"220082","610-BX","2018/04/14 18:59:39","新北市板橋區溪崑一街126號","121.429198333333","24.9882683333333","6500100","板橋區"
"220101","245-BX","2018/04/14 18:59:41","新北市板橋區文化路二段182巷27號","121.472436666667","25.026585","6500100","板橋區"
"220103","257-TC","2018/04/14 18:59:32","新北市板橋區民生路二段123號","121.470606666667","25.0184833333333","6500100","板橋區"
"220091","267-BY","2018/04/14 18:59:24","新北市板橋區雙十路二段47巷52號","121.474925","25.0253866666667","6500100","板橋區"
"220072","277-BY","2018/04/14 18:59:23","新北市板橋區篤行路一段33號","121.432028333333","24.9944616666667","6500100","板橋區"
"220070","282-UM","2018/04/14 18:59:41","新北市板橋區四川路一段487號","121.457113333333","24.9972533333333","6500100","板橋區"
"220071","283-VK","2018/04/14 18:59:23","新北市板橋區忠孝路154巷5號","121.464133333333","25.002065","6500100","板橋區"
"220094","285-UM","2018/04/14 18:59:39","新北市板橋區莒光路15巷5號","121.469958333333","25.02522","6500100","板橋區"
"220053","285-VK","2018/04/14 18:59:36","新北市板橋區中山路二段89巷44號","121.473743333333","25.0171066666667","6500100","板橋區"
"220083","286-VK","2018/04/14 18:59:35","新北市板橋區大觀路一段38巷156弄1號","121.442325","25.004635","6500100","板橋區"
"220081","287-VK","2018/04/14 18:59:27","新北市板橋區光華街19巷31號","121.45299","25.0119016666667","6500100","板橋區"
"220090","288-VK","2018/04/14 18:59:40","新北市板橋區四維路177巷3弄1號","121.463973333333","25.0261716666667","6500100","板橋區"
"220061","293-UM","2018/04/14 18:59:38","新北市板橋區永豐街118號","121.476385","25.0208","6500100","板橋區"
"242009","281-VK","2018/04/14 18:59:21","新北市新莊區中正路459號","121.442338333333","25.0336166666667","6500500","新莊區"
"220075","303-R5","2018/04/14 18:59:34","新北市板橋區館前西路153號","121.456123333333","25.0078966666667","6500100","板橋區"
"220062","305-R5","2018/04/14 18:59:29","新北市板橋區三民路二段正隆巷39號","121.477166666667","25.013525","6500100","板橋區"
"220092","307-R5","2018/04/14 18:59:38","新北市板橋區文化路一段247號","121.464475","25.0180766666667","6500100","板橋區"
"220098","317-R6","2018/04/14 18:59:39","新北市板橋區民有街16號","121.466265","25.0248966666667","6500100","板橋區"
"220064","486-VK","2018/04/14 18:57:44","新北市板橋區板新路229號","121.467966666667","25.0157766666667","6500100","板橋區"
"220088","491-VK","2018/04/14 18:59:39","新北市板橋區民生路二段210-1號","121.469378333333","25.0212666666667","6500100","板橋區"
"220035","560-BX","2018/04/14 18:59:40","新北市板橋區中正路341巷28號","121.45411","25.0200283333333","6500100","板橋區"
"220084","568-UM","2018/04/14 18:59:26","新北市板橋區龍興街63巷5號","121.442668333333","25.0012716666667","6500100","板橋區"
"220063","609-BX","2018/04/14 18:59:35","新北市板橋區中山路二段142號","121.476526666667","25.0169233333333","6500100","板橋區"
"220057","686-BX","2018/04/14 18:59:34","新北市板橋區重慶路104號","121.461965","25.0056066666667","6500100","板橋區"
"220093","689-BX","2018/04/14 18:59:36","新北市板橋區民生路三段68-1號","121.466636666667","25.02592","6500100","板橋區"
"220054","741-BX","2018/04/14 18:59:33","新北市板橋區重慶路127巷20號","121.463695","25.004885","6500100","板橋區"
"220102","KEA-2699","2018/04/14 18:59:26","新北市板橋區萬板路706號","121.4816","25.02742","6500100","板橋區"
"220055","827-TW","2018/04/14 18:59:39","新北市板橋區中山路一段158巷22號","121.466508333333","25.010905","6500100","板橋區"
"220067","830-TW","2018/04/14 18:59:29","新北市板橋區三民路二段148號","121.478811666667","25.0152616666667","6500100","板橋區"
"220096","831-TW","2018/04/14 18:59:34","新北市板橋區莒光路136號","121.473166666667","25.0238533333333","6500100","板橋區"
"220089","833-TW","2018/04/14 18:59:40","新北市板橋區仁化街1-1號","121.474401666667","25.0316016666667","6500100","板橋區"
"220074","895-R6","2018/04/14 18:59:41","新北市板橋區林園街55號","121.453643333333","25.0102283333333","6500100","板橋區"
"220073","985-R7","2018/04/14 18:59:31","新北市板橋區民權路240號","121.458506666667","25.014485","6500100","板橋區"
"220097","AAC-210","2018/04/14 18:59:24","新北市板橋區漢生東路17號","121.464805","25.0172683333333","6500100","板橋區"
"220077","AAC-253","2018/04/14 18:59:29","新北市板橋區大觀路二段146號","121.442203333333","24.9989183333333","6500100","板橋區"
