"lineid","car","time","location","longitude","latitude","cityid","cityname"
"234070","149-BY","2018/04/14 19:19:35","新北市永和區豫溪街49號","121.517086666667","25.00989","6500400","永和區"
"234007","207-UY","2018/04/14 19:19:34","新北市永和區中山路一段228號","121.508015","25.0082133333333","6500400","永和區"
"234081","298-R6","2018/04/14 19:19:23","新北市永和區福和路7巷11弄6號","121.525535","25.00737","6500400","永和區"
"234038","336-UY","2018/04/14 19:19:26","新北市永和區民樂街55巷2號","121.527465","24.9984216666667","6500400","永和區"
"234064","337-UY","2018/04/14 19:19:38","新北市永和區永元路17巷6弄2號","121.521386666667","25.00065","6500400","永和區"
"234086","338-UY","2018/04/14 19:19:34","新北市永和區永利路74號","121.520326666667","25.004215","6500400","永和區"
"234067","553-UM","2018/04/14 19:19:27","新北市永和區保平路18巷12號","121.512155","25.0078983333333","6500400","永和區"
"234017","745-BX","2018/04/14 19:19:26","新北市永和區文化路144巷27號","121.512475","25.0166983333333","6500400","永和區"
"234030","746-BX","2018/04/14 19:19:36","新北市永和區厚德街79號","121.524523333333","24.99871","6500400","永和區"
"234054","KEA-2590","2018/04/14 19:19:37","新北市永和區中興街43號","121.516385","25.011795","6500400","永和區"
"234013","KEA-2591","2018/04/14 19:19:39","新北市永和區仁愛路135號","121.511693333333","25.0130166666667","6500400","永和區"
"234061","AAD-866","2018/04/14 19:19:25","新北市永和區秀朗路一段120號","121.517025","25.0035933333333","6500400","永和區"
"234046","847-RS","2018/04/14 19:19:34","新北市永和區秀朗路二段148巷12弄16號","121.524755","25.0011016666667","6500400","永和區"
"234042","862-TW","2018/04/14 19:19:37","新北市永和區保平路151巷2弄6-3號","121.509585","25.0053066666667","6500400","永和區"
"234050","863-TW","2018/04/14 19:19:33","新北市永和區保福路二段88巷29號","121.51198","25.0137083333333","6500400","永和區"
"234026","9371-KE","2018/04/14 19:19:37","新北市永和區安樂路144巷24號","121.515085","24.99962","6500400","永和區"
"234011","9373-KE","2018/04/14 19:19:28","新北市永和區保福路二段23巷19號","121.510133333333","25.011205","6500400","永和區"
"249001","173-UM","2018/04/14 19:19:40","新北市八里區文昌路99號","121.40886","25.1586533333333","6502300","八里區"
"249003","593-UM","2018/04/14 19:19:24","新北市八里區中山路二段466巷3號","121.398776666667","25.1474066666667","6502300","八里區"
"248016","026-BX","2018/04/14 19:19:32","新北市五股區成洲五路12號","121.452431666667","25.101495","6501500","五股區"
"248020","225-UY","2018/04/14 19:19:44","新北市五股區凌雲路三段57號","121.425265","25.125005","6501500","五股區"
"248012","247-BX","2018/04/14 19:19:37","新北市五股區中興路四段48巷16號","121.438568333333","25.083445","6501500","五股區"
"248010","272-BY","2018/04/14 19:19:24","新北市五股區自強路90巷72號","121.430846666667","25.0712716666667","6501500","五股區"
"248004","677-BX","2018/04/14 19:19:23","新北市五股區五福路49號","121.433123333333","25.08974","6501500","五股區"
"248002","678-BX","2018/04/14 19:19:34","新北市五股區凌雲路一段158巷13號","121.447718333333","25.103465","6501500","五股區"
"234023","9380-KE","2018/04/14 19:19:35","新北市永和區竹林路109巷8號","121.52028","25.01191","6500400","永和區"
"234077","969-R7","2018/04/14 19:19:30","新北市永和區民治街72巷10號","121.518101666667","24.99849","6500400","永和區"
"234074","AAC-211","2018/04/14 19:19:31","新北市永和區竹林路90號","121.519468333333","25.0123033333333","6500400","永和區"
"234003","AAC-295","2018/04/14 19:19:31","新北市永和區永平路164號","121.510915","25.0088133333333","6500400","永和區"
"244013","069-UM","2018/04/14 19:19:22","新北市林口區麗園一街4巷2號","121.376361666667","25.07064","6501700","林口區"
"244009","410-SL","2018/04/14 19:19:31","新北市林口區林口路72號","121.39008","25.0794183333333","6501700","林口區"
"244023","483-VK","2018/04/14 19:19:33","新北市林口區文化三路一段555巷88-1號","121.36876","25.0766616666667","6501700","林口區"
"244017","485-VK","2018/04/14 19:19:23","新北市林口區嘉寶里32-1號","121.359323333333","25.0976966666667","6501700","林口區"
"244019","657-BX","2018/04/14 19:19:38","新北市林口區四維路132號","121.379228333333","25.077085","6501700","林口區"
"244011","701-TV","2018/04/14 19:19:44","新北市林口區中正路332號","121.387363333333","25.0779166666667","6501700","林口區"
"244025","837-TS","2018/04/14 19:19:35","新北市林口區嘉溪雅坑5-4號","121.350041666667","25.0997","6501700","林口區"
"243012","AAD-798","2018/04/14 19:19:40","新北市泰山區仁愛路94號","121.433293333333","25.0553433333333","6501600","泰山區"
"243011","297-R6","2018/04/14 19:19:35","新北市泰山區中央路9巷2號","121.426326666667","25.0430366666667","6501600","泰山區"
"243015","380-SR","2018/04/14 19:19:21","新北市泰山區公園路71號","121.426365","25.0554183333333","6501600","泰山區"
"243014","421-VK","2018/04/14 19:19:38","新北市泰山區泰林路二段232號","121.43244","25.0620116666667","6501600","泰山區"
"243010","KEA-2215","2018/04/14 19:19:32","新北市泰山區明志路一段492巷5號","121.430138333333","25.0547283333333","6501600","泰山區"
"243009","KEA-2216","2018/04/14 19:19:23","新北市泰山區和平街15號","121.434371666667","25.0646483333333","6501600","泰山區"
"243013","646-TV","2018/04/14 19:19:38","新北市泰山區明志路三段145巷2弄15號","121.425121666667","25.03941","6501600","泰山區"
"243016","680-BX","2018/04/14 19:19:28","新北市泰山區明志路三段153-2號","121.424773333333","25.0398316666667","6501600","泰山區"
"222003","436-BY","2018/04/14 19:19:35","新北市深坑區深南路204號","121.62665","25.0160416666667","6501800","深坑區"
"222002","659-BX","2018/04/14 19:19:33","新北市深坑區北深路一段177號","121.63257","25.0108533333333","6501800","深坑區"
"231041","002-UM","2018/04/14 19:19:26","新北市新店區溪園路245-6號","121.525425","24.983315","6500600","新店區"
"231059","046-UY","2018/04/14 19:19:31","新北市新店區安和路二段197號","121.518041666667","24.975105","6500600","新店區"
"231040","047-UY","2018/04/14 19:19:42","新北市新店區三民路24號","121.537128333333","24.97102","6500600","新店區"
"231044","106-UY","2018/04/14 19:19:40","新北市新店區中興路三段298號","121.54235","24.9850483333333","6500600","新店區"
"231048","187-VK","2018/04/14 19:19:30","新北市新店區中興路二段57巷22號","121.545663333333","24.9710616666667","6500600","新店區"
"231046","188-VK","2018/04/14 19:19:31","新北市新店區華城路36巷1-1號","121.528443333333","24.9552766666667","6500600","新店區"
"231054","KEA-2219","2018/04/14 19:19:40","新北市新店區國校路65巷1號","121.53838","24.95405","6500600","新店區"
"231051","278-BY","2018/04/14 19:19:36","新北市新店區中央路63號","121.532563333333","24.9771533333333","6500600","新店區"
"231050","AAD-862","2018/04/14 19:19:23","新北市新店區竹林路94號","121.553806666667","24.94981","6500600","新店區"
"231058","3713-VJ","2018/04/14 19:19:40","新北市新店區北新路二段2號","121.542623333333","24.9709016666667","6500600","新店區"
"231066","4716-K9","2018/04/14 19:19:38","新北市新店區安康路三段355巷45號","121.485051666667","24.9493266666667","6500600","新店區"
"231056","4715-K9","2018/04/14 19:19:24","新北市新店區安民街133巷26號","121.515498333333","24.9695466666667","6500600","新店區"
"231067","4772-VM","2018/04/14 19:19:41","新北市新店區安康路二段320巷15弄2號","121.504366666667","24.9597416666667","6500600","新店區"
"231065","512-UM","2018/04/14 19:19:27","新北市新店區安祥路140號","121.47419","24.9559866666667","6500600","新店區"
"231049","513-UM","2018/04/14 19:19:38","新北市新店區明德路111號","121.541471666667","24.9794416666667","6500600","新店區"
"231045","617-UM","2018/04/14 19:19:31","新北市新店區北宜路一段280號","121.54641","24.9526183333333","6500600","新店區"
"231061","618-UM","2018/04/14 19:19:40","新北市新店區安康路一段173-3號","121.526926666667","24.9625883333333","6500600","新店區"
"231063","641-BX","2018/04/14 19:19:22","新北市新店區達觀路14巷2號","121.503423333333","24.9411466666667","6500600","新店區"
"231042","645-TV","2018/04/14 19:19:31","新北市新店區中興路一段90號","121.539858333333","24.960465","6500600","新店區"
"231064","719-UM","2018/04/14 19:19:42","新北市新店區安忠路57巷26弄7號","121.51294","24.95849","6500600","新店區"
"231052","719-UY","2018/04/14 19:19:31","新北市新店區自強路251號","121.548111666667","24.9193116666667","6500600","新店區"
"231062","720-UM","2018/04/14 19:19:40","新北市新店區莒光路51號","121.523508333333","24.9590883333333","6500600","新店區"
"231060","897-TW","2018/04/14 19:19:29","新北市新店區安康路二段136號","121.512551666667","24.9620366666667","6500600","新店區"
"231043","899-TW","2018/04/14 19:19:28","新北市新店區北新路二段165號","121.542706666667","24.9763166666667","6500600","新店區"
"231055","AKT-0513","2018/04/14 19:19:32","新北市新店區安康路二段320巷15弄2號","121.504098333333","24.95962","6500600","新店區"
"241009","060-VK","2018/04/14 19:19:33","新北市三重區溪尾街230巷42-3號","121.4861","25.0810283333333","6500200","三重區"
"241031","061-VK","2018/04/14 19:19:21","新北市三重區成功路187號","121.48552","25.0529283333333","6500200","三重區"
"241017","063-VK","2018/04/14 19:19:29","新北市三重區大同北路182號","121.491671666667","25.0657883333333","6500200","三重區"
"241026","066-VK","2018/04/14 19:19:25","新北市三重區中正南路222號","121.49366","25.055","6500200","三重區"
"241032","269-UM","2018/04/14 19:19:30","新北市三重區新生街80號","121.484088333333","25.0593033333333","6500200","三重區"
"241025","271-UM","2018/04/14 19:19:32","新北市三重區中正北路406號","121.475375","25.0705433333333","6500200","三重區"
"241007","398-BY","2018/04/14 19:19:27","新北市三重區慈愛街39號","121.485523333333","25.0788516666667","6500200","三重區"
"241035","KEA-2210","2018/04/14 19:19:24","新北市三重區信義西街138號","121.495495","25.0643683333333","6500200","三重區"
"241020","478-VK","2018/04/14 19:19:41","新北市三重區大智街250號","121.489315","25.0731433333333","6500200","三重區"
"241030","480-VK","2018/04/14 19:19:43","新北市三重區成功路41巷95號","121.491466666667","25.0531583333333","6500200","三重區"
"241006","AAD-863","2018/04/14 19:19:24","新北市三重區車路頭街182號","121.483683333333","25.0771583333333","6500200","三重區"
"241022","887-TS","2018/04/14 19:19:41","新北市三重區重陽路二段72號","121.48723","25.0640966666667","6500200","三重區"
"241029","942-UM","2018/04/14 19:19:25","新北市三重區重安街33號","121.491091666667","25.05685","6500200","三重區"
"235064","005-UY","2018/04/14 19:19:35","新北市中和區泰和街38巷27號","121.498605","25.00104","6500300","中和區"
"235063","006-UY","2018/04/14 19:19:22","新北市中和區連勝街121巷10號","121.494923333333","24.9946666666667","6500300","中和區"
"235066","031-BX","2018/04/14 19:19:32","新北市中和區中和路131號","121.501828333333","25.0000366666667","6500300","中和區"
"235056","096-UM","2018/04/14 19:19:28","新北市中和區員山路533號","121.479628333333","25.007035","6500300","中和區"
"235039","097-UM","2018/04/14 19:19:29","新北市中和區自立路60號","121.523653333333","24.9915366666667","6500300","中和區"
"235065","098-UM","2018/04/14 19:19:31","新北市中和區中山路二段2巷3弄7-1號","121.50457","25.00593","6500300","中和區"
"235040","150-BY","2018/04/14 19:19:35","新北市中和區安平路38號","121.510013333333","24.9949333333333","6500300","中和區"
"235058","151-BY","2018/04/14 19:19:37","新北市中和區連城路477巷6弄13號","121.482663333333","24.9949483333333","6500300","中和區"
"235055","183-VK","2018/04/14 19:19:31","新北市中和區德光路55號","121.470053333333","25.00383","6500300","中和區"
"235038","185-VK","2018/04/14 19:19:36","新北市中和區景平路126巷2弄13號","121.519708333333","24.9923033333333","6500300","中和區"
"235049","186-VK","2018/04/14 19:19:21","新北市中和區景新街224-15號","121.507816666667","24.9946433333333","6500300","中和區"
"235067","255-BX","2018/04/14 19:19:24","新北市中和區民樂路65號","121.483611666667","25.001285","6500300","中和區"
"235044","293-VK","2018/04/14 19:19:26","新北市中和區復興路309號","121.501273333333","24.99025","6500300","中和區"
"235072","301-VK","2018/04/14 19:19:40","新北市中和區連城路265巷3號","121.491518333333","24.9960416666667","6500300","中和區"
"235043","352-BY","2018/04/14 19:19:36","新北市中和區景平路446號","121.506451666667","24.9934816666667","6500300","中和區"
"235068","377-QA","2018/04/14 19:19:42","新北市中和區景平路545巷1弄13號","121.498821666667","24.998935","6500300","中和區"
"235061","378-QA","2018/04/14 19:19:35","新北市中和區員山路394巷12弄5號","121.481405","25.004195","6500300","中和區"
"235060","269-TV","2018/04/14 19:19:30","新北市中和區員山路469巷1號","121.480323333333","25.004505","6500300","中和區"
"235050","4979-A6","2018/04/14 19:19:34","新北市中和區景安路214號","121.503901666667","24.9906233333333","6500300","中和區"
"235042","551-UM","2018/04/14 19:19:37","新北市中和區大勇街60巷14弄7號","121.518645","24.9944483333333","6500300","中和區"
"235045","565-BX","2018/04/14 19:19:40","新北市中和區景新街423巷35弄13號","121.51397","24.9901966666667","6500300","中和區"
"235054","640-BX","2018/04/14 19:19:34","新北市中和區國光街107巷2弄30號","121.469543333333","24.9992566666667","6500300","中和區"
"235047","732-UM","2018/04/14 19:19:38","新北市中和區景平路239巷69號","121.508311666667","24.9920783333333","6500300","中和區"
"235046","733-UM","2018/04/14 19:19:26","新北市中和區忠孝街2巷12號","121.510448333333","24.9818016666667","6500300","中和區"
"235071","783-BX","2018/04/14 19:19:25","新北市中和區連城路469巷60號","121.483425","24.994235","6500300","中和區"
"235057","801-TS","2018/04/14 19:19:30","新北市中和區員山路198號","121.481276666667","25.0005266666667","6500300","中和區"
"235052","805-TS","2018/04/14 19:19:32","新北市中和區華新街143巷21號","121.506668333333","24.9808783333333","6500300","中和區"
"235048","896-TW","2018/04/14 19:19:31","新北市中和區景新街436號","121.513136666667","24.98837","6500300","中和區"
"235053","900-TW","2018/04/14 19:19:34","新北市中和區華安街32巷2號","121.46741","24.9974233333333","6500300","中和區"
"235070","911-UM","2018/04/14 19:19:31","新北市中和區連城路62-1號","121.497786666667","25.001685","6500300","中和區"
"235051","157-BY","2018/04/14 19:19:38","新北市中和區安平路8號","121.50915","24.99352","6500300","中和區"
"235037","AAC-213","2018/04/14 19:19:24","新北市中和區秀朗路三段10巷37弄13號","121.524085","24.9957283333333","6500300","中和區"
"235059","AAC-215","2018/04/14 19:19:28","新北市中和區錦和路193號","121.490801666667","24.9907633333333","6500300","中和區"
"220068","013-TV","2018/04/14 19:19:34","新北市板橋區三民路一段1巷49號","121.480746666667","25.0248316666667","6500100","板橋區"
"220056","015-TV","2018/04/14 19:17:24","新北市板橋區信義路215號","121.459561666667","24.991645","6500100","板橋區"
"220065","072-UY","2018/04/14 19:19:36","新北市板橋區國泰街39巷4弄31號","121.467786666667","25.0058483333333","6500100","板橋區"
"220086","073-UY","2018/04/14 19:19:39","新北市板橋區中正路216巷68號","121.457793333333","25.0187783333333","6500100","板橋區"
"220106","075-UY","2018/04/14 19:19:23","新北市板橋區江寧路三段85巷14號","121.472305","25.033055","6500100","板橋區"
"220069","AAD-861","2018/04/14 19:19:25","新北市板橋區貴興路39號","121.457546666667","25.003755","6500100","板橋區"
"226004","312-R5","2018/04/14 19:19:41","新北市平溪區靜安路三段392巷3號","121.78435","25.0495116666667","6502400","平溪區"
"235041","251-BX","2018/04/14 19:19:35","新北市中和區中和路260-1號","121.508031666667","24.9993783333333","6500300","中和區"
"228003","097-TW","2018/04/14 19:19:29","新北市貢寮區和美里和美街22-1號","121.912763333333","25.0826366666667","6502600","貢寮區"
"228001","212-TW","2018/04/14 19:19:35","新北市貢寮區真理里新港街10號","121.925576666667","25.05448","6502600","貢寮區"
"228002","585-TW","2018/04/14 19:19:38","新北市貢寮區雙玉里田寮洋街21號","121.926371666667","25.0253783333333","6502600","貢寮區"
"224006","676-BX","2018/04/14 19:19:32","新北市瑞芳區中山路143-4號","121.802758333333","25.1063966666667","6501200","瑞芳區"
"224008","285-BY","2018/04/14 19:19:40","新北市瑞芳區中山路2號","121.803071666667","25.10811","6501200","瑞芳區"
"224005","271-BY","2018/04/14 19:19:28","新北市瑞芳區蛇子形路3-1號","121.82419","25.103245","6501200","瑞芳區"
"227002","642-TC","2018/04/14 19:19:30","新北市雙溪區平林里梅竹蹊66-1號","121.860445","25.0358533333333","6502500","雙溪區"
"227010","400-TW","2018/04/14 19:19:25","新北市雙溪區新基里新基北街40號","121.868541666667","25.0380233333333","6502500","雙溪區"
"253005","032-BX","2018/04/14 19:19:40","新北市石門區阿里荖15號","121.607976666667","25.2804266666667","6502200","石門區"
"253006","295-VK","2018/04/14 19:19:26","新北市石門區崁子腳26號","121.53535","25.2908916666667","6502200","石門區"
"222001","KEA-2212","2018/04/14 19:19:24","新北市深坑區北深路二段84號","121.617438333333","25.0035783333333","6501800","深坑區"
"208002","KEA-2872","2018/04/14 19:19:39","新北市金山區中正路112號","121.632728333333","25.221715","6502700","金山區"
"208003","665-BX","2018/04/14 19:19:31","新北市金山區忠孝一路40號","121.637895","25.2200766666667","6502700","金山區"
"208001","761-BX","2018/04/14 19:19:38","新北市金山區慈護街25號","121.639578333333","25.2200316666667","6502700","金山區"
"251009","008-UM","2018/04/14 19:19:28","新北市淡水區清水街246號","121.44061","25.1721566666667","6501000","淡水區"
"251005","010-UM","2018/04/14 19:19:41","新北市淡水區水源街一段29號","121.443158333333","25.1723733333333","6501000","淡水區"
"251013","179-VK","2018/04/14 19:19:39","新北市淡水區安子內12號","121.481575","25.2190766666667","6501000","淡水區"
"251014","180-VK","2018/04/14 19:19:43","新北市淡水區小中寮19-7號","121.484743333333","25.2296233333333","6501000","淡水區"
"251015","182-VK","2018/04/14 19:19:37","新北市淡水區南勢埔27-2號","121.483346666667","25.1805933333333","6501000","淡水區"
"251010","413-VK","2018/04/14 19:19:25","新北市淡水區沙崙路27號","121.421503333333","25.18155","6501000","淡水區"
"251012","441-VK","2018/04/14 19:19:36","新北市淡水區崁頂59-2號","121.441366666667","25.1989216666667","6501000","淡水區"
"251016","442-VK","2018/04/14 19:19:35","新北市淡水區淡金路三段350巷18號","121.450805","25.2083816666667","6501000","淡水區"
"251001","559-UM","2018/04/14 19:19:30","新北市淡水區民權路229號","121.46052","25.1294366666667","6501000","淡水區"
"251006","561-UM","2018/04/14 19:19:41","新北市淡水區大信街38號","121.442086666667","25.177285","6501000","淡水區"
"251007","577-R6","2018/04/14 19:19:33","新北市淡水區民生路117巷25號","121.464901666667","25.1394783333333","6501000","淡水區"
"251003","673-BX","2018/04/14 19:19:34","新北市淡水區中山北路一段33號","121.441565","25.1751933333333","6501000","淡水區"
"207003","550-UM","2018/04/14 19:19:29","新北市萬里區大鵬里萬里加投79-3號","121.647331666667","25.2123366666667","6502800","萬里區"
"207004","225-TW","2018/04/14 19:19:30","新北市萬里區萬里里成功新村44號","121.687725","25.1745983333333","6502800","萬里區"
"252002","178-VK","2018/04/14 19:19:22","新北市三芝區淡金路二段18-1號","121.502685","25.2594766666667","6502100","三芝區"
"252001","292-VK","2018/04/14 19:19:37","新北市三芝區長勤街37巷18號","121.50119","25.2550533333333","6502100","三芝區"
"237004","KEA-2597","2018/04/14 19:19:23","新北市三峽區有木206號","121.439105","24.8515216666667","6500900","三峽區"
"237007","153-BY","2018/04/14 19:19:31","新北市三峽區二鬮路75號","121.359715","24.90713","6500900","三峽區"
"237009","210-TH","2018/04/14 19:19:40","新北市三峽區信義街1號","121.370833333333","24.93615","6500900","三峽區"
"237013","252-BX","2018/04/14 19:19:33","新北市三峽區介壽路一段276巷108弄17號","121.37947","24.92759","6500900","三峽區"
"237012","275-BY","2018/04/14 19:19:33","新北市三峽區三樹路222巷236弄8-3號","121.391365","24.94302","6500900","三峽區"
"237008","302-VK","2018/04/14 19:19:28","新北市三峽區大同路154號","121.37311","24.9267316666667","6500900","三峽區"
"237014","433-BY","2018/04/14 19:19:27","新北市三峽區中山路118號","121.365676666667","24.9358533333333","6500900","三峽區"
"237006","5529-G3","2018/04/14 19:19:36","新北市三峽區中華路3巷2-7號","121.374995","24.9317766666667","6500900","三峽區"
"237005","AKY-6261","2018/04/14 19:19:33","新北市三峽區隆恩街246號","121.357533333333","24.9409916666667","6500900","三峽區"
"236070","105-UM","2018/04/14 19:19:17","新北市土城區學成路70巷9號","121.452065","24.98856","6501300","土城區"
"236079","166-UM","2018/04/14 19:19:26","新北市土城區中央路四段321巷46號","121.412426666667","24.9510533333333","6501300","土城區"
"236030","253-BX","2018/04/14 19:19:37","新北市土城區城林路6巷80號","121.438543333333","24.97962","6501300","土城區"
"236026","269-VK","2018/04/14 19:19:43","新北市土城區中央路二段164巷2號","121.441846666667","24.9765016666667","6501300","土城區"
"236014","270-VK","2018/04/14 19:19:31","新北市土城區學府路一段54號","121.457368333333","24.9885866666667","6501300","土城區"
"236021","401-BY","2018/04/14 19:19:31","新北市土城區峰廷街3號","121.469048333333","24.987305","6501300","土城區"
"236059","912-UM","2018/04/14 19:19:27","新北市土城區慶安街111號","121.440248333333","24.9720116666667","6501300","土城區"
"236049","913-UM","2018/04/14 19:19:31","新北市土城區明德路一段398-1號","121.453721666667","24.97901","6501300","土城區"
"238015","755-BX","2018/04/14 19:19:30","新北市樹林區大安路515號","121.414036666667","24.9862066666667","6500700","樹林區"
"238023","601-UM","2018/04/14 19:19:39","新北市樹林區三興路77號","121.392621666667","25.0144416666667","6500700","樹林區"
"238019","599-UM","2018/04/14 19:19:40","新北市樹林區鎮前街347巷1弄18號","121.417101666667","24.983865","6500700","樹林區"
"238018","571-TV","2018/04/14 19:19:37","新北市樹林區中華路74號","121.419518333333","24.9813783333333","6500700","樹林區"
"238024","5061-A6","2018/04/14 19:19:27","新北市樹林區中山路三段87號","121.400161666667","24.97483","6500700","樹林區"
"238022","KEA-2213","2018/04/14 19:19:42","新北市樹林區東興街3號","121.409956666667","24.9803533333333","6500700","樹林區"
"238021","KEA-2539","2018/04/14 19:19:34","新北市樹林區柑園街二段380巷14號","121.368326666667","24.9500633333333","6500700","樹林區"
"238025","303-VK","2018/04/14 19:19:31","新北市樹林區中山路二段46-2號","121.41684","24.9847083333333","6500700","樹林區"
"238014","282-BY","2018/04/14 19:19:21","新北市樹林區保安二街40巷26號","121.425823333333","24.9949266666667","6500700","樹林區"
"238026","172-UY","2018/04/14 19:19:33","新北市樹林區佳園路三段51號","121.38787","24.9535266666667","6500700","樹林區"
"238016","169-UY","2018/04/14 19:19:34","新北市樹林區復興路462號","121.413343333333","24.9836833333333","6500700","樹林區"
"239007","AAC-297","2018/04/14 19:19:28","新北市鶯歌區鶯桃路182巷96弄13號","121.34057","24.9580216666667","6500800","鶯歌區"
"239006","891-R6","2018/04/14 19:19:35","新北市鶯歌區建國路510號","121.340788333333","24.9506083333333","6500800","鶯歌區"
"239005","526-UM","2018/04/14 19:19:38","新北市鶯歌區中湖街301巷1號","121.348121666667","24.9771366666667","6500800","鶯歌區"
"239001","417-VK","2018/04/14 19:19:41","新北市鶯歌區鶯桃路25號","121.343551666667","24.9504783333333","6500800","鶯歌區"
"239003","360-BY","2018/04/14 19:19:34","新北市鶯歌區建國路170號","121.350073333333","24.9534516666667","6500800","鶯歌區"
"239002","359-BY","2018/04/14 19:19:33","新北市鶯歌區大湖路394號","121.344458333333","24.9735233333333","6500800","鶯歌區"
"239004","193-VK","2018/04/14 19:19:36","新北市鶯歌區中正三路322號","121.328093333333","24.9354166666667","6500800","鶯歌區"
"221015","131-UY","2018/04/14 19:19:42","新北市汐止區康寧街901號","121.651638333333","25.0748883333333","6501100","汐止區"
"221010","269-BY","2018/04/14 19:19:41","新北市汐止區康寧街901號","121.651495","25.0748933333333","6501100","汐止區"
"221012","278-VK","2018/04/14 19:19:43","新北市汐止區汐萬路一段310號","121.650341666667","25.07469","6501100","汐止區"
"221027","281-BY","2018/04/14 19:19:40","新北市汐止區汐萬路一段312號","121.650406666667","25.0750683333333","6501100","汐止區"
"221029","298-VK","2018/04/14 19:19:29","新北市汐止區康寧街901號","121.651655","25.074895","6501100","汐止區"
"221031","353-TW","2018/04/14 19:19:33","新北市汐止區汐萬路一段256巷1號","121.651806666667","25.0749","6501100","汐止區"
"221008","129-UY","2018/04/14 19:19:38","新北市汐止區康寧街302-1號","121.62636","25.06707","6501100","汐止區"
"221025","623-UM","2018/04/14 19:19:39","新北市汐止區康寧街901號","121.651615","25.074975","6501100","汐止區"
"221038","646-BX","2018/04/14 19:19:29","新北市汐止區汐萬路一段312號","121.65069","25.07527","6501100","汐止區"
"221033","647-BX","2018/04/14 19:19:32","新北市汐止區南勢街1巷1號","121.6271","25.0375666666667","6501100","汐止區"
"221002","707-TV","2018/04/14 19:19:44","新北市汐止區大同路一段325號","121.638138333333","25.0591816666667","6501100","汐止區"
"220079","145-BY","2018/04/14 19:19:42","新北市板橋區民權路202巷24號","121.460711666667","25.0171666666667","6500100","板橋區"
"220080","200-UY","2018/04/14 19:19:36","新北市板橋區大觀路二段19巷71號","121.448731666667","25.002975","6500100","板橋區"
"220082","610-BX","2018/04/14 19:19:39","新北市板橋區篤行路三段89號","121.426706666667","24.984845","6500100","板橋區"
"220101","245-BX","2018/04/14 19:19:38","新北市板橋區莊敬路2-1號","121.474033333333","25.0284466666667","6500100","板橋區"
"220103","257-TC","2018/04/14 19:19:32","新北市板橋區文化路一段188巷7弄15號","121.467688333333","25.0199416666667","6500100","板橋區"
"220091","267-BY","2018/04/14 19:19:42","新北市板橋區文聖街144號","121.478586666667","25.0278566666667","6500100","板橋區"
"220072","277-BY","2018/04/14 19:19:23","新北市板橋區金門街337巷8弄2號","121.429723333333","24.985275","6500100","板橋區"
"220070","282-UM","2018/04/14 19:19:41","新北市板橋區四川路一段214號","121.459373333333","25.00202","6500100","板橋區"
"220071","283-VK","2018/04/14 19:19:37","新北市板橋區仁愛路73巷8號","121.460998333333","25.00018","6500100","板橋區"
"220094","285-UM","2018/04/14 19:19:39","新北市板橋區吳鳳路21巷2號","121.4669","25.03128","6500100","板橋區"
"220053","285-VK","2018/04/14 19:19:25","新北市板橋區富山街11號","121.478231666667","25.0217466666667","6500100","板橋區"
"220083","286-VK","2018/04/14 19:19:35","新北市板橋區大觀路二段174巷166弄24號","121.44275","25.0029033333333","6500100","板橋區"
"220081","287-VK","2018/04/14 19:19:27","新北市板橋區南雅東路89號","121.453178333333","25.0087083333333","6500100","板橋區"
"220090","288-VK","2018/04/14 19:19:25","新北市板橋區長江路一段106巷13弄26號","121.461096666667","25.0295716666667","6500100","板橋區"
"220061","293-UM","2018/04/14 19:19:38","新北市板橋區中山路二段318巷20弄34號","121.481196666667","25.0187533333333","6500100","板橋區"
"220075","303-R5","2018/04/14 19:19:34","新北市板橋區中正路289巷33號","121.454475","25.01879","6500100","板橋區"
"220062","305-R5","2018/04/14 19:19:29","新北市板橋區三民路二段153巷28號","121.480926666667","25.0150083333333","6500100","板橋區"
"220092","307-R5","2018/04/14 19:19:41","新北市板橋區松江街39號","121.468556666667","25.0271166666667","6500100","板橋區"
"220098","317-R6","2018/04/14 19:19:39","新北市板橋區民有街89巷5號","121.464548333333","25.0274566666667","6500100","板橋區"
"220064","486-VK","2018/04/14 19:19:30","新北市板橋區民權路29號","121.462516666667","25.0109183333333","6500100","板橋區"
"220088","491-VK","2018/04/14 19:19:39","新北市板橋區三民路一段120號","121.479258333333","25.020775","6500100","板橋區"
"220035","560-BX","2018/04/14 19:19:32","新北市板橋區中正路360巷7號","121.454845","25.0238433333333","6500100","板橋區"
"220084","568-UM","2018/04/14 19:19:28","新北市板橋區溪崑二街66巷6號","121.427606666667","24.990545","6500100","板橋區"
"220063","609-BX","2018/04/14 19:19:35","新北市板橋區三民路二段31號","121.479355","25.01778","6500100","板橋區"
"220057","686-BX","2018/04/14 19:19:34","新北市中和區壽德街26號","121.466608333333","24.9943883333333","6500100","板橋區"
"220093","689-BX","2018/04/14 19:19:36","新北市板橋區文化路一段96號","121.464556666667","25.0178933333333","6500100","板橋區"
"220054","741-BX","2018/04/14 19:19:26","新北市板橋區重慶路182號","121.46252","25.0034816666667","6500100","板橋區"
"220102","KEA-2699","2018/04/14 19:19:26","新北市板橋區文聖街199號","121.48022","25.026545","6500100","板橋區"
"220055","827-TW","2018/04/14 19:19:38","新北市板橋區館前東路156巷21號","121.464271666667","25.006865","6500100","板橋區"
"220067","830-TW","2018/04/14 19:19:29","新北市板橋區長安街138巷3弄37號","121.473898333333","25.0097966666667","6500100","板橋區"
"220096","831-TW","2018/04/14 19:19:28","新北市板橋區大同街35巷12號","121.477626666667","25.0277666666667","6500100","板橋區"
"220089","833-TW","2018/04/14 19:19:41","新北市板橋區文化路一段369-1號","121.46696","25.0212016666667","6500100","板橋區"
"220074","895-R6","2018/04/14 19:19:39","新北市板橋區中正路自強新村56號","121.45478","25.013515","6500100","板橋區"
"220073","985-R7","2018/04/14 19:19:31","新北市板橋區新生街31號","121.456535","25.0212216666667","6500100","板橋區"
"220097","AAC-210","2018/04/14 19:19:24","新北市板橋區幸福路32巷1弄12號","121.46099","25.0204216666667","6500100","板橋區"
"220077","AAC-253","2018/04/14 19:19:29","新北市板橋區僑中二街12巷2號","121.446803333333","25.0106533333333","6500100","板橋區"
