"lineid","car","time","location","longitude","latitude","cityid","cityname"
"234070","149-BY","2018/04/14 19:29:35","新北市永和區竹林路198號","121.520521666667","25.0094116666667","6500400","永和區"
"234007","207-UY","2018/04/14 19:29:34","新北市永和區永和路一段122號","121.513951666667","25.0076666666667","6500400","永和區"
"234081","298-R6","2018/04/14 19:29:40","新北市永和區環河東路三段32號","121.526455","25.0068983333333","6500400","永和區"
"234038","336-UY","2018/04/14 19:29:29","新北市永和區民樂街42號","121.52741","25.0005783333333","6500400","永和區"
"234064","337-UY","2018/04/14 19:29:38","新北市永和區得和路243巷16號","121.520566666667","25.0007566666667","6500400","永和區"
"234086","338-UY","2018/04/14 19:29:34","新北市永和區林森路41巷1號","121.525116666667","25.004645","6500400","永和區"
"234067","553-UM","2018/04/14 19:29:27","新北市永和區永貞路378巷29號","121.510475","25.0079583333333","6500400","永和區"
"234017","745-BX","2018/04/14 19:29:26","新北市永和區環河西路一段87號","121.512325","25.0179333333333","6500400","永和區"
"234030","746-BX","2018/04/14 19:29:36","新北市永和區民生路69號","121.52268","24.9971883333333","6500400","永和區"
"234054","KEA-2590","2018/04/14 19:29:37","新北市永和區復興街1巷7號","121.51575","25.01316","6500400","永和區"
"234013","KEA-2591","2018/04/14 19:29:23","新北市永和區永和路二段82號","121.514921666667","25.011435","6500400","永和區"
"234061","AAD-866","2018/04/14 19:29:28","新北市永和區永貞路147巷1號","121.516181666667","25.0040366666667","6500400","永和區"
"234046","847-RS","2018/04/14 19:29:34","新北市永和區永元路54號","121.52228","25.0011316666667","6500400","永和區"
"234042","862-TW","2018/04/14 19:29:34","新北市永和區中和路603號","121.512401666667","25.0042733333333","6500400","永和區"
"234050","863-TW","2018/04/14 19:29:33","新北市永和區信義路82號","121.512563333333","25.01344","6500400","永和區"
"234026","9371-KE","2018/04/14 19:29:37","新北市中和區安平路220號","121.514003333333","24.9999566666667","6500400","永和區"
"234011","9373-KE","2018/04/14 19:29:28","新北市永和區保福路二段95號","121.510483333333","25.01286","6500400","永和區"
"249003","593-UM","2018/04/14 19:29:24","新北市八里區中山路二段369號","121.398801666667","25.1469966666667","6502300","八里區"
"248016","026-BX","2018/04/14 19:29:32","新北市五股區成洲五路12號","121.452413333333","25.1015116666667","6501500","五股區"
"248008","095-VK","2018/04/14 19:29:34","新北市五股區中興路一段136號","121.465068333333","25.0736516666667","6501500","五股區"
"248020","225-UY","2018/04/14 19:29:24","新北市五股區凌雲路三段41-1號","121.431013333333","25.1181383333333","6501500","五股區"
"248012","247-BX","2018/04/14 19:29:40","新北市五股區成泰路二段97號","121.438031666667","25.0842983333333","6501500","五股區"
"248014","261-SL","2018/04/14 19:29:28","新北市五股區民義路一段157-10號","121.432188333333","25.0872133333333","6501500","五股區"
"248010","272-BY","2018/04/14 19:29:24","新北市五股區自強路90巷72號","121.430735","25.0713133333333","6501500","五股區"
"248004","677-BX","2018/04/14 19:29:23","新北市五股區五福路106號","121.432343333333","25.090575","6501500","五股區"
"248002","678-BX","2018/04/14 19:29:34","新北市五股區凌雲路一段158巷14-1號","121.447903333333","25.1035416666667","6501500","五股區"
"234023","9380-KE","2018/04/14 19:29:35","新北市永和區竹林路91巷45號","121.52131","25.0128966666667","6500400","永和區"
"234077","969-R7","2018/04/14 19:29:34","新北市永和區民族街43巷16號","121.519351666667","24.9983133333333","6500400","永和區"
"234074","AAC-211","2018/04/14 19:29:41","新北市永和區環河東路二段10號","121.522223333333","25.0132783333333","6500400","永和區"
"234003","AAC-295","2018/04/14 19:29:40","新北市永和區永和路一段206號","121.514386666667","25.0093216666667","6500400","永和區"
"244023","483-VK","2018/04/14 19:29:33","新北市林口區仁愛路二段269號","121.373383333333","25.0774433333333","6501700","林口區"
"244011","701-TV","2018/04/14 19:29:24","新北市林口區中山路97巷10號","121.389496666667","25.0783","6501700","林口區"
"244025","837-TS","2018/04/14 19:29:35","新北市林口區後坑38號","121.355291666667","25.131275","6501700","林口區"
"243012","AAD-798","2018/04/14 19:29:40","新北市泰山區仁義路220巷6號","121.432865","25.0538333333333","6501600","泰山區"
"243011","297-R6","2018/04/14 19:29:35","新北市泰山區貴子路74號","121.427076666667","25.041365","6501600","泰山區"
"243015","380-SR","2018/04/14 19:29:21","新北市泰山區民生路7號","121.429658333333","25.0526733333333","6501600","泰山區"
"243014","421-VK","2018/04/14 19:29:38","新北市泰山區中港西路422號","121.433811666667","25.0538783333333","6501600","泰山區"
"243010","KEA-2215","2018/04/14 19:29:32","新北市泰山區民生路17巷41號","121.429478333333","25.0514833333333","6501600","泰山區"
"243009","KEA-2216","2018/04/14 19:29:23","新北市泰山區半山雅5號","121.431273333333","25.0674566666667","6501600","泰山區"
"243013","646-TV","2018/04/14 19:29:38","新北市泰山區明志路三段145巷5弄20號","121.425691666667","25.0404","6501600","泰山區"
"243016","680-BX","2018/04/14 19:29:28","新北市泰山區工專路10號","121.423975","25.0396266666667","6501600","泰山區"
"222003","436-BY","2018/04/14 19:29:35","新北市深坑區深南路51-1號","121.621298333333","25.0097533333333","6501800","深坑區"
"222002","659-BX","2018/04/14 19:29:33","新北市深坑區北深路一段177號","121.632525","25.0108533333333","6501800","深坑區"
"231041","002-UM","2018/04/14 19:29:27","新北市新店區中正路568號","121.533825","24.9877516666667","6500600","新店區"
"231059","046-UY","2018/04/14 19:29:31","新北市新店區安和路三段14號","121.517981666667","24.9810933333333","6500600","新店區"
"231040","047-UY","2018/04/14 19:29:28","新北市新店區北新路一段235號","121.540761666667","24.9657183333333","6500600","新店區"
"231044","106-UY","2018/04/14 19:29:40","新北市新店區中興路三段134號","121.544838333333","24.9797516666667","6500600","新店區"
"231048","187-VK","2018/04/14 19:29:30","新北市新店區五峰路157號","121.544941666667","24.9656383333333","6500600","新店區"
"231046","188-VK","2018/04/14 19:29:31","新北市新店區北新路二段2號","121.542566666667","24.9706883333333","6500600","新店區"
"231054","KEA-2219","2018/04/14 19:29:40","新北市新店區文中路40號","121.53965","24.9565816666667","6500600","新店區"
"231057","256-BX","2018/04/14 19:29:32","新北市新店區花園一路三段57號","121.54968","24.9329866666667","6500600","新店區"
"231051","278-BY","2018/04/14 19:29:36","新北市新店區中央六街24號","121.52939","24.9747616666667","6500600","新店區"
"231050","AAD-862","2018/04/14 19:29:43","新北市新店區北宜路二段239號","121.55386","24.953475","6500600","新店區"
"231058","3713-VJ","2018/04/14 19:29:40","新北市新店區寶橋路85巷23號","121.545213333333","24.9761433333333","6500600","新店區"
"231066","4716-K9","2018/04/14 19:29:38","新北市新店區安康路三段165巷2弄5號","121.489211666667","24.9513233333333","6500600","新店區"
"231067","4772-VM","2018/04/14 19:29:21","新北市新店區安康路二段320巷15弄2號","121.504358333333","24.9597666666667","6500600","新店區"
"231065","512-UM","2018/04/14 19:29:27","新北市新店區安祥路109巷1弄83號","121.478653333333","24.9604083333333","6500600","新店區"
"231049","513-UM","2018/04/14 19:29:38","新北市新店區北新路三段65巷34弄28號","121.540038333333","24.981835","6500600","新店區"
"231045","617-UM","2018/04/14 19:29:31","新北市新店區北宜路二段213號","121.55327","24.953315","6500600","新店區"
"231061","618-UM","2018/04/14 19:29:40","新北市新店區安民街13號","121.515278333333","24.964545","6500600","新店區"
"231063","641-BX","2018/04/14 19:29:42","新北市新店區達觀路16號","121.503255","24.94069","6500600","新店區"
"231042","645-TV","2018/04/14 19:29:31","新北市新店區中興路一段62號","121.539325","24.9596583333333","6500600","新店區"
"231064","719-UM","2018/04/14 19:29:38","新北市新店區安康路二段85巷17號","121.514128333333","24.96177","6500600","新店區"
"231052","719-UY","2018/04/14 19:29:31","新北市新店區屈尺路11號","121.54929","24.92223","6500600","新店區"
"231062","720-UM","2018/04/14 19:29:28","新北市新店區莒光路61巷4號","121.523471666667","24.9584883333333","6500600","新店區"
"231060","897-TW","2018/04/14 19:29:26","新北市新店區安和路一段1號","121.516536666667","24.9637533333333","6500600","新店區"
"231043","899-TW","2018/04/14 19:29:28","新北市新店區北新路二段214號","121.543003333333","24.97698","6500600","新店區"
"231055","AKT-0513","2018/04/14 19:29:32","新北市新店區中華路83巷67號","121.53829","24.9671516666667","6500600","新店區"
"241011","013-R5","2018/04/14 19:29:40","新北市三重區秀江街57號","121.500881666667","25.0725066666667","6500200","三重區"
"241028","022-UY","2018/04/14 19:29:26","新北市三重區中寮街55號","121.492963333333","25.058295","6500200","三重區"
"241008","059-VK","2018/04/14 19:29:41","新北市三重區永福街135巷40號","121.477146666667","25.0772483333333","6500200","三重區"
"241009","060-VK","2018/04/14 19:29:33","新北市三重區溪尾街242巷57號","121.486306666667","25.0815183333333","6500200","三重區"
"241031","061-VK","2018/04/14 19:29:28","新北市三重區集美街61號","121.488448333333","25.0544083333333","6500200","三重區"
"241017","063-VK","2018/04/14 19:29:30","新北市三重區中正北路25巷14號","121.493473333333","25.0629","6500200","三重區"
"241026","066-VK","2018/04/14 19:29:25","新北市三重區文化南路47巷55號","121.498793333333","25.0610383333333","6500200","三重區"
"241032","269-UM","2018/04/14 19:29:30","新北市三重區三陽路64號","121.483813333333","25.0586716666667","6500200","三重區"
"241013","270-UM","2018/04/14 19:29:43","新北市三重區仁愛街110號","121.495298333333","25.07437","6500200","三重區"
"241025","271-UM","2018/04/14 19:29:32","新北市三重區頂崁街210巷28弄3號","121.475808333333","25.06764","6500200","三重區"
"241007","398-BY","2018/04/14 19:29:27","新北市三重區溪尾街146號","121.488975","25.07978","6500200","三重區"
"241035","KEA-2210","2018/04/14 19:29:44","新北市三重區信義西街1巷3號","121.498033333333","25.0649083333333","6500200","三重區"
"241020","478-VK","2018/04/14 19:29:21","新北市三重區三和路四段20巷22-3號","121.490283333333","25.0736033333333","6500200","三重區"
"241030","480-VK","2018/04/14 19:29:23","新北市三重區成功路41巷13號","121.490313333333","25.0515333333333","6500200","三重區"
"241014","543-UM","2018/04/14 19:29:28","新北市三重區長興街31號","121.500395","25.06856","6500200","三重區"
"241006","AAD-863","2018/04/14 19:29:44","新北市三重區自強路三段103號","121.48791","25.0756133333333","6500200","三重區"
"241022","887-TS","2018/04/14 19:29:41","新北市三重區三民街153-1號","121.484098333333","25.0643583333333","6500200","三重區"
"241029","942-UM","2018/04/14 19:29:25","新北市三重區中正南路216號","121.493855","25.0551066666667","6500200","三重區"
"235064","005-UY","2018/04/14 19:29:35","新北市中和區泰和街2號","121.500045","25.0014366666667","6500300","中和區"
"235063","006-UY","2018/04/14 19:29:42","新北市中和區板南路335號","121.494225","24.9977066666667","6500300","中和區"
"235066","031-BX","2018/04/14 19:29:32","新北市中和區景新街56號","121.503971666667","24.99909","6500300","中和區"
"235056","096-UM","2018/04/14 19:29:28","新北市中和區民富街13號","121.47653","25.0073466666667","6500300","中和區"
"235039","097-UM","2018/04/14 19:29:29","新北市中和區秀峰街80號","121.520123333333","24.990815","6500300","中和區"
"235065","098-UM","2018/04/14 19:29:31","新北市中和區莊敬路51號","121.501365","25.0053516666667","6500300","中和區"
"235040","150-BY","2018/04/14 19:29:35","新北市中和區景安路79巷50號","121.507655","24.9957283333333","6500300","中和區"
"235058","151-BY","2018/04/14 19:29:37","新北市中和區中正路637巷52弄7號","121.485163333333","24.99371","6500300","中和區"
"235055","183-VK","2018/04/14 19:29:30","新北市中和區莒光路120巷13弄1號","121.47159","25.0016","6500300","中和區"
"235038","185-VK","2018/04/14 19:29:36","新北市中和區自立路35號","121.522011666667","24.9954366666667","6500300","中和區"
"235049","186-VK","2018/04/14 19:29:25","新北市中和區安和路13號","121.511358333333","24.993795","6500300","中和區"
"235067","255-BX","2018/04/14 19:29:24","新北市中和區連城路340巷10弄2號","121.482731666667","24.99653","6500300","中和區"
"235044","293-VK","2018/04/14 19:29:26","新北市中和區捷運路185號","121.50546","24.9914466666667","6500300","中和區"
"235072","301-VK","2018/04/14 19:29:40","新北市中和區連城路263巷8弄7號","121.491795","24.9952333333333","6500300","中和區"
"235043","352-BY","2018/04/14 19:29:36","新北市中和區安和路37號","121.509856666667","24.99454","6500300","中和區"
"235068","377-QA","2018/04/14 19:29:02","新北市中和區連勝街57巷9號","121.498013333333","24.9969466666667","6500300","中和區"
"235061","378-QA","2018/04/14 19:29:35","新北市中和區連城路565號","121.479473333333","24.9945666666667","6500300","中和區"
"235060","269-TV","2018/04/14 19:29:30","新北市中和區民樂路13號","121.481791666667","25.0017583333333","6500300","中和區"
"235050","4979-A6","2018/04/14 19:29:34","新北市中和區中正路637巷60弄61號","121.485395","24.9930816666667","6500300","中和區"
"235042","551-UM","2018/04/14 19:29:37","新北市中和區安樂路143巷2弄5號","121.514086666667","24.997805","6500300","中和區"
"235045","565-BX","2018/04/14 19:29:40","新北市中和區景新街399巷2號","121.512826666667","24.9897983333333","6500300","中和區"
"235054","640-BX","2018/04/14 19:29:30","新北市中和區國光街112巷22弄2-4號","121.469803333333","25.0022783333333","6500300","中和區"
"235047","732-UM","2018/04/14 19:29:38","新北市中和區景平路241巷64弄8號","121.507776666667","24.9925883333333","6500300","中和區"
"235046","733-UM","2018/04/14 19:29:26","新北市中和區忠孝街37巷44號","121.510586666667","24.9848083333333","6500300","中和區"
"235071","783-BX","2018/04/14 19:29:25","新北市中和區新生街260號","121.48376","24.9973433333333","6500300","中和區"
"235057","801-TS","2018/04/14 19:29:30","新北市中和區中山路三段37巷37號","121.479663333333","25.004855","6500300","中和區"
"235052","805-TS","2018/04/14 19:29:32","新北市中和區華新街143巷67弄35號","121.507568333333","24.97925","6500300","中和區"
"235048","896-TW","2018/04/14 19:29:31","新北市中和區忠孝街2巷2-3號","121.50995","24.982605","6500300","中和區"
"235053","900-TW","2018/04/14 19:29:34","新北市中和區華順街39號","121.46696","24.998555","6500300","中和區"
"235070","911-UM","2018/04/14 19:29:31","新北市中和區中和路86號","121.501188333333","25.0005883333333","6500300","中和區"
"235051","157-BY","2018/04/14 19:29:38","新北市中和區板南路100號","121.503941666667","24.9924716666667","6500300","中和區"
"235037","AAC-213","2018/04/14 19:29:24","新北市中和區秀朗路三段10巷14弄5號","121.52498","24.9965183333333","6500300","中和區"
"235059","AAC-215","2018/04/14 19:29:28","新北市中和區圓通路252巷6-1號","121.492891666667","24.9918583333333","6500300","中和區"
"220068","013-TV","2018/04/14 19:29:34","新北市板橋區翠華街6巷119號","121.481843333333","25.0249916666667","6500100","板橋區"
"220056","015-TV","2018/04/14 19:29:34","新北市板橋區國慶路49巷25-1號","121.459646666667","24.9964616666667","6500100","板橋區"
"220065","072-UY","2018/04/14 19:29:36","新北市板橋區國泰街105號","121.466653333333","25.0064016666667","6500100","板橋區"
"220086","073-UY","2018/04/14 19:29:30","新北市板橋區中正路236巷76號","121.458121666667","25.0192433333333","6500100","板橋區"
"220106","075-UY","2018/04/14 19:29:23","新北市板橋區江寧路三段66號","121.472148333333","25.0322683333333","6500100","板橋區"
"220069","AAD-861","2018/04/14 19:29:25","新北市板橋區稚暉街1號","121.455981666667","25.0045033333333","6500100","板橋區"
"226004","312-R5","2018/04/14 19:29:20","新北市平溪區十分里十分街59號","121.775646666667","25.0414916666667","6502400","平溪區"
"235041","251-BX","2018/04/14 19:29:35","新北市中和區中和路350巷6號","121.510635","25.00063","6500300","中和區"
"228003","097-TW","2018/04/14 19:29:29","新北市貢寮區和美里和美街19-2號","121.912775","25.08262","6502600","貢寮區"
"228001","212-TW","2018/04/14 19:29:36","新北市貢寮區真理里延平街68號","121.92538","25.0573866666667","6502600","貢寮區"
"228002","585-TW","2018/04/14 19:29:37","新北市貢寮區龍門里龍門街69號","121.930971666667","25.02657","6502600","貢寮區"
"224010","AGQ-8101","2018/04/14 19:29:34","新北市瑞芳區籠山路156號","121.837008333333","25.1195966666667","6501200","瑞芳區"
"227002","642-TC","2018/04/14 19:29:30","新北市雙溪區雙溪里光復街3號","121.86514","25.0354966666667","6502500","雙溪區"
"227010","400-TW","2018/04/14 19:29:25","新北市雙溪區新基里新基北街43號","121.868168333333","25.039695","6502500","雙溪區"
"253005","032-BX","2018/04/14 19:29:40","新北市石門區小坑9號","121.594358333333","25.2883983333333","6502200","石門區"
"253006","295-VK","2018/04/14 19:29:26","新北市石門區楓林28-2號","121.542105","25.289065","6502200","石門區"
"222001","KEA-2212","2018/04/14 19:29:24","新北市深坑區深坑街6號","121.616441666667","25.0029416666667","6501800","深坑區"
"208002","KEA-2872","2018/04/14 19:29:39","新北市金山區仁愛路78巷1號","121.634615","25.2216016666667","6502700","金山區"
"208003","665-BX","2018/04/14 19:29:31","新北市金山區忠孝一路107號","121.635796666667","25.2215333333333","6502700","金山區"
"208001","761-BX","2018/04/14 19:29:38","新北市金山區金包里街131號","121.636883333333","25.2224633333333","6502700","金山區"
"251009","008-UM","2018/04/14 19:29:28","新北市淡水區大忠街5巷8號","121.443371666667","25.1765133333333","6501000","淡水區"
"251005","010-UM","2018/04/14 19:29:41","新北市淡水區水源街一段71巷11號","121.444455","25.1729016666667","6501000","淡水區"
"251013","179-VK","2018/04/14 19:29:39","新北市淡水區頂田寮路558號","121.468343333333","25.2166716666667","6501000","淡水區"
"251014","180-VK","2018/04/14 19:29:23","新北市淡水區小中寮19-7號","121.484726666667","25.22963","6501000","淡水區"
"251015","182-VK","2018/04/14 19:29:44","新北市淡水區山子邊16巷5號","121.485825","25.1826916666667","6501000","淡水區"
"251010","413-VK","2018/04/14 19:29:25","新北市淡水區中正路二段214號","121.42654","25.189655","6501000","淡水區"
"251012","441-VK","2018/04/14 19:29:36","新北市淡水區中山北路三段164號","121.445698333333","25.19658","6501000","淡水區"
"251016","442-VK","2018/04/14 19:29:35","新北市淡水區淡金路三段350巷18號","121.450803333333","25.2083816666667","6501000","淡水區"
"251001","559-UM","2018/04/14 19:29:30","新北市淡水區民權路141號","121.459885","25.1364766666667","6501000","淡水區"
"251006","561-UM","2018/04/14 19:29:41","新北市淡水區大義街33號","121.442206666667","25.1781983333333","6501000","淡水區"
"251007","577-R6","2018/04/14 19:29:33","新北市淡水區坪頂路51巷2號","121.45815","25.1626316666667","6501000","淡水區"
"251011","650-BX","2018/04/14 19:29:28","新北市淡水區中正東路二段161巷2弄1號","121.46067","25.145595","6501000","淡水區"
"251003","673-BX","2018/04/14 19:29:34","新北市淡水區中山北路二段185號","121.444215","25.185075","6501000","淡水區"
"207003","550-UM","2018/04/14 19:29:30","新北市萬里區大鵬里萬里加投252號","121.64442","25.2156933333333","6502800","萬里區"
"207004","225-TW","2018/04/14 19:29:30","新北市萬里區萬里里瑪鋉路121號","121.689073333333","25.1781733333333","6502800","萬里區"
"252002","178-VK","2018/04/14 19:29:42","新北市三芝區淡金路二段17號","121.502686666667","25.259475","6502100","三芝區"
"252001","292-VK","2018/04/14 19:29:37","新北市三芝區長勤街63-1號","121.500131666667","25.2560816666667","6502100","三芝區"
"237004","KEA-2597","2018/04/14 19:29:23","新北市三峽區有木206號","121.439088333333","24.8514766666667","6500900","三峽區"
"237007","153-BY","2018/04/14 19:29:31","新北市三峽區二鬮路136巷16弄3號","121.359061666667","24.9082633333333","6500900","三峽區"
"237009","210-TH","2018/04/14 19:29:40","新北市三峽區民權街107號","121.369113333333","24.9325033333333","6500900","三峽區"
"237013","252-BX","2018/04/14 19:29:33","新北市三峽區介壽路一段309號","121.381251666667","24.93061","6500900","三峽區"
"237012","275-BY","2018/04/14 19:29:33","新北市三峽區三樹路60號","121.377728333333","24.9381866666667","6500900","三峽區"
"237008","302-VK","2018/04/14 19:29:28","新北市三峽區永安街95巷6號","121.374781666667","24.928715","6500900","三峽區"
"237014","433-BY","2018/04/14 19:29:27","新北市三峽區中正路二段88號","121.3665","24.9179233333333","6500900","三峽區"
"237006","5529-G3","2018/04/14 19:29:36","新北市三峽區中正路一段336巷15弄2號","121.369986666667","24.9249466666667","6500900","三峽區"
"237005","AKY-6261","2018/04/14 19:29:33","新北市三峽區復興路367巷8號","121.36352","24.9379683333333","6500900","三峽區"
"236070","105-UM","2018/04/14 19:29:37","新北市土城區裕民路185巷36弄10號","121.454405","24.9845516666667","6501300","土城區"
"236079","166-UM","2018/04/14 19:29:26","新北市土城區中州路12巷8號","121.415045","24.9573516666667","6501300","土城區"
"236030","253-BX","2018/04/14 19:29:37","新北市土城區中央路一段324號","121.443273333333","24.981635","6501300","土城區"
"236026","269-VK","2018/04/14 19:29:23","新北市土城區中央路二段61巷22號","121.443236666667","24.9788466666667","6501300","土城區"
"236021","401-BY","2018/04/14 19:29:31","新北市土城區峰廷街3號","121.469061666667","24.9872966666667","6501300","土城區"
"236059","912-UM","2018/04/14 19:29:25","新北市土城區中央路二段63號","121.442706666667","24.978925","6501300","土城區"
"236049","913-UM","2018/04/14 19:29:31","新北市土城區清水路203號","121.460028333333","24.9816716666667","6501300","土城區"
"242011","173-VK","2018/04/14 19:28:25","新北市新莊區三和路18-25號","121.441693333333","25.0392266666667","6500500","新莊區"
"242013","351-TH","2018/04/14 19:29:26","新北市新莊區中環路二段392-1號","121.442505","25.04544","6500500","新莊區"
"238015","755-BX","2018/04/14 19:29:30","新北市樹林區復興路168號","121.420496666667","24.991635","6500700","樹林區"
"238023","601-UM","2018/04/14 19:29:39","新北市樹林區中正路865號","121.408796666667","25.018245","6500700","樹林區"
"238019","599-UM","2018/04/14 19:29:40","新北市樹林區鎮前街313號","121.417478333333","24.98465","6500700","樹林區"
"238018","571-TV","2018/04/14 19:28:57","新北市樹林區水源街96-2號","121.425921666667","24.9797333333333","6500700","樹林區"
"238024","5061-A6","2018/04/14 19:29:27","新北市樹林區中山路三段24號","121.395513333333","24.9729433333333","6500700","樹林區"
"238022","KEA-2213","2018/04/14 19:29:42","新北市樹林區名園街11號","121.419238333333","24.9795633333333","6500700","樹林區"
"238021","KEA-2539","2018/04/14 19:29:34","新北市樹林區學士路120號","121.383795","24.9476283333333","6500700","樹林區"
"238025","303-VK","2018/04/14 19:29:31","新北市樹林區中山路一段69號","121.423825","24.9917283333333","6500700","樹林區"
"238014","282-BY","2018/04/14 19:29:42","新北市樹林區保安二街62號","121.424125","24.9954016666667","6500700","樹林區"
"238026","172-UY","2018/04/14 19:29:33","新北市樹林區佳園路二段91號","121.390663333333","24.9593683333333","6500700","樹林區"
"238016","169-UY","2018/04/14 19:29:04","新北市樹林區東佳路20號","121.407858333333","24.98109","6500700","樹林區"
"239007","AAC-297","2018/04/14 19:29:28","新北市鶯歌區大湖路136號","121.342628333333","24.9640916666667","6500800","鶯歌區"
"239006","891-R6","2018/04/14 19:29:38","新北市鶯歌區鶯桃路35-1號","121.342951666667","24.9507166666667","6500800","鶯歌區"
"239001","417-VK","2018/04/14 19:29:41","新北市鶯歌區中山路5號","121.353028333333","24.956895","6500800","鶯歌區"
"239003","360-BY","2018/04/14 19:29:34","新北市鶯歌區中正一路478號","121.365295","24.9565433333333","6500800","鶯歌區"
"239002","359-BY","2018/04/14 19:29:33","新北市鶯歌區大湖路104號","121.342513333333","24.9633033333333","6500800","鶯歌區"
"239004","193-VK","2018/04/14 19:29:36","新北市鶯歌區二甲路26-3號","121.339105","24.93536","6500800","鶯歌區"
"221015","131-UY","2018/04/14 19:29:42","新北市汐止區康寧街901號","121.651618333333","25.0748766666667","6501100","汐止區"
"221010","269-BY","2018/04/14 19:29:21","新北市汐止區連峰街1巷1號","121.646495","25.076125","6501100","汐止區"
"221012","278-VK","2018/04/14 19:29:36","新北市汐止區大同路三段174號","121.674021666667","25.07504","6501100","汐止區"
"221023","279-VK","2018/04/14 19:29:39","新北市汐止區康寧街582號","121.634975","25.0698016666667","6501100","汐止區"
"221027","281-BY","2018/04/14 19:29:40","新北市汐止區忠孝東路9號","121.658355","25.0659883333333","6501100","汐止區"
"221029","298-VK","2018/04/14 19:29:29","新北市汐止區康寧街901號","121.651548333333","25.07492","6501100","汐止區"
"221031","353-TW","2018/04/14 19:29:33","新北市汐止區汐萬路一段256巷1號","121.651775","25.0748483333333","6501100","汐止區"
"221008","129-UY","2018/04/14 19:29:38","新北市汐止區康寧街145號","121.621841666667","25.0666583333333","6501100","汐止區"
"221025","623-UM","2018/04/14 19:29:39","新北市汐止區秀峰路60號","121.659453333333","25.0655316666667","6501100","汐止區"
"221038","646-BX","2018/04/14 19:29:29","新北市汐止區汐萬路一段10號","121.65606","25.0673983333333","6501100","汐止區"
"221033","647-BX","2018/04/14 19:29:32","新北市汐止區南勢街3號","121.627043333333","25.0373433333333","6501100","汐止區"
"221002","707-TV","2018/04/14 19:29:33","新北市汐止區大同路一段337巷15弄1號","121.637765","25.0599866666667","6501100","汐止區"
"220079","145-BY","2018/04/14 19:29:36","新北市板橋區建國街23號","121.457995","25.0170483333333","6500100","板橋區"
"220080","200-UY","2018/04/14 19:29:36","新北市板橋區大觀路二段19巷113號","121.450398333333","25.0027766666667","6500100","板橋區"
"220082","610-BX","2018/04/14 19:29:39","新北市板橋區金門街139號","121.432941666667","24.991145","6500100","板橋區"
"220101","245-BX","2018/04/14 19:29:37","新北市板橋區莒光路237號","121.47448","25.022","6500100","板橋區"
"220103","257-TC","2018/04/14 19:29:32","新北市板橋區文化路一段216號","121.466485","25.0203766666667","6500100","板橋區"
"220091","267-BY","2018/04/14 19:29:24","新北市板橋區文聖街135巷27號","121.479038333333","25.0290133333333","6500100","板橋區"
"220072","277-BY","2018/04/14 19:29:23","新北市板橋區篤行路二段141巷9號","121.430293333333","24.9880666666667","6500100","板橋區"
"220070","282-UM","2018/04/14 19:29:34","新北市板橋區民族路180號","121.467796666667","25.0078116666667","6500100","板橋區"
"220071","283-VK","2018/04/14 19:29:35","新北市板橋區忠孝路24巷20號","121.460181666667","25.001205","6500100","板橋區"
"220094","285-UM","2018/04/14 19:29:39","新北市板橋區吳鳳路42號","121.46842","25.03033","6500100","板橋區"
"220053","285-VK","2018/04/14 19:29:25","新北市板橋區富山街53巷1弄12號","121.477831666667","25.02063","6500100","板橋區"
"220083","286-VK","2018/04/14 19:29:35","新北市板橋區大觀路二段174巷184號","121.442186666667","25.0037366666667","6500100","板橋區"
"220081","287-VK","2018/04/14 19:29:27","新北市板橋區南雅南路一段106號","121.454831666667","25.0044583333333","6500100","板橋區"
"220090","288-VK","2018/04/14 19:29:25","新北市板橋區裕民街94巷3弄1號","121.459971666667","25.0284933333333","6500100","板橋區"
"220061","293-UM","2018/04/14 19:29:38","新北市板橋區中山路二段248號","121.47867","25.0183266666667","6500100","板橋區"
"220075","303-R5","2018/04/14 19:29:34","新北市板橋區南雅西路二段301巷50弄10-2號","121.452348333333","25.0171066666667","6500100","板橋區"
"220062","305-R5","2018/04/14 19:29:29","新北市板橋區三民路二段123巷16號","121.480046666667","25.01541","6500100","板橋區"
"220092","307-R5","2018/04/14 19:29:38","新北市板橋區光武街2巷41號","121.468495","25.0258816666667","6500100","板橋區"
"220098","317-R6","2018/04/14 19:29:39","新北市板橋區民生路三段263巷6號","121.463858333333","25.02944","6500100","板橋區"
"220064","486-VK","2018/04/14 19:29:31","新北市板橋區中山路一段26號","121.460508333333","25.008225","6500100","板橋區"
"220088","491-VK","2018/04/14 19:29:39","新北市板橋區雙十路一段44巷36號","121.4774","25.0248133333333","6500100","板橋區"
"220035","560-BX","2018/04/14 19:29:32","新北市板橋區中正路399巷10號","121.453651666667","25.02241","6500100","板橋區"
"220084","568-UM","2018/04/14 19:29:34","新北市板橋區滿平街134號","121.428763333333","24.988195","6500100","板橋區"
"220063","609-BX","2018/04/14 19:29:35","新北市板橋區三民路一段31巷89弄2號","121.481483333333","25.0235083333333","6500100","板橋區"
"220057","686-BX","2018/04/14 19:29:34","新北市板橋區國慶路182巷32-1號","121.463056666667","24.99525","6500100","板橋區"
"220093","689-BX","2018/04/14 19:29:36","新北市板橋區雨農路27巷2號","121.461283333333","25.0242433333333","6500100","板橋區"
"220054","741-BX","2018/04/14 19:29:26","新北市板橋區四川路一段281號","121.459421666667","25.0018733333333","6500100","板橋區"
"220102","KEA-2699","2018/04/14 19:29:26","新北市板橋區雙十路二段130巷2弄21號","121.474646666667","25.0287683333333","6500100","板橋區"
"220055","827-TW","2018/04/14 19:29:38","新北市板橋區重慶路290巷22弄14號","121.46224","24.9994316666667","6500100","板橋區"
"220067","830-TW","2018/04/14 19:29:29","新北市板橋區漢生東路313巷2弄54號","121.472706666667","25.0079433333333","6500100","板橋區"
"220096","831-TW","2018/04/14 19:29:28","新北市板橋區民生路二段226巷6弄2號","121.469591666667","25.0216816666667","6500100","板橋區"
"220089","833-TW","2018/04/14 19:29:40","新北市板橋區民權路178號","121.459478333333","25.0133416666667","6500100","板橋區"
"220074","895-R6","2018/04/14 19:29:39","新北市板橋區中正路1巷14號","121.455231666667","25.0116216666667","6500100","板橋區"
"220073","985-R7","2018/04/14 19:29:38","新北市板橋區中正路192號","121.456105","25.0178816666667","6500100","板橋區"
"220097","AAC-210","2018/04/14 19:29:24","新北市板橋區漢生西路195巷7號","121.462691666667","25.0239233333333","6500100","板橋區"
"220077","AAC-253","2018/04/14 19:29:29","新北市板橋區僑中二街116巷1號","121.445673333333","25.0063083333333","6500100","板橋區"
