"lineid","car","time","location","longitude","latitude","cityid","cityname"
"234070","149-BY","2018/04/14 19:49:35","新北市永和區竹林路86號","121.519391666667","25.0126883333333","6500400","永和區"
"234007","207-UY","2018/04/14 19:49:34","新北市中和區中和路232號","121.50669","24.9994616666667","6500400","永和區"
"234081","298-R6","2018/04/14 19:49:43","新北市永和區國中路1號","121.523885","25.004435","6500400","永和區"
"234038","336-UY","2018/04/14 19:49:26","新北市永和區民樂街57巷6號","121.528035","24.9985333333333","6500400","永和區"
"234064","337-UY","2018/04/14 19:49:38","新北市永和區中正路368巷10弄1號","121.518168333333","25.0006333333333","6500400","永和區"
"234086","338-UY","2018/04/14 19:49:34","新北市永和區中正路505號","121.516793333333","25.0069466666667","6500400","永和區"
"234067","553-UM","2018/04/14 19:49:27","新北市永和區中山路一段191巷9弄2號","121.509691666667","25.00808","6500400","永和區"
"234017","745-BX","2018/04/14 19:49:25","新北市永和區永和路二段297號","121.516001666667","25.016045","6500400","永和區"
"234030","746-BX","2018/04/14 19:49:36","新北市永和區民生路67巷29號","121.524316666667","24.997355","6500400","永和區"
"234054","KEA-2590","2018/04/14 19:49:37","新北市永和區竹林路72巷2號","121.519126666667","25.0131383333333","6500400","永和區"
"234013","KEA-2591","2018/04/14 19:49:43","新北市永和區仁愛路227號","121.509511666667","25.0121183333333","6500400","永和區"
"234061","AAD-866","2018/04/14 19:49:25","新北市永和區中正路164號","121.515046666667","24.9966183333333","6500400","永和區"
"234046","847-RS","2018/04/14 19:49:34","新北市永和區永亨路201號","121.526221666667","25.00277","6500400","永和區"
"234042","862-TW","2018/04/14 19:49:34","新北市永和區中和路389巷24號","121.508151666667","25.001315","6500400","永和區"
"234050","863-TW","2018/04/14 19:49:33","新北市永和區保安路71號","121.509128333333","25.01532","6500400","永和區"
"234026","9371-KE","2018/04/14 19:49:37","新北市永和區雙和街52巷2號","121.50905","25.00309","6500400","永和區"
"234011","9373-KE","2018/04/14 19:49:28","新北市永和區保生路55-1號","121.50445","25.0109066666667","6500400","永和區"
"249001","173-UM","2018/04/14 19:49:23","新北市八里區中華路二段252號","121.405316666667","25.1497533333333","6502300","八里區"
"249002","305-UY","2018/04/14 19:49:29","新北市八里區頂寮五街17號","121.451365","25.125995","6502300","八里區"
"249003","593-UM","2018/04/14 19:49:24","新北市八里區中華路二段558號","121.398615","25.1452366666667","6502300","八里區"
"248016","026-BX","2018/04/14 19:49:32","新北市五股區成泰路三段577巷92號","121.449416666667","25.10414","6501500","五股區"
"248008","095-VK","2018/04/14 19:49:34","新北市五股區四維路140號","121.468128333333","25.0753083333333","6501500","五股區"
"248020","225-UY","2018/04/14 19:49:24","新北市五股區中直路27號","121.420741666667","25.1140733333333","6501500","五股區"
"248012","247-BX","2018/04/14 19:49:37","新北市五股區蓬萊路24號","121.43386","25.0799333333333","6501500","五股區"
"248014","261-SL","2018/04/14 19:49:41","新北市五股區五福路42巷4號","121.434133333333","25.0894666666667","6501500","五股區"
"248010","272-BY","2018/04/14 19:49:44","新北市五股區登林路76-5號","121.430576666667","25.069395","6501500","五股區"
"248004","677-BX","2018/04/14 19:49:24","新北市五股區成泰路一段208號","121.435976666667","25.078895","6501500","五股區"
"248002","678-BX","2018/04/14 19:49:34","新北市五股區成泰路四段15-6號","121.453266666667","25.1070266666667","6501500","五股區"
"234023","9380-KE","2018/04/14 19:49:35","新北市永和區保順路11號","121.50467","25.0095483333333","6500400","永和區"
"234077","969-R7","2018/04/14 19:49:30","新北市永和區民治街97巷7號","121.516873333333","24.9980583333333","6500400","永和區"
"234074","AAC-211","2018/04/14 19:49:31","新北市永和區竹林路179巷16號","121.521341666667","25.009905","6500400","永和區"
"234003","AAC-295","2018/04/14 19:49:33","新北市永和區福和路327號","121.515793333333","25.0071133333333","6500400","永和區"
"243012","AAD-798","2018/04/14 19:49:40","新北市泰山區福興一街68號","121.43225","25.0579266666667","6501600","泰山區"
"243011","297-R6","2018/04/14 19:49:35","新北市泰山區明志路三段196巷21弄9號","121.422863333333","25.0383033333333","6501600","泰山區"
"243015","380-SR","2018/04/14 19:49:41","新北市泰山區民權街80號","121.42828","25.049635","6501600","泰山區"
"243014","421-VK","2018/04/14 19:49:38","新北市泰山區泰林路二段33-8號","121.435193333333","25.05651","6501600","泰山區"
"243010","KEA-2215","2018/04/14 19:49:32","新北市泰山區民生路31巷2號","121.430445","25.0523333333333","6501600","泰山區"
"243009","KEA-2216","2018/04/14 19:49:23","新北市泰山區美寧街60號","121.430901666667","25.0646933333333","6501600","泰山區"
"243013","646-TV","2018/04/14 19:49:38","新北市泰山區明志路三段6巷16號","121.42393","25.0436616666667","6501600","泰山區"
"243016","680-BX","2018/04/14 19:49:28","新北市泰山區新北大道七段97號","121.417873333333","25.03173","6501600","泰山區"
"222003","436-BY","2018/04/14 19:30:22","新北市深坑區深南路51-1號","121.621293333333","25.0098","6501800","深坑區"
"222002","659-BX","2018/04/14 19:49:33","新北市深坑區北深路一段288號","121.628138333333","25.0077266666667","6501800","深坑區"
"231041","002-UM","2018/04/14 19:49:25","新北市新店區中央路151號","121.529503333333","24.9722833333333","6500600","新店區"
"231059","046-UY","2018/04/14 19:49:31","新北市新店區安和路二段138號","121.519455","24.9724016666667","6500600","新店區"
"231040","047-UY","2018/04/14 19:49:42","新北市新店區北新路一段96巷23號","121.543","24.9686","6500600","新店區"
"231044","106-UY","2018/04/14 19:49:40","新北市新店區復興路121號","121.53424","24.9879383333333","6500600","新店區"
"231048","187-VK","2018/04/14 19:49:31","新北市新店區寶興路63巷2號","121.550878333333","24.97175","6500600","新店區"
"231046","188-VK","2018/04/14 19:49:31","新北市新店區三民路159巷19弄46號","121.53224","24.973175","6500600","新店區"
"231054","KEA-2219","2018/04/14 19:49:40","新北市新店區北新路一段2-19號","121.538698333333","24.9600466666667","6500600","新店區"
"231057","256-BX","2018/04/14 19:49:33","新北市新店區梅崗三路1號","121.558233333333","24.9311916666667","6500600","新店區"
"231051","278-BY","2018/04/14 19:49:36","新北市新店區中央三街44號","121.527698333333","24.97441","6500600","新店區"
"231050","AAD-862","2018/04/14 19:49:23","新北市新店區北宜路二段579巷1號","121.565618333333","24.9539683333333","6500600","新店區"
"231056","4715-K9","2018/04/14 19:49:24","新北市新店區中央一街22號","121.527441666667","24.9732333333333","6500600","新店區"
"231065","512-UM","2018/04/14 19:49:27","新北市新店區安祥路109巷123號","121.476535","24.9578333333333","6500600","新店區"
"231049","513-UM","2018/04/14 19:49:38","新北市新店區民權路127巷1-1號","121.535368333333","24.982115","6500600","新店區"
"231045","617-UM","2018/04/14 19:49:31","新北市新店區北宜路二段360-1號","121.56469","24.9524983333333","6500600","新店區"
"231061","618-UM","2018/04/14 19:49:40","新北市新店區安民街267號","121.517393333333","24.9729533333333","6500600","新店區"
"231063","641-BX","2018/04/14 19:49:42","新北市新店區車子路11號","121.502988333333","24.9520283333333","6500600","新店區"
"231042","645-TV","2018/04/14 19:49:31","新北市新店區中興路一段267-4號","121.545085","24.96786","6500600","新店區"
"231068","718-UY","2018/04/14 19:49:33","新北市新店區安華路28-1號","121.519423333333","24.96096","6500600","新店區"
"231064","719-UM","2018/04/14 19:49:38","新北市新店區安和路一段52巷2號","121.517616666667","24.9661916666667","6500600","新店區"
"231052","719-UY","2018/04/14 19:49:31","新北市新店區新烏路三段118號","121.552743333333","24.9033416666667","6500600","新店區"
"231062","720-UM","2018/04/14 19:49:28","新北市新店區永業路69號","121.530916666667","24.9513866666667","6500600","新店區"
"231060","897-TW","2018/04/14 19:49:41","新北市新店區安康路二段165號","121.509976666667","24.9592283333333","6500600","新店區"
"231043","899-TW","2018/04/14 19:49:28","新北市新店區中正路263-2號","121.538421666667","24.9738183333333","6500600","新店區"
"231055","AKT-0513","2018/04/14 19:49:37","新北市新店區力行路14巷10號","121.53928","24.965045","6500600","新店區"
"241011","013-R5","2018/04/14 19:49:39","新北市三重區三和路二段173巷47號","121.499331666667","25.0702283333333","6500200","三重區"
"241028","022-UY","2018/04/14 19:49:26","新北市三重區中正南路157號","121.493741666667","25.0561333333333","6500200","三重區"
"241008","059-VK","2018/04/14 19:49:41","新北市三重區永福街147-8號","121.478731666667","25.07623","6500200","三重區"
"241009","060-VK","2018/04/14 19:49:40","新北市三重區三和路四段396巷2-1號","121.481443333333","25.0791316666667","6500200","三重區"
"241031","061-VK","2018/04/14 19:49:21","新北市三重區重新路四段244巷4號","121.486118333333","25.05359","6500200","三重區"
"241015","062-VK","2018/04/14 19:49:39","新北市三重區重新路一段1號","121.503825","25.0642516666667","6500200","三重區"
"241017","063-VK","2018/04/14 19:49:29","新北市三重區重陽路三段5巷8弄12號","121.489488333333","25.06649","6500200","三重區"
"241024","065-VK","2018/04/14 19:49:34","新北市三重區大勇街82巷4號","121.47922","25.0715066666667","6500200","三重區"
"241026","066-VK","2018/04/14 19:49:25","新北市三重區文化南路42號","121.500313333333","25.060265","6500200","三重區"
"241003","091-VK","2018/04/14 19:49:41","新北市三重區五華街93巷12號","121.492378333333","25.08399","6500200","三重區"
"241016","265-UM","2018/04/14 19:49:39","新北市三重區正義北路48巷67號","121.495605","25.0635383333333","6500200","三重區"
"241032","269-UM","2018/04/14 19:49:30","新北市三重區重陽路一段44巷64號","121.484485","25.0576633333333","6500200","三重區"
"241013","270-UM","2018/04/14 19:49:23","新北市三重區仁愛街92巷13號","121.494755","25.0737816666667","6500200","三重區"
"241025","271-UM","2018/04/14 19:49:32","新北市三重區忠孝路三段52號","121.480696666667","25.0656616666667","6500200","三重區"
"241007","398-BY","2018/04/14 19:49:27","新北市三重區三和路四段133號","121.484691666667","25.0779833333333","6500200","三重區"
"241035","KEA-2210","2018/04/14 19:49:37","新北市三重區文化北路10號","121.49947","25.0636933333333","6500200","三重區"
"241004","475-VK","2018/04/14 19:49:29","新北市三重區仁愛街377巷132號","121.493531666667","25.0819516666667","6500200","三重區"
"241020","478-VK","2018/04/14 19:49:21","新北市三重區忠孝路一段107號","121.489193333333","25.0721266666667","6500200","三重區"
"241030","480-VK","2018/04/14 19:49:45","新北市三重區環河南路254巷76號","121.489031666667","25.0515983333333","6500200","三重區"
"241014","543-UM","2018/04/14 19:49:28","新北市三重區三和路二段37-8號","121.501345","25.0674866666667","6500200","三重區"
"241023","545-UM","2018/04/14 19:49:25","新北市三重區大有街1-1號","121.477626666667","25.0654216666667","6500200","三重區"
"241001","547-UM","2018/04/14 19:49:40","新北市三重區仁愛街327巷41號","121.49327","25.0800683333333","6500200","三重區"
"241006","AAD-863","2018/04/14 19:49:40","新北市三重區永福街269號","121.481566666667","25.0741033333333","6500200","三重區"
"241022","887-TS","2018/04/14 19:49:21","新北市三重區過圳街31巷2號","121.489231666667","25.060555","6500200","三重區"
"241012","941-UM","2018/04/14 19:49:35","新北市三重區仁福街64巷21號","121.497675","25.0753716666667","6500200","三重區"
"241029","942-UM","2018/04/14 19:49:45","新北市三重區光明路9號","121.49092","25.058815","6500200","三重區"
"241033","AAC-255","2018/04/14 19:49:27","新北市三重區中興南街66號","121.470718333333","25.04403","6500200","三重區"
"235064","005-UY","2018/04/14 19:49:35","新北市中和區南山路123號","121.502181666667","24.9972","6500300","中和區"
"235063","006-UY","2018/04/14 19:49:42","新北市中和區連城路263巷22號","121.492586666667","24.9946466666667","6500300","中和區"
"235056","096-UM","2018/04/14 19:49:28","新北市中和區中山路三段120號","121.475536666667","25.00645","6500300","中和區"
"235039","097-UM","2018/04/14 19:49:29","新北市中和區景平路172號","121.516925","24.99267","6500300","中和區"
"235065","098-UM","2018/04/14 19:49:31","新北市中和區福祥路90巷7弄9號","121.499413333333","25.0062833333333","6500300","中和區"
"235040","150-BY","2018/04/14 19:40:35","新北市中和區安平路101號","121.51129","24.9972333333333","6500300","中和區"
"235058","151-BY","2018/04/14 19:49:37","新北市中和區員山路146巷22號","121.48235","24.996755","6500300","中和區"
"235055","183-VK","2018/04/14 19:49:30","新北市中和區中山路三段181巷18弄3號","121.472701666667","25.0051916666667","6500300","中和區"
"235038","185-VK","2018/04/14 19:49:36","新北市中和區自強路50號","121.520161666667","24.99489","6500300","中和區"
"235049","186-VK","2018/04/14 19:49:41","新北市中和區中興街55號","121.5006","24.9937283333333","6500300","中和區"
"235067","255-BX","2018/04/14 19:49:24","新北市中和區新生街186巷4號","121.483396666667","24.999695","6500300","中和區"
"235044","293-VK","2018/04/14 19:49:26","新北市中和區南山路237號","121.50357","24.993045","6500300","中和區"
"235043","352-BY","2018/04/14 19:49:36","新北市中和區興南路二段159巷1號","121.505391666667","24.983285","6500300","中和區"
"235068","377-QA","2018/04/14 19:49:42","新北市中和區莊敬路7號","121.49976","25.004475","6500300","中和區"
"235061","378-QA","2018/04/14 19:49:35","新北市中和區員山路226巷8號","121.481638333333","25.000645","6500300","中和區"
"235060","269-TV","2018/04/14 19:49:30","新北市中和區員山路394巷2號","121.480836666667","25.004505","6500300","中和區"
"235050","4979-A6","2018/04/14 19:49:34","新北市中和區景平路241巷82弄37號","121.506345","24.992475","6500300","中和區"
"235042","551-UM","2018/04/14 19:49:37","新北市中和區景安路79巷37弄12號","121.507938333333","24.9961166666667","6500300","中和區"
"235045","565-BX","2018/04/14 19:49:40","新北市中和區景平路245號","121.509088333333","24.992905","6500300","中和區"
"235054","640-BX","2018/04/14 19:49:30","新北市中和區莒光路121號","121.472476666667","25.0021433333333","6500300","中和區"
"235047","732-UM","2018/04/14 19:49:38","新北市中和區和平街30號","121.509453333333","24.99024","6500300","中和區"
"235046","733-UM","2018/04/14 19:49:26","新北市中和區仁愛街38號","121.51101","24.9883666666667","6500300","中和區"
"235057","801-TS","2018/04/14 19:49:30","新北市中和區員山路130號","121.481186666667","24.99629","6500300","中和區"
"235052","805-TS","2018/04/14 19:49:32","新北市中和區興南路二段77號","121.506663333333","24.98485","6500300","中和區"
"235048","896-TW","2018/04/14 19:49:31","新北市中和區興南路一段61-1號","121.510528333333","24.9896133333333","6500300","中和區"
"235053","900-TW","2018/04/14 19:49:34","新北市中和區國光街189巷22號","121.467603333333","25.0008733333333","6500300","中和區"
"235070","911-UM","2018/04/14 19:49:31","新北市中和區連勝街45號","121.498098333333","24.9974066666667","6500300","中和區"
"235051","157-BY","2018/04/14 19:49:38","新北市中和區中興街233巷10號","121.501491666667","24.9895183333333","6500300","中和區"
"235037","AAC-213","2018/04/14 19:49:24","新北市中和區秀朗路三段177號","121.524356666667","24.99119","6500300","中和區"
"235059","AAC-215","2018/04/14 19:49:28","新北市中和區圓通路305巷27弄1號","121.495013333333","24.989165","6500300","中和區"
"220068","013-TV","2018/04/14 19:49:34","新北市板橋區中山路二段416巷47弄2號","121.483268333333","25.019405","6500100","板橋區"
"220056","015-TV","2018/04/14 19:49:34","新北市板橋區四川路二段91巷6號","121.452941666667","24.9946066666667","6500100","板橋區"
"220065","072-UY","2018/04/14 19:49:36","新北市板橋區海山路29號","121.46763","25.0091633333333","6500100","板橋區"
"220086","073-UY","2018/04/14 19:49:30","新北市板橋區南雅西路二段7巷25號","121.451855","25.00948","6500100","板橋區"
"220106","075-UY","2018/04/14 19:49:23","新北市板橋區民治街61巷27號","121.480468333333","25.033575","6500100","板橋區"
"220069","AAD-861","2018/04/14 19:49:25","新北市板橋區貴興路81號","121.45679","25.0029583333333","6500100","板橋區"
"247014","546-UM","2018/04/14 19:49:32","新北市蘆洲區中央路99號","121.472481666667","25.0841016666667","6501400","蘆洲區"
"247004","337-TH","2018/04/14 19:49:24","新北市蘆洲區長安街225號","121.459523333333","25.0824383333333","6501400","蘆洲區"
"247006","336-TH","2018/04/14 19:49:32","新北市蘆洲區永安南路二段26號","121.467151666667","25.0769466666667","6501400","蘆洲區"
"247008","056-VK","2018/04/14 19:49:29","新北市蘆洲區中山一路19號","121.47954","25.0806983333333","6501400","蘆洲區"
"247002","002-UY","2018/04/14 19:49:30","新北市蘆洲區長榮路530-1號","121.459876666667","25.0905683333333","6501400","蘆洲區"
"226004","312-R5","2018/04/14 19:49:41","新北市平溪區石底里公園街18-3號","121.73321","25.0258583333333","6502400","平溪區"
"235041","251-BX","2018/04/14 19:49:35","新北市中和區中安街18號","121.513378333333","25.00318","6500300","中和區"
"228003","097-TW","2018/04/14 19:49:29","新北市貢寮區真理里美艷山街5-1號","121.926318333333","25.059645","6502600","貢寮區"
"228001","212-TW","2018/04/14 19:49:35","新北市貢寮區真理里新港街26巷21號","121.927311666667","25.0557","6502600","貢寮區"
"224010","AGQ-8101","2018/04/14 19:43:34","新北市瑞芳區烏勢巷145號","121.84776","25.1091466666667","6501200","瑞芳區"
"224002","639-TC","2018/04/14 19:49:44","新北市瑞芳區員山子路員山巷2-1號","121.817058333333","25.1036583333333","6501200","瑞芳區"
"227002","642-TC","2018/04/14 19:49:30","新北市雙溪區雙溪里內挖路47號","121.863233333333","25.0367533333333","6502500","雙溪區"
"227010","400-TW","2018/04/14 19:49:25","新北市雙溪區新基里中華路90-1號","121.866003333333","25.0389633333333","6502500","雙溪區"
"222001","KEA-2212","2018/04/14 19:49:24","新北市深坑區北深路三段112號","121.6067","25.00153","6501800","深坑區"
"208002","KEA-2872","2018/04/14 19:49:39","新北市金山區八德街11號","121.634971666667","25.2236","6502700","金山區"
"208003","665-BX","2018/04/14 19:49:31","新北市金山區海興路188號","121.633221666667","25.2405183333333","6502700","金山區"
"208001","761-BX","2018/04/14 19:49:38","新北市金山區重和里林口28-3號","121.596566666667","25.2092733333333","6502700","金山區"
"251009","008-UM","2018/04/14 19:49:28","新北市淡水區中正路38-1號","121.443748333333","25.1692633333333","6501000","淡水區"
"251004","009-UM","2018/04/14 19:49:30","新北市淡水區民權路185巷20號","121.460281666667","25.1337883333333","6501000","淡水區"
"251005","010-UM","2018/04/14 19:49:41","新北市淡水區中正東路37號","121.445943333333","25.16802","6501000","淡水區"
"251013","179-VK","2018/04/14 19:49:39","新北市淡水區興仁路22號","121.451746666667","25.2152733333333","6501000","淡水區"
"251014","180-VK","2018/04/14 19:49:23","新北市淡水區番社前4-2號","121.473353333333","25.236545","6501000","淡水區"
"251015","182-VK","2018/04/14 19:49:37","新北市淡水區泉洲厝8-1號","121.484945","25.1889066666667","6501000","淡水區"
"251012","441-VK","2018/04/14 19:49:36","新北市淡水區淡金路三段23號","121.446305","25.197235","6501000","淡水區"
"251016","442-VK","2018/04/14 19:49:35","新北市淡水區三塊厝3-3號","121.456378333333","25.20954","6501000","淡水區"
"251001","559-UM","2018/04/14 19:49:30","新北市淡水區中正東路二段37號","121.459271666667","25.15627","6501000","淡水區"
"251006","561-UM","2018/04/14 19:49:41","新北市淡水區水碓街15號","121.443506666667","25.1769516666667","6501000","淡水區"
"251007","577-R6","2018/04/14 19:49:33","新北市淡水區竿蓁二街85號","121.455785","25.1640216666667","6501000","淡水區"
"251011","650-BX","2018/04/14 19:49:28","新北市淡水區淡金路二段180-1號","121.448176666667","25.183935","6501000","淡水區"
"251002","672-BX","2018/04/14 19:49:25","新北市淡水區新市二路三段16號","121.431796666667","25.1940916666667","6501000","淡水區"
"207003","550-UM","2018/04/14 19:49:29","新北市萬里區大鵬里萬里加投62-2號","121.642246666667","25.21216","6502800","萬里區"
"207004","225-TW","2018/04/14 19:49:30","新北市萬里區萬里里瑪鋉路261號","121.689823333333","25.1797866666667","6502800","萬里區"
"252002","178-VK","2018/04/14 19:49:42","新北市三芝區三民街33-1號","121.504638333333","25.2584666666667","6502100","三芝區"
"252001","292-VK","2018/04/14 19:49:37","新北市三芝區公正街9號","121.499766666667","25.2574983333333","6502100","三芝區"
"237004","KEA-2597","2018/04/14 19:49:43","新北市三峽區添福26號","121.375803333333","24.89726","6500900","三峽區"
"237007","153-BY","2018/04/14 19:49:31","新北市三峽區二鬮路136巷51號","121.357833333333","24.9090366666667","6500900","三峽區"
"237009","210-TH","2018/04/14 19:49:40","新北市三峽區中園街69號","121.368145","24.9255233333333","6500900","三峽區"
"237012","275-BY","2018/04/14 19:49:33","新北市三峽區中華路13-1號","121.37367","24.9321433333333","6500900","三峽區"
"237008","302-VK","2018/04/14 19:49:28","新北市三峽區大同路209號","121.370645","24.927085","6500900","三峽區"
"237014","433-BY","2018/04/14 19:49:27","新北市三峽區添福2號","121.371855","24.9062333333333","6500900","三峽區"
"237006","5529-G3","2018/04/14 19:49:36","新北市三峽區中正路一段336巷15弄2號","121.369948333333","24.9249383333333","6500900","三峽區"
"237005","AKY-6261","2018/04/14 19:49:37","新北市三峽區長泰街20號","121.378806666667","24.9317716666667","6500900","三峽區"
"236070","105-UM","2018/04/14 19:49:37","新北市土城區中央路二段346巷23號","121.439328333333","24.9723","6501300","土城區"
"236079","166-UM","2018/04/14 19:49:26","新北市土城區中央路四段464號","121.409706666667","24.9503633333333","6501300","土城區"
"236030","253-BX","2018/04/14 19:49:37","新北市土城區中央路一段278-1號","121.443613333333","24.98279","6501300","土城區"
"236026","269-VK","2018/04/14 19:49:23","新北市土城區中央路二段61巷28號","121.443433333333","24.978775","6501300","土城區"
"236038","271-VK","2018/04/14 19:49:37","新北市土城區國際路158巷33號","121.468445","24.9757633333333","6501300","土城區"
"236021","401-BY","2018/04/14 19:49:31","新北市土城區延吉街137巷12弄4號","121.47072","24.9855033333333","6501300","土城區"
"236059","912-UM","2018/04/14 19:49:25","新北市土城區中央路一段273號","121.444655","24.9848466666667","6501300","土城區"
"236049","913-UM","2018/04/14 19:49:31","新北市土城區青雲路222號","121.458948333333","24.9811983333333","6501300","土城區"
"236063","915-UM","2018/04/14 19:49:40","新北市土城區延和路105巷7弄1號","121.467178333333","24.9912966666667","6501300","土城區"
"236055","AAC-216","2018/04/14 19:49:25","新北市土城區延和路104號","121.466881666667","24.9896583333333","6501300","土城區"
"242034","AAC-296","2018/04/14 19:49:29","新北市新莊區公園一路110號","121.444288333333","25.0375483333333","6500500","新莊區"
"242058","986-R7","2018/04/14 19:49:35","新北市新莊區中正路473-1號","121.441966666667","25.0330966666667","6500500","新莊區"
"242029","705-TV","2018/04/14 19:49:14","新北市新莊區中平路183號","121.444731666667","25.0494","6500500","新莊區"
"242046","497-BY","2018/04/14 19:49:23","新北市新莊區瓊林路75號","121.436185","25.0218066666667","6500500","新莊區"
"242036","442-UM","2018/04/14 19:49:29","新北市新莊區民安路207巷30弄26號","121.428175","25.0240483333333","6500500","新莊區"
"242023","362-BY","2018/04/14 19:49:31","新北市新莊區化成路73號","121.46553","25.0461783333333","6500500","新莊區"
"242048","172-VK","2018/04/14 19:49:35","新北市新莊區建安街76巷1弄18號","121.425828333333","25.0243333333333","6500500","新莊區"
"242011","173-VK","2018/04/14 19:48:05","新北市泰山區南林路116-1號","121.408618333333","25.0434966666667","6500500","新莊區"
"242017","175-VK","2018/04/14 19:49:22","新北市新莊區中華路一段226號","121.45265","25.0429966666667","6500500","新莊區"
"242004","176-VK","2018/04/14 19:49:37","新北市新莊區化成路63巷105號","121.461611666667","25.0458983333333","6500500","新莊區"
"242021","348-TH","2018/04/14 19:49:44","新北市新莊區新泰路131號","121.448335","25.03629","6500500","新莊區"
"242013","351-TH","2018/04/14 19:49:26","新北市新莊區中泰街38巷11弄2號","121.450711666667","25.047425","6500500","新莊區"
"238015","755-BX","2018/04/14 19:49:30","新北市樹林區大安路593號","121.411623333333","24.983005","6500700","樹林區"
"238023","601-UM","2018/04/14 19:49:39","新北市樹林區三福街121巷17號","121.406251666667","25.0154883333333","6500700","樹林區"
"238024","5061-A6","2018/04/14 19:49:27","新北市樹林區育德街78-1號","121.387376666667","24.96827","6500700","樹林區"
"238021","KEA-2539","2018/04/14 19:49:34","新北市樹林區佳園路三段113巷11-1號","121.387215","24.95023","6500700","樹林區"
"239006","891-R6","2018/04/14 19:49:35","新北市鶯歌區文化路87號","121.357298333333","24.95535","6500800","鶯歌區"
"221036","130-UY","2018/04/14 19:49:24","新北市汐止區汐萬路一段1號","121.656033333333","25.067265","6501100","汐止區"
"221015","131-UY","2018/04/14 19:49:42","新北市汐止區大同路二段509號","121.661441666667","25.0687583333333","6501100","汐止區"
"221010","269-BY","2018/04/14 19:49:41","新北市汐止區連峰街244號","121.645055","25.0807416666667","6501100","汐止區"
"221012","278-VK","2018/04/14 19:49:23","新北市汐止區保長路273巷6號","121.681415","25.074","6501100","汐止區"
"221023","279-VK","2018/04/14 19:49:39","新北市汐止區民族六街3巷1號","121.629521666667","25.0703166666667","6501100","汐止區"
"221032","280-BY","2018/04/14 19:49:26","新北市汐止區新台五路一段76號","121.643075","25.059745","6501100","汐止區"
"221027","281-BY","2018/04/14 19:49:40","新北市汐止區中正路7號","121.663051666667","25.0700966666667","6501100","汐止區"
"221029","298-VK","2018/04/14 19:49:29","新北市汐止區康寧街901號","121.651435","25.0749816666667","6501100","汐止區"
"221021","299-VK","2018/04/14 19:49:39","新北市汐止區復興路58巷11弄6號","121.65618","25.0617883333333","6501100","汐止區"
"221031","353-TW","2018/04/14 19:49:33","新北市汐止區福德二路52號","121.633956666667","25.06718","6501100","汐止區"
"221008","129-UY","2018/04/14 19:49:38","新北市汐止區康寧街48號","121.618585","25.0667183333333","6501100","汐止區"
"221035","622-UM","2018/04/14 19:49:38","新北市汐止區長江街13巷8號","121.654706666667","25.0718633333333","6501100","汐止區"
"221025","623-UM","2018/04/14 19:49:39","新北市汐止區秀峰路81巷40號","121.661436666667","25.0646366666667","6501100","汐止區"
"221038","646-BX","2018/04/14 19:49:29","新北市汐止區忠孝東路443號","121.665985","25.072145","6501100","汐止區"
"221033","647-BX","2018/04/14 19:49:32","新北市汐止區東勢街76巷100-1號","121.636468333333","25.0387216666667","6501100","汐止區"
"221018","753-BX","2018/04/14 19:49:34","新北市汐止區大同路二段509號","121.661345","25.068705","6501100","汐止區"
"220079","145-BY","2018/04/14 19:49:36","新北市板橋區大仁街55號","121.454576666667","25.0163633333333","6500100","板橋區"
"220080","200-UY","2018/04/14 19:49:36","新北市板橋區大觀路二段37巷38號","121.448638333333","25.0027283333333","6500100","板橋區"
"220082","610-BX","2018/04/14 19:49:39","新北市板橋區溪北路90號","121.42839","24.9893866666667","6500100","板橋區"
"220101","245-BX","2018/04/14 19:49:37","新北市板橋區縣民大道三段95號","121.47589","25.0220383333333","6500100","板橋區"
"220103","257-TC","2018/04/14 19:49:32","新北市板橋區陽明街29巷3號","121.465153333333","25.02163","6500100","板橋區"
"220091","267-BY","2018/04/14 19:49:24","新北市板橋區民治街83號","121.479736666667","25.0322116666667","6500100","板橋區"
"220072","277-BY","2018/04/14 19:49:23","新北市板橋區金門街151巷42弄2號","121.433938333333","24.9902516666667","6500100","板橋區"
"220070","282-UM","2018/04/14 19:49:41","新北市板橋區重慶路112號","121.462021666667","25.0049983333333","6500100","板橋區"
"220071","283-VK","2018/04/14 19:49:43","新北市板橋區廣權路77號","121.463858333333","24.99241","6500100","板橋區"
"220094","285-UM","2018/04/14 19:49:39","新北市板橋區長江路一段9號","121.457728333333","25.0290583333333","6500100","板橋區"
"220053","285-VK","2018/04/14 19:49:45","新北市板橋區中山路二段60巷1弄24號","121.475086666667","25.015715","6500100","板橋區"
"220083","286-VK","2018/04/14 19:49:35","新北市板橋區僑中二街8巷11號","121.446608333333","25.01118","6500100","板橋區"
"220081","287-VK","2018/04/14 19:49:27","新北市板橋區大觀路一段29巷59號","121.450376666667","25.0069166666667","6500100","板橋區"
"220090","288-VK","2018/04/14 19:49:25","新北市板橋區龍泉街54巷8弄14號","121.457455","25.0269016666667","6500100","板橋區"
"220061","293-UM","2018/04/14 19:49:38","新北市板橋區漢生東路113巷8號","121.467795","25.01523","6500100","板橋區"
"220075","303-R5","2018/04/14 19:49:34","新北市板橋區金華街10巷48弄45號","121.458613333333","25.020125","6500100","板橋區"
"220062","305-R5","2018/04/14 19:49:29","新北市板橋區中山路二段416巷56-2號","121.482876666667","25.019185","6500100","板橋區"
"220092","307-R5","2018/04/14 19:49:38","新北市板橋區四維路170號","121.464718333333","25.0261833333333","6500100","板橋區"
"220098","317-R6","2018/04/14 19:49:39","新北市板橋區新海路402號","121.458613333333","25.0268216666667","6500100","板橋區"
"220064","486-VK","2018/04/14 19:49:31","新北市板橋區實踐路90號","121.463991666667","25.005075","6500100","板橋區"
"242031","280-VK","2018/04/14 19:49:44","新北市新莊區公園一路113號","121.44509","25.03783","6500500","新莊區"
"220088","491-VK","2018/04/14 19:49:39","新北市板橋區仁化街150-2號","121.477781666667","25.0332616666667","6500100","板橋區"
"220035","560-BX","2018/04/14 19:49:32","新北市板橋區金華街86號","121.457991666667","25.0206083333333","6500100","板橋區"
"220084","568-UM","2018/04/14 19:49:24","新北市板橋區溪崑二街112巷33弄20號","121.425255","24.9886116666667","6500100","板橋區"
"220063","609-BX","2018/04/14 19:49:35","新北市板橋區三民路一段3巷2號","121.478966666667","25.023405","6500100","板橋區"
"220057","686-BX","2018/04/14 19:49:34","新北市板橋區信義路215號","121.45949","24.9915233333333","6500100","板橋區"
"220093","689-BX","2018/04/14 19:49:42","新北市板橋區長江路二段226號","121.468393333333","25.0323266666667","6500100","板橋區"
"220054","741-BX","2018/04/14 19:49:27","新北市板橋區忠孝路忠義巷21弄2號","121.46695","25.00396","6500100","板橋區"
"220102","KEA-2699","2018/04/14 19:49:35","新北市板橋區松柏街50巷4號","121.475838333333","25.0298","6500100","板橋區"
"220055","827-TW","2018/04/14 19:49:38","新北市板橋區國慶路149巷4弄16-3號","121.461888333333","24.9969433333333","6500100","板橋區"
"220067","830-TW","2018/04/14 19:49:29","新北市板橋區長安街138巷1弄340號","121.475265","25.0114083333333","6500100","板橋區"
"220096","831-TW","2018/04/14 19:49:35","新北市板橋區莒光路15巷12號","121.470333333333","25.02527","6500100","板橋區"
"220089","833-TW","2018/04/14 19:49:40","新北市板橋區綠堤街39-4號","121.4553","25.0263316666667","6500100","板橋區"
"220074","895-R6","2018/04/14 19:49:39","新北市板橋區福德街26號","121.45602","25.00855","6500100","板橋區"
"220073","985-R7","2018/04/14 19:49:30","新北市板橋區大仁街75-1號","121.453936666667","25.0161966666667","6500100","板橋區"
"220097","AAC-210","2018/04/14 19:49:24","新北市板橋區文化路一段285巷2弄27號","121.464035","25.0195383333333","6500100","板橋區"
"220077","AAC-253","2018/04/14 19:49:29","新北市板橋區僑中一街124巷11弄2號","121.445963333333","25.0129816666667","6500100","板橋區"
