"lineid","car","time","location","longitude","latitude","cityid","cityname"
"234070","149-BY","2018/04/14 19:59:35","新北市永和區國光路14號","121.519108333333","25.0083533333333","6500400","永和區"
"234007","207-UY","2018/04/14 19:59:34","新北市永和區保生路22巷10號","121.507341666667","25.00816","6500400","永和區"
"234081","298-R6","2018/04/14 19:59:43","新北市永和區永亨路114號","121.523776666667","25.0044183333333","6500400","永和區"
"234038","336-UY","2018/04/14 19:59:35","新北市永和區成功路二段152-1號","121.526441666667","24.9967583333333","6500400","永和區"
"234064","337-UY","2018/04/14 19:59:38","新北市永和區中正路412巷20弄14號","121.518801666667","25.001525","6500400","永和區"
"234086","338-UY","2018/04/14 19:59:34","新北市永和區福和路12巷2號","121.524431666667","25.0086016666667","6500400","永和區"
"234067","553-UM","2018/04/14 19:59:27","新北市永和區永貞路361巷1號","121.509015","25.0077133333333","6500400","永和區"
"234017","745-BX","2018/04/14 19:59:25","新北市永和區文化路75號","121.5138","25.0151716666667","6500400","永和區"
"234030","746-BX","2018/04/14 19:59:36","新北市永和區民生路22巷2號","121.522315","24.9973566666667","6500400","永和區"
"234054","KEA-2590","2018/04/14 19:59:40","新北市永和區環河東路一段122號","121.520681666667","25.0156583333333","6500400","永和區"
"234013","KEA-2591","2018/04/14 19:59:23","新北市永和區保生路55號","121.504713333333","25.0106083333333","6500400","永和區"
"234061","AAD-866","2018/04/14 19:59:25","新北市永和區中正路283巷3號","121.517068333333","25.0007433333333","6500400","永和區"
"234046","847-RS","2018/04/14 19:59:34","新北市永和區林森路81號","121.523903333333","25.003875","6500400","永和區"
"234042","862-TW","2018/04/14 19:59:37","新北市永和區中和路421巷5弄5號","121.508675","25.0009583333333","6500400","永和區"
"234050","863-TW","2018/04/14 19:59:33","新北市永和區保安路137號","121.5073","25.0133483333333","6500400","永和區"
"234026","9371-KE","2018/04/14 19:59:37","新北市永和區水源街39巷2號","121.510005","25.0042533333333","6500400","永和區"
"234011","9373-KE","2018/04/14 19:59:28","新北市永和區仁愛路352巷92弄16號","121.501331666667","25.0081383333333","6500400","永和區"
"249001","173-UM","2018/04/14 19:59:42","新北市八里區中華路二段310號","121.403868333333","25.1483716666667","6502300","八里區"
"249004","303-UY","2018/04/14 19:59:33","新北市八里區中華路一段333-1號","121.413385","25.1537383333333","6502300","八里區"
"249002","305-UY","2018/04/14 19:59:29","新北市八里區頂寮二街1號","121.45084","25.123755","6502300","八里區"
"249003","593-UM","2018/04/14 19:59:24","新北市八里區訊塘路28號","121.398111666667","25.1451916666667","6502300","八里區"
"248016","026-BX","2018/04/14 19:59:32","新北市五股區成泰路三段577巷80弄59號","121.449278333333","25.10508","6501500","五股區"
"248008","095-VK","2018/04/14 19:59:34","新北市五股區四維路30巷24號","121.46811","25.0714733333333","6501500","五股區"
"248020","225-UY","2018/04/14 19:59:44","新北市五股區凌雲路三段24巷20號","121.434318333333","25.10666","6501500","五股區"
"248012","247-BX","2018/04/14 19:59:37","新北市五股區民義路一段112-10號","121.435321666667","25.0852683333333","6501500","五股區"
"248014","261-SL","2018/04/14 19:59:27","新北市五股區五福路14巷8號","121.434803333333","25.0887333333333","6501500","五股區"
"248010","272-BY","2018/04/14 19:59:24","新北市五股區登林路92號","121.428785","25.0693916666667","6501500","五股區"
"248004","677-BX","2018/04/14 19:59:39","新北市五股區成泰路一段6號","121.434431666667","25.06733","6501500","五股區"
"248002","678-BX","2018/04/14 19:59:34","新北市五股區成泰路三段487號","121.450793333333","25.0992866666667","6501500","五股區"
"234023","9380-KE","2018/04/14 19:59:35","新北市永和區中正路700號","121.516285","25.0098183333333","6500400","永和區"
"234077","969-R7","2018/04/14 19:59:30","新北市永和區民有街5號","121.516108333333","24.9970533333333","6500400","永和區"
"234074","AAC-211","2018/04/14 19:59:31","新北市永和區豫溪街191巷1弄2號","121.52325","25.01034","6500400","永和區"
"234003","AAC-295","2018/04/14 19:59:41","新北市永和區中正路659號","121.514721666667","25.0102466666667","6500400","永和區"
"243012","AAD-798","2018/04/14 19:59:40","新北市泰山區全興路109號","121.433866666667","25.056675","6501600","泰山區"
"243011","297-R6","2018/04/14 19:59:34","新北市泰山區明志路三段196巷37號","121.421806666667","25.0397566666667","6501600","泰山區"
"243015","380-SR","2018/04/14 19:52:41","新北市泰山區民權街80號","121.42828","25.049635","6501600","泰山區"
"243014","421-VK","2018/04/14 19:59:38","新北市泰山區泰林路二段109-1號","121.434551666667","25.0592516666667","6501600","泰山區"
"243010","KEA-2215","2018/04/14 19:59:32","新北市泰山區中華街10巷1號","121.427923333333","25.052595","6501600","泰山區"
"243009","KEA-2216","2018/04/14 19:59:23","新北市泰山區泰林路二段164巷31號","121.434336666667","25.0611766666667","6501600","泰山區"
"243013","646-TV","2018/04/14 19:59:38","新北市泰山區應化街7號","121.423896666667","25.0437733333333","6501600","泰山區"
"243016","680-BX","2018/04/14 19:58:28","新北市泰山區明志路三段514號","121.420921666667","25.0308533333333","6501600","泰山區"
"222003","436-BY","2018/04/14 19:59:26","新北市深坑區埔新街14號","121.620735","25.003945","6501800","深坑區"
"222002","659-BX","2018/04/14 19:59:33","新北市深坑區北深路二段55巷12弄15號","121.618751666667","25.0032016666667","6501800","深坑區"
"231041","002-UM","2018/04/14 19:59:25","新北市新店區中正路348號","121.536266666667","24.9752683333333","6500600","新店區"
"231067","0293-UT","2018/04/14 19:59:37","新北市新店區秀山路11巷22號","121.531575","24.9588766666667","6500600","新店區"
"231059","046-UY","2018/04/14 19:59:34","新北市新店區安和路一段1號","121.516713333333","24.963895","6500600","新店區"
"231040","047-UY","2018/04/14 19:59:22","新北市新店區中正路75巷61號","121.54322","24.9694233333333","6500600","新店區"
"231044","106-UY","2018/04/14 19:59:40","新北市新店區寶元路一段15巷20號","121.542015","24.98702","6500600","新店區"
"231048","187-VK","2018/04/14 19:59:30","新北市新店區寶宏路38號","121.549485","24.975555","6500600","新店區"
"231054","KEA-2219","2018/04/14 19:59:40","新北市新店區光明街137號","121.53944","24.9620016666667","6500600","新店區"
"231057","256-BX","2018/04/14 19:59:32","新北市新店區百齡一路9號","121.555473333333","24.9324166666667","6500600","新店區"
"231051","278-BY","2018/04/14 19:59:36","新北市新店區中央一街20-1號","121.528253333333","24.9728816666667","6500600","新店區"
"231050","AAD-862","2018/04/14 19:59:23","新北市新店區北宜路二段6號","121.547693333333","24.9517683333333","6500600","新店區"
"231066","4716-K9","2018/04/14 19:58:16","新北市新店區安康路二段362號","121.501791666667","24.95748","6500600","新店區"
"231056","4715-K9","2018/04/14 19:59:24","新北市新店區北新路三段54-1號","121.542063333333","24.9800466666667","6500600","新店區"
"231065","512-UM","2018/04/14 19:59:27","新北市新店區安祥路109巷8號","121.475426666667","24.958825","6500600","新店區"
"231049","513-UM","2018/04/14 19:59:38","新北市新店區明德路42號","121.54141","24.9782233333333","6500600","新店區"
"231045","617-UM","2018/04/14 19:59:31","新北市新店區北宜路二段108-1號","121.55582","24.9536466666667","6500600","新店區"
"231061","618-UM","2018/04/14 19:59:40","新北市新店區安民街379巷16號","121.51569","24.9766883333333","6500600","新店區"
"231063","641-BX","2018/04/14 19:59:42","新北市新店區黎明路52巷5號","121.502146666667","24.9486683333333","6500600","新店區"
"231042","645-TV","2018/04/14 19:59:31","新北市新店區中正路7號","121.545765","24.9692","6500600","新店區"
"231068","718-UY","2018/04/14 19:59:33","新北市新店區安華路28-1號","121.51933","24.960985","6500600","新店區"
"231064","719-UM","2018/04/14 19:59:38","新北市新店區光華街22號","121.516951666667","24.9692933333333","6500600","新店區"
"231052","719-UY","2018/04/14 19:59:31","新北市新店區新烏路三段338號","121.546615","24.89587","6500600","新店區"
"231062","720-UM","2018/04/14 19:59:28","新北市新店區精忠路7號","121.528626666667","24.955845","6500600","新店區"
"231060","897-TW","2018/04/14 19:59:26","新北市新店區安康路二段357號","121.49573","24.954775","6500600","新店區"
"231043","899-TW","2018/04/14 19:59:28","新北市新店區中正路263-4號","121.538295","24.9737733333333","6500600","新店區"
"231055","AKT-0513","2018/04/14 19:59:32","新北市新店區中華路48巷12號","121.540268333333","24.9687116666667","6500600","新店區"
"241011","013-R5","2018/04/14 19:59:37","新北市三重區三和路二段224號","121.49778","25.0695883333333","6500200","三重區"
"241028","022-UY","2018/04/14 19:59:26","新北市三重區中正南路41巷1號","121.493748333333","25.0599966666667","6500200","三重區"
"241008","059-VK","2018/04/14 19:59:41","新北市三重區永福街179巷15號","121.478356666667","25.0749383333333","6500200","三重區"
"241009","060-VK","2018/04/14 19:59:33","新北市三重區三和路四段390巷32號","121.480731666667","25.0786133333333","6500200","三重區"
"241031","061-VK","2018/04/14 19:59:41","新北市三重區重新路四段144巷6號","121.48703","25.055795","6500200","三重區"
"241015","062-VK","2018/04/14 19:59:39","新北市三重區三和路二段37號","121.500785","25.0672416666667","6500200","三重區"
"241017","063-VK","2018/04/14 19:59:29","新北市三重區自強路一段213號","121.491436666667","25.0685033333333","6500200","三重區"
"241024","065-VK","2018/04/14 19:59:34","新北市三重區力行路一段176號","121.481926666667","25.0714266666667","6500200","三重區"
"241026","066-VK","2018/04/14 19:59:25","新北市三重區重新路一段104號","121.501073333333","25.06303","6500200","三重區"
"241002","090-VK","2018/04/14 19:59:25","新北市三重區五華街1巷68號","121.496796666667","25.0803816666667","6500200","三重區"
"241003","091-VK","2018/04/14 19:59:41","新北市三重區仁愛街445巷8號","121.4902","25.0825533333333","6500200","三重區"
"241005","262-UM","2018/04/14 19:59:36","新北市三重區五華街237號","121.489388333333","25.086025","6500200","三重區"
"241016","265-UM","2018/04/14 19:59:38","新北市三重區正義北路36巷28號","121.496243333333","25.063255","6500200","三重區"
"241032","269-UM","2018/04/14 19:59:30","新北市三重區捷運路65號","121.483391666667","25.0556283333333","6500200","三重區"
"241013","270-UM","2018/04/14 19:59:23","新北市三重區三和路三段125巷40號","121.493908333333","25.07375","6500200","三重區"
"241025","271-UM","2018/04/14 19:59:32","新北市三重區頂崁街210巷7號","121.476663333333","25.067685","6500200","三重區"
"241007","398-BY","2018/04/14 19:59:27","新北市三重區溪尾街154號","121.48896","25.0799783333333","6500200","三重區"
"241035","KEA-2210","2018/04/14 19:59:44","新北市三重區大榮街9號","121.498163333333","25.0632116666667","6500200","三重區"
"241004","475-VK","2018/04/14 19:59:29","新北市三重區仁愛街377巷132號","121.493546666667","25.08195","6500200","三重區"
"241020","478-VK","2018/04/14 19:59:41","新北市三重區大智街179巷36號","121.490783333333","25.0730016666667","6500200","三重區"
"241030","480-VK","2018/04/14 19:59:38","新北市三重區重新路四段244巷10號","121.486205","25.0535383333333","6500200","三重區"
"241014","543-UM","2018/04/14 19:59:41","新北市三重區長樂街2號","121.499208333333","25.0691233333333","6500200","三重區"
"241023","545-UM","2018/04/14 19:59:25","新北市三重區大有街1-1號","121.477571666667","25.0654466666667","6500200","三重區"
"241001","547-UM","2018/04/14 19:59:40","新北市三重區仁愛街283巷38號","121.494421666667","25.0799783333333","6500200","三重區"
"241019","KEA-2593","2018/04/14 19:59:27","新北市三重區重陽路四段18號","121.49082","25.0692216666667","6500200","三重區"
"241006","AAD-863","2018/04/14 19:59:44","新北市三重區力行路二段120號","121.482031666667","25.074915","6500200","三重區"
"241022","887-TS","2018/04/14 19:59:41","新北市三重區過圳街31巷2號","121.489131666667","25.0606116666667","6500200","三重區"
"241012","941-UM","2018/04/14 19:59:35","新北市三重區仁厚街65號","121.500758333333","25.0767166666667","6500200","三重區"
"241029","942-UM","2018/04/14 19:59:25","新北市三重區重新路三段204號","121.489983333333","25.0584633333333","6500200","三重區"
"241033","AAC-255","2018/04/14 19:59:26","新北市三重區中興北街14-1號","121.469356666667","25.0473","6500200","三重區"
"235064","005-UY","2018/04/14 19:59:35","新北市中和區圓通路2號","121.50192","24.998085","6500300","中和區"
"235056","096-UM","2018/04/14 19:59:28","新北市中和區中山路三段170巷8弄19號","121.473095","25.007795","6500300","中和區"
"235039","097-UM","2018/04/14 19:59:29","新北市中和區大勇街25巷23號","121.515486666667","24.9938366666667","6500300","中和區"
"235065","098-UM","2018/04/14 19:59:31","新北市中和區福祥路58號","121.499391666667","25.0047016666667","6500300","中和區"
"235040","150-BY","2018/04/14 19:55:35","新北市中和區宜安路74號","121.511248333333","24.997365","6500300","中和區"
"235058","151-BY","2018/04/14 19:59:37","新北市中和區員山路150巷2弄57號","121.481856666667","24.997365","6500300","中和區"
"235055","183-VK","2018/04/14 19:59:30","新北市中和區德光路26-1號","121.47055","25.0046316666667","6500300","中和區"
"235049","186-VK","2018/04/14 19:59:41","新北市中和區景平路526號","121.502886666667","24.99432","6500300","中和區"
"235067","255-BX","2018/04/14 19:59:24","新北市中和區員山路148巷23弄30號","121.48228","24.9979833333333","6500300","中和區"
"235044","293-VK","2018/04/14 19:59:35","新北市中和區中正路69號","121.501121666667","24.9934433333333","6500300","中和區"
"235043","352-BY","2018/04/14 19:59:36","新北市中和區興南路二段159巷3號","121.505426666667","24.983305","6500300","中和區"
"235068","377-QA","2018/04/14 19:59:22","新北市中和區景平路736巷5弄1號","121.497203333333","25.0034283333333","6500300","中和區"
"235061","378-QA","2018/04/14 19:59:35","新北市中和區新生街148巷20號","121.482605","25.0006733333333","6500300","中和區"
"235050","4979-A6","2018/04/14 19:59:34","新北市中和區景平路155巷2弄2號","121.513263333333","24.9919133333333","6500300","中和區"
"235042","551-UM","2018/04/14 19:59:37","新北市中和區宜安路171號","121.508406666667","24.999235","6500300","中和區"
"235054","640-BX","2018/04/14 19:59:30","新北市中和區莒光路9號","121.471848333333","25.0058883333333","6500300","中和區"
"235046","733-UM","2018/04/14 19:59:26","新北市中和區興南路一段93巷58弄2號","121.510615","24.98595","6500300","中和區"
"235052","805-TS","2018/04/14 19:59:32","新北市中和區華新街50巷5弄80號","121.5079","24.98331","6500300","中和區"
"235048","896-TW","2018/04/14 19:59:37","新北市中和區景新街568-1號","121.514741666667","24.9866066666667","6500300","中和區"
"235070","911-UM","2018/04/14 19:59:31","新北市中和區圓通路165-1號","121.497751666667","24.9954733333333","6500300","中和區"
"235051","157-BY","2018/04/14 19:59:38","新北市中和區景安路220巷20號","121.502706666667","24.9913566666667","6500300","中和區"
"235037","AAC-213","2018/04/14 19:59:24","新北市中和區自立路16-2號","121.522138333333","24.9936383333333","6500300","中和區"
"235059","AAC-215","2018/04/14 19:59:35","新北市中和區圓通路367巷13弄21號","121.492943333333","24.9885366666667","6500300","中和區"
"220068","013-TV","2018/04/14 19:59:36","新北市板橋區光復街208號","121.485666666667","25.0201866666667","6500100","板橋區"
"220065","072-UY","2018/04/14 19:59:36","新北市板橋區民族路166號","121.464753333333","25.0082216666667","6500100","板橋區"
"220106","075-UY","2018/04/14 19:59:23","新北市板橋區民治街42巷19號","121.47858","25.0332783333333","6500100","板橋區"
"220069","AAD-861","2018/04/14 19:59:25","新北市板橋區大明街25巷2弄17號","121.457521666667","25.002485","6500100","板橋區"
"247024","893-R6","2018/04/14 19:59:35","新北市蘆洲區光榮路120巷8弄41號","121.46455","25.08779","6501400","蘆洲區"
"247014","546-UM","2018/04/14 19:59:32","新北市蘆洲區成功路151號","121.472106666667","25.0825933333333","6501400","蘆洲區"
"247012","339-TH","2018/04/14 19:59:36","新北市蘆洲區民族路157號","121.47941","25.0881033333333","6501400","蘆洲區"
"247004","337-TH","2018/04/14 19:59:24","新北市蘆洲區永康街39號","121.457166666667","25.0850966666667","6501400","蘆洲區"
"247006","336-TH","2018/04/14 19:59:24","新北市蘆洲區九芎街109號","121.465696666667","25.0796266666667","6501400","蘆洲區"
"247018","057-VK","2018/04/14 19:59:37","新北市蘆洲區民族路211號","121.477996666667","25.0894","6501400","蘆洲區"
"247008","056-VK","2018/04/14 19:59:29","新北市蘆洲區信義路101號","121.478183333333","25.07961","6501400","蘆洲區"
"247016","007-UY","2018/04/14 19:59:25","新北市蘆洲區中正路103號","121.469826666667","25.08403","6501400","蘆洲區"
"247002","002-UY","2018/04/14 19:59:30","新北市蘆洲區長安街274巷9號","121.457901666667","25.08707","6501400","蘆洲區"
"247020","001-UY","2018/04/14 19:59:37","新北市蘆洲區民義街70號","121.473151666667","25.0898916666667","6501400","蘆洲區"
"226004","312-R5","2018/04/14 19:59:41","新北市平溪區靜安路二段295號","121.733145","25.0257966666667","6502400","平溪區"
"235041","251-BX","2018/04/14 19:59:35","新北市中和區中安街166號","121.51087","25.000125","6500300","中和區"
"228003","097-TW","2018/04/14 19:59:40","新北市貢寮區仁理村仁和路216號","121.923701666667","25.0531783333333","6502600","貢寮區"
"224010","AGQ-8101","2018/04/14 19:59:14","新北市瑞芳區基山街181號","121.843315","25.10775","6501200","瑞芳區"
"224002","639-TC","2018/04/14 19:59:44","新北市瑞芳區三爪子坑路91巷2號","121.811455","25.10735","6501200","瑞芳區"
"227002","642-TC","2018/04/14 19:59:30","新北市雙溪區雙溪里長安街16號","121.864993333333","25.0347166666667","6502500","雙溪區"
"227010","400-TW","2018/04/14 19:59:25","新北市雙溪區新基里新基南街25號","121.866246666667","25.0381433333333","6502500","雙溪區"
"222001","KEA-2212","2018/04/14 19:59:44","新北市深坑區北深路三段165-1號","121.602175","25.0034533333333","6501800","深坑區"
"208002","KEA-2872","2018/04/14 19:59:39","新北市金山區環金路87號","121.637125","25.2173316666667","6502700","金山區"
"208003","665-BX","2018/04/14 19:59:31","新北市金山區永興里濆水路25號","121.626411666667","25.2690583333333","6502700","金山區"
"208001","761-BX","2018/04/14 19:59:38","新北市金山區南勢65號","121.626125","25.2202033333333","6502700","金山區"
"251009","008-UM","2018/04/14 19:59:28","新北市淡水區英專路8-5號","121.445408333333","25.1693016666667","6501000","淡水區"
"251004","009-UM","2018/04/14 19:54:49","新北市淡水區民權路177巷45號","121.460755","25.134105","6501000","淡水區"
"251005","010-UM","2018/04/14 19:59:41","新北市淡水區學府路136巷37號","121.451773333333","25.1727","6501000","淡水區"
"251013","179-VK","2018/04/14 19:59:39","新北市淡水區奎柔山路63號","121.45173","25.206165","6501000","淡水區"
"251014","180-VK","2018/04/14 19:59:23","新北市淡水區石頭厝12-3號","121.461671666667","25.236415","6501000","淡水區"
"251008","181-VK","2018/04/14 19:59:30","新北市淡水區淡海路63巷8號","121.422808333333","25.1808166666667","6501000","淡水區"
"251015","182-VK","2018/04/14 19:59:36","新北市淡水區商工路366號","121.46881","25.18536","6501000","淡水區"
"251010","413-VK","2018/04/14 19:59:25","新北市淡水區崁頂92號","121.429838333333","25.203255","6501000","淡水區"
"251012","441-VK","2018/04/14 19:59:36","新北市淡水區下圭柔山109-1號","121.444375","25.210995","6501000","淡水區"
"251016","442-VK","2018/04/14 19:59:35","新北市淡水區淡金路四段586號","121.451726666667","25.2281833333333","6501000","淡水區"
"251001","559-UM","2018/04/14 19:59:30","新北市淡水區淡金路二段30號","121.452393333333","25.18126","6501000","淡水區"
"251006","561-UM","2018/04/14 19:59:41","新北市淡水區水碓街57號","121.44432","25.1774666666667","6501000","淡水區"
"251011","650-BX","2018/04/14 19:59:28","新北市淡水區崁頂51-2號","121.4422","25.19738","6501000","淡水區"
"251002","672-BX","2018/04/14 19:59:25","新北市淡水區沙崙路129號","121.422683333333","25.1824516666667","6501000","淡水區"
"207003","550-UM","2018/04/14 19:59:29","新北市萬里區磺潭里公館崙5號","121.641901666667","25.21425","6502800","萬里區"
"207004","225-TW","2018/04/14 19:59:30","新北市萬里區北基里忠二街35號","121.68562","25.17572","6502800","萬里區"
"252002","178-VK","2018/04/14 19:59:42","新北市三芝區三民街39巷36號","121.505385","25.25754","6502100","三芝區"
"252001","292-VK","2018/04/14 19:59:37","新北市三芝區公正街9號","121.499735","25.2575133333333","6502100","三芝區"
"237004","KEA-2597","2018/04/14 19:59:23","新北市三峽區添福3-1號","121.370855","24.90851","6500900","三峽區"
"237007","153-BY","2018/04/14 19:59:32","新北市三峽區麻園40號","121.363803333333","24.9208633333333","6500900","三峽區"
"237009","210-TH","2018/04/14 19:59:40","新北市三峽區民族街28巷2-8號","121.368878333333","24.9306883333333","6500900","三峽區"
"237012","275-BY","2018/04/14 19:59:33","新北市三峽區中華路48巷16號","121.37113","24.9300783333333","6500900","三峽區"
"237008","302-VK","2018/04/14 19:59:28","新北市三峽區中正路一段174巷1弄2號","121.372215","24.928695","6500900","三峽區"
"237014","433-BY","2018/04/14 19:59:27","新北市三峽區介壽路一段1號","121.375318333333","24.9339766666667","6500900","三峽區"
"237006","5529-G3","2018/04/14 19:59:36","新北市三峽區中園街237-1號","121.367061666667","24.9194133333333","6500900","三峽區"
"237005","AKY-6261","2018/04/14 19:59:33","新北市三峽區民生街1巷7號","121.379726666667","24.9358816666667","6500900","三峽區"
"236070","105-UM","2018/04/14 19:59:37","新北市土城區忠義路92號","121.444348333333","24.9623416666667","6501300","土城區"
"236079","166-UM","2018/04/14 19:59:26","新北市土城區福安街55巷6號","121.418683333333","24.96421","6501300","土城區"
"236030","253-BX","2018/04/14 19:59:37","新北市土城區中央路一段252號","121.444346666667","24.9846316666667","6501300","土城區"
"236026","269-VK","2018/04/14 19:59:43","新北市土城區中央路二段94號","121.442293333333","24.9785616666667","6501300","土城區"
"236014","270-VK","2018/04/14 19:59:30","新北市土城區廣福街123號","121.456318333333","24.9929716666667","6501300","土城區"
"236038","271-VK","2018/04/14 19:59:37","新北市土城區國際路52號","121.466345","24.9784083333333","6501300","土城區"
"236021","401-BY","2018/04/14 19:59:30","新北市土城區延吉街97巷12號","121.471988333333","24.9864033333333","6501300","土城區"
"236059","912-UM","2018/04/14 19:59:25","新北市土城區中央路一段239號","121.445433333333","24.9861233333333","6501300","土城區"
"236049","913-UM","2018/04/14 19:59:35","新北市土城區金城路三段309號","121.474461666667","24.9909966666667","6501300","土城區"
"236063","915-UM","2018/04/14 19:59:40","新北市土城區延和路62巷6弄1號","121.466045","24.9886","6501300","土城區"
"236055","AAC-216","2018/04/14 19:59:45","新北市土城區學府路一段3號","121.459205","24.9884133333333","6501300","土城區"
"242034","AAC-296","2018/04/14 19:59:28","新北市新莊區建中街94號","121.446733333333","25.0367616666667","6500500","新莊區"
"242058","986-R7","2018/04/14 19:59:35","新北市新莊區八德街17號","121.425361666667","25.0225966666667","6500500","新莊區"
"242053","751-BX","2018/04/14 19:59:39","新北市新莊區西盛街421號","121.427296666667","25.0122216666667","6500500","新莊區"
"242029","705-TV","2018/04/14 19:59:34","新北市新莊區中榮街152巷45號","121.445446666667","25.0536983333333","6500500","新莊區"
"242027","615-BX","2018/04/14 19:59:31","新北市新莊區立信三街14號","121.444045","25.0503383333333","6500500","新莊區"
"242025","613-BX","2018/04/14 19:58:13","新北市新莊區五工一路72巷11號","121.462241666667","25.0664233333333","6500500","新莊區"
"242046","497-BY","2018/04/14 19:59:43","新北市新莊區民安路46號","121.422701666667","25.0274483333333","6500500","新莊區"
"242036","442-UM","2018/04/14 19:59:33","新北市新莊區建安街25巷5號","121.429251666667","25.02621","6500500","新莊區"
"242051","441-UM","2018/04/14 19:59:40","新北市新莊區西盛街170號","121.428156666667","25.0190983333333","6500500","新莊區"
"242056","440-UM","2018/04/14 19:59:31","新北市新莊區中正路347巷17弄8號","121.447483333333","25.034145","6500500","新莊區"
"242044","400-BY","2018/04/14 19:59:42","新北市新莊區中正路746巷43-3號","121.41179","25.0243933333333","6500500","新莊區"
"242023","362-BY","2018/04/14 19:59:31","新北市新莊區化成路428號","121.465988333333","25.051155","6500500","新莊區"
"242061","353-BY","2018/04/14 19:59:31","新北市新莊區瓊泰路15號","121.444435","25.0284533333333","6500500","新莊區"
"242039","133-UY","2018/04/14 19:59:27","新北市新莊區民安路298號","121.428205","25.0217533333333","6500500","新莊區"
"242048","172-VK","2018/04/14 19:59:35","新北市新莊區民安路98巷13號","121.423523333333","25.0253666666667","6500500","新莊區"
"242011","173-VK","2018/04/14 19:55:45","新北市新莊區中港路569號","121.451233333333","25.05189","6500500","新莊區"
"242017","175-VK","2018/04/14 19:59:41","新北市新莊區中安街38號","121.45285","25.04636","6500500","新莊區"
"242004","176-VK","2018/04/14 19:59:30","新北市新莊區頭前路139號","121.461288333333","25.0524216666667","6500500","新莊區"
"242015","346-TH","2018/04/14 19:59:22","新北市新莊區復興路一段47巷11號","121.446745","25.04265","6500500","新莊區"
"242019","347-TH","2018/04/14 19:59:29","新北市新莊區中港路163號","121.454818333333","25.04117","6500500","新莊區"
"242021","348-TH","2018/04/14 19:59:38","新北市新莊區建中街16巷36號","121.44888","25.0387333333333","6500500","新莊區"
"242002","349-TH","2018/04/14 19:59:34","新北市新莊區新興街8號","121.451096666667","25.0360416666667","6500500","新莊區"
"242013","351-TH","2018/04/14 19:59:26","新北市新莊區幸福路670巷2弄1號","121.450926666667","25.04952","6500500","新莊區"
"238015","755-BX","2018/04/14 19:58:09","新北市樹林區中山路三段210-2號","121.380795","24.966815","6500700","樹林區"
"238023","601-UM","2018/04/14 19:59:39","新北市樹林區中正路247號","121.422341666667","25.004235","6500700","樹林區"
"238021","KEA-2539","2018/04/14 19:59:34","新北市樹林區柑園街一段253巷65號","121.400805","24.9510916666667","6500700","樹林區"
"221036","130-UY","2018/04/14 19:59:24","新北市汐止區新台五路二段85巷20號","121.664155","25.0674516666667","6501100","汐止區"
"221015","131-UY","2018/04/14 19:59:42","新北市汐止區忠孝東路473巷20號","121.665293333333","25.07348","6501100","汐止區"
"221010","269-BY","2018/04/14 19:59:41","新北市汐止區八連路一段197巷25號","121.64161","25.07902","6501100","汐止區"
"221012","278-VK","2018/04/14 19:59:43","新北市汐止區大同路三段318號","121.679013333333","25.071155","6501100","汐止區"
"221023","279-VK","2018/04/14 19:59:39","新北市汐止區明峰街218號","121.626896666667","25.06865","6501100","汐止區"
"221032","280-BY","2018/04/14 19:59:26","新北市汐止區橫科路4巷1弄7號","121.617843333333","25.0509616666667","6501100","汐止區"
"221027","281-BY","2018/04/14 19:59:40","新北市汐止區中正路102號","121.661086666667","25.0694583333333","6501100","汐止區"
"221029","298-VK","2018/04/14 19:59:29","新北市汐止區樟樹一路137巷26號","121.64093","25.0660833333333","6501100","汐止區"
"221021","299-VK","2018/04/14 19:59:39","新北市汐止區水源路一段177號","121.655121666667","25.0617383333333","6501100","汐止區"
"221031","353-TW","2018/04/14 19:59:33","新北市汐止區中興路132-1號","121.633208333333","25.0642816666667","6501100","汐止區"
"221008","129-UY","2018/04/14 19:59:38","新北市汐止區忠一街9巷7號","121.620465","25.0732316666667","6501100","汐止區"
"221035","622-UM","2018/04/14 19:59:43","新北市汐止區長江街57巷12號","121.656103333333","25.07199","6501100","汐止區"
"221025","623-UM","2018/04/14 19:59:39","新北市汐止區秀峰路114號","121.659976666667","25.0635033333333","6501100","汐止區"
"221038","646-BX","2018/04/14 19:59:29","新北市汐止區忠孝東路512號","121.666828333333","25.0754183333333","6501100","汐止區"
"221033","647-BX","2018/04/14 19:59:32","新北市汐止區東勢街201巷98號","121.633753333333","25.0431233333333","6501100","汐止區"
"221018","753-BX","2018/04/14 19:59:39","新北市汐止區茄苳路276號","121.672238333333","25.06793","6501100","汐止區"
"220079","145-BY","2018/04/14 19:59:36","新北市板橋區南雅西路二段175巷2號","121.451576666667","25.012495","6500100","板橋區"
"220080","200-UY","2018/04/14 19:59:36","新北市板橋區大觀路二段163巷32號","121.446798333333","24.9999283333333","6500100","板橋區"
"220082","610-BX","2018/04/14 19:59:39","新北市板橋區篤行路二段131巷1-2號","121.431386666667","24.9903916666667","6500100","板橋區"
"220101","245-BX","2018/04/14 19:59:37","新北市板橋區萬板路76號","121.47277","25.02316","6500100","板橋區"
"220103","257-TC","2018/04/14 19:59:32","新北市板橋區自由路13號","121.465511666667","25.0226416666667","6500100","板橋區"
"220091","267-BY","2018/04/14 19:59:35","新北市板橋區文聖街89巷32號","121.478478333333","25.0304083333333","6500100","板橋區"
"220072","277-BY","2018/04/14 19:59:45","新北市板橋區篤行路二段3-3號","121.431831666667","24.9933433333333","6500100","板橋區"
"220070","282-UM","2018/04/14 19:59:21","新北市板橋區德興街16號","121.453405","24.9943883333333","6500100","板橋區"
"220071","283-VK","2018/04/14 19:59:43","新北市板橋區五權街30巷24弄28號","121.463725","24.994065","6500100","板橋區"
"220094","285-UM","2018/04/14 19:59:39","新北市板橋區雨農路13號","121.462225","25.0246966666667","6500100","板橋區"
"220053","285-VK","2018/04/14 19:59:29","新北市板橋區永豐街67號","121.473875","25.0185916666667","6500100","板橋區"
"220083","286-VK","2018/04/14 19:59:35","新北市板橋區僑中二街48巷16號","121.44569","25.01033","6500100","板橋區"
"220081","287-VK","2018/04/14 19:59:27","新北市板橋區僑中一街80巷3弄1號","121.447633333333","25.0121416666667","6500100","板橋區"
"220090","288-VK","2018/04/14 19:59:25","新北市板橋區龍泉街156號","121.457281666667","25.0238666666667","6500100","板橋區"
"220061","293-UM","2018/04/14 19:59:38","新北市板橋區觀光街21號","121.471331666667","25.0161716666667","6500100","板橋區"
"220062","305-R5","2018/04/14 19:59:30","新北市板橋區萬安街20巷4弄16號","121.48519","25.0229416666667","6500100","板橋區"
"220092","307-R5","2018/04/14 19:59:38","新北市板橋區互助街90號","121.46029","25.0263416666667","6500100","板橋區"
"220098","317-R6","2018/04/14 19:59:39","新北市板橋區新海路72巷52號","121.462103333333","25.0231766666667","6500100","板橋區"
"220064","486-VK","2018/04/14 19:59:33","新北市板橋區海山路41號","121.467151666667","25.00978","6500100","板橋區"
"242031","280-VK","2018/04/14 19:59:31","新北市新莊區中正路352號","121.443941666667","25.0345566666667","6500500","新莊區"
"220088","491-VK","2018/04/14 19:59:39","新北市板橋區大同街69號","121.479395","25.0280133333333","6500100","板橋區"
"220035","560-BX","2018/04/14 19:59:32","新北市板橋區新生街36號","121.456468333333","25.021095","6500100","板橋區"
"220084","568-UM","2018/04/14 19:59:24","新北市板橋區溪崑二街112巷24號","121.425938333333","24.989185","6500100","板橋區"
"220063","609-BX","2018/04/14 19:59:35","新北市板橋區中山路二段72號","121.474401666667","25.0160283333333","6500100","板橋區"
"220057","686-BX","2018/04/14 19:59:34","新北市板橋區南雅南路二段49號","121.451446666667","24.9944833333333","6500100","板橋區"
"220093","689-BX","2018/04/14 19:59:36","新北市板橋區長江路三段116號","121.475111666667","25.0343466666667","6500100","板橋區"
"220054","741-BX","2018/04/14 19:59:25","新北市板橋區忠孝路忠義巷7號","121.46549","25.0036166666667","6500100","板橋區"
"220102","KEA-2699","2018/04/14 19:59:35","新北市板橋區仁化街67號","121.475645","25.0318466666667","6500100","板橋區"
"220055","827-TW","2018/04/14 19:59:39","新北市板橋區仁愛路62巷2號","121.45981","24.9992283333333","6500100","板橋區"
"220067","830-TW","2018/04/14 19:59:29","新北市板橋區漢生東路193巷9號","121.470495","25.0117833333333","6500100","板橋區"
"220096","831-TW","2018/04/14 19:59:28","新北市板橋區莒光路81-1號","121.471913333333","25.02406","6500100","板橋區"
"220089","833-TW","2018/04/14 19:59:20","新北市板橋區龍泉街55巷6號","121.457213333333","25.02563","6500100","板橋區"
"220074","895-R6","2018/04/14 19:59:39","新北市板橋區文化路一段52巷13號","121.460641666667","25.011705","6500100","板橋區"
"220073","985-R7","2018/04/14 19:59:30","新北市板橋區南雅西路二段86號","121.452551666667","25.0110466666667","6500100","板橋區"
"220097","AAC-210","2018/04/14 19:59:34","新北市板橋區光正街45巷6弄3號","121.46152","25.0168716666667","6500100","板橋區"
