"lineid","car","time","location","longitude","latitude","cityid","cityname"
"234070","149-BY","2018/04/14 20:09:35","新北市永和區福和路183巷2弄2號","121.519946666667","25.0072566666667","6500400","永和區"
"234007","207-UY","2018/04/14 20:09:34","新北市永和區保生路64號","121.505048333333","25.008995","6500400","永和區"
"234081","298-R6","2018/04/14 20:09:37","新北市永和區國中路109巷5弄1號","121.52375","25.0052966666667","6500400","永和區"
"234038","336-UY","2018/04/14 20:09:26","新北市永和區成功路一段50號","121.526966666667","25.0041366666667","6500400","永和區"
"234064","337-UY","2018/04/14 20:09:38","新北市永和區永元路56號","121.522353333333","25.0011866666667","6500400","永和區"
"234086","338-UY","2018/04/14 20:09:34","新北市永和區中正路660-1號","121.516818333333","25.0087833333333","6500400","永和區"
"234067","553-UM","2018/04/14 20:09:27","新北市永和區中山路一段240號","121.507655","25.0078216666667","6500400","永和區"
"234017","745-BX","2018/04/14 20:09:26","新北市永和區文化路63號","121.514045","25.01509","6500400","永和區"
"234030","746-BX","2018/04/14 20:09:36","新北市永和區民權路51號","121.52013","24.99704","6500400","永和區"
"234054","KEA-2590","2018/04/14 20:09:37","新北市永和區博愛街16-1號","121.517113333333","25.0157116666667","6500400","永和區"
"234013","KEA-2591","2018/04/14 20:09:43","新北市永和區仁愛路273號","121.506045","25.009865","6500400","永和區"
"234061","AAD-866","2018/04/14 20:09:25","新北市永和區安樂路100巷28號","121.515525","24.9987766666667","6500400","永和區"
"234046","847-RS","2018/04/14 20:09:34","新北市永和區得和路418號","121.526103333333","24.99898","6500400","永和區"
"234042","862-TW","2018/04/14 20:09:34","新北市中和區水源路162號","121.508941666667","25.00345","6500400","永和區"
"234050","863-TW","2018/04/14 20:09:33","新北市永和區新生路265巷1號","121.505638333333","25.0129933333333","6500400","永和區"
"234026","9371-KE","2018/04/14 20:09:37","新北市永和區環河西路二段247號","121.49992","25.0093316666667","6500400","永和區"
"234011","9373-KE","2018/04/14 20:09:35","新北市永和區仁愛路352巷122弄13號","121.500685","25.0089466666667","6500400","永和區"
"249001","173-UM","2018/04/14 20:09:23","新北市八里區中華路二段326號","121.403346666667","25.1479","6502300","八里區"
"249004","303-UY","2018/04/14 20:09:33","新北市八里區中山路一段400號","121.41168","25.1583766666667","6502300","八里區"
"249002","305-UY","2018/04/14 20:09:29","新北市八里區龍米路一段38號","121.457058333333","25.1179","6502300","八里區"
"249003","593-UM","2018/04/14 20:09:24","新北市八里區中山路二段540巷9弄17號","121.396635","25.1467533333333","6502300","八里區"
"248016","026-BX","2018/04/14 20:09:32","新北市五股區凌雲路一段158巷57弄1號","121.447078333333","25.10445","6501500","五股區"
"248008","095-VK","2018/04/14 20:09:38","新北市五股區中興路一段1巷12弄5號","121.469306666667","25.0712516666667","6501500","五股區"
"248012","247-BX","2018/04/14 20:09:37","新北市五股區六合街118號","121.430268333333","25.0907783333333","6501500","五股區"
"248014","261-SL","2018/04/14 20:09:27","新北市五股區成泰路二段224號","121.43941","25.085925","6501500","五股區"
"248010","272-BY","2018/04/14 20:09:24","新北市五股區成泰路一段7巷66號","121.432586666667","25.0678916666667","6501500","五股區"
"248004","677-BX","2018/04/14 20:09:44","新北市五股區成泰路一段76號","121.435695","25.0702183333333","6501500","五股區"
"248002","678-BX","2018/04/14 20:09:34","新北市五股區成泰路三段280號","121.447295","25.09394","6501500","五股區"
"234023","9380-KE","2018/04/14 20:09:35","新北市永和區大新街73巷1號","121.517703333333","25.008435","6500400","永和區"
"234077","969-R7","2018/04/14 20:09:30","新北市永和區民光街34號","121.516493333333","24.99575","6500400","永和區"
"234074","AAC-211","2018/04/14 20:09:31","新北市永和區豫溪街136巷1號","121.521285","25.0103416666667","6500400","永和區"
"234003","AAC-295","2018/04/14 20:09:31","新北市永和區中正路620號","121.51713","25.007815","6500400","永和區"
"243012","AAD-798","2018/04/14 20:09:40","新北市泰山區楓江路110號","121.438213333333","25.063905","6501600","泰山區"
"243011","297-R6","2018/04/14 20:09:34","新北市泰山區明志路三段359號","121.421755","25.03488","6501600","泰山區"
"243015","380-SR","2018/04/14 19:52:41","新北市泰山區民權街80號","121.42828","25.049635","6501600","泰山區"
"243014","421-VK","2018/04/14 20:09:38","新北市五股區成泰路一段9號","121.433613333333","25.06647","6501600","泰山區"
"243010","KEA-2215","2018/04/14 20:09:32","新北市泰山區明志路二段136巷22號","121.426351666667","25.05175","6501600","泰山區"
"243009","KEA-2216","2018/04/14 20:09:44","新北市泰山區泰林路二段116巷4弄4號","121.435091666667","25.0594","6501600","泰山區"
"243013","646-TV","2018/04/14 20:09:31","新北市泰山區民國街8號","121.425293333333","25.04352","6501600","泰山區"
"243016","680-BX","2018/04/14 20:09:28","新北市泰山區貴陽街2號","121.421421666667","25.0331583333333","6501600","泰山區"
"222003","436-BY","2018/04/14 20:09:26","新北市深坑區埔新街67號","121.620098333333","25.0022266666667","6501800","深坑區"
"222002","659-BX","2018/04/14 20:09:33","新北市深坑區北深路三段22號","121.609296666667","25.0011183333333","6501800","深坑區"
"231041","002-UM","2018/04/14 20:09:26","新北市新店區中正路468號","121.534016666667","24.9794116666667","6500600","新店區"
"231067","0293-UT","2018/04/14 20:09:37","新北市新店區秀山路68號","121.530905","24.961005","6500600","新店區"
"231059","046-UY","2018/04/14 20:09:36","新北市新店區安德街80號","121.510085","24.961465","6500600","新店區"
"231040","047-UY","2018/04/14 20:09:42","新北市新店區中正路106號","121.543123333333","24.9706016666667","6500600","新店區"
"231044","106-UY","2018/04/14 20:09:40","新北市新店區寶慶街58巷2號","121.542058333333","24.98679","6500600","新店區"
"231048","187-VK","2018/04/14 20:09:30","新北市新店區永華街32號","121.544551666667","24.9756083333333","6500600","新店區"
"231054","KEA-2219","2018/04/14 20:09:40","新北市新店區檳榔路34號","121.541486666667","24.9638216666667","6500600","新店區"
"231057","256-BX","2018/04/14 20:09:33","新北市新店區花園一路一段2號","121.553096666667","24.9324066666667","6500600","新店區"
"231051","278-BY","2018/04/14 20:09:36","新北市新店區中央六街3號","121.530396666667","24.9744933333333","6500600","新店區"
"231050","AAD-862","2018/04/14 20:09:43","新北市新店區北新路一段335號","121.541783333333","24.9686616666667","6500600","新店區"
"231058","3713-VJ","2018/04/14 20:09:40","新北市新店區柴埕路38-8號","121.51336","24.9648716666667","6500600","新店區"
"231066","4716-K9","2018/04/14 20:09:38","新北市新店區柴埕路52巷3號","121.511803333333","24.96443","6500600","新店區"
"231056","4715-K9","2018/04/14 20:09:24","新北市新店區北新路二段29巷3弄1號","121.542195","24.9730516666667","6500600","新店區"
"231065","512-UM","2018/04/14 20:09:27","新北市新店區安祥路106巷141號","121.473128333333","24.9588066666667","6500600","新店區"
"231049","513-UM","2018/04/14 20:09:39","新北市新店區北新路二段139巷9-1號","121.542176666667","24.9755433333333","6500600","新店區"
"231045","617-UM","2018/04/14 20:09:31","新北市新店區北宜路一段178號","121.54077","24.952955","6500600","新店區"
"231061","618-UM","2018/04/14 20:09:40","新北市新店區安興路33-1號","121.515856666667","24.9704216666667","6500600","新店區"
"231063","641-BX","2018/04/14 20:09:42","新北市新店區黎明路53巷1號","121.502376666667","24.9486733333333","6500600","新店區"
"231042","645-TV","2018/04/14 20:09:31","新北市新店區中興路一段308號","121.54663","24.9698833333333","6500600","新店區"
"231068","718-UY","2018/04/14 20:09:33","新北市新店區寶中路45-3號","121.545248333333","24.9789466666667","6500600","新店區"
"231064","719-UM","2018/04/14 20:09:38","新北市新店區安康路二段100巷5號","121.513283333333","24.9636566666667","6500600","新店區"
"231052","719-UY","2018/04/14 20:09:31","新北市新店區新烏路三段寶島巷2弄3號","121.551991666667","24.8986333333333","6500600","新店區"
"231062","720-UM","2018/04/14 20:09:28","新北市新店區安康路二段68號","121.51468","24.9635966666667","6500600","新店區"
"231060","897-TW","2018/04/14 20:09:26","新北市新店區安康路三段261號","121.48671","24.9517983333333","6500600","新店區"
"231043","899-TW","2018/04/14 20:09:28","新北市新店區民族路186號","121.536898333333","24.976055","6500600","新店區"
"231055","AKT-0513","2018/04/14 20:09:32","新北市新店區北新路一段297巷17號","121.540866666667","24.9678183333333","6500600","新店區"
"241011","013-R5","2018/04/14 20:09:37","新北市三重區仁愛街30號","121.496363333333","25.0717416666667","6500200","三重區"
"241028","022-UY","2018/04/14 20:09:29","新北市三重區仁化街147號","121.494666666667","25.0573083333333","6500200","三重區"
"241008","059-VK","2018/04/14 20:09:41","新北市三重區永福街197巷33號","121.478428333333","25.07437","6500200","三重區"
"241009","060-VK","2018/04/14 20:09:33","新北市三重區永福街62號","121.481021666667","25.0778833333333","6500200","三重區"
"241031","061-VK","2018/04/14 20:09:41","新北市三重區過圳街9-1號","121.488766666667","25.0601233333333","6500200","三重區"
"241015","062-VK","2018/04/14 20:09:39","新北市三重區福德北路30號","121.50218","25.0650033333333","6500200","三重區"
"241017","063-VK","2018/04/14 20:09:29","新北市三重區大同北路221巷30號","121.492161666667","25.0664583333333","6500200","三重區"
"241024","065-VK","2018/04/14 20:09:34","新北市三重區中正北路282號","121.480556666667","25.06858","6500200","三重區"
"241026","066-VK","2018/04/14 20:09:25","新北市三重區福德南路65巷2號","121.50236","25.0605","6500200","三重區"
"241002","090-VK","2018/04/14 20:09:25","新北市三重區仁忠街53號","121.494915","25.08149","6500200","三重區"
"241003","091-VK","2018/04/14 20:09:21","新北市三重區仁愛街472號","121.489676666667","25.08242","6500200","三重區"
"241005","262-UM","2018/04/14 20:09:36","新北市三重區碧華街292號","121.489623333333","25.0833","6500200","三重區"
"241016","265-UM","2018/04/14 20:09:38","新北市三重區中正北路25巷25弄4號","121.493351666667","25.0626833333333","6500200","三重區"
"241032","269-UM","2018/04/14 20:09:30","新北市三重區捷運路67號","121.48335","25.0556816666667","6500200","三重區"
"241013","270-UM","2018/04/14 20:09:43","新北市三重區三和路三段151巷47號","121.494186666667","25.0742583333333","6500200","三重區"
"241025","271-UM","2018/04/14 20:09:40","新北市三重區中正北路279號","121.474843333333","25.0710316666667","6500200","三重區"
"241007","398-BY","2018/04/14 20:09:27","新北市三重區三和路四段111-33號","121.486275","25.0773866666667","6500200","三重區"
"241035","KEA-2210","2018/04/14 20:09:41","新北市三重區平安街51號","121.49787","25.0641666666667","6500200","三重區"
"241004","475-VK","2018/04/14 20:09:29","新北市三重區仁愛街403號","121.490955","25.08096","6500200","三重區"
"241020","478-VK","2018/04/14 20:09:41","新北市三重區忠孝路一段68號","121.490053333333","25.0719833333333","6500200","三重區"
"241030","480-VK","2018/04/14 20:09:23","新北市三重區成功路145巷35號","121.487816666667","25.0532616666667","6500200","三重區"
"241014","543-UM","2018/04/14 20:09:28","新北市三重區長樂街114號","121.501681666667","25.0696283333333","6500200","三重區"
"241023","545-UM","2018/04/14 20:09:34","新北市三重區頂崁街229號","121.477018333333","25.068275","6500200","三重區"
"241001","547-UM","2018/04/14 20:09:40","新北市三重區溪尾街28號","121.490988333333","25.076465","6500200","三重區"
"241019","KEA-2593","2018/04/14 20:09:32","新北市三重區大智街178號","121.491143333333","25.0700316666667","6500200","三重區"
"241006","AAD-863","2018/04/14 20:09:44","新北市三重區力行路二段91巷22號","121.483548333333","25.0759866666667","6500200","三重區"
"241022","887-TS","2018/04/14 20:09:41","新北市三重區新北大道一段68號","121.487176666667","25.0613366666667","6500200","三重區"
"241012","941-UM","2018/04/14 20:09:35","新北市三重區仁福街64巷25號","121.497638333333","25.0754583333333","6500200","三重區"
"241029","942-UM","2018/04/14 20:09:25","新北市三重區光明路32巷23弄1號","121.492148333333","25.058735","6500200","三重區"
"241033","AAC-255","2018/04/14 20:09:26","新北市三重區光復路一段68巷2號","121.471803333333","25.0492483333333","6500200","三重區"
"235039","097-UM","2018/04/14 20:09:29","新北市中和區景平路278巷16弄26號","121.51444","24.993825","6500300","中和區"
"235065","098-UM","2018/04/14 20:09:31","新北市中和區福美路298-1號","121.49733","25.005095","6500300","中和區"
"235040","150-BY","2018/04/14 19:55:35","新北市中和區宜安路74號","121.511248333333","24.997365","6500300","中和區"
"235068","377-QA","2018/04/14 20:09:42","新北市中和區福祥路85巷6弄1號","121.498458333333","25.0056866666667","6500300","中和區"
"235050","4979-A6","2018/04/14 20:09:34","新北市中和區景新街323-1號","121.511276666667","24.9921083333333","6500300","中和區"
"235026","800-TS","2018/04/14 20:09:27","新北市中和區連城路347巷2號","121.488123333333","24.995955","6500300","中和區"
"235070","911-UM","2018/04/14 20:09:31","新北市中和區中正路446號","121.490968333333","24.9941166666667","6500300","中和區"
"235037","AAC-213","2018/04/14 20:09:24","新北市中和區自強路50號","121.520143333333","24.9948616666667","6500300","中和區"
"235059","AAC-215","2018/04/14 20:09:28","新北市中和區圓通路335巷33弄35號","121.493756666667","24.9887183333333","6500300","中和區"
"220068","013-TV","2018/04/14 20:09:34","新北市板橋區中山路二段364號","121.481708333333","25.0201233333333","6500100","板橋區"
"220069","AAD-861","2018/04/14 20:09:45","新北市板橋區南雅南路二段11-29號","121.453945","25.00129","6500100","板橋區"
"247024","893-R6","2018/04/14 20:09:35","新北市蘆洲區光明路139號","121.464488333333","25.0885783333333","6501400","蘆洲區"
"247014","546-UM","2018/04/14 20:09:32","新北市蘆洲區中山二路265巷8號","121.470158333333","25.0794566666667","6501400","蘆洲區"
"247022","500-BY","2018/04/14 20:09:39","新北市蘆洲區三民路175號","121.470923333333","25.0871033333333","6501400","蘆洲區"
"247012","339-TH","2018/04/14 20:09:36","新北市蘆洲區民族路252號","121.479051666667","25.0887816666667","6501400","蘆洲區"
"247004","337-TH","2018/04/14 20:09:24","新北市蘆洲區永安南路二段328巷17弄16號","121.455676666667","25.0838716666667","6501400","蘆洲區"
"247006","336-TH","2018/04/14 20:09:44","新北市蘆洲區中山二路300巷2號","121.468571666667","25.0770016666667","6501400","蘆洲區"
"247018","057-VK","2018/04/14 20:08:37","新北市蘆洲區民族路314巷3弄4號","121.477495","25.0905466666667","6501400","蘆洲區"
"247016","007-UY","2018/04/14 20:09:25","新北市蘆洲區光華路134號","121.466283333333","25.0823533333333","6501400","蘆洲區"
"247002","002-UY","2018/04/14 20:09:30","新北市蘆洲區永康街2巷6號","121.459288333333","25.0861083333333","6501400","蘆洲區"
"247020","001-UY","2018/04/14 20:09:37","新北市蘆洲區民權路106巷5弄7號","121.474211666667","25.0890433333333","6501400","蘆洲區"
"224010","AGQ-8101","2018/04/14 20:09:34","新北市瑞芳區輕便路308號","121.843043333333","25.1084633333333","6501200","瑞芳區"
"222001","KEA-2212","2018/04/14 20:09:24","新北市深坑區北深路三段191號","121.601236666667","25.0036133333333","6501800","深坑區"
"208003","665-BX","2018/04/14 20:09:38","新北市金山區香園6號","121.6343","25.2475483333333","6502700","金山區"
"251009","008-UM","2018/04/14 20:09:28","新北市淡水區英專路2巷27號","121.446485","25.1692716666667","6501000","淡水區"
"251004","009-UM","2018/04/14 19:54:49","新北市淡水區民權路177巷45號","121.460755","25.134105","6501000","淡水區"
"251013","179-VK","2018/04/14 20:09:39","新北市淡水區奎柔山路752巷1號","121.472931666667","25.2052266666667","6501000","淡水區"
"251014","180-VK","2018/04/14 20:09:23","新北市淡水區石頭厝3號","121.45871","25.235545","6501000","淡水區"
"251008","181-VK","2018/04/14 20:09:30","新北市淡水區淡海路72巷30弄1號","121.424321666667","25.18269","6501000","淡水區"
"251015","182-VK","2018/04/14 20:09:37","新北市淡水區埤島76-3號","121.451578333333","25.19278","6501000","淡水區"
"251010","413-VK","2018/04/14 20:09:25","新北市淡水區新市二路二段8號","121.424308333333","25.19669","6501000","淡水區"
"251012","441-VK","2018/04/14 20:09:36","新北市淡水區淡金路三段185號","121.448731666667","25.2045066666667","6501000","淡水區"
"251016","442-VK","2018/04/14 20:09:35","新北市淡水區番子田25-5號","121.456448333333","25.2296366666667","6501000","淡水區"
"251006","561-UM","2018/04/14 20:09:41","新北市淡水區北新路141巷29號","121.44814","25.179595","6501000","淡水區"
"251002","672-BX","2018/04/14 20:09:25","新北市淡水區中正路312號","121.437183333333","25.1725166666667","6501000","淡水區"
"207003","550-UM","2018/04/14 20:09:29","新北市萬里區大鵬里萬里加投180號","121.643046666667","25.215855","6502800","萬里區"
"207004","225-TW","2018/04/14 20:09:39","新北市萬里區北基里大勇路16號","121.68209","25.1767066666667","6502800","萬里區"
"252002","178-VK","2018/04/14 20:09:42","新北市三芝區三民街8巷3號","121.504106666667","25.2582933333333","6502100","三芝區"
"252001","292-VK","2018/04/14 20:09:37","新北市三芝區公正街9號","121.499766666667","25.257475","6502100","三芝區"
"237006","5529-G3","2018/04/14 20:09:36","新北市三峽區中正路二段299巷1號","121.36636","24.910875","6500900","三峽區"
"237005","AKY-6261","2018/04/14 20:09:33","新北市三峽區三樹路98巷74弄91號","121.38506","24.9384766666667","6500900","三峽區"
"236070","105-UM","2018/04/14 20:09:37","新北市土城區大安路14號","121.432785","24.9660483333333","6501300","土城區"
"236079","166-UM","2018/04/14 20:09:28","新北市土城區福安街2-1號","121.420296666667","24.9651833333333","6501300","土城區"
"236030","253-BX","2018/04/14 20:09:41","新北市土城區中央路一段141號","121.44673","24.9879883333333","6501300","土城區"
"236026","269-VK","2018/04/14 20:09:38","新北市土城區裕生路75號","121.446995","24.984495","6501300","土城區"
"236014","270-VK","2018/04/14 20:09:30","新北市土城區廣明街1號","121.455966666667","24.9917833333333","6501300","土城區"
"236038","271-VK","2018/04/14 20:09:37","新北市土城區明德路一段48巷13號","121.464635","24.9836766666667","6501300","土城區"
"236021","401-BY","2018/04/14 20:09:41","新北市土城區延吉街23巷17號","121.473978333333","24.9874366666667","6501300","土城區"
"236059","912-UM","2018/04/14 20:09:25","新北市土城區中央路二段137號","121.442078333333","24.9771016666667","6501300","土城區"
"236049","913-UM","2018/04/14 20:09:33","新北市土城區清水路259號","121.463075","24.9843966666667","6501300","土城區"
"236063","915-UM","2018/04/14 20:09:40","新北市土城區延和路12巷1號","121.46416","24.9877766666667","6501300","土城區"
"236055","AAC-216","2018/04/14 20:09:25","新北市土城區中華路一段164巷5號","121.441635","24.9834133333333","6501300","土城區"
"242034","AAC-296","2018/04/14 20:09:28","新北市新莊區中正路318巷16號","121.446461666667","25.0358583333333","6500500","新莊區"
"242058","986-R7","2018/04/14 20:09:35","新北市新莊區八德街119號","121.424046666667","25.0207216666667","6500500","新莊區"
"242053","751-BX","2018/04/14 20:09:39","新北市新莊區西盛街395巷22弄4號","121.428301666667","25.0127683333333","6500500","新莊區"
"242029","705-TV","2018/04/14 20:09:34","新北市新莊區中原路319號","121.446541666667","25.0543633333333","6500500","新莊區"
"242027","615-BX","2018/04/14 20:09:25","新北市新莊區幸福路838號","121.444853333333","25.0490816666667","6500500","新莊區"
"242025","613-BX","2018/04/14 19:58:13","新北市新莊區五工一路72巷11號","121.462241666667","25.0664233333333","6500500","新莊區"
"242042","566-BX","2018/04/14 20:09:27","新北市新莊區青山路一段193-1號","121.398608333333","25.0310466666667","6500500","新莊區"
"242046","497-BY","2018/04/14 20:09:43","新北市新莊區裕民街103巷19號","121.4196","25.0228266666667","6500500","新莊區"
"242036","442-UM","2018/04/14 20:09:29","新北市新莊區建安街7號","121.428843333333","25.0266533333333","6500500","新莊區"
"242051","441-UM","2018/04/14 20:09:40","新北市新莊區民安西路150巷19號","121.425293333333","25.01646","6500500","新莊區"
"242056","440-UM","2018/04/14 20:09:31","新北市新莊區新莊路649巷15弄1號","121.445021666667","25.03154","6500500","新莊區"
"242044","400-BY","2018/04/14 20:09:33","新北市新莊區中正路895-50號","121.41188","25.0217816666667","6500500","新莊區"
"242023","362-BY","2018/04/14 20:09:31","新北市新莊區化成路319號","121.465891666667","25.0557616666667","6500500","新莊區"
"242061","353-BY","2018/04/14 20:09:31","新北市新莊區瓊林路瓊英巷2弄2號","121.443798333333","25.0273316666667","6500500","新莊區"
"242039","133-UY","2018/04/14 20:09:25","新北市新莊區民安西路113-2號","121.426941666667","25.0181166666667","6500500","新莊區"
"242048","172-VK","2018/04/14 20:09:35","新北市新莊區四維路152巷36號","121.4218","25.0223033333333","6500500","新莊區"
"242011","173-VK","2018/04/14 20:09:25","新北市新莊區中和街191巷1-1號","121.447725","25.051185","6500500","新莊區"
"242017","175-VK","2018/04/14 20:09:42","新北市新莊區中港路397號","121.451983333333","25.0470033333333","6500500","新莊區"
"242004","176-VK","2018/04/14 20:09:33","新北市新莊區頭前路2巷21弄2號","121.468086666667","25.0538183333333","6500500","新莊區"
"242015","346-TH","2018/04/14 20:09:42","新北市新莊區中平路26巷23號","121.446045","25.04332","6500500","新莊區"
"242019","347-TH","2018/04/14 20:09:29","新北市新莊區民樂街65巷31號","121.45695","25.04178","6500500","新莊區"
"242021","348-TH","2018/04/14 20:09:38","新北市新莊區中興街43號","121.44921","25.036925","6500500","新莊區"
"242002","349-TH","2018/04/14 20:09:34","新北市新莊區中正路141號","121.459861666667","25.0384916666667","6500500","新莊區"
"242013","351-TH","2018/04/14 20:09:26","新北市新莊區幸福路710巷5弄1號","121.449056666667","25.04971","6500500","新莊區"
"238021","KEA-2539","2018/04/14 20:09:34","新北市樹林區佳園路三段53號","121.387765","24.9533266666667","6500700","樹林區"
"221036","130-UY","2018/04/14 20:09:45","新北市汐止區新台五路二段108號","121.662671666667","25.0659316666667","6501100","汐止區"
"221015","131-UY","2018/04/14 20:09:42","新北市汐止區建成路35號","121.663788333333","25.07265","6501100","汐止區"
"221010","269-BY","2018/04/14 20:09:41","新北市汐止區八連路二段36巷10號","121.637403333333","25.0943183333333","6501100","汐止區"
"221012","278-VK","2018/04/14 20:09:23","新北市汐止區汐平路二段49-2號","121.696725","25.0627733333333","6501100","汐止區"
"221023","279-VK","2018/04/14 20:09:39","新北市汐止區明峰街298巷7弄2號","121.624866666667","25.0690583333333","6501100","汐止區"
"221032","280-BY","2018/04/14 20:09:26","新北市汐止區弘道街10號","121.616948333333","25.0486483333333","6501100","汐止區"
"221027","281-BY","2018/04/14 20:09:40","新北市汐止區民生街11號","121.660108333333","25.0688266666667","6501100","汐止區"
"221029","298-VK","2018/04/14 20:09:29","新北市汐止區樟樹一路119巷10弄2號","121.641241666667","25.0646766666667","6501100","汐止區"
"221021","299-VK","2018/04/14 20:09:39","新北市汐止區水源路一段260號","121.654076666667","25.0597383333333","6501100","汐止區"
"221031","353-TW","2018/04/14 20:09:33","新北市汐止區福德二路96號","121.632486666667","25.06624","6501100","汐止區"
"221008","129-UY","2018/04/14 20:09:38","台北市內湖區康樂街117號","121.619078333333","25.0708933333333","6501100","汐止區"
"221035","622-UM","2018/04/14 20:09:23","新北市汐止區長江街79巷13號","121.657558333333","25.072875","6501100","汐止區"
"221025","623-UM","2018/04/14 20:09:39","新北市汐止區莊敬街130-2號","121.654345","25.0608983333333","6501100","汐止區"
"221038","646-BX","2018/04/14 20:09:29","新北市汐止區大同路三段41號","121.666885","25.076425","6501100","汐止區"
"221033","647-BX","2018/04/14 20:09:32","新北市汐止區東勢街201巷104號","121.633533333333","25.04291","6501100","汐止區"
"221002","707-TV","2018/04/14 20:09:33","新北市汐止區工建路366號","121.6332","25.0594316666667","6501100","汐止區"
"221018","753-BX","2018/04/14 20:09:34","新北市汐止區茄苳路325號","121.673735","25.066405","6501100","汐止區"
"220080","200-UY","2018/04/14 20:09:36","新北市板橋區大觀路二段169巷6號","121.44558","25.0000066666667","6500100","板橋區"
"220101","245-BX","2018/04/14 20:09:38","新北市板橋區雙十路二段47巷2弄25號","121.475115","25.0268833333333","6500100","板橋區"
"220103","257-TC","2018/04/14 20:09:32","新北市板橋區自由路3號","121.46537","25.0223783333333","6500100","板橋區"
"220072","277-BY","2018/04/14 20:09:43","新北市板橋區金門街111-1號","121.433041666667","24.991995","6500100","板橋區"
"220070","282-UM","2018/04/14 20:09:41","新北市板橋區四川路二段245巷17號","121.451085","24.9931233333333","6500100","板橋區"
"220071","283-VK","2018/04/14 20:09:23","新北市板橋區和平路174巷11號","121.46429","24.9948816666667","6500100","板橋區"
"220083","286-VK","2018/04/14 20:09:35","新北市板橋區僑中二街92巷15號","121.445461666667","25.0089983333333","6500100","板橋區"
"220081","287-VK","2018/04/14 20:09:27","新北市板橋區僑中一街124巷18弄22號","121.447","25.0135866666667","6500100","板橋區"
"220090","288-VK","2018/04/14 20:09:25","新北市板橋區幸福路32巷51號","121.460485","25.0219466666667","6500100","板橋區"
"220061","293-UM","2018/04/14 20:09:38","新北市板橋區縣民大道二段200巷3號","121.469826666667","25.0171966666667","6500100","板橋區"
"242009","281-VK","2018/04/14 20:09:30","新北市新莊區昌盛街35巷4弄2號","121.454115","25.0505166666667","6500500","新莊區"
"220092","307-R5","2018/04/14 20:09:38","新北市板橋區文化路一段81巷2號","121.460895","25.0141166666667","6500100","板橋區"
"220098","317-R6","2018/04/14 20:09:39","新北市板橋區新海路72巷5弄37號","121.461251666667","25.0231916666667","6500100","板橋區"
"242031","280-VK","2018/04/14 20:09:28","新北市新莊區忠孝街29巷35號","121.443595","25.03689","6500500","新莊區"
"220088","491-VK","2018/04/14 20:09:39","新北市板橋區仁化街186號","121.478645","25.0340783333333","6500100","板橋區"
"220084","568-UM","2018/04/14 20:09:24","新北市板橋區板林路190號","121.424483333333","24.9883183333333","6500100","板橋區"
"220093","689-BX","2018/04/14 20:09:26","新北市板橋區長江路一段156巷1號","121.461281666667","25.030165","6500100","板橋區"
"220102","KEA-2699","2018/04/14 20:09:26","新北市板橋區懷德街76巷6號","121.477706666667","25.0318466666667","6500100","板橋區"
"220055","827-TW","2018/04/14 20:09:38","新北市板橋區仁愛路75號","121.460983333333","24.99971","6500100","板橋區"
"220067","830-TW","2018/04/14 20:09:29","新北市板橋區中山路一段206巷34號","121.471085","25.0126716666667","6500100","板橋區"
"220089","833-TW","2018/04/14 20:09:42","新北市板橋區互助街65號","121.46057","25.0261716666667","6500100","板橋區"
"220074","895-R6","2018/04/14 20:09:42","新北市板橋區府後街1巷2-2號","121.459105","25.0106666666667","6500100","板橋區"
"220097","AAC-210","2018/04/14 20:09:24","新北市板橋區光正街18巷11號","121.462735","25.0176133333333","6500100","板橋區"
