"lineid","car","time","location","longitude","latitude","cityid","cityname"
"234030","847-RS","2018/04/14 20:49:34","新北市永和區民族街81巷3號","121.51882","24.99661","6500400","永和區"
"249004","303-UY","2018/04/14 20:49:33","新北市八里區中山路一段126-1號","121.418331666667","25.1596233333333","6502300","八里區"
"234074","AAC-211","2018/04/14 20:49:31","新北市永和區環河東路二段10號","121.522246666667","25.0131616666667","6500400","永和區"
"222003","436-BY","2018/04/14 20:49:26","新北市深坑區阿柔洋40號","121.610306666667","24.99849","6501800","深坑區"
"222002","659-BX","2018/04/14 20:49:33","新北市深坑區北深路三段93巷73號","121.603373333333","25.001205","6501800","深坑區"
"231059","046-UY","2018/04/14 20:49:31","新北市新店區僑愛一路1號","121.499911666667","24.944995","6500600","新店區"
"231040","047-UY","2018/04/14 20:49:42","新北市新店區中正路257號","121.53881","24.9735133333333","6500600","新店區"
"231044","106-UY","2018/04/14 20:49:40","新北市新店區中正路423號","121.534155","24.977955","6500600","新店區"
"231048","187-VK","2018/04/14 20:49:30","新北市新店區寶元路二段1巷2號","121.550718333333","24.9840683333333","6500600","新店區"
"231054","KEA-2219","2018/04/14 20:49:40","新北市新店區中正路75巷63號","121.543201666667","24.9692366666667","6500600","新店區"
"231057","256-BX","2018/04/14 20:49:33","新北市新店區新烏路一段109號","121.545711666667","24.940275","6500600","新店區"
"231051","278-BY","2018/04/14 20:49:36","新北市新店區民生路156巷81號","121.527391666667","24.981925","6500600","新店區"
"231050","AAD-862","2018/04/14 20:49:43","新北市新店區三民路20巷3號","121.537493333333","24.9707533333333","6500600","新店區"
"231058","3713-VJ","2018/04/14 20:49:40","新北市新店區中央路133巷15弄29號","121.531711666667","24.9746983333333","6500600","新店區"
"231066","4716-K9","2018/04/14 20:49:38","新北市新店區安民街65巷15-2號","121.515521666667","24.9667266666667","6500600","新店區"
"231056","4715-K9","2018/04/14 20:49:24","新北市新店區安民街133巷26號","121.515433333333","24.9695716666667","6500600","新店區"
"231065","512-UM","2018/04/14 20:49:27","新北市新店區安祥路69巷19號","121.481868333333","24.96133","6500600","新店區"
"231049","513-UM","2018/04/14 20:49:38","新北市新店區永業路81巷1弄9號","121.530065","24.9499416666667","6500600","新店區"
"231045","617-UM","2018/04/14 20:49:31","新北市新店區北新路一段91號","121.538766666667","24.961755","6500600","新店區"
"231061","618-UM","2018/04/14 20:49:40","新北市新店區新和街99號","121.521293333333","24.9866633333333","6500600","新店區"
"231063","641-BX","2018/04/14 20:49:02","新北市新店區如意街7-4號","121.495111666667","24.948585","6500600","新店區"
"231042","645-TV","2018/04/14 20:49:31","新北市新店區寶高路120巷1號","121.554573333333","24.9760616666667","6500600","新店區"
"231068","718-UY","2018/04/14 20:49:33","新北市新店區寶元路二段14巷1號","121.54584","24.9825016666667","6500600","新店區"
"231064","719-UM","2018/04/14 20:49:38","新北市新店區安民街381號","121.516276666667","24.9763483333333","6500600","新店區"
"231052","719-UY","2018/04/14 20:49:31","新北市新店區新烏路二段7號","121.544148333333","24.929475","6500600","新店區"
"231062","720-UM","2018/04/14 20:49:28","新北市新店區和成街17巷2號","121.487663333333","24.946635","6500600","新店區"
"231060","897-TW","2018/04/14 20:49:26","新北市新店區安康路三段800號","121.47102","24.9399616666667","6500600","新店區"
"231043","899-TW","2018/04/14 20:49:39","新北市新店區建國路51號","121.54056","24.97577","6500600","新店區"
"241011","013-R5","2018/04/14 20:49:37","新北市三重區龍濱路128號","121.501758333333","25.0716866666667","6500200","三重區"
"241028","022-UY","2018/04/14 20:49:26","新北市三重區中正南路41巷1號","121.493891666667","25.0598533333333","6500200","三重區"
"241008","059-VK","2018/04/14 20:49:41","新北市三重區永福街72巷11號","121.479373333333","25.076745","6500200","三重區"
"241009","060-VK","2018/04/14 20:49:33","新北市三重區三和路四段205號","121.481978333333","25.07928","6500200","三重區"
"241031","061-VK","2018/04/14 20:49:41","新北市三重區重陽路一段113巷3號","121.487505","25.0597883333333","6500200","三重區"
"241015","062-VK","2018/04/14 20:49:39","新北市三重區自強路一段8號","121.49887","25.06826","6500200","三重區"
"241017","063-VK","2018/04/14 20:49:29","新北市三重區民生街24號","121.491925","25.06728","6500200","三重區"
"241024","065-VK","2018/04/14 20:49:34","新北市三重區國道路一段58巷15號","121.481428333333","25.07199","6500200","三重區"
"241026","066-VK","2018/04/14 20:49:25","新北市三重區文化南路7號","121.499908333333","25.0623233333333","6500200","三重區"
"241002","090-VK","2018/04/14 20:49:25","新北市三重區仁義街157巷62號","121.498333333333","25.0818116666667","6500200","三重區"
"241003","091-VK","2018/04/14 20:49:41","新北市三重區五華街141巷58號","121.49331","25.086595","6500200","三重區"
"241005","262-UM","2018/04/14 20:49:36","新北市三重區五華街141巷27號","121.492125","25.0854816666667","6500200","三重區"
"241016","265-UM","2018/04/14 20:49:38","新北市三重區自強路一段232號","121.493398333333","25.0668966666667","6500200","三重區"
"241032","269-UM","2018/04/14 20:49:30","新北市三重區興華街73號","121.484911666667","25.0601483333333","6500200","三重區"
"241013","270-UM","2018/04/14 20:49:43","新北市三重區仁賢街12-1號","121.495668333333","25.0749033333333","6500200","三重區"
"241025","271-UM","2018/04/14 20:49:32","新北市三重區貴陽街18-1號","121.484148333333","25.0618783333333","6500200","三重區"
"241007","398-BY","2018/04/14 20:49:27","新北市三重區慈愛街10號","121.484548333333","25.07839","6500200","三重區"
"241035","KEA-2210","2018/04/14 20:49:45","新北市三重區文化北路232-1號","121.497511666667","25.0693683333333","6500200","三重區"
"241004","475-VK","2018/04/14 20:49:29","新北市三重區分子尾街36-1號","121.48946","25.0810183333333","6500200","三重區"
"241020","478-VK","2018/04/14 20:49:41","新北市三重區忠孝路一段115號","121.488966666667","25.0719","6500200","三重區"
"241030","480-VK","2018/04/14 20:49:23","新北市三重區環河南路221巷10號","121.491861666667","25.05224","6500200","三重區"
"241014","543-UM","2018/04/14 20:49:28","新北市三重區長壽街120巷60號","121.501705","25.07033","6500200","三重區"
"241023","545-UM","2018/04/14 20:49:25","新北市三重區忠孝路三段99巷4號","121.480145","25.0642083333333","6500200","三重區"
"241001","547-UM","2018/04/14 20:49:40","新北市三重區自強路三段80號","121.487113333333","25.0743683333333","6500200","三重區"
"241019","KEA-2593","2018/04/14 20:49:26","新北市三重區三張街12號","121.49211","25.0712966666667","6500200","三重區"
"241006","AAD-863","2018/04/14 20:49:44","新北市三重區車路頭街137號","121.484185","25.0761766666667","6500200","三重區"
"241022","887-TS","2018/04/14 20:49:41","新北市三重區中正北路20巷12號","121.487923333333","25.062445","6500200","三重區"
"241012","941-UM","2018/04/14 20:49:35","新北市三重區仁信街29號","121.501235","25.0755416666667","6500200","三重區"
"241029","942-UM","2018/04/14 20:49:25","新北市三重區重安街14號","121.490271666667","25.058165","6500200","三重區"
"241033","AAC-255","2018/04/14 20:49:26","新北市三重區光復路二段1號","121.472208333333","25.0532816666667","6500200","三重區"
"247024","893-R6","2018/04/14 20:49:35","新北市蘆洲區長樂路136號","121.462171666667","25.0901433333333","6501400","蘆洲區"
"247014","546-UM","2018/04/14 20:49:32","新北市蘆洲區三民路97號","121.473558333333","25.0852066666667","6501400","蘆洲區"
"247022","500-BY","2018/04/14 20:49:45","新北市蘆洲區三民路120號","121.471343333333","25.087235","6501400","蘆洲區"
"247010","341-TH","2018/04/14 20:49:39","新北市蘆洲區鷺江街93號","121.476843333333","25.0838633333333","6501400","蘆洲區"
"247012","339-TH","2018/04/14 20:49:36","新北市蘆洲區集賢路224巷27號","121.481711666667","25.0870666666667","6501400","蘆洲區"
"247004","337-TH","2018/04/14 20:49:44","新北市蘆洲區長安街103號","121.461466666667","25.0808466666667","6501400","蘆洲區"
"247006","336-TH","2018/04/14 20:49:24","新北市蘆洲區九芎街156號","121.464345","25.078145","6501400","蘆洲區"
"247008","056-VK","2018/04/14 20:49:29","新北市蘆洲區集賢路269巷16號","121.48188","25.083325","6501400","蘆洲區"
"247016","007-UY","2018/04/14 20:49:25","新北市蘆洲區中山二路169號","121.47113","25.0811283333333","6501400","蘆洲區"
"247002","002-UY","2018/04/14 20:49:30","新北市蘆洲區長安街230號","121.458081666667","25.0853216666667","6501400","蘆洲區"
"247020","001-UY","2018/04/14 20:49:37","新北市蘆洲區仁愛街75號","121.471451666667","25.0938083333333","6501400","蘆洲區"
"222001","KEA-2212","2018/04/14 20:49:24","新北市深坑區北深路三段133號","121.60399","25.00255","6501800","深坑區"
"251009","008-UM","2018/04/14 20:49:28","新北市淡水區民族路112巷72號","121.461658333333","25.133925","6501000","淡水區"
"251013","179-VK","2018/04/14 20:49:39","新北市淡水區埤島45號","121.45486","25.1982766666667","6501000","淡水區"
"251014","180-VK","2018/04/14 20:49:43","新北市淡水區公埔子32-8號","121.461663333333","25.232365","6501000","淡水區"
"251010","413-VK","2018/04/14 20:49:25","新北市淡水區沙崙路145-1號","121.423503333333","25.1830883333333","6501000","淡水區"
"251012","441-VK","2018/04/14 20:49:36","新北市淡水區興仁路162號","121.45156","25.2209683333333","6501000","淡水區"
"251016","442-VK","2018/04/14 20:49:35","新北市淡水區淡金路四段476號","121.45188","25.2237983333333","6501000","淡水區"
"251001","559-UM","2018/04/14 20:49:30","新北市淡水區淡金路218號","121.460596666667","25.1671516666667","6501000","淡水區"
"251007","577-R6","2018/04/14 20:49:32","新北市淡水區學府路102巷36號","121.452223333333","25.17163","6501000","淡水區"
"251011","650-BX","2018/04/14 20:49:28","新北市淡水區新民街一段13-1號","121.432978333333","25.1845083333333","6501000","淡水區"
"251002","672-BX","2018/04/14 20:49:25","新北市淡水區中正東路3號","121.445215","25.1687783333333","6501000","淡水區"
"251003","673-BX","2018/04/14 20:49:38","新北市淡水區中山北路一段207巷76號","121.441258333333","25.1795216666667","6501000","淡水區"
"252002","178-VK","2018/04/14 20:49:42","新北市三芝區淡金路二段93號","121.50408","25.2609283333333","6502100","三芝區"
"242034","AAC-296","2018/04/14 20:49:11","新北市新莊區中正路311號","121.448156666667","25.0350266666667","6500500","新莊區"
"242058","986-R7","2018/04/14 20:49:43","新北市新莊區八德街125號","121.424026666667","25.020575","6500500","新莊區"
"242053","751-BX","2018/04/14 20:49:39","新北市新莊區民安西路229巷5號","121.426563333333","25.0141966666667","6500500","新莊區"
"242029","705-TV","2018/04/14 20:49:34","新北市新莊區中華路一段180號","121.452576666667","25.042045","6500500","新莊區"
"242027","615-BX","2018/04/14 20:49:25","新北市新莊區環河路48-4號","121.436485","25.009065","6500500","新莊區"
"242042","566-BX","2018/04/14 20:49:27","新北市新莊區天祥街54巷2弄9號","121.4171","25.0288966666667","6500500","新莊區"
"242036","442-UM","2018/04/14 20:49:29","新北市新莊區建國二路1號","121.435083333333","25.0233883333333","6500500","新莊區"
"242051","441-UM","2018/04/14 20:49:40","新北市新莊區民安西路158號","121.4261","25.0163283333333","6500500","新莊區"
"242056","440-UM","2018/04/14 20:49:31","新北市新莊區瓊泰路63巷16號","121.442136666667","25.0287583333333","6500500","新莊區"
"242023","362-BY","2018/04/14 20:49:31","新北市新莊區環漢路三段1號","121.443151666667","25.0242266666667","6500500","新莊區"
"242061","353-BY","2018/04/14 20:49:31","新北市新莊區新樹路260號","121.432421666667","25.0150466666667","6500500","新莊區"
"242039","133-UY","2018/04/14 20:49:25","新北市新莊區瓊林路59-38號","121.441225","25.0235383333333","6500500","新莊區"
"242048","172-VK","2018/04/14 20:49:35","新北市新莊區瓊林路59-17號","121.442265","25.0248383333333","6500500","新莊區"
"242002","349-TH","2018/04/14 20:49:34","新北市新莊區中港路五守新村37巷3號","121.45446","25.0387916666667","6500500","新莊區"
"221036","130-UY","2018/04/14 20:49:44","新北市汐止區大同路二段312巷2號","121.655681666667","25.0664266666667","6501100","汐止區"
"221027","281-BY","2018/04/14 20:49:40","新北市汐止區大同路二段362號","121.657391666667","25.0671616666667","6501100","汐止區"
"221029","298-VK","2018/04/14 20:49:09","新北市汐止區樟樹二路355-1號","121.644473333333","25.0746783333333","6501100","汐止區"
"221021","299-VK","2018/04/14 20:49:39","新北市汐止區新台五路一段208-22號","121.655635","25.062785","6501100","汐止區"
"221035","622-UM","2018/04/14 20:49:43","新北市汐止區汐萬路一段256巷1號","121.651861666667","25.0749183333333","6501100","汐止區"
"221038","646-BX","2018/04/14 20:49:09","新北市汐止區汐萬路一段256巷3號","121.652056666667","25.074785","6501100","汐止區"
"221033","647-BX","2018/04/14 20:49:32","新北市汐止區合順街18巷8弄5號","121.620296666667","25.0419116666667","6501100","汐止區"
"221002","707-TV","2018/04/14 20:49:33","新北市汐止區福德二路169號","121.630821666667","25.06512","6501100","汐止區"
"221018","753-BX","2018/04/14 20:49:34","新北市汐止區汐萬路一段273號","121.650441666667","25.0745","6501100","汐止區"
"220070","282-UM","2018/04/14 20:49:41","新北市八里區中山路三段409號","121.368623333333","25.1347666666667","6500100","板橋區"
"242009","281-VK","2018/04/14 20:49:26","新北市新莊區幸福路32號","121.458566666667","25.0494516666667","6500500","新莊區"
"242031","280-VK","2018/04/14 20:49:44","新北市新莊區中正路583號","121.434416666667","25.03254","6500500","新莊區"
