"lineid","car","time","location","longitude","latitude","cityid","cityname"
"243003","297-R6","2018/04/14 21:19:03","新北市泰山區黎明路31號","121.421761666667","25.0606683333333","6501600","泰山區"
"231059","046-UY","2018/04/14 21:19:31","新北市新店區薏仁坑路自強巷6號","121.496685","24.9585666666667","6500600","新店區"
"231040","047-UY","2018/04/14 21:19:42","新北市新店區北新路一段201號","121.540413333333","24.9649016666667","6500600","新店區"
"231048","187-VK","2018/04/14 21:19:30","新北市新店區溪園路401號","121.523755","24.9781066666667","6500600","新店區"
"231054","KEA-2219","2018/04/14 21:19:40","新北市新店區環河路8號","121.53811","24.9616766666667","6500600","新店區"
"231051","278-BY","2018/04/14 21:19:36","新北市新店區中正路700巷322-10號","121.534426666667","24.993385","6500600","新店區"
"231050","AAD-862","2018/04/14 21:19:27","新北市新店區中正路195號","121.540495","24.97246","6500600","新店區"
"231065","512-UM","2018/04/14 21:19:27","新北市新店區薏仁坑路自強巷6號","121.496961666667","24.9587266666667","6500600","新店區"
"231063","641-BX","2018/04/14 21:19:42","新北市新店區玫瑰路57巷41號","121.497258333333","24.9464333333333","6500600","新店區"
"231060","897-TW","2018/04/14 21:19:26","新北市新店區薏仁坑路自強巷6號","121.49667","24.9584316666667","6500600","新店區"
"241011","013-R5","2018/04/14 21:19:37","新北市三重區龍濱路120-6號","121.501796666667","25.0713233333333","6500200","三重區"
"241028","022-UY","2018/04/14 21:19:26","新北市三重區正義南路169號","121.498965","25.0574666666667","6500200","三重區"
"241008","059-VK","2018/04/14 21:19:41","新北市三重區自強路一段62號","121.497286666667","25.0667466666667","6500200","三重區"
"241031","061-VK","2018/04/14 21:19:41","新北市三重區五谷王南街46巷37號","121.475743333333","25.0455116666667","6500200","三重區"
"241017","063-VK","2018/04/14 21:19:29","新北市三重區中正北路25巷2號","121.493245","25.0626866666667","6500200","三重區"
"241024","065-VK","2018/04/14 21:19:34","新北市三重區中正北路145巷14號","121.484138333333","25.06777","6500200","三重區"
"241026","066-VK","2018/04/14 21:19:45","新北市三重區大同南路232號","121.496831666667","25.056175","6500200","三重區"
"241002","090-VK","2018/04/14 21:19:25","新北市三重區自強路五段45號","121.494213333333","25.0816283333333","6500200","三重區"
"241003","091-VK","2018/04/14 21:19:41","新北市三重區仁義街319號","121.495393333333","25.0842933333333","6500200","三重區"
"241005","262-UM","2018/04/14 21:19:36","新北市三重區仁華街118巷50號","121.485545","25.0841166666667","6500200","三重區"
"241016","265-UM","2018/04/14 21:19:38","新北市三重區自強路一段95號","121.495836666667","25.0663983333333","6500200","三重區"
"241032","269-UM","2018/04/14 21:19:30","新北市三重區中興北街182號","121.468971666667","25.0578216666667","6500200","三重區"
"241013","270-UM","2018/04/14 21:19:43","新北市三重區仁愛街66號","121.49584","25.0731433333333","6500200","三重區"
"241025","271-UM","2018/04/14 21:19:32","新北市三重區忠孝路三段40巷16弄10號","121.482323333333","25.0668783333333","6500200","三重區"
"241007","398-BY","2018/04/14 21:19:27","新北市三重區忠孝路一段70號","121.489723333333","25.07207","6500200","三重區"
"241004","475-VK","2018/04/14 21:19:29","新北市三重區仁愛街455號","121.489945","25.08173","6500200","三重區"
"241030","480-VK","2018/04/14 21:19:43","新北市三重區五谷王北街161-1號","121.477436666667","25.0546583333333","6500200","三重區"
"241014","543-UM","2018/04/14 21:19:28","新北市三重區萬全街9號","121.499313333333","25.06967","6500200","三重區"
"241023","545-UM","2018/04/14 21:19:25","新北市三重區中正北路176巷16號","121.48273","25.06591","6500200","三重區"
"241001","547-UM","2018/04/14 21:19:40","新北市三重區仁愛街351號","121.492026666667","25.0797533333333","6500200","三重區"
"241019","KEA-2593","2018/04/14 21:19:28","新北市三重區重陽路三段7-3號","121.489076666667","25.0666183333333","6500200","三重區"
"241006","AAD-863","2018/04/14 21:19:43","新北市三重區重陽路二段67號","121.487711666667","25.063805","6500200","三重區"
"241033","AAC-255","2018/04/14 21:19:26","新北市三重區中興北街227號","121.469288333333","25.058675","6500200","三重區"
"247024","893-R6","2018/04/14 21:19:35","新北市蘆洲區光明路18號","121.461156666667","25.086885","6501400","蘆洲區"
"247014","546-UM","2018/04/14 21:19:32","新北市蘆洲區保和街50-6號","121.46984","25.0863483333333","6501400","蘆洲區"
"247022","500-BY","2018/04/14 21:19:35","新北市蘆洲區三民路241-12號","121.468633333333","25.0888583333333","6501400","蘆洲區"
"247010","341-TH","2018/04/14 21:19:39","新北市蘆洲區鷺江街16-2號","121.478855","25.0824966666667","6501400","蘆洲區"
"247012","339-TH","2018/04/14 21:19:36","新北市蘆洲區民族路236巷35號","121.480421666667","25.0887033333333","6501400","蘆洲區"
"247004","337-TH","2018/04/14 21:19:24","新北市蘆洲區環堤大道2-1號","121.456788333333","25.0826416666667","6501400","蘆洲區"
"247006","336-TH","2018/04/14 21:19:44","新北市蘆洲區長安街66號","121.46275","25.08004","6501400","蘆洲區"
"247018","057-VK","2018/04/14 21:19:37","新北市蘆洲區復興路111-6號","121.476486666667","25.088325","6501400","蘆洲區"
"247008","056-VK","2018/04/14 21:19:44","新北市蘆洲區信義路73巷13號","121.475885","25.0806583333333","6501400","蘆洲區"
"247016","007-UY","2018/04/14 21:19:45","新北市蘆洲區光復路54號","121.463896666667","25.0852216666667","6501400","蘆洲區"
"247002","002-UY","2018/04/14 21:19:30","新北市蘆洲區永樂街49號","121.456795","25.0884983333333","6501400","蘆洲區"
"247020","001-UY","2018/04/14 21:19:37","新北市蘆洲區民族路426巷66號","121.472708333333","25.0941583333333","6501400","蘆洲區"
"251009","008-UM","2018/04/14 21:19:28","新北市淡水區民族路112巷1號","121.462613333333","25.1352016666667","6501000","淡水區"
"251004","009-UM","2018/04/14 21:19:35","新北市淡水區民族路33號","121.462268333333","25.13577","6501000","淡水區"
"251005","010-UM","2018/04/14 21:19:41","新北市淡水區仁愛街15-4號","121.446488333333","25.1705133333333","6501000","淡水區"
"251013","179-VK","2018/04/14 21:19:39","新北市淡水區行忠路328號","121.460515","25.1996366666667","6501000","淡水區"
"251014","180-VK","2018/04/14 21:19:43","新北市淡水區六塊厝2-1號","121.450145","25.2404916666667","6501000","淡水區"
"251008","181-VK","2018/04/14 21:19:30","新北市淡水區水源街二段225號","121.460386666667","25.1764016666667","6501000","淡水區"
"251015","182-VK","2018/04/14 21:19:36","新北市淡水區淡金路四段542巷83弄20號","121.456455","25.2266766666667","6501000","淡水區"
"251010","413-VK","2018/04/14 21:19:25","新北市淡水區中正路一段156巷51號","121.421766666667","25.1809366666667","6501000","淡水區"
"251012","441-VK","2018/04/14 21:19:36","新北市淡水區淡金路五段35巷46號","121.452468333333","25.2347666666667","6501000","淡水區"
"251016","442-VK","2018/04/14 21:19:35","新北市淡水區前洲子28號","121.441026666667","25.2192583333333","6501000","淡水區"
"251001","559-UM","2018/04/14 21:19:30","新北市淡水區中山北路二段186號","121.444308333333","25.1852816666667","6501000","淡水區"
"251006","561-UM","2018/04/14 21:19:41","新北市淡水區中正路一段1號","121.427271666667","25.1758616666667","6501000","淡水區"
"251011","650-BX","2018/04/14 21:19:28","新北市淡水區新民街120巷29號","121.438978333333","25.1788","6501000","淡水區"
"251002","672-BX","2018/04/14 21:16:01","新北市淡水區英專路151號","121.448366666667","25.174875","6501000","淡水區"
"251003","673-BX","2018/04/14 21:19:34","新北市淡水區新春街85巷35號","121.438501666667","25.1835033333333","6501000","淡水區"
"242027","615-BX","2018/04/14 21:19:45","新北市板橋區金門街369巷83-1號","121.430785","24.9814866666667","6500500","新莊區"
"220070","282-UM","2018/04/14 21:19:41","新北市五股區新五路二段97號","121.437046666667","25.0750966666667","6500100","板橋區"
