"lineid","car","time","location","longitude","latitude","cityid","cityname"
"243003","297-R6","2018/04/14 21:19:03","新北市泰山區黎明路31號","121.421761666667","25.0606683333333","6501600","泰山區"
"231048","187-VK","2018/04/14 21:29:30","新北市新店區薏仁坑路自強巷6號","121.496616666667","24.9584283333333","6500600","新店區"
"231051","278-BY","2018/04/14 21:29:36","新北市新店區薏仁坑路自強巷6號","121.496733333333","24.9583966666667","6500600","新店區"
"231063","641-BX","2018/04/14 21:29:42","新北市新店區如意街102號","121.496308333333","24.946965","6500600","新店區"
"231060","897-TW","2018/04/14 21:29:46","新北市新店區薏仁坑路自強巷6號","121.496463333333","24.9583566666667","6500600","新店區"
"241017","063-VK","2018/04/14 21:29:29","新北市三重區中正北路25巷2號","121.493238333333","25.0627183333333","6500200","三重區"
"241024","065-VK","2018/04/14 21:29:34","新北市三重區中正北路131號","121.483003333333","25.0671233333333","6500200","三重區"
"241003","091-VK","2018/04/14 21:29:41","新北市三重區仁義街347號","121.494803333333","25.0850766666667","6500200","三重區"
"241005","262-UM","2018/04/14 21:29:36","新北市三重區仁愛街687號","121.483415","25.0811033333333","6500200","三重區"
"241016","265-UM","2018/04/14 21:29:38","新北市三重區信義西街41號","121.495308333333","25.0639716666667","6500200","三重區"
"241007","398-BY","2018/04/14 21:29:27","新北市三重區正義北路120號","121.496745","25.0654283333333","6500200","三重區"
"241006","AAD-863","2018/04/14 21:29:44","新北市五股區成洲一路23號","121.45005","25.09596","6500200","三重區"
"247022","500-BY","2018/04/14 21:29:35","新北市蘆洲區長安街313巷46號","121.455293333333","25.08607","6501400","蘆洲區"
"247010","341-TH","2018/04/14 21:29:39","新北市蘆洲區中山二路46巷15號","121.47451","25.082285","6501400","蘆洲區"
"251009","008-UM","2018/04/14 21:29:28","新北市淡水區民族路33巷16-3號","121.463391666667","25.1359766666667","6501000","淡水區"
"251004","009-UM","2018/04/14 21:29:36","新北市淡水區民族路3號","121.460168333333","25.1372783333333","6501000","淡水區"
"251005","010-UM","2018/04/14 21:29:41","新北市淡水區水源街一段52-1號","121.44409","25.1722216666667","6501000","淡水區"
"251013","179-VK","2018/04/14 21:29:39","新北市淡水區埤島39-2號","121.453213333333","25.1971683333333","6501000","淡水區"
"251014","180-VK","2018/04/14 21:29:43","新北市淡水區六塊厝2-1號","121.450145","25.2404866666667","6501000","淡水區"
"251008","181-VK","2018/04/14 21:29:40","新北市淡水區水源街二段126號","121.453231666667","25.1747333333333","6501000","淡水區"
"251015","182-VK","2018/04/14 21:29:36","新北市淡水區淡金路四段542巷83弄13號","121.456438333333","25.2266816666667","6501000","淡水區"
"251010","413-VK","2018/04/14 21:29:25","新北市淡水區沙崙路25巷21號","121.420566666667","25.1825983333333","6501000","淡水區"
"251012","441-VK","2018/04/14 21:29:36","新北市淡水區淡金路五段35巷46號","121.452465","25.2347583333333","6501000","淡水區"
"251016","442-VK","2018/04/14 21:29:35","新北市淡水區前洲子28號","121.441015","25.2192866666667","6501000","淡水區"
"251001","559-UM","2018/04/14 21:29:30","新北市淡水區濱海路一段221號","121.437955","25.1897766666667","6501000","淡水區"
"251006","561-UM","2018/04/14 21:29:41","新北市淡水區公明街71號","121.44387","25.1684783333333","6501000","淡水區"
"251011","650-BX","2018/04/14 21:29:28","新北市淡水區新民街180-8號","121.436573333333","25.1790716666667","6501000","淡水區"
"251002","672-BX","2018/04/14 21:16:01","新北市淡水區英專路151號","121.448366666667","25.174875","6501000","淡水區"
"251003","673-BX","2018/04/14 21:29:34","新北市淡水區崁頂15-5號","121.438975","25.1858766666667","6501000","淡水區"
"242027","615-BX","2018/04/14 21:27:25","新北市新莊區瓊林南路61-87號","121.439023333333","25.01742","6500500","新莊區"
"220070","282-UM","2018/04/14 21:29:41","新北市板橋區大觀路二段7巷109-3號","121.452001666667","25.0030583333333","6500100","板橋區"
