"lineid","car","time","location","longitude","latitude","cityid","cityname"
"235010","733-UM","2018/04/14 21:40:21","新北市中和區員山路36巷13號","121.484198333333","24.99082","6500300","中和區"
"247010","341-TH","2018/04/14 22:09:19","新北市八里區中華路三段62號","121.394161666667","25.140785","6501400","蘆洲區"
"251004","009-UM","2018/04/14 22:09:35","新北市淡水區民族路33號","121.46228","25.1358766666667","6501000","淡水區"
"251008","181-VK","2018/04/14 22:09:30","新北市淡水區學府路104號","121.449826666667","25.1718433333333","6501000","淡水區"
"251010","413-VK","2018/04/14 22:09:45","新北市淡水區沙崙路200號","121.424601666667","25.18387","6501000","淡水區"
"251011","650-BX","2018/04/14 22:09:28","新北市淡水區水碓街7號","121.443196666667","25.1771683333333","6501000","淡水區"
