"lineid","car","time","location","longitude","latitude","cityid","cityname"
"248005","653-BX","2018/08/06 08:39:42","新北市五股區明德路12巷3號","121.433278333333","25.0717616666667","6501500","五股區"
"232001","290-BY","2018/08/06 08:39:39","新北市坪林區虎寮潭1號","121.740715","24.9517166666667","6502000","坪林區"
"232012","291-BY","2018/08/06 08:39:49","新北市坪林區金瓜寮24-2號","121.680191666667","24.9079833333333","6502000","坪林區"
"232017","705-BZ","2018/08/06 08:39:39","新北市坪林區中心崙5-2號","121.781715","24.9479866666667","6502000","坪林區"
"232005","758-BX","2018/08/06 08:39:38","新北市坪林區鶯子瀨11-3號","121.709718333333","24.914675","6502000","坪林區"
"244006","080-UY","2018/08/06 08:39:35","新北市林口區佳林路1號","121.387228333333","25.08248","6501700","林口區"
"244001","248-BX","2018/08/06 08:39:43","新北市林口區嘉寶里15鄰43-2號","121.341933333333","25.10828","6501700","林口區"
"244018","403-UM","2018/08/06 08:39:50","新北市林口區文化一路一段89-5號","121.371883333333","25.0704166666667","6501700","林口區"
"244012","KEA-2802","2018/08/06 08:39:39","新北市林口區中山路136-1號","121.391778333333","25.0787116666667","6501700","林口區"
"244008","410-SL","2018/08/06 08:39:32","新北市林口區林口路297巷11號","121.385531666667","25.0844883333333","6501700","林口區"
"244022","483-VK","2018/08/06 08:39:48","新北市林口區興林路150號","121.388458333333","25.0715366666667","6501700","林口區"
"244016","485-VK","2018/08/06 08:39:51","新北市林口區文化二路一段339號","121.37033","25.0731566666667","6501700","林口區"
"244010","657-BX","2018/08/06 08:39:46","新北市林口區中正路79號","121.39483","25.0773816666667","6501700","林口區"
"244024","837-TS","2018/08/06 08:39:31","新北市林口區忠孝三路一段118號","121.35911","25.07167","6501700","林口區"
"244020","838-TS","2018/08/06 08:39:50","新北市林口區自強一街70號","121.399926666667","25.077005","6501700","林口區"
"222005","289-BY","2018/08/06 08:39:47","新北市深坑區深南路158號","121.625403333333","25.0144283333333","6501800","深坑區"
"231007","189-VK","2018/08/06 08:39:32","新北市新店區新潭路三段119號","121.509275","24.9109266666667","6500600","新店區"
"231008","192-VK","2018/08/06 08:39:45","新北市新店區新烏路三段165巷42號","121.553606666667","24.9009916666667","6500600","新店區"
"235001","611-BX","2018/08/06 08:39:40","新北市中和區民安街42巷36號","121.478996666667","25.0012466666667","6500300","中和區"
"226005","5620-A6","2018/08/06 08:39:40","新北市平溪區南山里南山坪118-1號","121.78317","25.0441333333333","6502400","平溪區"
"226001","7418-A5","2018/08/06 08:39:47","新北市平溪區東勢里火燒寮36-1號","121.767566666667","24.987375","6502400","平溪區"
"226003","AGD-0702","2018/08/06 08:39:29","新北市平溪區新寮里新寮路1-1號","121.7912","25.0585716666667","6502400","平溪區"
"223006","022-BY","2018/08/06 08:39:44","新北市深坑區昇高坑路50號","121.62875","24.9978516666667","6501900","石碇區"
"223002","KEA-2673","2018/08/06 08:39:41","新北市石碇區碇坪路一段38號","121.65426","24.9965716666667","6501900","石碇區"
"223003","205-TH","2018/08/06 08:39:39","新北市石碇區北宜路六段直潭巷1號","121.658916666667","24.9372216666667","6501900","石碇區"
"223008","406-TH","2018/08/06 08:39:41","新北市石碇區十八重溪68-1號","121.673021666667","25.016715","6501900","石碇區"
"223001","592-UM","2018/08/06 08:39:33","新北市石碇區北宜路六段直潭巷1號","121.658781666667","24.9376416666667","6501900","石碇區"
"223004","660-BX","2018/08/06 08:39:29","新北市石碇區崩山26-1號","121.676781666667","24.9671483333333","6501900","石碇區"
"223005","677-TV","2018/08/06 08:39:37","新北市石碇區崩山24-2號","121.678643333333","24.9678166666667","6501900","石碇區"
"227005","282-VK","2018/08/06 08:11:26","新北市雙溪區三貂里政光路3-1號","121.850793333333","25.0629483333333","6502500","雙溪區"
"227005","030-BX","2018/08/06 08:39:47","新北市雙溪區外柑里三叉坑6號","121.825801666667","25.0126866666667","6502500","雙溪區"
"252006","073-UM","2018/08/06 08:39:45","新北市三芝區後厝里北勢子22-16號","121.473088333333","25.253315","6502100","三芝區"
"252004","249-BX","2018/08/06 08:39:38","新北市三芝區興華里楓子林38號","121.490781666667","25.2078266666667","6502100","三芝區"
"237001","159-UY","2018/08/06 08:39:38","新北市三峽區學成路286號","121.376791666667","24.9436966666667","6500900","三峽區"
"236007","165-UM","2018/08/06 08:39:52","新北市土城區石門路67-9號","121.458946666667","24.9589833333333","6501300","土城區"
"236001","KEA-2877","2018/08/06 08:39:35","新北市土城區中山路2號","121.411793333333","24.95972","6501300","土城區"
"236005","498-BY","2018/08/06 08:39:49","新北市土城區永和街2巷18號","121.434091666667","24.964525","6501300","土城區"
"242033","AAC-296","2018/08/06 08:39:51","新北市新莊區中正路346號","121.444198333333","25.0346083333333","6500500","新莊區"
"242057","986-R7","2018/08/06 08:39:45","新北市新莊區新北大道七段838號","121.413541666667","25.0239466666667","6500500","新莊區"
"242052","751-BX","2018/08/06 08:39:40","新北市新莊區西盛街429巷25號","121.428033333333","25.011535","6500500","新莊區"
"242024","705-TV","2018/08/06 08:39:43","新北市新莊區五權一路12巷21弄2號","121.457763333333","25.0644383333333","6500500","新莊區"
"242026","615-BX","2018/08/06 08:39:40","新北市新莊區幸福路763-5號","121.447576666667","25.04902","6500500","新莊區"
"242040","566-BX","2018/08/06 08:39:47","新北市新莊區天祥街121巷19號","121.414211666667","25.0289833333333","6500500","新莊區"
"242045","497-BY","2018/08/06 08:39:32","新北市新莊區福營路302號","121.422408333333","25.0274766666667","6500500","新莊區"
"242006","442-UM","2018/08/06 08:39:45","新北市新莊區思源路591號","121.459745","25.059655","6500500","新莊區"
"242049","441-UM","2018/08/06 08:39:41","新北市新莊區西盛街137號","121.42823","25.018495","6500500","新莊區"
"242055","440-UM","2018/08/06 08:39:44","新北市新莊區豐年街豐2巷17號","121.447288333333","25.0309016666667","6500500","新莊區"
"242035","415-TV","2018/08/06 08:39:37","新北市新莊區後港一路49巷3弄11號","121.425141666667","25.02674","6500500","新莊區"
"242043","400-BY","2018/08/06 08:39:48","新北市新莊區鳳山街56巷27號","121.413728333333","25.0264916666667","6500500","新莊區"
"242022","362-BY","2018/08/06 08:39:51","新北市新莊區化成路392號","121.465931666667","25.0503816666667","6500500","新莊區"
"242059","353-BY","2018/08/06 08:39:43","新北市新莊區後港一路36號","121.42562","25.02613","6500500","新莊區"
"242008","132-UY","2018/08/06 08:39:44","新北市新莊區昌平街71巷17號","121.453596666667","25.0535966666667","6500500","新莊區"
"242038","133-UY","2018/08/06 08:39:42","新北市新莊區民安西路38巷2號","121.427158333333","25.0210066666667","6500500","新莊區"
"242030","135-UY","2018/08/06 08:39:42","新北市新莊區新泰路255巷50號","121.444073333333","25.039605","6500500","新莊區"
"242047","172-VK","2018/08/06 08:39:40","新北市新莊區後港一路3號","121.424106666667","25.02631","6500500","新莊區"
"242010","173-VK","2018/08/06 08:37:09","新北市新莊區中港路546號","121.451608333333","25.0524433333333","6500500","新莊區"
"242016","175-VK","2018/08/06 08:39:48","新北市新莊區中港路373號","121.45175","25.0464983333333","6500500","新莊區"
"242003","176-VK","2018/08/06 08:39:51","新北市新莊區化成路11巷87號","121.462273333333","25.0434733333333","6500500","新莊區"
"242012","347-TH","2018/08/06 08:39:45","新北市新莊區中泰街38巷8號","121.450825","25.0473066666667","6500500","新莊區"
"242020","348-TH","2018/08/06 08:39:41","新北市新莊區新興街42號","121.450781666667","25.037275","6500500","新莊區"
"242001","349-TH","2018/08/06 08:39:52","新北市新莊區新莊路453號","121.449603333333","25.03321","6500500","新莊區"
"242018","350-TH","2018/08/06 08:39:47","新北市新莊區公園路93號","121.45473","25.0403583333333","6500500","新莊區"
"242014","281-VK","2018/08/06 08:39:46","新北市新莊區泰順街59號","121.447846666667","25.04307","6500500","新莊區"
