"lineid","car","time","location","longitude","latitude","cityid","cityname"
"248005","653-BX","2018/08/06 08:47:42","新北市五股區明德路12巷3號","121.433298333333","25.071775","6501500","五股區"
"232001","290-BY","2018/08/06 08:46:39","新北市坪林區粗石斛6-1號","121.750445","24.95273","6502000","坪林區"
"232012","291-BY","2018/08/06 08:47:49","新北市坪林區金瓜寮21號","121.679876666667","24.912705","6502000","坪林區"
"232017","705-BZ","2018/08/06 08:47:50","新北市坪林區鷺鶿岫4-1號","121.787146666667","24.9564216666667","6502000","坪林區"
"232005","758-BX","2018/08/06 08:47:38","新北市坪林區石9號","121.708861666667","24.908445","6502000","坪林區"
"244006","080-UY","2018/08/06 08:47:35","新北市林口區竹林路159號","121.388803333333","25.0799183333333","6501700","林口區"
"244018","403-UM","2018/08/06 08:47:46","新北市林口區忠孝路531巷19號","121.372238333333","25.0694916666667","6501700","林口區"
"244012","KEA-2802","2018/08/06 08:47:35","新北市林口區中山路160巷3號","121.390866666667","25.0792933333333","6501700","林口區"
"244008","410-SL","2018/08/06 08:47:32","新北市林口區佳林路56巷33號","121.385245","25.0809766666667","6501700","林口區"
"244022","483-VK","2018/08/06 08:47:42","新北市林口區東湖路52號","121.387896666667","25.074115","6501700","林口區"
"244016","485-VK","2018/08/06 08:47:31","新北市林口區忠孝路504巷21號","121.369658333333","25.0696466666667","6501700","林口區"
"244010","657-BX","2018/08/06 08:47:46","新北市林口區中正路74巷5弄4號","121.394541666667","25.078065","6501700","林口區"
"244024","837-TS","2018/08/06 08:47:51","新北市林口區南勢六街55號","121.355761666667","25.0714333333333","6501700","林口區"
"244020","838-TS","2018/08/06 08:47:48","新北市林口區自強三街11號","121.397556666667","25.0778816666667","6501700","林口區"
"222005","289-BY","2018/08/06 08:47:47","新北市深坑區風格街7號","121.625803333333","25.01664","6501800","深坑區"
"231007","189-VK","2018/08/06 08:46:12","新北市新店區新潭路三段275-1號","121.502156666667","24.902525","6500600","新店區"
"231008","192-VK","2018/08/06 08:47:45","新北市新店區新烏路三段225號","121.547401666667","24.8967283333333","6500600","新店區"
"235001","611-BX","2018/08/06 08:47:40","新北市中和區民享街86巷29號","121.472938333333","25.00046","6500300","中和區"
"226005","5620-A6","2018/08/06 08:47:40","新北市平溪區十分里十分街94號","121.776648333333","25.0424833333333","6502400","平溪區"
"226001","7418-A5","2018/08/06 08:43:27","新北市平溪區東勢里番仔坑16號","121.754726666667","24.9911683333333","6502400","平溪區"
"226003","AGD-0702","2018/08/06 08:47:29","新北市平溪區十分里十分街271-1號","121.778923333333","25.0449133333333","6502400","平溪區"
"223006","022-BY","2018/08/06 08:43:14","新北市深坑區昇高坑路51-1號","121.6304","24.9939016666667","6501900","石碇區"
"223002","KEA-2673","2018/08/06 08:47:41","新北市石碇區員潭子坑14號","121.64615","24.9900966666667","6501900","石碇區"
"223003","205-TH","2018/08/06 08:47:39","新北市石碇區北宜路六段柑腳巷2號","121.659538333333","24.9381766666667","6501900","石碇區"
"223008","406-TH","2018/08/06 08:47:41","新北市石碇區碇南路二段松柏崎巷51號","121.678616666667","25.025895","6501900","石碇區"
"223001","592-UM","2018/08/06 08:47:33","新北市石碇區北宜路六段柑腳巷2號","121.659641666667","24.9380366666667","6501900","石碇區"
"223004","660-BX","2018/08/06 08:47:49","新北市石碇區崩山47-5號","121.678596666667","24.969955","6501900","石碇區"
"223005","677-TV","2018/08/06 08:47:37","新北市石碇區崩山42-2號","121.680231666667","24.9649416666667","6501900","石碇區"
"227005","030-BX","2018/08/06 08:47:47","新北市雙溪區外柑里三叉坑11-3號","121.828191666667","25.0036266666667","6502500","雙溪區"
"252006","073-UM","2018/08/06 08:47:45","新北市三芝區錫板里海尾14-5號","121.477581666667","25.2590233333333","6502100","三芝區"
"252004","249-BX","2018/08/06 08:47:38","新北市三芝區興華里田心子16號","121.493385","25.2043216666667","6502100","三芝區"
"237001","159-UY","2018/08/06 08:47:38","新北市三峽區大觀路111號","121.374686666667","24.9453133333333","6500900","三峽區"
"236007","165-UM","2018/08/06 08:47:52","新北市土城區青雲路456號","121.459261666667","24.9691083333333","6501300","土城區"
"236001","KEA-2877","2018/08/06 08:47:35","新北市土城區中央路三段281巷9-2號","121.426593333333","24.9628883333333","6501300","土城區"
"236005","498-BY","2018/08/06 08:47:49","新北市土城區永和街51號","121.435643333333","24.9592166666667","6501300","土城區"
"242033","AAC-296","2018/08/06 08:47:51","新北市新莊區仁愛街54巷1號","121.444928333333","25.0372916666667","6500500","新莊區"
"242057","986-R7","2018/08/06 08:47:44","桃園市龜山區萬壽路一段113號","121.40888","25.0190066666667","6500500","新莊區"
"242052","751-BX","2018/08/06 08:47:35","新北市新莊區民安西路410巷19號","121.427516666667","25.0091216666667","6500500","新莊區"
"242024","705-TV","2018/08/06 08:47:43","新北市新莊區五工一路87巷5號","121.461151666667","25.0672083333333","6500500","新莊區"
"242026","615-BX","2018/08/06 08:47:40","新北市新莊區立信三街35巷17號","121.442981666667","25.050985","6500500","新莊區"
"242040","566-BX","2018/08/06 08:47:47","新北市新莊區天祥街121巷9號","121.414366666667","25.0293383333333","6500500","新莊區"
"242045","497-BY","2018/08/06 08:47:32","新北市新莊區中正路829巷5號","121.421008333333","25.02772","6500500","新莊區"
"242006","442-UM","2018/08/06 08:47:44","新北市新莊區福壽街202巷24號","121.459271666667","25.0536266666667","6500500","新莊區"
"242049","441-UM","2018/08/06 08:47:41","新北市新莊區民安西路172巷4弄2號","121.425583333333","25.0160566666667","6500500","新莊區"
"242055","440-UM","2018/08/06 08:47:44","新北市新莊區瓊林路51-3號","121.445221666667","25.027525","6500500","新莊區"
"242035","415-TV","2018/08/06 08:47:42","新北市新莊區建安街101巷2弄1號","121.426868333333","25.0238866666667","6500500","新莊區"
"242043","400-BY","2018/08/06 08:47:48","新北市新莊區龍安路71號","121.415805","25.0218983333333","6500500","新莊區"
"242022","362-BY","2018/08/06 08:47:32","新北市新莊區化成路608號","121.466175","25.0546833333333","6500500","新莊區"
"242059","353-BY","2018/08/06 08:47:43","新北市新莊區四維路97巷22號","121.42424","25.0233333333333","6500500","新莊區"
"242008","132-UY","2018/08/06 08:47:44","新北市新莊區昌盛街20號","121.453801666667","25.0498933333333","6500500","新莊區"
"242038","133-UY","2018/08/06 08:47:42","新北市新莊區民安路305號","121.429691666667","25.0225433333333","6500500","新莊區"
"242030","135-UY","2018/08/06 08:47:42","新北市新莊區新泰路225巷9號","121.445951666667","25.0391733333333","6500500","新莊區"
"242047","172-VK","2018/08/06 08:47:42","新北市新莊區建安街76巷3弄18號","121.425646666667","25.0248066666667","6500500","新莊區"
"242010","173-VK","2018/08/06 08:43:13","新北市新莊區中港路615巷19號","121.45027","25.0531266666667","6500500","新莊區"
"242016","175-VK","2018/08/06 08:47:45","新北市新莊區中港二街143號","121.448111666667","25.0455666666667","6500500","新莊區"
"242003","176-VK","2018/08/06 08:47:51","新北市新莊區復興路三段2號","121.460468333333","25.0442266666667","6500500","新莊區"
"242012","347-TH","2018/08/06 08:47:46","新北市新莊區中港路483巷14號","121.451498333333","25.0497033333333","6500500","新莊區"
"242020","348-TH","2018/08/06 08:47:50","新北市新莊區建中街60號","121.4481","25.0371666666667","6500500","新莊區"
"242001","349-TH","2018/08/06 08:47:32","新北市新莊區中正路136號","121.452578333333","25.0361916666667","6500500","新莊區"
"242018","350-TH","2018/08/06 08:47:47","新北市新莊區民生街17號","121.455865","25.04218","6500500","新莊區"
"242014","281-VK","2018/08/06 08:47:46","新北市新莊區新泰路349號","121.444708333333","25.042295","6500500","新莊區"
