"lineid","car","time","location","longitude","latitude","cityid","cityname"
"248005","653-BX","2018/08/06 09:29:42","新北市五股區登林路貿商巷3弄13號","121.429758333333","25.0698566666667","6501500","五股區"
"244006","080-UY","2018/08/06 09:29:35","新北市林口區後湖1-9號","121.387933333333","25.0968766666667","6501700","林口區"
"244018","403-UM","2018/08/06 09:29:46","新北市林口區忠孝路625號","121.379603333333","25.0690933333333","6501700","林口區"
"244012","KEA-2802","2018/08/06 09:29:35","新北市林口區麗園一街11巷3號","121.377361666667","25.0703783333333","6501700","林口區"
"244008","410-SL","2018/08/06 09:29:33","新北市林口區竹林路326巷80號","121.392743333333","25.0824716666667","6501700","林口區"
"244022","483-VK","2018/08/06 09:29:36","新北市林口區四維路245巷20號","121.382076666667","25.075065","6501700","林口區"
"244016","485-VK","2018/08/06 09:29:31","新北市林口區文化二路一段68巷18-2號","121.366133333333","25.06785","6501700","林口區"
"244010","657-BX","2018/08/06 09:29:46","新北市林口區仁愛路一段380號","121.388126666667","25.0767666666667","6501700","林口區"
"244024","837-TS","2018/08/06 09:29:31","新北市林口區文化三路一段555巷50號","121.369825","25.077005","6501700","林口區"
"222005","289-BY","2018/08/06 09:29:47","新北市深坑區土庫尖路37號","121.636125","25.01812","6501800","深坑區"
"231007","189-VK","2018/08/06 09:29:32","新北市新店區新潭路三段215巷25號","121.508166666667","24.9040333333333","6500600","新店區"
"231008","192-VK","2018/08/06 09:29:45","新北市新店區平廣路一段93號","121.529795","24.898175","6500600","新店區"
"235001","611-BX","2018/08/06 09:29:40","新北市中和區員山路437-3號","121.480731666667","25.0039966666667","6500300","中和區"
"223006","022-BY","2018/08/06 09:29:37","新北市石碇區碇坪路一段182號","121.666823333333","24.9855433333333","6501900","石碇區"
"223002","KEA-2673","2018/08/06 09:29:41","新北市石碇區小粗坑(潭邊里)9-2號","121.67888","24.9862266666667","6501900","石碇區"
"223003","205-TH","2018/08/06 09:29:39","新北市石碇區北宜路四段26號","121.623151666667","24.9579366666667","6501900","石碇區"
"223008","406-TH","2018/08/06 09:29:41","新北市石碇區大湖格4號","121.702476666667","25.0179466666667","6501900","石碇區"
"223001","592-UM","2018/08/06 09:29:38","新北市石碇區北宜路四段21號","121.619885","24.959195","6501900","石碇區"
"223004","660-BX","2018/08/06 09:29:49","新北市石碇區碇坪路二段9號","121.680413333333","24.97567","6501900","石碇區"
"223005","677-TV","2018/08/06 09:29:42","新北市石碇區碇坪路二段43號","121.687301666667","24.975645","6501900","石碇區"
"227005","282-VK","2018/08/06 09:29:30","新北市雙溪區三貂里政光路3-1號","121.85086","25.0629683333333","6502500","雙溪區"
"227005","030-BX","2018/08/06 09:24:07","新北市雙溪區泰平里料角坑19號","121.812133333333","24.9725316666667","6502500","雙溪區"
"252004","249-BX","2018/08/06 09:29:38","新北市三芝區店子里店子112-4號","121.510516666667","25.2096716666667","6502100","三芝區"
"252006","AAC-283","2018/08/06 09:29:22","新北市三芝區陽明路2號","121.518485","25.2635416666667","6502100","三芝區"
"237001","159-UY","2018/08/06 09:29:38","新北市樹林區中山路三段210-2號","121.381328333333","24.9656966666667","6500900","三峽區"
"236007","165-UM","2018/08/06 09:29:52","新北市土城區中央路四段321巷34弄5號","121.412871666667","24.950205","6501300","土城區"
"236001","KEA-2877","2018/08/06 09:29:35","新北市土城區學府路一段167號","121.452776666667","24.9856383333333","6501300","土城區"
"236005","498-BY","2018/08/06 09:29:49","新北市土城區承天路103號","121.443456666667","24.9600583333333","6501300","土城區"
"242033","AAC-296","2018/08/06 09:29:51","新北市新莊區中正路334巷17號","121.445636666667","25.0356166666667","6500500","新莊區"
"242057","986-R7","2018/08/06 09:29:47","新北市新莊區龍安路278巷8號","121.422051666667","25.0189066666667","6500500","新莊區"
"242052","751-BX","2018/08/06 09:29:35","新北市新莊區民安西路227號","121.426085","25.014255","6500500","新莊區"
"242024","705-TV","2018/08/06 09:29:43","新北市新莊區中正路31巷22號","121.463976666667","25.039645","6500500","新莊區"
"242026","615-BX","2018/08/06 09:29:40","新北市新莊區化成路45號","121.46515","25.0447183333333","6500500","新莊區"
"242040","566-BX","2018/08/06 09:29:47","新北市新莊區天祥街54巷2弄1號","121.416656666667","25.0291616666667","6500500","新莊區"
"242045","497-BY","2018/08/06 09:29:52","新北市新莊區富國路22巷17號","121.418421666667","25.0259016666667","6500500","新莊區"
"242049","441-UM","2018/08/06 09:29:40","新北市新莊區新樹路629-8號","121.433695","25.002465","6500500","新莊區"
"242055","440-UM","2018/08/06 09:29:44","新北市新莊區瓊泰路181號","121.443048333333","25.0316133333333","6500500","新莊區"
"242035","415-TV","2018/08/06 09:29:38","新北市新莊區後港一路94巷3弄2號","121.428016666667","25.0262916666667","6500500","新莊區"
"242043","400-BY","2018/08/06 09:29:48","新北市新莊區龍安路66-5號","121.414786666667","25.0213666666667","6500500","新莊區"
"242059","353-BY","2018/08/06 09:29:43","新北市新莊區民安東路139巷12號","121.431221666667","25.0214566666667","6500500","新莊區"
"242008","132-UY","2018/08/06 09:29:44","新北市新莊區福壽街99巷8弄2號","121.456926666667","25.05051","6500500","新莊區"
"242038","133-UY","2018/08/06 09:29:42","新北市新莊區民安路285-8號","121.429016666667","25.02225","6500500","新莊區"
"242030","135-UY","2018/08/06 09:29:42","新北市新莊區三泰路3號","121.440551666667","25.0339983333333","6500500","新莊區"
"242047","172-VK","2018/08/06 09:29:40","新北市新莊區中正路857號","121.419525","25.0279016666667","6500500","新莊區"
"242003","176-VK","2018/08/06 09:29:51","新北市新莊區化成路746巷32號","121.466971666667","25.05807","6500500","新莊區"
"242020","348-TH","2018/08/06 09:29:34","新北市新莊區中華路一段6號","121.451983333333","25.0364983333333","6500500","新莊區"
"242001","349-TH","2018/08/06 09:29:52","新北市新莊區環漢路二段10號","121.449961666667","25.0322366666667","6500500","新莊區"
