"lineid","car","time","location","longitude","latitude","cityid","cityname"
"248005","653-BX","2018/08/06 09:59:42","新北市五股區成泰路一段241巷9號","121.436003333333","25.08096","6501500","五股區"
"244018","403-UM","2018/08/06 09:59:46","新北市林口區麗園一街15號","121.376983333333","25.0692416666667","6501700","林口區"
"244012","KEA-2802","2018/08/06 09:56:14","新北市林口區竹林路276巷1號","121.390093333333","25.0815516666667","6501700","林口區"
"244022","483-VK","2018/08/06 09:59:47","新北市林口區民權路22號","121.371593333333","25.080375","6501700","林口區"
"244016","485-VK","2018/08/06 09:59:31","新北市林口區忠孝路371-1號","121.369081666667","25.0717383333333","6501700","林口區"
"231007","189-VK","2018/08/06 09:59:52","新北市新店區新潭路三段215巷25號","121.508121666667","24.9040516666667","6500600","新店區"
"231008","192-VK","2018/08/06 09:42:21","新北市新店區平廣路一段256號","121.507963333333","24.8882183333333","6500600","新店區"
"223006","022-BY","2018/08/06 09:35:13","新北市石碇區小粗坑(潭邊里)9-2號","121.678586666667","24.9858716666667","6501900","石碇區"
"223008","406-TH","2018/08/06 09:59:40","新北市石碇區小粗坑(潭邊里)15-6號","121.68381","24.983255","6501900","石碇區"
"227005","030-BX","2018/08/06 09:46:27","新北市雙溪區泰平里溪尾寮6號","121.820333333333","24.9617316666667","6502500","雙溪區"
"252004","249-BX","2018/08/06 09:59:38","新北市三芝區福德里土地公埔39號","121.510423333333","25.2347866666667","6502100","三芝區"
"252006","AAC-283","2018/08/06 09:59:42","新北市三芝區新庄里番社后15-6號","121.499555","25.2682066666667","6502100","三芝區"
"237001","159-UY","2018/08/06 09:59:38","新北市三峽區國際二街77號","121.370693333333","24.9421816666667","6500900","三峽區"
"236005","498-BY","2018/08/06 09:59:49","新北市土城區城林路6巷80號","121.43869","24.9797533333333","6501300","土城區"
"242049","441-UM","2018/08/06 09:59:40","新北市樹林區太平路269號","121.419618333333","24.9730583333333","6500500","新莊區"
"242030","135-UY","2018/08/06 09:59:42","新北市新莊區中正路577號","121.434606666667","25.0326216666667","6500500","新莊區"
"242001","349-TH","2018/08/06 09:57:52","新北市樹林區中山路三段214號","121.379856666667","24.96768","6500500","新莊區"
