"lineid","car","time","location","longitude","latitude","cityid","cityname"
"244019","403-UM","2018/08/06 10:59:46","新北市林口區粉寮69號","121.405056666667","25.0908433333333","6501700","林口區"
"231007","189-VK","2018/08/06 10:59:52","新北市新店區新潭路二段62巷22號","121.520113333333","24.92728","6500600","新店區"
"231008","192-VK","2018/08/06 10:59:05","新北市新店區成功路77號","121.538635","24.8954583333333","6500600","新店區"
"227005","282-VK","2018/08/06 10:32:37","新北市貢寮區仁理村仁和路72號","121.92294","25.049915","6502500","雙溪區"
"227005","030-BX","2018/08/06 10:59:47","新北市雙溪區泰平里泰平58號","121.827636666667","24.9722416666667","6502500","雙溪區"
