"lineid","car","time","location","longitude","latitude","cityid","cityname"
"234044","148-BY","2018/08/06 12:29:56","新北市永和區福和路1號","121.525751666667","25.0095533333333","6500400","永和區"
"234078","298-R6","2018/08/06 12:29:56","新北市永和區福和路8巷1號","121.525023333333","25.0090516666667","6500400","永和區"
"234084","338-UY","2018/08/06 12:29:39","新北市永和區福和路1號","121.526508333333","25.0096716666667","6500400","永和區"
"234068","552-UM","2018/08/06 12:29:48","新北市永和區福和路1號","121.52566","25.0094233333333","6500400","永和區"
"234036","553-UM","2018/08/06 12:29:39","新北市永和區福和路1號","121.526733333333","25.0099533333333","6500400","永和區"
"234015","745-BX","2018/08/06 12:29:48","新北市永和區福和路1號","121.526311666667","25.0095333333333","6500400","永和區"
"234028","746-BX","2018/08/06 12:29:51","新北市永和區福和路1號","121.52631","25.0095983333333","6500400","永和區"
"234012","KEA-2591","2018/08/06 12:29:33","新北市永和區福和路1號","121.526198333333","25.0095733333333","6500400","永和區"
"234022","9380-KE","2018/08/06 12:29:38","新北市永和區福和路1號","121.525728333333","25.0093866666667","6500400","永和區"
"234076","969-R7","2018/08/06 12:29:33","新北市永和區豫溪街217巷27號","121.524288333333","25.0101016666667","6500400","永和區"
"243008","KEA-2801","2018/08/06 12:22:08","新北市泰山區犁頭窠3-1號","121.422193333333","25.0605416666667","6501600","泰山區"
"243004","646-TV","2018/08/06 12:28:34","新北市泰山區黎明路26號","121.421148333333","25.0607233333333","6501600","泰山區"
"235001","611-BX","2018/08/06 12:29:40","新北市中和區員山路72號","121.480811666667","24.9935716666667","6500300","中和區"
"221010","269-BY","2018/08/06 12:29:48","新北市汐止區康寧街753巷2弄28號","121.640528333333","25.0747266666667","6501100","汐止區"
"235025","KEA-2875","2018/08/06 12:24:13","新北市中和區和城路一段271巷1號","121.48549","24.9915916666667","6500300","中和區"
