"lineid","car","time","location","longitude","latitude","cityid","cityname"
"234044","148-BY","2018/08/06 12:39:56","新北市永和區秀朗路二段66巷8號","121.522695","25.00094","6500400","永和區"
"234078","298-R6","2018/08/06 12:39:36","新北市永和區林森路69號","121.524171666667","25.00388","6500400","永和區"
"234084","338-UY","2018/08/06 12:39:39","新北市中和區安平路100號","121.511548333333","24.99721","6500400","永和區"
"234068","552-UM","2018/08/06 12:39:48","新北市永和區福和路1號","121.525463333333","25.0094633333333","6500400","永和區"
"234036","553-UM","2018/08/06 12:39:39","新北市永和區福和路1號","121.52673","25.0100283333333","6500400","永和區"
"234015","745-BX","2018/08/06 12:39:48","新北市永和區福和路1號","121.526343333333","25.0096116666667","6500400","永和區"
"234028","746-BX","2018/08/06 12:39:51","新北市永和區林森路101巷4號","121.523336666667","25.00353","6500400","永和區"
"234012","KEA-2591","2018/08/06 12:37:53","新北市永和區光復街33巷7號","121.515986666667","25.01806","6500400","永和區"
"234025","9371-KE","2018/08/06 12:39:53","新北市永和區福和路1號","121.525583333333","25.009475","6500400","永和區"
"234010","9373-KE","2018/08/06 12:39:45","新北市永和區福和路1號","121.525618333333","25.00929","6500400","永和區"
"234022","9380-KE","2018/08/06 12:39:38","新北市永和區豫溪街191巷3弄9號","121.523178333333","25.0106833333333","6500400","永和區"
"234076","969-R7","2018/08/06 12:38:54","新北市永和區中和路573號","121.511718333333","25.0035066666667","6500400","永和區"
"234066","AAC-212","2018/08/06 12:39:47","新北市永和區豫溪街217巷11號","121.525028333333","25.0099783333333","6500400","永和區"
"234001","AAC-295","2018/08/06 12:39:48","新北市永和區福和路1號","121.526706666667","25.00987","6500400","永和區"
"243008","KEA-2801","2018/08/06 12:22:08","新北市泰山區犁頭窠3-1號","121.422193333333","25.0605416666667","6501600","泰山區"
"243004","646-TV","2018/08/06 12:28:34","新北市泰山區黎明路26號","121.421148333333","25.0607233333333","6501600","泰山區"
"231005","106-UY","2018/08/06 12:39:53","新北市新店區安華路28-1號","121.519626666667","24.9608216666667","6500600","新店區"
"231003","268-BY","2018/08/06 12:39:46","新北市新店區安華路1-1號","121.519363333333","24.9605","6500600","新店區"
"231018","278-BY","2018/08/06 12:39:40","新北市新店區安康路一段321巷7號","121.521935","24.9622016666667","6500600","新店區"
"231014","AAD-862","2018/08/06 12:39:48","新北市新店區安一路一段1-1號","121.519668333333","24.9613","6500600","新店區"
"231035","719-UM","2018/08/06 12:39:48","新北市新店區安一路一段1-1號","121.51947","24.9610666666667","6500600","新店區"
"231029","897-TW","2018/08/06 12:39:45","新北市新店區安華路28-1號","121.51984","24.9608066666667","6500600","新店區"
"235028","005-UY","2018/08/06 12:39:55","新北市中和區員山路36巷16-3號","121.485205","24.9913066666667","6500300","中和區"
"235001","611-BX","2018/08/06 12:39:40","新北市中和區連城路525-8號","121.480836666667","24.9949316666667","6500300","中和區"
"207002","749-BX","2018/08/06 12:39:41","新北市萬里區雙興里太和路7-2號","121.658625","25.1741016666667","6502800","萬里區"
"207001","662-BX","2018/08/06 12:39:45","新北市萬里區萬里里獅頭路15-2號","121.696016666667","25.17989","6502800","萬里區"
"221010","269-BY","2018/08/06 12:39:48","台北市內湖區康樂街125巷2號","121.619678333333","25.07334","6501100","汐止區"
"235025","KEA-2875","2018/08/06 12:24:13","新北市中和區和城路一段271巷1號","121.48549","24.9915916666667","6500300","中和區"
