"lineid","car","time","location","longitude","latitude","cityid","cityname"
"234044","148-BY","2018/08/06 13:09:36","新北市永和區秀朗路二段165號","121.525295","25.00154","6500400","永和區"
"234005","207-UY","2018/08/06 13:09:49","新北市永和區中山路一段147號","121.51018","25.0095783333333","6500400","永和區"
"234078","298-R6","2018/08/06 13:09:36","新北市永和區福和路57巷14弄1號","121.522696666667","25.0069066666667","6500400","永和區"
"234062","337-UY","2018/08/06 13:09:45","新北市永和區秀朗路二段46號","121.521416666667","25.00237","6500400","永和區"
"234084","338-UY","2018/08/06 13:09:39","新北市永和區永貞路96號","121.519263333333","25.0045083333333","6500400","永和區"
"234068","552-UM","2018/08/06 13:09:48","新北市永和區豫溪街137巷1弄24號","121.518451666667","25.01041","6500400","永和區"
"234036","553-UM","2018/08/06 13:09:43","新北市永和區民樂街71巷1號","121.52737","24.9975216666667","6500400","永和區"
"234015","745-BX","2018/08/06 13:09:48","新北市永和區文化路90巷19號","121.513531666667","25.0162983333333","6500400","永和區"
"234028","746-BX","2018/08/06 13:09:51","新北市永和區四維街91號","121.524448333333","24.998135","6500400","永和區"
"234052","KEA-2590","2018/08/06 13:09:49","新北市永和區竹林路72巷2號","121.519251666667","25.012965","6500400","永和區"
"234012","KEA-2591","2018/08/06 13:09:53","新北市永和區保福路二段14-1號","121.510948333333","25.0112233333333","6500400","永和區"
"234060","AAD-866","2018/08/06 13:09:53","新北市永和區安樂路304巷7號","121.514468333333","25.0050483333333","6500400","永和區"
"234040","862-TW","2018/08/06 13:09:52","新北市永和區保平路93巷2弄1號","121.511643333333","25.0066883333333","6500400","永和區"
"234048","863-TW","2018/08/06 13:09:45","新北市永和區保福路二段94巷19號","121.51095","25.0140133333333","6500400","永和區"
"234025","9371-KE","2018/08/06 13:09:53","新北市永和區永和路一段72巷4號","121.513435","25.006125","6500400","永和區"
"234010","9373-KE","2018/08/06 13:09:45","新北市永和區永和路二段231巷19號","121.514705","25.013895","6500400","永和區"
"248015","026-BX","2018/08/06 13:09:51","新北市五股區成泰路三段221巷11號","121.44572","25.0933716666667","6501500","五股區"
"248005","077-UY","2018/08/06 13:09:37","新北市五股區中興路二段61號","121.461441666667","25.0768833333333","6501500","五股區"
"248007","095-VK","2018/08/06 13:09:49","新北市蘆洲區永安南路二段294號","121.457223333333","25.0817983333333","6501500","五股區"
"248019","225-UY","2018/08/06 13:09:49","新北市五股區成泰路三段544-1號","121.454691666667","25.1024616666667","6501500","五股區"
"248011","247-BX","2018/08/06 13:09:50","新北市五股區芳洲路59號","121.44189","25.0840666666667","6501500","五股區"
"248013","261-SL","2018/08/06 13:09:56","新北市五股區成泰路一段189巷19號","121.43376","25.0764333333333","6501500","五股區"
"248003","677-BX","2018/08/06 13:09:46","新北市五股區中興路四段56號","121.437833333333","25.0831933333333","6501500","五股區"
"248001","678-BX","2018/08/06 13:09:41","新北市五股區芳洲路49號","121.441818333333","25.083925","6501500","五股區"
"248009","682-TV","2018/08/06 13:09:47","新北市五股區新五路二段123號","121.43841","25.0790683333333","6501500","五股區"
"234022","9380-KE","2018/08/06 13:09:38","新北市永和區中興街10巷25號","121.516163333333","25.0111","6500400","永和區"
"234076","969-R7","2018/08/06 13:09:57","新北市永和區中正路160號","121.515075","24.9964666666667","6500400","永和區"
"234072","AAC-211","2018/08/06 13:09:53","新北市永和區竹林路217號","121.520631666667","25.008655","6500400","永和區"
"234066","AAC-212","2018/08/06 13:09:48","新北市永和區保平路2-1號","121.513126666667","25.007675","6500400","永和區"
"234001","AAC-295","2018/08/06 13:09:48","新北市永和區和平街2號","121.514196666667","25.009875","6500400","永和區"
"244001","248-BX","2018/08/06 13:09:38","新北市林口區嘉寶里69號","121.335108333333","25.1145483333333","6501700","林口區"
"243005","AAD-798","2018/08/06 13:09:50","新北市泰山區南林路99巷1-1號","121.415448333333","25.0511416666667","6501600","泰山區"
"231002","002-UM","2018/08/06 13:09:37","新北市新店區安華路28-1號","121.5196","24.96082","6500600","新店區"
"231027","0293-UT","2018/08/06 13:09:48","新北市新店區安華路28-1號","121.51967","24.96061","6500600","新店區"
"231028","046-UY","2018/08/06 13:09:42","新北市新店區安華路28-1號","121.51956","24.9608016666667","6500600","新店區"
"231001","047-UY","2018/08/06 13:09:39","新北市新店區安華路28-1號","121.519266666667","24.960885","6500600","新店區"
"231005","106-UY","2018/08/06 13:09:53","新北市新店區安華路28-1號","121.519601666667","24.9608033333333","6500600","新店區"
"231010","107-UY","2018/08/06 13:09:35","新北市新店區安一路一段1-1號","121.519403333333","24.9612266666667","6500600","新店區"
"231019","108-UY","2018/08/06 13:09:48","新北市新店區安華路28-1號","121.519483333333","24.96095","6500600","新店區"
"231011","187-VK","2018/08/06 13:09:49","新北市新店區安一路一段1-1號","121.519583333333","24.9610866666667","6500600","新店區"
"231023","KEA-2219","2018/08/06 13:09:45","新北市新店區安一路一段1-1號","121.519728333333","24.9613433333333","6500600","新店區"
"231003","268-BY","2018/08/06 13:09:46","新北市新店區安華路1-1號","121.51948","24.9604733333333","6500600","新店區"
"231018","278-BY","2018/08/06 13:08:40","新北市新店區安一路一段1-1號","121.51993","24.9612283333333","6500600","新店區"
"231014","AAD-862","2018/08/06 13:09:48","新北市新店區安一路一段1-1號","121.519865","24.9614083333333","6500600","新店區"
"231037","4716-K9","2018/08/06 13:09:41","新北市新店區安華路28-1號","121.519693333333","24.9609866666667","6500600","新店區"
"231025","4715-K9","2018/08/06 13:09:42","新北市新店區安康路一段238號","121.52201","24.963755","6500600","新店區"
"231013","513-UM","2018/08/06 13:09:42","新北市新店區安一路一段1-1號","121.519626666667","24.9610933333333","6500600","新店區"
"231034","616-UM","2018/08/06 13:09:52","新北市新店區安華路1-1號","121.519478333333","24.9605","6500600","新店區"
"231006","617-UM","2018/08/06 13:09:47","新北市新店區安華路28-1號","121.519498333333","24.9607933333333","6500600","新店區"
"231030","619-UM","2018/08/06 13:09:47","新北市新店區安華路28-1號","121.519653333333","24.9608433333333","6500600","新店區"
"231035","719-UM","2018/08/06 13:09:48","新北市新店區安一路一段1-1號","121.519511666667","24.9611166666667","6500600","新店區"
"231031","720-UM","2018/08/06 13:09:40","新北市新店區安一路一段1-1號","121.51917","24.96116","6500600","新店區"
"231029","897-TW","2018/08/06 13:09:45","新北市新店區安華路28-1號","121.519626666667","24.960855","6500600","新店區"
"231024","AKT-0513","2018/08/06 13:09:54","新北市新店區安華路28-1號","121.519508333333","24.9606683333333","6500600","新店區"
"235030","003-UY","2018/08/06 13:09:55","新北市中和區中和路98號","121.50138","25.0003166666667","6500300","中和區"
"235028","005-UY","2018/08/06 13:09:55","新北市中和區中正路277號","121.49524","24.9937466666667","6500300","中和區"
"235020","096-UM","2018/08/06 13:09:39","新北市中和區員山路36巷16號","121.484396666667","24.9915","6500300","中和區"
"235029","098-UM","2018/08/06 13:09:44","新北市中和區福祥路59號","121.499273333333","25.0045983333333","6500300","中和區"
"235004","150-BY","2018/08/06 13:09:42","新北市中和區和城路一段271巷1號","121.485606666667","24.9917766666667","6500300","中和區"
"235022","151-BY","2018/08/06 13:09:46","新北市中和區圓通路367巷66號","121.493301666667","24.9833033333333","6500300","中和區"
"235002","185-VK","2018/08/06 13:09:43","新北市中和區大仁街120號","121.52084","24.992005","6500300","中和區"
"235031","255-BX","2018/08/06 13:09:48","新北市中和區新生街18號","121.483116666667","25.0043166666667","6500300","中和區"
"235006","KEA-2878","2018/08/06 13:09:46","新北市中和區景平路171號","121.512223333333","24.992415","6500300","中和區"
"235014","4979-A6","2018/08/06 13:09:40","新北市中和區中正路589巷15號","121.485655","24.9934866666667","6500300","中和區"
"235034","558-UM","2018/08/06 13:09:41","新北市中和區中正路283號","121.493773333333","24.9938166666667","6500300","中和區"
"235018","640-BX","2018/08/06 13:09:38","新北市中和區國光街6巷2號","121.471985","25.0002283333333","6500300","中和區"
"235011","732-UM","2018/08/06 13:09:40","新北市中和區建八路116號","121.48806","24.9985616666667","6500300","中和區"
"235035","783-BX","2018/08/06 13:09:46","新北市中和區板南路520巷8號","121.48404","25.008765","6500300","中和區"
"235026","800-TS","2018/08/06 13:09:55","新北市中和區建一路91號","121.488006666667","25.0021966666667","6500300","中和區"
"235021","801-TS","2018/08/06 13:09:45","新北市中和區員山路36巷16-2號","121.485093333333","24.9916566666667","6500300","中和區"
"235005","802-TS","2018/08/06 13:09:36","新北市中和區錦和路350-1號","121.490051666667","24.993555","6500300","中和區"
"235016","805-TS","2018/08/06 13:09:37","新北市中和區中正路637巷52弄1號","121.485456666667","24.9934616666667","6500300","中和區"
"235015","157-BY","2018/08/06 13:09:42","新北市中和區捷運路59號","121.509081666667","24.989725","6500300","中和區"
"235001","AAC-213","2018/08/06 13:09:45","新北市中和區景平路149號","121.513845","24.992065","6500300","中和區"
"235023","251-BX","2018/08/06 13:09:40","新北市中和區員山路36巷16-3號","121.484928333333","24.9914","6500300","中和區"
"253003","6232-TK","2018/08/06 13:09:46","新北市石門區石崩山6號","121.564695","25.2825983333333","6502200","石門區"
"253001","6251-TK","2018/08/06 13:09:49","新北市石門區楓林17-2號","121.537858333333","25.2937166666667","6502200","石門區"
"253002","637-UY","2018/08/06 13:09:44","新北市石門區九芎林17-1號","121.556386666667","25.2710383333333","6502200","石門區"
"253004","8270-PC","2018/08/06 13:09:49","新北市石門區阿里荖18-1號","121.607616666667","25.280495","6502200","石門區"
"207002","749-BX","2018/08/06 13:09:41","新北市萬里區溪底里香員林路6號","121.632668333333","25.1636933333333","6502800","萬里區"
"252005","073-UM","2018/08/06 13:09:50","新北市三芝區八賢里八連溪29號","121.512108333333","25.238435","6502100","三芝區"
"207001","662-BX","2018/08/06 13:09:53","新北市萬里區萬里里瑪鋉路145-1號","121.689698333333","25.1781316666667","6502800","萬里區"
"236005","498-BY","2018/08/06 13:09:46","新北市土城區亞洲路68號","121.435143333333","24.973225","6501300","土城區"
"221010","269-BY","2018/08/06 13:09:48","新北市汐止區忠三街8號","121.624766666667","25.07847","6501100","汐止區"
"221032","280-BY","2018/08/06 13:09:34","新北市汐止區大同路二段583號","121.663533333333","25.07025","6501100","汐止區"
"220025","687-BX","2018/08/06 13:09:47","新北市板橋區華東街1-10號","121.448331666667","24.994895","6500100","板橋區"
"235025","KEA-2875","2018/08/06 13:09:36","新北市中和區民享街462號","121.469768333333","24.9923033333333","6500300","中和區"
