"lineid","car","time","location","longitude","latitude","cityid","cityname"
"234044","148-BY","2018/08/06 13:19:56","新北市永和區秀朗路二段86號","121.523386666667","25.001635","6500400","永和區"
"234005","207-UY","2018/08/06 13:19:49","新北市中和區中山路二段16號","121.504908333333","25.00552","6500400","永和區"
"234078","298-R6","2018/08/06 13:19:56","新北市永和區福和路18號","121.524193333333","25.0084266666667","6500400","永和區"
"234062","337-UY","2018/08/06 13:19:45","新北市永和區永元路17巷6弄2號","121.521336666667","25.00069","6500400","永和區"
"234084","338-UY","2018/08/06 13:19:46","新北市永和區永亨路2號","121.5192","25.005225","6500400","永和區"
"234068","552-UM","2018/08/06 13:19:48","新北市永和區豫溪街39號","121.516661666667","25.00991","6500400","永和區"
"234036","553-UM","2018/08/06 13:19:39","新北市永和區民樂街49號","121.527466666667","24.998855","6500400","永和區"
"234015","745-BX","2018/08/06 13:19:48","新北市永和區環河西路一段95巷19弄1號","121.511666666667","25.0172333333333","6500400","永和區"
"234028","746-BX","2018/08/06 13:19:51","新北市永和區厚德街99號","121.523383333333","24.99891","6500400","永和區"
"234052","KEA-2590","2018/08/06 13:19:49","新北市永和區中興街32號","121.51625","25.011635","6500400","永和區"
"234012","KEA-2591","2018/08/06 13:19:53","新北市永和區仁愛路88號","121.512501666667","25.0133","6500400","永和區"
"234060","AAD-866","2018/08/06 13:19:53","新北市永和區中正路381號","121.517138333333","25.0036816666667","6500400","永和區"
"234040","862-TW","2018/08/06 13:19:52","新北市永和區保平路151巷2弄6-3號","121.509603333333","25.0052933333333","6500400","永和區"
"234048","863-TW","2018/08/06 13:19:47","新北市永和區保福路二段88巷25號","121.511703333333","25.01377","6500400","永和區"
"234025","9371-KE","2018/08/06 13:19:53","新北市永和區豫溪街28巷1號","121.515331666667","25.0097283333333","6500400","永和區"
"234010","9373-KE","2018/08/06 13:19:44","新北市永和區忠孝街34巷25號","121.514453333333","25.0167883333333","6500400","永和區"
"248015","026-BX","2018/08/06 13:19:51","新北市五股區成泰路三段491巷9號","121.449823333333","25.0991466666667","6501500","五股區"
"248005","077-UY","2018/08/06 13:19:37","新北市五股區中興路一段169號","121.46474","25.0737866666667","6501500","五股區"
"248007","095-VK","2018/08/06 13:19:49","新北市五股區更洲路32巷8弄13-1號","121.459288333333","25.0794816666667","6501500","五股區"
"248019","225-UY","2018/08/06 13:19:49","新北市五股區孝義路47巷11號","121.453303333333","25.1100083333333","6501500","五股區"
"248011","247-BX","2018/08/06 13:19:50","新北市五股區御史路1巷101弄2號","121.440983333333","25.0911883333333","6501500","五股區"
"248013","261-SL","2018/08/06 13:19:56","新北市五股區自強路90巷35-1號","121.431968333333","25.0717216666667","6501500","五股區"
"248003","677-BX","2018/08/06 13:19:46","新北市五股區成泰路二段250號","121.440245","25.08719","6501500","五股區"
"248001","678-BX","2018/08/06 13:19:42","新北市五股區西雲路66號","121.443648333333","25.0915633333333","6501500","五股區"
"248009","682-TV","2018/08/06 13:19:47","新北市五股區成泰路一段189巷5號","121.434576666667","25.0765883333333","6501500","五股區"
"234022","9380-KE","2018/08/06 13:19:38","新北市永和區竹林路101號","121.519733333333","25.0119116666667","6500400","永和區"
"234076","969-R7","2018/08/06 13:19:56","新北市永和區民有街98巷4號","121.517558333333","24.9958466666667","6500400","永和區"
"234072","AAC-211","2018/08/06 13:19:53","新北市永和區復興街85號","121.517561666667","25.0141583333333","6500400","永和區"
"234066","AAC-212","2018/08/06 13:19:47","新北市永和區保平路32號","121.511846666667","25.0073083333333","6500400","永和區"
"234001","AAC-295","2018/08/06 13:19:48","新北市永和區中山路一段110號","121.510886666667","25.010295","6500400","永和區"
"244001","248-BX","2018/08/06 13:19:38","新北市林口區寶斗厝坑39號","121.335378333333","25.1185016666667","6501700","林口區"
"243005","AAD-798","2018/08/06 13:19:50","新北市泰山區明志路三段178號","121.424226666667","25.0389133333333","6501600","泰山區"
"243008","KEA-2801","2018/08/06 13:19:49","新北市泰山區犁頭窠3-1號","121.422356666667","25.060585","6501600","泰山區"
"231002","002-UM","2018/08/06 13:19:57","新北市新店區安華路28-1號","121.51963","24.96084","6500600","新店區"
"231027","0293-UT","2018/08/06 13:19:48","新北市新店區安康路一段186號","121.524841666667","24.9632866666667","6500600","新店區"
"231028","046-UY","2018/08/06 13:19:42","新北市新店區安華路28-1號","121.519556666667","24.9607866666667","6500600","新店區"
"231001","047-UY","2018/08/06 13:19:39","新北市新店區安華路28-1號","121.51922","24.960925","6500600","新店區"
"231005","106-UY","2018/08/06 13:19:53","新北市新店區安華路28-1號","121.5196","24.9608066666667","6500600","新店區"
"231010","107-UY","2018/08/06 13:19:55","新北市新店區安康路一段90號","121.527931666667","24.9619616666667","6500600","新店區"
"231019","108-UY","2018/08/06 13:19:49","新北市新店區安華路28-1號","121.519461666667","24.9609116666667","6500600","新店區"
"231036","110-UY","2018/08/06 13:19:54","新北市新店區安華路30巷3號","121.518913333333","24.9587533333333","6500600","新店區"
"231011","187-VK","2018/08/06 13:19:49","新北市新店區安一路一段1-1號","121.519608333333","24.96107","6500600","新店區"
"231023","KEA-2219","2018/08/06 13:19:44","新北市新店區北宜路一段41號","121.538191666667","24.9573516666667","6500600","新店區"
"231026","256-BX","2018/08/06 13:19:37","新北市新店區安一路一段1-1號","121.519681666667","24.9611233333333","6500600","新店區"
"231003","268-BY","2018/08/06 13:19:46","新北市新店區安華路1-1號","121.519428333333","24.9604916666667","6500600","新店區"
"231018","278-BY","2018/08/06 13:19:40","新北市新店區環河路111-10號","121.530638333333","24.97056","6500600","新店區"
"231014","AAD-862","2018/08/06 13:19:48","新北市新店區環河路1-1號","121.53783","24.9615216666667","6500600","新店區"
"231038","3712-VJ","2018/08/06 13:19:49","新北市新店區安華路28-1號","121.519376666667","24.9606116666667","6500600","新店區"
"231037","4716-K9","2018/08/06 13:19:41","新北市新店區安華路28-1號","121.519695","24.9609766666667","6500600","新店區"
"231025","4715-K9","2018/08/06 13:19:42","新北市新店區中央五街60號","121.527676666667","24.9754916666667","6500600","新店區"
"231013","513-UM","2018/08/06 13:19:42","新北市新店區安一路一段1-1號","121.519631666667","24.96109","6500600","新店區"
"231034","616-UM","2018/08/06 13:19:52","新北市新店區安華路1-1號","121.519463333333","24.960515","6500600","新店區"
"231006","617-UM","2018/08/06 13:19:47","新北市新店區安華路28-1號","121.519493333333","24.9607983333333","6500600","新店區"
"231030","619-UM","2018/08/06 13:19:47","新北市新店區安華路28-1號","121.519563333333","24.9609083333333","6500600","新店區"
"231035","719-UM","2018/08/06 13:19:48","新北市新店區安一路一段1-1號","121.519418333333","24.9613316666667","6500600","新店區"
"231031","720-UM","2018/08/06 13:19:40","新北市新店區安一路一段1-1號","121.519341666667","24.961225","6500600","新店區"
"231029","897-TW","2018/08/06 13:19:45","新北市新店區安華路28-1號","121.519655","24.9608233333333","6500600","新店區"
"231004","899-TW","2018/08/06 13:19:53","新北市新店區安康路一段359-27號","121.518511666667","24.9616616666667","6500600","新店區"
"231024","AKT-0513","2018/08/06 13:19:54","新北市新店區光明街209號","121.54001","24.9637683333333","6500600","新店區"
"235030","003-UY","2018/08/06 13:19:55","新北市中和區中山路二段120號","121.502828333333","25.0037833333333","6500300","中和區"
"235028","005-UY","2018/08/06 13:19:45","新北市中和區圓通路173號","121.497571666667","24.9952166666667","6500300","中和區"
"235027","006-UY","2018/08/06 13:19:49","新北市中和區中正路589巷15號","121.4857","24.993565","6500300","中和區"
"235020","096-UM","2018/08/06 13:19:39","新北市中和區員山路36巷16號","121.484445","24.9913516666667","6500300","中和區"
"235029","098-UM","2018/08/06 13:19:44","新北市中和區莊敬路49巷20弄22號","121.502705","25.0058116666667","6500300","中和區"
"235004","150-BY","2018/08/06 13:19:22","新北市中和區中正路171號","121.49788","24.9937083333333","6500300","中和區"
"235022","151-BY","2018/08/06 13:19:46","新北市中和區圓通路369巷36弄107號","121.489725","24.9821216666667","6500300","中和區"
"235019","183-VK","2018/08/06 13:19:43","新北市中和區員山路72-1號","121.481041666667","24.9935683333333","6500300","中和區"
"235002","185-VK","2018/08/06 13:19:43","新北市中和區秀朗路三段128巷12弄1號","121.52458","24.9928266666667","6500300","中和區"
"235013","186-VK","2018/08/06 13:19:44","新北市中和區錦和路350-1號","121.490135","24.9935683333333","6500300","中和區"
"235031","255-BX","2018/08/06 13:19:48","新北市中和區中正路767號","121.484411666667","25.0001683333333","6500300","中和區"
"235036","301-VK","2018/08/06 13:19:47","新北市中和區連城路297號","121.490126666667","24.9964066666667","6500300","中和區"
"235007","352-BY","2018/08/06 13:19:40","新北市中和區中正路169號","121.498036666667","24.99363","6500300","中和區"
"235006","KEA-2878","2018/08/06 13:19:46","新北市中和區大勇街27巷2號","121.517331666667","24.993695","6500300","中和區"
"235014","4979-A6","2018/08/06 13:19:40","新北市中和區捷運路161號","121.50626","24.9911583333333","6500300","中和區"
"235033","4980-A6","2018/08/06 13:19:44","新北市中和區錦和路91號","121.489973333333","24.99585","6500300","中和區"
"235034","558-UM","2018/08/06 13:19:41","新北市中和區圓通路111號","121.499398333333","24.9964866666667","6500300","中和區"
"235009","565-BX","2018/08/06 13:19:45","新北市中和區復興路249巷2號","121.503355","24.9900116666667","6500300","中和區"
"235018","640-BX","2018/08/06 13:19:51","新北市中和區民享街88巷2號","121.47452","25.000725","6500300","中和區"
"235024","647-TV","2018/08/06 13:19:44","新北市中和區連城路469巷3號","121.48361","24.9958216666667","6500300","中和區"
"235011","732-UM","2018/08/06 13:19:40","新北市中和區圓通路162巷17號","121.496823333333","24.9948883333333","6500300","中和區"
"235035","783-BX","2018/08/06 13:19:46","新北市中和區中板路18巷1弄1號","121.483915","25.01228","6500300","中和區"
"235026","800-TS","2018/08/06 13:19:55","新北市中和區景平路999巷2號","121.495391666667","25.005975","6500300","中和區"
"235021","801-TS","2018/08/06 13:19:45","新北市中和區民安街111巷24弄7號","121.476335","24.99888","6500300","中和區"
"235005","802-TS","2018/08/06 13:19:36","新北市中和區中和路260-1號","121.508121666667","24.99945","6500300","中和區"
"235016","805-TS","2018/08/06 13:19:37","新北市中和區南山路401號","121.50678","24.9900316666667","6500300","中和區"
"235017","900-TW","2018/08/06 13:19:37","新北市中和區員山路36巷16-3號","121.485023333333","24.9916933333333","6500300","中和區"
"235015","157-BY","2018/08/06 13:19:55","新北市中和區忠孝街29號","121.510475","24.983005","6500300","中和區"
"235001","AAC-213","2018/08/06 13:19:45","新北市中和區景德街75號","121.516568333333","24.99138","6500300","中和區"
"220013","072-UY","2018/08/06 13:19:45","新北市板橋區華東街1-9號","121.448186666667","24.9949816666667","6500100","板橋區"
"247007","056-VK","2018/08/06 13:19:52","新北市五股區中興路三段163號","121.44888","25.0808583333333","6501400","蘆洲區"
"235023","251-BX","2018/08/06 13:19:40","新北市中和區員山路36巷16-3號","121.484923333333","24.9914016666667","6500300","中和區"
"253003","6232-TK","2018/08/06 13:19:46","新北市石門區內石門18-3號","121.573368333333","25.2746966666667","6502200","石門區"
"253001","6251-TK","2018/08/06 13:19:40","新北市石門區楓林17-2號","121.53723","25.2940416666667","6502200","石門區"
"253002","637-UY","2018/08/06 13:19:44","新北市石門區豬槽潭2號","121.55625","25.2665966666667","6502200","石門區"
"253004","8270-PC","2018/08/06 13:19:49","新北市石門區阿里荖69號","121.612986666667","25.2697183333333","6502200","石門區"
"207002","749-BX","2018/08/06 13:19:41","新北市萬里區崁腳里崁腳路166號","121.64503","25.155835","6502800","萬里區"
"252005","073-UM","2018/08/06 13:19:50","新北市三芝區福德里土地公埔67-3號","121.51992","25.2277783333333","6502100","三芝區"
"207001","662-BX","2018/08/06 13:19:45","新北市萬里區龜吼里玉田路29號","121.681251666667","25.19461","6502800","萬里區"
"236005","498-BY","2018/08/06 13:19:56","新北市土城區亞洲路13號","121.43444","24.9721083333333","6501300","土城區"
"221010","269-BY","2018/08/06 13:19:48","台北市內湖區東湖路163號","121.61769","25.0679433333333","6501100","汐止區"
"221032","280-BY","2018/08/06 13:19:54","新北市汐止區龍安路44號","121.654093333333","25.063565","6501100","汐止區"
"220030","610-BX","2018/08/06 13:19:41","新北市板橋區華東街1-10號","121.44829","24.995005","6500100","板橋區"
"220025","687-BX","2018/08/06 13:19:47","新北市板橋區華東街1-10號","121.448325","24.9948966666667","6500100","板橋區"
"235025","KEA-2875","2018/08/06 13:19:36","新北市中和區莒光路175-3號","121.472761666667","24.99947","6500300","中和區"
