"lineid","car","time","location","longitude","latitude","cityid","cityname"
"234044","148-BY","2018/08/06 13:39:15","新北市永和區成功路一段76號","121.526265","25.0033733333333","6500400","永和區"
"234005","207-UY","2018/08/06 13:39:09","新北市永和區永和路一段125號","121.513951666667","25.0082666666667","6500400","永和區"
"234078","298-R6","2018/08/06 13:39:22","新北市永和區國中路104巷12弄1號","121.524766666667","25.0071333333333","6500400","永和區"
"234062","337-UY","2018/08/06 13:39:25","新北市永和區秀朗路二段24巷28弄9號","121.519618333333","25.0017633333333","6500400","永和區"
"234084","338-UY","2018/08/06 13:39:19","新北市永和區林森路41巷31號","121.526235","25.0043","6500400","永和區"
"234068","552-UM","2018/08/06 13:39:08","新北市永和區永和路二段233號","121.51563","25.014155","6500400","永和區"
"234036","553-UM","2018/08/06 13:39:22","新北市永和區民樂街35巷5號","121.52796","25.0011266666667","6500400","永和區"
"234015","745-BX","2018/08/06 13:39:18","新北市永和區永和路二段423號","121.515248333333","25.0176183333333","6500400","永和區"
"234028","746-BX","2018/08/06 13:39:22","新北市永和區民權路29巷11號","121.520745","24.9979916666667","6500400","永和區"
"234052","KEA-2590","2018/08/06 13:39:09","新北市永和區竹林路39巷7號","121.518231666667","25.0144483333333","6500400","永和區"
"234012","KEA-2591","2018/08/06 13:39:25","新北市永和區永平路224-1號","121.508975","25.0107433333333","6500400","永和區"
"234060","AAD-866","2018/08/06 13:39:13","新北市永和區中正路381號","121.5173","25.0037833333333","6500400","永和區"
"234040","862-TW","2018/08/06 13:39:12","新北市永和區永貞路267號","121.51189","25.0047866666667","6500400","永和區"
"234048","863-TW","2018/08/06 13:39:25","新北市永和區保安路84號","121.50979","25.0162116666667","6500400","永和區"
"234025","9371-KE","2018/08/06 13:39:13","新北市永和區永平路164號","121.511043333333","25.0089433333333","6500400","永和區"
"234010","9373-KE","2018/08/06 13:39:24","新北市永和區保福路二段15巷9號","121.510583333333","25.01098","6500400","永和區"
"248015","026-BX","2018/08/06 13:39:11","新北市五股區凌雲路一段133巷27-3號","121.448663333333","25.1009183333333","6501500","五股區"
"248005","077-UY","2018/08/06 13:39:17","新北市五股區中興路一段2號","121.469601666667","25.0724866666667","6501500","五股區"
"248007","095-VK","2018/08/06 13:39:10","新北市五股區中興路一段148號","121.46464","25.073965","6501500","五股區"
"248019","225-UY","2018/08/06 13:39:09","新北市五股區孝義路69-1號","121.447","25.1179366666667","6501500","五股區"
"248011","247-BX","2018/08/06 13:39:10","新北市五股區御史路52巷2號","121.441976666667","25.093485","6501500","五股區"
"248013","261-SL","2018/08/06 13:39:16","新北市五股區民義路一段98號","121.435761666667","25.0851983333333","6501500","五股區"
"248003","677-BX","2018/08/06 13:39:25","新北市五股區民義路一段312-10號","121.422888333333","25.0951266666667","6501500","五股區"
"248001","678-BX","2018/08/06 13:39:21","新北市五股區西雲路220號","121.448171666667","25.09617","6501500","五股區"
"248009","682-TV","2018/08/06 13:39:07","新北市五股區自強路76號","121.432965","25.0728483333333","6501500","五股區"
"234022","9380-KE","2018/08/06 13:39:18","新北市永和區中正路702巷18號","121.516451666667","25.0105733333333","6500400","永和區"
"234076","969-R7","2018/08/06 13:39:20","新北市永和區民權路34號","121.520168333333","24.9989483333333","6500400","永和區"
"234072","AAC-211","2018/08/06 13:39:13","新北市永和區竹林路213巷1號","121.521043333333","25.0089133333333","6500400","永和區"
"234066","AAC-212","2018/08/06 13:39:14","新北市永和區中山路一段191巷9弄1號","121.509581666667","25.008095","6500400","永和區"
"234001","AAC-295","2018/08/06 13:39:28","新北市永和區秀朗路一段49號","121.514131666667","25.0067466666667","6500400","永和區"
"244001","248-BX","2018/08/06 13:39:18","新北市林口區太平里12鄰2號","121.361501666667","25.1329","6501700","林口區"
"243005","AAD-798","2018/08/06 13:23:59","新北市泰山區明志路三段206巷3號","121.42329","25.03794","6501600","泰山區"
"243008","KEA-2801","2018/08/06 13:37:53","新北市泰山區泰林路二段47號","121.43546","25.0574283333333","6501600","泰山區"
"243004","646-TV","2018/08/06 13:39:23","新北市泰山區黎明路1號","121.421221666667","25.0633666666667","6501600","泰山區"
"231002","002-UM","2018/08/06 13:39:17","新北市新店區中央三街127號","121.524085","24.9769116666667","6500600","新店區"
"231027","0293-UT","2018/08/06 13:39:28","新北市新店區新店後街16號","121.537945","24.9532383333333","6500600","新店區"
"231028","046-UY","2018/08/06 13:39:22","新北市新店區安和路一段23號","121.517043333333","24.96501","6500600","新店區"
"231001","047-UY","2018/08/06 13:39:19","新北市新店區中正路404號","121.534491666667","24.9775316666667","6500600","新店區"
"231005","106-UY","2018/08/06 13:39:13","新北市新店區寶中路72號","121.547858333333","24.9805933333333","6500600","新店區"
"231010","107-UY","2018/08/06 13:39:15","新北市新店區中正路307巷17號","121.53587","24.9736366666667","6500600","新店區"
"231019","108-UY","2018/08/06 13:39:08","新北市新店區永興路88-1號","121.543988333333","24.933735","6500600","新店區"
"231036","110-UY","2018/08/06 13:39:15","新北市新店區建業路90-1號","121.479603333333","24.9561733333333","6500600","新店區"
"231011","187-VK","2018/08/06 13:39:09","新北市新店區德正街23巷12-1號","121.544606666667","24.9722233333333","6500600","新店區"
"231023","KEA-2219","2018/08/06 13:39:24","新北市新店區新店路157號","121.537035","24.9551133333333","6500600","新店區"
"231026","256-BX","2018/08/06 13:39:17","新北市新店區北新路一段333號","121.541795","24.968585","6500600","新店區"
"231003","268-BY","2018/08/06 13:39:26","新北市新店區中正路56號","121.544516666667","24.9700216666667","6500600","新店區"
"231018","278-BY","2018/08/06 13:39:20","新北市新店區百忍街31號","121.533695","24.9757266666667","6500600","新店區"
"231014","AAD-862","2018/08/06 13:39:08","新北市新店區竹林路25巷10號","121.552296666667","24.951355","6500600","新店區"
"231038","3712-VJ","2018/08/06 13:39:09","新北市新店區安華路1-1號","121.519365","24.960415","6500600","新店區"
"231037","4716-K9","2018/08/06 13:39:21","新北市新店區薏仁坑路25號","121.496265","24.9601583333333","6500600","新店區"
"231025","4715-K9","2018/08/06 13:39:22","新北市新店區中央六街56號","121.527958333333","24.9757833333333","6500600","新店區"
"231013","513-UM","2018/08/06 13:39:26","新北市新店區二十張路143-2號","121.534975","24.9788283333333","6500600","新店區"
"231034","616-UM","2018/08/06 13:39:12","新北市新店區車子路134號","121.504826666667","24.9485166666667","6500600","新店區"
"231006","617-UM","2018/08/06 13:39:07","新北市新店區北宜路一段50號","121.538341666667","24.956375","6500600","新店區"
"231030","619-UM","2018/08/06 13:39:08","新北市新店區安康路一段231號","121.525366666667","24.96326","6500600","新店區"
"231035","719-UM","2018/08/06 13:39:08","新北市新店區安忠路56巷6號","121.51292","24.9594416666667","6500600","新店區"
"231031","720-UM","2018/08/06 13:39:20","新北市新店區安康路一段92-1號","121.527898333333","24.96205","6500600","新店區"
"231029","897-TW","2018/08/06 13:39:24","新北市新店區安康路二段330號","121.504141666667","24.9578183333333","6500600","新店區"
"231004","899-TW","2018/08/06 13:39:13","新北市新店區北新路二段1號","121.54274","24.9712566666667","6500600","新店區"
"231024","AKT-0513","2018/08/06 13:39:14","新北市新店區北新路一段271巷34號","121.539836666667","24.9671783333333","6500600","新店區"
"235030","003-UY","2018/08/06 13:39:15","新北市中和區水源路45號","121.504786666667","25.003605","6500300","中和區"
"235028","005-UY","2018/08/06 13:39:15","新北市中和區連城路109巷40號","121.497178333333","24.997905","6500300","中和區"
"235027","006-UY","2018/08/06 13:39:08","新北市中和區連城路389巷10弄2號","121.486351666667","24.9956466666667","6500300","中和區"
"235020","096-UM","2018/08/06 13:39:19","新北市中和區員山路466巷10號","121.480658333333","25.0065833333333","6500300","中和區"
"235029","098-UM","2018/08/06 13:39:24","新北市中和區中山路二段2巷83號","121.500933333333","25.0074716666667","6500300","中和區"
"235004","150-BY","2018/08/06 13:39:22","新北市中和區安平路59號","121.509396666667","24.9952266666667","6500300","中和區"
"235022","151-BY","2018/08/06 13:39:26","新北市中和區員山路59號","121.480911666667","24.99318","6500300","中和區"
"235019","183-VK","2018/08/06 13:39:23","新北市中和區國光街8巷7號","121.471538333333","25.00069","6500300","中和區"
"235002","185-VK","2018/08/06 13:39:24","新北市中和區自強路66號","121.519866666667","24.9942033333333","6500300","中和區"
"235013","186-VK","2018/08/06 13:39:24","新北市中和區景安路116號","121.505361666667","24.9950316666667","6500300","中和區"
"235031","255-BX","2018/08/06 13:39:28","新北市中和區新生街220巷4號","121.482886666667","24.9986383333333","6500300","中和區"
"235008","293-VK","2018/08/06 13:39:20","新北市中和區復興路269號","121.502645","24.99034","6500300","中和區"
"235036","301-VK","2018/08/06 13:39:08","新北市中和區連城路171巷28號","121.495895","24.9971183333333","6500300","中和區"
"235007","352-BY","2018/08/06 13:39:20","新北市中和區景平路171號","121.512146666667","24.9923683333333","6500300","中和區"
"235006","KEA-2878","2018/08/06 13:39:26","新北市中和區成功路41巷1號","121.526236666667","24.99325","6500300","中和區"
"235014","4979-A6","2018/08/06 13:39:20","新北市中和區信義街115號","121.512093333333","24.9868383333333","6500300","中和區"
"235033","4980-A6","2018/08/06 13:39:25","新北市中和區連城路99巷38號","121.49691","24.9988366666667","6500300","中和區"
"235034","558-UM","2018/08/06 13:39:21","新北市中和區南華路17號","121.502803333333","24.9958133333333","6500300","中和區"
"235009","565-BX","2018/08/06 13:39:25","新北市中和區南山路236巷63弄1號","121.503825","24.98765","6500300","中和區"
"235018","640-BX","2018/08/06 13:39:18","新北市中和區民享街52號","121.473916666667","25.0024733333333","6500300","中和區"
"235024","647-TV","2018/08/06 13:39:24","新北市中和區中山路二段604號","121.481768333333","25.005365","6500300","中和區"
"235011","732-UM","2018/08/06 13:39:20","新北市中和區南山路320巷10弄21號","121.50678","24.986735","6500300","中和區"
"235035","783-BX","2018/08/06 13:39:21","新北市中和區立德街21號","121.488641666667","25.0073016666667","6500300","中和區"
"235026","800-TS","2018/08/06 13:39:15","新北市中和區中山路二段312巷1弄2號","121.49558","25.0027983333333","6500300","中和區"
"235021","801-TS","2018/08/06 13:39:25","新北市中和區員山路327巷62號","121.480058333333","25.0019966666667","6500300","中和區"
"235005","802-TS","2018/08/06 13:39:16","新北市中和區中和路400巷14弄1號","121.511733333333","25.0020716666667","6500300","中和區"
"235016","805-TS","2018/08/06 13:39:17","新北市中和區興南路三段52巷6號","121.493815","24.97608","6500300","中和區"
"235012","896-TW","2018/08/06 13:39:18","新北市中和區中正路79號","121.500783333333","24.9935016666667","6500300","中和區"
"235017","900-TW","2018/08/06 13:39:17","新北市中和區莒光路213號","121.469016666667","24.9945","6500300","中和區"
"235015","157-BY","2018/08/06 13:39:22","新北市中和區華新街143巷106弄24號","121.505985","24.9788283333333","6500300","中和區"
"235001","AAC-213","2018/08/06 13:39:25","新北市中和區景德街95-1號","121.51564","24.9913916666667","6500300","中和區"
"220013","072-UY","2018/08/06 13:39:05","新北市板橋區民族路151巷52號","121.470058333333","25.00839","6500100","板橋區"
"220034","073-UY","2018/08/06 13:39:13","新北市板橋區大智街76號","121.453778333333","25.0156066666667","6500100","板橋區"
"220017","AAD-861","2018/08/06 13:39:21","新北市板橋區華東街1-10號","121.448371666667","24.9951066666667","6500100","板橋區"
"247007","056-VK","2018/08/06 13:39:12","新北市五股區四維路185巷1號","121.468308333333","25.0760183333333","6501400","蘆洲區"
"235023","251-BX","2018/08/06 13:39:20","新北市中和區中正路525號","121.487975","24.9935616666667","6500300","中和區"
"253003","6232-TK","2018/08/06 13:39:26","新北市石門區尖子鹿15-1號","121.575796666667","25.2794183333333","6502200","石門區"
"253001","6251-TK","2018/08/06 13:39:20","新北市石門區白沙灣別墅5號","121.508676666667","25.2779666666667","6502200","石門區"
"253002","637-UY","2018/08/06 13:39:23","新北市石門區九芎林35號","121.566521666667","25.25554","6502200","石門區"
"253004","8270-PC","2018/08/06 13:39:09","新北市石門區阿里荖63號","121.607826666667","25.2676416666667","6502200","石門區"
"207002","749-BX","2018/08/06 13:39:21","新北市萬里區崁腳里崁腳路166號","121.645046666667","25.1558516666667","6502800","萬里區"
"252005","073-UM","2018/08/06 13:39:10","新北市三芝區圓山里內柑宅25號","121.537981666667","25.21838","6502100","三芝區"
"207001","662-BX","2018/08/06 13:39:05","新北市萬里區大鵬里萬里加投29-2號","121.647116666667","25.2079366666667","6502800","萬里區"
"236040","107-UM","2018/08/06 13:39:25","新北市土城區城林路6巷80號","121.4385","24.97978","6501300","土城區"
"236074","166-UM","2018/08/06 13:39:11","新北市土城區城林路6巷80號","121.4382","24.97958","6501300","土城區"
"236012","270-VK","2018/08/06 13:39:14","新北市土城區城林路6巷80號","121.438816666667","24.9796566666667","6501300","土城區"
"236032","271-VK","2018/08/06 13:39:23","新北市土城區城林路6巷80號","121.438545","24.9798233333333","6501300","土城區"
"236016","401-BY","2018/08/06 13:39:14","新北市土城區城林路6巷80號","121.438603333333","24.979735","6501300","土城區"
"236005","498-BY","2018/08/06 13:39:23","新北市土城區慶祥街21號","121.436623333333","24.9740283333333","6501300","土城區"
"221010","269-BY","2018/08/06 13:39:08","新北市汐止區康寧街753巷5號","121.638391666667","25.074575","6501100","汐止區"
"221032","280-BY","2018/08/06 13:39:14","新北市汐止區仁愛路25號","121.659328333333","25.0637283333333","6501100","汐止區"
"220027","145-BY","2018/08/06 13:39:12","新北市板橋區大智街71巷22弄33號","121.452408333333","25.0151433333333","6500100","板橋區"
"220028","200-UY","2018/08/06 13:39:14","新北市板橋區大觀路二段435號","121.441753333333","24.9951016666667","6500100","板橋區"
"220030","610-BX","2018/08/06 13:39:21","新北市板橋區篤行路一段33號","121.432043333333","24.994335","6500100","板橋區"
"220004","276-BY","2018/08/06 13:39:24","新北市土城區廣興街38號","121.453438333333","24.9914816666667","6500100","板橋區"
"220019","283-VK","2018/08/06 13:39:21","新北市板橋區四川路二段14號","121.456153333333","24.996325","6500100","板橋區"
"220043","285-UM","2018/08/06 13:39:14","新北市板橋區民生路二段161巷5號","121.470261666667","25.019735","6500100","板橋區"
"220031","286-VK","2018/08/06 13:39:24","新北市板橋區板城路271號","121.450025","24.9981283333333","6500100","板橋區"
"220029","287-VK","2018/08/06 13:39:19","新北市板橋區大觀路二段103號","121.44618","25.001795","6500100","板橋區"
"220039","288-VK","2018/08/06 13:39:21","新北市板橋區民生路二段161巷9號","121.470305","25.019665","6500100","板橋區"
"220010","295-UM","2018/08/06 13:39:13","新北市板橋區民生路二段120號","121.470388333333","25.019575","6500100","板橋區"
"220032","296-UM","2018/08/06 13:39:20","新北市板橋區大觀路二段152號","121.441728333333","24.9988783333333","6500100","板橋區"
"220023","303-R5","2018/08/06 13:39:11","新北市板橋區華東街308號","121.452741666667","25.0031366666667","6500100","板橋區"
"220047","317-R6","2018/08/06 13:39:28","新北市板橋區民生路二段120號","121.470426666667","25.0195916666667","6500100","板橋區"
"220012","486-VK","2018/08/06 13:39:22","新北市板橋區民生路二段56-4號","121.471863333333","25.01717","6500100","板橋區"
"220104","560-BX","2018/08/06 13:39:09","新北市板橋區南雅西路二段145巷10號","121.451566666667","25.0119083333333","6500100","板橋區"
"220052","561-BX","2018/08/06 13:39:15","新北市板橋區民生路二段161巷9號","121.470288333333","25.019665","6500100","板橋區"
"220011","609-BX","2018/08/06 13:39:24","新北市板橋區民生路二段171號","121.469808333333","25.0200916666667","6500100","板橋區"
"220005","686-BX","2018/08/06 13:39:08","新北市板橋區華東街1-9號","121.448233333333","24.994915","6500100","板橋區"
"220025","687-BX","2018/08/06 13:39:19","新北市板橋區大觀路三段180巷30號","121.429788333333","24.99362","6500100","板橋區"
"220042","689-BX","2018/08/06 13:39:24","新北市板橋區民生路二段161巷1號","121.470206666667","25.020075","6500100","板橋區"
"220002","741-BX","2018/08/06 13:39:25","新北市板橋區華東街1-9號","121.448133333333","24.99495","6500100","板橋區"
"220014","829-TW","2018/08/06 13:39:15","新北市板橋區民生路二段161巷9號","121.47023","25.0196133333333","6500100","板橋區"
"220038","833-TW","2018/08/06 13:39:09","新北市板橋區三民路二段253-1號","121.479085","25.01168","6500100","板橋區"
"220022","895-R6","2018/08/06 13:39:15","新北市板橋區南雅南路一段74號","121.455358333333","25.005095","6500100","板橋區"
"220021","985-R7","2018/08/06 13:39:14","新北市板橋區南雅南路二段11-5號","121.454033333333","25.0023616666667","6500100","板橋區"
"220046","AAC-210","2018/08/06 13:30:47","新北市板橋區民生路二段184號","121.47103","25.0200016666667","6500100","板橋區"
"220018","AAC-253","2018/08/06 13:39:21","新北市板橋區南雅南路二段144巷60號","121.450166666667","24.9973016666667","6500100","板橋區"
"235032","KEA-2873","2018/08/06 13:39:23","新北市中和區中正路209號","121.497141666667","24.9934516666667","6500300","中和區"
"235025","KEA-2875","2018/08/06 13:39:17","新北市中和區民享街32巷2號","121.473913333333","25.0033066666667","6500300","中和區"
