"lineid","car","time","location","longitude","latitude","cityid","cityname"
"234044","148-BY","2018/08/06 13:59:15","新北市永和區成功路一段128號","121.526815","25.0022066666667","6500400","永和區"
"234005","207-UY","2018/08/06 13:59:09","新北市中和區中和路376號","121.510663333333","25.0020233333333","6500400","永和區"
"234078","298-R6","2018/08/06 13:59:16","新北市永和區永利路81巷2弄1號","121.521635","25.003675","6500400","永和區"
"234062","337-UY","2018/08/06 13:59:25","新北市永和區中正路368巷1弄45號","121.519165","25.00105","6500400","永和區"
"234084","338-UY","2018/08/06 13:59:19","新北市永和區福和路48號","121.523548333333","25.0081333333333","6500400","永和區"
"234068","552-UM","2018/08/06 13:59:08","新北市永和區國光路2號","121.51987","25.00876","6500400","永和區"
"234036","553-UM","2018/08/06 13:59:19","新北市永和區成功路二段152-2號","121.526533333333","24.9965616666667","6500400","永和區"
"234015","745-BX","2018/08/06 13:59:08","新北市永和區文化路130號","121.512906666667","25.0152883333333","6500400","永和區"
"234028","746-BX","2018/08/06 13:59:20","新北市永和區民生路67巷49號","121.525316666667","24.9975983333333","6500400","永和區"
"234052","KEA-2590","2018/08/06 13:59:09","新北市永和區竹林路66巷5弄12號","121.518568333333","25.0130033333333","6500400","永和區"
"234012","KEA-2591","2018/08/06 13:59:13","新北市永和區保生路55號","121.504738333333","25.0105966666667","6500400","永和區"
"234060","AAD-866","2018/08/06 13:59:13","新北市永和區中正路283巷64弄2號","121.516161666667","24.999765","6500400","永和區"
"234040","862-TW","2018/08/06 13:59:23","新北市永和區中和路335巷18弄15號","121.507861666667","25.0004216666667","6500400","永和區"
"234048","863-TW","2018/08/06 13:59:25","新北市永和區保安路250號","121.506366666667","25.01257","6500400","永和區"
"234010","9373-KE","2018/08/06 13:59:25","新北市永和區保生路55-1號","121.504538333333","25.0109416666667","6500400","永和區"
"248015","026-BX","2018/08/06 13:59:11","新北市五股區成泰路三段543巷12弄18號","121.451355","25.10236","6501500","五股區"
"248007","095-VK","2018/08/06 13:59:09","新北市五股區中興路一段126號","121.465561666667","25.0736383333333","6501500","五股區"
"248019","225-UY","2018/08/06 13:59:09","新北市五股區凌雲路三段100-1號","121.42691","25.1221083333333","6501500","五股區"
"248011","247-BX","2018/08/06 13:59:10","新北市五股區成泰路二段195巷1號","121.440356666667","25.0873716666667","6501500","五股區"
"248003","677-BX","2018/08/06 13:59:25","新北市五股區民義路一段310-9號","121.424333333333","25.09394","6501500","五股區"
"248001","678-BX","2018/08/06 13:59:21","新北市五股區凌雲路一段144號","121.44943","25.10224","6501500","五股區"
"248009","682-TV","2018/08/06 13:59:07","新北市五股區水碓一路23號","121.430598333333","25.071325","6501500","五股區"
"234022","9380-KE","2018/08/06 13:59:18","新北市永和區復興街1巷12號","121.515848333333","25.0131583333333","6500400","永和區"
"234076","969-R7","2018/08/06 13:59:17","新北市永和區民族街43巷8號","121.518945","24.9983966666667","6500400","永和區"
"234072","AAC-211","2018/08/06 13:59:13","新北市永和區豫溪街161-1號","121.521476666667","25.0104833333333","6500400","永和區"
"234066","AAC-212","2018/08/06 13:59:07","新北市永和區永貞路356號","121.510175","25.0064833333333","6500400","永和區"
"234001","AAC-295","2018/08/06 13:59:12","新北市永和區福和路299號","121.516426666667","25.0072733333333","6500400","永和區"
"243005","AAD-798","2018/08/06 13:59:15","新北市泰山區明志路三段239號","121.423511666667","25.0377666666667","6501600","泰山區"
"243008","KEA-2801","2018/08/06 13:59:10","新北市泰山區明志路二段152-2號","121.427488333333","25.0505783333333","6501600","泰山區"
"243007","421-VK","2018/08/06 13:59:10","新北市泰山區泰林路二段334號","121.43011","25.0635533333333","6501600","泰山區"
"243003","KEA-2215","2018/08/06 13:59:10","新北市泰山區明志路二段239號","121.42716","25.048135","6501600","泰山區"
"243002","KEA-2216","2018/08/06 13:59:27","新北市泰山區辭修路24號","121.429008333333","25.05813","6501600","泰山區"
"243004","646-TV","2018/08/06 13:59:23","新北市泰山區福興三街28號","121.433855","25.0575566666667","6501600","泰山區"
"243006","680-BX","2018/08/06 13:59:22","新北市泰山區黎明路23號","121.420933333333","25.0626333333333","6501600","泰山區"
"231002","002-UM","2018/08/06 13:59:17","新北市新店區中正路707號","121.533866666667","24.991115","6500600","新店區"
"231027","0293-UT","2018/08/06 13:59:08","新北市新店區北宜路一段7號","121.538448333333","24.95829","6500600","新店區"
"231028","046-UY","2018/08/06 13:59:22","新北市新店區安和路三段4巷1-3號","121.51817","24.9805883333333","6500600","新店區"
"231001","047-UY","2018/08/06 13:59:19","新北市新店區三民路24號","121.537145","24.97098","6500600","新店區"
"231005","106-UY","2018/08/06 13:59:13","新北市新店區中興路三段216號","121.543543333333","24.9825166666667","6500600","新店區"
"231010","107-UY","2018/08/06 13:59:15","新北市新店區環河路103-5號","121.531555","24.97094","6500600","新店區"
"231019","108-UY","2018/08/06 13:59:09","新北市新店區湖子內路1號","121.542893333333","24.930035","6500600","新店區"
"231036","110-UY","2018/08/06 13:59:26","新北市新店區安祥路112號","121.475035","24.9568283333333","6500600","新店區"
"231011","187-VK","2018/08/06 13:59:30","新北市新店區中興路二段79巷2號","121.546746666667","24.9713566666667","6500600","新店區"
"231023","KEA-2219","2018/08/06 13:59:24","新北市新店區文中路40號","121.539575","24.9565716666667","6500600","新店區"
"231026","256-BX","2018/08/06 13:59:17","新北市新店區環河路42-2號","121.53693","24.962395","6500600","新店區"
"231003","268-BY","2018/08/06 13:59:26","新北市新店區中興路一段110-1號","121.541201666667","24.9623266666667","6500600","新店區"
"231018","278-BY","2018/08/06 13:59:20","新北市新店區中央路133巷11號","121.53106","24.9735866666667","6500600","新店區"
"231014","AAD-862","2018/08/06 13:59:08","新北市新店區郵政路3巷5號","121.557333333333","24.9520283333333","6500600","新店區"
"231038","3712-VJ","2018/08/06 13:59:09","新北市新店區安華路30巷3號","121.519568333333","24.9591666666667","6500600","新店區"
"231037","4716-K9","2018/08/06 13:59:21","新北市新店區安康路三段359巷12弄12號","121.484276666667","24.949755","6500600","新店區"
"231025","4715-K9","2018/08/06 13:59:22","新北市新店區中正路328巷18號","121.53746","24.975645","6500600","新店區"
"231013","513-UM","2018/08/06 13:59:21","新北市新店區明德路70號","121.541518333333","24.9797866666667","6500600","新店區"
"231034","616-UM","2018/08/06 13:59:12","新北市新店區達觀路16-7號","121.502171666667","24.9409066666667","6500600","新店區"
"231006","617-UM","2018/08/06 13:59:27","新北市新店區北宜路二段215號","121.553291666667","24.953365","6500600","新店區"
"231030","619-UM","2018/08/06 13:59:27","新北市新店區安康路一段244-1號","121.521155","24.963915","6500600","新店區"
"231035","719-UM","2018/08/06 13:59:27","新北市新店區安康路二段70號","121.514485","24.9635533333333","6500600","新店區"
"231031","720-UM","2018/08/06 13:59:20","新北市新店區華城路6號","121.530185","24.96043","6500600","新店區"
"231029","897-TW","2018/08/06 13:59:24","新北市新店區安康路二段74號","121.514426666667","24.9635316666667","6500600","新店區"
"231004","899-TW","2018/08/06 13:59:13","新北市新店區北新路二段135號","121.54288","24.9755266666667","6500600","新店區"
"231024","AKT-0513","2018/08/06 13:59:14","新北市新店區安和路三段4巷3號","121.520791666667","24.9808583333333","6500600","新店區"
"235030","003-UY","2018/08/06 13:59:15","新北市中和區中山路二段131巷5弄4號","121.502956666667","25.0028883333333","6500300","中和區"
"235028","005-UY","2018/08/06 13:59:15","新北市中和區泰和街44巷44號","121.498028333333","25.0013633333333","6500300","中和區"
"235027","006-UY","2018/08/06 13:59:08","新北市中和區中正路592號","121.485888333333","24.995115","6500300","中和區"
"235020","096-UM","2018/08/06 13:59:19","新北市中和區中正路1224號","121.479548333333","25.0107533333333","6500300","中和區"
"235029","098-UM","2018/08/06 13:59:24","新北市中和區莊敬路33號","121.50093","25.004995","6500300","中和區"
"235004","150-BY","2018/08/06 13:59:22","新北市中和區保健路67巷3弄1-2號","121.509865","24.99738","6500300","中和區"
"235022","151-BY","2018/08/06 13:59:28","新北市中和區員山路75號","121.480731666667","24.9942033333333","6500300","中和區"
"235019","183-VK","2018/08/06 13:59:23","新北市中和區中山路三段227號","121.470958333333","25.006615","6500300","中和區"
"235002","185-VK","2018/08/06 13:59:23","新北市中和區大勇街31巷13弄13號","121.517368333333","24.9938966666667","6500300","中和區"
"235013","186-VK","2018/08/06 13:59:24","新北市中和區景新街168-2號","121.505921666667","24.996785","6500300","中和區"
"235031","255-BX","2018/08/06 13:59:07","新北市中和區新生街182號","121.483755","24.9998033333333","6500300","中和區"
"235008","293-VK","2018/08/06 13:59:20","新北市中和區中興街161巷10弄2號","121.50118","24.9909383333333","6500300","中和區"
"235036","301-VK","2018/08/06 13:59:27","新北市永和區保生路2號","121.507036666667","25.0072216666667","6500300","中和區"
"235007","352-BY","2018/08/06 13:59:20","新北市中和區秀朗路三段36巷2號","121.526383333333","24.99616","6500300","中和區"
"235006","KEA-2878","2018/08/06 13:59:06","新北市中和區秀朗路三段128巷1弄1號","121.524626666667","24.9922666666667","6500300","中和區"
"247009","KEA-2869","2018/08/06 13:59:09","新北市蘆洲區集賢路232號","121.482226666667","25.0862433333333","6501400","蘆洲區"
"235014","4979-A6","2018/08/06 13:59:20","新北市中和區忠孝街29號","121.51051","24.9830716666667","6500300","中和區"
"235033","4980-A6","2018/08/06 13:59:24","新北市中和區景平路618巷7號","121.500893333333","24.9972","6500300","中和區"
"235034","558-UM","2018/08/06 13:59:21","新北市中和區安和路165號","121.506105","24.9976766666667","6500300","中和區"
"235009","565-BX","2018/08/06 13:59:25","新北市中和區景新街467巷20弄21號","121.515033333333","24.98733","6500300","中和區"
"235018","640-BX","2018/08/06 13:59:18","新北市中和區國光街30號","121.47147","25.0002066666667","6500300","中和區"
"235024","647-TV","2018/08/06 13:59:24","新北市中和區民治街24號","121.475111666667","25.0040366666667","6500300","中和區"
"235011","732-UM","2018/08/06 13:59:20","新北市中和區興南路二段34巷4號","121.506958333333","24.9856333333333","6500300","中和區"
"235010","733-UM","2018/08/06 13:59:28","新北市中和區興南路二段3巷15弄1號","121.50852","24.9862883333333","6500300","中和區"
"235035","783-BX","2018/08/06 13:59:26","新北市中和區立德街98巷85號","121.488495","25.00866","6500300","中和區"
"235026","800-TS","2018/08/06 13:59:15","新北市中和區中山路二段340巷45號","121.493151666667","25.0041466666667","6500300","中和區"
"235021","801-TS","2018/08/06 13:59:25","新北市中和區民利街40巷3弄4號","121.479063333333","24.9993516666667","6500300","中和區"
"235005","802-TS","2018/08/06 13:59:16","新北市中和區中安街38號","121.512975","25.0028083333333","6500300","中和區"
"235016","805-TS","2018/08/06 13:59:17","新北市中和區興南路二段131-15號","121.504281666667","24.98026","6500300","中和區"
"235012","896-TW","2018/08/06 13:59:18","新北市中和區華新街9號","121.507498333333","24.985195","6500300","中和區"
"235017","900-TW","2018/08/06 13:59:17","新北市中和區民德路330號","121.466645","24.9944366666667","6500300","中和區"
"235015","157-BY","2018/08/06 13:59:22","新北市中和區忠孝街19巷3號","121.509978333333","24.9836183333333","6500300","中和區"
"235001","AAC-213","2018/08/06 13:59:25","新北市永和區民生路83號","121.52262","24.996795","6500300","中和區"
"220105","013-TV","2018/08/06 13:59:22","新北市板橋區莒光路42號","121.470463333333","25.024395","6500100","板橋區"
"220003","015-TV","2018/08/06 13:59:15","新北市板橋區中山路一段158巷20號","121.466265","25.0111966666667","6500100","板橋區"
"220013","072-UY","2018/08/06 13:59:25","新北市板橋區漢生東路317號","121.471931666667","25.0080083333333","6500100","板橋區"
"220034","073-UY","2018/08/06 13:59:13","新北市板橋區中正路236巷59號","121.458271666667","25.0195066666667","6500100","板橋區"
"220017","AAD-861","2018/08/06 13:59:23","新北市板橋區華興街49號","121.457706666667","25.0046566666667","6500100","板橋區"
"247013","546-UM","2018/08/06 13:59:15","新北市蘆洲區中正路181號","121.468733333333","25.0853383333333","6501400","蘆洲區"
"247011","339-TH","2018/08/06 13:59:17","新北市蘆洲區民族路156號","121.479563333333","25.0861716666667","6501400","蘆洲區"
"247003","337-TH","2018/08/06 13:59:23","新北市蘆洲區長榮路20號","121.463896666667","25.0823533333333","6501400","蘆洲區"
"247005","336-TH","2018/08/06 13:59:18","新北市蘆洲區九芎街71巷33號","121.466158333333","25.0776433333333","6501400","蘆洲區"
"247017","057-VK","2018/08/06 13:59:19","新北市蘆洲區民族路327巷93號","121.47567","25.0889766666667","6501400","蘆洲區"
"247007","056-VK","2018/08/06 13:59:12","新北市蘆洲區重陽一街3號","121.481765","25.0814766666667","6501400","蘆洲區"
"247015","053-VK","2018/08/06 13:59:27","新北市蘆洲區光華路28號","121.469405","25.08335","6501400","蘆洲區"
"247019","001-UY","2018/08/06 13:59:18","新北市蘆洲區民族路422巷50號","121.473726666667","25.0930783333333","6501400","蘆洲區"
"235023","251-BX","2018/08/06 13:59:20","新北市中和區圓通路367巷20弄21號","121.491525","24.9884283333333","6500300","中和區"
"253003","6232-TK","2018/08/06 13:59:26","新北市石門區內石門62號","121.577966666667","25.265855","6502200","石門區"
"253001","6251-TK","2018/08/06 13:59:20","新北市石門區下員坑49號","121.518128333333","25.274295","6502200","石門區"
"253002","637-UY","2018/08/06 13:56:04","新北市石門區七股60號","121.554426666667","25.2515616666667","6502200","石門區"
"253004","8270-PC","2018/08/06 13:59:09","新北市石門區小坑34號","121.597538333333","25.2668216666667","6502200","石門區"
"207002","749-BX","2018/08/06 13:58:41","新北市萬里區溪底里烏塗炭9號","121.636703333333","25.15125","6502800","萬里區"
"252005","073-UM","2018/08/06 13:59:10","新北市三芝區橫山里橫山57-2號","121.535415","25.253655","6502100","三芝區"
"207001","662-BX","2018/08/06 13:59:25","新北市萬里區磺潭里清水2-2號","121.641996666667","25.20255","6502800","萬里區"
"236064","105-UM","2018/08/06 13:59:22","新北市土城區城林路6巷80號","121.438648333333","24.97966","6501300","土城區"
"236040","107-UM","2018/08/06 13:59:25","新北市土城區中央路二段280號","121.440788333333","24.974115","6501300","土城區"
"236074","166-UM","2018/08/06 13:59:11","新北市土城區永寧路32巷10弄23號","121.428881666667","24.9611016666667","6501300","土城區"
"236029","253-BX","2018/08/06 13:58:01","新北市土城區中央路二段280號","121.440725","24.97401","6501300","土城區"
"236024","269-VK","2018/08/06 13:59:18","新北市土城區忠義路22號","121.44033","24.9702533333333","6501300","土城區"
"236012","270-VK","2018/08/06 13:59:14","新北市土城區學府路二段168號","121.446068333333","24.978795","6501300","土城區"
"236032","271-VK","2018/08/06 13:59:23","新北市土城區城林路6巷80號","121.43854","24.9798183333333","6501300","土城區"
"236016","401-BY","2018/08/06 13:59:14","新北市土城區城林路6巷80號","121.438485","24.9797783333333","6501300","土城區"
"236005","498-BY","2018/08/06 13:59:23","新北市土城區中央路一段365巷8號","121.443563333333","24.98087","6501300","土城區"
"236057","912-UM","2018/08/06 13:59:23","新北市土城區中央路三段254-2號","121.427455","24.96413","6501300","土城區"
"236045","913-UM","2018/08/06 13:59:18","新北市土城區明德路一段365-1號","121.453573333333","24.979065","6501300","土城區"
"236060","915-UM","2018/08/06 13:59:08","新北市土城區城林路6巷80號","121.438278333333","24.97955","6501300","土城區"
"236054","AAC-216","2018/08/06 13:59:12","新北市土城區城林路6巷80號","121.438396666667","24.9798516666667","6501300","土城區"
"221010","269-BY","2018/08/06 13:59:27","新北市汐止區八連路二段619號","121.620868333333","25.1115716666667","6501100","汐止區"
"221032","280-BY","2018/08/06 13:59:14","新北市汐止區汐萬路一段256巷1號","121.651991666667","25.0748333333333","6501100","汐止區"
"220027","145-BY","2018/08/06 13:59:20","新北市板橋區民權路202巷7弄25號","121.459081666667","25.0149866666667","6500100","板橋區"
"220028","200-UY","2018/08/06 13:59:14","新北市板橋區大觀路二段文和巷67號","121.44366","24.998705","6500100","板橋區"
"220030","610-BX","2018/08/06 13:59:21","新北市板橋區篤行路二段136號","121.42978","24.98845","6500100","板橋區"
"220050","245-BX","2018/08/06 13:58:47","新北市板橋區文化路二段182巷17號","121.472336666667","25.02677","6500100","板橋區"
"220004","276-BY","2018/08/06 13:59:24","新北市板橋區信義路147號","121.45814","24.99298","6500100","板橋區"
"220019","283-VK","2018/08/06 13:59:21","新北市板橋區重慶路245巷52弄2號","121.46542","25.0006416666667","6500100","板橋區"
"220043","285-UM","2018/08/06 13:59:14","新北市板橋區光武街6號","121.467998333333","25.0250516666667","6500100","板橋區"
"220001","285-VK","2018/08/06 13:59:29","新北市板橋區中山路二段89巷48號","121.47372","25.0172533333333","6500100","板橋區"
"220031","286-VK","2018/08/06 13:59:24","新北市板橋區大觀路一段38巷170弄1號","121.441926666667","25.004615","6500100","板橋區"
"220029","287-VK","2018/08/06 13:59:23","新北市板橋區光華街24巷1號","121.453966666667","25.0122766666667","6500100","板橋區"
"220039","288-VK","2018/08/06 13:59:21","新北市板橋區互助街25巷9號","121.463256666667","25.0270566666667","6500100","板橋區"
"220009","293-UM","2018/08/06 13:59:16","新北市板橋區永豐街211號","121.476645","25.0211416666667","6500100","板橋區"
"220010","295-UM","2018/08/06 13:59:13","新北市板橋區三民路二段228號","121.47869","25.01119","6500100","板橋區"
"220032","296-UM","2018/08/06 13:59:20","新北市板橋區大觀路三段5-4號","121.43276","24.995895","6500100","板橋區"
"220023","303-R5","2018/08/06 13:59:11","新北市板橋區大智街67號","121.453706666667","25.0155183333333","6500100","板橋區"
"220041","307-R5","2018/08/06 13:59:17","新北市板橋區文化路一段104巷1弄24號","121.465496666667","25.01806","6500100","板橋區"
"220047","317-R6","2018/08/06 13:59:08","新北市板橋區民有街52號","121.465746666667","25.0260566666667","6500100","板橋區"
"220012","486-VK","2018/08/06 13:59:22","新北市板橋區縣民大道二段106號","121.46689","25.0154716666667","6500100","板橋區"
"220037","491-VK","2018/08/06 13:59:15","新北市板橋區民生路二段210-1號","121.469565","25.0214416666667","6500100","板橋區"
"220104","560-BX","2018/08/06 13:59:15","新北市板橋區中正路339號","121.45475","25.0203833333333","6500100","板橋區"
"220052","561-BX","2018/08/06 13:59:22","新北市板橋區介壽街102號","121.470245","25.01825","6500100","板橋區"
"220011","609-BX","2018/08/06 13:59:24","新北市板橋區中山路二段125號","121.475081666667","25.0164266666667","6500100","板橋區"
"220040","637-BX","2018/08/06 13:59:17","新北市板橋區大同街36號","121.47834","25.027445","6500100","板橋區"
"220005","686-BX","2018/08/06 13:59:19","新北市板橋區重慶路182號","121.462481666667","25.0034716666667","6500100","板橋區"
"220025","687-BX","2018/08/06 13:59:22","新北市板橋區大觀路二段174巷139號","121.441345","25.0023983333333","6500100","板橋區"
"220042","689-BX","2018/08/06 13:59:27","新北市板橋區民生路三段110號","121.466403333333","25.0261983333333","6500100","板橋區"
"220002","741-BX","2018/08/06 13:59:24","新北市板橋區實踐路102號","121.463935","25.00475","6500100","板橋區"
"220051","KEA-2699","2018/08/06 13:59:09","新北市板橋區懷德街233巷1號","121.480696666667","25.0287733333333","6500100","板橋區"
"220014","829-TW","2018/08/06 13:59:15","新北市板橋區三民路二段正隆巷14號","121.477923333333","25.0128683333333","6500100","板橋區"
"220016","830-TW","2018/08/06 13:59:27","新北市板橋區中山路二段465巷54號","121.481231666667","25.021715","6500100","板橋區"
"220045","831-TW","2018/08/06 13:59:17","新北市板橋區莒光路159巷1號","121.473611666667","25.0241633333333","6500100","板橋區"
"220038","833-TW","2018/08/06 13:59:29","新北市板橋區文化路二段441巷2弄1號","121.47464","25.0334183333333","6500100","板橋區"
"220022","895-R6","2018/08/06 13:59:15","新北市板橋區南雅南路一段121號","121.455173333333","25.00467","6500100","板橋區"
"220021","985-R7","2018/08/06 13:59:14","新北市板橋區館前西路195號","121.455196666667","25.00834","6500100","板橋區"
"220046","AAC-210","2018/08/06 13:59:13","新北市板橋區國光路199號","121.46174","25.018655","6500100","板橋區"
"220018","AAC-253","2018/08/06 13:59:21","新北市板橋區四川路一段268號","121.459016666667","25.00112","6500100","板橋區"
"235032","KEA-2873","2018/08/06 13:59:23","新北市中和區安邦街95號","121.497263333333","24.99614","6500300","中和區"
"235025","KEA-2875","2018/08/06 13:59:06","新北市中和區民有街64號","121.47602","25.0043866666667","6500300","中和區"
