"lineid","car","time","location","longitude","latitude","cityid","cityname"
"234044","148-BY","2018/08/06 14:09:15","新北市永和區永元路6號","121.521981666667","25.0001333333333","6500400","永和區"
"234005","207-UY","2018/08/06 14:09:09","新北市中和區中和路300號","121.508756666667","24.9998216666667","6500400","永和區"
"234078","298-R6","2018/08/06 14:09:16","新北市永和區國中路86巷1號","121.524556666667","25.0061333333333","6500400","永和區"
"234062","337-UY","2018/08/06 14:09:25","新北市永和區永利路146號","121.522273333333","25.0027783333333","6500400","永和區"
"234084","338-UY","2018/08/06 14:09:27","新北市永和區中正路636號","121.516926666667","25.0081533333333","6500400","永和區"
"234068","552-UM","2018/08/06 14:09:21","新北市永和區大新街71巷1號","121.517395","25.0082233333333","6500400","永和區"
"234036","553-UM","2018/08/06 14:09:19","新北市永和區成功路一段76號","121.526661666667","25.00335","6500400","永和區"
"234015","745-BX","2018/08/06 14:09:08","新北市永和區仁愛路18號","121.51482","25.01365","6500400","永和區"
"234028","746-BX","2018/08/06 14:09:17","新北市永和區民生路22巷27號","121.521195","24.9970066666667","6500400","永和區"
"234052","KEA-2590","2018/08/06 14:09:22","新北市永和區環河東路一段122號","121.520405","25.0154116666667","6500400","永和區"
"234012","KEA-2591","2018/08/06 14:09:13","新北市永和區永貞路407號","121.507721666667","25.0092716666667","6500400","永和區"
"234060","AAD-866","2018/08/06 14:09:13","新北市永和區安樂路100巷7號","121.514326666667","24.999315","6500400","永和區"
"234040","862-TW","2018/08/06 14:09:27","新北市永和區雙和街60號","121.509078333333","25.0034266666667","6500400","永和區"
"234048","863-TW","2018/08/06 14:09:25","新北市永和區環河西路二段47號","121.507186666667","25.01551","6500400","永和區"
"234025","9371-KE","2018/08/06 14:09:13","新北市永和區安樂路451號","121.514301666667","25.00496","6500400","永和區"
"234010","9373-KE","2018/08/06 14:09:24","新北市永和區仁愛路352巷112弄11號","121.500935","25.00853","6500400","永和區"
"248015","026-BX","2018/08/06 14:09:11","新北市五股區成泰路三段543巷56號","121.449581666667","25.10312","6501500","五股區"
"248007","095-VK","2018/08/06 14:09:09","新北市五股區中興路一段118巷13號","121.465883333333","25.0741466666667","6501500","五股區"
"248019","225-UY","2018/08/06 14:08:13","新北市五股區凌雲路三段57號","121.425323333333","25.1250216666667","6501500","五股區"
"248011","247-BX","2018/08/06 14:09:10","新北市五股區工商路18巷23弄20號","121.43993","25.0843583333333","6501500","五股區"
"248003","677-BX","2018/08/06 14:09:25","新北市五股區工商路148號","121.4339","25.0871183333333","6501500","五股區"
"248001","678-BX","2018/08/06 14:09:21","新北市五股區成泰路三段577巷77號","121.44977","25.1036866666667","6501500","五股區"
"248009","682-TV","2018/08/06 14:09:27","新北市五股區水碓一路23號","121.430661666667","25.0713633333333","6501500","五股區"
"234022","9380-KE","2018/08/06 14:09:18","新北市永和區博愛街32巷13號","121.518988333333","25.015375","6500400","永和區"
"234076","969-R7","2018/08/06 14:09:17","新北市永和區民有街75巷10弄47號","121.51941","24.996135","6500400","永和區"
"234072","AAC-211","2018/08/06 14:09:13","新北市永和區豫溪街156-1號","121.522791666667","25.0097716666667","6500400","永和區"
"234066","AAC-212","2018/08/06 14:09:28","新北市永和區保平路236巷7弄1號","121.508835","25.0059966666667","6500400","永和區"
"234001","AAC-295","2018/08/06 14:09:28","新北市永和區中正路706號","121.516153333333","25.0098733333333","6500400","永和區"
"243005","AAD-798","2018/08/06 14:09:15","新北市泰山區台麗街16巷12號","121.424273333333","25.0376466666667","6501600","泰山區"
"243001","297-R6","2018/08/06 14:09:27","新北市泰山區楓樹街15巷3-2號","121.43482","25.0630466666667","6501600","泰山區"
"243008","KEA-2801","2018/08/06 14:09:23","新北市泰山區明志路二段343號","121.425451666667","25.0445633333333","6501600","泰山區"
"243007","421-VK","2018/08/06 14:09:10","新北市泰山區明志路一段440號","121.430706666667","25.0560466666667","6501600","泰山區"
"243003","KEA-2215","2018/08/06 14:09:10","新北市泰山區明志路二段364號","121.425566666667","25.0449683333333","6501600","泰山區"
"243002","KEA-2216","2018/08/06 14:09:23","新北市泰山區明志路一段481號","121.43108","25.0554233333333","6501600","泰山區"
"243004","646-TV","2018/08/06 14:09:23","新北市泰山區辭修路36巷8弄5號","121.427901666667","25.0585666666667","6501600","泰山區"
"243006","680-BX","2018/08/06 14:09:22","新北市泰山區泰林路二段478-1號","121.425136666667","25.064125","6501600","泰山區"
"231002","002-UM","2018/08/06 14:09:17","新北市新店區中正路505號","121.533615","24.98473","6500600","新店區"
"231027","0293-UT","2018/08/06 14:09:25","新北市新店區光明街138巷13弄7號","121.540215","24.9615233333333","6500600","新店區"
"231028","046-UY","2018/08/06 14:09:25","新北市新店區安和路三段57號","121.518003333333","24.9829583333333","6500600","新店區"
"231001","047-UY","2018/08/06 14:09:19","新北市新店區中華路50號","121.539741666667","24.96839","6500600","新店區"
"231005","106-UY","2018/08/06 14:09:13","新北市新店區中興路三段298號","121.542338333333","24.9850616666667","6500600","新店區"
"231010","107-UY","2018/08/06 14:09:15","新北市新店區安康路一段351-1號","121.519598333333","24.9634083333333","6500600","新店區"
"231019","108-UY","2018/08/06 14:09:28","新北市新店區自強路117號","121.54613","24.9231283333333","6500600","新店區"
"231036","110-UY","2018/08/06 14:09:15","新北市新店區安祥路110巷14號","121.474573333333","24.9566016666667","6500600","新店區"
"231011","187-VK","2018/08/06 14:09:09","新北市新店區五峰路137號","121.545088333333","24.9658666666667","6500600","新店區"
"231023","KEA-2219","2018/08/06 14:09:24","新北市新店區文中路40號","121.539576666667","24.9565516666667","6500600","新店區"
"231003","268-BY","2018/08/06 14:09:26","新北市新店區北宜路一段3號","121.538353333333","24.958555","6500600","新店區"
"231018","278-BY","2018/08/06 14:09:20","新北市新店區中央四街45號","121.528035","24.9750066666667","6500600","新店區"
"231014","AAD-862","2018/08/06 14:09:08","新北市新店區北宜路二段446號","121.569656666667","24.956155","6500600","新店區"
"231038","3712-VJ","2018/08/06 14:09:09","新北市新店區安康路一段291巷18號","121.52229","24.9625683333333","6500600","新店區"
"231037","4716-K9","2018/08/06 14:09:21","新北市新店區安康路三段207巷15號","121.488435","24.95086","6500600","新店區"
"231025","4715-K9","2018/08/06 14:09:22","新北市新店區二十張路105巷16號","121.536861666667","24.979015","6500600","新店區"
"231013","513-UM","2018/08/06 14:09:21","新北市新店區北新路三段105巷2號","121.540731666667","24.98218","6500600","新店區"
"231034","616-UM","2018/08/06 14:09:12","新北市新店區車子路11號","121.503045","24.9520783333333","6500600","新店區"
"231006","617-UM","2018/08/06 14:09:27","新北市新店區北宜路二段168號","121.558263333333","24.9541066666667","6500600","新店區"
"231030","619-UM","2018/08/06 14:09:07","新北市新店區安興路7-1號","121.514991666667","24.9685483333333","6500600","新店區"
"231035","719-UM","2018/08/06 14:09:08","新北市新店區安和路一段52巷2-1號","121.51771","24.9663283333333","6500600","新店區"
"231031","720-UM","2018/08/06 14:09:20","新北市新店區永業路51巷2號","121.53192","24.9547316666667","6500600","新店區"
"231029","897-TW","2018/08/06 14:09:24","新北市新店區安康路二段107巷1號","121.5127","24.9622033333333","6500600","新店區"
"231004","899-TW","2018/08/06 14:09:13","新北市新店區北新路二段156號","121.54296","24.975485","6500600","新店區"
"231024","AKT-0513","2018/08/06 14:09:14","新北市新店區安康路二段414巷2號","121.49588","24.9577983333333","6500600","新店區"
"235030","003-UY","2018/08/06 14:09:15","新北市中和區廣福路32號","121.504585","25.00234","6500300","中和區"
"235028","005-UY","2018/08/06 14:09:15","新北市中和區連城路38號","121.498443333333","25.0020333333333","6500300","中和區"
"235027","006-UY","2018/08/06 14:09:29","新北市中和區連城路249巷24號","121.49401","24.9959883333333","6500300","中和區"
"235020","096-UM","2018/08/06 14:09:23","新北市中和區中正路1205號","121.480218333333","25.0100933333333","6500300","中和區"
"235029","098-UM","2018/08/06 14:09:24","新北市中和區中山路二段2巷3弄17號","121.504236666667","25.0055533333333","6500300","中和區"
"235004","150-BY","2018/08/06 14:09:22","新北市中和區保健路44巷31號","121.508766666667","24.9963766666667","6500300","中和區"
"235022","151-BY","2018/08/06 14:09:26","新北市中和區連城路523巷9弄4號","121.48177","24.9944516666667","6500300","中和區"
"235019","183-VK","2018/08/06 14:09:24","新北市中和區德光路50號","121.469876666667","25.004005","6500300","中和區"
"235002","185-VK","2018/08/06 14:09:23","新北市中和區大仁街10巷18號","121.51869","24.992455","6500300","中和區"
"235013","186-VK","2018/08/06 14:09:24","新北市中和區景新街183號","121.50718","24.9952233333333","6500300","中和區"
"235031","255-BX","2018/08/06 14:09:28","新北市中和區中正路711號","121.484495","24.99854","6500300","中和區"
"235008","293-VK","2018/08/06 14:09:20","新北市中和區中興街214號","121.499605","24.9900933333333","6500300","中和區"
"235036","301-VK","2018/08/06 14:09:07","新北市中和區中山路二段138號","121.502083333333","25.0030816666667","6500300","中和區"
"235007","352-BY","2018/08/06 14:09:23","新北市中和區景平路4號","121.524245","24.990475","6500300","中和區"
"235006","KEA-2878","2018/08/06 14:09:06","新北市中和區自強路15巷1號","121.520888333333","24.9935433333333","6500300","中和區"
"247009","KEA-2869","2018/08/06 14:09:09","新北市蘆洲區民族路36號","121.47654","25.0843083333333","6501400","蘆洲區"
"235014","4979-A6","2018/08/06 14:09:20","新北市中和區復興路249巷11弄3號","121.50361","24.9897483333333","6500300","中和區"
"235033","4980-A6","2018/08/06 14:09:24","新北市中和區中和路217巷20號","121.504721666667","25.0003983333333","6500300","中和區"
"235034","558-UM","2018/08/06 14:09:21","新北市中和區中和路86號","121.501201666667","25.0006","6500300","中和區"
"235009","565-BX","2018/08/06 14:09:25","新北市中和區景新街467巷35弄26號","121.513823333333","24.988845","6500300","中和區"
"235018","640-BX","2018/08/06 14:09:18","新北市中和區民德路150號","121.468655","25.00023","6500300","中和區"
"235024","647-TV","2018/08/06 14:09:24","新北市中和區中山路三段97號","121.475236666667","25.0058883333333","6500300","中和區"
"235011","732-UM","2018/08/06 14:09:21","新北市中和區興南路二段32巷5號","121.507105","24.98546","6500300","中和區"
"235010","733-UM","2018/08/06 14:09:28","新北市中和區忠孝街1巷48號","121.50848","24.9842516666667","6500300","中和區"
"235035","783-BX","2018/08/06 14:09:06","新北市中和區建康路2-2號","121.486083333333","25.0001166666667","6500300","中和區"
"235026","800-TS","2018/08/06 14:09:15","新北市中和區中山路二段366巷36號","121.491826666667","25.0050766666667","6500300","中和區"
"235021","801-TS","2018/08/06 14:09:25","新北市中和區民利街66號","121.478623333333","24.9985633333333","6500300","中和區"
"235005","802-TS","2018/08/06 14:09:16","新北市中和區中安街178巷2號","121.510971666667","24.9995133333333","6500300","中和區"
"235016","805-TS","2018/08/06 14:09:17","新北市中和區興南路二段114巷21弄2號","121.503675","24.984435","6500300","中和區"
"235012","896-TW","2018/08/06 14:09:18","新北市中和區華新街133號","121.506735","24.9818683333333","6500300","中和區"
"235017","900-TW","2018/08/06 14:09:17","新北市中和區民德路260號","121.467915","24.996855","6500300","中和區"
"235015","157-BY","2018/08/06 14:09:22","新北市中和區和平街6號","121.510241666667","24.98987","6500300","中和區"
"235001","AAC-213","2018/08/06 14:09:05","新北市中和區秀朗路三段58-1號","121.526003333333","24.9951833333333","6500300","中和區"
"220105","013-TV","2018/08/06 14:09:17","新北市板橋區雙十路三段10巷9號","121.472075","25.0307766666667","6500100","板橋區"
"220003","015-TV","2018/08/06 14:09:10","新北市板橋區新民街13號","121.463808333333","25.0099266666667","6500100","板橋區"
"220013","072-UY","2018/08/06 14:09:25","新北市板橋區民族路219巷12號","121.469528333333","25.0078383333333","6500100","板橋區"
"220034","073-UY","2018/08/06 14:09:13","新北市板橋區中正路216巷22號","121.456781666667","25.0185833333333","6500100","板橋區"
"220017","AAD-861","2018/08/06 14:09:21","新北市板橋區貴興路8號","121.457718333333","25.0043483333333","6500100","板橋區"
"247023","893-R6","2018/08/06 14:09:26","新北市蘆洲區光榮路112號","121.464326666667","25.0893016666667","6501400","蘆洲區"
"247013","546-UM","2018/08/06 14:09:15","新北市蘆洲區忠孝路86號","121.471546666667","25.0857516666667","6501400","蘆洲區"
"247021","500-BY","2018/08/06 14:09:23","新北市蘆洲區三民路156號","121.470346666667","25.0880366666667","6501400","蘆洲區"
"247011","339-TH","2018/08/06 14:09:17","新北市蘆洲區信義路254號","121.478296666667","25.0866466666667","6501400","蘆洲區"
"247003","337-TH","2018/08/06 14:09:11","新北市蘆洲區中華街6巷5號","121.462398333333","25.0825483333333","6501400","蘆洲區"
"247005","336-TH","2018/08/06 14:09:18","新北市蘆洲區九芎街10號","121.467411666667","25.0788033333333","6501400","蘆洲區"
"247017","057-VK","2018/08/06 14:09:19","新北市蘆洲區復興路111-5號","121.476653333333","25.0884316666667","6501400","蘆洲區"
"247007","056-VK","2018/08/06 14:09:12","新北市蘆洲區永安南路一段142巷66號","121.471681666667","25.0777933333333","6501400","蘆洲區"
"247015","053-VK","2018/08/06 14:09:09","新北市蘆洲區中正路185巷44號","121.467365","25.084895","6501400","蘆洲區"
"247001","002-UY","2018/08/06 14:09:21","新北市蘆洲區永平街31號","121.45851","25.090955","6501400","蘆洲區"
"247019","001-UY","2018/08/06 14:09:18","新北市蘆洲區民族路426巷64號","121.472693333333","25.09399","6501400","蘆洲區"
"235023","251-BX","2018/08/06 14:09:20","新北市中和區圓通路294巷17-5號","121.48865","24.9904883333333","6500300","中和區"
"253003","6232-TK","2018/08/06 14:09:26","新北市石門區內石門62號","121.577973333333","25.26585","6502200","石門區"
"253001","6251-TK","2018/08/06 14:09:20","新北市石門區八甲73號","121.529725","25.263125","6502200","石門區"
"253002","637-UY","2018/08/06 14:09:04","新北市石門區豬槽潭12號","121.55296","25.2603983333333","6502200","石門區"
"253004","8270-PC","2018/08/06 14:09:21","新北市石門區阿里磅26號","121.58966","25.2596266666667","6502200","石門區"
"207002","749-BX","2018/08/06 14:09:21","新北市萬里區溪底里瑞泉路2-2號","121.61065","25.1441116666667","6502800","萬里區"
"252005","073-UM","2018/08/06 14:09:10","新北市三芝區橫山里橫山33號","121.541758333333","25.25876","6502100","三芝區"
"207001","662-BX","2018/08/06 14:09:25","新北市萬里區磺潭里清水18號","121.637895","25.1977383333333","6502800","萬里區"
"236064","105-UM","2018/08/06 14:09:22","新北市土城區明德路一段188號","121.462106666667","24.9780083333333","6501300","土城區"
"236040","107-UM","2018/08/06 14:09:25","新北市土城區中央路一段330號","121.44316","24.98145","6501300","土城區"
"236074","166-UM","2018/08/06 14:09:11","新北市土城區永和街5號","121.434588333333","24.9649783333333","6501300","土城區"
"236029","253-BX","2018/08/06 14:09:17","新北市土城區興城路79號","121.439885","24.970755","6501300","土城區"
"236024","269-VK","2018/08/06 14:09:18","新北市土城區承天路41號","121.438743333333","24.9640983333333","6501300","土城區"
"236012","270-VK","2018/08/06 14:09:14","新北市土城區青雲路39巷7號","121.460313333333","24.98757","6501300","土城區"
"236032","271-VK","2018/08/06 14:09:23","新北市土城區青雲路449號","121.458815","24.9751783333333","6501300","土城區"
"236016","401-BY","2018/08/06 14:09:14","新北市土城區城林路6巷80號","121.438186666667","24.9796933333333","6501300","土城區"
"236005","498-BY","2018/08/06 14:09:23","新北市土城區中央路一段29號","121.448273333333","24.9908983333333","6501300","土城區"
"236057","912-UM","2018/08/06 14:09:23","新北市土城區中央路四段170號","121.416758333333","24.9581116666667","6501300","土城區"
"236045","913-UM","2018/08/06 14:09:18","新北市土城區明德路一段365-1號","121.453563333333","24.9790166666667","6501300","土城區"
"236060","915-UM","2018/08/06 14:09:28","新北市土城區金城路二段376號","121.463031666667","24.9855383333333","6501300","土城區"
"236054","AAC-216","2018/08/06 14:09:12","新北市土城區城林路6巷80號","121.43839","24.979845","6501300","土城區"
"221010","269-BY","2018/08/06 14:09:08","新北市汐止區長青路210巷61號","121.614498333333","25.116085","6501100","汐止區"
"221032","280-BY","2018/08/06 14:09:14","新北市汐止區龍安路44號","121.654201666667","25.0635866666667","6501100","汐止區"
"220027","145-BY","2018/08/06 14:09:12","新北市板橋區民權路202巷12弄15號","121.461131666667","25.0153783333333","6500100","板橋區"
"220028","200-UY","2018/08/06 14:09:21","新北市板橋區大觀路二段3巷26號","121.44805","25.0036666666667","6500100","板橋區"
"220030","610-BX","2018/08/06 14:09:21","新北市板橋區大觀路三段263號","121.429083333333","24.9920316666667","6500100","板橋區"
"220050","245-BX","2018/08/06 14:09:27","新北市板橋區莊敬路208巷4弄8號","121.471281666667","25.021365","6500100","板橋區"
"220004","276-BY","2018/08/06 14:09:24","新北市板橋區信義路74巷1弄15號","121.45761","24.9927816666667","6500100","板橋區"
"220019","283-VK","2018/08/06 14:09:21","新北市板橋區大豐街4號","121.462426666667","25.001445","6500100","板橋區"
"220043","285-UM","2018/08/06 14:09:14","新北市板橋區光武街136巷3號","121.465468333333","25.03031","6500100","板橋區"
"220001","285-VK","2018/08/06 14:09:29","新北市板橋區懷仁街16號","121.476016666667","25.01982","6500100","板橋區"
"220031","286-VK","2018/08/06 14:09:24","新北市板橋區大觀路二段174巷198號","121.442405","25.003975","6500100","板橋區"
"220029","287-VK","2018/08/06 14:09:21","新北市板橋區南雅西路二段146號","121.451893333333","25.0131166666667","6500100","板橋區"
"220039","288-VK","2018/08/06 14:09:21","新北市板橋區四維路279巷23號","121.462121666667","25.0282516666667","6500100","板橋區"
"220009","293-UM","2018/08/06 14:09:18","新北市板橋區中山路二段288巷2弄3號","121.479698333333","25.0182066666667","6500100","板橋區"
"220010","295-UM","2018/08/06 14:09:13","新北市板橋區三民路二段居仁巷1弄55-1號","121.481168333333","25.013695","6500100","板橋區"
"220032","296-UM","2018/08/06 14:09:20","新北市板橋區溪崑二街16巷14-1號","121.428306666667","24.9919966666667","6500100","板橋區"
"220023","303-R5","2018/08/06 14:09:11","新北市板橋區館前西路128號","121.456591666667","25.007935","6500100","板橋區"
"220041","307-R5","2018/08/06 14:09:08","新北市板橋區文化路二段225巷60弄73號","121.469016666667","25.0300916666667","6500100","板橋區"
"220047","317-R6","2018/08/06 14:09:08","新北市板橋區自由路51巷6號","121.465138333333","25.0235683333333","6500100","板橋區"
"220012","486-VK","2018/08/06 14:09:22","新北市板橋區板新路1號","121.47553","25.01235","6500100","板橋區"
"220037","491-VK","2018/08/06 14:09:15","新北市板橋區莊敬路38號","121.472743333333","25.0270766666667","6500100","板橋區"
"220104","560-BX","2018/08/06 14:09:24","新北市板橋區中正路381號","121.45413","25.0215516666667","6500100","板橋區"
"220052","561-BX","2018/08/06 14:09:15","新北市板橋區文化路一段188巷9弄108號","121.468335","25.0194233333333","6500100","板橋區"
"220011","609-BX","2018/08/06 14:09:24","新北市板橋區三民路二段120號","121.47924","25.0164333333333","6500100","板橋區"
"220040","637-BX","2018/08/06 14:09:17","新北市板橋區縣民大道三段247巷8號","121.481721666667","25.0262366666667","6500100","板橋區"
"220005","686-BX","2018/08/06 14:09:19","新北市板橋區重慶路366號","121.464265","24.9971016666667","6500100","板橋區"
"220025","687-BX","2018/08/06 14:09:27","新北市板橋區龍興街71巷2-1號","121.44384","25.0019716666667","6500100","板橋區"
"220042","689-BX","2018/08/06 14:09:24","新北市板橋區民生路三段203號","121.465336666667","25.0279116666667","6500100","板橋區"
"220002","741-BX","2018/08/06 14:09:24","新北市板橋區實踐路30號","121.463365","25.0072783333333","6500100","板橋區"
"220051","KEA-2699","2018/08/06 14:09:21","新北市板橋區田單街49巷1弄8號","121.482871666667","25.02869","6500100","板橋區"
"220014","829-TW","2018/08/06 14:09:24","新北市板橋區民享街116巷2弄16號","121.477463333333","25.0155283333333","6500100","板橋區"
"220016","830-TW","2018/08/06 14:09:27","新北市板橋區翠華街6巷56號","121.481348333333","25.0250733333333","6500100","板橋區"
"220045","831-TW","2018/08/06 14:09:17","新北市板橋區大同街8巷31號","121.477573333333","25.02602","6500100","板橋區"
"220038","833-TW","2018/08/06 14:09:09","新北市板橋區文化路二段332號","121.472776666667","25.0302583333333","6500100","板橋區"
"220022","895-R6","2018/08/06 14:09:18","新北市板橋區林園街16號","121.453971666667","25.0097816666667","6500100","板橋區"
"220021","985-R7","2018/08/06 14:09:14","新北市板橋區民權路264號","121.457796666667","25.01537","6500100","板橋區"
"220046","AAC-210","2018/08/06 14:09:13","新北市板橋區幸福路60巷65號","121.460121666667","25.0217483333333","6500100","板橋區"
"220018","AAC-253","2018/08/06 14:09:21","新北市板橋區忠孝路44號","121.460535","25.0019033333333","6500100","板橋區"
"235032","KEA-2873","2018/08/06 14:09:23","新北市中和區連勝街55號","121.49792","24.9971366666667","6500300","中和區"
"235025","KEA-2875","2018/08/06 14:09:06","新北市中和區員山路150-27號","121.481363333333","24.998145","6500300","中和區"
