"lineid","car","time","location","longitude","latitude","cityid","cityname"
"234005","207-UY","2018/08/06 14:19:09","新北市永和區保平路209號","121.508713333333","25.00493","6500400","永和區"
"234078","298-R6","2018/08/06 14:19:16","新北市永和區福和路7巷10弄7號","121.52483","25.0075733333333","6500400","永和區"
"234062","337-UY","2018/08/06 14:19:25","新北市永和區得和路110號","121.518355","25.000155","6500400","永和區"
"234084","338-UY","2018/08/06 14:19:19","新北市永和區永和路二段91號","121.514776666667","25.01146","6500400","永和區"
"234068","552-UM","2018/08/06 14:19:27","新北市永和區永寧街115巷1號","121.518355","25.006175","6500400","永和區"
"234036","553-UM","2018/08/06 14:19:19","新北市永和區成功路一段93巷4號","121.527275","25.002665","6500400","永和區"
"234015","745-BX","2018/08/06 14:19:28","新北市永和區仁愛路91號","121.513036666667","25.0130816666667","6500400","永和區"
"234028","746-BX","2018/08/06 14:19:11","新北市永和區民權路49巷33號","121.521806666667","24.997545","6500400","永和區"
"234052","KEA-2590","2018/08/06 14:19:22","新北市永和區博愛街19巷1號","121.517426666667","25.0159","6500400","永和區"
"234060","AAD-866","2018/08/06 14:19:14","新北市永和區得和路2號","121.514938333333","25.0007233333333","6500400","永和區"
"234040","862-TW","2018/08/06 14:19:12","新北市中和區中安街188號","121.511265","24.9994183333333","6500400","永和區"
"234048","863-TW","2018/08/06 14:19:13","新北市永和區新生路26號","121.508596666667","25.0161766666667","6500400","永和區"
"234025","9371-KE","2018/08/06 14:19:13","新北市永和區安樂路198巷安和二弄2號","121.515495","25.0018866666667","6500400","永和區"
"234010","9373-KE","2018/08/06 14:19:24","新北市永和區仁愛路352巷122弄10號","121.50077","25.00877","6500400","永和區"
"248015","026-BX","2018/08/06 14:19:11","新北市五股區成洲五路12號","121.452333333333","25.1016133333333","6501500","五股區"
"248007","095-VK","2018/08/06 14:19:09","新北市五股區中興路二段57-6號","121.460361666667","25.0752616666667","6501500","五股區"
"248019","225-UY","2018/08/06 14:08:13","新北市五股區凌雲路三段57號","121.425323333333","25.1250216666667","6501500","五股區"
"248011","247-BX","2018/08/06 14:19:10","新北市五股區工商路83號","121.437996666667","25.0849183333333","6501500","五股區"
"248013","261-SL","2018/08/06 14:19:23","新北市五股區民義路一段117號","121.433343333333","25.0869683333333","6501500","五股區"
"248003","677-BX","2018/08/06 14:19:25","新北市五股區五福路39號","121.433478333333","25.0895866666667","6501500","五股區"
"248001","678-BX","2018/08/06 14:19:21","新北市五股區成泰路四段6-2號","121.45297","25.1063633333333","6501500","五股區"
"248009","682-TV","2018/08/06 14:19:07","新北市五股區水碓一路23號","121.430606666667","25.0713316666667","6501500","五股區"
"234076","969-R7","2018/08/06 14:19:17","新北市永和區民族街81巷62號","121.520186666667","24.9965383333333","6500400","永和區"
"234072","AAC-211","2018/08/06 14:19:13","新北市永和區環河東路二段54-3號","121.522973333333","25.0115533333333","6500400","永和區"
"234066","AAC-212","2018/08/06 14:19:09","新北市永和區保平路236巷15弄15號","121.508085","25.0062","6500400","永和區"
"234001","AAC-295","2018/08/06 14:19:07","新北市永和區中正路620號","121.51695","25.0078366666667","6500400","永和區"
"243005","AAD-798","2018/08/06 14:19:15","新北市泰山區明志路三段145巷34弄1號","121.426431666667","25.03943","6501600","泰山區"
"243001","297-R6","2018/08/06 14:19:07","新北市泰山區和平街13巷66號","121.434506666667","25.0662733333333","6501600","泰山區"
"243008","KEA-2801","2018/08/06 14:19:10","新北市泰山區明志路三段155號","121.424778333333","25.0398016666667","6501600","泰山區"
"243007","421-VK","2018/08/06 14:19:10","新北市泰山區公園路16號","121.429581666667","25.0542116666667","6501600","泰山區"
"243003","KEA-2215","2018/08/06 14:19:10","新北市泰山區貴子路17號","121.42625","25.0417016666667","6501600","泰山區"
"243002","KEA-2216","2018/08/06 14:19:23","新北市泰山區明志路二段9號","121.43015","25.0536083333333","6501600","泰山區"
"243004","646-TV","2018/08/06 14:19:24","新北市泰山區仁義路220巷10號","121.432886666667","25.0536683333333","6501600","泰山區"
"243006","680-BX","2018/08/06 14:19:27","新北市泰山區泰林路二段170號","121.433885","25.0605183333333","6501600","泰山區"
"231002","002-UM","2018/08/06 14:19:17","新北市新店區中央路2號","121.53394","24.9791666666667","6500600","新店區"
"231027","0293-UT","2018/08/06 14:19:28","新北市新店區光明街314號","121.540633333333","24.96511","6500600","新店區"
"231028","046-UY","2018/08/06 14:19:22","新北市新店區安和路二段218號","121.517865","24.9754733333333","6500600","新店區"
"231001","047-UY","2018/08/06 14:19:19","新北市新店區中正路75巷71號","121.543141666667","24.9688516666667","6500600","新店區"
"231005","106-UY","2018/08/06 14:19:13","新北市新店區中興路三段218號","121.54374","24.9826366666667","6500600","新店區"
"231019","108-UY","2018/08/06 14:19:08","新北市新店區新烏路二段136-1號","121.549246666667","24.919435","6500600","新店區"
"231036","110-UY","2018/08/06 14:19:15","新北市新店區安祥路109巷1弄59號","121.477971666667","24.960955","6500600","新店區"
"231011","187-VK","2018/08/06 14:19:09","新北市新店區中興路一段288巷7號","121.546476666667","24.9688633333333","6500600","新店區"
"231023","KEA-2219","2018/08/06 14:19:24","新北市新店區光明街75號","121.538858333333","24.9606683333333","6500600","新店區"
"231003","268-BY","2018/08/06 14:19:06","新北市新店區中興路一段201號","121.543563333333","24.9653866666667","6500600","新店區"
"231018","278-BY","2018/08/06 14:19:20","新北市新店區中央四街27號","121.528778333333","24.9744266666667","6500600","新店區"
"231014","AAD-862","2018/08/06 14:19:08","新北市新店區北宜路三段106號","121.579798333333","24.95045","6500600","新店區"
"231038","3712-VJ","2018/08/06 14:19:17","新北市新店區溪洲路32-1號","121.533293333333","24.9610116666667","6500600","新店區"
"231037","4716-K9","2018/08/06 14:19:21","新北市新店區安康路二段341巷1號","121.496886666667","24.9552183333333","6500600","新店區"
"231013","513-UM","2018/08/06 14:19:21","新北市新店區大豐路53號","121.540003333333","24.9797716666667","6500600","新店區"
"231034","616-UM","2018/08/06 14:19:12","新北市新店區車子路11號","121.503045","24.952075","6500600","新店區"
"231006","617-UM","2018/08/06 14:19:27","新北市新店區北宜路二段599號","121.568165","24.95563","6500600","新店區"
"231030","619-UM","2018/08/06 14:19:27","新北市新店區安民街3巷25號","121.514095","24.9641966666667","6500600","新店區"
"231035","719-UM","2018/08/06 14:19:27","新北市新店區安和路二段117巷10號","121.51837","24.970225","6500600","新店區"
"231031","720-UM","2018/08/06 14:19:20","新北市新店區溪洲路201-1號","121.529571666667","24.9675033333333","6500600","新店區"
"231029","897-TW","2018/08/06 14:19:25","新北市新店區安康路二段189號","121.509395","24.959085","6500600","新店區"
"231004","899-TW","2018/08/06 14:19:13","新北市新店區中正路155號","121.541338333333","24.9718216666667","6500600","新店區"
"231024","AKT-0513","2018/08/06 14:19:14","新北市新店區安民街121巷12號","121.515401666667","24.9691916666667","6500600","新店區"
"235030","003-UY","2018/08/06 14:19:15","新北市中和區中和路102號","121.502655","24.9996716666667","6500300","中和區"
"235028","005-UY","2018/08/06 14:19:15","新北市中和區泰和街32號","121.499438333333","25.0002816666667","6500300","中和區"
"235027","006-UY","2018/08/06 14:19:08","新北市中和區連城路231號","121.494038333333","24.99724","6500300","中和區"
"235020","096-UM","2018/08/06 14:19:19","新北市中和區員山路480號","121.479871666667","25.006775","6500300","中和區"
"235029","098-UM","2018/08/06 14:19:24","新北市中和區福美路242號","121.498695","25.0052333333333","6500300","中和區"
"235004","150-BY","2018/08/06 14:18:22","新北市中和區和平街146號","121.506198333333","24.9919133333333","6500300","中和區"
"235022","151-BY","2018/08/06 14:19:26","新北市中和區和城路一段271巷1號","121.485386666667","24.9920383333333","6500300","中和區"
"235019","183-VK","2018/08/06 14:19:23","新北市中和區中山路三段209號","121.472003333333","25.0063583333333","6500300","中和區"
"235002","185-VK","2018/08/06 14:19:24","新北市中和區大仁街10巷9弄27號","121.519208333333","24.99282","6500300","中和區"
"235013","186-VK","2018/08/06 14:19:24","新北市中和區景新街230巷1號","121.508241666667","24.9941033333333","6500300","中和區"
"235031","255-BX","2018/08/06 14:19:07","新北市中和區新生街233巷10號","121.48441","24.99856","6500300","中和區"
"235008","293-VK","2018/08/06 14:19:20","新北市中和區中興街260號","121.49911","24.9875783333333","6500300","中和區"
"235036","301-VK","2018/08/06 14:19:07","新北市中和區景平路726-2號","121.496686666667","25.0034233333333","6500300","中和區"
"235007","352-BY","2018/08/06 14:19:20","新北市中和區景平路296號","121.513098333333","24.9927633333333","6500300","中和區"
"235006","KEA-2878","2018/08/06 14:19:26","新北市中和區安樂路217巷35弄12號","121.514028333333","24.99767","6500300","中和區"
"247009","KEA-2869","2018/08/06 14:19:09","新北市蘆洲區三民路26巷36號","121.47809","25.0830583333333","6501400","蘆洲區"
"235014","4979-A6","2018/08/06 14:19:20","新北市中和區景安路208巷6號","121.503703333333","24.99116","6500300","中和區"
"235033","4980-A6","2018/08/06 14:19:04","新北市中和區中山路二段178巷1號","121.500543333333","25.0028416666667","6500300","中和區"
"235034","558-UM","2018/08/06 14:19:21","新北市中和區連城路53號","121.4978","25.0016433333333","6500300","中和區"
"235009","565-BX","2018/08/06 14:19:25","新北市中和區景新街383巷30號","121.513576666667","24.99052","6500300","中和區"
"235018","640-BX","2018/08/06 14:19:18","新北市中和區國光街109巷4-1號","121.469925","25.0003666666667","6500300","中和區"
"235024","647-TV","2018/08/06 14:19:24","新北市中和區員山路370號","121.480901666667","25.0039033333333","6500300","中和區"
"235011","732-UM","2018/08/06 14:19:20","新北市中和區和平街54巷1弄1號","121.50859","24.990945","6500300","中和區"
"235010","733-UM","2018/08/06 14:19:28","新北市中和區華新街116號","121.508413333333","24.9827666666667","6500300","中和區"
"235035","783-BX","2018/08/06 14:19:26","新北市中和區連城路511號","121.482213333333","24.9953933333333","6500300","中和區"
"235026","800-TS","2018/08/06 14:19:15","新北市中和區橋安街8號","121.492771666667","25.0040666666667","6500300","中和區"
"235021","801-TS","2018/08/06 14:19:25","新北市中和區員山路423巷7號","121.480488333333","25.0032116666667","6500300","中和區"
"235005","802-TS","2018/08/06 14:19:16","新北市中和區中安街218號","121.511895","24.9989216666667","6500300","中和區"
"235016","805-TS","2018/08/06 14:19:17","新北市中和區興南路二段142巷17弄1號","121.503373333333","24.9832733333333","6500300","中和區"
"235012","896-TW","2018/08/06 14:19:18","新北市中和區華新街109巷22號","121.508456666667","24.9805633333333","6500300","中和區"
"235017","900-TW","2018/08/06 14:19:22","新北市中和區華安街17巷43號","121.467995","24.99841","6500300","中和區"
"235015","157-BY","2018/08/06 14:19:22","新北市中和區景平路241巷31號","121.50879","24.9922533333333","6500300","中和區"
"235001","AAC-213","2018/08/06 14:19:25","新北市中和區秀朗路三段50巷12弄6號","121.5241","24.9952983333333","6500300","中和區"
"220105","013-TV","2018/08/06 14:19:24","新北市板橋區長江路三段24巷3號","121.472516666667","25.03331","6500100","板橋區"
"220003","015-TV","2018/08/06 14:19:10","新北市板橋區館前東路156巷9號","121.464375","25.0071983333333","6500100","板橋區"
"220013","072-UY","2018/08/06 14:19:25","新北市板橋區民族路131號","121.46746","25.0080716666667","6500100","板橋區"
"220034","073-UY","2018/08/06 14:19:13","新北市板橋區中正路250巷93號","121.459498333333","25.0199883333333","6500100","板橋區"
"220017","AAD-861","2018/08/06 14:19:21","新北市板橋區大華街49號","121.45954","25.003565","6500100","板橋區"
"247023","893-R6","2018/08/06 14:19:26","新北市蘆洲區永平街32巷12弄18號","121.459888333333","25.090855","6501400","蘆洲區"
"247013","546-UM","2018/08/06 14:19:15","新北市蘆洲區中山一路196號","121.473763333333","25.0808766666667","6501400","蘆洲區"
"247021","500-BY","2018/08/06 14:19:23","新北市蘆洲區仁愛街180號","121.4677","25.0937983333333","6501400","蘆洲區"
"247011","339-TH","2018/08/06 14:19:16","新北市蘆洲區民權路38巷8號","121.476413333333","25.086565","6501400","蘆洲區"
"247003","337-TH","2018/08/06 14:19:11","新北市蘆洲區中原路12巷12號","121.461048333333","25.0837883333333","6501400","蘆洲區"
"247005","336-TH","2018/08/06 14:19:18","新北市蘆洲區九芎街90巷16-1號","121.46538","25.0805916666667","6501400","蘆洲區"
"247017","057-VK","2018/08/06 14:19:19","新北市蘆洲區民權路120號","121.473441666667","25.0885616666667","6501400","蘆洲區"
"247007","056-VK","2018/08/06 14:19:12","新北市蘆洲區中山一路197巷6弄22號","121.47406","25.0803433333333","6501400","蘆洲區"
"247015","053-VK","2018/08/06 14:19:09","新北市蘆洲區中正路185巷31弄48號","121.467235","25.0829766666667","6501400","蘆洲區"
"247001","002-UY","2018/08/06 14:19:18","新北市蘆洲區永樂街26巷1號","121.458411666667","25.0884616666667","6501400","蘆洲區"
"247019","001-UY","2018/08/06 14:19:18","新北市蘆洲區民族路446-5號","121.472615","25.092245","6501400","蘆洲區"
"235023","251-BX","2018/08/06 14:19:20","新北市中和區圓通路286巷2號","121.491548333333","24.99102","6500300","中和區"
"253003","6232-TK","2018/08/06 14:19:26","新北市石門區內石門62號","121.577966666667","25.26585","6502200","石門區"
"253001","6251-TK","2018/08/06 14:19:20","新北市石門區八甲70-2號","121.531135","25.2699316666667","6502200","石門區"
"253002","637-UY","2018/08/06 14:19:23","新北市石門區大溪墘3號","121.551771666667","25.2818416666667","6502200","石門區"
"253004","8270-PC","2018/08/06 14:19:09","新北市石門區內阿里磅1號","121.592083333333","25.2535516666667","6502200","石門區"
"207002","749-BX","2018/08/06 14:19:21","新北市萬里區溪底里瑞泉路9號","121.603541666667","25.1438483333333","6502800","萬里區"
"252005","073-UM","2018/08/06 14:19:10","新北市三芝區橫山里大坑85-1號","121.52858","25.25806","6502100","三芝區"
"207001","662-BX","2018/08/06 14:19:25","新北市萬里區磺潭里清水18號","121.637928333333","25.19766","6502800","萬里區"
"236064","105-UM","2018/08/06 14:19:22","新北市土城區明德路一段219號","121.463208333333","24.9785516666667","6501300","土城區"
"236040","107-UM","2018/08/06 14:19:25","新北市土城區樂利街3巷7號","121.448368333333","24.9862683333333","6501300","土城區"
"236074","166-UM","2018/08/06 14:19:10","新北市土城區中央路三段281巷23弄19號","121.426431666667","24.9615683333333","6501300","土城區"
"236029","253-BX","2018/08/06 14:19:17","新北市土城區順風路30號","121.440078333333","24.9771483333333","6501300","土城區"
"236024","269-VK","2018/08/06 14:19:18","新北市土城區承天路45號","121.438731666667","24.96401","6501300","土城區"
"236012","270-VK","2018/08/06 14:19:14","新北市土城區青雲路39巷7號","121.460308333333","24.9875416666667","6501300","土城區"
"236032","271-VK","2018/08/06 14:19:23","新北市土城區青雲路451巷8弄13號","121.459625","24.9742333333333","6501300","土城區"
"236016","401-BY","2018/08/06 14:19:14","新北市土城區清水路26號","121.454625","24.980215","6501300","土城區"
"236005","498-BY","2018/08/06 14:19:23","新北市土城區中華路一段56巷28-10號","121.445061666667","24.990735","6501300","土城區"
"236057","912-UM","2018/08/06 14:19:23","新北市土城區中央路四段418號","121.410988333333","24.9520933333333","6501300","土城區"
"236045","913-UM","2018/08/06 14:19:18","新北市土城區明德路一段375-1號","121.455143333333","24.97803","6501300","土城區"
"236060","915-UM","2018/08/06 14:19:08","新北市土城區延壽路44巷15號","121.471506666667","24.9930433333333","6501300","土城區"
"236054","AAC-216","2018/08/06 14:19:27","新北市土城區中華路二段100號","121.438093333333","24.97438","6501300","土城區"
"221010","269-BY","2018/08/06 14:19:27","新北市汐止區長青路210巷6弄1號","121.613448333333","25.113535","6501100","汐止區"
"221032","280-BY","2018/08/06 14:19:14","新北市汐止區龍安路28巷10號","121.654901666667","25.0642683333333","6501100","汐止區"
"220027","145-BY","2018/08/06 14:19:12","新北市板橋區民權路260巷1號","121.458068333333","25.0155666666667","6500100","板橋區"
"220028","200-UY","2018/08/06 14:19:14","新北市板橋區大觀路二段19巷107號","121.45016","25.0027733333333","6500100","板橋區"
"220030","610-BX","2018/08/06 14:19:24","新北市板橋區滿平街84巷153號","121.427046666667","24.9864033333333","6500100","板橋區"
"220050","245-BX","2018/08/06 14:19:28","新北市板橋區莊敬路25巷11號","121.474583333333","25.02766","6500100","板橋區"
"220004","276-BY","2018/08/06 14:19:24","新北市板橋區信義路147號","121.458071666667","24.9929416666667","6500100","板橋區"
"220019","283-VK","2018/08/06 14:19:28","新北市板橋區忠孝路24巷31號","121.46046","25.000765","6500100","板橋區"
"220043","285-UM","2018/08/06 14:19:14","新北市板橋區吳鳳路23號","121.467033333333","25.0311533333333","6500100","板橋區"
"220001","285-VK","2018/08/06 14:19:13","新北市板橋區永豐街255號","121.477935","25.0213033333333","6500100","板橋區"
"220031","286-VK","2018/08/06 14:19:24","新北市板橋區龍興街73巷19號","121.442985","25.0023533333333","6500100","板橋區"
"220029","287-VK","2018/08/06 14:19:21","新北市板橋區南雅西路一段40號","121.453936666667","25.00463","6500100","板橋區"
"220039","288-VK","2018/08/06 14:19:22","新北市板橋區四維路339巷15號","121.46193","25.0292966666667","6500100","板橋區"
"220009","293-UM","2018/08/06 14:19:16","新北市板橋區中山路二段326-5號","121.48119","25.0194566666667","6500100","板橋區"
"220010","295-UM","2018/08/06 14:19:17","新北市板橋區三民路二段居仁巷1弄49號","121.480821666667","25.0136916666667","6500100","板橋區"
"220032","296-UM","2018/08/06 14:19:20","新北市板橋區滿平街136巷7弄1號","121.427993333333","24.987325","6500100","板橋區"
"220023","303-R5","2018/08/06 14:19:11","新北市板橋區南雅東路1-22號","121.45453","25.005215","6500100","板橋區"
"220041","307-R5","2018/08/06 14:19:08","新北市板橋區松江街74號","121.468718333333","25.0278766666667","6500100","板橋區"
"220047","317-R6","2018/08/06 14:19:28","新北市板橋區四維路252號","121.463718333333","25.0281816666667","6500100","板橋區"
"220012","486-VK","2018/08/06 14:19:27","新北市板橋區板新路238號","121.467788333333","25.0161433333333","6500100","板橋區"
"220037","491-VK","2018/08/06 14:19:15","新北市板橋區雙十路二段233號","121.472975","25.0290233333333","6500100","板橋區"
"220104","560-BX","2018/08/06 14:19:17","新北市板橋區中正路356號","121.454646666667","25.02374","6500100","板橋區"
"220052","561-BX","2018/08/06 14:19:15","新北市板橋區介壽街66號","121.469285","25.0194733333333","6500100","板橋區"
"220011","609-BX","2018/08/06 14:19:24","新北市板橋區三民路二段202-15號","121.478983333333","25.0137166666667","6500100","板橋區"
"220040","637-BX","2018/08/06 14:19:17","新北市板橋區文聖街160號","121.479053333333","25.0271366666667","6500100","板橋區"
"220005","686-BX","2018/08/06 14:19:08","新北市中和區壽德街17-3號","121.465778333333","24.9954666666667","6500100","板橋區"
"220025","687-BX","2018/08/06 14:19:13","新北市板橋區大觀路二段281號","121.442458333333","24.998845","6500100","板橋區"
"220042","689-BX","2018/08/06 14:19:24","新北市板橋區文化路一段245號","121.464296666667","25.01793","6500100","板橋區"
"220002","741-BX","2018/08/06 14:19:24","新北市板橋區校前街23號","121.460741666667","25.003155","6500100","板橋區"
"220051","KEA-2699","2018/08/06 14:19:09","新北市板橋區文聖街123號","121.478031666667","25.0288883333333","6500100","板橋區"
"220014","829-TW","2018/08/06 14:19:15","新北市板橋區長安街138巷1弄73號","121.474601666667","25.010875","6500100","板橋區"
"220016","830-TW","2018/08/06 14:19:07","新北市板橋區林森街1巷27號","121.48265","25.0243716666667","6500100","板橋區"
"220045","831-TW","2018/08/06 14:19:25","新北市板橋區大同街35巷17號","121.47725","25.0278233333333","6500100","板橋區"
"220038","833-TW","2018/08/06 14:19:16","新北市板橋區文化路一段339號","121.466468333333","25.0206266666667","6500100","板橋區"
"220022","895-R6","2018/08/06 14:19:15","新北市板橋區文化路一段27-1號","121.460046666667","25.012645","6500100","板橋區"
"220021","985-R7","2018/08/06 14:19:14","新北市板橋區中正路274號","121.455301666667","25.01978","6500100","板橋區"
"220046","AAC-210","2018/08/06 14:19:27","新北市板橋區幸福路32巷5弄2號","121.460928333333","25.0211816666667","6500100","板橋區"
"220018","AAC-253","2018/08/06 14:19:21","新北市板橋區忠孝路136號","121.46362","25.00241","6500100","板橋區"
"235032","KEA-2873","2018/08/06 14:19:23","新北市中和區景平路493巷8號","121.49932","24.9971516666667","6500300","中和區"
"235025","KEA-2875","2018/08/06 14:19:06","新北市中和區員山路243號","121.481245","24.9984066666667","6500300","中和區"
