"lineid","car","time","location","longitude","latitude","cityid","cityname"
"234005","207-UY","2018/08/06 14:39:09","新北市永和區中正路492號","121.51758","25.004","6500400","永和區"
"234062","337-UY","2018/08/06 14:39:25","新北市中和區環河西路三段123號","121.490363333333","25.009375","6500400","永和區"
"234084","338-UY","2018/08/06 14:39:19","新北市板橋區中山路二段490號","121.485776666667","25.0217916666667","6500400","永和區"
"234068","552-UM","2018/08/06 14:37:27","新北市永和區環河西路一段1號","121.51552","25.0181533333333","6500400","永和區"
"234052","KEA-2590","2018/08/06 14:39:09","新北市永和區環河東路一段80號","121.51958","25.016425","6500400","永和區"
"234040","862-TW","2018/08/06 14:39:12","新北市永和區永和路一段208號","121.514358333333","25.0093683333333","6500400","永和區"
"234025","9371-KE","2018/08/06 14:39:13","新北市中和區中安街124號","121.511105","25.00053","6500400","永和區"
"248015","026-BX","2018/08/06 14:39:11","新北市五股區成泰路三段601巷17-1號","121.451746666667","25.10333","6501500","五股區"
"248007","095-VK","2018/08/06 14:39:09","新北市五股區四維路153號","121.467733333333","25.0745466666667","6501500","五股區"
"248019","225-UY","2018/08/06 14:39:16","新北市五股區凌雲路三段104號","121.426235","25.122975","6501500","五股區"
"248011","247-BX","2018/08/06 14:39:10","新北市五股區民義路一段112-10號","121.435336666667","25.0852616666667","6501500","五股區"
"248013","261-SL","2018/08/06 14:39:23","新北市五股區五福路32巷7號","121.434441666667","25.08936","6501500","五股區"
"248003","677-BX","2018/08/06 14:39:25","新北市五股區工商路114號","121.43704","25.0855583333333","6501500","五股區"
"248001","678-BX","2018/08/06 14:39:21","新北市五股區成洲一路15號","121.44899","25.0957783333333","6501500","五股區"
"248009","682-TV","2018/08/06 14:39:22","新北市五股區登林路貿商巷1弄9號","121.429665","25.0696633333333","6501500","五股區"
"234072","AAC-211","2018/08/06 14:39:13","新北市永和區環河東路二段36號","121.522743333333","25.0124133333333","6500400","永和區"
"234001","AAC-295","2018/08/06 14:39:28","新北市永和區中正路620號","121.517046666667","25.0078366666667","6500400","永和區"
"243005","AAD-798","2018/08/06 14:39:15","新北市泰山區應化街7號","121.42389","25.04374","6501600","泰山區"
"243001","297-R6","2018/08/06 14:39:27","新北市泰山區楓江路16巷13號","121.434013333333","25.0617966666667","6501600","泰山區"
"243008","KEA-2801","2018/08/06 14:39:10","新北市泰山區明志路三段514號","121.420925","25.0307116666667","6501600","泰山區"
"243007","421-VK","2018/08/06 14:39:29","新北市泰山區明志路二段214巷16弄2號","121.426878333333","25.0490683333333","6501600","泰山區"
"243003","KEA-2215","2018/08/06 14:39:10","新北市泰山區明志路三段196巷9號","121.423386666667","25.0388883333333","6501600","泰山區"
"243002","KEA-2216","2018/08/06 14:39:23","新北市泰山區明志路二段136巷19號","121.426041666667","25.05178","6501600","泰山區"
"243004","646-TV","2018/08/06 14:39:23","新北市泰山區全興路111號","121.433741666667","25.056575","6501600","泰山區"
"243006","680-BX","2018/08/06 14:39:22","新北市泰山區泰林路二段33-8號","121.435128333333","25.056435","6501600","泰山區"
"231002","002-UM","2018/08/06 14:39:28","新北市新店區中正路429號","121.534168333333","24.9780933333333","6500600","新店區"
"231027","0293-UT","2018/08/06 14:39:08","新北市新店區中正路102巷4號","121.543406666667","24.9708833333333","6500600","新店區"
"231028","046-UY","2018/08/06 14:39:22","新北市新店區安德街79號","121.510133333333","24.9612733333333","6500600","新店區"
"231001","047-UY","2018/08/06 14:39:19","新北市新店區中正路23號","121.54533","24.969465","6500600","新店區"
"231005","106-UY","2018/08/06 14:39:13","新北市新店區復興路29巷2號","121.53885","24.98644","6500600","新店區"
"231019","108-UY","2018/08/06 14:39:09","新北市新店區桂山路69號","121.566566666667","24.9007433333333","6500600","新店區"
"231036","110-UY","2018/08/06 14:39:15","新北市新店區安祥路109巷8號","121.475448333333","24.9588316666667","6500600","新店區"
"231011","187-VK","2018/08/06 14:39:09","新北市新店區寶宏路3-3號","121.549223333333","24.9767283333333","6500600","新店區"
"231023","KEA-2219","2018/08/06 14:39:24","新北市新店區檳榔路23號","121.541633333333","24.9637333333333","6500600","新店區"
"231003","268-BY","2018/08/06 14:39:25","新北市新店區中興路一段290號","121.5459","24.969065","6500600","新店區"
"231018","278-BY","2018/08/06 14:39:20","新北市新店區中央五街12號","121.52967","24.9741533333333","6500600","新店區"
"231014","AAD-862","2018/08/06 14:39:08","新北市新店區北宜路二段617號","121.571093333333","24.95667","6500600","新店區"
"231038","3712-VJ","2018/08/06 14:39:09","新北市新店區安康路一段76巷34-1號","121.52852","24.9635133333333","6500600","新店區"
"231037","4716-K9","2018/08/06 14:39:21","新北市新店區安康路二段320巷6號","121.504485","24.95873","6500600","新店區"
"231013","513-UM","2018/08/06 14:39:21","新北市新店區北新路二段171巷2號","121.542266666667","24.9764766666667","6500600","新店區"
"231034","616-UM","2018/08/06 14:39:12","新北市新店區黎明路53巷1號","121.50232","24.9487433333333","6500600","新店區"
"231006","617-UM","2018/08/06 14:39:07","新北市新店區北宜路二段80巷2弄14號","121.551973333333","24.9530183333333","6500600","新店區"
"231030","619-UM","2018/08/06 14:39:27","新北市新店區安民街131號","121.516355","24.969095","6500600","新店區"
"231039","718-UY","2018/08/06 14:39:22","新北市新店區中興路三段1-10號","121.546423333333","24.97666","6500600","新店區"
"231035","719-UM","2018/08/06 14:32:27","新北市新店區安民街40號","121.515883333333","24.9653266666667","6500600","新店區"
"231029","897-TW","2018/08/06 14:39:24","新北市新店區安康路三段263號","121.486578333333","24.9517966666667","6500600","新店區"
"231004","899-TW","2018/08/06 14:39:13","新北市新店區中正路289號","121.537335","24.9745433333333","6500600","新店區"
"231024","AKT-0513","2018/08/06 14:39:14","新北市新店區新生街1號","121.540333333333","24.965565","6500600","新店區"
"235030","003-UY","2018/08/06 14:39:15","新北市中和區景新街133號","121.50587","24.997225","6500300","中和區"
"235028","005-UY","2018/08/06 14:39:15","新北市中和區南山路127巷34弄2號","121.504323333333","24.9977083333333","6500300","中和區"
"235027","006-UY","2018/08/06 14:39:08","新北市中和區連城路263巷5弄2號","121.492185","24.996","6500300","中和區"
"235020","096-UM","2018/08/06 14:39:19","新北市中和區員山路581巷31弄18號","121.476873333333","25.0103533333333","6500300","中和區"
"235029","098-UM","2018/08/06 14:39:24","新北市中和區福美路269號","121.49811","25.0049666666667","6500300","中和區"
"235004","150-BY","2018/08/06 14:39:22","新北市中和區宜安路23巷21號","121.51232","24.9950883333333","6500300","中和區"
"235022","151-BY","2018/08/06 14:39:26","新北市中和區員山路150-6號","121.48127","24.9974833333333","6500300","中和區"
"235019","183-VK","2018/08/06 14:39:23","新北市中和區民生街15號","121.471318333333","25.0058816666667","6500300","中和區"
"235002","185-VK","2018/08/06 14:39:24","新北市中和區自強路27巷6號","121.521065","24.9929666666667","6500300","中和區"
"235013","186-VK","2018/08/06 14:39:24","新北市中和區景平路568號","121.502016666667","24.995345","6500300","中和區"
"235031","255-BX","2018/08/06 14:39:28","新北市中和區新生街227號","121.483888333333","24.9992983333333","6500300","中和區"
"235008","293-VK","2018/08/06 14:39:20","新北市中和區捷運路61巷3號","121.508786666667","24.9895566666667","6500300","中和區"
"235036","301-VK","2018/08/06 14:39:27","新北市中和區保平路326巷28號","121.506186666667","25.0048683333333","6500300","中和區"
"235007","352-BY","2018/08/06 14:39:20","新北市中和區南華路14號","121.502621666667","24.9954283333333","6500300","中和區"
"235006","KEA-2878","2018/08/06 14:39:26","新北市中和區保健路2巷26號","121.507103333333","24.9975866666667","6500300","中和區"
"247009","KEA-2869","2018/08/06 14:39:09","新北市蘆洲區信義路222巷35號","121.480035","25.0854533333333","6501400","蘆洲區"
"235014","4979-A6","2018/08/06 14:39:20","新北市中和區錦和路350-1號","121.490588333333","24.9935783333333","6500300","中和區"
"235034","558-UM","2018/08/06 14:39:21","新北市中和區景平路634-9號","121.498668333333","24.9995033333333","6500300","中和區"
"235009","565-BX","2018/08/06 14:39:25","新北市中和區景平路322號","121.512148333333","24.9927416666667","6500300","中和區"
"235018","640-BX","2018/08/06 14:39:26","新北市中和區民享街86巷31號","121.472835","25.000295","6500300","中和區"
"235024","647-TV","2018/08/06 14:39:24","新北市中和區中山路二段519號","121.481981666667","25.0051866666667","6500300","中和區"
"235011","732-UM","2018/08/06 14:39:20","新北市中和區南山路283巷8號","121.504636666667","24.9923983333333","6500300","中和區"
"235010","733-UM","2018/08/06 14:39:28","新北市中和區四維街20號","121.513006666667","24.9871733333333","6500300","中和區"
"235035","783-BX","2018/08/06 14:39:26","新北市中和區連城路377號","121.487141666667","24.99628","6500300","中和區"
"235026","800-TS","2018/08/06 14:39:15","新北市中和區中山路二段413號","121.485981666667","25.0044733333333","6500300","中和區"
"235021","801-TS","2018/08/06 14:39:25","新北市中和區員山路202號","121.481375","25.0006183333333","6500300","中和區"
"235005","802-TS","2018/08/06 14:39:16","新北市中和區景安路2號","121.507913333333","24.9990816666667","6500300","中和區"
"235016","805-TS","2018/08/06 14:39:17","新北市中和區華新街204號","121.50661","24.9819683333333","6500300","中和區"
"235012","896-TW","2018/08/06 14:39:18","新北市中和區仁愛街95號","121.511983333333","24.9867316666667","6500300","中和區"
"235017","900-TW","2018/08/06 14:39:17","新北市中和區民德路146巷5弄1號","121.46811","25.0003033333333","6500300","中和區"
"235015","157-BY","2018/08/06 14:39:22","新北市中和區中興街180巷52弄3號","121.498471666667","24.988265","6500300","中和區"
"235001","AAC-213","2018/08/06 14:39:25","新北市中和區秀朗路三段10巷21弄12號","121.525451666667","24.9960216666667","6500300","中和區"
"220105","013-TV","2018/08/06 14:39:17","新北市板橋區民治街24號","121.477756666667","25.0340983333333","6500100","板橋區"
"220003","015-TV","2018/08/06 14:39:13","新北市板橋區國慶路149巷3弄1號","121.46122","24.9968533333333","6500100","板橋區"
"220013","072-UY","2018/08/06 14:39:25","新北市板橋區國泰街111巷15號","121.46611","25.0060333333333","6500100","板橋區"
"220034","073-UY","2018/08/06 14:39:13","新北市板橋區中正路1巷4號","121.455736666667","25.0119366666667","6500100","板橋區"
"220017","AAD-861","2018/08/06 14:39:21","新北市板橋區稚暉街18號","121.455945","25.0044916666667","6500100","板橋區"
"247023","893-R6","2018/08/06 14:39:26","新北市蘆洲區正和街63巷11號","121.469311666667","25.0806066666667","6501400","蘆洲區"
"247013","546-UM","2018/08/06 14:39:15","新北市蘆洲區得勝街163號","121.471331666667","25.082945","6501400","蘆洲區"
"247021","500-BY","2018/08/06 14:39:23","新北市蘆洲區民族路383號","121.469771666667","25.0903666666667","6501400","蘆洲區"
"247011","339-TH","2018/08/06 14:39:16","新北市蘆洲區集賢路224巷37弄10-1號","121.48065","25.0881083333333","6501400","蘆洲區"
"247003","337-TH","2018/08/06 14:39:11","新北市蘆洲區永康街118號","121.457926666667","25.0852066666667","6501400","蘆洲區"
"247005","336-TH","2018/08/06 14:39:18","新北市蘆洲區長安街68巷20號","121.46382","25.08078","6501400","蘆洲區"
"247007","056-VK","2018/08/06 14:39:12","新北市蘆洲區成功路47號","121.47269","25.0798516666667","6501400","蘆洲區"
"247015","053-VK","2018/08/06 14:39:29","新北市蘆洲區光華路73巷31號","121.468618333333","25.081855","6501400","蘆洲區"
"247001","002-UY","2018/08/06 14:39:18","新北市蘆洲區環堤大道184號","121.456545","25.0903466666667","6501400","蘆洲區"
"247019","001-UY","2018/08/06 14:39:18","新北市蘆洲區民權路119號","121.47219","25.089885","6501400","蘆洲區"
"235023","251-BX","2018/08/06 14:39:19","新北市中和區圓通路333號","121.492095","24.9906883333333","6500300","中和區"
"253003","6232-TK","2018/08/06 14:39:26","新北市石門區尖子鹿36號","121.581978333333","25.2563566666667","6502200","石門區"
"253001","6251-TK","2018/08/06 14:39:20","新北市石門區崁子腳78-2號","121.529563333333","25.2806633333333","6502200","石門區"
"253002","637-UY","2018/08/06 14:32:23","新北市三芝區橫山里橫山39-5號","121.54579","25.253075","6502200","石門區"
"253004","8270-PC","2018/08/06 14:39:29","新北市石門區內阿里磅16號","121.593735","25.2473283333333","6502200","石門區"
"207002","749-BX","2018/08/06 14:36:41","新北市萬里區溪底里福德坑路10號","121.62586","25.15663","6502800","萬里區"
"252005","073-UM","2018/08/06 14:39:10","新北市三芝區埔坪里埔頭坑107-1號","121.51443","25.2470566666667","6502100","三芝區"
"207001","662-BX","2018/08/06 14:39:25","新北市萬里區磺潭里員潭路55-2號","121.643135","25.19165","6502800","萬里區"
"236064","105-UM","2018/08/06 14:39:22","新北市土城區永豐路304號","121.471965","24.9776266666667","6501300","土城區"
"236040","107-UM","2018/08/06 14:39:25","新北市土城區裕民路55巷4號","121.44915","24.988185","6501300","土城區"
"236074","166-UM","2018/08/06 14:39:10","新北市土城區中央路四段76-9號","121.418591666667","24.9601916666667","6501300","土城區"
"236029","253-BX","2018/08/06 14:39:17","新北市土城區中華路二段92號","121.438328333333","24.97474","6501300","土城區"
"236024","269-VK","2018/08/06 14:39:18","新北市土城區忠義路47號","121.440498333333","24.9693416666667","6501300","土城區"
"236012","270-VK","2018/08/06 14:39:23","新北市土城區清水路196號","121.460351666667","24.981845","6501300","土城區"
"236032","271-VK","2018/08/06 14:39:26","新北市土城區明德路一段287巷5號","121.46052","24.9767616666667","6501300","土城區"
"236016","401-BY","2018/08/06 14:39:13","新北市土城區明德路一段51號","121.465183333333","24.9848083333333","6501300","土城區"
"236057","912-UM","2018/08/06 14:39:23","新北市土城區中央路三段231-3號","121.428651666667","24.964195","6501300","土城區"
"236045","913-UM","2018/08/06 14:39:25","新北市土城區明德路一段97號","121.465626666667","24.98288","6501300","土城區"
"236060","915-UM","2018/08/06 14:39:16","新北市土城區延壽路20號","121.471368333333","24.9905733333333","6501300","土城區"
"236054","AAC-216","2018/08/06 14:39:12","新北市土城區中華路一段71號","121.445293333333","24.9878333333333","6501300","土城區"
"221010","269-BY","2018/08/06 14:39:27","新北市汐止區長青路12號","121.609421666667","25.106465","6501100","汐止區"
"220027","145-BY","2018/08/06 14:39:12","新北市板橋區復興街31號","121.458133333333","25.0174316666667","6500100","板橋區"
"220028","200-UY","2018/08/06 14:39:14","新北市板橋區大觀路二段153巷46弄10號","121.449006666667","24.999625","6500100","板橋區"
"220030","610-BX","2018/08/06 14:39:21","新北市板橋區金門街194-4號","121.432563333333","24.99054","6500100","板橋區"
"220050","245-BX","2018/08/06 14:39:23","新北市板橋區莊敬路246號","121.473666666667","25.0214633333333","6500100","板橋區"
"220004","276-BY","2018/08/06 14:39:24","新北市板橋區信義路1巷26弄2號","121.458026666667","24.99702","6500100","板橋區"
"220019","283-VK","2018/08/06 14:39:21","新北市板橋區廣權路79號","121.463855","24.9924866666667","6500100","板橋區"
"220043","285-UM","2018/08/06 14:39:14","新北市板橋區長江路二段250號","121.469055","25.0324683333333","6500100","板橋區"
"220001","285-VK","2018/08/06 14:39:09","新北市板橋區富山街53巷1弄104號","121.477721666667","25.0197283333333","6500100","板橋區"
"220031","286-VK","2018/08/06 14:39:24","新北市板橋區僑中二街92巷1號","121.446303333333","25.0087283333333","6500100","板橋區"
"220029","287-VK","2018/08/06 14:39:19","新北市板橋區大觀路一段29巷179弄21號","121.44972","25.0045666666667","6500100","板橋區"
"220039","288-VK","2018/08/06 14:39:21","新北市板橋區長江路一段134號","121.460485","25.0300533333333","6500100","板橋區"
"220009","293-UM","2018/08/06 14:39:16","新北市板橋區板新路197號","121.468841666667","25.0159083333333","6500100","板橋區"
"220010","295-UM","2018/08/06 14:39:17","新北市板橋區三民路二段123巷31號","121.480623333333","25.01575","6500100","板橋區"
"220032","296-UM","2018/08/06 14:39:20","新北市板橋區溪崑二街112巷33弄20號","121.425263333333","24.9886133333333","6500100","板橋區"
"220023","303-R5","2018/08/06 14:39:14","新北市板橋區大勇街8巷1號","121.454056666667","25.01706","6500100","板橋區"
"220041","307-R5","2018/08/06 14:39:08","新北市板橋區陽明街164巷22號","121.46446","25.0245733333333","6500100","板橋區"
"220047","317-R6","2018/08/06 14:39:28","新北市板橋區新海路387號","121.458881666667","25.0260633333333","6500100","板橋區"
"220012","486-VK","2018/08/06 14:39:22","新北市板橋區民權路2號","121.463316666667","25.0095283333333","6500100","板橋區"
"220037","491-VK","2018/08/06 14:39:15","新北市板橋區雙十路二段193號","121.473581666667","25.02881","6500100","板橋區"
"220104","560-BX","2018/08/06 14:39:09","新北市板橋區金華街85巷19號","121.458341666667","25.0214916666667","6500100","板橋區"
"220052","561-BX","2018/08/06 14:39:15","新北市板橋區文化路一段286巷13號","121.468106666667","25.0215266666667","6500100","板橋區"
"220011","609-BX","2018/08/06 14:39:25","新北市板橋區三民路二段201號","121.479073333333","25.01377","6500100","板橋區"
"220040","637-BX","2018/08/06 14:39:18","新北市板橋區懷德街181巷25號","121.480153333333","25.030485","6500100","板橋區"
"220005","686-BX","2018/08/06 14:39:08","新北市板橋區廣和街62號","121.462098333333","24.99387","6500100","板橋區"
"220025","687-BX","2018/08/06 14:39:21","新北市板橋區僑中二街92巷1號","121.44626","25.0087","6500100","板橋區"
"220042","689-BX","2018/08/06 14:39:24","新北市板橋區新海路360號","121.459781666667","25.02497","6500100","板橋區"
"220002","741-BX","2018/08/06 14:39:24","新北市板橋區忠孝路239巷16號","121.46668","25.0032983333333","6500100","板橋區"
"220051","KEA-2699","2018/08/06 14:39:29","新北市板橋區雙十路二段46巷20號","121.476188333333","25.0281233333333","6500100","板橋區"
"220014","829-TW","2018/08/06 14:39:15","新北市板橋區長安街168巷10弄18號","121.473491666667","25.0104533333333","6500100","板橋區"
"220016","830-TW","2018/08/06 14:39:27","新北市板橋區中山路二段416巷1弄2-2號","121.483353333333","25.020745","6500100","板橋區"
"220045","831-TW","2018/08/06 14:39:17","新北市板橋區莊敬路146巷14號","121.470486666667","25.022735","6500100","板橋區"
"220038","833-TW","2018/08/06 14:39:09","新北市板橋區雨農路32號","121.461191666667","25.0245016666667","6500100","板橋區"
"220022","895-R6","2018/08/06 14:39:15","新北市板橋區府中路27號","121.459075","25.0087866666667","6500100","板橋區"
"220021","985-R7","2018/08/06 14:39:14","新北市板橋區瑞安街1號","121.454615","25.0234066666667","6500100","板橋區"
"220046","AAC-210","2018/08/06 14:39:27","新北市板橋區幸福路31-2號","121.461631666667","25.0202083333333","6500100","板橋區"
"220018","AAC-253","2018/08/06 14:39:21","新北市板橋區民族路166號","121.464846666667","25.0084083333333","6500100","板橋區"
"235032","KEA-2873","2018/08/06 14:39:23","新北市中和區福美路230號","121.499148333333","25.0053133333333","6500300","中和區"
"235025","KEA-2875","2018/08/06 14:39:06","新北市中和區員山路174巷2號","121.481731666667","24.99988","6500300","中和區"
