"lineid","car","time","location","longitude","latitude","cityid","cityname"
"249005","172-UM","2018/08/06 16:49:14","新北市八里區大堀湖2-3號","121.422515","25.1536933333333","6502300","八里區"
"249002","305-UY","2018/08/06 16:49:20","新北市八里區牛寮埔31號","121.429806666667","25.1457783333333","6502300","八里區"
"234067","AAC-212","2018/08/06 16:25:19","新北市永和區福和路1號","121.5264","25.009675","6500400","永和區"
"244007","080-UY","2018/08/06 16:49:16","新北市林口區粉寮路1號","121.39777","25.0802233333333","6501700","林口區"
"244019","403-UM","2018/08/06 16:49:22","新北市林口區粉寮69號","121.405048333333","25.090805","6501700","林口區"
"244021","838-TS","2018/08/06 16:49:19","新北市林口區粉寮路二段160巷28號","121.405191666667","25.0907883333333","6501700","林口區"
"231046","107-UY","2018/08/06 16:49:20","新北市新店區灣潭路15-11號","121.541858333333","24.9405916666667","6500600","新店區"
"241011","013-R5","2018/08/06 16:49:31","新北市三重區仁愛街53巷190號","121.50036","25.0730133333333","6500200","三重區"
"241028","022-UY","2018/08/06 16:49:21","新北市三重區正義南路69-1號","121.498326666667","25.0600983333333","6500200","三重區"
"241031","061-VK","2018/08/06 16:49:20","新北市三重區新北大道一段15巷2號","121.487933333333","25.0608366666667","6500200","三重區"
"241015","062-VK","2018/08/06 16:49:28","新北市三重區文化北路43巷4號","121.49914","25.0655283333333","6500200","三重區"
"241017","063-VK","2018/08/06 16:49:29","新北市三重區國隆路8巷29號","121.492751666667","25.06351","6500200","三重區"
"241024","065-VK","2018/08/06 16:49:10","新北市三重區中正北路317巷28號","121.47572","25.0730583333333","6500200","三重區"
"241026","066-VK","2018/08/06 16:49:17","新北市三重區文化南路12號","121.500378333333","25.0620316666667","6500200","三重區"
"241002","090-VK","2018/08/06 16:49:13","新北市三重區仁義街194號","121.496668333333","25.0819066666667","6500200","三重區"
"241003","091-VK","2018/08/06 16:49:22","新北市三重區五華街71巷18號","121.492795","25.083215","6500200","三重區"
"241005","262-UM","2018/08/06 16:49:18","新北市三重區碧華街93號","121.485288333333","25.081835","6500200","三重區"
"241022","265-UM","2018/08/06 16:49:30","新北市三重區中華路47號","121.48372","25.06196","6500200","三重區"
"241016","266-UM","2018/08/06 16:49:25","新北市三重區大同北路117號","121.494056666667","25.06427","6500200","三重區"
"241009","267-UM","2018/08/06 16:49:13","新北市三重區三和路四段203巷253號","121.487398333333","25.08097","6500200","三重區"
"241018","268-UM","2018/08/06 16:49:17","新北市三重區正義北路288-1號","121.495435","25.0694733333333","6500200","三重區"
"241032","269-UM","2018/08/06 16:49:25","新北市三重區重陽路一段118號","121.486385","25.06008","6500200","三重區"
"241013","270-UM","2018/08/06 16:49:16","新北市三重區仁壽街41號","121.497133333333","25.0734933333333","6500200","三重區"
"241025","271-UM","2018/08/06 16:49:27","新北市三重區中正北路530巷19號","121.471993333333","25.0704566666667","6500200","三重區"
"241007","398-BY","2018/08/06 16:49:11","新北市三重區三和路四段181巷50號","121.483665","25.0793666666667","6500200","三重區"
"241008","413-TH","2018/08/06 16:49:24","新北市三重區永福街179巷23號","121.478086666667","25.0748833333333","6500200","三重區"
"241004","475-VK","2018/08/06 16:49:26","新北市三重區仁愛街399號","121.491153333333","25.0809033333333","6500200","三重區"
"241020","478-VK","2018/08/06 16:49:23","新北市三重區忠孝路二段31號","121.486158333333","25.07149","6500200","三重區"
"241030","480-VK","2018/08/06 16:49:21","新北市三重區新興路4號","121.492731666667","25.0527666666667","6500200","三重區"
"241014","543-UM","2018/08/06 16:49:28","新北市三重區長榮路75號","121.50256","25.0691366666667","6500200","三重區"
"241023","545-UM","2018/08/06 16:49:25","新北市三重區中華路76巷45號","121.481865","25.0626583333333","6500200","三重區"
"241001","547-UM","2018/08/06 16:49:27","新北市三重區仁政街46號","121.492978333333","25.0768516666667","6500200","三重區"
"241019","KEA-2593","2018/08/06 16:49:29","新北市三重區三張街149巷10弄7號","121.486175","25.0698116666667","6500200","三重區"
"241006","AAD-863","2018/08/06 16:49:10","新北市三重區力行路二段184號","121.483376666667","25.077365","6500200","三重區"
"241012","941-UM","2018/08/06 16:49:25","新北市三重區龍門路274巷19號","121.501576666667","25.0747033333333","6500200","三重區"
"241029","942-UM","2018/08/06 16:49:29","新北市三重區集美街211號","121.491768333333","25.0545183333333","6500200","三重區"
"241033","AAC-255","2018/08/06 16:49:29","新北市三重區新北大道二段139巷30號","121.46637","25.06042","6500200","三重區"
"235026","800-TS","2018/08/06 16:49:15","新北市中和區員山路36巷16-2號","121.485235","24.9913916666667","6500300","中和區"
"247006","336-TH","2018/08/06 16:49:19","新北市蘆洲區永安南路二段132-1號","121.462601666667","25.0785016666667","6501400","蘆洲區"
"247018","057-VK","2018/08/06 16:49:20","新北市蘆洲區民族路308號","121.477531666667","25.09015","6501400","蘆洲區"
"247008","056-VK","2018/08/06 16:49:18","新北市蘆洲區中山一路176號","121.474166666667","25.0811883333333","6501400","蘆洲區"
"247020","001-UY","2018/08/06 16:49:16","新北市蘆洲區民族路420號","121.474206666667","25.0917183333333","6501400","蘆洲區"
"228003","097-TW","2018/08/06 16:49:15","新北市貢寮區貢寮里朝陽街1-2號","121.912368333333","25.0212883333333","6502600","貢寮區"
"228002","663-BX","2018/08/06 16:49:14","新北市貢寮區貢寮里長泰路28號","121.900936666667","25.0241133333333","6502600","貢寮區"
"224006","676-BX","2018/08/06 16:49:28","新北市瑞芳區大寮路356-1號","121.784713333333","25.10309","6501200","瑞芳區"
"224002","639-TC","2018/08/06 16:49:11","新北市瑞芳區逢甲路35號","121.808761666667","25.1083583333333","6501200","瑞芳區"
"224008","285-BY","2018/08/06 16:49:33","新北市瑞芳區明燈路二段2巷8號","121.814108333333","25.1083683333333","6501200","瑞芳區"
"224007","275-VK","2018/08/06 16:49:26","新北市瑞芳區中央路48巷164號","121.759166666667","25.1034033333333","6501200","瑞芳區"
"224009","273-VK","2018/08/06 16:49:27","新北市瑞芳區明燈路二段2巷14號","121.815761666667","25.1088316666667","6501200","瑞芳區"
"224005","271-BY","2018/08/06 16:49:15","新北市瑞芳區洞頂路61號","121.861705","25.1203733333333","6501200","瑞芳區"
"227001","642-TC","2018/08/06 16:49:16","新北市雙溪區外柑里外柑腳71號","121.80713","25.017605","6502500","雙溪區"
"227008","400-TW","2018/08/06 16:49:08","新北市雙溪區牡丹里石5號","121.865946666667","25.053755","6502500","雙溪區"
"251005","010-UM","2018/08/06 16:49:25","新北市淡水區中正路二段31號","121.419175","25.1819533333333","6501000","淡水區"
"251013","KEA-2871","2018/08/06 16:49:32","新北市淡水區泉洲厝32號","121.489243333333","25.192595","6501000","淡水區"
"251016","179-VK","2018/08/06 16:49:25","新北市淡水區水頭42號","121.478123333333","25.1850983333333","6501000","淡水區"
"251014","180-VK","2018/08/06 16:49:25","新北市淡水區淡金路四段478號","121.452425","25.2239166666667","6501000","淡水區"
"251015","181-VK","2018/08/06 16:49:19","新北市淡水區忠愛街4號","121.459515","25.1713566666667","6501000","淡水區"
"251010","413-VK","2018/08/06 16:49:14","新北市淡水區中正路二段31號","121.419713333333","25.1815083333333","6501000","淡水區"
"251012","441-VK","2018/08/06 16:49:12","新北市淡水區中正路二段31號","121.419738333333","25.1815533333333","6501000","淡水區"
"251008","442-VK","2018/08/06 16:49:28","新北市淡水區樹梅坑45號","121.474741666667","25.144575","6501000","淡水區"
"251004","443-VK","2018/08/06 16:49:14","新北市淡水區中正路二段31號","121.419365","25.1816216666667","6501000","淡水區"
"251007","577-R6","2018/08/06 16:49:16","新北市淡水區中正路二段31號","121.419666666667","25.18132","6501000","淡水區"
"252002","178-VK","2018/08/06 16:49:25","新北市三芝區忠孝街85號","121.505928333333","25.256845","6502100","三芝區"
"252001","292-VK","2018/08/06 16:49:13","新北市三芝區淡金路二段89號","121.503846666667","25.2607733333333","6502100","三芝區"
"242034","AAC-296","2018/08/06 16:46:11","新北市新莊區中正路508巷9-8號","121.436945","25.034825","6500500","新莊區"
"242023","362-BY","2018/08/06 16:49:22","新北市新莊區新泰路255巷83號","121.442356666667","25.0386266666667","6500500","新莊區"
"242039","133-UY","2018/08/06 16:49:14","新北市新莊區新泰路255巷83號","121.44202","25.038855","6500500","新莊區"
"242017","175-VK","2018/08/06 16:49:12","新北市新莊區三和路12-21號","121.442071666667","25.0386666666667","6500500","新莊區"
"238011","5061-A6","2018/08/06 16:45:25","新北市樹林區鎮前街77-21號","121.424883333333","24.9900533333333","6500700","樹林區"
"238012","303-VK","2018/08/06 16:49:18","新北市樹林區中正路22-1號","121.427813333333","24.99943","6500700","樹林區"
"238001","283-BY","2018/08/06 16:49:14","新北市樹林區中正路433-1號","121.414713333333","25.00793","6500700","樹林區"
"238007","268-VK","2018/08/06 16:49:15","新北市樹林區育德街78-1號","121.387576666667","24.9681366666667","6500700","樹林區"
"239007","AAC-297","2018/08/06 16:49:13","新北市鶯歌區二甲路13-16號","121.344913333333","24.93519","6500800","鶯歌區"
"239001","417-VK","2018/08/06 16:49:15","新北市鶯歌區二甲路12-2號","121.345458333333","24.9350033333333","6500800","鶯歌區"
