"lineid","car","time","location","longitude","latitude","cityid","cityname"
"249005","172-UM","2018/08/06 16:59:14","新北市八里區渡船頭3-7號","121.434366666667","25.1531933333333","6502300","八里區"
"249001","173-UM","2018/08/06 16:59:23","新北市八里區中山路三段109號","121.390146666667","25.1421416666667","6502300","八里區"
"249004","303-UY","2018/08/06 16:59:17","新北市八里區挖子尾街58號","121.415465","25.1662533333333","6502300","八里區"
"249002","305-UY","2018/08/06 16:57:00","新北市八里區牛寮埔19-1號","121.431733333333","25.142815","6502300","八里區"
"249003","593-UM","2018/08/06 16:59:20","新北市八里區中山路二段283號","121.401583333333","25.1486383333333","6502300","八里區"
"244007","080-UY","2018/08/06 16:59:16","新北市林口區林口路272巷11號","121.38662","25.08528","6501700","林口區"
"244019","403-UM","2018/08/06 16:59:21","新北市林口區中山路2號","121.39682","25.0785833333333","6501700","林口區"
"244023","483-VK","2018/08/06 16:59:13","新北市林口區粉寮路二段128號","121.40444","25.0906933333333","6501700","林口區"
"244017","485-VK","2018/08/06 16:59:14","新北市林口區粉寮69號","121.40511","25.0908716666667","6501700","林口區"
"244025","837-TS","2018/08/06 16:59:21","新北市林口區粉寮69號","121.40496","25.0908766666667","6501700","林口區"
"244021","838-TS","2018/08/06 16:59:19","新北市林口區粉寮路二段160巷28號","121.405193333333","25.090785","6501700","林口區"
"231046","107-UY","2018/08/06 16:59:20","新北市新店區永業路81巷12號","121.5315","24.9479333333333","6500600","新店區"
"241011","013-R5","2018/08/06 16:59:31","新北市三重區仁愛街55巷27號","121.498876666667","25.0726966666667","6500200","三重區"
"241028","022-UY","2018/08/06 16:59:21","新北市三重區光興街128號","121.494868333333","25.05955","6500200","三重區"
"241031","061-VK","2018/08/06 16:59:20","新北市三重區三寧街18號","121.489418333333","25.0598266666667","6500200","三重區"
"241015","062-VK","2018/08/06 16:59:28","新北市三重區三和路二段2號","121.50155","25.066355","6500200","三重區"
"241017","063-VK","2018/08/06 16:59:29","新北市三重區國隆路12巷3號","121.492741666667","25.063765","6500200","三重區"
"241024","065-VK","2018/08/06 16:59:10","新北市三重區國道路一段58巷15號","121.481365","25.0720083333333","6500200","三重區"
"241026","066-VK","2018/08/06 16:59:17","新北市三重區文化南路42號","121.50032","25.0602333333333","6500200","三重區"
"241002","090-VK","2018/08/06 16:59:13","新北市三重區仁義街101巷14號","121.498481666667","25.0802116666667","6500200","三重區"
"241003","091-VK","2018/08/06 16:59:22","新北市三重區五華街141巷60號","121.493578333333","25.0868083333333","6500200","三重區"
"241005","262-UM","2018/08/06 16:59:18","新北市三重區仁華街62巷5號","121.483946666667","25.08309","6500200","三重區"
"241022","265-UM","2018/08/06 16:59:16","新北市三重區貴陽街47巷19弄19號","121.484693333333","25.0620083333333","6500200","三重區"
"241016","266-UM","2018/08/06 16:59:25","新北市三重區大智街17號","121.494506666667","25.065335","6500200","三重區"
"241009","267-UM","2018/08/06 16:59:13","新北市三重區仁美街107號","121.485691666667","25.0807816666667","6500200","三重區"
"241018","268-UM","2018/08/06 16:59:17","新北市三重區大智街81號","121.492351666667","25.068765","6500200","三重區"
"241032","269-UM","2018/08/06 16:59:15","新北市三重區新北大道一段57巷8號","121.485123333333","25.0608216666667","6500200","三重區"
"241013","270-UM","2018/08/06 16:59:16","新北市三重區仁和街97號","121.497945","25.0742083333333","6500200","三重區"
"241025","271-UM","2018/08/06 16:59:27","新北市三重區中正北路357號","121.47274","25.07168","6500200","三重區"
"241007","398-BY","2018/08/06 16:59:31","新北市三重區溪尾街182號","121.488418333333","25.0808083333333","6500200","三重區"
"241008","413-TH","2018/08/06 16:59:24","新北市三重區永安北路一段3巷29號","121.477316666667","25.0747033333333","6500200","三重區"
"241004","475-VK","2018/08/06 16:59:26","新北市三重區五華街92巷19號","121.491656666667","25.081605","6500200","三重區"
"241020","478-VK","2018/08/06 16:59:23","新北市三重區後竹圍街173-1號","121.48603","25.07191","6500200","三重區"
"241030","480-VK","2018/08/06 16:59:21","新北市三重區昌隆街65號","121.490861666667","25.05098","6500200","三重區"
"241014","543-UM","2018/08/06 16:59:28","新北市三重區三和路二段173巷149號","121.501148333333","25.0707683333333","6500200","三重區"
"241023","545-UM","2018/08/06 16:59:25","新北市三重區中華路58-1號","121.483406666667","25.0621983333333","6500200","三重區"
"241001","547-UM","2018/08/06 16:59:27","新北市三重區仁愛街162號","121.494283333333","25.0764183333333","6500200","三重區"
"241019","KEA-2593","2018/08/06 16:59:29","新北市三重區三張街104號","121.487915","25.069915","6500200","三重區"
"241006","AAD-863","2018/08/06 16:59:30","新北市三重區車路頭街117巷33號","121.485191666667","25.0755","6500200","三重區"
"241012","941-UM","2018/08/06 16:59:25","新北市三重區仁和街177號","121.500145","25.07482","6500200","三重區"
"241029","942-UM","2018/08/06 16:59:22","新北市三重區重安街107號","121.494343333333","25.0551183333333","6500200","三重區"
"241033","AAC-255","2018/08/06 16:59:29","新北市三重區中興北街271號","121.469098333333","25.0605616666667","6500200","三重區"
"247010","KEA-2869","2018/08/06 16:59:17","新北市蘆洲區信義路154號","121.479346666667","25.0833","6501400","蘆洲區"
"247024","893-R6","2018/08/06 16:59:23","新北市蘆洲區長興路202號","121.460591666667","25.0875116666667","6501400","蘆洲區"
"247014","546-UM","2018/08/06 16:59:27","新北市蘆洲區中山二路36巷35號","121.473976666667","25.0834083333333","6501400","蘆洲區"
"247004","337-TH","2018/08/06 16:59:21","新北市蘆洲區長安街110號","121.46099","25.08163","6501400","蘆洲區"
"247006","336-TH","2018/08/06 16:59:19","新北市蘆洲區長安街99巷31號","121.460713333333","25.0796416666667","6501400","蘆洲區"
"247018","057-VK","2018/08/06 16:59:20","新北市蘆洲區民族路227巷25號","121.476843333333","25.089115","6501400","蘆洲區"
"247008","056-VK","2018/08/06 16:59:18","新北市蘆洲區信義路60號","121.475691666667","25.079555","6501400","蘆洲區"
"247016","053-VK","2018/08/06 16:59:17","新北市蘆洲區正和街22號","121.469906666667","25.0823216666667","6501400","蘆洲區"
"247020","001-UY","2018/08/06 16:59:16","新北市蘆洲區民族路422巷82弄2號","121.473638333333","25.093775","6501400","蘆洲區"
"228003","097-TW","2018/08/06 16:59:15","新北市貢寮區福隆里興隆街13-5號","121.944216666667","25.0165383333333","6502600","貢寮區"
"228001","212-TW","2018/08/06 16:58:55","新北市貢寮區貢寮里朝陽街2號","121.912348333333","25.0215566666667","6502600","貢寮區"
"228002","663-BX","2018/08/06 16:59:14","新北市貢寮區貢寮里朝陽街1-2號","121.912111666667","25.0213316666667","6502600","貢寮區"
"224006","676-BX","2018/08/06 16:59:30","新北市瑞芳區大寮路36號","121.782341666667","25.09872","6501200","瑞芳區"
"224008","285-BY","2018/08/06 16:59:33","新北市瑞芳區明燈路一段131號","121.82007","25.1071416666667","6501200","瑞芳區"
"224007","275-VK","2018/08/06 16:59:30","新北市瑞芳區瑞竹路8號","121.76515","25.10328","6501200","瑞芳區"
"224009","273-VK","2018/08/06 16:59:27","新北市瑞芳區濱二路28-2號","121.839285","25.1135583333333","6501200","瑞芳區"
"224005","271-BY","2018/08/06 16:59:15","新北市瑞芳區明里路4號","121.868823333333","25.120995","6501200","瑞芳區"
"227001","642-TC","2018/08/06 16:59:16","新北市雙溪區長源里土地公山46號","121.799541666667","25.0129216666667","6502500","雙溪區"
"227008","400-TW","2018/08/06 16:59:28","新北市雙溪區牡丹里聖南35號","121.853143333333","25.0560716666667","6502500","雙溪區"
"251005","010-UM","2018/08/06 16:59:25","新北市淡水區中正路259號","121.4323","25.1747066666667","6501000","淡水區"
"251013","KEA-2871","2018/08/06 16:59:12","新北市淡水區泉洲厝32號","121.489238333333","25.1925883333333","6501000","淡水區"
"251016","179-VK","2018/08/06 16:59:25","新北市淡水區瓦坑3號","121.477545","25.18078","6501000","淡水區"
"251014","180-VK","2018/08/06 16:59:28","新北市淡水區八里堆2-12號","121.454485","25.224555","6501000","淡水區"
"251015","181-VK","2018/08/06 16:59:19","新北市淡水區忠愛街9-1號","121.45678","25.1743783333333","6501000","淡水區"
"251010","413-VK","2018/08/06 16:59:14","新北市淡水區濱海路三段148巷50弄76號","121.430733333333","25.1902916666667","6501000","淡水區"
"251012","441-VK","2018/08/06 16:59:12","新北市淡水區中正路一段22巷101號","121.42715","25.1866483333333","6501000","淡水區"
"251008","442-VK","2018/08/06 16:59:28","新北市淡水區樹梅坑9號","121.472675","25.142675","6501000","淡水區"
"251004","443-VK","2018/08/06 16:59:14","新北市淡水區中正路二段31號","121.419415","25.181635","6501000","淡水區"
"251006","561-UM","2018/08/06 16:59:28","新北市淡水區真理街4號","121.438448333333","25.1729333333333","6501000","淡水區"
"251009","575-R6","2018/08/06 16:59:26","新北市淡水區中正路一段64號","121.42545","25.1769533333333","6501000","淡水區"
"251007","577-R6","2018/08/06 16:59:16","新北市淡水區中山路26-1號","121.444355","25.1696333333333","6501000","淡水區"
"251011","650-BX","2018/08/06 16:59:20","新北市淡水區中山路30號","121.444373333333","25.1697533333333","6501000","淡水區"
"252002","178-VK","2018/08/06 16:59:25","新北市三芝區忠孝街171號","121.505756666667","25.261085","6502100","三芝區"
"252001","292-VK","2018/08/06 16:59:13","新北市三芝區淡金路二段81號","121.503815","25.2607233333333","6502100","三芝區"
"242034","AAC-296","2018/08/06 16:46:11","新北市新莊區中正路508巷9-8號","121.436945","25.034825","6500500","新莊區"
"242053","751-BX","2018/08/06 16:59:30","新北市新莊區新泰路357巷3弄57號","121.442123333333","25.039155","6500500","新莊區"
"242036","415-TV","2018/08/06 16:59:27","新北市新莊區新泰路357巷3弄57號","121.442098333333","25.0393466666667","6500500","新莊區"
"242023","362-BY","2018/08/06 16:59:23","新北市新莊區新泰路255巷83號","121.442206666667","25.03872","6500500","新莊區"
"242039","133-UY","2018/08/06 16:59:14","新北市新莊區新泰路255巷83號","121.442106666667","25.03882","6500500","新莊區"
"242017","175-VK","2018/08/06 16:59:12","新北市新莊區三和路12-21號","121.442105","25.0387033333333","6500500","新莊區"
"242004","176-VK","2018/08/06 16:59:18","新北市新莊區新泰路255巷83號","121.442065","25.038855","6500500","新莊區"
"242013","347-TH","2018/08/06 16:59:21","新北市新莊區三和路12-17號","121.442045","25.0375633333333","6500500","新莊區"
"242021","348-TH","2018/08/06 16:59:13","新北市新莊區新泰路357巷3弄57號","121.442195","25.0396033333333","6500500","新莊區"
"242002","349-TH","2018/08/06 16:59:13","新北市新莊區三和路12-16號","121.442111666667","25.03747","6500500","新莊區"
"238005","571-TV","2018/08/06 16:59:25","新北市樹林區八德街1018號","121.391205","24.96848","6500700","樹林區"
"238024","5061-A6","2018/08/06 16:59:12","新北市樹林區鎮前街77-21號","121.424836666667","24.9901866666667","6500700","樹林區"
"238012","303-VK","2018/08/06 16:59:18","新北市樹林區中正路22-1號","121.427838333333","24.9994333333333","6500700","樹林區"
"238001","283-BY","2018/08/06 16:59:14","新北市樹林區三多路123號","121.414688333333","25.007915","6500700","樹林區"
"238020","268-VK","2018/08/06 16:59:15","新北市樹林區中山路三段210-2號","121.381396666667","24.9656383333333","6500700","樹林區"
"239007","AAC-297","2018/08/06 16:59:14","新北市鶯歌區二甲路13-16號","121.34497","24.9351983333333","6500800","鶯歌區"
"239001","417-VK","2018/08/06 16:59:15","新北市鶯歌區二甲路13-16號","121.345315","24.9351966666667","6500800","鶯歌區"
"239003","360-BY","2018/08/06 16:59:24","新北市鶯歌區二甲路12-2號","121.345515","24.9350916666667","6500800","鶯歌區"
"242015","281-VK","2018/08/06 16:59:20","新北市新莊區三和路12-17號","121.442076666667","25.0374933333333","6500500","新莊區"
