"lineid","car","time","location","longitude","latitude","cityid","cityname"
"234026","9371-KE","2018/08/06 17:39:21","新北市永和區中正路641號","121.51532","25.0100933333333","6500400","永和區"
"249005","172-UM","2018/08/06 17:39:14","新北市八里區荖阡坑路34-1號","121.402786666667","25.1297233333333","6502300","八里區"
"249001","173-UM","2018/08/06 17:39:26","新北市八里區龍米路二段157-1號","121.439911666667","25.153645","6502300","八里區"
"249004","303-UY","2018/08/06 17:39:17","新北市八里區賢二街39號","121.418948333333","25.1577916666667","6502300","八里區"
"249002","305-UY","2018/08/06 17:39:20","新北市八里區頂寮二街117-18號","121.444626666667","25.12691","6502300","八里區"
"249003","593-UM","2018/08/06 17:39:20","新北市八里區中山路二段233號","121.403306666667","25.149165","6502300","八里區"
"232011","375-UM","2018/08/06 17:39:26","新北市坪林區北宜路八段107號","121.706216666667","24.9348016666667","6502000","坪林區"
"244007","080-UY","2018/08/06 17:39:16","新北市林口區文化一路二段305號","121.385808333333","25.0859033333333","6501700","林口區"
"244019","403-UM","2018/08/06 17:39:21","新北市林口區忠孝路533號","121.37184","25.0692233333333","6501700","林口區"
"244013","KEA-2802","2018/08/06 17:39:24","新北市林口區中正路561號","121.380888333333","25.076995","6501700","林口區"
"244009","410-SL","2018/08/06 17:39:16","新北市林口區寶林路109號","121.383543333333","25.0852616666667","6501700","林口區"
"244023","483-VK","2018/08/06 17:39:33","新北市林口區興林路318巷7號","121.388706666667","25.0709166666667","6501700","林口區"
"244017","485-VK","2018/08/06 17:39:13","新北市林口區忠孝路377號","121.369296666667","25.0715533333333","6501700","林口區"
"244011","657-BX","2018/08/06 17:39:13","新北市林口區佳林路154號","121.384126666667","25.0771366666667","6501700","林口區"
"244025","837-TS","2018/08/06 17:39:21","新北市林口區文化二路一段289-5號","121.367406666667","25.0718566666667","6501700","林口區"
"244021","838-TS","2018/08/06 17:39:19","新北市林口區仁愛路一段36號","121.397196666667","25.075505","6501700","林口區"
"243013","AAD-798","2018/08/06 17:36:41","新北市泰山區黎明路25號","121.421928333333","25.0608316666667","6501600","泰山區"
"243016","KEA-2801","2018/08/06 17:39:28","新北市泰山區大科路176號","121.406778333333","25.0575","6501600","泰山區"
"222002","659-BX","2018/08/06 17:39:17","新北市深坑區深南路88巷1號","121.620958333333","25.0117483333333","6501800","深坑區"
"231046","107-UY","2018/08/06 17:39:20","新北市新店區直潭路92號","121.530895","24.9376233333333","6500600","新店區"
"241017","063-VK","2018/08/06 17:39:29","新北市三重區大同北路32號","121.49534","25.0625083333333","6500200","三重區"
"241005","262-UM","2018/08/06 17:39:18","新北市三重區永安北路二段33號","121.482238333333","25.0822216666667","6500200","三重區"
"241016","266-UM","2018/08/06 17:39:25","新北市三重區正義北路15-4號","121.497693333333","25.063035","6500200","三重區"
"241007","398-BY","2018/08/06 17:39:11","新北市三重區慈愛街9號","121.485048333333","25.0787183333333","6500200","三重區"
"241024","462-BY","2018/08/06 17:39:28","新北市三重區國道路一段58巷15號","121.481398333333","25.0720516666667","6500200","三重區"
"241030","480-VK","2018/08/06 17:39:21","新北市三重區名源街61巷17號","121.481076666667","25.0588783333333","6500200","三重區"
"241014","543-UM","2018/08/06 17:39:28","新北市三重區河邊北街82號","121.50431","25.0689566666667","6500200","三重區"
"241023","545-UM","2018/08/06 17:39:25","新北市三重區忠孝路三段50巷98號","121.48365","25.06441","6500200","三重區"
"241006","AAD-863","2018/08/06 17:38:29","新北市五股區中直路26-1號","121.425661666667","25.1100783333333","6500200","三重區"
"241012","941-UM","2018/08/06 17:39:25","新北市三重區仁興街39巷97號","121.501156666667","25.0765166666667","6500200","三重區"
"241033","AAC-255","2018/08/06 17:39:29","新北市三重區光復路一段138-1號","121.472103333333","25.052965","6500200","三重區"
"235064","005-UY","2018/08/06 17:39:24","新北市中和區員山路36巷16-3號","121.485111666667","24.991425","6500300","中和區"
"247010","KEA-2869","2018/08/06 17:39:16","新北市蘆洲區中山一路74巷2號","121.47918","25.0812933333333","6501400","蘆洲區"
"247024","893-R6","2018/08/06 17:39:23","新北市蘆洲區長樂路125-1號","121.462131666667","25.0880316666667","6501400","蘆洲區"
"247014","546-UM","2018/08/06 17:39:30","新北市蘆洲區中正路15號","121.471351666667","25.0820933333333","6501400","蘆洲區"
"247022","500-BY","2018/08/06 17:39:28","新北市蘆洲區民族路548巷10號","121.467585","25.0893416666667","6501400","蘆洲區"
"247012","339-TH","2018/08/06 17:39:33","新北市蘆洲區民權路3巷6號","121.476206666667","25.0856083333333","6501400","蘆洲區"
"247004","337-TH","2018/08/06 17:39:32","新北市蘆洲區長安街233巷47號","121.457573333333","25.0819183333333","6501400","蘆洲區"
"247006","336-TH","2018/08/06 17:39:19","新北市蘆洲區長安街68巷6號","121.46304","25.0803583333333","6501400","蘆洲區"
"247018","057-VK","2018/08/06 17:39:20","新北市蘆洲區三民路98巷7號","121.472551666667","25.0870516666667","6501400","蘆洲區"
"247008","056-VK","2018/08/06 17:39:18","新北市蘆洲區和平路19巷6號","121.472283333333","25.0788466666667","6501400","蘆洲區"
"247016","053-VK","2018/08/06 17:39:16","新北市蘆洲區光華路46巷11號","121.46841","25.0833816666667","6501400","蘆洲區"
"247002","002-UY","2018/08/06 17:39:21","新北市蘆洲區永平街65號","121.457373333333","25.0914666666667","6501400","蘆洲區"
"247020","001-UY","2018/08/06 17:39:16","新北市蘆洲區民族路361號","121.471778333333","25.0916583333333","6501400","蘆洲區"
"228003","097-TW","2018/08/06 17:39:15","新北市貢寮區仁理村仁和路164號","121.923235","25.0520583333333","6502600","貢寮區"
"228001","212-TW","2018/08/06 17:39:15","新北市貢寮區仁理村仁愛路95-1號","121.927655","25.0554583333333","6502600","貢寮區"
"228002","663-BX","2018/08/06 17:39:14","新北市貢寮區福隆里龜壽谷街27號","121.952948333333","25.0114566666667","6502600","貢寮區"
"224010","AGQ-8101","2018/08/06 17:34:51","新北市瑞芳區逢甲路204號","121.806911666667","25.1101883333333","6501200","瑞芳區"
"224006","676-BX","2018/08/06 17:39:28","新北市瑞芳區傑魚坑路38號","121.79402","25.1105983333333","6501200","瑞芳區"
"224008","285-BY","2018/08/06 17:39:32","新北市瑞芳區瑞柑新村10號","121.828878333333","25.1066183333333","6501200","瑞芳區"
"224009","273-VK","2018/08/06 17:39:27","新北市瑞芳區烏勢巷148號","121.847005","25.1078133333333","6501200","瑞芳區"
"224005","271-BY","2018/08/06 17:39:15","新北市瑞芳區海濱路8-6號","121.831685","25.12614","6501200","瑞芳區"
"227001","642-TC","2018/08/06 17:37:37","新北市雙溪區共和里東榮街52號","121.866318333333","25.0336683333333","6502500","雙溪區"
"208003","665-BX","2018/08/06 17:39:19","新北市金山區磺清路135號","121.639418333333","25.227705","6502700","金山區"
"251005","010-UM","2018/08/06 17:39:25","新北市淡水區鄧公路33巷1號","121.451453333333","25.1711133333333","6501000","淡水區"
"251001","011-UM","2018/08/06 17:39:23","新北市淡水區民權路92巷35-1號","121.462218333333","25.1265933333333","6501000","淡水區"
"251013","KEA-2871","2018/08/06 17:39:24","新北市淡水區演戲埔腳11號","121.469681666667","25.1947383333333","6501000","淡水區"
"251016","179-VK","2018/08/06 17:39:24","新北市淡水區埤島39-15號","121.452771666667","25.19586","6501000","淡水區"
"251014","180-VK","2018/08/06 17:37:05","新北市淡水區水碓21號","121.479956666667","25.2240783333333","6501000","淡水區"
"251015","181-VK","2018/08/06 17:39:19","新北市淡水區樹興里25號","121.486711666667","25.170035","6501000","淡水區"
"251010","413-VK","2018/08/06 17:39:14","新北市淡水區淡海路280巷16號","121.419798333333","25.1896933333333","6501000","淡水區"
"251012","441-VK","2018/08/06 17:39:12","新北市淡水區北新路200巷8號","121.451766666667","25.179685","6501000","淡水區"
"251008","442-VK","2018/08/06 17:39:28","新北市淡水區八勢路一段98-3號","121.467518333333","25.1554333333333","6501000","淡水區"
"251004","443-VK","2018/08/06 17:39:18","新北市淡水區中正東路二段88巷39號","121.459375","25.142905","6501000","淡水區"
"251006","561-UM","2018/08/06 17:39:28","新北市淡水區大信街32號","121.442071666667","25.1770533333333","6501000","淡水區"
"251009","575-R6","2018/08/06 17:39:26","新北市淡水區中正路28號","121.444395","25.1690716666667","6501000","淡水區"
"251007","577-R6","2018/08/06 17:39:16","新北市淡水區民生路124巷19號","121.464131666667","25.1376883333333","6501000","淡水區"
"251011","650-BX","2018/08/06 17:39:20","新北市淡水區小坪頂71號","121.484628333333","25.1586466666667","6501000","淡水區"
"251002","672-BX","2018/08/06 17:39:25","新北市淡水區清水街250號","121.440475","25.17223","6501000","淡水區"
"251003","766-UM","2018/08/06 17:39:28","新北市淡水區中山北路一段85號","121.442166666667","25.17612","6501000","淡水區"
"207003","550-UM","2018/08/06 17:39:22","新北市萬里區龜吼里漁澳路10號","121.686236666667","25.1947283333333","6502800","萬里區"
"207004","225-TW","2018/08/06 17:39:14","新北市萬里區中幅里中福路8-1號","121.685881666667","25.1648283333333","6502800","萬里區"
"252002","178-VK","2018/08/06 17:39:25","新北市三芝區中正路二段17號","121.504375","25.2553633333333","6502100","三芝區"
"252001","292-VK","2018/08/06 17:39:13","新北市三芝區淡金路二段15號","121.502293333333","25.2590466666667","6502100","三芝區"
"237013","252-BX","2018/08/06 17:39:24","新北市三峽區愛國路33-9號","121.37493","24.9329516666667","6500900","三峽區"
"237014","433-BY","2018/08/06 17:39:20","新北市三峽區中山路459巷163-3號","121.348715","24.9326933333333","6500900","三峽區"
"237006","5529-G3","2018/08/06 17:39:24","新北市三峽區介壽路一段550號","121.387326666667","24.93336","6500900","三峽區"
"237011","KEA-2596","2018/08/06 17:39:32","新北市三峽區中山路365-1號","121.357683333333","24.9365466666667","6500900","三峽區"
"237015","649-BX","2018/08/06 17:39:34","新北市三峽區正義街138號","121.368445","24.9165833333333","6500900","三峽區"
"236042","107-UM","2018/08/06 17:39:12","新北市土城區城林路6巷80號","121.438648333333","24.9796983333333","6501300","土城區"
"236030","253-BX","2018/08/06 17:39:21","新北市土城區城林路6巷80號","121.438656666667","24.9796266666667","6501300","土城區"
"236014","270-VK","2018/08/06 17:39:27","新北市土城區城林路6巷80號","121.438556666667","24.979595","6501300","土城區"
"236039","271-VK","2018/08/06 17:39:26","新北市土城區城林路6巷80號","121.438526666667","24.9796583333333","6501300","土城區"
"236020","401-BY","2018/08/06 17:39:21","新北市土城區城林路6巷80號","121.43882","24.9796816666667","6501300","土城區"
"236048","913-UM","2018/08/06 17:39:18","新北市土城區城林路6巷80號","121.43862","24.9796983333333","6501300","土城區"
"242034","AAC-296","2018/08/06 17:39:14","新北市新莊區新莊路595號","121.446205","25.0332216666667","6500500","新莊區"
"242058","986-R7","2018/08/06 17:39:18","新北市新莊區中正路715-1號","121.42443","25.0295583333333","6500500","新莊區"
"242053","751-BX","2018/08/06 17:39:30","新北市新莊區新樹路699巷27號","121.432803333333","25.0015083333333","6500500","新莊區"
"242025","705-TV","2018/08/06 17:39:18","新北市新莊區思源路90號","121.460146666667","25.0452583333333","6500500","新莊區"
"242027","615-BX","2018/08/06 17:39:22","新北市新莊區福壽街116號","121.458043333333","25.050805","6500500","新莊區"
"242042","566-BX","2018/08/06 17:39:18","新北市新莊區中正路514巷17號","121.433008333333","25.033","6500500","新莊區"
"242046","497-BY","2018/08/06 17:39:23","新北市新莊區建國一路28號","121.433816666667","25.031555","6500500","新莊區"
"242007","442-UM","2018/08/06 17:39:24","新北市新莊區福樂街118巷17號","121.457435","25.04837","6500500","新莊區"
"242050","441-UM","2018/08/06 17:39:23","新北市新莊區西盛街201巷11號","121.42891","25.0169433333333","6500500","新莊區"
"242056","440-UM","2018/08/06 17:39:30","新北市新莊區泰豐街21號","121.448305","25.0318533333333","6500500","新莊區"
"242036","415-TV","2018/08/06 17:39:27","新北市新莊區建福路59巷47號","121.42866","25.02787","6500500","新莊區"
"242044","400-BY","2018/08/06 17:39:30","新北市新莊區中正路871巷9弄45號","121.41995","25.0266833333333","6500500","新莊區"
"242023","362-BY","2018/08/06 17:39:23","新北市新莊區公園路129-5號","121.457366666667","25.0408633333333","6500500","新莊區"
"242060","353-BY","2018/08/06 17:39:27","新北市新莊區瓊林南路134號","121.434815","25.0081433333333","6500500","新莊區"
"242009","132-UY","2018/08/06 17:39:12","新北市新莊區昌明街14巷3弄2號","121.457316666667","25.053035","6500500","新莊區"
"242039","133-UY","2018/08/06 17:39:14","新北市新莊區民全街16號","121.42908","25.0219666666667","6500500","新莊區"
"242031","135-UY","2018/08/06 17:39:28","新北市新莊區新泰路374號","121.4441","25.0431183333333","6500500","新莊區"
"242048","172-VK","2018/08/06 17:39:21","新北市新莊區萬安街108號","121.420388333333","25.022305","6500500","新莊區"
"242017","175-VK","2018/08/06 17:39:12","新北市新莊區復興路一段149巷21弄9號","121.449723333333","25.04401","6500500","新莊區"
"242004","176-VK","2018/08/06 17:39:18","新北市新莊區自立街180號","121.456071666667","25.0454766666667","6500500","新莊區"
"242013","347-TH","2018/08/06 17:39:21","新北市新莊區中誠街140號","121.448786666667","25.0476283333333","6500500","新莊區"
"242021","348-TH","2018/08/06 17:39:33","新北市新莊區中華路一段118號","121.452486666667","25.0405083333333","6500500","新莊區"
"242002","349-TH","2018/08/06 17:39:13","新北市新莊區新莊路264號","121.45186","25.0339466666667","6500500","新莊區"
"242019","350-TH","2018/08/06 17:39:34","新北市新莊區中港路168號","121.454963333333","25.04159","6500500","新莊區"
"238015","755-BX","2018/08/06 17:39:24","新北市樹林區樹德街136巷13弄8號","121.419588333333","24.9931116666667","6500700","樹林區"
"238023","601-UM","2018/08/06 17:39:15","新北市樹林區三福街68號","121.404918333333","25.0163333333333","6500700","樹林區"
"238019","599-UM","2018/08/06 17:39:29","新北市樹林區太順街25號","121.419231666667","24.979855","6500700","樹林區"
"238018","571-TV","2018/08/06 17:39:25","新北市樹林區保安街一段1號","121.427261666667","24.9934066666667","6500700","樹林區"
"238024","5061-A6","2018/08/06 17:39:32","新北市樹林區環河路110號","121.426038333333","24.9773133333333","6500700","樹林區"
"238022","KEA-2213","2018/08/06 17:39:19","新北市樹林區太順街47-1號","121.418058333333","24.9792683333333","6500700","樹林區"
"238021","KEA-2539","2018/08/06 17:39:25","新北市樹林區柑園街一段192號","121.395238333333","24.956515","6500700","樹林區"
"238025","303-VK","2018/08/06 17:39:18","新北市樹林區三俊街14號","121.411131666667","25.0153666666667","6500700","樹林區"
"238017","283-BY","2018/08/06 17:39:14","新北市樹林區三德街30巷21號","121.414698333333","25.0125383333333","6500700","樹林區"
"238014","282-BY","2018/08/06 17:39:24","新北市樹林區保安街一段336巷25號","121.417676666667","24.9990483333333","6500700","樹林區"
"238020","268-VK","2018/08/06 17:39:15","新北市樹林區俊英街252號","121.424505","25.01103","6500700","樹林區"
"238026","172-UY","2018/08/06 17:39:18","新北市樹林區新興街19巷36弄33號","121.402568333333","24.9728616666667","6500700","樹林區"
"238016","169-UY","2018/08/06 17:39:27","新北市樹林區啟智街129號","121.418098333333","24.9894083333333","6500700","樹林區"
"239007","AAC-297","2018/08/06 17:39:14","新北市鶯歌區國光街18號","121.340155","24.9569983333333","6500800","鶯歌區"
"239006","891-R6","2018/08/06 17:39:21","新北市鶯歌區永和街34巷23號","121.333875","24.96716","6500800","鶯歌區"
"239008","527-UM","2018/08/06 17:39:28","桃園市龜山區宏德司法新村4號","121.331105","24.9793383333333","6500800","鶯歌區"
"239005","526-UM","2018/08/06 17:39:23","新北市鶯歌區福隆二街44號","121.324793333333","24.97165","6500800","鶯歌區"
"239001","417-VK","2018/08/06 17:39:15","新北市鶯歌區中正三路228號","121.331453333333","24.9375283333333","6500800","鶯歌區"
"239003","360-BY","2018/08/06 17:39:24","新北市鶯歌區鶯桃路206巷49號","121.337996666667","24.9601883333333","6500800","鶯歌區"
"239002","359-BY","2018/08/06 17:39:11","新北市鶯歌區建國路280-1號","121.34652","24.9539133333333","6500800","鶯歌區"
"239004","193-VK","2018/08/06 17:39:16","新北市鶯歌區三鶯路107號","121.359491666667","24.9441883333333","6500800","鶯歌區"
"221008","489-VK","2018/08/06 17:39:14","新北市汐止區康寧街901號","121.651403333333","25.075015","6501100","汐止區"
"221015","131-UY","2018/08/06 17:39:27","新北市汐止區康寧街901號","121.651216666667","25.07515","6501100","汐止區"
"221010","269-BY","2018/08/06 17:39:32","新北市汐止區汐萬路二段62巷2號","121.649473333333","25.0820516666667","6501100","汐止區"
"221023","279-VK","2018/08/06 17:39:26","新北市汐止區汐萬路一段256巷1號","121.651721666667","25.0748666666667","6501100","汐止區"
"221032","280-BY","2018/08/06 17:39:15","新北市汐止區汐萬路一段256巷1號","121.65201","25.0749116666667","6501100","汐止區"
"221031","353-TW","2018/08/06 17:39:25","新北市汐止區汐萬路一段256巷1號","121.651811666667","25.0749566666667","6501100","汐止區"
"221033","647-BX","2018/08/06 17:39:18","新北市汐止區林森街132巷6弄6號","121.624385","25.0407016666667","6501100","汐止區"
"242015","281-VK","2018/08/06 17:39:20","新北市新莊區新泰路341號","121.444808333333","25.0419683333333","6500500","新莊區"
"235061","KEA-2875","2018/08/06 17:14:15","新北市中和區員山路36巷16-2號","121.485286666667","24.9916816666667","6500300","中和區"
