"lineid","car","time","location","longitude","latitude","cityid","cityname"
"234026","9371-KE","2018/08/06 18:09:21","新北市永和區秀朗路一段10巷21號","121.513276666667","25.0062033333333","6500400","永和區"
"249005","172-UM","2018/08/06 18:09:14","新北市八里區荖阡坑路15-40號","121.401693333333","25.1399016666667","6502300","八里區"
"249001","173-UM","2018/08/06 18:09:23","新北市八里區龍米路二段39號","121.448395","25.1401133333333","6502300","八里區"
"249004","303-UY","2018/08/06 18:09:17","新北市八里區龍米路二段200巷3號","121.433708333333","25.15879","6502300","八里區"
"249002","305-UY","2018/08/06 18:09:20","新北市八里區龍米路一段356巷38號","121.452165","25.1305966666667","6502300","八里區"
"249003","593-UM","2018/08/06 18:09:20","新北市八里區中華路二段165巷19弄26號","121.410403333333","25.151705","6502300","八里區"
"248016","026-BX","2018/08/06 18:09:22","新北市五股區成泰路三段101-1號","121.44427","25.09011","6501500","五股區"
"248006","077-UY","2018/08/06 18:09:30","新北市五股區中興路二段81號","121.460766666667","25.0772183333333","6501500","五股區"
"248008","095-VK","2018/08/06 18:09:15","新北市五股區中興路二段182巷15弄13號","121.457101666667","25.0812783333333","6501500","五股區"
"248018","225-UY","2018/08/06 18:09:14","新北市五股區成泰路三段101-1號","121.444255","25.0899833333333","6501500","五股區"
"248012","247-BX","2018/08/06 18:09:31","新北市五股區中興路三段198號","121.441081666667","25.08216","6501500","五股區"
"248014","261-SL","2018/08/06 18:09:30","新北市五股區成泰路一段239號","121.436793333333","25.08084","6501500","五股區"
"248004","677-BX","2018/08/06 18:09:30","新北市五股區成泰路二段106號","121.43775","25.083025","6501500","五股區"
"248002","678-BX","2018/08/06 18:09:18","新北市五股區新五路三段9號","121.444361666667","25.08965","6501500","五股區"
"248010","682-TV","2018/08/06 18:09:12","新北市五股區新五路二段258號","121.4409","25.0821583333333","6501500","五股區"
"232011","375-UM","2018/08/06 18:09:26","新北市坪林區水柳腳4號","121.711453333333","24.9354383333333","6502000","坪林區"
"244007","080-UY","2018/08/06 18:09:16","新北市林口區林口路124巷10弄1號","121.389073333333","25.0818333333333","6501700","林口區"
"244019","403-UM","2018/08/06 18:09:22","新北市林口區文化一路一段100巷8弄6號","121.373406666667","25.0703716666667","6501700","林口區"
"244013","KEA-2802","2018/08/06 18:09:24","新北市林口區中山路146號","121.391381666667","25.078745","6501700","林口區"
"244009","410-SL","2018/08/06 18:09:16","新北市林口區中山路496號","121.379875","25.0828933333333","6501700","林口區"
"244023","483-VK","2018/08/06 18:09:13","新北市林口區東湖路153巷135號","121.382245","25.07356","6501700","林口區"
"244017","485-VK","2018/08/06 18:09:13","新北市林口區忠孝路504巷21號","121.369615","25.06962","6501700","林口區"
"244011","657-BX","2018/08/06 18:09:13","新北市林口區中正路79號","121.394981666667","25.07742","6501700","林口區"
"244025","837-TS","2018/08/06 18:09:21","新北市林口區文化北路一段62號","121.356606666667","25.0686883333333","6501700","林口區"
"244021","838-TS","2018/08/06 18:09:19","新北市林口區自強五街23號","121.400186666667","25.075795","6501700","林口區"
"243013","AAD-798","2018/08/06 18:09:17","新北市泰山區南林路93號","121.41549","25.0511683333333","6501600","泰山區"
"222003","436-BY","2018/08/06 18:09:27","新北市深坑區腳坑6號","121.610103333333","24.99464","6501800","深坑區"
"222002","659-BX","2018/08/06 18:09:17","新北市深坑區文化街42號","121.61908","25.00177","6501800","深坑區"
"231041","002-UM","2018/08/06 18:09:19","新北市新店區安華路28-1號","121.5197","24.9608416666667","6500600","新店區"
"231059","046-UY","2018/08/06 18:09:19","新北市新店區安華路28-1號","121.519583333333","24.9608083333333","6500600","新店區"
"231040","047-UY","2018/08/06 18:09:29","新北市新店區安華路28-1號","121.519155","24.96091","6500600","新店區"
"231044","106-UY","2018/08/06 18:09:27","新北市新店區安華路28-1號","121.519625","24.96079","6500600","新店區"
"231046","107-UY","2018/08/06 18:09:20","新北市新店區直潭七街60號","121.532288333333","24.93979","6500600","新店區"
"231052","108-UY","2018/08/06 18:09:30","新北市新店區安華路28-1號","121.519145","24.960965","6500600","新店區"
"231065","110-UY","2018/08/06 18:09:23","新北市新店區安一路一段1-1號","121.519143333333","24.961125","6500600","新店區"
"231047","187-VK","2018/08/06 18:09:24","新北市新店區安一路一段1-1號","121.51952","24.9610883333333","6500600","新店區"
"231054","KEA-2219","2018/08/06 18:09:16","新北市新店區安一路一段1-1號","121.51986","24.9612683333333","6500600","新店區"
"231051","278-BY","2018/08/06 18:09:04","新北市新店區安華路28-1號","121.519591666667","24.961005","6500600","新店區"
"231050","AAD-862","2018/08/06 18:09:27","新北市新店區安一路一段1-1號","121.519953333333","24.96122","6500600","新店區"
"231058","3713-VJ","2018/08/06 18:09:26","新北市新店區安華路1-1號","121.519131666667","24.96055","6500600","新店區"
"231066","4716-K9","2018/08/06 18:09:18","新北市新店區安一路一段1-1號","121.519268333333","24.9613366666667","6500600","新店區"
"231056","4715-K9","2018/08/06 18:09:13","新北市新店區安康路一段355號","121.519821666667","24.963185","6500600","新店區"
"231049","513-UM","2018/08/06 18:09:16","新北市新店區安一路一段1-1號","121.519735","24.9611033333333","6500600","新店區"
"231063","616-UM","2018/08/06 18:09:24","新北市新店區安華路1-1號","121.519423333333","24.96046","6500600","新店區"
"231045","617-UM","2018/08/06 18:09:26","新北市新店區安華路28-1號","121.519508333333","24.9608633333333","6500600","新店區"
"231061","619-UM","2018/08/06 18:09:31","新北市新店區安華路28-1號","121.51948","24.9609483333333","6500600","新店區"
"231062","720-UM","2018/08/06 18:09:21","新北市新店區安一路一段1-1號","121.51926","24.9611716666667","6500600","新店區"
"231060","897-TW","2018/08/06 18:09:12","新北市新店區安華路28-1號","121.519616666667","24.96082","6500600","新店區"
"231055","AKT-0513","2018/08/06 18:09:18","新北市新店區安華路28-1號","121.519698333333","24.9608266666667","6500600","新店區"
"241030","480-VK","2018/08/06 18:09:21","新北市林口區太平里180號","121.368271666667","25.1346466666667","6500200","三重區"
"241006","AAD-863","2018/08/06 18:09:30","新北市五股區中直路21號","121.421423333333","25.1116533333333","6500200","三重區"
"241033","AAC-255","2018/08/06 18:09:29","新北市三重區中興北街62號","121.468901666667","25.0515766666667","6500200","三重區"
"235064","005-UY","2018/08/06 18:09:24","新北市中和區中正路281號","121.49487","24.9938116666667","6500300","中和區"
"235063","006-UY","2018/08/06 18:09:24","新北市中和區員山路36巷16-3號","121.484871666667","24.99131","6500300","中和區"
"235072","031-BX","2018/08/06 18:09:27","新北市中和區員山路36巷16-2號","121.485268333333","24.991625","6500300","中和區"
"235056","096-UM","2018/08/06 18:09:14","新北市中和區連城路469巷3號","121.483613333333","24.9957983333333","6500300","中和區"
"235039","097-UM","2018/08/06 18:09:29","新北市中和區員山路36巷16-2號","121.485333333333","24.9917066666667","6500300","中和區"
"235065","098-UM","2018/08/06 18:09:24","新北市中和區中山路二段2巷89號","121.500743333333","25.0077016666667","6500300","中和區"
"235058","151-BY","2018/08/06 18:09:28","新北市中和區圓通路367巷62-1號","121.492611666667","24.9829966666667","6500300","中和區"
"235038","185-VK","2018/08/06 18:09:29","新北市中和區景平路105號","121.516816666667","24.992085","6500300","中和區"
"235042","KEA-2878","2018/08/06 18:09:25","新北市中和區中正路161巷2號","121.498346666667","24.9936433333333","6500300","中和區"
"235050","4979-A6","2018/08/06 18:09:25","新北市中和區錦和路350-1號","121.490451666667","24.9935583333333","6500300","中和區"
"235070","558-UM","2018/08/06 18:09:26","新北市中和區中正路408號","121.492321666667","24.9939433333333","6500300","中和區"
"235045","565-BX","2018/08/06 18:09:31","新北市中和區錦和路350-1號","121.490435","24.99361","6500300","中和區"
"235054","640-BX","2018/08/06 18:09:19","新北市中和區莒光路185號","121.472618333333","24.999005","6500300","中和區"
"235047","732-UM","2018/08/06 18:09:19","新北市中和區中正路271號","121.49596","24.99372","6500300","中和區"
"235062","800-TS","2018/08/06 18:09:19","新北市中和區連城路467-5號","121.483695","24.9960466666667","6500300","中和區"
"235057","801-TS","2018/08/06 18:09:13","新北市中和區中正路637巷60弄61號","121.48589","24.99252","6500300","中和區"
"235052","805-TS","2018/08/06 18:09:24","新北市中和區中正路395號","121.489988333333","24.993555","6500300","中和區"
"235048","896-TW","2018/08/06 18:09:21","新北市中和區員山路36巷16-2號","121.485016666667","24.99193","6500300","中和區"
"235053","900-TW","2018/08/06 18:09:30","新北市中和區員山路36巷16-3號","121.484906666667","24.9919016666667","6500300","中和區"
"235051","157-BY","2018/08/06 18:09:24","新北市中和區板南路100號","121.503936666667","24.9923566666667","6500300","中和區"
"235037","AAC-213","2018/08/06 18:09:25","新北市中和區景平路155號","121.513483333333","24.9920783333333","6500300","中和區"
"226004","312-R5","2018/08/06 18:09:20","新北市平溪區白石里白石腳46號","121.718768333333","25.0213083333333","6502400","平溪區"
"228003","097-TW","2018/08/06 18:09:15","新北市貢寮區真理里美艷山街6-2號","121.928866666667","25.060725","6502600","貢寮區"
"228001","212-TW","2018/08/06 18:09:15","新北市貢寮區真理里新港街26巷55弄2-1號","121.927395","25.0528816666667","6502600","貢寮區"
"228002","663-BX","2018/08/06 18:09:14","新北市貢寮區福連里福連街34號","121.988405","25.01126","6502600","貢寮區"
"224006","676-BX","2018/08/06 18:09:27","新北市瑞芳區中山路157號","121.802231666667","25.1064866666667","6501200","瑞芳區"
"224002","639-TC","2018/08/06 18:09:24","新北市瑞芳區三爪子坑路80號","121.810153333333","25.1055283333333","6501200","瑞芳區"
"224008","285-BY","2018/08/06 18:09:32","新北市瑞芳區員山子路23號","121.821388333333","25.103005","6501200","瑞芳區"
"224007","275-VK","2018/08/06 18:09:26","新北市瑞芳區四腳亭坑路44-2號","121.770631666667","25.1095616666667","6501200","瑞芳區"
"224009","273-VK","2018/08/06 18:09:26","新北市瑞芳區金光路115號","121.853673333333","25.106255","6501200","瑞芳區"
"224005","271-BY","2018/08/06 18:09:15","新北市瑞芳區深澳路12-3號","121.81909","25.1308333333333","6501200","瑞芳區"
"227001","642-TC","2018/08/06 18:09:21","新北市雙溪區共和里東榮街52號","121.86638","25.0337833333333","6502500","雙溪區"
"253005","032-BX","2018/08/06 18:09:31","新北市石門區福安街13號","121.56853","25.2927083333333","6502200","石門區"
"253006","295-VK","2018/08/06 18:09:17","新北市石門區老梅路52巷21號","121.546401666667","25.2885833333333","6502200","石門區"
"222001","KEA-2212","2018/08/06 18:09:28","新北市深坑區北深路二段151號","121.61412","25.0021316666667","6501800","深坑區"
"208002","KEA-2872","2018/08/06 18:09:30","新北市金山區三界壇路97巷1號","121.619286666667","25.22747","6502700","金山區"
"208003","665-BX","2018/08/06 18:09:19","新北市金山區磺港里磺港路311號","121.644123333333","25.2278266666667","6502700","金山區"
"208001","761-BX","2018/08/06 18:09:20","新北市金山區磺港里磺港路111號","121.646331666667","25.2267366666667","6502700","金山區"
"251005","010-UM","2018/08/06 18:09:25","新北市淡水區水源街一段141號","121.447201666667","25.1719033333333","6501000","淡水區"
"251001","011-UM","2018/08/06 18:09:22","新北市淡水區自立路8-6號","121.463233333333","25.1295183333333","6501000","淡水區"
"251013","KEA-2871","2018/08/06 18:09:12","新北市淡水區口湖子8號","121.476915","25.1915666666667","6501000","淡水區"
"251016","179-VK","2018/08/06 18:09:28","新北市淡水區下圭柔山15號","121.453056666667","25.2021666666667","6501000","淡水區"
"251014","180-VK","2018/08/06 18:09:25","新北市淡水區南平15號","121.488421666667","25.2191316666667","6501000","淡水區"
"251015","181-VK","2018/08/06 18:09:19","新北市淡水區興福寮66巷539號","121.484593333333","25.1651216666667","6501000","淡水區"
"251010","413-VK","2018/08/06 18:09:14","新北市淡水區淡海路147號","121.420835","25.1832566666667","6501000","淡水區"
"251012","441-VK","2018/08/06 18:09:12","新北市淡水區北新路三段174號","121.492756666667","25.192685","6501000","淡水區"
"251008","442-VK","2018/08/06 18:09:28","新北市淡水區中正東路二段5巷1號","121.458665","25.159","6501000","淡水區"
"251004","443-VK","2018/08/06 18:09:18","新北市淡水區民族路110巷41號","121.461701666667","25.1352066666667","6501000","淡水區"
"251006","561-UM","2018/08/06 18:09:28","新北市淡水區新民街79號","121.438151666667","25.176795","6501000","淡水區"
"251009","575-R6","2018/08/06 18:09:26","新北市淡水區大忠街34巷13號","121.443815","25.1756633333333","6501000","淡水區"
"251011","650-BX","2018/08/06 18:09:20","新北市淡水區三空泉9-2號","121.474146666667","25.16343","6501000","淡水區"
"251002","672-BX","2018/08/06 18:09:25","新北市淡水區中正東路一段87-2號","121.452891666667","25.1619433333333","6501000","淡水區"
"251003","766-UM","2018/08/06 18:09:28","新北市淡水區大忠街113巷24號","121.447378333333","25.177455","6501000","淡水區"
"207003","550-UM","2018/08/06 18:09:22","新北市萬里區野柳里港西路701-2號","121.685291666667","25.2046533333333","6502800","萬里區"
"207004","225-TW","2018/08/06 18:09:14","新北市萬里區中幅里中福路106號","121.676716666667","25.1693266666667","6502800","萬里區"
"252002","178-VK","2018/08/06 18:09:25","新北市三芝區埔坪里埔頭坑44號","121.504638333333","25.2617933333333","6502100","三芝區"
"252003","249-BX","2018/08/06 18:09:26","新北市三芝區埔頭里埔頭39-1號","121.498846666667","25.2605616666667","6502100","三芝區"
"252001","292-VK","2018/08/06 18:09:33","新北市三芝區中興街二段2號","121.498405","25.2566566666667","6502100","三芝區"
"237004","KEA-2597","2018/08/06 18:09:24","新北市三峽區大埔路357號","121.371233333333","24.89563","6500900","三峽區"
"237007","153-BY","2018/08/06 18:09:18","新北市三峽區中正路二段370巷36號","121.364558333333","24.9111583333333","6500900","三峽區"
"237009","210-TH","2018/08/06 18:09:13","新北市三峽區復興路303巷2弄10號","121.365268333333","24.93832","6500900","三峽區"
"237013","252-BX","2018/08/06 18:09:24","新北市三峽區介壽路一段193-2號","121.378181666667","24.9311466666667","6500900","三峽區"
"237012","275-BY","2018/08/06 18:09:31","新北市三峽區民生街1巷5-77號","121.377953333333","24.9347316666667","6500900","三峽區"
"237008","302-VK","2018/08/06 18:09:23","新北市三峽區白雞62-3號","121.388175","24.9123216666667","6500900","三峽區"
"237014","433-BY","2018/08/06 18:09:20","新北市三峽區復興路141號","121.371196666667","24.938205","6500900","三峽區"
"237006","5529-G3","2018/08/06 18:09:13","新北市三峽區介壽路二段138巷1弄62-8號","121.3974","24.93305","6500900","三峽區"
"237011","KEA-2596","2018/08/06 18:09:32","新北市三峽區介壽路一段225號","121.378888333333","24.9303866666667","6500900","三峽區"
"237015","649-BX","2018/08/06 18:09:14","新北市三峽區紫新路36巷1號","121.421973333333","24.9223516666667","6500900","三峽區"
"237010","706-TV","2018/08/06 18:09:11","新北市三峽區民權街200號","121.367681666667","24.929225","6500900","三峽區"
"237005","AKY-6261","2018/08/06 18:09:13","新北市三峽區文化路65巷10號","121.372045","24.935615","6500900","三峽區"
"236069","105-UM","2018/08/06 18:09:22","新北市土城區明德路一段154號","121.463166666667","24.9785666666667","6501300","土城區"
"236042","107-UM","2018/08/06 18:09:31","新北市土城區中華路二段2號","121.439296666667","24.9796666666667","6501300","土城區"
"236078","166-UM","2018/08/06 18:09:22","新北市土城區永安街17號","121.433723333333","24.9648","6501300","土城區"
"236030","253-BX","2018/08/06 18:09:21","新北市土城區城林路6巷80號","121.438688333333","24.9796633333333","6501300","土城區"
"236026","269-VK","2018/08/06 18:09:26","新北市土城區承天路43巷4號","121.439116666667","24.96394","6501300","土城區"
"236014","270-VK","2018/08/06 18:09:27","新北市土城區員福街20號","121.441526666667","24.9786316666667","6501300","土城區"
"236039","271-VK","2018/08/06 18:09:27","新北市土城區金城路二段14號","121.449408333333","24.97742","6501300","土城區"
"236020","401-BY","2018/08/06 18:09:21","新北市土城區中華路一段243-8號","121.441123333333","24.9821116666667","6501300","土城區"
"236059","912-UM","2018/08/06 18:09:22","新北市土城區中央路四段133-1號","121.416045","24.9574816666667","6501300","土城區"
"236048","913-UM","2018/08/06 18:09:18","新北市土城區明德路一段365-1號","121.453538333333","24.97904","6501300","土城區"
"236063","915-UM","2018/08/06 18:09:27","新北市土城區金城路二段28-6號","121.450655","24.9783966666667","6501300","土城區"
"236055","AAC-216","2018/08/06 18:09:29","新北市土城區中華路二段80號","121.43866","24.975655","6501300","土城區"
"242034","AAC-296","2018/08/06 18:09:31","新北市新莊區福海街24巷8號","121.445686666667","25.03395","6500500","新莊區"
"242058","986-R7","2018/08/06 18:09:17","新北市新莊區新北大道七段180號","121.415593333333","25.0316083333333","6500500","新莊區"
"242053","751-BX","2018/08/06 18:09:30","新北市新莊區民安西路368號","121.427566666667","25.0109383333333","6500500","新莊區"
"242025","705-TV","2018/08/06 18:09:18","新北市新莊區五權一路98號","121.459443333333","25.0675983333333","6500500","新莊區"
"242027","615-BX","2018/08/06 18:09:22","新北市新莊區幸福路83-1號","121.456465","25.04927","6500500","新莊區"
"242042","566-BX","2018/08/06 18:09:18","新北市新莊區天祥街53號","121.414971666667","25.03042","6500500","新莊區"
"242046","497-BY","2018/08/06 18:09:23","新北市新莊區福營路302號","121.422401666667","25.0275333333333","6500500","新莊區"
"242007","442-UM","2018/08/06 18:09:23","新北市新莊區自治街35號","121.454116666667","25.048","6500500","新莊區"
"242050","441-UM","2018/08/06 18:09:20","新北市新莊區民本街11巷31號","121.428975","25.02031","6500500","新莊區"
"242056","440-UM","2018/08/06 18:09:30","新北市新莊區泰豐街1巷12號","121.448031666667","25.03112","6500500","新莊區"
"242036","415-TV","2018/08/06 18:09:27","新北市新莊區建福路48巷13號","121.425675","25.0273716666667","6500500","新莊區"
"242044","400-BY","2018/08/06 18:09:27","新北市新莊區中正路力行巷46號","121.41583","25.0269316666667","6500500","新莊區"
"242023","362-BY","2018/08/06 18:09:23","新北市泰山區泰林路一段2號","121.442036666667","25.0478083333333","6500500","新莊區"
"242060","353-BY","2018/08/06 18:09:20","新北市新莊區新樹路79號","121.437773333333","25.0275216666667","6500500","新莊區"
"242009","132-UY","2018/08/06 18:09:15","新北市新莊區昌平街41巷1號","121.454621666667","25.05235","6500500","新莊區"
"242039","133-UY","2018/08/06 18:09:25","新北市新莊區民安西路88巷9號","121.426183333333","25.0199466666667","6500500","新莊區"
"242031","135-UY","2018/08/06 18:09:28","新北市新莊區新泰路277巷11號","121.44517","25.0402566666667","6500500","新莊區"
"242048","172-VK","2018/08/06 18:09:24","新北市新莊區民安路49號","121.423915","25.0262033333333","6500500","新莊區"
"242011","173-VK","2018/08/06 18:09:20","新北市新莊區中信街103號","121.44772","25.05364","6500500","新莊區"
"242017","175-VK","2018/08/06 18:09:32","新北市新莊區中港路303號","121.452785","25.0446","6500500","新莊區"
"242021","348-TH","2018/08/06 18:09:12","新北市新莊區新興街110號","121.45062","25.0391316666667","6500500","新莊區"
"242002","349-TH","2018/08/06 18:09:33","新北市新莊區新莊路87號","121.457831666667","25.036745","6500500","新莊區"
"242019","350-TH","2018/08/06 18:09:14","新北市新莊區長青街37巷22弄7號","121.455963333333","25.0412183333333","6500500","新莊區"
"238015","755-BX","2018/08/06 18:09:24","新北市樹林區啟智街86巷7號","121.41847","24.9906916666667","6500700","樹林區"
"238023","601-UM","2018/08/06 18:09:35","新北市樹林區三福街85巷11號","121.407286666667","25.0154166666667","6500700","樹林區"
"238019","599-UM","2018/08/06 18:09:23","新北市樹林區國凱街160號","121.42445","24.9808516666667","6500700","樹林區"
"238018","571-TV","2018/08/06 18:09:25","新北市樹林區博愛一街18號","121.425448333333","24.9909233333333","6500700","樹林區"
"238024","5061-A6","2018/08/06 18:09:12","新北市樹林區保安街一段241-1號","121.419945","24.9966966666667","6500700","樹林區"
"238021","KEA-2539","2018/08/06 18:09:25","新北市樹林區柑園街二段88-1號","121.386395","24.9550133333333","6500700","樹林區"
"238025","303-VK","2018/08/06 18:09:18","新北市樹林區保安街一段332號","121.418215","24.997755","6500700","樹林區"
"238017","283-BY","2018/08/06 18:09:21","新北市樹林區中正路500號","121.412151666667","25.01326","6500700","樹林區"
"238014","282-BY","2018/08/06 18:09:24","新北市樹林區潭興街105號","121.425016666667","24.9989666666667","6500700","樹林區"
"238020","268-VK","2018/08/06 18:09:15","新北市樹林區三俊街21號","121.411778333333","25.01552","6500700","樹林區"
"238026","172-UY","2018/08/06 18:09:18","新北市樹林區佳園路一段74號","121.393221666667","24.969975","6500700","樹林區"
"238016","169-UY","2018/08/06 18:05:48","新北市樹林區文化街28-1號","121.41915","24.9878983333333","6500700","樹林區"
"239007","AAC-297","2018/08/06 18:09:34","新北市鶯歌區尖山埔路189號","121.345595","24.9506266666667","6500800","鶯歌區"
"239006","891-R6","2018/08/06 18:09:21","新北市鶯歌區鶯桃路365巷30號","121.332493333333","24.9626183333333","6500800","鶯歌區"
"239008","527-UM","2018/08/06 18:09:14","新北市鶯歌區朝陽街48巷2號","121.33752","24.977785","6500800","鶯歌區"
"239005","526-UM","2018/08/06 18:09:23","新北市鶯歌區鶯桃路668巷73號","121.329988333333","24.97184","6500800","鶯歌區"
"239001","417-VK","2018/08/06 18:09:15","新北市鶯歌區中正三路5巷23號","121.340341666667","24.9428216666667","6500800","鶯歌區"
"239003","360-BY","2018/08/06 18:09:24","新北市鶯歌區福安街30號","121.334633333333","24.964035","6500800","鶯歌區"
"239002","359-BY","2018/08/06 18:09:30","新北市鶯歌區光明街78號","121.346883333333","24.9560666666667","6500800","鶯歌區"
"221008","489-VK","2018/08/06 18:09:14","新北市汐止區康寧街315號","121.627085","25.0678966666667","6501100","汐止區"
"221036","130-UY","2018/08/06 18:09:19","新北市汐止區大同路三段95號","121.668061666667","25.0774016666667","6501100","汐止區"
"221015","131-UY","2018/08/06 18:09:26","新北市汐止區鄉長路二段40巷1號","121.667301666667","25.0837916666667","6501100","汐止區"
"221010","269-BY","2018/08/06 18:09:12","新北市汐止區祥雲街2-1號","121.645741666667","25.089665","6501100","汐止區"
"221012","278-VK","2018/08/06 18:09:16","新北市汐止區保一街39號","121.6742","25.0799383333333","6501100","汐止區"
"221023","279-VK","2018/08/06 18:09:26","新北市汐止區民族五街86號","121.627425","25.0699333333333","6501100","汐止區"
"221032","280-BY","2018/08/06 18:09:33","新北市汐止區橫科路6號","121.61759","25.0512933333333","6501100","汐止區"
"221027","281-BY","2018/08/06 18:09:17","新北市汐止區大同路二段501號","121.661135","25.068625","6501100","汐止區"
"221029","298-VK","2018/08/06 18:09:19","新北市汐止區樟樹二路134號","121.639931666667","25.0656533333333","6501100","汐止區"
"221021","299-VK","2018/08/06 18:09:06","新北市汐止區龍安路183號","121.65285","25.0630666666667","6501100","汐止區"
"221031","353-TW","2018/08/06 18:09:25","新北市汐止區中興路202號","121.631373333333","25.0660216666667","6501100","汐止區"
"221002","129-UY","2018/08/06 18:09:26","新北市汐止區福德一路195號","121.635486666667","25.0656616666667","6501100","汐止區"
"221035","622-UM","2018/08/06 18:09:17","新北市汐止區大同路二段209號","121.65282","25.0646383333333","6501100","汐止區"
"221025","623-UM","2018/08/06 18:09:28","新北市汐止區勤進路3巷27號","121.66111","25.0616233333333","6501100","汐止區"
"221038","646-BX","2018/08/06 18:09:25","新北市汐止區莊敬街119巷11號","121.655605","25.0602333333333","6501100","汐止區"
"221033","647-BX","2018/08/06 18:09:18","新北市汐止區宜興街30巷19號","121.622391666667","25.04115","6501100","汐止區"
"221018","753-BX","2018/08/06 18:09:27","新北市汐止區忠孝東路397號","121.665686666667","25.07084","6501100","汐止區"
"242015","281-VK","2018/08/06 18:09:20","新北市新莊區中和街59巷10弄2號","121.446861666667","25.0471183333333","6500500","新莊區"
"235061","KEA-2875","2018/08/06 18:09:17","新北市中和區民德路208號","121.468286666667","24.99828","6500300","中和區"
