"lineid","car","time","location","longitude","latitude","cityid","cityname"
"234081","298-R6","2018/08/06 20:39:28","新北市永和區永貞路82號","121.520275","25.00493","6500400","永和區"
"234064","337-UY","2018/08/06 20:39:24","新北市永和區永和路二段253號","121.515925","25.0151716666667","6500400","永和區"
"234061","AAD-866","2018/08/06 20:39:20","新北市永和區中正路381號","121.517205","25.0036866666667","6500400","永和區"
"234042","862-TW","2018/08/06 20:39:17","新北市永和區自由街20號","121.514441666667","25.0065316666667","6500400","永和區"
"234050","863-TW","2018/08/06 20:39:25","新北市永和區保安路93號","121.508333333333","25.0144133333333","6500400","永和區"
"234011","9373-KE","2018/08/06 20:39:26","新北市永和區環河東路一段122號","121.520621666667","25.0156733333333","6500400","永和區"
"249001","173-UM","2018/08/06 20:39:30","新北市八里區中山路三段335號","121.377235","25.1387533333333","6502300","八里區"
"249004","303-UY","2018/08/06 20:39:37","新北市八里區中山路一段157巷52號","121.412536666667","25.1579033333333","6502300","八里區"
"249002","305-UY","2018/08/06 20:39:20","新北市八里區大崁腳48-3號","121.426111666667","25.1595266666667","6502300","八里區"
"234023","9380-KE","2018/08/06 20:39:26","新北市永和區竹林路23號","121.517163333333","25.0147416666667","6500400","永和區"
"234077","969-R7","2018/08/06 20:39:35","新北市板橋區民生路三段164號","121.465768333333","25.0276333333333","6500400","永和區"
"234074","AAC-211","2018/08/06 20:39:33","新北市永和區竹林路119巷16號","121.521051666667","25.01146","6500400","永和區"
"243016","KEA-2801","2018/08/06 20:39:33","新北市泰山區明志路二段187號","121.427681666667","25.049445","6501600","泰山區"
"243011","KEA-2215","2018/08/06 20:39:22","新北市泰山區公園路89號","121.425275","25.0551666666667","6501600","泰山區"
"243010","KEA-2216","2018/08/06 20:39:18","新北市泰山區黎明路47號","121.422403333333","25.0577483333333","6501600","泰山區"
"243012","646-TV","2018/08/06 20:39:21","新北市泰山區橫窠雅36號","121.40398","25.072915","6501600","泰山區"
"222003","436-BY","2018/08/06 20:39:27","新北市深坑區深坑街145號","121.61324","25.0010783333333","6501800","深坑區"
"222002","659-BX","2018/08/06 20:39:17","新北市深坑區萬福路43號","121.59934","25.0068183333333","6501800","深坑區"
"231041","002-UM","2018/08/06 20:39:19","新北市新店區中正路695巷2號","121.533995","24.99065","6500600","新店區"
"231059","046-UY","2018/08/06 20:39:31","新北市新店區僑愛二路1號","121.49984","24.9451183333333","6500600","新店區"
"231040","047-UY","2018/08/06 20:39:29","新北市新店區中正路263號","121.538568333333","24.9735766666667","6500600","新店區"
"231044","106-UY","2018/08/06 20:39:27","新北市新店區建國路293巷1號","121.536696666667","24.986215","6500600","新店區"
"231052","108-UY","2018/08/06 20:39:30","新北市新店區新烏路二段300號","121.548406666667","24.91371","6500600","新店區"
"231065","110-UY","2018/08/06 20:39:23","新北市新店區安祥路102巷96弄1號","121.48726","24.963465","6500600","新店區"
"231047","187-VK","2018/08/06 20:39:24","新北市新店區寶慶街2-1號","121.543846666667","24.986805","6500600","新店區"
"231054","KEA-2219","2018/08/06 20:39:20","新北市新店區行政街26號","121.542845","24.9656083333333","6500600","新店區"
"231057","256-BX","2018/08/06 20:39:21","新北市新店區花園六路二段9-2號","121.555733333333","24.9328633333333","6500600","新店區"
"231042","268-BY","2018/08/06 20:39:28","新北市新店區寶橋路192號","121.550511666667","24.9783183333333","6500600","新店區"
"231051","278-BY","2018/08/06 20:39:24","新北市新店區溪園路421號","121.524898333333","24.97834","6500600","新店區"
"231050","AAD-862","2018/08/06 20:39:27","新北市新店區中正路265號","121.538098333333","24.9739033333333","6500600","新店區"
"231058","3713-VJ","2018/08/06 20:39:26","新北市新店區平等街67號","121.535918333333","24.97241","6500600","新店區"
"231066","4716-K9","2018/08/06 20:39:17","新北市新店區安民街365巷1弄10號","121.516596666667","24.975255","6500600","新店區"
"231056","4715-K9","2018/08/06 20:39:33","新北市新店區中央六街46號","121.528331666667","24.9755783333333","6500600","新店區"
"231067","4772-VM","2018/08/06 20:39:34","新北市新店區安華路28-1號","121.51985","24.9606816666667","6500600","新店區"
"231049","513-UM","2018/08/06 20:39:37","新北市新店區永業路81巷3弄1號","121.529848333333","24.9492966666667","6500600","新店區"
"231063","616-UM","2018/08/06 20:39:24","新北市新店區玫瑰路4-1號","121.493625","24.95141","6500600","新店區"
"231045","617-UM","2018/08/06 20:39:26","新北市新店區長春路44號","121.550565","24.9576516666667","6500600","新店區"
"231061","619-UM","2018/08/06 20:39:31","新北市新店區新和街38號","121.519363333333","24.9848916666667","6500600","新店區"
"231068","718-UY","2018/08/06 20:39:24","新北市新店區寶慶街35巷16弄1號","121.543076666667","24.98609","6500600","新店區"
"231064","719-UM","2018/08/06 20:39:33","新北市新店區安和路三段110巷5號","121.517411666667","24.9854933333333","6500600","新店區"
"231062","720-UM","2018/08/06 20:39:21","新北市新店區安泰路60巷55弄85號","121.484566666667","24.9455866666667","6500600","新店區"
"231060","897-TW","2018/08/06 20:39:32","新北市新店區安康路三段628號","121.478165","24.9456233333333","6500600","新店區"
"231043","899-TW","2018/08/06 20:39:25","新北市新店區建國路8-1號","121.539925","24.9735016666667","6500600","新店區"
"231055","AKT-0513","2018/08/06 20:39:18","新北市新店區安康路二段382號","121.500445","24.9571733333333","6500600","新店區"
"241011","013-R5","2018/08/06 20:39:31","新北市三重區龍濱路285號","121.501163333333","25.0734216666667","6500200","三重區"
"241028","022-UY","2018/08/06 20:39:26","新北市三重區光興街95號","121.4973","25.05993","6500200","三重區"
"241031","061-VK","2018/08/06 20:39:15","新北市三重區重陽路一段113巷1弄51號","121.488106666667","25.0584583333333","6500200","三重區"
"241015","062-VK","2018/08/06 20:39:26","新北市三重區文化北路105號","121.497915","25.068455","6500200","三重區"
"241017","063-VK","2018/08/06 20:39:28","新北市三重區安慶街262號","121.490848333333","25.0677483333333","6500200","三重區"
"241024","065-VK","2018/08/06 20:39:34","新北市三重區忠孝路三段51號","121.480853333333","25.0667066666667","6500200","三重區"
"241026","066-VK","2018/08/06 20:39:36","新北市三重區文化南路3號","121.499993333333","25.062385","6500200","三重區"
"241002","090-VK","2018/08/06 20:39:35","新北市三重區仁義街167巷53號","121.498711666667","25.08242","6500200","三重區"
"241005","262-UM","2018/08/06 20:38:58","新北市三重區五華街141巷37號","121.492648333333","25.085775","6500200","三重區"
"241022","265-UM","2018/08/06 20:39:34","新北市三重區民生街61巷6弄1號","121.488718333333","25.0623333333333","6500200","三重區"
"241016","266-UM","2018/08/06 20:39:32","新北市三重區長壽西街143-3號","121.494423333333","25.06658","6500200","三重區"
"241009","267-UM","2018/08/06 20:39:33","新北市三重區碧華街59號","121.484778333333","25.0814633333333","6500200","三重區"
"241018","268-UM","2018/08/06 20:39:17","新北市三重區自強路一段306號","121.491283333333","25.0684066666667","6500200","三重區"
"241032","269-UM","2018/08/06 20:39:15","新北市三重區重陽路一段120巷35號","121.485118333333","25.060195","6500200","三重區"
"241013","270-UM","2018/08/06 20:39:34","新北市三重區三和路四段83號","121.489318333333","25.07554","6500200","三重區"
"241025","271-UM","2018/08/06 20:39:30","新北市三重區大有街1-41號","121.476216666667","25.065655","6500200","三重區"
"241007","398-BY","2018/08/06 20:39:31","新北市三重區自強路四段32-2號","121.488811666667","25.0770116666667","6500200","三重區"
"241035","KEA-2210","2018/08/06 20:39:34","新北市三重區正義北路272號","121.495846666667","25.06899","6500200","三重區"
"241008","413-TH","2018/08/06 20:39:17","新北市三重區力行路二段121號","121.483005","25.0765133333333","6500200","三重區"
"241004","475-VK","2018/08/06 20:39:26","新北市三重區仁愛街458巷13號","121.489595","25.08189","6500200","三重區"
"241030","480-VK","2018/08/06 20:39:20","新北市三重區成功路73巷20號","121.489435","25.0520083333333","6500200","三重區"
"241014","543-UM","2018/08/06 20:39:28","新北市三重區三和路二段109號","121.499263333333","25.0687133333333","6500200","三重區"
"241023","545-UM","2018/08/06 20:39:30","新北市三重區自由街41號","121.47886","25.0669083333333","6500200","三重區"
"241001","547-UM","2018/08/06 20:39:25","新北市三重區三和路四段160巷77號","121.485763333333","25.074925","6500200","三重區"
"241019","KEA-2593","2018/08/06 20:39:28","新北市三重區忠孝路一段10巷29號","121.491185","25.0713766666667","6500200","三重區"
"241006","AAD-863","2018/08/06 20:39:29","新北市三重區車路頭街139巷14號","121.484265","25.0761866666667","6500200","三重區"
"241012","941-UM","2018/08/06 20:39:25","新北市三重區秀江街26號","121.502495","25.0730616666667","6500200","三重區"
"241029","942-UM","2018/08/06 20:39:27","新北市三重區集美街126巷27號","121.490203333333","25.053835","6500200","三重區"
"241033","AAC-255","2018/08/06 20:39:22","新北市三重區五谷王北街181-1號","121.477538333333","25.0543066666667","6500200","三重區"
"247010","KEA-2869","2018/08/06 20:39:22","新北市蘆洲區集賢路400號","121.480173333333","25.0820816666667","6501400","蘆洲區"
"235069","4980-A6","2018/08/06 20:39:29","新北市中和區建八路1號","121.485615","24.99865","6500300","中和區"
"247024","893-R6","2018/08/06 20:39:22","新北市蘆洲區光榮路85號","121.461923333333","25.08843","6501400","蘆洲區"
"247014","546-UM","2018/08/06 20:39:24","新北市蘆洲區中山一路211號","121.474003333333","25.0809033333333","6501400","蘆洲區"
"247022","500-BY","2018/08/06 20:39:35","新北市蘆洲區光華路22巷63號","121.46774","25.0853866666667","6501400","蘆洲區"
"247012","339-TH","2018/08/06 20:39:33","新北市蘆洲區集賢路224巷46弄30-2號","121.481658333333","25.0875583333333","6501400","蘆洲區"
"247004","337-TH","2018/08/06 20:39:29","新北市蘆洲區長安街222號","121.458188333333","25.084855","6501400","蘆洲區"
"247006","336-TH","2018/08/06 20:39:21","新北市蘆洲區和平路187號","121.466266666667","25.0812933333333","6501400","蘆洲區"
"247008","056-VK","2018/08/06 20:39:32","新北市蘆洲區重陽街38號","121.481055","25.0822616666667","6501400","蘆洲區"
"247016","053-VK","2018/08/06 20:39:33","新北市蘆洲區中山二路143號","121.47163","25.0814883333333","6501400","蘆洲區"
"247002","002-UY","2018/08/06 20:39:29","新北市蘆洲區長安街375巷28號","121.456345","25.087875","6501400","蘆洲區"
"247020","001-UY","2018/08/06 20:39:20","新北市蘆洲區民族路331號","121.473806666667","25.091615","6501400","蘆洲區"
"235059","251-BX","2018/08/06 20:39:15","新北市中和區員山路49號","121.481305","24.9927366666667","6500300","中和區"
"224010","AGQ-8101","2018/08/06 20:39:31","新北市瑞芳區汽車路110號","121.840575","25.1091616666667","6501200","瑞芳區"
"222001","KEA-2212","2018/08/06 20:39:28","新北市深坑區北深路三段222號","121.600985","25.0039983333333","6501800","深坑區"
"251001","011-UM","2018/08/06 20:39:22","新北市淡水區淡金路73號","121.456145","25.1616816666667","6501000","淡水區"
"251013","KEA-2871","2018/08/06 20:39:32","新北市淡水區下圭柔山28巷29號","121.458275","25.2038366666667","6501000","淡水區"
"251016","179-VK","2018/08/06 20:39:24","新北市淡水區後洲子8-2號","121.44968","25.224025","6501000","淡水區"
"251014","180-VK","2018/08/06 20:39:24","新北市淡水區公埔子25-2號","121.468713333333","25.232685","6501000","淡水區"
"251015","181-VK","2018/08/06 20:39:19","新北市淡水區淡金路四段542巷17號","121.452776666667","25.2271133333333","6501000","淡水區"
"251010","413-VK","2018/08/06 20:39:13","新北市淡水區沙崙路181巷15號","121.423908333333","25.1843833333333","6501000","淡水區"
"251012","441-VK","2018/08/06 20:39:32","新北市淡水區興仁路105號","121.451526666667","25.218135","6501000","淡水區"
"251006","561-UM","2018/08/06 20:39:28","新北市淡水區商工路198巷11號","121.45163","25.1866666666667","6501000","淡水區"
"251007","577-R6","2018/08/06 20:39:29","新北市淡水區忠愛街4-1號","121.458926666667","25.1713016666667","6501000","淡水區"
"251011","650-BX","2018/08/06 20:39:16","新北市淡水區崁頂36-7號","121.438391666667","25.19319","6501000","淡水區"
"251002","672-BX","2018/08/06 20:39:25","新北市淡水區中正路36號","121.443786666667","25.169325","6501000","淡水區"
"251003","766-UM","2018/08/06 20:39:28","新北市淡水區新民街152巷6弄22號","121.438735","25.1784816666667","6501000","淡水區"
"252002","178-VK","2018/08/06 20:39:24","新北市三芝區淡金路二段47-2號","121.503666666667","25.2605516666667","6502100","三芝區"
"252001","292-VK","2018/08/06 20:39:33","新北市三芝區中山路一段87號","121.501191666667","25.2566366666667","6502100","三芝區"
"242034","AAC-296","2018/08/06 20:39:27","新北市新莊區中正路334巷25弄23號","121.445318333333","25.0358816666667","6500500","新莊區"
"242058","986-R7","2018/08/06 20:39:17","新北市新莊區四維路129-1號","121.422895","25.0226783333333","6500500","新莊區"
"242053","751-BX","2018/08/06 20:39:29","新北市新莊區西盛街323巷6號","121.428608333333","25.0146166666667","6500500","新莊區"
"242025","705-TV","2018/08/06 20:39:20","新北市三重區光復路二段192號","121.47028","25.0629233333333","6500500","新莊區"
"242027","615-BX","2018/08/06 20:39:26","新北市新莊區思源路63號","121.459993333333","25.0403866666667","6500500","新莊區"
"242042","566-BX","2018/08/06 20:39:17","新北市新莊區中正路694巷3弄7號","121.418106666667","25.0280716666667","6500500","新莊區"
"242046","497-BY","2018/08/06 20:39:24","新北市新莊區裕民街63號","121.41868","25.0243733333333","6500500","新莊區"
"242007","442-UM","2018/08/06 20:39:23","新北市新莊區福壽街56巷3號","121.458623333333","25.0488733333333","6500500","新莊區"
"242050","441-UM","2018/08/06 20:39:27","新北市新莊區民安西路148號","121.426153333333","25.0165833333333","6500500","新莊區"
"242056","440-UM","2018/08/06 20:39:28","新北市新莊區瓊泰路19號","121.444325","25.0286216666667","6500500","新莊區"
"242036","415-TV","2018/08/06 20:39:25","新北市新莊區後港一路94巷3弄1號","121.427986666667","25.026295","6500500","新莊區"
"242044","400-BY","2018/08/06 20:39:34","新北市新莊區龍安路100號","121.41813","25.0206083333333","6500500","新莊區"
"242023","362-BY","2018/08/06 20:39:26","新北市新莊區化成路43巷2號","121.464843333333","25.0446233333333","6500500","新莊區"
"242060","353-BY","2018/08/06 20:39:17","新北市新莊區新樹路258巷3號","121.432115","25.0155783333333","6500500","新莊區"
"242009","132-UY","2018/08/06 20:39:17","新北市新莊區福壽街99巷15弄7號","121.456853333333","25.0501816666667","6500500","新莊區"
"242039","133-UY","2018/08/06 20:39:34","新北市新莊區新樹路168號","121.434723333333","25.022395","6500500","新莊區"
"242031","135-UY","2018/08/06 20:39:25","新北市新莊區中正路486-1號","121.43652","25.03361","6500500","新莊區"
"242048","172-VK","2018/08/06 20:39:21","新北市新莊區中正路661號","121.427483333333","25.0303766666667","6500500","新莊區"
"242011","173-VK","2018/08/06 20:39:31","新北市新莊區中榮街122巷22號","121.44668","25.0537283333333","6500500","新莊區"
"242017","175-VK","2018/08/06 20:39:31","新北市新莊區中港一街161號","121.447108333333","25.044965","6500500","新莊區"
"242013","347-TH","2018/08/06 20:39:20","新北市新莊區中和街175巷13號","121.44717","25.0505833333333","6500500","新莊區"
"242021","348-TH","2018/08/06 20:39:32","新北市新莊區公園路130號","121.452008333333","25.0402883333333","6500500","新莊區"
"242002","349-TH","2018/08/06 20:39:33","新北市新莊區明中街43巷8號","121.457345","25.0388116666667","6500500","新莊區"
"242019","350-TH","2018/08/06 20:39:33","新北市新莊區銘德街94號","121.455956666667","25.0434383333333","6500500","新莊區"
"221008","489-VK","2018/08/06 20:39:28","新北市汐止區康寧街706號","121.63787","25.0725083333333","6501100","汐止區"
"221036","130-UY","2018/08/06 20:39:18","新北市汐止區新昌路55號","121.663276666667","25.0687083333333","6501100","汐止區"
"221015","131-UY","2018/08/06 20:39:26","新北市汐止區建成路37巷1號","121.663685","25.072745","6501100","汐止區"
"221012","278-VK","2018/08/06 20:39:15","新北市汐止區汐萬路一段39號","121.65498","25.0690216666667","6501100","汐止區"
"221023","279-VK","2018/08/06 20:39:26","新北市汐止區明峰街11號","121.63519","25.0713566666667","6501100","汐止區"
"221032","280-BY","2018/08/06 20:39:35","新北市汐止區橫科路322巷24弄6-1號","121.620505","25.0500583333333","6501100","汐止區"
"221027","281-BY","2018/08/06 20:39:17","新北市汐止區大同路二段565號","121.66298","25.06953","6501100","汐止區"
"221029","298-VK","2018/08/06 20:39:30","新北市汐止區大同路一段511號","121.645295","25.0621533333333","6501100","汐止區"
"221021","299-VK","2018/08/06 20:39:20","新北市汐止區水源路一段290號","121.654116666667","25.05799","6501100","汐止區"
"221035","622-UM","2018/08/06 20:39:17","新北市汐止區長江街101-5號","121.658811666667","25.0731216666667","6501100","汐止區"
"221025","623-UM","2018/08/06 20:39:28","新北市汐止區水源路二段185號","121.657765","25.053575","6501100","汐止區"
"221038","646-BX","2018/08/06 20:39:25","新北市汐止區汐萬路一段222號","121.651681666667","25.0728666666667","6501100","汐止區"
"221033","647-BX","2018/08/06 20:39:18","新北市汐止區合順街18巷8弄5號","121.620285","25.0419283333333","6501100","汐止區"
"221018","753-BX","2018/08/06 20:39:27","新北市汐止區茄苳路132-6號","121.668615","25.0701166666667","6501100","汐止區"
"220083","286-VK","2018/08/06 20:39:14","新北市板橋區僑中二街112巷1號","121.445703333333","25.007025","6500100","板橋區"
"242015","281-VK","2018/08/06 20:39:32","新北市新莊區中和街34號","121.448228333333","25.0439133333333","6500500","新莊區"
"220103","561-BX","2018/08/06 20:39:24","新北市板橋區漢生東路73巷27號","121.467135","25.01706","6500100","板橋區"
"220054","741-BX","2018/08/06 20:39:21","新北市五股區凌雲路三段24巷7號","121.437103333333","25.1066433333333","6500100","板橋區"
"220070","AAC-253","2018/08/06 20:38:06","新北市五股區中直路13-7號","121.424875","25.1104566666667","6500100","板橋區"
