"lineid","car","time","location","longitude","latitude","cityid","cityname"
"247010","KEA-2869","2018/08/06 22:29:23","新北市五股區中興路三段163號","121.449073333333","25.08066","6501400","蘆洲區"
"247005","336-TH","2018/08/06 22:27:34","新北市五股區中興路三段163號","121.449005","25.080845","6501400","蘆洲區"
"251010","413-VK","2018/08/06 22:29:33","新北市淡水區沙崙路200號","121.42471","25.1838966666667","6501000","淡水區"
"251008","442-VK","2018/08/06 22:29:18","新北市淡水區學府路104號","121.449835","25.17182","6501000","淡水區"
"251004","443-VK","2018/08/06 22:29:28","新北市淡水區民族路33號","121.462311666667","25.135675","6501000","淡水區"
"251011","650-BX","2018/08/06 22:29:16","新北市淡水區水碓街7號","121.44315","25.1771166666667","6501000","淡水區"
