"lineid","car","time","location","longitude","latitude","cityid","cityname"
"248005","653-BX","2018/08/07 07:49:44","新北市五股區明德路12巷3號","121.433341666667","25.0717816666667","6501500","五股區"
"244002","248-BX","2018/08/07 07:49:26","新北市林口區下福里39號","121.313553333333","25.1056183333333","6501700","林口區"
"231009","192-VK","2018/08/07 07:49:44","新北市新店區安一路一段1-1號","121.519295","24.9614683333333","6500600","新店區"
"235001","611-BX","2018/08/07 07:49:32","新北市中和區圓通路367巷4號","121.491401666667","24.9893283333333","6500300","中和區"
"235001","157-BY","2018/08/07 07:49:36","新北市中和區和平街29-1號","121.507486666667","24.991035","6500300","中和區"
"226005","5620-A6","2018/08/07 07:49:27","新北市平溪區嶺腳里中華街62號","121.739493333333","25.025125","6502400","平溪區"
"226002","7418-A5","2018/08/07 07:49:28","新北市平溪區平湖里大厝1號","121.77937","25.03743","6502400","平溪區"
"226006","AGD-0702","2018/08/07 07:49:27","新北市平溪區新寮里頂寮子42號","121.774163333333","25.0514566666667","6502400","平溪區"
"223006","022-BY","2018/08/07 07:49:38","新北市坪林區國中路1號","121.712501666667","24.9365916666667","6501900","石碇區"
"223002","KEA-2673","2018/08/07 07:49:24","新北市石碇區北宜路六段十三股巷1-1號","121.64535","24.9428533333333","6501900","石碇區"
"223003","205-TH","2018/08/07 07:49:24","新北市石碇區四分子5號","121.664508333333","24.9627766666667","6501900","石碇區"
"223001","592-UM","2018/08/07 07:49:23","新北市石碇區四分子6-9號","121.662558333333","24.962675","6501900","石碇區"
"223004","660-BX","2018/08/07 07:49:38","新北市石碇區楓子林30號","121.642276666667","25.0095383333333","6501900","石碇區"
"223007","661-BX","2018/08/07 07:44:33","新北市石碇區靜安路一段337號","121.698878333333","25.0145383333333","6501900","石碇區"
"223005","677-TV","2018/08/07 07:49:39","新北市石碇區楓子林30號","121.642225","25.00958","6501900","石碇區"
"227006","282-VK","2018/08/07 07:49:34","新北市雙溪區雙溪里太平路37號","121.86468","25.03549","6502500","雙溪區"
"252004","249-BX","2018/08/07 07:49:28","新北市三芝區興華里車埕36-8號","121.505763333333","25.1930183333333","6502100","三芝區"
"252006","AAC-283","2018/08/07 07:49:37","新北市三芝區後厝里北勢子45-33號","121.470321666667","25.2511116666667","6502100","三芝區"
"237001","159-UY","2018/08/07 07:49:30","新北市三峽區大學路79號","121.376081666667","24.9416266666667","6500900","三峽區"
"236008","165-UM","2018/08/07 07:49:25","新北市土城區清水路265號","121.463396666667","24.9848083333333","6501300","土城區"
"236002","339-SR","2018/08/07 07:49:31","新北市土城區龍泉路96號","121.441483333333","24.9422166666667","6501300","土城區"
