"lineid","car","time","location","longitude","latitude","cityid","cityname"
"244002","248-BX","2018/01/02 08:19:33","新北市林口區下福里141號","121.298445","25.1176016666667","6501700","林口區"
"222004","289-BY","2018/01/02 08:19:42","新北市深坑區昇高坑路66號","121.63001","24.9926983333333","6501800","深坑區"
"231007","189-VK","2018/01/02 08:19:38","新北市新店區新潭路一段52-5號","121.524088333333","24.9406033333333","6500600","新店區"
"231009","192-VK","2018/01/02 08:19:39","新北市新店區新烏路一段231號","121.548945","24.9307883333333","6500600","新店區"
"226005","5620-A6","2018/01/02 08:19:36","新北市平溪區南山里六分1號","121.79158","25.0469616666667","6502400","平溪區"
"226002","7418-A5","2018/01/02 08:19:43","新北市平溪區東勢里芊蓁林60號","121.75139","25.006225","6502400","平溪區"
"226003","AGD-0702","2018/01/02 08:19:34","新北市平溪區靜安路三段406號","121.784053333333","25.051545","6502400","平溪區"
"223006","022-BY","2018/01/02 08:19:42","新北市石碇區碇坪路一段12號","121.650266666667","25.0056466666667","6501900","石碇區"
"223002","198-BX","2018/01/02 08:19:37","新北市石碇區碇坪路一段48號","121.655445","24.99201","6501900","石碇區"
"223008","406-TH","2018/01/02 08:19:48","新北市石碇區石碇子埔97-4號","121.668433333333","25.0046916666667","6501900","石碇區"
"223001","592-UM","2018/01/02 08:19:39","新北市石碇區北宜路六段塗潭巷27號","121.649176666667","24.9329066666667","6501900","石碇區"
"223004","660-BX","2018/01/02 08:19:39","新北市石碇區碇坪路一段46號","121.655305","24.9930716666667","6501900","石碇區"
"223007","661-BX","2018/01/02 08:19:40","新北市石碇區靜安路一段212號","121.672555","25.0072433333333","6501900","石碇區"
"223005","677-TV","2018/01/02 08:19:31","新北市石碇區碇坪路一段11號","121.65263","24.9989583333333","6501900","石碇區"
"227006","282-VK","2018/01/02 08:19:42","新北市雙溪區牡丹里下坑4-1號","121.850271666667","25.053865","6502500","雙溪區"
"252004","249-BX","2018/01/02 08:19:34","新北市三芝區興華里車埕59號","121.498693333333","25.1969616666667","6502100","三芝區"
"252007","AAC-283","2018/01/02 08:19:44","新北市三芝區後厝里土地公坑62-1號","121.4637","25.2446966666667","6502100","三芝區"
"237001","159-UY","2018/01/02 08:19:46","新北市三峽區學勤路30號","121.374138333333","24.94576","6500900","三峽區"
"236008","165-UM","2018/01/02 08:19:34","新北市土城區青雲路587巷7號","121.463428333333","24.970885","6501300","土城區"
"236002","339-SR","2018/01/02 08:19:47","新北市土城區龍泉路66-2號","121.41528","24.9419533333333","6501300","土城區"
"236006","498-BY","2018/01/02 08:19:43","新北市土城區中央路三段281巷11弄2號","121.426441666667","24.9628333333333","6501300","土城區"
"220080","461-BY","2018/01/02 08:19:30","新北市樹林區八德街437-1號","121.405243333333","24.9693516666667","6500100","板橋區"
