"lineid","car","time","location","longitude","latitude","cityid","cityname"
"244002","248-BX","2018/01/02 08:27:33","新北市林口區下福里87-12號","121.287691666667","25.1129933333333","6501700","林口區"
"222004","289-BY","2018/01/02 08:27:42","新北市深坑區昇高坑路12號","121.626481666667","24.9988683333333","6501800","深坑區"
"231007","189-VK","2018/01/02 08:27:38","新北市新店區新潭路一段219號","121.528888333333","24.9282933333333","6500600","新店區"
"231009","192-VK","2018/01/02 08:27:39","新北市新店區新烏路三段1號","121.551671666667","24.90671","6500600","新店區"
"226005","5620-A6","2018/01/02 08:27:36","新北市平溪區南山里南山坪105號","121.781565","25.042885","6502400","平溪區"
"226002","7418-A5","2018/01/02 08:27:23","新北市平溪區東勢里東勢格5號","121.740196666667","25.0059083333333","6502400","平溪區"
"226003","AGD-0702","2018/01/02 08:27:34","新北市平溪區靜安路三段406號","121.784333333333","25.0515216666667","6502400","平溪區"
"223006","022-BY","2018/01/02 08:27:22","新北市石碇區雙溪48號","121.651455","25.00652","6501900","石碇區"
"223002","198-BX","2018/01/02 08:24:51","新北市石碇區八分寮47-1號","121.643015","25.01337","6501900","石碇區"
"223008","406-TH","2018/01/02 08:27:28","新北市石碇區十八重溪68號","121.67381","25.0149116666667","6501900","石碇區"
"223001","592-UM","2018/01/02 08:27:39","新北市石碇區北宜路六段直潭巷9號","121.661456666667","24.9358283333333","6501900","石碇區"
"223004","660-BX","2018/01/02 08:27:39","新北市石碇區碇坪路一段125號","121.665996666667","24.98663","6501900","石碇區"
"223007","661-BX","2018/01/02 08:27:40","新北市石碇區十八重溪68-1號","121.67325","25.016435","6501900","石碇區"
"223005","677-TV","2018/01/02 08:27:31","新北市石碇區碇坪路一段109號","121.663936666667","24.98871","6501900","石碇區"
"227006","282-VK","2018/01/02 08:26:42","新北市雙溪區平林里竹寮坑10號","121.844001666667","25.0463533333333","6502500","雙溪區"
"227012","030-BX","2018/01/02 08:27:34","新北市雙溪區上林里內平林102號","121.826885","25.0272583333333","6502500","雙溪區"
"252004","249-BX","2018/01/02 08:27:34","新北市三芝區興華里楓子林45-2號","121.501546666667","25.204575","6502100","三芝區"
"252007","AAC-283","2018/01/02 08:27:24","新北市三芝區蘭陽街13-1號","121.473563333333","25.2424533333333","6502100","三芝區"
"237001","159-UY","2018/01/02 08:27:26","新北市三峽區三樹路277號","121.379043333333","24.9431583333333","6500900","三峽區"
"236008","165-UM","2018/01/02 08:27:34","新北市土城區清水路32巷14號","121.457068333333","24.981255","6501300","土城區"
"236002","339-SR","2018/01/02 08:27:43","新北市土城區龍泉路10-1號","121.409648333333","24.949175","6501300","土城區"
"236006","498-BY","2018/01/02 08:27:23","新北市土城區大暖路39-7號","121.423338333333","24.9605716666667","6501300","土城區"
"220080","461-BY","2018/01/02 08:25:30","新北市樹林區中山路三段214號","121.380238333333","24.967995","6500100","板橋區"
