"lineid","car","time","location","longitude","latitude","cityid","cityname"
"231007","189-VK","2018/01/02 10:27:38","新北市新店區新潭路三段200號","121.506441666667","24.904405","6500600","新店區"
"231009","192-VK","2018/01/02 10:27:38","新北市新店區小坑一路22號","121.532655","24.914065","6500600","新店區"
"223005","677-TV","2018/01/02 09:48:21","新北市石碇區小粗坑(潭邊里)6號","121.675088333333","24.9842116666667","6501900","石碇區"
"227006","282-VK","2018/01/02 10:27:42","新北市雙溪區新基里中華路6號","121.86597","25.03644","6502500","雙溪區"
"252007","AAC-283","2018/01/02 10:27:24","新北市三芝區新庄里番社后18號","121.49681","25.274405","6502100","三芝區"
"220080","461-BY","2018/01/02 08:51:40","新北市板橋區華東街1-9號","121.448093333333","24.9948416666667","6500100","板橋區"
