"lineid","car","time","location","longitude","latitude","cityid","cityname"
"234044","148-BY","2018/01/02 14:09:36","新北市永和區得和路397號","121.525481666667","24.9992783333333","6500400","永和區"
"234012","149-BY","2018/01/02 14:09:39","新北市永和區保生路5巷1號","121.506168333333","25.0071733333333","6500400","永和區"
"234005","207-UY","2018/01/02 14:09:56","新北市中和區中和路234號","121.506891666667","24.9994833333333","6500400","永和區"
"234078","298-R6","2018/01/02 14:09:44","新北市永和區國中路102號","121.52423","25.0064766666667","6500400","永和區"
"234036","336-UY","2018/01/02 14:09:53","新北市永和區成功路一段76號","121.526593333333","25.0034233333333","6500400","永和區"
"234062","337-UY","2018/01/02 14:09:39","新北市永和區永利路156號","121.522548333333","25.0028216666667","6500400","永和區"
"234084","338-UY","2018/01/02 14:09:52","新北市永和區福和路278號","121.517813333333","25.0074933333333","6500400","永和區"
"234052","553-UM","2018/01/02 14:09:50","新北市永和區環河東路一段114號","121.520425","25.0159383333333","6500400","永和區"
"234015","745-BX","2018/01/02 14:09:41","新北市永和區仁愛路85號","121.513158333333","25.01308","6500400","永和區"
"234060","AAD-866","2018/01/02 14:09:50","新北市永和區安樂路100巷5號","121.514241666667","24.999435","6500400","永和區"
"234068","847-RS","2018/01/02 14:09:47","新北市永和區永貞路10巷10號","121.520465","25.0073533333333","6500400","永和區"
"234040","862-TW","2018/01/02 14:09:45","新北市永和區雙和街24號","121.50895","25.0023083333333","6500400","永和區"
"234048","863-TW","2018/01/02 14:09:33","新北市永和區環河西路二段103號","121.506385","25.0147566666667","6500400","永和區"
"234025","9371-KE","2018/01/02 14:09:49","新北市永和區安樂路268號","121.514533333333","25.0039466666667","6500400","永和區"
"234010","9373-KE","2018/01/02 14:09:45","新北市永和區仁愛路352巷124號","121.500163333333","25.0084633333333","6500400","永和區"
"248017","225-UY","2018/01/02 14:09:41","新北市五股區民義路一段236-6號","121.427646666667","25.0911666666667","6501500","五股區"
"234022","9380-KE","2018/01/02 14:09:50","新北市永和區永和路二段286巷10號","121.516521666667","25.0154333333333","6500400","永和區"
"234076","969-R7","2018/01/02 14:09:50","新北市永和區民族街81巷62號","121.52025","24.9965616666667","6500400","永和區"
"234072","AAC-211","2018/01/02 14:09:53","新北市永和區豫溪街160巷1號","121.523316666667","25.00962","6500400","永和區"
"234066","AAC-212","2018/01/02 14:09:42","新北市永和區保平路236巷7弄2號","121.50865","25.006165","6500400","永和區"
"234001","AAC-295","2018/01/02 14:09:56","新北市永和區中正路696號","121.516578333333","25.00971","6500400","永和區"
"244002","248-BX","2018/01/02 13:50:14","新北市林口區林口路76號","121.389713333333","25.0807","6501700","林口區"
"231002","001-UM","2018/01/02 14:09:48","新北市新店區中正路542-10號","121.533663333333","24.9848533333333","6500600","新店區"
"231037","0293-UT","2018/01/02 14:09:46","新北市新店區安康路二段341巷36號","121.496685","24.954355","6500600","新店區"
"231028","046-UY","2018/01/02 14:09:43","新北市新店區安和路二段227號","121.517121666667","24.97609","6500600","新店區"
"231030","047-UY","2018/01/02 14:09:41","新北市新店區安民街65巷21-2號","121.515278333333","24.967525","6500600","新店區"
"231029","106-UY","2018/01/02 14:09:41","新北市新店區安康路二段161號","121.510246666667","24.9593366666667","6500600","新店區"
"231018","107-UY","2018/01/02 14:09:53","新北市新店區中央路192號","121.530841666667","24.9747216666667","6500600","新店區"
"231012","108-UY","2018/01/02 14:09:49","新北市新店區五峰路63巷8弄23號","121.547418333333","24.9693483333333","6500600","新店區"
"231020","187-VK","2018/01/02 14:09:40","新北市新店區屈尺路121號","121.545271666667","24.9235066666667","6500600","新店區"
"231035","188-VK","2018/01/02 14:09:45","新北市新店區安和路二段91號","121.51857","24.96922","6500600","新店區"
"231015","KEA-2219","2018/01/02 14:09:53","新北市新店區郵政路4巷23號","121.556563333333","24.9517016666667","6500600","新店區"
"231034","268-BY","2018/01/02 14:09:51","新北市新店區黎明路3號","121.50339","24.952365","6500600","新店區"
"231010","278-BY","2018/01/02 14:09:27","新北市新店區安華路28-1號","121.519753333333","24.9611316666667","6500600","新店區"
"231023","AAD-862","2018/01/02 14:09:43","新北市新店區文中路40號","121.539738333333","24.9566133333333","6500600","新店區"
"231027","3712-VJ","2018/01/02 14:09:40","新北市新店區光明街224巷20弄7號","121.54059","24.96221","6500600","新店區"
"231025","3713-VJ","2018/01/02 14:09:55","新北市新店區建安街33巷8號","121.538471666667","24.975565","6500600","新店區"
"231024","4716-K9","2018/01/02 14:09:39","新北市新店區新生街13巷42-1號","121.538896666667","24.9664833333333","6500600","新店區"
"231038","4715-K9","2018/01/02 14:09:52","新北市新店區溪洲路121號","121.53116","24.9628466666667","6500600","新店區"
"231036","512-UM","2018/01/02 14:09:55","新北市新店區安祥路109巷3弄38號","121.476583333333","24.9604716666667","6500600","新店區"
"231006","617-UM","2018/01/02 14:09:47","新北市新店區北宜路二段126號","121.55693","24.95384","6500600","新店區"
"231001","619-UM","2018/01/02 14:09:51","新北市新店區中華路91號","121.539186666667","24.9689583333333","6500600","新店區"
"231003","641-BX","2018/01/02 14:09:46","新北市新店區中興路一段203號","121.5434","24.96556","6500600","新店區"
"231013","719-UM","2018/01/02 14:09:37","新北市新店區北新路三段65巷34弄27號","121.540005","24.981915","6500600","新店區"
"231032","720-UM","2018/01/02 14:09:45","新北市新店區永業路37號","121.532555","24.9553283333333","6500600","新店區"
"231005","897-TW","2018/01/02 14:09:54","新北市新店區中興路三段304號","121.542433333333","24.9853316666667","6500600","新店區"
"231004","899-TW","2018/01/02 14:09:39","新北市新店區北新路二段158號","121.542991666667","24.9755816666667","6500600","新店區"
"235030","003-UY","2018/01/02 14:09:44","新北市中和區廣福路50號","121.50408","25.00194","6500300","中和區"
"235028","005-UY","2018/01/02 14:09:36","新北市中和區泰和街38巷3號","121.499168333333","25.0001533333333","6500300","中和區"
"235027","006-UY","2018/01/02 14:09:47","新北市中和區連城路249巷21弄2號","121.494056666667","24.9959483333333","6500300","中和區"
"235010","031-BX","2018/01/02 14:09:52","新北市中和區忠孝街1號","121.508835","24.98309","6500300","中和區"
"235020","096-UM","2018/01/02 14:09:39","新北市中和區中正路1215號","121.479493333333","25.0102866666667","6500300","中和區"
"235003","097-UM","2018/01/02 14:09:52","新北市中和區景平路3號","121.52357","24.990315","6500300","中和區"
"235004","150-BY","2018/01/02 14:09:29","新北市中和區宜安路121號","121.510053333333","24.997885","6500300","中和區"
"235022","151-BY","2018/01/02 14:09:37","新北市中和區員山路143巷7-3號","121.480433333333","24.996035","6500300","中和區"
"235019","183-VK","2018/01/02 14:09:53","新北市中和區德光路49號","121.4702","25.0040266666667","6500300","中和區"
"235002","185-VK","2018/01/02 14:09:36","新北市中和區大仁街10巷27弄6號","121.519283333333","24.992795","6500300","中和區"
"235013","186-VK","2018/01/02 14:09:49","新北市中和區景新街235號","121.50806","24.99451","6500300","中和區"
"235031","255-BX","2018/01/02 14:09:39","新北市中和區新生街164號","121.483685","25.000235","6500300","中和區"
"235008","293-VK","2018/01/02 14:09:47","新北市中和區中興街202巷2號","121.499351666667","24.990195","6500300","中和區"
"235036","301-VK","2018/01/02 14:09:37","新北市中和區中山路二段152號","121.5016","25.0028833333333","6500300","中和區"
"235007","352-BY","2018/01/02 14:09:42","新北市中和區景平路71-3號","121.519386666667","24.9915616666667","6500300","中和區"
"235032","377-QA","2018/01/02 14:09:54","新北市中和區連勝街59號","121.4976","24.9971583333333","6500300","中和區"
"235025","378-QA","2018/01/02 14:09:46","新北市中和區連城路436號","121.479955","24.9947816666667","6500300","中和區"
"235014","4979-A6","2018/01/02 14:09:53","新北市中和區復興路280巷22號","121.502066666667","24.9918316666667","6500300","中和區"
"235033","4980-A6","2018/01/02 14:09:51","新北市中和區中山路二段181巷5號","121.501186666667","25.0020366666667","6500300","中和區"
"235006","551-UM","2018/01/02 14:09:50","新北市中和區大智街55巷30弄21號","121.521588333333","24.9934783333333","6500300","中和區"
"235034","558-UM","2018/01/02 14:09:38","新北市中和區景安路79巷3號","121.506595","24.9972083333333","6500300","中和區"
"235009","565-BX","2018/01/02 14:09:48","新北市中和區景新街467巷38弄2號","121.51457","24.9885683333333","6500300","中和區"
"235018","640-BX","2018/01/02 14:09:54","新北市中和區國光街107巷2弄32號","121.469286666667","24.99901","6500300","中和區"
"235024","647-TV","2018/01/02 14:09:49","新北市中和區民享街86巷1號","121.474473333333","25.0009666666667","6500300","中和區"
"235011","732-UM","2018/01/02 14:09:45","新北市中和區興南路一段56巷12號","121.510613333333","24.991175","6500300","中和區"
"235026","800-TS","2018/01/02 14:09:45","新北市中和區橋和路108號","121.491005","25.0055566666667","6500300","中和區"
"235021","801-TS","2018/01/02 14:09:54","新北市中和區民利街58巷5弄11號","121.478196666667","24.9990883333333","6500300","中和區"
"235005","802-TS","2018/01/02 14:09:52","新北市中和區中安街178巷2號","121.511065","24.9996733333333","6500300","中和區"
"235016","805-TS","2018/01/02 14:09:46","新北市中和區興南路二段108號","121.504681666667","24.9840016666667","6500300","中和區"
"235012","896-TW","2018/01/02 14:09:44","新北市中和區華新街109巷32號","121.508771666667","24.9801133333333","6500300","中和區"
"235017","900-TW","2018/01/02 14:09:48","新北市中和區民德路258號","121.467743333333","24.997025","6500300","中和區"
"235029","911-UM","2018/01/02 14:09:45","新北市中和區中山路二段64巷8號","121.503638333333","25.005075","6500300","中和區"
"235015","157-BY","2018/01/02 14:09:39","新北市中和區興南路一段36號","121.511095","24.9909866666667","6500300","中和區"
"235001","AAC-213","2018/01/02 14:09:36","新北市中和區秀朗路三段58-1號","121.526028333333","24.9952516666667","6500300","中和區"
"235023","AAC-215","2018/01/02 14:09:37","新北市中和區圓通路294巷17-5號","121.488621666667","24.9904683333333","6500300","中和區"
"220013","072-UY","2018/01/02 14:09:50","新北市板橋區民族路219巷64號","121.468985","25.0085866666667","6500100","板橋區"
"220034","073-UY","2018/01/02 14:09:46","新北市板橋區中正路271號","121.4555","25.0186983333333","6500100","板橋區"
"220105","075-UY","2018/01/02 14:09:39","新北市板橋區雙十路三段9號","121.471636666667","25.0302816666667","6500100","板橋區"
"220017","AAD-861","2018/01/02 14:09:50","新北市板橋區四川路一段104號","121.45947","25.0045633333333","6500100","板橋區"
"220045","120-SR","2018/01/02 14:09:46","新北市板橋區大同街2號","121.476845","25.0267516666667","6500100","板橋區"
"247021","893-R6","2018/01/02 14:09:55","新北市蘆洲區三民路165號","121.47144","25.0869983333333","6501400","蘆洲區"
"247011","546-UM","2018/01/02 14:09:50","新北市蘆洲區信義路276號","121.477995","25.0871533333333","6501400","蘆洲區"
"247019","500-BY","2018/01/02 14:09:53","新北市蘆洲區民族路422巷116號","121.472495","25.0942683333333","6501400","蘆洲區"
"247007","341-TH","2018/01/02 14:09:57","新北市蘆洲區中山一路286號","121.47104","25.07864","6501400","蘆洲區"
"247009","339-TH","2018/01/02 14:09:49","新北市蘆洲區信義路172號","121.479406666667","25.0839566666667","6501400","蘆洲區"
"247001","337-TH","2018/01/02 14:09:42","新北市蘆洲區永平街60號","121.457533333333","25.091535","6501400","蘆洲區"
"247003","336-TH","2018/01/02 14:09:40","新北市蘆洲區中華街6巷52號","121.462366666667","25.0825816666667","6501400","蘆洲區"
"247015","057-VK","2018/01/02 14:09:48","新北市蘆洲區中正路185巷23弄27號","121.467793333333","25.083945","6501400","蘆洲區"
"247005","056-VK","2018/01/02 14:09:40","新北市蘆洲區永安南路二段16巷17弄24號","121.467343333333","25.0781416666667","6501400","蘆洲區"
"247013","007-UY","2018/01/02 14:09:43","新北市蘆洲區保和街32號","121.470315","25.0864766666667","6501400","蘆洲區"
"247023","002-UY","2018/01/02 14:09:36","新北市蘆洲區光榮路68號","121.463175","25.0887166666667","6501400","蘆洲區"
"247017","001-UY","2018/01/02 14:09:47","新北市蘆洲區復興路105巷11號","121.476406666667","25.0883916666667","6501400","蘆洲區"
"228004","212-TW","2018/01/02 14:09:56","新北市貢寮區雙玉里下雙溪街10-3號","121.91589","25.0136516666667","6502600","貢寮區"
"228005","828-UM","2018/01/02 14:09:44","新北市貢寮區美豐里土地公嶺23號","121.889093333333","25.059825","6502600","貢寮區"
"208004","AAC-292","2018/01/02 14:09:45","新北市金山區山城路29號","121.598331666667","25.201935","6502700","金山區"
"207002","749-BX","2018/01/02 14:09:39","新北市萬里區溪底里瑞泉路20號","121.605191666667","25.1475366666667","6502800","萬里區"
"207001","662-BX","2018/01/02 14:09:34","新北市萬里區磺潭里清水18號","121.63789","25.1977166666667","6502800","萬里區"
"252005","AAC-283","2018/01/02 14:09:53","新北市三芝區橫山里大坑26號","121.525656666667","25.2545633333333","6502100","三芝區"
"236065","105-UM","2018/01/02 14:09:52","新北市土城區金城路一段118號","121.44564","24.97436","6501300","土城區"
"236041","107-UM","2018/01/02 14:09:42","新北市土城區城林路6巷80號","121.43841","24.9796783333333","6501300","土城區"
"236075","166-UM","2018/01/02 13:59:25","新北市土城區永寧路32巷10弄6號","121.429035","24.9608216666667","6501300","土城區"
"236029","253-BX","2018/01/02 14:09:39","新北市土城區興城路79號","121.439875","24.9707533333333","6501300","土城區"
"236025","269-VK","2018/01/02 14:09:56","新北市土城區承天路18號","121.439481666667","24.963425","6501300","土城區"
"236013","270-VK","2018/01/02 14:09:51","新北市土城區學成路1號","121.453435","24.986195","6501300","土城區"
"236034","271-VK","2018/01/02 14:09:56","新北市土城區青雲路449號","121.458875","24.9749583333333","6501300","土城區"
"236002","339-SR","2018/01/02 14:09:44","新北市土城區中華路一段56巷51號","121.441008333333","24.9915533333333","6501300","土城區"
"236017","401-BY","2018/01/02 14:09:53","新北市土城區城林路6巷80號","121.438645","24.979765","6501300","土城區"
"236006","498-BY","2018/01/02 14:09:37","新北市土城區中央路一段59號","121.447821666667","24.9902083333333","6501300","土城區"
"236057","912-UM","2018/01/02 14:09:51","新北市土城區中央路四段5號","121.425543333333","24.9629","6501300","土城區"
"236045","913-UM","2018/01/02 14:09:53","新北市土城區明德路一段365-1號","121.453548333333","24.9790566666667","6501300","土城區"
"236061","915-UM","2018/01/02 14:09:55","新北市土城區金城路二段65-1號","121.451286666667","24.9788633333333","6501300","土城區"
"236054","AAC-216","2018/01/02 14:09:38","新北市土城區中華路二段80號","121.43867","24.9755866666667","6501300","土城區"
"221012","276-VK","2018/01/02 13:28:18","新北市汐止區汐萬路一段256巷3號","121.653445","25.0746616666667","6501100","汐止區"
"221032","280-BY","2018/01/02 14:09:52","新北市汐止區茄苳路231號","121.671171666667","25.068595","6501100","汐止區"
"220027","145-BY","2018/01/02 14:09:58","新北市板橋區光正街23巷52號","121.461468333333","25.0154433333333","6500100","板橋區"
"220028","200-UY","2018/01/02 14:09:51","新北市板橋區大觀路二段5-1號","121.447165","25.0038816666667","6500100","板橋區"
"220030","610-BX","2018/01/02 14:09:45","新北市板橋區溪崑二街10號","121.428963333333","24.9919116666667","6500100","板橋區"
"220014","257-TC","2018/01/02 14:09:36","新北市板橋區中山路二段90巷43弄18-2號","121.476935","25.01518","6500100","板橋區"
"220004","276-BY","2018/01/02 14:09:51","新北市板橋區信義路110巷2弄3號","121.457835","24.992335","6500100","板橋區"
"220020","277-BY","2018/01/02 14:09:55","新北市板橋區金門街369巷87號","121.428468333333","24.9823483333333","6500100","板橋區"
"220050","280-UM","2018/01/02 14:09:51","新北市板橋區萬板路51號","121.471275","25.0214833333333","6500100","板橋區"
"220019","283-VK","2018/01/02 14:09:49","新北市板橋區重慶路269巷31-1號","121.464326666667","24.9993283333333","6500100","板橋區"
"220043","285-UM","2018/01/02 14:09:55","新北市板橋區光武街151號","121.465525","25.0294566666667","6500100","板橋區"
"220001","285-VK","2018/01/02 14:09:44","新北市板橋區懷仁街14巷1號","121.475978333333","25.0197633333333","6500100","板橋區"
"220031","286-VK","2018/01/02 14:09:39","新北市板橋區大觀路二段174巷173弄10號","121.441456666667","25.0038866666667","6500100","板橋區"
"220029","287-VK","2018/01/02 14:09:37","新北市板橋區南雅西路二段156巷2號","121.451793333333","25.0134316666667","6500100","板橋區"
"220039","288-VK","2018/01/02 14:09:43","新北市板橋區裕民街52號","121.461495","25.02868","6500100","板橋區"
"220009","293-UM","2018/01/02 14:09:37","新北市板橋區三民路二段21巷19號","121.479985","25.0182016666667","6500100","板橋區"
"220032","296-UM","2018/01/02 14:09:49","新北市板橋區篤行路一段16號","121.431323333333","24.9954666666667","6500100","板橋區"
"220023","297-UM","2018/01/02 14:09:57","新北市板橋區大智街23號","121.455173333333","25.0149083333333","6500100","板橋區"
"220010","305-R5","2018/01/02 14:09:41","新北市板橋區三民路二段居仁巷2弄25號","121.480008333333","25.0130133333333","6500100","板橋區"
"220041","307-R5","2018/01/02 14:09:49","新北市板橋區文化路二段225巷60弄13號","121.469191666667","25.0288033333333","6500100","板橋區"
"220047","317-R6","2018/01/02 14:09:42","新北市板橋區自由路52號","121.465688333333","25.02358","6500100","板橋區"
"220080","461-BY","2018/01/02 08:51:40","新北市板橋區華東街1-9號","121.448093333333","24.9948416666667","6500100","板橋區"
"220012","486-VK","2018/01/02 14:09:54","新北市板橋區板新路103號","121.472771666667","25.0142166666667","6500100","板橋區"
"220038","487-VK","2018/01/02 14:09:51","新北市板橋區文化路二段389號","121.473463333333","25.0313683333333","6500100","板橋區"
"220037","491-VK","2018/01/02 14:09:41","新北市板橋區莊敬路40號","121.47285","25.0269983333333","6500100","板橋區"
"220104","560-BX","2018/01/02 14:09:52","新北市板橋區中正路332-9號","121.454338333333","25.0229116666667","6500100","板橋區"
"220052","561-BX","2018/01/02 14:09:40","新北市板橋區文化路一段188巷9弄25號","121.46864","25.0194083333333","6500100","板橋區"
"220042","609-BX","2018/01/02 14:09:47","新北市板橋區民生路三段251號","121.46454","25.02917","6500100","板橋區"
"220040","637-BX","2018/01/02 14:09:51","新北市板橋區縣民大道247巷86號","121.482158333333","25.0269783333333","6500100","板橋區"
"220005","686-BX","2018/01/02 14:09:43","新北市板橋區重慶路199號","121.462886666667","25.0017383333333","6500100","板橋區"
"220025","687-BX","2018/01/02 14:09:47","新北市板橋區大觀路二段174巷210號","121.44236","25.00429","6500100","板橋區"
"220042","689-BX","2018/01/02 14:09:42","新北市板橋區中山路二段291-16號","121.478493333333","25.0183033333333","6500100","板橋區"
"220002","741-BX","2018/01/02 14:09:49","新北市板橋區實踐路32巷6號","121.463036666667","25.0071566666667","6500100","板橋區"
"220003","827-TW","2018/01/02 14:09:37","新北市板橋區中山路一段146號","121.463686666667","25.01103","6500100","板橋區"
"220051","830-TW","2018/01/02 14:09:49","新北市板橋區田單街49巷1弄12號","121.482718333333","25.0288416666667","6500100","板橋區"
"220022","895-R6","2018/01/02 14:09:49","新北市板橋區林園街85號","121.45357","25.0106316666667","6500100","板橋區"
"220021","985-R7","2018/01/02 14:09:49","新北市板橋區中正路189號","121.456393333333","25.0168716666667","6500100","板橋區"
"220046","AAC-210","2018/01/02 14:09:42","新北市板橋區英士路76號","121.46014","25.024235","6500100","板橋區"
