"lineid","car","time","location","longitude","latitude","cityid","cityname"
"234025","9371-KE","2018/01/02 15:09:49","新北市永和區水源街21巷14弄3號","121.511348333333","25.0037433333333","6500400","永和區"
"244002","248-BX","2018/01/02 15:09:39","新北市林口區林口路76號","121.38969","25.0807183333333","6501700","林口區"
"231002","001-UM","2018/01/02 15:09:46","新北市新店區中正路545號","121.533768333333","24.9877066666667","6500600","新店區"
"231037","0293-UT","2018/01/02 15:09:46","新北市新店區安興路56號","121.516488333333","24.974995","6500600","新店區"
"231028","046-UY","2018/01/02 15:09:55","新北市新店區吉祥街15巷60號","121.499816666667","24.9451266666667","6500600","新店區"
"231030","047-UY","2018/01/02 15:09:41","新北市新店區安民街341-1號","121.516848333333","24.974865","6500600","新店區"
"231029","106-UY","2018/01/02 15:09:41","新北市新店區安康路三段738號","121.473868333333","24.942045","6500600","新店區"
"231018","107-UY","2018/01/02 15:09:54","新北市新店區中央六街76號","121.527055","24.9763316666667","6500600","新店區"
"231012","108-UY","2018/01/02 15:09:48","新北市新店區寶元路一段65號","121.542173333333","24.98582","6500600","新店區"
"231020","187-VK","2018/01/02 15:09:20","新北市新店區永福路54號","121.558853333333","24.928185","6500600","新店區"
"231035","188-VK","2018/01/02 15:09:45","新北市新店區永平街87號","121.516406666667","24.9854916666667","6500600","新店區"
"231015","KEA-2219","2018/01/02 15:04:13","新北市新店區明山路5號","121.56342","24.9556716666667","6500600","新店區"
"231026","256-BX","2018/01/02 15:09:46","新北市新店區建興街9巷1號","121.539848333333","24.9763633333333","6500600","新店區"
"231034","268-BY","2018/01/02 15:09:49","新北市新店區玫瑰路4-1號","121.49353","24.9514266666667","6500600","新店區"
"231023","AAD-862","2018/01/02 15:09:48","新北市新店區檳榔路22巷1號","121.541321666667","24.964165","6500600","新店區"
"231025","3713-VJ","2018/01/02 15:09:35","新北市新店區民權路107-2號","121.53647","24.9821","6500600","新店區"
"231024","4716-K9","2018/01/02 15:09:50","新北市新店區北新路一段297巷20號","121.540811666667","24.9680016666667","6500600","新店區"
"231036","512-UM","2018/01/02 15:09:35","新北市新店區安祥路102巷64號","121.485485","24.9641966666667","6500600","新店區"
"231006","617-UM","2018/01/02 15:09:47","新北市新店區新坡一街18巷5弄8-1號","121.550725","24.9618433333333","6500600","新店區"
"231001","619-UM","2018/01/02 15:09:52","新北市新店區中正路179號","121.54083","24.9721916666667","6500600","新店區"
"231003","641-BX","2018/01/02 15:09:46","新北市新店區寶橋路200號","121.550833333333","24.9783483333333","6500600","新店區"
"231039","718-UY","2018/01/02 15:09:53","新北市新店區民權路8號","121.542475","24.9829033333333","6500600","新店區"
"231032","720-UM","2018/01/02 15:09:45","新北市新店區安泰路170-3號","121.48889","24.93585","6500600","新店區"
"231005","897-TW","2018/01/02 15:09:54","新北市新店區民族路1號","121.542428333333","24.978645","6500600","新店區"
"231004","899-TW","2018/01/02 15:09:39","新北市新店區建國路4號","121.53982","24.9733366666667","6500600","新店區"
"235030","003-UY","2018/01/02 15:09:44","新北市中和區保平路231號","121.507978333333","25.00432","6500300","中和區"
"235020","096-UM","2018/01/02 15:09:39","新北市中和區中山路三段147號","121.473646666667","25.0061883333333","6500300","中和區"
"235003","097-UM","2018/01/02 15:09:52","新北市中和區安樂路217巷60號","121.5128","24.9975766666667","6500300","中和區"
"235004","150-BY","2018/01/02 15:09:49","新北市中和區保健路26巷3號","121.508581666667","24.9976816666667","6500300","中和區"
"235007","352-BY","2018/01/02 15:09:42","新北市中和區興南路二段159巷7號","121.505268333333","24.9832016666667","6500300","中和區"
"235032","377-QA","2018/01/02 15:09:53","新北市中和區永和路106號","121.496628333333","25.00563","6500300","中和區"
"235014","4979-A6","2018/01/02 15:09:45","新北市中和區景新街296號","121.511186666667","24.9919733333333","6500300","中和區"
"235033","4980-A6","2018/01/02 15:09:51","新北市中和區圓通路176-1號","121.497011666667","24.9944583333333","6500300","中和區"
"235034","558-UM","2018/01/02 15:07:58","新北市中和區連勝街5號","121.499201666667","24.9983133333333","6500300","中和區"
"235018","640-BX","2018/01/02 15:09:53","新北市中和區自治街1號","121.474565","25.00322","6500300","中和區"
"235012","896-TW","2018/01/02 15:09:51","新北市中和區興南路一段143號","121.508756666667","24.9874116666667","6500300","中和區"
"235001","AAC-213","2018/01/02 15:09:35","新北市中和區自強路52號","121.520116666667","24.9948266666667","6500300","中和區"
"235023","AAC-215","2018/01/02 15:09:37","新北市中和區圓通路335巷37弄4號","121.493846666667","24.9891333333333","6500300","中和區"
"220013","072-UY","2018/01/02 15:09:50","新北市板橋區民生路二段56-2號","121.4723","25.0171383333333","6500100","板橋區"
"220017","AAD-861","2018/01/02 15:09:50","新北市板橋區貴興路112號","121.455166666667","25.0022183333333","6500100","板橋區"
"247007","341-TH","2018/01/02 15:09:37","新北市八里區中山路三段216號","121.378711666667","25.14238","6501400","蘆洲區"
"228004","212-TW","2018/01/02 15:09:54","新北市貢寮區雙玉里田寮洋街16-2號","121.922025","25.0251116666667","6502600","貢寮區"
"208004","AAC-292","2018/01/02 15:09:45","新北市金山區兩湖里倒照湖21-1號","121.594245","25.2390166666667","6502700","金山區"
"207002","749-BX","2018/01/02 15:09:43","新北市萬里區崁腳里崁腳路23-3號","121.65321","25.1627733333333","6502800","萬里區"
"207001","662-BX","2018/01/02 15:09:54","新北市萬里區磺潭里員潭路1-1號","121.646515","25.2025066666667","6502800","萬里區"
"236065","105-UM","2018/01/02 15:09:52","新北市土城區學成路114號","121.449643333333","24.9893366666667","6501300","土城區"
"236041","107-UM","2018/01/02 15:09:53","新北市土城區金城路二段245巷9號","121.455401666667","24.98309","6501300","土城區"
"236075","166-UM","2018/01/02 13:59:25","新北市土城區永寧路32巷10弄6號","121.429035","24.9608216666667","6501300","土城區"
"236029","253-BX","2018/01/02 15:09:50","新北市土城區福祥街12號","121.440773333333","24.9796483333333","6501300","土城區"
"236025","269-VK","2018/01/02 15:09:43","新北市土城區中央路二段149巷31-2號","121.442966666667","24.9766216666667","6501300","土城區"
"236013","270-VK","2018/01/02 15:09:51","新北市土城區學府路一段23巷25弄16號","121.45726","24.9863383333333","6501300","土城區"
"236034","271-VK","2018/01/02 15:09:35","新北市土城區明德路一段161號","121.464741666667","24.9796366666667","6501300","土城區"
"236002","339-SR","2018/01/02 14:29:41","新北市土城區永平街51號","121.427653333333","24.95917","6501300","土城區"
"236017","401-BY","2018/01/02 15:09:53","新北市土城區延吉街146號","121.469116666667","24.9856166666667","6501300","土城區"
"236057","912-UM","2018/01/02 15:09:51","新北市土城區金城路二段235號","121.455683333333","24.982435","6501300","土城區"
"236045","913-UM","2018/01/02 15:09:53","新北市土城區清水路211號","121.460525","24.9820183333333","6501300","土城區"
"236061","915-UM","2018/01/02 15:09:55","新北市土城區延平街55號","121.467833333333","24.9924883333333","6501300","土城區"
"236054","AAC-216","2018/01/02 15:09:38","新北市土城區學府路一段276號","121.449946666667","24.9830233333333","6501300","土城區"
"221012","276-VK","2018/01/02 13:28:18","新北市汐止區汐萬路一段256巷3號","121.653445","25.0746616666667","6501100","汐止區"
"220014","257-TC","2018/01/02 15:09:35","新北市板橋區中山路二段142號","121.476516666667","25.016995","6500100","板橋區"
"220050","280-UM","2018/01/02 15:09:43","新北市板橋區雙十路二段47巷26號","121.4756","25.0258516666667","6500100","板橋區"
"220019","283-VK","2018/01/02 15:09:49","新北市板橋區華東街1-10號","121.448563333333","24.9949183333333","6500100","板橋區"
"220043","285-UM","2018/01/02 15:09:42","新北市板橋區陽明街25巷1號","121.466203333333","25.021695","6500100","板橋區"
"220001","285-VK","2018/01/02 15:09:44","新北市板橋區中山路二段268號","121.478931666667","25.018425","6500100","板橋區"
"220031","286-VK","2018/01/02 15:09:39","新北市板橋區僑中二街100巷8號","121.445596666667","25.0085266666667","6500100","板橋區"
"220029","287-VK","2018/01/02 15:09:37","新北市板橋區僑中一街102巷1弄1號","121.446655","25.011985","6500100","板橋區"
"220009","293-UM","2018/01/02 15:09:57","新北市板橋區四川路一段210號","121.459488333333","25.002125","6500100","板橋區"
"220032","296-UM","2018/01/02 15:09:49","新北市樹林區水源街81號","121.426175","24.9791566666667","6500100","板橋區"
"220010","305-R5","2018/01/02 15:09:41","新北市五股區凌雲路二段66號","121.43963","25.1062516666667","6500100","板橋區"
"220041","307-R5","2018/01/02 15:09:51","新北市板橋區文化路一段141號","121.461921666667","25.0157366666667","6500100","板橋區"
"220080","461-BY","2018/01/02 08:51:40","新北市板橋區華東街1-9號","121.448093333333","24.9948416666667","6500100","板橋區"
"220012","486-VK","2018/01/02 15:09:54","新北市板橋區漢生東路195號","121.47003","25.011355","6500100","板橋區"
"220038","487-VK","2018/01/02 15:09:51","新北市板橋區新海路386號","121.45907","25.0262783333333","6500100","板橋區"
"220037","491-VK","2018/01/02 15:09:41","新北市板橋區民治街85號","121.479488333333","25.032135","6500100","板橋區"
"220052","561-BX","2018/01/02 15:09:40","新北市板橋區英士路58巷7號","121.460696666667","25.0251583333333","6500100","板橋區"
"220042","609-BX","2018/01/02 15:09:54","新北市板橋區長江路二段230號","121.468525","25.0324866666667","6500100","板橋區"
"220025","687-BX","2018/01/02 15:09:36","新北市板橋區僑中一街124巷77號","121.446791666667","25.0181216666667","6500100","板橋區"
"220042","689-BX","2018/01/02 15:09:42","新北市板橋區中山路二段387號","121.480253333333","25.0193333333333","6500100","板橋區"
"220003","827-TW","2018/01/02 15:09:37","新北市板橋區四川路一段475號","121.457125","24.997465","6500100","板橋區"
"220051","830-TW","2018/01/02 15:09:49","新北市板橋區文聖街105號","121.477816666667","25.0294866666667","6500100","板橋區"
"220022","895-R6","2018/01/02 15:09:49","新北市板橋區館前西路86號","121.45759","25.0071616666667","6500100","板橋區"
"220046","AAC-210","2018/01/02 15:09:42","新北市板橋區光正街45巷6弄15號","121.461105","25.0169833333333","6500100","板橋區"
"220018","AAC-253","2018/01/02 15:09:39","新北市板橋區四川路一段334號","121.457345","24.9979216666667","6500100","板橋區"
