"lineid","car","time","location","longitude","latitude","cityid","cityname"
"231002","001-UM","2018/01/02 15:19:46","新北市新店區中正路700巷1號","121.53395","24.9911683333333","6500600","新店區"
"231037","0293-UT","2018/01/02 15:19:46","新北市新店區安興路91巷41-1號","121.513891666667","24.974465","6500600","新店區"
"231028","046-UY","2018/01/02 15:19:43","新北市新店區僑信路108巷42號","121.498951666667","24.9465683333333","6500600","新店區"
"231030","047-UY","2018/01/02 15:19:41","新北市新店區安和路三段47-1號","121.518053333333","24.9821616666667","6500600","新店區"
"231029","106-UY","2018/01/02 15:19:41","新北市新店區安康路三段738號","121.473898333333","24.9420216666667","6500600","新店區"
"231018","107-UY","2018/01/02 15:19:54","新北市新店區中央七街21號","121.529773333333","24.975195","6500600","新店區"
"231012","108-UY","2018/01/02 15:19:48","新北市新店區復興路27號","121.53904","24.9867083333333","6500600","新店區"
"231020","187-VK","2018/01/02 15:19:40","新北市新店區湖興路128-3號","121.567425","24.9322","6500600","新店區"
"231035","188-VK","2018/01/02 15:19:45","新北市新店區安興路84號","121.515096666667","24.9760033333333","6500600","新店區"
"231026","256-BX","2018/01/02 15:19:46","新北市新店區中正路263號","121.538641666667","24.973645","6500600","新店區"
"231034","268-BY","2018/01/02 15:19:52","新北市新店區如意街2巷2號","121.4959","24.9497","6500600","新店區"
"231023","AAD-862","2018/01/02 15:19:43","新北市新店區行政街14巷1號","121.543153333333","24.9662133333333","6500600","新店區"
"231025","3713-VJ","2018/01/02 15:19:35","新北市新店區中正路485號","121.5338","24.9816716666667","6500600","新店區"
"231024","4716-K9","2018/01/02 15:19:50","新北市新店區北新路一段309號","121.541505","24.9678716666667","6500600","新店區"
"231036","512-UM","2018/01/02 15:19:35","新北市新店區安祥路69巷17號","121.481921666667","24.9613733333333","6500600","新店區"
"231006","617-UM","2018/01/02 15:19:47","新北市新店區中興路一段181號","121.542993333333","24.9648333333333","6500600","新店區"
"231001","619-UM","2018/01/02 15:19:51","新北市新店區北新路一段209號","121.54045","24.9649483333333","6500600","新店區"
"231003","641-BX","2018/01/02 15:19:46","新北市新店區寶高路118號","121.554466666667","24.9759866666667","6500600","新店區"
"231039","718-UY","2018/01/02 15:19:53","新北市新店區寶元路一段65號","121.542195","24.9857416666667","6500600","新店區"
"231032","720-UM","2018/01/02 15:19:45","新北市新店區和成街16巷2號","121.487713333333","24.9469533333333","6500600","新店區"
"231005","897-TW","2018/01/02 15:19:34","新北市新店區民族路1號","121.542391666667","24.9786433333333","6500600","新店區"
"231004","899-TW","2018/01/02 15:19:39","新北市新店區博愛街13巷24號","121.540283333333","24.9740516666667","6500600","新店區"
"235030","003-UY","2018/01/02 15:19:43","新北市中和區南工路105號","121.507303333333","25.0038783333333","6500300","中和區"
"235003","097-UM","2018/01/02 15:19:52","新北市中和區安平路30號","121.509546666667","24.9946483333333","6500300","中和區"
"235032","377-QA","2018/01/02 15:19:53","新北市中和區錦和路142巷1號","121.489151666667","24.99746","6500300","中和區"
"235014","4979-A6","2018/01/02 15:19:44","新北市中和區景平路466號","121.505633333333","24.99367","6500300","中和區"
"235033","4980-A6","2018/01/02 15:19:51","新北市中和區連城路347巷18弄13號","121.48728","24.9948433333333","6500300","中和區"
"235034","558-UM","2018/01/02 15:19:38","新北市中和區中正路277號","121.495395","24.9937766666667","6500300","中和區"
"235012","896-TW","2018/01/02 15:19:42","新北市中和區景新街370號","121.512255","24.9903283333333","6500300","中和區"
"235001","AAC-213","2018/01/02 15:19:55","新北市板橋區民生路一段35號","121.475711666667","25.01289","6500300","中和區"
"235023","AAC-215","2018/01/02 15:19:37","新北市中和區圓通路435巷2-10號","121.487528333333","24.9866616666667","6500300","中和區"
"247007","341-TH","2018/01/02 15:19:37","新北市八里區中山路三段390號","121.368268333333","25.1351433333333","6501400","蘆洲區"
"208004","AAC-292","2018/01/02 15:19:45","新北市金山區半嶺61號","121.609445","25.2368333333333","6502700","金山區"
"207002","749-BX","2018/01/02 15:19:54","新北市萬里區崁腳里內中福路24號","121.660135","25.1652766666667","6502800","萬里區"
"207001","662-BX","2018/01/02 15:19:54","新北市萬里區大鵬里萬里加投10號","121.651211666667","25.20689","6502800","萬里區"
"236065","105-UM","2018/01/02 15:19:52","新北市土城區裕民路185巷36弄10號","121.454378333333","24.98459","6501300","土城區"
"236041","107-UM","2018/01/02 15:19:41","新北市土城區學府路一段145號","121.453608333333","24.98617","6501300","土城區"
"236075","166-UM","2018/01/02 13:59:25","新北市土城區永寧路32巷10弄6號","121.429035","24.9608216666667","6501300","土城區"
"236029","253-BX","2018/01/02 15:19:53","新北市土城區中華路一段217號","121.442496666667","24.9842283333333","6501300","土城區"
"236025","269-VK","2018/01/02 15:19:36","新北市土城區學府路二段220號","121.445043333333","24.97726","6501300","土城區"
"236013","270-VK","2018/01/02 15:19:51","新北市土城區廣福街68巷24號","121.458643333333","24.99044","6501300","土城區"
"236034","271-VK","2018/01/02 15:19:36","新北市土城區國際路152號","121.467816666667","24.9761783333333","6501300","土城區"
"236002","339-SR","2018/01/02 14:29:41","新北市土城區永平街51號","121.427653333333","24.95917","6501300","土城區"
"236017","401-BY","2018/01/02 15:19:53","新北市土城區峰廷街3號","121.469155","24.98736","6501300","土城區"
"236057","912-UM","2018/01/02 15:19:51","新北市土城區金城路一段3號","121.43916","24.9689666666667","6501300","土城區"
"236045","913-UM","2018/01/02 15:19:52","新北市土城區明德路一段69巷7號","121.4655","24.9837166666667","6501300","土城區"
"236061","915-UM","2018/01/02 15:19:35","新北市土城區延和路146巷8號","121.468015","24.9896333333333","6501300","土城區"
"236054","AAC-216","2018/01/02 15:19:38","新北市土城區學府路一段113號","121.455521666667","24.9874466666667","6501300","土城區"
"221012","276-VK","2018/01/02 13:28:18","新北市汐止區汐萬路一段256巷3號","121.653445","25.0746616666667","6501100","汐止區"
"220050","280-UM","2018/01/02 15:19:43","新北市板橋區莊敬路77號","121.473088333333","25.0268","6500100","板橋區"
"220031","286-VK","2018/01/02 15:19:49","新北市板橋區僑中二街106巷24號","121.44488","25.0077483333333","6500100","板橋區"
"220032","296-UM","2018/01/02 15:19:49","新北市樹林區中山路三段214號","121.38006","24.9678766666667","6500100","板橋區"
"220010","305-R5","2018/01/02 15:19:41","新北市八里區中山路三段382號","121.368536666667","25.1358283333333","6500100","板橋區"
"220080","461-BY","2018/01/02 08:51:40","新北市板橋區華東街1-9號","121.448093333333","24.9948416666667","6500100","板橋區"
"220038","487-VK","2018/01/02 15:19:51","新北市板橋區互助街1巷2號","121.463406666667","25.0276983333333","6500100","板橋區"
"220052","561-BX","2018/01/02 15:19:40","新北市板橋區新海路45號","121.462323333333","25.0210383333333","6500100","板橋區"
"220042","609-BX","2018/01/02 15:19:43","新北市板橋區長江路一段14號","121.457855","25.028655","6500100","板橋區"
"220025","687-BX","2018/01/02 15:19:36","新北市板橋區板城路399號","121.451018333333","24.99953","6500100","板橋區"
"220042","689-BX","2018/01/02 15:19:42","新北市板橋區三民路一段100號","121.479233333333","25.0213016666667","6500100","板橋區"
"220051","830-TW","2018/01/02 15:19:49","新北市板橋區文化路一段88號","121.464405","25.01755","6500100","板橋區"
"220018","AAC-253","2018/01/02 15:19:39","新北市板橋區四川路二段245巷71號","121.452676666667","24.9920333333333","6500100","板橋區"
