"lineid","car","time","location","longitude","latitude","cityid","cityname"
"231037","0293-UT","2018/01/02 15:59:46","新北市新店區安民街42號","121.515855","24.9653666666667","6500600","新店區"
"231030","047-UY","2018/01/02 15:59:41","新北市新店區安和路三段77號","121.517885","24.9834633333333","6500600","新店區"
"231018","107-UY","2018/01/02 15:59:53","新北市新店區中正路663巷7弄15號","121.532876666667","24.990085","6500600","新店區"
"231012","108-UY","2018/01/02 15:59:48","新北市新店區民生路164-1號","121.527966666667","24.9806516666667","6500600","新店區"
"231020","187-VK","2018/01/02 15:59:40","新北市新店區新烏路一段17巷12號","121.546163333333","24.95071","6500600","新店區"
"231035","188-VK","2018/01/02 15:59:45","新北市新店區安民街239號","121.517188333333","24.9721216666667","6500600","新店區"
"231015","KEA-2219","2018/01/02 15:59:53","新北市新店區中正路284巷4弄3號","121.53849","24.97471","6500600","新店區"
"231034","268-BY","2018/01/02 15:59:49","新北市新店區吉祥街2巷2號","121.497255","24.94778","6500600","新店區"
"231046","278-BY","2018/01/02 15:59:38","新北市新店區安康路一段279號","121.523653333333","24.963515","6500600","新店區"
"231038","4715-K9","2018/01/02 15:59:52","新北市新店區安康路二段183巷12號","121.509645","24.9587233333333","6500600","新店區"
"231013","719-UM","2018/01/02 15:59:48","新北市新店區安康路一段258號","121.520361666667","24.9639983333333","6500600","新店區"
"231005","897-TW","2018/01/02 15:59:54","新北市新店區北新路三段89號","121.541518333333","24.9817616666667","6500600","新店區"
"241011","013-R5","2018/01/02 15:59:43","新北市三重區雙園街1巷4號","121.497143333333","25.0682666666667","6500200","三重區"
"241028","022-UY","2018/01/02 15:59:51","新北市三重區電信街41號","121.49679","25.0583933333333","6500200","三重區"
"241008","059-VK","2018/01/02 15:59:37","新北市三重區捷運路36號","121.482803333333","25.0552316666667","6500200","三重區"
"241015","062-VK","2018/01/02 15:59:48","新北市三重區重新路四段121號","121.485031666667","25.0520266666667","6500200","三重區"
"241017","063-VK","2018/01/02 15:59:40","新北市三重區大仁街48巷8號","121.491256666667","25.0644883333333","6500200","三重區"
"241024","065-VK","2018/01/02 15:59:39","新北市三重區力行路一段38巷27號","121.485356666667","25.0670466666667","6500200","三重區"
"241026","066-VK","2018/01/02 15:59:47","新北市三重區重新路三段7號","121.495216666667","25.0616166666667","6500200","三重區"
"241005","262-UM","2018/01/02 15:59:39","新北市三重區溪尾街300-2號","121.48748","25.0837033333333","6500200","三重區"
"241016","266-UM","2018/01/02 15:59:26","新北市三重區捷運路11-2號","121.486086666667","25.0563166666667","6500200","三重區"
"241022","267-UM","2018/01/02 15:59:50","新北市三重區中正北路176巷27號","121.48271","25.0660566666667","6500200","三重區"
"241018","268-UM","2018/01/02 15:59:40","新北市三重區中正北路27號","121.491748333333","25.0624366666667","6500200","三重區"
"241013","270-UM","2018/01/02 15:59:40","新北市三重區三和路三段18號","121.496935","25.0702916666667","6500200","三重區"
"241025","271-UM","2018/01/02 15:59:44","新北市三重區三民街188號","121.481875","25.0658466666667","6500200","三重區"
"241007","398-BY","2018/01/02 15:59:46","新北市三重區力行路二段78號","121.481803333333","25.073595","6500200","三重區"
"241020","413-TH","2018/01/02 15:59:43","新北市三重區車路頭街4巷21號","121.483236666667","25.0700783333333","6500200","三重區"
"241019","478-VK","2018/01/02 15:59:35","新北市三重區自強路二段74巷23-1號","121.487775","25.0696383333333","6500200","三重區"
"241014","543-UM","2018/01/02 15:59:49","新北市三重區重新路四段121號","121.484823333333","25.0519766666667","6500200","三重區"
"241023","545-UM","2018/01/02 15:59:47","新北市三重區中正北路170號","121.484145","25.0663966666667","6500200","三重區"
"241001","547-UM","2018/01/02 15:59:38","新北市三重區成功路110-10號","121.485396666667","25.050405","6500200","三重區"
"241006","AAD-863","2018/01/02 15:59:40","新北市三重區過圳街3號","121.489268333333","25.0585366666667","6500200","三重區"
"241012","941-UM","2018/01/02 15:59:53","新北市三重區文化北路118巷64號","121.49713","25.0660633333333","6500200","三重區"
"241029","942-UM","2018/01/02 15:59:50","新北市三重區大同南路212巷24號","121.49748","25.0566416666667","6500200","三重區"
"241033","AAC-255","2018/01/02 15:59:51","新北市三重區重新路五段440號","121.474815","25.0473433333333","6500200","三重區"
"235026","800-TS","2018/01/02 15:59:44","新北市中和區永和路204號","121.491911666667","25.0073216666667","6500300","中和區"
"235065","911-UM","2018/01/02 15:59:17","新北市中和區員山路36巷16-3號","121.485096666667","24.9910583333333","6500300","中和區"
"247004","336-TH","2018/01/02 15:44:41","新北市五股區中興路三段163號","121.449146666667","25.080725","6501400","蘆洲區"
"224007","272-VK","2018/01/02 15:59:42","新北市瑞芳區楓子瀨路76號","121.762556666667","25.098575","6501200","瑞芳區"
"227003","400-TW","2018/01/02 15:59:52","新北市雙溪區平林里外平林71號","121.84206","25.0348783333333","6502500","雙溪區"
"227009","030-BX","2018/01/02 15:59:46","新北市雙溪區三港里雙澳路38-2號","121.872426666667","25.0513933333333","6502500","雙溪區"
"208004","AAC-292","2018/01/02 15:59:45","新北市金山區坑子內3-1號","121.62804","25.21372","6502700","金山區"
"251013","179-VK","2018/01/02 15:59:36","新北市淡水區沙崙路97-1號","121.421975","25.1818266666667","6501000","淡水區"
"251008","181-VK","2018/01/02 15:59:48","新北市淡水區中正路255號","121.433323333333","25.174435","6501000","淡水區"
"236065","105-UM","2018/01/02 15:59:52","新北市土城區福安街42巷24號","121.418505","24.9655466666667","6501300","土城區"
"236013","270-VK","2018/01/02 15:59:51","新北市樹林區環河路2-2號","121.425728333333","24.977075","6501300","土城區"
"236002","339-SR","2018/01/02 15:42:10","新北市土城區永平街51號","121.427671666667","24.9591633333333","6501300","土城區"
"236017","401-BY","2018/01/02 15:59:53","新北市土城區延吉街7巷1號","121.47198","24.9891583333333","6501300","土城區"
"236057","912-UM","2018/01/02 15:59:51","新北市土城區中央路二段241號","121.440121666667","24.9717633333333","6501300","土城區"
"221012","276-VK","2018/01/02 13:28:18","新北市汐止區汐萬路一段256巷3號","121.653445","25.0746616666667","6501100","汐止區"
"220050","280-UM","2018/01/02 15:59:43","新北市八里區中山路三段386號","121.368485","25.135945","6500100","板橋區"
"220032","296-UM","2018/01/02 15:59:53","新北市板橋區大觀路二段265巷7-7號","121.443191666667","24.9943783333333","6500100","板橋區"
"220010","305-R5","2018/01/02 15:59:41","新北市板橋區民生路二段120號","121.47036","25.0196266666667","6500100","板橋區"
"220080","461-BY","2018/01/02 08:51:40","新北市板橋區華東街1-9號","121.448093333333","24.9948416666667","6500100","板橋區"
