"lineid","car","time","location","longitude","latitude","cityid","cityname"
"249005","759-BX","2018/01/02 16:39:43","新北市八里區忠孝路167號","121.423681666667","25.160695","6502300","八里區"
"231046","278-BY","2018/01/02 16:39:38","新北市新店區灣潭路15-2號","121.542408333333","24.943445","6500600","新店區"
"241011","013-R5","2018/01/02 16:39:43","新北市三重區仁愛街39號","121.496603333333","25.07162","6500200","三重區"
"241028","022-UY","2018/01/02 16:39:51","新北市三重區重新路三段80號","121.493271666667","25.0610283333333","6500200","三重區"
"241008","059-VK","2018/01/02 16:39:57","新北市三重區永安北路一段27巷31號","121.477448333333","25.07549","6500200","三重區"
"241009","060-VK","2018/01/02 16:39:54","新北市三重區三和路四段203巷86號","121.484091666667","25.0799916666667","6500200","三重區"
"241031","061-VK","2018/01/02 16:39:53","新北市三重區重陽路一段43巷6號","121.487131666667","25.05815","6500200","三重區"
"241015","062-VK","2018/01/02 16:39:48","新北市三重區文化北路41-2號","121.498816666667","25.0652266666667","6500200","三重區"
"241017","063-VK","2018/01/02 16:39:40","新北市三重區中正北路25巷2號","121.49331","25.0627766666667","6500200","三重區"
"241024","065-VK","2018/01/02 16:39:39","新北市三重區中正北路315巷6弄70號","121.476783333333","25.0724316666667","6500200","三重區"
"241026","066-VK","2018/01/02 16:39:47","新北市三重區和平街36號","121.501921666667","25.0626566666667","6500200","三重區"
"241002","090-VK","2018/01/02 16:39:43","新北市三重區五華街55巷67號","121.496053333333","25.082325","6500200","三重區"
"241003","091-VK","2018/01/02 16:39:36","新北市三重區五華街71號","121.492591666667","25.082845","6500200","三重區"
"241005","262-UM","2018/01/02 16:39:39","新北市三重區碧華街127號","121.48608","25.0820116666667","6500200","三重區"
"241016","266-UM","2018/01/02 16:39:47","新北市三重區大智街5號","121.494751666667","25.06498","6500200","三重區"
"241022","267-UM","2018/01/02 16:39:50","新北市三重區重陽路二段2號","121.486671666667","25.0616016666667","6500200","三重區"
"241018","268-UM","2018/01/02 16:39:40","新北市三重區六張街66號","121.493596666667","25.0701033333333","6500200","三重區"
"241032","269-UM","2018/01/02 16:39:45","新北市三重區新北大道一段57巷1號","121.485515","25.0612283333333","6500200","三重區"
"241013","270-UM","2018/01/02 16:39:40","新北市三重區三和路三段101巷108號","121.497605","25.073365","6500200","三重區"
"241025","271-UM","2018/01/02 16:39:44","新北市三重區中正北路428巷17號","121.474405","25.0699383333333","6500200","三重區"
"241007","398-BY","2018/01/02 16:39:46","新北市三重區三和路四段167巷57號","121.485625","25.0795383333333","6500200","三重區"
"241020","413-TH","2018/01/02 16:39:43","新北市三重區後竹圍街205巷23號","121.484786666667","25.0722466666667","6500200","三重區"
"241004","475-VK","2018/01/02 16:39:49","新北市三重區五福街1號","121.493096666667","25.0817333333333","6500200","三重區"
"241019","478-VK","2018/01/02 16:39:55","新北市三重區安慶街325號","121.48797","25.0670533333333","6500200","三重區"
"241030","480-VK","2018/01/02 16:39:39","新北市三重區環河南路286號","121.48918","25.04886","6500200","三重區"
"241014","543-UM","2018/01/02 16:39:49","新北市三重區龍濱路40號","121.502763333333","25.0683416666667","6500200","三重區"
"241023","545-UM","2018/01/02 16:39:47","新北市三重區中華路132號","121.483548333333","25.064045","6500200","三重區"
"241001","547-UM","2018/01/02 16:39:58","新北市三重區仁愛街251號","121.49332","25.0781366666667","6500200","三重區"
"241006","AAD-863","2018/01/02 16:39:51","新北市三重區力行路二段91巷21弄5號","121.48344","25.075535","6500200","三重區"
"241012","941-UM","2018/01/02 16:39:53","新北市三重區仁興街4巷10號","121.499616666667","25.073675","6500200","三重區"
"241029","942-UM","2018/01/02 16:39:50","新北市三重區集美街112巷13號","121.489471666667","25.05412","6500200","三重區"
"241033","AAC-255","2018/01/02 16:39:51","新北市三重區光復路二段117-1號","121.47215","25.0587883333333","6500200","三重區"
"235065","911-UM","2018/01/02 15:59:17","新北市中和區員山路36巷16-3號","121.485096666667","24.9910583333333","6500300","中和區"
"247008","341-TH","2018/01/02 16:39:52","新北市五股區成泰路一段98巷77號","121.452055","25.08032","6501400","蘆洲區"
"247004","336-TH","2018/01/02 16:39:36","新北市五股區中興路三段163號","121.449061666667","25.0807","6501400","蘆洲區"
"247006","056-VK","2018/01/02 16:39:35","新北市五股區中興路三段5號","121.449781666667","25.0795383333333","6501400","蘆洲區"
"247018","001-UY","2018/01/02 16:39:50","新北市五股區中興路三段163號","121.449028333333","25.080865","6501400","蘆洲區"
"228002","663-BX","2018/01/02 16:39:51","新北市貢寮區貢寮里朝陽街22號","121.911401666667","25.0215983333333","6502600","貢寮區"
"224006","676-BX","2018/01/02 16:38:36","新北市瑞芳區大寮路356-1號","121.78461","25.1033766666667","6501200","瑞芳區"
"224008","275-VK","2018/01/02 16:39:46","新北市瑞芳區逢甲路17號","121.809393333333","25.1083983333333","6501200","瑞芳區"
"224007","272-VK","2018/01/02 16:39:42","新北市瑞芳區大埔路肯尼士新城10-1號","121.760258333333","25.1043733333333","6501200","瑞芳區"
"224005","271-BY","2018/01/02 16:39:45","新北市瑞芳區海濱路2巷1號","121.840671666667","25.127705","6501200","瑞芳區"
"227003","400-TW","2018/01/02 16:39:52","新北市雙溪區外柑里土地公後5-1號","121.816341666667","25.020705","6502500","雙溪區"
"227009","030-BX","2018/01/02 16:39:43","新北市雙溪區牡丹里中正路77號","121.863153333333","25.0455283333333","6502500","雙溪區"
"251013","179-VK","2018/01/02 16:39:36","新北市淡水區楓樹湖1-5號","121.494683333333","25.190715","6501000","淡水區"
"251008","181-VK","2018/01/02 16:39:29","台北市北投區中央北路四段30巷160號","121.474143333333","25.1404366666667","6501000","淡水區"
"251015","182-VK","2018/01/02 16:39:49","新北市淡水區水源街一段76號","121.44543","25.1722683333333","6501000","淡水區"
"251007","577-R6","2018/01/02 16:39:55","新北市淡水區中正路二段31號","121.419551666667","25.1811783333333","6501000","淡水區"
"252002","178-VK","2018/01/02 16:39:37","新北市三芝區茂長里陳厝坑15號","121.51662","25.2545866666667","6502100","三芝區"
"252001","292-VK","2018/01/02 16:39:56","新北市三芝區埔坪里埔頭坑57號","121.50786","25.2646683333333","6502100","三芝區"
"236002","339-SR","2018/01/02 15:42:10","新北市土城區永平街51號","121.427671666667","24.9591633333333","6501300","土城區"
"239007","AAC-297","2018/01/02 04:51:47","新北市鶯歌區二甲路13-16號","121.345015","24.9351766666667","6500800","鶯歌區"
"221012","276-VK","2018/01/02 13:28:18","新北市汐止區汐萬路一段256巷3號","121.653445","25.0746616666667","6501100","汐止區"
"220010","305-R5","2018/01/02 16:01:16","新北市板橋區民生路二段120號","121.47036","25.019625","6500100","板橋區"
"220047","317-R6","2018/01/02 16:17:13","新北市板橋區民生路二段161巷9號","121.47015","25.01958","6500100","板橋區"
"220080","461-BY","2018/01/02 08:51:40","新北市板橋區華東街1-9號","121.448093333333","24.9948416666667","6500100","板橋區"
