"lineid","car","time","location","longitude","latitude","cityid","cityname"
"234026","9371-KE","2018/01/02 17:39:45","新北市永和區中正路653號","121.515031666667","25.0101716666667","6500400","永和區"
"249001","173-UM","2018/01/02 17:39:47","新北市八里區龍米路二段148號","121.437275","25.1555666666667","6502300","八里區"
"249004","303-UY","2018/01/02 17:39:42","新北市八里區賢二街39號","121.418961666667","25.15777","6502300","八里區"
"249002","305-UY","2018/01/02 17:39:44","新北市八里區石壁腳19號","121.441693333333","25.13534","6502300","八里區"
"249003","593-UM","2018/01/02 17:39:40","新北市八里區中山路二段173號","121.404865","25.1504516666667","6502300","八里區"
"249005","759-BX","2018/01/02 17:39:43","新北市八里區荖阡坑路34號","121.402748333333","25.1297866666667","6502300","八里區"
"248006","077-UY","2018/01/02 17:39:46","新北市五股區中興路二段37巷28號","121.460156666667","25.074735","6501500","五股區"
"232011","375-UM","2018/01/02 17:39:46","新北市坪林區九芎林19-5號","121.708195","24.9273466666667","6502000","坪林區"
"244013","069-UM","2018/01/02 17:39:55","新北市林口區中正路555號","121.381125","25.0768983333333","6501700","林口區"
"244007","080-UY","2018/01/02 17:39:39","新北市林口區林口路272巷2號","121.386435","25.0845983333333","6501700","林口區"
"244025","742-UY","2018/01/02 17:39:49","新北市林口區文化二路一段241巷26號","121.36625","25.0715933333333","6501700","林口區"
"244023","483-VK","2018/01/02 17:39:42","新北市林口區興林路221巷27號","121.389776666667","25.071755","6501700","林口區"
"244011","656-BX","2018/01/02 17:39:47","新北市林口區中正路398號","121.384886666667","25.077775","6501700","林口區"
"244009","837-TS","2018/01/02 17:39:44","新北市林口區中北三街132號","121.383751666667","25.08393","6501700","林口區"
"244021","838-TS","2018/01/02 17:39:38","新北市林口區仁愛路一段18號","121.397648333333","25.075255","6501700","林口區"
"222002","659-BX","2018/01/02 17:39:38","新北市深坑區北深路二段2巷13弄2號","121.622446666667","25.006725","6501800","深坑區"
"231046","278-BY","2018/01/02 17:39:38","新北市新店區直潭路92號","121.530948333333","24.9376033333333","6500600","新店區"
"241017","063-VK","2018/01/02 17:39:53","新北市三重區大同北路11號","121.495426666667","25.062275","6500200","三重區"
"241024","065-VK","2018/01/02 17:39:39","新北市三重區大勇街82巷15弄30號","121.481235","25.0719683333333","6500200","三重區"
"241005","262-UM","2018/01/02 17:39:39","新北市三重區仁愛街519號","121.487296666667","25.0821783333333","6500200","三重區"
"241016","266-UM","2018/01/02 17:39:45","新北市三重區重新路二段23號","121.497806666667","25.0625933333333","6500200","三重區"
"241007","398-BY","2018/01/02 17:39:46","新北市三重區後竹圍街205巷50號","121.484438333333","25.0730783333333","6500200","三重區"
"241014","543-UM","2018/01/02 17:39:49","新北市三重區龍濱路249號","121.501588333333","25.072555","6500200","三重區"
"241023","545-UM","2018/01/02 17:39:47","新北市三重區中華路121號","121.483701666667","25.0637983333333","6500200","三重區"
"241012","941-UM","2018/01/02 17:39:53","新北市三重區龍濱路190號","121.501103333333","25.0733033333333","6500200","三重區"
"241033","AAC-255","2018/01/02 17:39:51","新北市三重區光復路一段132號","121.472121666667","25.0522516666667","6500200","三重區"
"235067","255-BX","2018/01/02 17:39:54","新北市中和區和城路一段271巷1號","121.48552","24.9917516666667","6500300","中和區"
"235062","800-TS","2018/01/02 16:43:07","新北市中和區員山路36巷16-3號","121.48492","24.991505","6500300","中和區"
"235065","911-UM","2018/01/02 17:38:04","新北市中和區員山路36巷16-3號","121.484963333333","24.9907583333333","6500300","中和區"
"247022","893-R6","2018/01/02 17:39:42","新北市蘆洲區三民路285號","121.46729","25.0901666666667","6501400","蘆洲區"
"247012","546-UM","2018/01/02 17:39:39","新北市蘆洲區民權路3巷6號","121.476211666667","25.0855783333333","6501400","蘆洲區"
"247020","500-BY","2018/01/02 17:39:49","新北市蘆洲區民族路331-22號","121.47362","25.0917116666667","6501400","蘆洲區"
"247008","341-TH","2018/01/02 17:39:52","新北市蘆洲區中山一路281巷6號","121.472261666667","25.0793416666667","6501400","蘆洲區"
"247010","339-TH","2018/01/02 17:39:49","新北市蘆洲區中山一路74巷7號","121.478778333333","25.0812566666667","6501400","蘆洲區"
"247002","337-TH","2018/01/02 17:39:42","新北市蘆洲區永平街51號","121.457793333333","25.0912816666667","6501400","蘆洲區"
"247004","336-TH","2018/01/02 17:39:36","新北市蘆洲區長安街172巷16號","121.459888333333","25.08368","6501400","蘆洲區"
"247016","057-VK","2018/01/02 17:39:38","新北市蘆洲區光華路46巷15號","121.46844","25.0834383333333","6501400","蘆洲區"
"247006","056-VK","2018/01/02 17:39:55","新北市蘆洲區長安街23巷11號","121.46367","25.078655","6501400","蘆洲區"
"247014","007-UY","2018/01/02 17:39:38","新北市蘆洲區中正路31號","121.471258333333","25.0822083333333","6501400","蘆洲區"
"247024","002-UY","2018/01/02 17:39:44","新北市蘆洲區長樂路125-1號","121.462128333333","25.0880233333333","6501400","蘆洲區"
"247018","001-UY","2018/01/02 17:39:50","新北市蘆洲區民權路61巷4弄2號","121.47341","25.08794","6501400","蘆洲區"
"228001","212-TW","2018/01/02 17:39:52","新北市貢寮區仁理村仁愛路95-1號","121.927661666667","25.0554283333333","6502600","貢寮區"
"228002","663-BX","2018/01/02 17:39:51","新北市貢寮區福隆里外隆林街16-4號","121.957743333333","25.00524","6502600","貢寮區"
"228003","828-UM","2018/01/02 17:39:47","新北市貢寮區仁理村仁和路41號","121.92404","25.0539766666667","6502600","貢寮區"
"224010","AGQ-8101","2018/01/02 17:39:37","新北市瑞芳區岳王路68號","121.809373333333","25.11123","6501200","瑞芳區"
"224006","676-BX","2018/01/02 17:39:52","新北市瑞芳區中山路267號","121.797115","25.1098366666667","6501200","瑞芳區"
"224009","285-BY","2018/01/02 17:39:42","新北市瑞芳區崙頂路3號","121.846526666667","25.10686","6501200","瑞芳區"
"224008","275-VK","2018/01/02 17:39:46","新北市瑞芳區九芎橋路198號","121.834258333333","25.0998933333333","6501200","瑞芳區"
"224005","271-BY","2018/01/02 17:39:25","新北市瑞芳區籠山路214-1號","121.854268333333","25.1246716666667","6501200","瑞芳區"
"227003","400-TW","2018/01/02 17:39:52","新北市雙溪區牡丹里聖南19號","121.857288333333","25.052795","6502500","雙溪區"
"251004","009-UM","2018/01/02 17:39:41","新北市淡水區中正東路二段88巷37-22號","121.459251666667","25.1437933333333","6501000","淡水區"
"251001","011-UM","2018/01/02 17:39:55","新北市淡水區自強路201巷39號","121.462231666667","25.1267366666667","6501000","淡水區"
"251013","179-VK","2018/01/02 17:39:44","新北市淡水區演戲埔腳11號","121.469461666667","25.1947716666667","6501000","淡水區"
"251014","180-VK","2018/01/02 17:39:54","新北市淡水區水碓5-3號","121.476781666667","25.2219933333333","6501000","淡水區"
"251008","181-VK","2018/01/02 17:39:49","新北市淡水區八勢路73巷12號","121.463288333333","25.1539","6501000","淡水區"
"251015","182-VK","2018/01/02 17:39:49","新北市淡水區糞箕湖11-1號","121.48658","25.1701116666667","6501000","淡水區"
"251010","413-VK","2018/01/02 17:39:53","新北市淡水區淡海路280巷33弄34-2號","121.418893333333","25.18876","6501000","淡水區"
"251012","441-VK","2018/01/02 17:39:51","新北市淡水區北新路200巷8號","121.45177","25.17968","6501000","淡水區"
"251016","442-VK","2018/01/02 17:39:49","新北市淡水區埤島39-15號","121.452728333333","25.19591","6501000","淡水區"
"251005","443-VK","2018/01/02 17:39:36","新北市淡水區鄧公路33巷10號","121.451655","25.1709416666667","6501000","淡水區"
"251006","561-UM","2018/01/02 17:39:41","新北市淡水區大信街1巷12號","121.440463333333","25.1767283333333","6501000","淡水區"
"251009","575-R6","2018/01/02 17:39:55","新北市淡水區中正路38-1號","121.443711666667","25.1692066666667","6501000","淡水區"
"251007","577-R6","2018/01/02 17:39:55","新北市淡水區民生路52巷33號","121.463201666667","25.1378016666667","6501000","淡水區"
"251011","650-BX","2018/01/02 17:39:38","新北市淡水區小坪頂13-3號","121.486573333333","25.1561766666667","6501000","淡水區"
"251002","672-BX","2018/01/02 17:39:39","新北市淡水區中山路143-5號","121.440591666667","25.1720833333333","6501000","淡水區"
"251003","673-BX","2018/01/02 17:39:52","新北市淡水區大忠街5巷1號","121.443103333333","25.176415","6501000","淡水區"
"207003","550-UM","2018/01/02 17:39:50","新北市萬里區龜吼里漁澳路5-1號","121.686565","25.194315","6502800","萬里區"
"207004","225-TW","2018/01/02 17:39:52","新北市萬里區中幅里中福路8-1號","121.685978333333","25.16469","6502800","萬里區"
"252002","178-VK","2018/01/02 17:39:55","新北市三芝區中正路二段1號","121.504773333333","25.2558216666667","6502100","三芝區"
"252001","292-VK","2018/01/02 17:39:36","新北市三芝區育英街1號","121.501746666667","25.2587883333333","6502100","三芝區"
"237008","302-VK","2018/01/02 17:39:43","新北市三峽區中山路283號","121.36185","24.937615","6500900","三峽區"
"237014","433-BY","2018/01/02 17:39:45","新北市三峽區中山路459巷163-3號","121.348666666667","24.9327633333333","6500900","三峽區"
"237011","572-TV","2018/01/02 17:18:39","新北市三峽區中山路459巷163-3號","121.348653333333","24.9330233333333","6500900","三峽區"
"237016","649-BX","2018/01/02 17:38:16","新北市三峽區民權街241號","121.368031666667","24.9274516666667","6500900","三峽區"
"237010","706-TV","2018/01/02 17:39:47","新北市三峽區中山路138號","121.365238333333","24.9361133333333","6500900","三峽區"
"236070","105-UM","2018/01/02 17:39:48","新北市土城區城林路6巷80號","121.43846","24.9797233333333","6501300","土城區"
"236079","166-UM","2018/01/02 16:29:25","新北市土城區自由街2號","121.422011666667","24.9666533333333","6501300","土城區"
"236027","269-VK","2018/01/02 17:39:42","新北市土城區城林路6巷80號","121.438483333333","24.979585","6501300","土城區"
"236015","270-VK","2018/01/02 17:39:53","新北市土城區城林路6巷80號","121.438498333333","24.9796033333333","6501300","土城區"
"236038","271-VK","2018/01/02 17:39:41","新北市土城區城林路6巷80號","121.438421666667","24.9797733333333","6501300","土城區"
"236002","339-SR","2018/01/02 15:42:10","新北市土城區永平街51號","121.427671666667","24.9591633333333","6501300","土城區"
"236063","915-UM","2018/01/02 17:39:55","新北市土城區城林路6巷80號","121.438571666667","24.9797083333333","6501300","土城區"
"242032","AAC-296","2018/01/02 17:39:41","新北市新莊區新泰路361巷21號","121.442645","25.0428866666667","6500500","新莊區"
"242029","986-R7","2018/01/02 17:39:49","新北市新莊區復興路一段163號","121.450948333333","25.0433816666667","6500500","新莊區"
"242051","751-BX","2018/01/02 17:39:43","新北市新莊區龍安路537號","121.428038333333","25.0174716666667","6500500","新莊區"
"242025","615-BX","2018/01/02 17:39:57","新北市新莊區思源路118號","121.460063333333","25.0469983333333","6500500","新莊區"
"242023","613-BX","2018/01/02 17:39:41","新北市新莊區民樂街55號","121.457906666667","25.0414833333333","6500500","新莊區"
"242027","612-BX","2018/01/02 17:39:51","新北市新莊區福壽街116號","121.458048333333","25.0508366666667","6500500","新莊區"
"242039","566-BX","2018/01/02 17:39:55","新北市新莊區民安路322號","121.42896","25.0220416666667","6500500","新莊區"
"242044","442-UM","2018/01/02 17:39:41","新北市新莊區中正路871巷9弄43號","121.419885","25.0267583333333","6500500","新莊區"
"242048","441-UM","2018/01/02 17:39:59","新北市新莊區萬安街123號","121.420671666667","25.0224683333333","6500500","新莊區"
"242054","440-UM","2018/01/02 17:39:37","新北市新莊區新樹路378號","121.432475","25.0029716666667","6500500","新莊區"
"242034","415-TV","2018/01/02 17:39:48","新北市新莊區新莊路526號","121.445746666667","25.0330716666667","6500500","新莊區"
"242005","413-TV","2018/01/02 17:39:42","新北市新莊區自立街178號","121.456016666667","25.0454716666667","6500500","新莊區"
"242042","400-BY","2018/01/02 17:39:47","新北市新莊區中正路514巷53弄50號","121.430718333333","25.0345466666667","6500500","新莊區"
"242061","362-BY","2018/01/02 17:39:54","新北市新莊區瓊林南路127號","121.434658333333","25.01239","6500500","新莊區"
"242058","353-BY","2018/01/02 17:39:50","新北市新莊區中正路698號","121.418785","25.02783","6500500","新莊區"
"242007","132-UY","2018/01/02 17:39:38","新北市新莊區福樂街71巷1號","121.457058333333","25.0477233333333","6500500","新莊區"
"242037","133-UY","2018/01/02 17:39:44","新北市新莊區後港一路139號","121.429685","25.0274266666667","6500500","新莊區"
"242021","135-UY","2018/01/02 17:39:48","新北市新莊區中華路一段120號","121.452485","25.0406333333333","6500500","新莊區"
"242046","172-VK","2018/01/02 17:39:49","新北市新莊區福營路101號","121.434103333333","25.032265","6500500","新莊區"
"242009","173-VK","2018/01/02 17:39:57","新北市新莊區昌明街14巷16號","121.457376666667","25.0533933333333","6500500","新莊區"
"242015","175-VK","2018/01/02 17:39:44","新北市新莊區新泰路296號","121.445548333333","25.040845","6500500","新莊區"
"242002","176-VK","2018/01/02 17:39:51","新北市新莊區新莊路393號","121.451248333333","25.03373","6500500","新莊區"
"242013","346-TH","2018/01/02 17:39:52","新北市新莊區中誠街101號","121.449873333333","25.0476366666667","6500500","新莊區"
"242019","348-TH","2018/01/02 17:39:49","新北市新莊區中港路164號","121.455063333333","25.04153","6500500","新莊區"
"242017","350-TH","2018/01/02 17:39:48","新北市新莊區復興路一段149巷22弄1號","121.450166666667","25.0442383333333","6500500","新莊區"
"242011","351-TH","2018/01/02 17:39:53","新北市新莊區中港路646號","121.450921666667","25.0556266666667","6500500","新莊區"
"238015","755-BX","2018/01/02 17:39:47","新北市樹林區啟智街36號","121.420678333333","24.99323","6500700","樹林區"
"238023","601-UM","2018/01/02 17:39:56","新北市樹林區三福街42號","121.407895","25.0164616666667","6500700","樹林區"
"238019","599-UM","2018/01/02 17:39:56","新北市樹林區太平路127巷8號","121.419648333333","24.9805666666667","6500700","樹林區"
"238018","571-TV","2018/01/02 17:39:55","新北市樹林區鎮前街113號","121.424216666667","24.9896883333333","6500700","樹林區"
"238024","5061-A6","2018/01/02 17:39:42","新北市樹林區水源街75號","121.425606666667","24.9816066666667","6500700","樹林區"
"238021","KEA-2217","2018/01/02 17:39:56","新北市樹林區西圳街一段203巷25-5號","121.394338333333","24.95887","6500700","樹林區"
"238022","KEA-2213","2018/01/02 17:39:32","新北市樹林區和平街2巷1號","121.421205","24.981355","6500700","樹林區"
"238025","303-VK","2018/01/02 17:39:40","新北市樹林區保安街二段165號","121.415248333333","25.00292","6500700","樹林區"
"238017","283-BY","2018/01/02 17:39:38","新北市樹林區中正路280-2號","121.416103333333","25.008595","6500700","樹林區"
"238014","282-BY","2018/01/02 17:39:41","新北市樹林區保安街一段360巷1號","121.417906666667","24.998625","6500700","樹林區"
"238020","268-VK","2018/01/02 17:39:38","新北市樹林區俊英街118號","121.427475","25.0056216666667","6500700","樹林區"
"238026","172-UY","2018/01/02 17:39:50","新北市樹林區新興街19巷36弄25號","121.402591666667","24.9729716666667","6500700","樹林區"
"238016","169-UY","2018/01/02 17:39:49","新北市樹林區中山路一段143-1號","121.422311666667","24.9895566666667","6500700","樹林區"
"239007","AAC-297","2018/01/02 17:39:56","新北市鶯歌區國光街16號","121.340181666667","24.9567866666667","6500800","鶯歌區"
"239006","891-R6","2018/01/02 17:39:47","新北市鶯歌區永和街56巷5號","121.333676666667","24.9678083333333","6500800","鶯歌區"
"239008","527-UM","2018/01/02 17:39:42","新北市鶯歌區大湖路700巷22弄25號","121.333995","24.9773966666667","6500800","鶯歌區"
"239005","526-UM","2018/01/02 17:39:53","新北市鶯歌區鳳吉四街45號","121.327395","24.9732033333333","6500800","鶯歌區"
"239001","417-VK","2018/01/02 17:39:51","新北市鶯歌區中正三路236號","121.33104","24.9373583333333","6500800","鶯歌區"
"239003","360-BY","2018/01/02 17:39:54","新北市鶯歌區鶯桃路295巷18號","121.33442","24.95955","6500800","鶯歌區"
"239002","359-BY","2018/01/02 17:39:54","新北市鶯歌區育德街13號","121.344486666667","24.9551083333333","6500800","鶯歌區"
"239004","193-VK","2018/01/02 17:39:54","新北市鶯歌區三鶯路23號","121.355823333333","24.9416033333333","6500800","鶯歌區"
"221008","489-VK","2018/01/02 17:39:42","新北市汐止區康寧街901號","121.651405","25.074985","6501100","汐止區"
"221010","269-BY","2018/01/02 17:39:41","新北市汐止區汐萬路一段418巷1弄1號","121.650638333333","25.0781533333333","6501100","汐止區"
"221012","276-VK","2018/01/02 13:28:18","新北市汐止區汐萬路一段256巷3號","121.653445","25.0746616666667","6501100","汐止區"
"221033","647-BX","2018/01/02 17:39:37","新北市汐止區大同路一段146巷19號","121.633745","25.053765","6501100","汐止區"
"220010","305-R5","2018/01/02 17:23:24","新北市板橋區民生路二段120號","121.470365","25.0196066666667","6500100","板橋區"
"220047","317-R6","2018/01/02 16:17:13","新北市板橋區民生路二段161巷9號","121.47015","25.01958","6500100","板橋區"
"220080","461-BY","2018/01/02 08:51:40","新北市板橋區華東街1-9號","121.448093333333","24.9948416666667","6500100","板橋區"
"242056","280-VK","2018/01/02 17:39:44","新北市新莊區新莊路543巷9弄28號","121.448318333333","25.03189","6500500","新莊區"
