"lineid","car","time","location","longitude","latitude","cityid","cityname"
"234046","148-BY","2018/01/02 19:19:44","新北市永和區永元路9號","121.521923333333","25.0001833333333","6500400","永和區"
"234013","149-BY","2018/01/02 19:19:43","新北市永和區仁愛路122號","121.511605","25.0130816666667","6500400","永和區"
"234007","207-UY","2018/01/02 19:19:34","新北市永和區中山路一段320號","121.506646666667","25.0069316666667","6500400","永和區"
"234081","298-R6","2018/01/02 19:19:48","新北市永和區國中路104巷12弄15號","121.52561","25.0066833333333","6500400","永和區"
"234038","336-UY","2018/01/02 19:19:48","新北市永和區民樂街70號","121.52742","24.9983216666667","6500400","永和區"
"234064","337-UY","2018/01/02 19:19:38","新北市永和區永元路17巷6弄4號","121.521433333333","25.0005983333333","6500400","永和區"
"234086","338-UY","2018/01/02 19:19:48","新北市永和區永利路88號","121.520818333333","25.0039966666667","6500400","永和區"
"234054","553-UM","2018/01/02 19:19:38","新北市永和區中興街31號","121.516161666667","25.0118633333333","6500400","永和區"
"234017","745-BX","2018/01/02 19:19:31","新北市永和區文化路144巷31弄7號","121.512043333333","25.0168683333333","6500400","永和區"
"234061","AAD-866","2018/01/02 19:19:46","新北市永和區秀朗路一段175號","121.517096666667","25.003695","6500400","永和區"
"234070","847-RS","2018/01/02 19:19:46","新北市永和區豫溪街74巷1號","121.51721","25.0098733333333","6500400","永和區"
"234042","862-TW","2018/01/02 19:19:47","新北市永和區保平路177巷6弄2號","121.509821666667","25.004915","6500400","永和區"
"234050","863-TW","2018/01/02 19:19:39","新北市永和區信義路91巷2號","121.512091666667","25.0137816666667","6500400","永和區"
"234026","9371-KE","2018/01/02 19:19:45","新北市永和區安樂路144巷26號","121.515246666667","24.999655","6500400","永和區"
"234011","9373-KE","2018/01/02 19:19:36","新北市永和區保福路二段23巷19號","121.510201666667","25.0111916666667","6500400","永和區"
"249001","173-UM","2018/01/02 19:19:47","新北市八里區中華路二段103-1號","121.409268333333","25.15227","6502300","八里區"
"249003","593-UM","2018/01/02 19:19:38","新北市八里區中山路二段448號","121.399481666667","25.1474366666667","6502300","八里區"
"248020","225-UY","2018/01/02 19:19:52","新北市五股區凌雲路三段57號","121.4253","25.1250033333333","6501500","五股區"
"248012","247-BX","2018/01/02 19:19:50","新北市五股區中興路四段48巷16號","121.438545","25.08344","6501500","五股區"
"248010","272-BY","2018/01/02 19:19:41","新北市五股區水碓一路23號","121.430625","25.0712333333333","6501500","五股區"
"248004","677-BX","2018/01/02 19:19:38","新北市五股區五福路77號","121.432473333333","25.0902033333333","6501500","五股區"
"248002","678-BX","2018/01/02 19:19:40","新北市五股區凌雲路一段158巷14-1號","121.4478","25.1034616666667","6501500","五股區"
"234023","9380-KE","2018/01/02 19:19:49","新北市永和區竹林路124巷31號","121.518375","25.0112133333333","6500400","永和區"
"234077","969-R7","2018/01/02 19:19:45","新北市永和區民族街44號","121.518391666667","24.99877","6500400","永和區"
"234074","AAC-211","2018/01/02 19:19:47","新北市永和區竹林路85號","121.51955","25.012285","6500400","永和區"
"234067","AAC-212","2018/01/02 19:19:34","新北市永和區保平路39號","121.512005","25.0072483333333","6500400","永和區"
"234003","AAC-295","2018/01/02 19:19:49","新北市永和區中山路一段122號","121.510563333333","25.010135","6500400","永和區"
"244013","069-UM","2018/01/02 19:19:35","新北市林口區麗園二街23巷15-9號","121.379198333333","25.0702183333333","6501700","林口區"
"244025","742-UY","2018/01/02 19:19:49","新北市林口區文化北路一段542巷13弄61號","121.369181666667","25.07952","6501700","林口區"
"244023","483-VK","2018/01/02 19:19:42","新北市林口區文化三路一段617巷90號","121.370028333333","25.0776816666667","6501700","林口區"
"244017","485-VK","2018/01/02 19:19:48","新北市林口區湖南里70-9號","121.375916666667","25.0897083333333","6501700","林口區"
"244011","656-BX","2018/01/02 19:19:47","新北市林口區中正路264巷12號","121.388588333333","25.07836","6501700","林口區"
"243012","AAD-798","2018/01/02 19:19:41","新北市泰山區同義街55號","121.431813333333","25.0559","6501600","泰山區"
"243011","297-R6","2018/01/02 19:19:32","新北市泰山區貴子路15巷6弄2號","121.426776666667","25.0425366666667","6501600","泰山區"
"243015","380-SR","2018/01/02 19:19:37","新北市泰山區公園路71號","121.426355","25.0554216666667","6501600","泰山區"
"243014","421-VK","2018/01/02 19:19:46","新北市泰山區泰林路二段318號","121.430405","25.063","6501600","泰山區"
"243010","KEA-2215","2018/01/02 19:19:32","新北市泰山區明志路一段492巷5號","121.430036666667","25.05478","6501600","泰山區"
"243009","KEA-2216","2018/01/02 19:19:35","新北市泰山區明志路一段19巷14號","121.434411666667","25.0655516666667","6501600","泰山區"
"243013","646-TV","2018/01/02 19:19:39","新北市泰山區明志路三段145巷2弄15號","121.425113333333","25.0394283333333","6501600","泰山區"
"243016","680-BX","2018/01/02 19:19:38","新北市泰山區明志路三段148號","121.424505","25.0396716666667","6501600","泰山區"
"222003","436-BY","2018/01/02 19:19:43","新北市深坑區深南路204號","121.626603333333","25.0160366666667","6501800","深坑區"
"222002","659-BX","2018/01/02 19:19:37","新北市深坑區北深路一段177號","121.63254","25.01086","6501800","深坑區"
"222001","696-SL","2018/01/02 19:19:40","新北市深坑區北深路二段82號","121.617585","25.0035116666667","6501800","深坑區"
"231041","001-UM","2018/01/02 19:19:38","新北市新店區溪園路245-2號","121.525533333333","24.983395","6500600","新店區"
"231066","0293-UT","2018/01/02 19:19:36","新北市新店區安康路三段355巷18號","121.484866666667","24.9499616666667","6500600","新店區"
"231059","046-UY","2018/01/02 19:19:49","新北市新店區安和路三段1-1號","121.516951666667","24.9799183333333","6500600","新店區"
"231061","047-UY","2018/01/02 19:19:42","新北市新店區安康路一段130號","121.526741666667","24.9628116666667","6500600","新店區"
"231060","106-UY","2018/01/02 19:19:46","新北市新店區安康路二段99號","121.512883333333","24.9626916666667","6500600","新店區"
"231051","107-UY","2018/01/02 19:19:48","新北市新店區百忍街55號","121.532925","24.976685","6500600","新店區"
"231048","108-UY","2018/01/02 19:19:51","新北市新店區中興路一段294號","121.54599","24.9693033333333","6500600","新店區"
"231053","187-VK","2018/01/02 19:19:47","新北市新店區自強路211號","121.54677","24.919845","6500600","新店區"
"231064","188-VK","2018/01/02 19:19:37","新北市新店區安忠路57巷26弄21號","121.512521666667","24.9581966666667","6500600","新店區"
"231050","KEA-2219","2018/01/02 19:19:33","新北市新店區竹林路151號","121.555731666667","24.9487316666667","6500600","新店區"
"231063","268-BY","2018/01/02 19:19:42","新北市新店區達觀路14巷8號","121.503268333333","24.943195","6500600","新店區"
"231046","278-BY","2018/01/02 19:19:38","新北市新店區華城路11號","121.529498333333","24.9594816666667","6500600","新店區"
"231054","AAD-862","2018/01/02 19:19:42","新北市新店區國校路20-1號","121.537908333333","24.955095","6500600","新店區"
"231058","3712-VJ","2018/01/02 19:19:47","新北市新店區北新路一段72號","121.541396666667","24.96727","6500600","新店區"
"231067","4772-VM","2018/01/02 19:19:41","新北市新店區安康路二段414巷2號","121.495883333333","24.957765","6500600","新店區"
"231065","512-UM","2018/01/02 19:19:34","新北市新店區安祥路130號","121.474588333333","24.956195","6500600","新店區"
"231045","617-UM","2018/01/02 19:19:41","新北市新店區北宜路一段260號","121.545755","24.952755","6500600","新店區"
"231040","619-UM","2018/01/02 19:19:45","新北市新店區三民路24號","121.537168333333","24.9709866666667","6500600","新店區"
"231042","641-BX","2018/01/02 19:19:37","新北市新店區北宜路一段3號","121.53845","24.95843","6500600","新店區"
"231049","719-UM","2018/01/02 19:19:38","新北市新店區明德路111號","121.541518333333","24.9794516666667","6500600","新店區"
"231062","720-UM","2018/01/02 19:19:31","新北市新店區莒光路42號","121.523745","24.9577","6500600","新店區"
"231044","897-TW","2018/01/02 19:19:42","新北市新店區中興路三段324號","121.542106666667","24.98615","6500600","新店區"
"231043","899-TW","2018/01/02 19:19:45","新北市新店區北新路二段160號","121.542981666667","24.9755933333333","6500600","新店區"
"241009","060-VK","2018/01/02 19:19:33","新北市三重區溪尾街218巷37-7號","121.486421666667","25.0811983333333","6500200","三重區"
"241031","061-VK","2018/01/02 19:19:53","新北市三重區重新路四段97-1號","121.485805","25.05471","6500200","三重區"
"241017","063-VK","2018/01/02 19:19:40","新北市三重區長壽西街206號","121.492248333333","25.06611","6500200","三重區"
"241026","066-VK","2018/01/02 19:19:47","新北市三重區重安街103號","121.493905","25.05515","6500200","三重區"
"241022","267-UM","2018/01/02 19:19:33","新北市三重區中正北路60-2號","121.486853333333","25.064505","6500200","三重區"
"241032","269-UM","2018/01/02 19:19:52","新北市三重區新生街87號","121.483976666667","25.05939","6500200","三重區"
"241025","271-UM","2018/01/02 19:19:34","新北市三重區中正北路408巷5號","121.475245","25.0703","6500200","三重區"
"241007","398-BY","2018/01/02 19:19:45","新北市三重區慈愛街50號","121.486005","25.0791316666667","6500200","三重區"
"241020","413-TH","2018/01/02 19:19:32","新北市三重區大智街234號","121.489733333333","25.0725133333333","6500200","三重區"
"241035","462-BY","2018/01/02 19:19:37","新北市三重區重新路三段90號","121.493061666667","25.0609316666667","6500200","三重區"
"241030","480-VK","2018/01/02 19:19:39","新北市三重區成功路41巷72號","121.491368333333","25.0532566666667","6500200","三重區"
"241006","AAD-863","2018/01/02 19:19:30","新北市三重區車路頭街182號","121.483663333333","25.07723","6500200","三重區"
"241029","942-UM","2018/01/02 19:19:33","新北市三重區重安街27號","121.49104","25.057055","6500200","三重區"
"235066","003-UY","2018/01/02 19:19:30","新北市中和區廣福路112號","121.502235","25.0012216666667","6500300","中和區"
"235064","005-UY","2018/01/02 19:19:30","新北市中和區連城路47號","121.49814","25.0017033333333","6500300","中和區"
"235063","006-UY","2018/01/02 19:19:44","新北市中和區連城路249巷17弄1號","121.493783333333","24.99653","6500300","中和區"
"235046","031-BX","2018/01/02 19:19:51","新北市中和區忠孝街2巷8-2號","121.510353333333","24.9819233333333","6500300","中和區"
"235056","096-UM","2018/01/02 19:19:43","新北市中和區中山路二段583號","121.480226666667","25.0057816666667","6500300","中和區"
"235039","097-UM","2018/01/02 19:19:48","新北市中和區景平路64巷18號","121.522361666667","24.9913366666667","6500300","中和區"
"235040","150-BY","2018/01/02 19:19:37","新北市中和區保健路50巷56號","121.509351666667","24.9956966666667","6500300","中和區"
"235058","151-BY","2018/01/02 19:19:52","新北市中和區連城路477巷6弄19號","121.482378333333","24.9948","6500300","中和區"
"235055","183-VK","2018/01/02 19:19:46","新北市中和區莒光路84巷21號","121.471626666667","25.00198","6500300","中和區"
"235038","185-VK","2018/01/02 19:19:43","新北市中和區大仁街10巷50號","121.520341666667","24.99266","6500300","中和區"
"235049","186-VK","2018/01/02 19:19:42","新北市中和區景新街229號","121.507901666667","24.9946983333333","6500300","中和區"
"235067","255-BX","2018/01/02 19:19:50","新北市中和區新生街177巷8號","121.48422","25.0006983333333","6500300","中和區"
"235044","293-VK","2018/01/02 19:19:49","新北市中和區復興路306號","121.501291666667","24.9903416666667","6500300","中和區"
"235072","301-VK","2018/01/02 19:19:37","新北市中和區連城路215號","121.494328333333","24.9977866666667","6500300","中和區"
"235043","352-BY","2018/01/02 19:19:51","新北市中和區景平路406號","121.508873333333","24.9931516666667","6500300","中和區"
"235068","377-QA","2018/01/02 19:19:35","新北市中和區連勝街38巷10號","121.498083333333","24.9982116666667","6500300","中和區"
"235061","378-QA","2018/01/02 19:19:51","新北市中和區連城路452號","121.47915","24.9946833333333","6500300","中和區"
"235050","4979-A6","2018/01/02 19:19:42","新北市中和區景安路208巷15號","121.503228333333","24.9913816666667","6500300","中和區"
"235069","4980-A6","2018/01/02 19:19:37","新北市中和區福美路256巷2弄2號","121.498321666667","25.005355","6500300","中和區"
"235042","551-UM","2018/01/02 19:19:31","新北市中和區大勇街60巷14弄2號","121.518675","24.9945233333333","6500300","中和區"
"235070","558-UM","2018/01/02 19:19:33","新北市中和區中和路48號","121.500418333333","25.0009266666667","6500300","中和區"
"235045","565-BX","2018/01/02 19:19:46","新北市中和區景新街423巷32號","121.514563333333","24.98974","6500300","中和區"
"235054","640-BX","2018/01/02 19:19:32","新北市中和區國光街115號","121.469716666667","25.0005233333333","6500300","中和區"
"235060","647-TV","2018/01/02 19:19:46","新北市中和區民有街23號","121.475768333333","25.0052166666667","6500300","中和區"
"235047","732-UM","2018/01/02 19:19:48","新北市中和區和平街54巷8弄1號","121.508946666667","24.9913633333333","6500300","中和區"
"235057","801-TS","2018/01/02 19:19:41","新北市中和區民利街25號","121.480216666667","24.998915","6500300","中和區"
"235041","802-TS","2018/01/02 19:19:51","新北市中和區中和路258號","121.507718333333","24.99952","6500300","中和區"
"235052","805-TS","2018/01/02 19:19:34","新北市中和區興南路二段128巷4號","121.504121666667","24.9836683333333","6500300","中和區"
"235048","896-TW","2018/01/02 19:19:47","新北市中和區忠孝街112號","121.512186666667","24.985285","6500300","中和區"
"235053","900-TW","2018/01/02 19:19:44","新北市中和區華安街19巷15號","121.467341666667","24.9979683333333","6500300","中和區"
"235065","911-UM","2018/01/02 19:19:35","新北市中和區中山路二段64巷3號","121.50364","25.0048933333333","6500300","中和區"
"235051","157-BY","2018/01/02 19:19:48","新北市中和區和平街2巷4弄4號","121.510023333333","24.9906266666667","6500300","中和區"
"235037","AAC-213","2018/01/02 19:19:32","新北市中和區秀朗路三段10巷37弄15號","121.524105","24.9955466666667","6500300","中和區"
"235059","AAC-215","2018/01/02 19:19:41","新北市中和區錦和路193號","121.490781666667","24.9907","6500300","中和區"
"220065","072-UY","2018/01/02 19:19:44","新北市板橋區民族路170巷3號","121.467383333333","25.0074683333333","6500100","板橋區"
"220086","073-UY","2018/01/02 19:19:46","新北市板橋區中正路216巷150弄5號","121.460773333333","25.0192216666667","6500100","板橋區"
"220106","075-UY","2018/01/02 19:19:43","新北市板橋區雙十路三段62號","121.47075","25.0316483333333","6500100","板橋區"
"220069","AAD-861","2018/01/02 19:19:53","新北市板橋區四川路一段223號","121.460025","25.0033033333333","6500100","板橋區"
"220096","120-SR","2018/01/02 19:19:34","新北市板橋區大同街8巷54號","121.477991666667","25.02618","6500100","板橋區"
"247004","336-TH","2018/01/02 19:19:34","新北市五股區成泰路三段544-1號","121.453588333333","25.1025266666667","6501400","蘆洲區"
"226004","205-ST","2018/01/02 19:19:42","新北市平溪區十分里十分街156號","121.778041666667","25.043375","6502400","平溪區"
"228001","212-TW","2018/01/02 19:19:52","新北市貢寮區真理里新港街26巷6-3號","121.92569","25.0546066666667","6502600","貢寮區"
"228002","663-BX","2018/01/02 19:19:51","新北市貢寮區龍門里復興街29-3號","121.927833333333","25.02861","6502600","貢寮區"
"228003","828-UM","2018/01/02 19:19:47","新北市貢寮區和美里和美街19-2號","121.912815","25.0826016666667","6502600","貢寮區"
"224010","AGQ-8101","2018/01/02 19:19:36","新北市瑞芳區基山街4-2號","121.845078333333","25.1096133333333","6501200","瑞芳區"
"224006","676-BX","2018/01/02 19:19:31","新北市瑞芳區中山路52號","121.803248333333","25.1064083333333","6501200","瑞芳區"
"224008","275-VK","2018/01/02 19:19:45","新北市瑞芳區一坑路70-10號","121.803486666667","25.10815","6501200","瑞芳區"
"224005","271-BY","2018/01/02 19:19:48","新北市瑞芳區連福新城25號","121.820263333333","25.1190016666667","6501200","瑞芳區"
"227003","400-TW","2018/01/02 19:19:32","新北市雙溪區平林里梅竹蹊66-1號","121.860128333333","25.0358316666667","6502500","雙溪區"
"227009","030-BX","2018/01/02 19:19:43","新北市雙溪區新基里新基北街40號","121.868556666667","25.0380466666667","6502500","雙溪區"
"253005","032-BX","2018/01/02 19:19:47","新北市石門區阿里荖41-1號","121.605181666667","25.2836566666667","6502200","石門區"
"253006","741-TV","2018/01/02 19:19:32","新北市石門區楓林23-20號","121.537896666667","25.290565","6502200","石門區"
"208002","742-BX","2018/01/02 19:19:43","新北市金山區環金路376巷2號","121.632013333333","25.222185","6502700","金山區"
"208003","665-BX","2018/01/02 19:19:48","新北市金山區忠孝一路44號","121.63783","25.22014","6502700","金山區"
"208001","761-BX","2018/01/02 19:19:36","新北市金山區民生路69號","121.640131666667","25.2196916666667","6502700","金山區"
"251001","011-UM","2018/01/02 19:19:34","新北市淡水區自強路201巷43號","121.4621","25.1268616666667","6501000","淡水區"
"251013","179-VK","2018/01/02 19:19:44","新北市淡水區安子內12號","121.481555","25.2190733333333","6501000","淡水區"
"251014","180-VK","2018/01/02 19:19:33","新北市淡水區小中寮19-7號","121.48477","25.2296483333333","6501000","淡水區"
"251015","182-VK","2018/01/02 19:19:49","新北市淡水區山子邊5-2號","121.483495","25.18432","6501000","淡水區"
"251010","413-VK","2018/01/02 19:19:33","新北市淡水區沙崙路30號","121.421571666667","25.1814466666667","6501000","淡水區"
"251012","441-VK","2018/01/02 19:19:50","新北市淡水區中山北路三段164號","121.44561","25.1966266666667","6501000","淡水區"
"251016","442-VK","2018/01/02 19:19:49","新北市淡水區淡金路三段350巷18號","121.450766666667","25.208375","6501000","淡水區"
"251005","443-VK","2018/01/02 19:19:36","新北市淡水區水源街一段34巷1號","121.44326","25.1722266666667","6501000","淡水區"
"251006","561-UM","2018/01/02 19:19:40","新北市淡水區大信街33號","121.441971666667","25.1772833333333","6501000","淡水區"
"251009","575-R6","2018/01/02 19:19:35","新北市淡水區大忠街5巷8號","121.443333333333","25.1765016666667","6501000","淡水區"
"251007","577-R6","2018/01/02 19:19:38","新北市淡水區民生路117巷34號","121.464908333333","25.1395833333333","6501000","淡水區"
"251003","673-BX","2018/01/02 19:19:52","新北市淡水區中山北路一段370號","121.444663333333","25.1821233333333","6501000","淡水區"
"207003","550-UM","2018/01/02 19:19:48","新北市萬里區大鵬里萬里加投79-3號","121.647323333333","25.21235","6502800","萬里區"
"207004","225-TW","2018/01/02 19:19:32","新北市萬里區萬里里瑪鋉路6號","121.68765","25.1750716666667","6502800","萬里區"
"252002","178-VK","2018/01/02 19:19:36","新北市三芝區淡金路二段18-1號","121.50265","25.2595233333333","6502100","三芝區"
"252003","249-BX","2018/01/02 19:19:40","新北市三芝區埔坪里埔頭坑107號","121.504468333333","25.2614833333333","6502100","三芝區"
"252001","292-VK","2018/01/02 19:19:36","新北市三芝區長勤街9巷11弄1號","121.501801666667","25.254695","6502100","三芝區"
"237004","078-UY","2018/01/02 19:19:33","新北市三峽區有木206號","121.439096666667","24.8514933333333","6500900","三峽區"
"237007","153-BY","2018/01/02 19:19:40","新北市三峽區二鬮路108號","121.360586666667","24.9090583333333","6500900","三峽區"
"237009","210-TH","2018/01/02 19:19:45","新北市三峽區信義街2號","121.370698333333","24.93615","6500900","三峽區"
"237013","252-BX","2018/01/02 19:19:37","新北市三峽區大同路39巷33號","121.378146666667","24.9275333333333","6500900","三峽區"
"237012","275-BY","2018/01/02 19:19:29","新北市三峽區三樹路222巷236弄23號","121.391401666667","24.94305","6500900","三峽區"
"237008","302-VK","2018/01/02 19:19:43","新北市三峽區光明路106巷79號","121.374766666667","24.9265483333333","6500900","三峽區"
"237014","433-BY","2018/01/02 19:19:44","新北市三峽區民權街134號","121.368598333333","24.9318783333333","6500900","三峽區"
"237006","5529-G3","2018/01/02 19:19:38","新北市三峽區長泰街44號","121.378136666667","24.932315","6500900","三峽區"
"237011","572-TV","2018/01/02 17:18:39","新北市三峽區中山路459巷163-3號","121.348653333333","24.9330233333333","6500900","三峽區"
"237016","649-BX","2018/01/02 19:09:04","新北市三峽區安坑46-3號","121.455866666667","24.931895","6500900","三峽區"
"237010","706-TV","2018/01/02 19:19:47","新北市三峽區復興路39號","121.373735","24.93671","6500900","三峽區"
"237005","AKY-6261","2018/01/02 19:19:34","新北市三峽區中山路459巷30號","121.35736","24.9379733333333","6500900","三峽區"
"236070","105-UM","2018/01/02 19:19:47","新北市土城區學成路124號","121.44932","24.9895283333333","6501300","土城區"
"236043","107-UM","2018/01/02 19:16:24","新北市土城區學府路一段276號","121.450126666667","24.9831016666667","6501300","土城區"
"236079","166-UM","2018/01/02 16:29:25","新北市土城區自由街2號","121.422011666667","24.9666533333333","6501300","土城區"
"236027","269-VK","2018/01/02 19:19:42","新北市土城區中央路二段61巷20號","121.443061666667","24.9787183333333","6501300","土城區"
"236015","270-VK","2018/01/02 19:19:33","新北市土城區學府路一段24巷1號","121.458525","24.9885716666667","6501300","土城區"
"236002","339-SR","2018/01/02 15:42:10","新北市土城區永平街51號","121.427671666667","24.9591633333333","6501300","土城區"
"236023","401-BY","2018/01/02 19:19:32","新北市土城區峰廷街3號","121.469081666667","24.9873333333333","6501300","土城區"
"236059","912-UM","2018/01/02 19:19:45","新北市土城區金城路一段1號","121.439095","24.968905","6501300","土城區"
"236049","913-UM","2018/01/02 19:19:46","新北市土城區明德路一段398-1號","121.453653333333","24.979095","6501300","土城區"
"238015","755-BX","2018/01/02 19:19:44","新北市樹林區備內街9-1號","121.412841666667","24.987035","6500700","樹林區"
"238023","601-UM","2018/01/02 19:19:38","新北市樹林區三興路77號","121.392653333333","25.01448","6500700","樹林區"
"238019","599-UM","2018/01/02 19:19:35","新北市樹林區東榮街81號","121.416866666667","24.9829066666667","6500700","樹林區"
"238024","5061-A6","2018/01/02 19:19:42","新北市樹林區福德街3-1號","121.401086666667","24.9760266666667","6500700","樹林區"
"238021","KEA-2217","2018/01/02 19:19:42","新北市鶯歌區三鶯路135-1號","121.361316666667","24.94562","6500700","樹林區"
"238022","KEA-2213","2018/01/02 19:19:32","新北市樹林區中山路二段151巷6弄15號","121.406168333333","24.9781366666667","6500700","樹林區"
"238025","303-VK","2018/01/02 19:19:40","新北市樹林區中山路二段203號","121.404108333333","24.9773166666667","6500700","樹林區"
"238017","283-BY","2018/01/02 19:19:38","新北市樹林區光興街376巷2號","121.406296666667","25.0056683333333","6500700","樹林區"
"238014","282-BY","2018/01/02 19:19:41","新北市樹林區保安二街55號","121.424665","24.99459","6500700","樹林區"
"238020","268-VK","2018/01/02 19:19:38","新北市樹林區俊英街125號","121.42441","25.01092","6500700","樹林區"
"238026","172-UY","2018/01/02 19:19:50","新北市樹林區佳園路三段54巷11號","121.386633333333","24.953715","6500700","樹林區"
"238016","169-UY","2018/01/02 19:19:49","新北市樹林區中山路二段34號","121.41716","24.9851883333333","6500700","樹林區"
"239007","AAC-297","2018/01/02 19:19:36","新北市鶯歌區中山路138巷17-5號","121.351273333333","24.9598266666667","6500800","鶯歌區"
"239006","891-R6","2018/01/02 19:19:47","新北市鶯歌區鶯桃路45號","121.342136666667","24.951415","6500800","鶯歌區"
"239008","527-UM","2018/01/02 19:19:42","新北市鶯歌區大湖路466號","121.339603333333","24.97231","6500800","鶯歌區"
"239005","526-UM","2018/01/02 19:19:33","新北市鶯歌區中湖街319號","121.348891666667","24.9754783333333","6500800","鶯歌區"
"239001","417-VK","2018/01/02 19:19:31","新北市鶯歌區建國路473號","121.339641666667","24.952255","6500800","鶯歌區"
"239003","360-BY","2018/01/02 19:19:33","新北市鶯歌區建國路282-2號","121.345576666667","24.9529233333333","6500800","鶯歌區"
"239002","359-BY","2018/01/02 19:19:33","新北市鶯歌區湖山路54巷1號","121.339498333333","24.9754116666667","6500800","鶯歌區"
"239004","193-VK","2018/01/02 19:19:34","新北市鶯歌區二甲路26-3號","121.339185","24.9353483333333","6500800","鶯歌區"
"221008","489-VK","2018/01/02 19:19:42","新北市汐止區康寧街279號","121.626018333333","25.067225","6501100","汐止區"
"221036","130-UY","2018/01/02 19:19:47","新北市汐止區汐萬路一段256巷1號","121.651881666667","25.0747816666667","6501100","汐止區"
"221010","269-BY","2018/01/02 19:19:41","新北市汐止區康寧街901號","121.651373333333","25.0750683333333","6501100","汐止區"
"221012","276-VK","2018/01/02 13:28:18","新北市汐止區汐萬路一段256巷3號","121.653445","25.0746616666667","6501100","汐止區"
"221012","278-VK","2018/01/02 19:19:33","新北市汐止區汐萬路一段261號","121.650761666667","25.0741566666667","6501100","汐止區"
"221027","281-BY","2018/01/02 19:19:48","新北市汐止區汐萬路一段261號","121.650825","25.0740533333333","6501100","汐止區"
"221029","298-VK","2018/01/02 19:19:49","新北市汐止區康寧街901號","121.651591666667","25.0749216666667","6501100","汐止區"
"221031","353-TW","2018/01/02 19:19:48","新北市汐止區康寧街901號","121.650833333333","25.0752583333333","6501100","汐止區"
"221015","567-BX","2018/01/02 19:19:42","新北市汐止區汐萬路一段256巷1號","121.651725","25.0748783333333","6501100","汐止區"
"221025","623-UM","2018/01/02 19:19:38","新北市汐止區汐萬路一段267號","121.65064","25.0743","6501100","汐止區"
"221038","646-BX","2018/01/02 19:19:43","新北市汐止區汐萬路一段312號","121.650681666667","25.0752833333333","6501100","汐止區"
"221033","647-BX","2018/01/02 19:19:37","新北市汐止區南勢街1巷1號","121.62709","25.0374633333333","6501100","汐止區"
"221002","707-TV","2018/01/02 19:19:49","新北市汐止區大同路一段339-1號","121.638611666667","25.0593483333333","6501100","汐止區"
"220079","145-BY","2018/01/02 19:19:40","新北市板橋區民權路202巷13弄30號","121.458736666667","25.0163783333333","6500100","板橋區"
"220080","200-UY","2018/01/02 19:19:48","新北市板橋區大觀路二段19巷83號","121.449215","25.00289","6500100","板橋區"
"220082","610-BX","2018/01/02 19:19:42","新北市板橋區溪城路79號","121.426621666667","24.9836383333333","6500100","板橋區"
"220067","257-TC","2018/01/02 19:19:38","新北市板橋區長安街138巷3弄51號","121.474093333333","25.0096533333333","6500100","板橋區"
"220056","276-BY","2018/01/02 19:19:49","新北市板橋區信義路147號","121.458125","24.992995","6500100","板橋區"
"220072","277-BY","2018/01/02 19:19:39","新北市板橋區篤行路二段161巷20號","121.429806666667","24.9872733333333","6500100","板橋區"
"220101","280-UM","2018/01/02 19:19:40","新北市板橋區莊敬路25巷17號","121.474455","25.0270383333333","6500100","板橋區"
"220071","283-VK","2018/01/02 19:19:48","新北市板橋區大豐街111號","121.461205","25.00113","6500100","板橋區"
"220094","285-UM","2018/01/02 19:19:40","新北市板橋區吳鳳路82號","121.466958333333","25.0312583333333","6500100","板橋區"
"220053","285-VK","2018/01/02 19:19:52","新北市板橋區富山街7巷2號","121.478413333333","25.0217583333333","6500100","板橋區"
"220083","286-VK","2018/01/02 19:19:37","新北市板橋區大觀路二段174巷186弄16號","121.442958333333","25.0033883333333","6500100","板橋區"
"220081","287-VK","2018/01/02 19:19:41","新北市板橋區南雅東路89號","121.453123333333","25.008485","6500100","板橋區"
"220090","288-VK","2018/01/02 19:19:52","新北市板橋區長江路一段106巷13弄24號","121.46103","25.02955","6500100","板橋區"
"220061","293-UM","2018/01/02 19:19:33","新北市板橋區中山路二段326-5號","121.481141666667","25.0194066666667","6500100","板橋區"
"220084","296-UM","2018/01/02 19:19:52","新北市板橋區溪崑二街66巷22號","121.42729","24.99084","6500100","板橋區"
"220075","297-UM","2018/01/02 19:19:37","新北市板橋區南雅西路一段57號","121.453656666667","25.00504","6500100","板橋區"
"220062","305-R5","2018/01/02 19:19:47","新北市板橋區三民路二段153巷36弄2號","121.481186666667","25.0141433333333","6500100","板橋區"
"220092","307-R5","2018/01/02 19:19:47","新北市板橋區松江街74號","121.468658333333","25.0278683333333","6500100","板橋區"
"220098","317-R6","2018/01/02 19:19:38","新北市板橋區民有街87號","121.464846666667","25.02755","6500100","板橋區"
"220080","461-BY","2018/01/02 08:51:40","新北市板橋區華東街1-9號","121.448093333333","24.9948416666667","6500100","板橋區"
"220064","486-VK","2018/01/02 19:19:43","新北市板橋區縣民大道二段1號","121.462166666667","25.0115783333333","6500100","板橋區"
"220089","487-VK","2018/01/02 19:19:39","新北市板橋區文化路一段393號","121.467286666667","25.0219633333333","6500100","板橋區"
"220088","491-VK","2018/01/02 19:19:41","新北市板橋區雙十路二段95號","121.475268333333","25.0278166666667","6500100","板橋區"
"220035","560-BX","2018/01/02 19:19:50","新北市板橋區中正路360巷9號","121.45491","25.0237433333333","6500100","板橋區"
"220103","561-BX","2018/01/02 19:19:42","新北市板橋區介壽街22-1號","121.467701666667","25.0200633333333","6500100","板橋區"
"220063","609-BX","2018/01/02 19:19:45","新北市板橋區三民路二段191號","121.479155","25.0140516666667","6500100","板橋區"
"220091","637-BX","2018/01/02 19:19:38","新北市板橋區萬板路478號","121.480063333333","25.0260966666667","6500100","板橋區"
"220057","686-BX","2018/01/02 19:19:51","新北市板橋區國慶路280號","121.463248333333","24.998915","6500100","板橋區"
"220077","687-BX","2018/01/02 19:19:38","新北市板橋區僑中二街52號","121.446745","25.0103533333333","6500100","板橋區"
"220093","689-BX","2018/01/02 19:19:51","新北市板橋區文化路一段435巷16號","121.467526666667","25.0234616666667","6500100","板橋區"
"220054","741-BX","2018/01/02 19:19:38","新北市板橋區四川路一段199號","121.460631666667","25.0037","6500100","板橋區"
"220055","827-TW","2018/01/02 19:19:35","新北市板橋區實踐路65巷6-7號","121.46444","25.0065333333333","6500100","板橋區"
"220102","830-TW","2018/01/02 19:19:33","新北市板橋區文聖街207-1號","121.479885","25.0264633333333","6500100","板橋區"
"220074","895-R6","2018/01/02 19:19:39","新北市板橋區中正路25巷11號","121.45485","25.0126516666667","6500100","板橋區"
"220073","985-R7","2018/01/02 19:19:40","新北市板橋區瑞安街75號","121.455651666667","25.02117","6500100","板橋區"
"220097","AAC-210","2018/01/02 19:19:48","新北市板橋區幸福路60巷7號","121.460863333333","25.0204416666667","6500100","板橋區"
"220070","AAC-253","2018/01/02 19:19:51","新北市板橋區忠孝路41-1號","121.461145","25.0020883333333","6500100","板橋區"
