"lineid","car","time","location","longitude","latitude","cityid","cityname"
"244019","403-UM","2018/01/02 20:54:59","新北市林口區粉寮69號","121.405108333333","25.0907716666667","6501700","林口區"
"244024","742-UY","2018/01/02 20:20:58","新北市林口區粉寮路二段160巷28號","121.405196666667","25.09077","6501700","林口區"
"241028","022-UY","2018/01/02 20:13:31","新北市三重區同安街97號","121.494785","25.0565116666667","6500200","三重區"
"241026","066-VK","2018/01/02 21:49:47","新北市八里區商港路96號","121.394316666667","25.1478733333333","6500200","三重區"
"241005","262-UM","2018/01/02 21:49:39","新北市三重區集賢路33-2號","121.495603333333","25.0861716666667","6500200","三重區"
"241001","547-UM","2018/01/02 21:49:40","新北市林口區汕頭32號","121.366368333333","25.1349383333333","6500200","三重區"
"235026","800-TS","2018/01/02 21:06:48","新北市中和區員山路36巷16-3號","121.484881666667","24.9915433333333","6500300","中和區"
"247008","341-TH","2018/01/02 21:49:48","新北市林口區汕頭32號","121.366593333333","25.1350366666667","6501400","蘆洲區"
"251004","009-UM","2018/01/02 21:49:38","新北市淡水區民權路92巷35-1號","121.462228333333","25.1266416666667","6501000","淡水區"
"251001","011-UM","2018/01/02 21:49:34","新北市淡水區後洲路一段157號","121.427736666667","25.1985466666667","6501000","淡水區"
"251008","181-VK","2018/01/02 21:49:49","新北市淡水區學府路104號","121.449831666667","25.1717766666667","6501000","淡水區"
"251010","413-VK","2018/01/02 21:49:52","新北市淡水區中正路二段211號","121.426208333333","25.18912","6501000","淡水區"
"251012","441-VK","2018/01/02 21:49:50","新北市淡水區淡金路三段254號","121.44912","25.206245","6501000","淡水區"
"251005","443-VK","2018/01/02 21:49:56","新北市淡水區鄧公路30巷30弄2號","121.453578333333","25.16977","6501000","淡水區"
"251006","561-UM","2018/01/02 21:49:40","新北市淡水區中正路11巷3號","121.43781","25.1707533333333","6501000","淡水區"
"251009","575-R6","2018/01/02 21:49:35","新北市淡水區民生路65號","121.463055","25.1383116666667","6501000","淡水區"
"251007","577-R6","2018/01/02 21:49:47","新北市淡水區水源街二段177巷66號","121.45254","25.1769716666667","6501000","淡水區"
"251011","650-BX","2018/01/02 21:49:39","新北市淡水區新民街322巷5弄1-1號","121.436393333333","25.182925","6501000","淡水區"
"251002","672-BX","2018/01/02 21:49:39","新北市淡水區大忠街121號","121.447416666667","25.17685","6501000","淡水區"
"251003","673-BX","2018/01/02 21:49:52","新北市淡水區新春街90號","121.438851666667","25.1823733333333","6501000","淡水區"
"236002","339-SR","2018/01/02 15:42:10","新北市土城區永平街51號","121.427671666667","24.9591633333333","6501300","土城區"
"221012","276-VK","2018/01/02 13:28:18","新北市汐止區汐萬路一段256巷3號","121.653445","25.0746616666667","6501100","汐止區"
"220080","461-BY","2018/01/02 08:51:40","新北市板橋區華東街1-9號","121.448093333333","24.9948416666667","6500100","板橋區"
"220070","AAC-253","2018/01/02 21:49:51","新北市板橋區華東街1-9號","121.448268333333","24.9948633333333","6500100","板橋區"
