"lineid","car","time","location","longitude","latitude","cityid","cityname"
"244019","403-UM","2018/01/02 20:54:59","新北市林口區粉寮69號","121.405108333333","25.0907716666667","6501700","林口區"
"244024","742-UY","2018/01/02 20:20:58","新北市林口區粉寮路二段160巷28號","121.405196666667","25.09077","6501700","林口區"
"241028","022-UY","2018/01/02 20:13:31","新北市三重區同安街97號","121.494785","25.0565116666667","6500200","三重區"
"235026","800-TS","2018/01/02 21:06:48","新北市中和區員山路36巷16-3號","121.484881666667","24.9915433333333","6500300","中和區"
"247008","341-TH","2018/01/02 22:19:48","新北市五股區中興路二段182巷3號","121.456505","25.0780583333333","6501400","蘆洲區"
"247003","336-TH","2018/01/02 22:19:54","新北市五股區中興路三段163號","121.449345","25.080865","6501400","蘆洲區"
"251004","009-UM","2018/01/02 22:19:38","新北市淡水區民族路33號","121.462361666667","25.1358416666667","6501000","淡水區"
"251008","181-VK","2018/01/02 22:19:49","新北市淡水區學府路104號","121.44984","25.1718366666667","6501000","淡水區"
"251010","413-VK","2018/01/02 22:19:52","新北市淡水區沙崙路200號","121.424706666667","25.1839066666667","6501000","淡水區"
"251007","577-R6","2018/01/02 22:19:47","新北市淡水區北新路137號","121.449421666667","25.1788533333333","6501000","淡水區"
"251011","650-BX","2018/01/02 22:19:39","新北市淡水區水碓街7號","121.443178333333","25.1771266666667","6501000","淡水區"
"236002","339-SR","2018/01/02 15:42:10","新北市土城區永平街51號","121.427671666667","24.9591633333333","6501300","土城區"
"221012","276-VK","2018/01/02 13:28:18","新北市汐止區汐萬路一段256巷3號","121.653445","25.0746616666667","6501100","汐止區"
"220080","461-BY","2018/01/02 08:51:40","新北市板橋區華東街1-9號","121.448093333333","24.9948416666667","6500100","板橋區"
