"lineid","car","time","location","longitude","latitude","cityid","cityname"
"248005","653-BX","2018/10/22 08:09:25","新北市五股區明德路12巷1號","121.433183333333","25.071645","6501500","五股區"
"232001","290-BY","2018/10/22 08:09:22","新北市坪林區下坑子口12號","121.721178333333","24.9412666666667","6502000","坪林區"
"232012","291-BY","2018/10/22 08:09:22","新北市坪林區九芎根1號","121.669973333333","24.8904733333333","6502000","坪林區"
"232010","375-UM","2018/10/22 08:09:30","新北市坪林區厚德岡坑8-5號","121.733168333333","24.9410033333333","6502000","坪林區"
"232017","705-BZ","2018/10/22 08:09:25","新北市坪林區坪雙路二段162號","121.763555","24.9631516666667","6502000","坪林區"
"232005","758-BX","2018/10/22 08:09:17","新北市坪林區九芎林39號","121.70313","24.9207366666667","6502000","坪林區"
"244022","069-UM","2018/10/22 08:09:20","新北市林口區仁愛路一段285巷116號","121.395368333333","25.0758683333333","6501700","林口區"
"244001","248-BX","2018/10/22 08:09:28","新北市林口區頂福里34號","121.354565","25.0983583333333","6501700","林口區"
"244012","KEA-2802","2018/10/22 08:09:22","新北市林口區工四路42號","121.400491666667","25.0839366666667","6501700","林口區"
"244016","485-VK","2018/10/22 08:09:34","新北市林口區粉寮路二段88巷11號","121.405203333333","25.088465","6501700","林口區"
"244008","656-BX","2018/10/22 08:09:32","新北市林口區竹林路320巷21號","121.391616666667","25.0817533333333","6501700","林口區"
"244010","701-TV","2018/10/22 08:09:18","新北市林口區仁愛路一段285巷116號","121.395456666667","25.0758266666667","6501700","林口區"
"244024","837-TS","2018/10/22 08:09:25","新北市林口區中山路285號","121.384313333333","25.08018","6501700","林口區"
"244020","838-TS","2018/10/22 08:09:19","新北市林口區粉寮路二段88巷101-1號","121.405088333333","25.0905833333333","6501700","林口區"
"222005","289-BY","2018/10/22 08:09:19","新北市深坑區文化街98號","121.616956666667","25.0018283333333","6501800","深坑區"
"231007","189-VK","2018/10/22 08:09:26","新北市新店區華潭街52號","121.528401666667","24.9547733333333","6500600","新店區"
"231008","192-VK","2018/10/22 08:09:15","新北市新店區北新路一段37號","121.53789","24.95927","6500600","新店區"
"235001","611-BX","2018/10/22 08:09:27","新北市中和區圓通路367巷33弄107號","121.495231666667","24.984125","6500300","中和區"
"226005","5620-A6","2018/10/22 08:09:30","新北市平溪區靜安路二段548號","121.746488333333","25.0257983333333","6502400","平溪區"
"226001","7418-A5","2018/10/22 08:09:34","新北市平溪區望古里石灼坑2-1號","121.767541666667","25.0357883333333","6502400","平溪區"
"226003","AGD-0702","2018/10/22 08:08:46","新北市平溪區十分里十分街293號","121.775703333333","25.0468766666667","6502400","平溪區"
"223006","022-BY","2018/10/22 08:09:06","新北市石碇區靜安路一段292巷10號","121.69188","25.0058833333333","6501900","石碇區"
"223003","205-TH","2018/10/22 08:09:20","新北市石碇區北宜路五段崙尾寮巷2-1號","121.647711666667","24.9523733333333","6501900","石碇區"
"223004","437-BY","2018/10/22 08:09:28","新北市石碇區外按11-1號","121.651013333333","24.9987716666667","6501900","石碇區"
"223001","592-UM","2018/10/22 08:09:27","新北市石碇區北宜路五段80號","121.646546666667","24.9517966666667","6501900","石碇區"
"223005","677-TV","2018/10/22 08:09:34","新北市石碇區外按16-1號","121.650665","24.9975333333333","6501900","石碇區"
"224010","AGQ-8101","2018/10/22 08:09:26","新北市瑞芳區三爪子坑路64-35號","121.809043333333","25.10582","6501200","瑞芳區"
"227005","282-VK","2018/10/22 08:09:20","新北市雙溪區上林里新寮子14號","121.834491666667","25.0304733333333","6502500","雙溪區"
"252006","073-UM","2018/10/22 08:09:20","新北市三芝區海景四街20號","121.473608333333","25.246445","6502100","三芝區"
"252004","249-BX","2018/10/22 08:09:31","新北市三芝區興華里車埕31-3號","121.503421666667","25.1945516666667","6502100","三芝區"
"237001","159-UY","2018/10/22 08:09:13","新北市三峽區大學路33號","121.377466666667","24.940205","6500900","三峽區"
"242035","AAC-296","2018/10/22 08:09:33","新北市新莊區建福路69巷29號","121.428208333333","25.0274333333333","6500500","新莊區"
"242057","986-R7","2018/10/22 08:09:29","新北市新莊區中正路704-1號","121.417411666667","25.0257883333333","6500500","新莊區"
"242055","751-BX","2018/10/22 08:09:26","新北市新莊區泰豐街30巷12號","121.44878","25.0319783333333","6500500","新莊區"
"242026","705-TV","2018/10/22 08:09:15","新北市新莊區福壽街108號","121.458046666667","25.0505233333333","6500500","新莊區"
"242028","612-BX","2018/10/22 08:09:35","新北市新莊區復興路一段103號","121.449035","25.0429133333333","6500500","新莊區"
"242043","566-BX","2018/10/22 08:09:25","新北市新莊區富國路65巷5號","121.419741666667","25.0264583333333","6500500","新莊區"
"242047","497-BY","2018/10/22 08:09:34","新北市新莊區萬安街113號","121.420783333333","25.0227466666667","6500500","新莊區"
"242014","442-UM","2018/10/22 08:09:29","新北市新莊區中平路42號","121.444783333333","25.0437483333333","6500500","新莊區"
"242038","415-TV","2018/10/22 08:09:16","新北市新莊區民安東路37號","121.428906666667","25.0210033333333","6500500","新莊區"
"242008","413-TV","2018/10/22 08:09:16","新北市新莊區昌明街14巷5弄2號","121.457303333333","25.0532283333333","6500500","新莊區"
"242045","400-BY","2018/10/22 08:09:32","新北市新莊區建國一路36號","121.43388","25.031435","6500500","新莊區"
"242022","362-BY","2018/10/22 08:09:22","新北市新莊區民樂街73號","121.457918333333","25.04214","6500500","新莊區"
"242059","353-BY","2018/10/22 08:09:22","新北市新莊區新樹路601號","121.433161666667","25.0058666666667","6500500","新莊區"
"242010","132-UY","2018/10/22 08:09:15","新北市新莊區中原路201-2號","121.451153333333","25.05398","6500500","新莊區"
"242040","133-UY","2018/10/22 08:09:27","新北市泰山區台麗街93-6號","121.428571666667","25.0359883333333","6500500","新莊區"
"242033","135-UY","2018/10/22 08:09:25","新北市新莊區新莊路637號","121.445246666667","25.0328933333333","6500500","新莊區"
"242049","172-VK","2018/10/22 08:09:30","新北市新莊區西盛街311巷4號","121.42838","25.01524","6500500","新莊區"
"242012","173-VK","2018/10/22 08:09:30","新北市新莊區中誠街96號","121.449998333333","25.0477816666667","6500500","新莊區"
"242018","175-VK","2018/10/22 08:09:02","新北市新莊區中港路271號","121.453516666667","25.0435","6500500","新莊區"
"242006","176-VK","2018/10/22 08:09:25","新北市新莊區福樂街132巷1號","121.456725","25.0482033333333","6500500","新莊區"
"242016","346-TH","2018/10/22 08:09:35","新北市新莊區復興路一段149巷21弄1號","121.450208333333","25.0440716666667","6500500","新莊區"
"242030","348-TH","2018/10/22 08:09:33","新北市新莊區新泰路321巷15號","121.4439","25.0412666666667","6500500","新莊區"
"242003","349-TH","2018/10/22 08:09:27","新北市新莊區自立街198號","121.456665","25.0454333333333","6500500","新莊區"
"242020","350-TH","2018/10/22 08:09:26","新北市新莊區復興路一段222號","121.453078333333","25.04378","6500500","新莊區"
"242001","281-VK","2018/10/22 08:09:16","新北市新莊區新莊路421號","121.450655","25.0335983333333","6500500","新莊區"
"242052","280-VK","2018/10/22 08:09:21","新北市新莊區樹新路120巷19號","121.430503333333","24.996455","6500500","新莊區"
