"lineid","car","time","location","longitude","latitude","cityid","cityname"
"244022","069-UM","2018/10/22 10:39:20","新北市林口區民權路179號","121.3744","25.08489","6501700","林口區"
"244018","403-UM","2018/10/22 10:39:09","新北市林口區粉寮路二段160巷8號","121.404656666667","25.0933333333333","6501700","林口區"
"231007","189-VK","2018/10/22 10:39:25","新北市新店區小坑三路51-1號","121.516583333333","24.908905","6500600","新店區"
"231008","192-VK","2018/10/22 10:38:35","新北市新店區成功路105號","121.53656","24.89448","6500600","新店區"
"237001","159-UY","2018/10/22 10:32:49","新北市三峽區中山路459巷163-1號","121.349315","24.9334216666667","6500900","三峽區"
"242003","349-TH","2018/10/22 10:39:27","新北市五股區新五路二段279號","121.44277","25.086075","6500500","新莊區"
