"lineid","car","time","location","longitude","latitude","cityid","cityname"
"244019","403-UM","2018/10/22 10:49:29","新北市林口區粉寮路二段88巷100-12號","121.409618333333","25.0902266666667","6501700","林口區"
"231007","189-VK","2018/10/22 10:49:25","新北市新店區新潭路三段80巷31-1號","121.501093333333","24.909825","6500600","新店區"
"231008","192-VK","2018/10/22 10:46:35","新北市新店區成功路121-6號","121.534905","24.89425","6500600","新店區"
"227005","282-VK","2018/10/22 10:49:20","新北市雙溪區泰平里溪尾寮46號","121.821428333333","24.967515","6502500","雙溪區"
"237001","159-UY","2018/10/22 10:49:16","新北市三峽區中山路459巷163-1號","121.34932","24.9334366666667","6500900","三峽區"
"242003","349-TH","2018/10/22 10:49:27","新北市泰山區楓里路10號","121.4422","25.0580833333333","6500500","新莊區"
