"lineid","car","time","location","longitude","latitude","cityid","cityname"
"244019","403-UM","2018/10/22 10:59:29","新北市林口區粉寮路二段88巷100-12號","121.409615","25.0902316666667","6501700","林口區"
"231007","189-VK","2018/10/22 10:59:25","新北市新店區新潭路二段140巷1號","121.512305","24.920895","6500600","新店區"
"231008","192-VK","2018/10/22 10:59:15","新北市新店區松林路85號","121.548565","24.908745","6500600","新店區"
"227005","282-VK","2018/10/22 10:59:20","新北市雙溪區泰平里泰平58號","121.827555","24.9721966666667","6502500","雙溪區"
"237001","159-UY","2018/10/22 10:59:16","新北市三峽區中山路459巷163-1號","121.349321666667","24.9334233333333","6500900","三峽區"
