"lineid","car","time","location","longitude","latitude","cityid","cityname"
"234044","148-BY","2018/10/22 13:39:24","新北市永和區永元路107號","121.522621666667","25.002435","6500400","永和區"
"234005","207-UY","2018/10/22 13:39:21","新北市永和區中山路一段98-2號","121.511591666667","25.0108416666667","6500400","永和區"
"234078","298-R6","2018/10/22 13:39:23","新北市永和區國中路104巷8弄6號","121.524881666667","25.00671","6500400","永和區"
"234036","336-UY","2018/10/22 13:39:33","新北市永和區民樂街39巷18弄22號","121.52847","24.9993316666667","6500400","永和區"
"234062","337-UY","2018/10/22 13:39:35","新北市永和區秀朗路一段192巷6弄20號","121.519338333333","25.0020866666667","6500400","永和區"
"234084","338-UY","2018/10/22 13:39:29","新北市永和區成功路一段48巷12號","121.526316666667","25.004285","6500400","永和區"
"234068","552-UM","2018/10/22 13:39:31","新北市永和區永和路二段234號","121.515811666667","25.014545","6500400","永和區"
"234015","745-BX","2018/10/22 13:39:22","新北市永和區永和路二段297號","121.516106666667","25.0159733333333","6500400","永和區"
"234028","746-BX","2018/10/22 13:39:23","新北市永和區民權路1巷24號","121.52151","24.9983883333333","6500400","永和區"
"234052","KEA-2590","2018/10/22 13:39:18","新北市永和區竹林路39巷21號","121.518906666667","25.0148316666667","6500400","永和區"
"234012","KEA-2591","2018/10/22 13:39:06","新北市永和區永平路220號","121.509083333333","25.0105433333333","6500400","永和區"
"234060","AAD-866","2018/10/22 13:39:32","新北市永和區中正路416號","121.517548333333","25.0021266666667","6500400","永和區"
"234040","862-TW","2018/10/22 13:39:28","新北市永和區中和路597巷4號","121.512238333333","25.004555","6500400","永和區"
"234048","863-TW","2018/10/22 13:39:25","新北市永和區保福路二段142號","121.50959","25.01446","6500400","永和區"
"234025","9371-KE","2018/10/22 13:39:18","新北市永和區和平街93巷2號","121.511363333333","25.0097233333333","6500400","永和區"
"234010","9373-KE","2018/10/22 13:39:16","新北市永和區保福路二段9巷9號","121.510495","25.0108883333333","6500400","永和區"
"248015","026-BX","2018/10/22 13:39:24","新北市五股區凌雲路一段149巷42號","121.44855","25.100965","6501500","五股區"
"248005","077-UY","2018/10/22 13:39:22","新北市五股區中興路一段20號","121.46908","25.0723916666667","6501500","五股區"
"248007","095-VK","2018/10/22 13:39:25","新北市五股區中興路一段147號","121.465148333333","25.0734616666667","6501500","五股區"
"248019","225-UY","2018/10/22 13:39:16","新北市五股區天乙路169號","121.446493333333","25.11754","6501500","五股區"
"248011","247-BX","2018/10/22 13:39:22","新北市五股區成泰路二段195巷1號","121.440316666667","25.0873883333333","6501500","五股區"
"248013","261-SL","2018/10/22 13:39:18","新北市五股區中興路四段67-2號","121.436965","25.0833766666667","6501500","五股區"
"248009","272-BY","2018/10/22 13:39:21","新北市五股區水碓五路141號","121.430765","25.0728833333333","6501500","五股區"
"248001","655-BX","2018/10/22 13:39:24","新北市五股區西雲路205號","121.448548333333","25.09656","6501500","五股區"
"248003","677-BX","2018/10/22 13:39:27","新北市五股區民義路二段12-1號","121.421095","25.09633","6501500","五股區"
"234022","9380-KE","2018/10/22 13:39:16","新北市永和區中正路702巷18號","121.516475","25.0105333333333","6500400","永和區"
"234076","969-R7","2018/10/22 13:39:20","新北市永和區民權路12號","121.520311666667","24.9993883333333","6500400","永和區"
"234072","AAC-211","2018/10/22 13:39:34","新北市永和區竹林路225巷41號","121.523123333333","25.0089033333333","6500400","永和區"
"234066","AAC-212","2018/10/22 13:39:30","新北市永和區中山路一段174號","121.509193333333","25.00905","6500400","永和區"
"234001","AAC-295","2018/10/22 13:39:23","新北市永和區永和路一段114號","121.513845","25.0073116666667","6500400","永和區"
"244001","248-BX","2018/10/22 13:39:17","新北市林口區瑞樹坑58號","121.343708333333","25.1263883333333","6501700","林口區"
"243005","AAD-798","2018/10/22 13:29:31","新北市泰山區明志路三段206巷3號","121.423276666667","25.0379566666667","6501600","泰山區"
"243008","KEA-2801","2018/10/22 13:39:25","新北市泰山區泰林路二段552號","121.423136666667","25.0638466666667","6501600","泰山區"
"243007","421-VK","2018/10/22 13:39:16","新北市泰山區犁頭窠3-1號","121.422156666667","25.060585","6501600","泰山區"
"243003","KEA-2215","2018/10/22 13:39:34","新北市泰山區黎明路33號","121.421663333333","25.0605733333333","6501600","泰山區"
"243002","KEA-2216","2018/10/22 13:39:19","新北市泰山區黎明路33號","121.42163","25.0603933333333","6501600","泰山區"
"243004","646-TV","2018/10/22 13:39:30","新北市泰山區黎明路6號","121.420933333333","25.062185","6501600","泰山區"
"231002","002-UM","2018/10/22 13:39:26","新北市新店區中央三街127號","121.524081666667","24.9768683333333","6500600","新店區"
"231028","046-UY","2018/10/22 13:39:19","新北市新店區安和路一段23號","121.517035","24.9649916666667","6500600","新店區"
"231001","047-UY","2018/10/22 13:39:29","新北市新店區中正路438號","121.534138333333","24.97825","6500600","新店區"
"231010","107-UY","2018/10/22 13:39:22","新北市新店區中正路307巷17號","121.53582","24.9735583333333","6500600","新店區"
"231019","108-UY","2018/10/22 13:39:37","新北市新店區永興路88-1號","121.54399","24.9337283333333","6500600","新店區"
"231011","187-VK","2018/10/22 13:39:26","新北市新店區德正街23巷7號","121.544445","24.97222","6500600","新店區"
"231023","KEA-2219","2018/10/22 13:39:25","新北市新店區新店路162號","121.537156666667","24.9555416666667","6500600","新店區"
"231026","256-BX","2018/10/22 13:39:34","新北市新店區中正路141號","121.541668333333","24.9715683333333","6500600","新店區"
"231003","268-BY","2018/10/22 13:39:15","新北市新店區中正路84號","121.543538333333","24.9702233333333","6500600","新店區"
"231018","278-BY","2018/10/22 13:39:27","新北市新店區百忍街40號","121.533615","24.97591","6500600","新店區"
"231014","AAD-862","2018/10/22 13:39:28","新北市新店區竹林路63-1號","121.552875","24.9512033333333","6500600","新店區"
"231038","3712-VJ","2018/10/22 13:39:14","新北市新店區安華路28-1號","121.519628333333","24.9608266666667","6500600","新店區"
"231027","3713-VJ","2018/10/22 13:39:15","新北市新店區新店後街6號","121.537923333333","24.9529316666667","6500600","新店區"
"231037","4716-K9","2018/10/22 13:39:26","新北市新店區薏仁坑路57號","121.490656666667","24.9639616666667","6500600","新店區"
"231025","4715-K9","2018/10/22 13:39:32","新北市新店區中央五街37號","121.528571666667","24.9749783333333","6500600","新店區"
"231036","512-UM","2018/10/22 13:39:25","新北市新店區安祥路145巷2號","121.474698333333","24.9554633333333","6500600","新店區"
"231013","513-UM","2018/10/22 13:39:27","新北市新店區中正路454-5號","121.534453333333","24.9790283333333","6500600","新店區"
"231006","617-UM","2018/10/22 13:39:27","新北市新店區光明街1-1號","121.538065","24.9590516666667","6500600","新店區"
"231005","618-UM","2018/10/22 13:39:35","新北市新店區寶中路79號","121.547703333333","24.98087","6500600","新店區"
"231030","619-UM","2018/10/22 13:39:25","新北市新店區安康路一段222-3號","121.52256","24.963765","6500600","新店區"
"231034","641-BX","2018/10/22 13:39:27","新北市新店區黎明路57巷50號","121.504221666667","24.9480033333333","6500600","新店區"
"231035","719-UM","2018/10/22 13:39:36","新北市新店區安忠路56巷6號","121.513006666667","24.9594633333333","6500600","新店區"
"231031","720-UM","2018/10/22 13:39:30","新北市新店區安康路一段162號","121.526098333333","24.96299","6500600","新店區"
"231029","897-TW","2018/10/22 13:39:36","新北市新店區車子路1-1號","121.504495","24.9579216666667","6500600","新店區"
"231004","899-TW","2018/10/22 13:39:27","新北市新店區北新路二段19號","121.542626666667","24.971575","6500600","新店區"
"231024","AKT-0513","2018/10/22 13:39:29","新北市新店區中正路161號","121.541193333333","24.9719433333333","6500600","新店區"
"235030","003-UY","2018/10/22 13:39:28","新北市中和區水源路30號","121.504621666667","25.0035433333333","6500300","中和區"
"235028","005-UY","2018/10/22 13:39:26","新北市中和區連城路109巷15號","121.496718333333","24.9989883333333","6500300","中和區"
"235027","006-UY","2018/10/22 13:39:18","新北市中和區連城路389巷20號","121.486555","24.9951516666667","6500300","中和區"
"235020","096-UM","2018/10/22 13:39:30","新北市中和區員山路466巷18號","121.480981666667","25.006555","6500300","中和區"
"235003","097-UM","2018/10/22 13:39:27","新北市中和區大勇街29巷10號","121.516","24.99445","6500300","中和區"
"235029","098-UM","2018/10/22 13:39:30","新北市中和區莊敬路33巷13號","121.500258333333","25.00689","6500300","中和區"
"235040","150-BY","2018/10/22 13:39:20","新北市中和區安平路59號","121.509548333333","24.995145","6500300","中和區"
"235022","151-BY","2018/10/22 13:39:32","新北市中和區圓通路369巷39號","121.489726666667","24.9859866666667","6500300","中和區"
"235019","183-VK","2018/10/22 13:39:19","新北市中和區莒光路120巷15弄1號","121.471665","25.00124","6500300","中和區"
"235002","185-VK","2018/10/22 13:39:32","新北市中和區大勇街60巷6號","121.51854","24.9947533333333","6500300","中和區"
"235013","186-VK","2018/10/22 13:39:27","新北市中和區明義街11巷1弄1號","121.503991666667","24.9948216666667","6500300","中和區"
"235031","255-BX","2018/10/22 13:39:31","新北市中和區新生街220巷4號","121.482951666667","24.9986416666667","6500300","中和區"
"235008","293-VK","2018/10/22 13:39:23","新北市中和區復興路276號","121.502791666667","24.9904316666667","6500300","中和區"
"235036","301-VK","2018/10/22 13:39:24","新北市中和區連城路90號","121.49683","25.000545","6500300","中和區"
"235007","352-BY","2018/10/22 13:39:33","新北市中和區景平路177號","121.512105","24.9926083333333","6500300","中和區"
"235014","4979-A6","2018/10/22 13:39:19","新北市中和區信義街115號","121.512248333333","24.986925","6500300","中和區"
"235033","4980-A6","2018/10/22 13:39:23","新北市中和區連城路89巷6號","121.496956666667","24.999495","6500300","中和區"
"235006","551-UM","2018/10/22 13:39:33","新北市中和區成功路127巷13號","121.526428333333","24.9908466666667","6500300","中和區"
"235034","558-UM","2018/10/22 13:39:24","新北市中和區南華路1巷1號","121.501881666667","24.9955566666667","6500300","中和區"
"235009","565-BX","2018/10/22 13:39:20","新北市中和區南山路236巷34-9號","121.504443333333","24.98824","6500300","中和區"
"235018","640-BX","2018/10/22 13:39:28","新北市中和區民享街32巷20號","121.472891666667","25.0031783333333","6500300","中和區"
"235024","647-TV","2018/10/22 13:39:20","新北市中和區中山路二段656號","121.480585","25.0059483333333","6500300","中和區"
"235011","732-UM","2018/10/22 13:39:26","新北市中和區南山路320巷10弄29號","121.506791666667","24.9868183333333","6500300","中和區"
"235035","783-BX","2018/10/22 13:39:31","新北市中和區立德街98巷65號","121.487455","25.00976","6500300","中和區"
"235026","800-TS","2018/10/22 13:39:24","新北市中和區中山路二段312巷10弄2號","121.49559","25.0029883333333","6500300","中和區"
"235021","801-TS","2018/10/22 13:39:26","新北市中和區員山路327巷8號","121.480925","25.0011733333333","6500300","中和區"
"235016","805-TS","2018/10/22 13:39:26","新北市中和區興南路三段52巷1-3號","121.494088333333","24.9759966666667","6500300","中和區"
"235012","896-TW","2018/10/22 13:39:26","新北市中和區中正路83號","121.500605","24.9935166666667","6500300","中和區"
"235017","900-TW","2018/10/22 13:39:28","新北市土城區延壽路118-5號","121.469078333333","24.99439","6500300","中和區"
"235001","157-BY","2018/10/22 13:39:15","新北市中和區華新街143巷106弄28號","121.506053333333","24.9787316666667","6500300","中和區"
"235001","AAC-213","2018/10/22 13:39:15","新北市中和區景德街68號","121.516931666667","24.9916016666667","6500300","中和區"
"235023","AAC-215","2018/10/22 13:39:32","新北市中和區錦和路354巷15號","121.4893","24.9915366666667","6500300","中和區"
"220016","013-TV","2018/10/22 13:38:52","新北市板橋區三民路一段129-2號","121.479441666667","25.0207083333333","6500100","板橋區"
"220034","073-UY","2018/10/22 13:39:17","新北市板橋區南雅南路二段118號","121.452426666667","25.0003016666667","6500100","板橋區"
"220017","AAD-861","2018/10/22 13:39:26","新北市板橋區華東街1-10號","121.448328333333","24.9950833333333","6500100","板橋區"
"247009","056-VK","2018/10/22 13:39:22","新北市五股區中興路三段163號","121.449276666667","25.0806466666667","6501400","蘆洲區"
"247003","002-UY","2018/10/22 13:39:18","新北市蘆洲區中原路84號","121.457871666667","25.08173","6501400","蘆洲區"
"247021","001-UY","2018/10/22 13:39:35","新北市五股區中興路三段2巷10號","121.449211666667","25.0808666666667","6501400","蘆洲區"
"235005","251-BX","2018/10/22 13:39:33","新北市中和區中和路400巷21號","121.51164","25.0023366666667","6500300","中和區"
"253003","6232-TK","2018/10/22 13:39:23","新北市石門區內石門21-1號","121.571546666667","25.2735466666667","6502200","石門區"
"253004","6251-TK","2018/10/22 13:39:19","新北市石門區阿里荖62-1號","121.60799","25.2688116666667","6502200","石門區"
"253002","637-UY","2018/10/22 13:39:19","新北市石門區內石門78-1號","121.569248333333","25.2566883333333","6502200","石門區"
"253001","KEC-0718","2018/10/22 13:39:20","新北市石門區下員坑21-1號","121.511298333333","25.2769983333333","6502200","石門區"
"207002","749-BX","2018/10/22 13:39:19","新北市萬里區崁腳里崁腳路166號","121.645","25.1559666666667","6502800","萬里區"
"252005","073-UM","2018/10/22 13:39:28","新北市三芝區圓山里內柑宅22-2號","121.53677","25.217905","6502100","三芝區"
"207001","662-BX","2018/10/22 13:39:26","新北市萬里區大鵬里萬里加投29-11號","121.646745","25.2092766666667","6502800","萬里區"
"237001","159-UY","2018/10/22 13:38:33","新北市樹林區中山路三段214號","121.380108333333","24.96796","6500900","三峽區"
"236064","105-UM","2018/10/22 13:39:16","新北市土城區城林路6巷80號","121.438638333333","24.979625","6501300","土城區"
"236074","166-UM","2018/10/22 13:39:36","新北市土城區城林路6巷80號","121.43874","24.9797266666667","6501300","土城區"
"236032","271-VK","2018/10/22 13:39:25","新北市土城區城林路6巷80號","121.438508333333","24.9797866666667","6501300","土城區"
"236016","401-BY","2018/10/22 13:39:18","新北市土城區城林路6巷80號","121.438405","24.9797783333333","6501300","土城區"
"236040","752-BX","2018/10/22 13:39:23","新北市土城區城林路6巷80號","121.438743333333","24.97968","6501300","土城區"
"236057","912-UM","2018/10/22 13:39:28","新北市土城區城林路6巷80號","121.438448333333","24.97973","6501300","土城區"
"239001","417-VK","2018/10/22 13:39:33","桃園市龜山區明興街275-1號","121.33319","24.9815166666667","6500800","鶯歌區"
"221010","269-BY","2018/10/22 13:39:18","新北市汐止區康寧街520-1號","121.633806666667","25.068815","6501100","汐止區"
"220027","145-BY","2018/10/22 13:39:21","新北市板橋區南雅西路二段192巷1弄9-2號","121.45213","25.0146433333333","6500100","板橋區"
"220028","200-UY","2018/10/22 13:39:20","新北市板橋區華東街1-9號","121.448181666667","24.9950283333333","6500100","板橋區"
"220030","610-BX","2018/10/22 13:39:29","新北市板橋區篤行路一段29號","121.432055","24.9945733333333","6500100","板橋區"
"220004","276-BY","2018/10/22 13:39:22","新北市板橋區四川路二段140巷20號","121.4492","24.9934166666667","6500100","板橋區"
"220020","277-BY","2018/10/22 13:39:32","新北市板橋區大觀路三段80號","121.432806666667","24.9949666666667","6500100","板橋區"
"220019","283-VK","2018/10/22 13:39:30","新北市板橋區四川路二段140巷16弄13號","121.448848333333","24.9935683333333","6500100","板橋區"
"220031","286-VK","2018/10/22 13:39:34","新北市板橋區大觀路二段29號","121.446748333333","25.0032116666667","6500100","板橋區"
"220029","287-VK","2018/10/22 13:39:22","新北市板橋區大觀路二段163巷32號","121.446676666667","24.9998583333333","6500100","板橋區"
"220039","288-VK","2018/10/22 13:39:33","新北市板橋區民生路二段161巷7號","121.470216666667","25.019675","6500100","板橋區"
"220009","293-UM","2018/10/22 13:39:21","新北市板橋區民生路二段161巷1號","121.470223333333","25.0198816666667","6500100","板橋區"
"220010","295-UM","2018/10/22 13:39:22","新北市板橋區民生路二段161巷1號","121.470243333333","25.020075","6500100","板橋區"
"220023","303-R5","2018/10/22 13:39:22","新北市板橋區南雅南路二段116號","121.452416666667","25.0004816666667","6500100","板橋區"
"220012","486-VK","2018/10/22 13:39:17","新北市板橋區新站路75號","121.46503","25.0141583333333","6500100","板橋區"
"220038","487-VK","2018/10/22 13:39:34","新北市板橋區民生路二段161巷1號","121.469886666667","25.0201","6500100","板橋區"
"220104","560-BX","2018/10/22 13:39:24","新北市板橋區南雅西路二段177號","121.451836666667","25.0125883333333","6500100","板橋區"
"220005","686-BX","2018/10/22 13:39:19","新北市板橋區華東街1-9號","121.448215","24.994925","6500100","板橋區"
"220025","687-BX","2018/10/22 13:39:35","新北市板橋區大觀路三段180巷30號","121.429726666667","24.9936433333333","6500100","板橋區"
"220002","741-BX","2018/10/22 13:39:28","新北市板橋區板城路407號","121.447535","24.99537","6500100","板橋區"
"220014","829-TW","2018/10/22 13:39:28","新北市板橋區民生路二段161巷1號","121.470165","25.0201116666667","6500100","板橋區"
"220022","895-R6","2018/10/22 13:39:34","新北市板橋區新興路19號","121.456018333333","25.00674","6500100","板橋區"
"220021","985-R7","2018/10/22 13:39:21","新北市板橋區南雅南路二段116號","121.452476666667","25.0005483333333","6500100","板橋區"
"220018","AAC-253","2018/10/22 13:39:28","新北市板橋區華東街1-8號","121.447795","24.9948216666667","6500100","板橋區"
"235032","KEA-2873","2018/10/22 13:39:17","新北市中和區中正路211巷13弄6號","121.497258333333","24.9930516666667","6500300","中和區"
"235025","KEA-2875","2018/10/22 13:39:28","新北市中和區民享街30巷6號","121.473598333333","25.0035133333333","6500300","中和區"
