"lineid","car","time","location","longitude","latitude","cityid","cityname"
"234044","148-BY","2018/10/22 13:49:24","新北市永和區永利路165號","121.525066666667","25.0034216666667","6500400","永和區"
"234005","207-UY","2018/10/22 13:49:21","新北市永和區永和路一段86號","121.513143333333","25.0066433333333","6500400","永和區"
"234078","298-R6","2018/10/22 13:49:19","新北市永和區永亨路98號","121.52303","25.004905","6500400","永和區"
"234036","336-UY","2018/10/22 13:49:33","新北市永和區成功路二段76號","121.526543333333","24.999215","6500400","永和區"
"234062","337-UY","2018/10/22 13:49:21","新北市永和區中正路368巷21號","121.51834","25.0008433333333","6500400","永和區"
"234084","338-UY","2018/10/22 13:49:29","新北市永和區永利路2號","121.517395","25.005915","6500400","永和區"
"234068","552-UM","2018/10/22 13:49:31","新北市永和區竹林路88號","121.519468333333","25.0126","6500400","永和區"
"234015","745-BX","2018/10/22 13:49:22","新北市永和區文化路121巷1號","121.512521666667","25.0152566666667","6500400","永和區"
"234028","746-BX","2018/10/22 13:49:23","新北市永和區四維街103巷16號","121.523711666667","24.9971333333333","6500400","永和區"
"234052","KEA-2590","2018/10/22 13:49:18","新北市永和區竹林路75巷25弄7號","121.520048333333","25.014495","6500400","永和區"
"234012","KEA-2591","2018/10/22 13:49:26","新北市永和區仁愛路168號","121.510138333333","25.0127416666667","6500400","永和區"
"234060","AAD-866","2018/10/22 13:49:33","新北市永和區中正路281號","121.517603333333","25.0011033333333","6500400","永和區"
"234040","862-TW","2018/10/22 13:49:28","新北市永和區中和路389巷8號","121.508101666667","25.0009533333333","6500400","永和區"
"234048","863-TW","2018/10/22 13:49:22","新北市永和區環河西路一段107號","121.510953333333","25.0175666666667","6500400","永和區"
"234010","9373-KE","2018/10/22 13:49:36","新北市永和區保生路55號","121.504773333333","25.0106316666667","6500400","永和區"
"248015","026-BX","2018/10/22 13:49:24","新北市五股區凌雲路一段149巷44號","121.448455","25.10113","6501500","五股區"
"248005","077-UY","2018/10/22 13:49:22","新北市五股區四維路127號","121.467586666667","25.073865","6501500","五股區"
"248007","095-VK","2018/10/22 13:49:20","新北市五股區中興路一段128巷6號","121.465681666667","25.0739866666667","6501500","五股區"
"248019","225-UY","2018/10/22 13:49:16","新北市五股區凌雲路三段田埔巷3號","121.432568333333","25.1179216666667","6501500","五股區"
"248011","247-BX","2018/10/22 13:49:22","新北市五股區成泰路二段195巷1號","121.44032","25.0873866666667","6501500","五股區"
"248013","261-SL","2018/10/22 13:49:18","新北市五股區成泰路二段252號","121.440583333333","25.0873416666667","6501500","五股區"
"248009","272-BY","2018/10/22 13:49:23","新北市五股區水碓九路60號","121.429023333333","25.071955","6501500","五股區"
"248001","655-BX","2018/10/22 13:49:24","新北市五股區成泰路三段454號","121.451423333333","25.1003483333333","6501500","五股區"
"248003","677-BX","2018/10/22 13:49:27","新北市五股區民義路二段68號","121.405921666667","25.10758","6501500","五股區"
"234022","9380-KE","2018/10/22 13:49:16","新北市永和區永和路二段166號","121.515358333333","25.0128316666667","6500400","永和區"
"234076","969-R7","2018/10/22 13:49:32","新北市永和區民權路36巷17號","121.519048333333","24.999005","6500400","永和區"
"234072","AAC-211","2018/10/22 13:49:28","新北市永和區豫溪街185號","121.522508333333","25.0103466666667","6500400","永和區"
"234066","AAC-212","2018/10/22 13:49:27","新北市永和區中山路一段255巷22號","121.508503333333","25.007195","6500400","永和區"
"234001","AAC-295","2018/10/22 13:49:23","新北市永和區永和路一段69號","121.513073333333","25.0071683333333","6500400","永和區"
"244001","248-BX","2018/10/22 13:49:37","新北市林口區太平里11鄰40號","121.359983333333","25.1318333333333","6501700","林口區"
"243005","AAD-798","2018/10/22 13:29:31","新北市泰山區明志路三段206巷3號","121.423276666667","25.0379566666667","6501600","泰山區"
"243008","KEA-2801","2018/10/22 13:49:25","新北市泰山區明志路二段137號","121.427631666667","25.050705","6501600","泰山區"
"243007","421-VK","2018/10/22 13:49:16","新北市泰山區美寧街50號","121.430506666667","25.064485","6501600","泰山區"
"243003","KEA-2215","2018/10/22 13:49:34","新北市泰山區公園路2號","121.43006","25.053935","6501600","泰山區"
"243002","KEA-2216","2018/10/22 13:49:19","新北市泰山區公園路2號","121.430121666667","25.05397","6501600","泰山區"
"243004","646-TV","2018/10/22 13:49:30","新北市泰山區福興三街13號","121.434438333333","25.0577483333333","6501600","泰山區"
"231002","002-UM","2018/10/22 13:49:26","新北市新店區溪園路393號","121.524115","24.9793433333333","6500600","新店區"
"231028","046-UY","2018/10/22 13:49:25","新北市新店區安和路二段166-6號","121.519335","24.97396","6500600","新店區"
"231001","047-UY","2018/10/22 13:49:29","新北市新店區三民路139號","121.534316666667","24.9726483333333","6500600","新店區"
"231010","107-UY","2018/10/22 13:49:22","新北市新店區平等街69號","121.535846666667","24.9724066666667","6500600","新店區"
"231019","108-UY","2018/10/22 13:49:17","新北市新店區永興路132-3號","121.544803333333","24.9316616666667","6500600","新店區"
"231011","187-VK","2018/10/22 13:49:26","新北市新店區德正街27巷29弄60號","121.545773333333","24.97289","6500600","新店區"
"231023","KEA-2219","2018/10/22 13:49:25","新北市新店區國校路51巷1號","121.538075","24.9546266666667","6500600","新店區"
"231026","256-BX","2018/10/22 13:49:34","新北市新店區福園街10巷5號","121.532543333333","24.9728916666667","6500600","新店區"
"231003","268-BY","2018/10/22 13:49:35","新北市新店區中興路一段199號","121.543436666667","24.9653916666667","6500600","新店區"
"231018","278-BY","2018/10/22 13:49:27","新北市新店區中正路400巷16號","121.535088333333","24.97812","6500600","新店區"
"231014","AAD-862","2018/10/22 13:49:28","新北市新店區郵政路1號","121.557708333333","24.9527433333333","6500600","新店區"
"231038","3712-VJ","2018/10/22 13:49:34","新北市新店區安華路28-1號","121.519621666667","24.960895","6500600","新店區"
"231027","3713-VJ","2018/10/22 13:49:35","新北市新店區北宜路一段49號","121.53833","24.9569866666667","6500600","新店區"
"231037","4716-K9","2018/10/22 13:49:26","新北市新店區安康路三段244號","121.487745","24.9518466666667","6500600","新店區"
"231025","4715-K9","2018/10/22 13:49:31","新北市新店區中正路314號","121.537211666667","24.9746333333333","6500600","新店區"
"231036","512-UM","2018/10/22 13:49:25","新北市新店區安祥路147巷17號","121.475601666667","24.956225","6500600","新店區"
"231013","513-UM","2018/10/22 13:49:27","新北市新店區二十張路25巷18弄27號","121.539285","24.9812733333333","6500600","新店區"
"231006","617-UM","2018/10/22 13:49:27","新北市新店區北宜路一段182號","121.540883333333","24.9529016666667","6500600","新店區"
"231005","618-UM","2018/10/22 13:49:15","新北市新店區寶中路119號","121.54935","24.9798783333333","6500600","新店區"
"231030","619-UM","2018/10/22 13:49:25","新北市新店區安康路一段89號","121.529128333333","24.9615783333333","6500600","新店區"
"231034","641-BX","2018/10/22 13:49:27","新北市新店區達觀路16號","121.503133333333","24.9413616666667","6500600","新店區"
"231035","719-UM","2018/10/22 13:49:15","新北市新店區安忠路205巷8號","121.50942","24.9546016666667","6500600","新店區"
"231031","720-UM","2018/10/22 13:49:30","新北市新店區莒光路44巷21弄11-6號","121.518673333333","24.9521383333333","6500600","新店區"
"231029","897-TW","2018/10/22 13:49:16","新北市新店區安康路二段156號","121.512238333333","24.9608683333333","6500600","新店區"
"231004","899-TW","2018/10/22 13:49:27","新北市新店區寶橋路132號","121.547305","24.9760533333333","6500600","新店區"
"231024","AKT-0513","2018/10/22 13:49:26","新北市新店區中華路47巷2弄2號","121.539671666667","24.9676266666667","6500600","新店區"
"235030","003-UY","2018/10/22 13:49:28","新北市中和區水源路18巷5號","121.504066666667","25.0030683333333","6500300","中和區"
"235028","005-UY","2018/10/22 13:49:26","新北市中和區泰和街36號","121.499255","25.00012","6500300","中和區"
"235027","006-UY","2018/10/22 13:49:18","新北市中和區錦和路113號","121.490276666667","24.9949766666667","6500300","中和區"
"235020","096-UM","2018/10/22 13:49:30","新北市中和區中正路1184號","121.481081666667","25.0102233333333","6500300","中和區"
"235003","097-UM","2018/10/22 13:49:27","新北市中和區景平路64巷13弄22號","121.521455","24.9914783333333","6500300","中和區"
"235029","098-UM","2018/10/22 13:49:37","新北市中和區莊敬路33巷5弄4號","121.499605","25.0067516666667","6500300","中和區"
"235040","150-BY","2018/10/22 13:49:20","新北市中和區保健路71號","121.510008333333","24.997","6500300","中和區"
"235022","151-BY","2018/10/22 13:49:32","新北市中和區連城路456巷1號","121.478946666667","24.9945266666667","6500300","中和區"
"235019","183-VK","2018/10/22 13:49:19","新北市中和區民生街85巷6弄1號","121.469246666667","25.0039933333333","6500300","中和區"
"235002","185-VK","2018/10/22 13:49:32","新北市中和區大勇街62號","121.517838333333","24.9945583333333","6500300","中和區"
"235013","186-VK","2018/10/22 13:49:27","新北市中和區景安路167巷18號","121.50618","24.994565","6500300","中和區"
"235031","255-BX","2018/10/22 13:49:31","新北市中和區新生街220巷1弄5號","121.483406666667","24.998315","6500300","中和區"
"235008","293-VK","2018/10/22 13:49:23","新北市中和區中興街123號","121.499906666667","24.9917916666667","6500300","中和區"
"235036","301-VK","2018/10/22 13:49:24","新北市中和區中山路二段47號","121.504411666667","25.0049816666667","6500300","中和區"
"235007","352-BY","2018/10/22 13:49:33","新北市中和區景平路1號","121.525546666667","24.9900933333333","6500300","中和區"
"235014","4979-A6","2018/10/22 13:49:19","新北市中和區忠孝街62巷9弄10號","121.513148333333","24.9839883333333","6500300","中和區"
"235033","4980-A6","2018/10/22 13:49:23","新北市中和區中和路139號","121.501991666667","24.9998","6500300","中和區"
"235006","551-UM","2018/10/22 13:49:33","新北市中和區秀朗路三段153巷15號","121.525426666667","24.991615","6500300","中和區"
"235034","558-UM","2018/10/22 13:49:24","新北市中和區枋寮街2號","121.502461666667","24.999775","6500300","中和區"
"235009","565-BX","2018/10/22 13:49:20","新北市中和區捷運路8-2號","121.509608333333","24.9895266666667","6500300","中和區"
"235018","640-BX","2018/10/22 13:49:28","新北市中和區民享街38-1號","121.473941666667","25.0029816666667","6500300","中和區"
"235024","647-TV","2018/10/22 13:49:20","新北市中和區中山路三段39-1號","121.477983333333","25.005315","6500300","中和區"
"235011","732-UM","2018/10/22 13:49:26","新北市中和區興南路二段34巷56弄1號","121.504841666667","24.9852333333333","6500300","中和區"
"235035","783-BX","2018/10/22 13:49:31","新北市中和區立德街26巷17弄11號","121.489758333333","25.007885","6500300","中和區"
"235026","800-TS","2018/10/22 13:49:24","新北市中和區景平路703巷2弄4號","121.49612","25.0036533333333","6500300","中和區"
"235021","801-TS","2018/10/22 13:49:26","新北市中和區民安街25巷25號","121.480691666667","24.999685","6500300","中和區"
"235016","805-TS","2018/10/22 13:49:22","新北市中和區興南路二段399巷11號","121.498941666667","24.9791533333333","6500300","中和區"
"235012","896-TW","2018/10/22 13:49:26","新北市中和區南山路363號","121.506055","24.990615","6500300","中和區"
"235017","900-TW","2018/10/22 13:49:28","新北市中和區華福街14號","121.465683333333","24.996765","6500300","中和區"
"235001","157-BY","2018/10/22 13:49:35","新北市中和區忠孝街35號","121.510661666667","24.9832683333333","6500300","中和區"
"235001","AAC-213","2018/10/22 13:49:35","新北市中和區秀朗路三段175巷10號","121.524983333333","24.9914166666667","6500300","中和區"
"235023","AAC-215","2018/10/22 13:49:32","新北市中和區圓通路369巷31號","121.490753333333","24.9882916666667","6500300","中和區"
"220016","013-TV","2018/10/22 13:49:20","新北市板橋區三民路一段31巷39-1號","121.480613333333","25.0232683333333","6500100","板橋區"
"220013","072-UY","2018/10/22 13:49:35","新北市板橋區漢生東路280號","121.470311666667","25.0099816666667","6500100","板橋區"
"220034","073-UY","2018/10/22 13:49:15","新北市板橋區大智街23號","121.45517","25.0149133333333","6500100","板橋區"
"220105","075-UY","2018/10/22 13:49:30","新北市板橋區民生路二段161巷9號","121.47027","25.0195366666667","6500100","板橋區"
"220017","AAD-861","2018/10/22 13:49:26","新北市板橋區大華街20號","121.45891","25.0062133333333","6500100","板橋區"
"247015","546-UM","2018/10/22 13:49:20","新北市蘆洲區光華路44號","121.468791666667","25.0830566666667","6501400","蘆洲區"
"247005","337-TH","2018/10/22 13:49:27","新北市蘆洲區中山二路285號","121.469388333333","25.078895","6501400","蘆洲區"
"247007","336-TH","2018/10/22 13:49:36","新北市蘆洲區重陽街13號","121.480826666667","25.0821266666667","6501400","蘆洲區"
"247019","057-VK","2018/10/22 13:49:16","新北市蘆洲區民族路422巷48弄24號","121.474665","25.093185","6501400","蘆洲區"
"247009","056-VK","2018/10/22 13:49:22","新北市蘆洲區復興路355巷39號","121.477178333333","25.09672","6501400","蘆洲區"
"247003","002-UY","2018/10/22 13:49:18","新北市蘆洲區中原路21巷7弄40號","121.461733333333","25.0831266666667","6501400","蘆洲區"
"247021","001-UY","2018/10/22 13:49:15","新北市蘆洲區中正路507號","121.461085","25.09725","6501400","蘆洲區"
"235005","251-BX","2018/10/22 13:49:33","新北市中和區永貞路280號","121.513131666667","25.004025","6500300","中和區"
"253003","6232-TK","2018/10/22 13:49:23","新北市石門區內石門7號","121.570038333333","25.2836266666667","6502200","石門區"
"253004","6251-TK","2018/10/22 13:49:26","新北市石門區草埔尾34-1號","121.603025","25.265065","6502200","石門區"
"253002","637-UY","2018/10/22 13:49:19","新北市石門區尖山湖3號","121.566455","25.2437183333333","6502200","石門區"
"253001","KEC-0718","2018/10/22 13:49:20","新北市三芝區新庄里新庄子48-8號","121.507096666667","25.2792083333333","6502200","石門區"
"207002","749-BX","2018/10/22 13:49:19","新北市萬里區崁腳里崁腳路166號","121.645046666667","25.1559","6502800","萬里區"
"252005","073-UM","2018/10/22 13:49:28","新北市三芝區圓山里二坪頂46號","121.539815","25.2301666666667","6502100","三芝區"
"207001","662-BX","2018/10/22 13:49:26","新北市萬里區磺潭里公館崙35號","121.632413333333","25.2116533333333","6502800","萬里區"
"237001","159-UY","2018/10/22 13:49:33","新北市樹林區柑園街二段278號","121.37451","24.9522533333333","6500900","三峽區"
"236064","105-UM","2018/10/22 13:49:36","新北市土城區城林路6巷80號","121.438668333333","24.9796733333333","6501300","土城區"
"236074","166-UM","2018/10/22 13:47:45","新北市土城區中央路二段280號","121.440726666667","24.9740716666667","6501300","土城區"
"236029","253-BX","2018/10/22 13:49:32","新北市土城區城林路6巷80號","121.438565","24.9797433333333","6501300","土城區"
"236024","269-VK","2018/10/22 13:49:34","新北市土城區城林路6巷80號","121.438205","24.979745","6501300","土城區"
"236012","270-VK","2018/10/22 13:49:25","新北市土城區城林路6巷80號","121.438451666667","24.9797583333333","6501300","土城區"
"236032","271-VK","2018/10/22 13:49:25","新北市土城區城林路6巷80號","121.438491666667","24.979805","6501300","土城區"
"236016","401-BY","2018/10/22 13:49:18","新北市土城區城林路6巷80號","121.438428333333","24.9797516666667","6501300","土城區"
"236040","752-BX","2018/10/22 13:49:23","新北市土城區城林路6巷80號","121.438761666667","24.9796633333333","6501300","土城區"
"236057","912-UM","2018/10/22 13:49:28","新北市土城區中華路二段257號","121.437466666667","24.971175","6501300","土城區"
"236045","913-UM","2018/10/22 13:49:22","新北市土城區城林路6巷80號","121.438421666667","24.9798666666667","6501300","土城區"
"236054","AAC-216","2018/10/22 13:49:22","新北市土城區城林路6巷80號","121.438405","24.9797916666667","6501300","土城區"
"239001","417-VK","2018/10/22 13:49:33","桃園市龜山區明興街275-1號","121.33317","24.9814983333333","6500800","鶯歌區"
"221010","269-BY","2018/10/22 13:49:18","新北市汐止區汐萬路一段256巷3號","121.653026666667","25.07449","6501100","汐止區"
"220027","145-BY","2018/10/22 13:49:21","新北市板橋區大智街71巷5弄1號","121.453306666667","25.0149683333333","6500100","板橋區"
"220028","200-UY","2018/10/22 13:49:20","新北市板橋區大觀路二段265巷128號","121.44225","24.9962183333333","6500100","板橋區"
"220030","610-BX","2018/10/22 13:49:19","新北市板橋區篤行路三段47號","121.428063333333","24.9862866666667","6500100","板橋區"
"220004","276-BY","2018/10/22 13:49:22","新北市板橋區四川路二段42號","121.453646666667","24.99549","6500100","板橋區"
"220020","277-BY","2018/10/22 13:49:18","新北市板橋區大觀路三段18號","121.434548333333","24.9958383333333","6500100","板橋區"
"220050","280-UM","2018/10/22 13:49:20","新北市板橋區民生路二段120號","121.470606666667","25.0196116666667","6500100","板橋區"
"220043","283-UM","2018/10/22 13:49:23","新北市板橋區民生路二段161巷1號","121.470065","25.0198483333333","6500100","板橋區"
"220019","283-VK","2018/10/22 13:49:31","新北市板橋區忠孝路176巷5弄3號","121.464871666667","25.00212","6500100","板橋區"
"220001","285-VK","2018/10/22 13:49:28","新北市板橋區民生路二段89-4號","121.471146666667","25.0182216666667","6500100","板橋區"
"220031","286-VK","2018/10/22 13:49:35","新北市板橋區僑中二街88巷15號","121.445603333333","25.009475","6500100","板橋區"
"220029","287-VK","2018/10/22 13:49:22","新北市板橋區光華街13巷12號","121.453576666667","25.0115216666667","6500100","板橋區"
"220039","288-VK","2018/10/22 13:49:13","新北市板橋區民生路二段161巷7號","121.470231666667","25.019675","6500100","板橋區"
"220009","293-UM","2018/10/22 13:49:21","新北市板橋區太和街4巷17號","121.474416666667","25.0201516666667","6500100","板橋區"
"220010","295-UM","2018/10/22 13:49:29","新北市板橋區中山路二段25號","121.472575","25.0152683333333","6500100","板橋區"
"220032","296-UM","2018/10/22 13:49:27","新北市板橋區大觀路二段148巷1-1號","121.441725","24.999095","6500100","板橋區"
"220023","303-R5","2018/10/22 13:49:22","新北市板橋區南雅東路104號","121.453486666667","25.008005","6500100","板橋區"
"220047","317-R6","2018/10/22 13:49:25","新北市板橋區民生路二段120號","121.470386666667","25.01967","6500100","板橋區"
"220012","486-VK","2018/10/22 13:49:20","新北市板橋區中山路二段37號","121.473021666667","25.0155183333333","6500100","板橋區"
"220038","487-VK","2018/10/22 13:49:34","新北市板橋區民生路二段171號","121.46976","25.0201266666667","6500100","板橋區"
"220037","491-VK","2018/10/22 13:49:26","新北市板橋區民生路二段171號","121.469825","25.0200933333333","6500100","板橋區"
"220104","560-BX","2018/10/22 13:49:24","新北市板橋區中正路325巷3弄25號","121.453965","25.0184683333333","6500100","板橋區"
"220011","609-BX","2018/10/22 13:49:30","新北市板橋區民生路二段89號","121.471528333333","25.017525","6500100","板橋區"
"220040","637-BX","2018/10/22 13:49:34","新北市板橋區民生路二段188號","121.470156666667","25.020285","6500100","板橋區"
"220005","686-BX","2018/10/22 13:49:19","新北市板橋區館前西路53號","121.457745","25.006615","6500100","板橋區"
"220025","687-BX","2018/10/22 13:49:15","新北市板橋區金門街55號","121.43326","24.9930766666667","6500100","板橋區"
"220042","689-BX","2018/10/22 13:49:24","新北市板橋區民生路二段161巷1號","121.470103333333","25.0201016666667","6500100","板橋區"
"220002","741-BX","2018/10/22 13:49:28","新北市板橋區後埔街10號","121.460348333333","25.00682","6500100","板橋區"
"220051","KEA-2699","2018/10/22 13:49:32","新北市板橋區田單街2巷38號","121.481868333333","25.0274966666667","6500100","板橋區"
"220003","827-TW","2018/10/22 13:49:29","新北市板橋區中山路一段85號","121.461475","25.0099716666667","6500100","板橋區"
"220014","829-TW","2018/10/22 13:49:28","新北市板橋區民生路二段91號","121.471486666667","25.0175916666667","6500100","板橋區"
"220022","895-R6","2018/10/22 13:49:21","新北市板橋區南門街53號","121.457225","25.0084016666667","6500100","板橋區"
"220021","985-R7","2018/10/22 13:49:21","新北市板橋區府中路32號","121.458516666667","25.009695","6500100","板橋區"
"220018","AAC-253","2018/10/22 13:49:28","新北市板橋區館前西路46巷5號","121.459025","25.0072133333333","6500100","板橋區"
"235032","KEA-2873","2018/10/22 13:49:17","新北市中和區圓通路289號","121.495096666667","24.9927366666667","6500300","中和區"
"235025","KEA-2875","2018/10/22 13:49:28","新北市中和區民治街134巷12號","121.474821666667","25.0020533333333","6500300","中和區"
"235010","KEA-2876","2018/10/22 13:49:33","新北市中和區仁愛街36巷55號","121.511433333333","24.9862116666667","6500300","中和區"
