"lineid","car","time","location","longitude","latitude","cityid","cityname"
"234005","207-UY","2018/10/22 14:39:21","新北市永和區中正路385號","121.51728","25.0039366666667","6500400","永和區"
"234078","298-R6","2018/10/22 14:39:18","新北市永和區永貞路82號","121.520166666667","25.00506","6500400","永和區"
"234036","336-UY","2018/10/22 14:39:33","新北市中和區中正路673號","121.485283333333","24.996785","6500400","永和區"
"234040","862-TW","2018/10/22 14:39:28","新北市永和區永和路一段115-1號","121.513973333333","25.008125","6500400","永和區"
"234048","863-TW","2018/10/22 14:39:22","新北市永和區保安路132號","121.508888333333","25.0153666666667","6500400","永和區"
"234025","9371-KE","2018/10/22 14:39:18","新北市永和區中和路501巷5號","121.510423333333","25.00267","6500400","永和區"
"248015","026-BX","2018/10/22 14:39:23","新北市五股區成泰路三段601巷17-1號","121.45182","25.1033266666667","6501500","五股區"
"248007","095-VK","2018/10/22 14:39:20","新北市五股區四維路171巷22號","121.466901666667","25.0752516666667","6501500","五股區"
"248011","247-BX","2018/10/22 14:39:22","新北市五股區民義路一段36號","121.437063333333","25.0838366666667","6501500","五股區"
"248013","261-SL","2018/10/22 14:39:28","新北市五股區五福路23巷9號","121.43362","25.0886666666667","6501500","五股區"
"248009","272-BY","2018/10/22 14:39:18","新北市五股區登林路貿商巷1弄7號","121.429925","25.0695833333333","6501500","五股區"
"248001","655-BX","2018/10/22 14:39:30","新北市五股區成泰路三段257號","121.44674","25.093635","6501500","五股區"
"248003","677-BX","2018/10/22 14:39:27","新北市五股區成泰路二段9號","121.437033333333","25.081425","6501500","五股區"
"234072","AAC-211","2018/10/22 14:39:28","新北市永和區環河東路二段54-1號","121.523348333333","25.0115083333333","6500400","永和區"
"234001","AAC-295","2018/10/22 14:39:23","新北市永和區中正路618號","121.51695","25.0077066666667","6500400","永和區"
"244001","248-BX","2018/10/22 14:39:17","新北市林口區湖子17-2號","121.384076666667","25.0907283333333","6501700","林口區"
"243005","AAD-798","2018/10/22 14:39:30","新北市泰山區應化街7號","121.42389","25.0437533333333","6501600","泰山區"
"243001","297-R6","2018/10/22 14:39:26","新北市泰山區泰林路二段164巷11號","121.4346","25.0607233333333","6501600","泰山區"
"243008","KEA-2801","2018/10/22 14:39:22","新北市泰山區貴鳳街2號","121.421146666667","25.0312583333333","6501600","泰山區"
"243007","421-VK","2018/10/22 14:39:16","新北市泰山區明志路二段214巷16弄4號","121.42684","25.049245","6501600","泰山區"
"243003","KEA-2215","2018/10/22 14:39:34","新北市泰山區明志路三段182巷17號","121.42344","25.039155","6501600","泰山區"
"243002","KEA-2216","2018/10/22 14:39:33","新北市泰山區明志路二段136巷19號","121.42605","25.0518366666667","6501600","泰山區"
"243004","646-TV","2018/10/22 14:39:30","新北市泰山區楓江路23-3號","121.434231666667","25.0625183333333","6501600","泰山區"
"243006","680-BX","2018/10/22 14:39:33","新北市泰山區泰林路二段33-1號","121.435716666667","25.0567516666667","6501600","泰山區"
"231002","002-UM","2018/10/22 14:39:26","新北市新店區中央路13號","121.533381666667","24.9784566666667","6500600","新店區"
"231028","046-UY","2018/10/22 14:39:19","新北市新店區安成街26號","121.510235","24.9609833333333","6500600","新店區"
"231001","047-UY","2018/10/22 14:39:29","新北市新店區中正路12號","121.545446666667","24.969595","6500600","新店區"
"231019","108-UY","2018/10/22 14:39:37","新北市新店區桂山路55-1號","121.564676666667","24.9010883333333","6500600","新店區"
"231011","187-VK","2018/10/22 14:39:26","新北市新店區中興路二段236巷5號","121.547901666667","24.975975","6500600","新店區"
"231023","KEA-2219","2018/10/22 14:39:25","新北市新店區檳榔路21號","121.541585","24.9638366666667","6500600","新店區"
"231003","268-BY","2018/10/22 14:39:35","新北市新店區中興路一段280號","121.545478333333","24.9684833333333","6500600","新店區"
"231018","278-BY","2018/10/22 14:39:27","新北市新店區中央二街37號","121.527845","24.9740083333333","6500600","新店區"
"231014","AAD-862","2018/10/22 14:39:28","新北市新店區北宜路三段221號","121.592375","24.9532216666667","6500600","新店區"
"231038","3712-VJ","2018/10/22 14:39:34","新北市新店區溪洲路187-2號","121.529313333333","24.9646416666667","6500600","新店區"
"231027","3713-VJ","2018/10/22 14:39:35","新北市新店區中正路334巷7號","121.536913333333","24.9753666666667","6500600","新店區"
"231037","4716-K9","2018/10/22 14:39:26","新北市新店區安康路二段318-1號","121.504848333333","24.9580883333333","6500600","新店區"
"231036","512-UM","2018/10/22 14:39:25","新北市新店區安祥路109巷151弄9號","121.477718333333","24.9585483333333","6500600","新店區"
"231013","513-UM","2018/10/22 14:39:27","新北市新店區明德路31號","121.541675","24.97736","6500600","新店區"
"231006","617-UM","2018/10/22 14:39:27","新北市新店區北宜路二段271號","121.554751666667","24.953595","6500600","新店區"
"231005","618-UM","2018/10/22 14:39:35","新北市新店區順安街61號","121.540703333333","24.9863733333333","6500600","新店區"
"231030","619-UM","2018/10/22 14:39:26","新北市新店區安民街173號","121.516733333333","24.97031","6500600","新店區"
"231034","641-BX","2018/10/22 14:39:27","新北市新店區黎明路52巷9號","121.502045","24.9487783333333","6500600","新店區"
"231035","719-UM","2018/10/22 14:30:35","新北市新店區安民街37號","121.515878333333","24.9654416666667","6500600","新店區"
"231029","897-TW","2018/10/22 14:39:16","新北市新店區安康路三段454號","121.484358333333","24.9512433333333","6500600","新店區"
"231004","899-TW","2018/10/22 14:39:27","新北市新店區中正路291號","121.537301666667","24.9745733333333","6500600","新店區"
"231024","AKT-0513","2018/10/22 14:39:26","新北市新店區北新路一段271巷32號","121.540046666667","24.9672216666667","6500600","新店區"
"235030","003-UY","2018/10/22 14:39:28","新北市中和區景新街162號","121.505726666667","24.9972016666667","6500300","中和區"
"235028","005-UY","2018/10/22 14:39:26","新北市中和區圓通路6號","121.501796666667","24.9980666666667","6500300","中和區"
"235027","006-UY","2018/10/22 14:39:18","新北市中和區板南路386號","121.493528333333","24.99949","6500300","中和區"
"235020","096-UM","2018/10/22 14:39:30","新北市中和區員山路581巷31弄22號","121.476608333333","25.01043","6500300","中和區"
"235003","097-UM","2018/10/22 14:39:27","新北市中和區安平路161號","121.51244","24.998515","6500300","中和區"
"235029","098-UM","2018/10/22 14:39:37","新北市中和區福祥路72號","121.499243333333","25.00527","6500300","中和區"
"235040","150-BY","2018/10/22 14:39:21","新北市中和區宜安路1巷28弄18號","121.512071666667","24.9945216666667","6500300","中和區"
"235022","151-BY","2018/10/22 14:39:33","新北市中和區連城路372-3號","121.481478333333","24.9954183333333","6500300","中和區"
"235019","183-VK","2018/10/22 14:39:19","新北市中和區民生街85巷3弄2號","121.469106666667","25.00427","6500300","中和區"
"235002","185-VK","2018/10/22 14:39:32","新北市中和區自強路27巷22號","121.521676666667","24.9932833333333","6500300","中和區"
"235013","186-VK","2018/10/22 14:39:27","新北市中和區景新街204號","121.50642","24.9955066666667","6500300","中和區"
"235031","255-BX","2018/10/22 14:39:31","新北市中和區員山路148巷23弄28號","121.482248333333","24.9977583333333","6500300","中和區"
"235008","293-VK","2018/10/22 14:39:30","新北市中和區捷運路6號","121.510141666667","24.98947","6500300","中和區"
"235036","301-VK","2018/10/22 14:39:24","新北市中和區中山路二段327巷20號","121.49317","25.0003216666667","6500300","中和區"
"235007","352-BY","2018/10/22 14:39:33","新北市中和區南華路87號","121.505546666667","24.99737","6500300","中和區"
"247011","KEA-2869","2018/10/22 14:39:21","新北市蘆洲區集賢路224巷37弄10-1號","121.480658333333","25.0880983333333","6501400","蘆洲區"
"235014","4979-A6","2018/10/22 14:39:19","新北市中和區員山路36巷16-8號","121.485388333333","24.9922066666667","6500300","中和區"
"235006","551-UM","2018/10/22 14:39:33","新北市中和區保健路19巷4弄7號","121.509118333333","24.99844","6500300","中和區"
"235034","558-UM","2018/10/22 14:39:24","新北市中和區景平路525號","121.499006666667","24.999005","6500300","中和區"
"235009","565-BX","2018/10/22 14:39:20","新北市中和區景平路404號","121.509181666667","24.993125","6500300","中和區"
"235018","640-BX","2018/10/22 14:39:28","新北市中和區莒光路63號","121.472313333333","25.003785","6500300","中和區"
"235024","647-TV","2018/10/22 14:39:20","新北市中和區員山路314巷7弄4號","121.482213333333","25.003105","6500300","中和區"
"235011","732-UM","2018/10/22 14:39:26","新北市中和區南山路277號","121.504111666667","24.9923766666667","6500300","中和區"
"235035","783-BX","2018/10/22 14:39:31","新北市中和區建八路116號","121.488028333333","24.9982333333333","6500300","中和區"
"235026","800-TS","2018/10/22 14:39:24","新北市中和區中山路二段526巷15弄5號","121.48559","25.0052216666667","6500300","中和區"
"235021","801-TS","2018/10/22 14:39:26","新北市中和區員山路152-3號","121.48141","24.9986116666667","6500300","中和區"
"235016","805-TS","2018/10/22 14:39:22","新北市中和區華新街206巷4號","121.506503333333","24.98216","6500300","中和區"
"235012","896-TW","2018/10/22 14:39:26","新北市中和區四維街14號","121.513108333333","24.9872466666667","6500300","中和區"
"235017","900-TW","2018/10/22 14:39:28","新北市中和區國光街215巷26-3號","121.467081666667","25.00043","6500300","中和區"
"235015","157-BY","2018/10/22 14:39:35","新北市中和區中興街180巷52弄2號","121.498808333333","24.9886733333333","6500300","中和區"
"235001","AAC-213","2018/10/22 14:39:35","新北市中和區秀朗路三段107號","121.52644","24.9946283333333","6500300","中和區"
"235023","AAC-215","2018/10/22 14:39:32","新北市中和區圓通路305巷5弄78號","121.49486","24.98968","6500300","中和區"
"220016","013-TV","2018/10/22 14:39:20","新北市板橋區中山路二段416巷1弄4號","121.483323333333","25.0208883333333","6500100","板橋區"
"220013","072-UY","2018/10/22 14:39:15","新北市板橋區民族路222巷13號","121.468855","25.0068533333333","6500100","板橋區"
"220034","073-UY","2018/10/22 14:39:30","新北市板橋區林園街4號","121.454268333333","25.0094433333333","6500100","板橋區"
"220105","075-UY","2018/10/22 14:39:30","新北市板橋區雙十路27號","121.470541666667","25.03126","6500100","板橋區"
"220017","AAD-861","2018/10/22 14:39:27","新北市板橋區縣民大道一段64巷2號","121.455181666667","25.0040433333333","6500100","板橋區"
"247001","893-R6","2018/10/22 14:39:23","新北市蘆洲區永樂街38巷31號","121.458155","25.08941","6501400","蘆洲區"
"247015","546-UM","2018/10/22 14:39:20","新北市蘆洲區正和街29號","121.469743333333","25.0818866666667","6501400","蘆洲區"
"247023","500-BY","2018/10/22 14:39:21","新北市蘆洲區正和街63巷5號","121.469116666667","25.0808183333333","6501400","蘆洲區"
"247013","339-TH","2018/10/22 14:39:25","新北市蘆洲區成功路164號","121.471353333333","25.0835366666667","6501400","蘆洲區"
"247005","337-TH","2018/10/22 14:39:27","新北市蘆洲區長安街68巷7號","121.462933333333","25.0804016666667","6501400","蘆洲區"
"247007","336-TH","2018/10/22 14:39:29","新北市蘆洲區信義路1號","121.473588333333","25.0791466666667","6501400","蘆洲區"
"247019","057-VK","2018/10/22 14:39:35","新北市蘆洲區民權路125號","121.472168333333","25.089975","6501400","蘆洲區"
"247009","056-VK","2018/10/22 14:39:22","新北市蘆洲區信義路222巷47號","121.480515","25.0855816666667","6501400","蘆洲區"
"247017","007-UY","2018/10/22 14:39:29","新北市蘆洲區民族路356號","121.4762","25.09085","6501400","蘆洲區"
"247021","001-UY","2018/10/22 14:39:35","新北市蘆洲區三民路204號","121.469138333333","25.08899","6501400","蘆洲區"
"235005","251-BX","2018/10/22 14:39:33","新北市中和區景安路2號","121.5078","24.9990033333333","6500300","中和區"
"253003","6232-TK","2018/10/22 14:39:23","新北市石門區尖子鹿29號","121.582916666667","25.2628366666667","6502200","石門區"
"253004","6251-TK","2018/10/22 14:39:28","新北市石門區內阿里磅46號","121.581026666667","25.241305","6502200","石門區"
"253002","637-UY","2018/10/22 14:39:19","新北市三芝區橫山里橫山39-5號","121.545825","25.25312","6502200","石門區"
"253001","KEC-0718","2018/10/22 14:39:20","新北市石門區崁子腳65-1號","121.53209","25.2860416666667","6502200","石門區"
"207002","749-BX","2018/10/22 14:39:19","新北市萬里區崁腳里內崁路9號","121.644616666667","25.1591016666667","6502800","萬里區"
"252005","073-UM","2018/10/22 14:38:48","新北市三芝區埔坪里埔頭坑91-1號","121.507726666667","25.2537133333333","6502100","三芝區"
"207001","662-BX","2018/10/22 14:39:26","新北市萬里區磺潭里員潭路54號","121.64356","25.1909416666667","6502800","萬里區"
"236064","105-UM","2018/10/22 14:39:16","新北市土城區永豐路183號","121.470036666667","24.9784133333333","6501300","土城區"
"236074","166-UM","2018/10/22 14:39:35","新北市土城區中央路四段52巷8-1號","121.420008333333","24.9609333333333","6501300","土城區"
"236029","253-BX","2018/10/22 14:39:32","新北市土城區中華路二段92號","121.43826","24.97459","6501300","土城區"
"236024","269-VK","2018/10/22 14:39:34","新北市土城區忠義路47-1號","121.440746666667","24.969515","6501300","土城區"
"236012","270-VK","2018/10/22 14:39:25","新北市土城區清水路196號","121.46039","24.9818316666667","6501300","土城區"
"236032","271-VK","2018/10/22 14:39:25","新北市土城區明德路一段238號","121.460211666667","24.9773516666667","6501300","土城區"
"236016","401-BY","2018/10/22 14:39:18","新北市土城區延吉街253巷1號","121.467635","24.9846866666667","6501300","土城區"
"236040","752-BX","2018/10/22 14:39:23","新北市土城區裕民路55巷1號","121.448943333333","24.9880516666667","6501300","土城區"
"236057","912-UM","2018/10/22 14:39:28","新北市土城區中央路三段171號","121.431703333333","24.9654133333333","6501300","土城區"
"236045","913-UM","2018/10/22 14:39:22","新北市土城區明德路一段97號","121.465575","24.9828933333333","6501300","土城區"
"236060","915-UM","2018/10/22 14:39:38","新北市土城區延壽路13巷2號","121.47096","24.9904183333333","6501300","土城區"
"236054","AAC-216","2018/10/22 14:39:21","新北市土城區中華路一段45號","121.445761666667","24.9883833333333","6501300","土城區"
"239001","417-VK","2018/10/22 14:39:33","新北市鶯歌區文化路669號","121.353866666667","24.94701","6500800","鶯歌區"
"221010","269-BY","2018/10/22 14:39:38","新北市汐止區長青路131巷2弄14號","121.605246666667","25.1104","6501100","汐止區"
"221032","280-BY","2018/10/22 14:39:19","新北市汐止區新台五路一段116號","121.649468333333","25.0614533333333","6501100","汐止區"
"220027","145-BY","2018/10/22 14:39:30","新北市板橋區復興街14號","121.457748333333","25.01715","6500100","板橋區"
"220030","610-BX","2018/10/22 14:39:35","新北市板橋區金門街180-3號","121.432711666667","24.991","6500100","板橋區"
"220004","276-BY","2018/10/22 14:39:22","新北市板橋區四川路一段485號","121.457298333333","24.99711","6500100","板橋區"
"220020","277-BY","2018/10/22 14:39:38","新北市板橋區金門街169號","121.432695","24.990005","6500100","板橋區"
"220050","280-UM","2018/10/22 14:39:21","新北市板橋區莊敬路220巷29弄2號","121.472738333333","25.0204483333333","6500100","板橋區"
"220043","283-UM","2018/10/22 14:39:23","新北市板橋區宏國路97-3號","121.469801666667","25.0323466666667","6500100","板橋區"
"220019","283-VK","2018/10/22 14:39:30","新北市板橋區五權街34-1號","121.464376666667","24.9920616666667","6500100","板橋區"
"220001","285-VK","2018/10/22 14:39:28","新北市板橋區懷仁街77巷35號","121.477693333333","25.019395","6500100","板橋區"
"220031","286-VK","2018/10/22 14:39:35","新北市板橋區龍興街65巷24號","121.443146666667","25.0016333333333","6500100","板橋區"
"220029","287-VK","2018/10/22 14:39:22","新北市板橋區大觀路一段29巷133弄2號","121.450261666667","25.00545","6500100","板橋區"
"220039","288-VK","2018/10/22 14:39:33","新北市板橋區新海路431巷16號","121.457751666667","25.0269416666667","6500100","板橋區"
"220009","293-UM","2018/10/22 14:39:21","新北市板橋區中山路一段283巷2弄28號","121.47073","25.0151266666667","6500100","板橋區"
"220010","295-UM","2018/10/22 14:39:22","新北市板橋區三民路二段123巷31號","121.480628333333","25.0157566666667","6500100","板橋區"
"220032","296-UM","2018/10/22 14:39:33","新北市板橋區滿平二街12號","121.425398333333","24.9867983333333","6500100","板橋區"
"220023","303-R5","2018/10/22 14:39:27","新北市板橋區大勇街8巷1號","121.453956666667","25.0170766666667","6500100","板橋區"
"220041","307-R5","2018/10/22 14:39:34","新北市板橋區文化路一段387巷29-3號","121.465705","25.02238","6500100","板橋區"
"220047","317-R6","2018/10/22 14:39:35","新北市板橋區裕民街95號","121.46024","25.02797","6500100","板橋區"
"220012","486-VK","2018/10/22 14:39:17","新北市板橋區民權路45號","121.46195","25.0114166666667","6500100","板橋區"
"220038","487-VK","2018/10/22 14:39:34","新北市板橋區英士路192-1號","121.458618333333","25.0231816666667","6500100","板橋區"
"220037","491-VK","2018/10/22 14:39:25","新北市板橋區雙十路二段76巷2號","121.475088333333","25.0279283333333","6500100","板橋區"
"220104","560-BX","2018/10/22 14:39:25","新北市板橋區金華街121號","121.459365","25.0209416666667","6500100","板橋區"
"220052","561-BX","2018/10/22 14:39:14","新北市板橋區文化路一段379號","121.467133333333","25.0215516666667","6500100","板橋區"
"220011","609-BX","2018/10/22 14:39:30","新北市板橋區三民路二段105號","121.479236666667","25.01608","6500100","板橋區"
"220040","637-BX","2018/10/22 14:39:34","新北市板橋區懷德街201巷5號","121.480948333333","25.0293616666667","6500100","板橋區"
"220005","686-BX","2018/10/22 14:39:19","新北市板橋區國慶路158巷3號","121.462153333333","24.9958633333333","6500100","板橋區"
"220025","687-BX","2018/10/22 14:39:34","新北市板橋區僑中二街98號","121.446206666667","25.0084766666667","6500100","板橋區"
"220042","689-BX","2018/10/22 14:39:24","新北市板橋區新海路360號","121.459843333333","25.0251033333333","6500100","板橋區"
"220002","741-BX","2018/10/22 14:39:27","新北市板橋區實踐路65巷45號","121.4653","25.0062466666667","6500100","板橋區"
"220051","KEA-2699","2018/10/22 14:39:32","新北市板橋區雙十路二段46巷18號","121.476173333333","25.0280916666667","6500100","板橋區"
"220003","827-TW","2018/10/22 14:39:29","新北市板橋區國慶路149巷13弄12-4號","121.460375","24.997095","6500100","板橋區"
"220014","829-TW","2018/10/22 14:39:28","新北市板橋區長安街138巷5弄8號","121.473185","25.0087416666667","6500100","板橋區"
"220045","831-TW","2018/10/22 14:39:33","新北市板橋區莒光路40巷28號","121.470156666667","25.0230416666667","6500100","板橋區"
"220022","895-R6","2018/10/22 14:39:34","新北市板橋區文化路一段52巷29號","121.461481666667","25.011015","6500100","板橋區"
"220021","985-R7","2018/10/22 14:39:25","新北市板橋區瑞安街62號","121.455321666667","25.0213883333333","6500100","板橋區"
"220046","AAC-210","2018/10/22 14:39:23","新北市板橋區漢生西路89巷2弄5號","121.461731666667","25.0194466666667","6500100","板橋區"
"220018","AAC-253","2018/10/22 14:39:28","新北市板橋區館前東路29號","121.460648333333","25.0072916666667","6500100","板橋區"
"235032","KEA-2873","2018/10/22 14:39:21","新北市中和區莊敬路16巷8號","121.500036666667","25.0039466666667","6500300","中和區"
"235025","KEA-2875","2018/10/22 14:39:28","新北市中和區員山路174巷18號","121.48207","24.999625","6500300","中和區"
"235010","KEA-2876","2018/10/22 14:39:33","新北市中和區忠孝街75號","121.512115","24.98506","6500300","中和區"
