"lineid","car","time","location","longitude","latitude","cityid","cityname"
"243009","297-R6","2018/10/22 15:42:42","新北市泰山區黎明路25號","121.422055","25.06112","6501600","泰山區"
"243014","680-BX","2018/10/22 15:36:10","新北市泰山區犁頭窠3-1號","121.422165","25.0605883333333","6501600","泰山區"
"231046","107-UY","2018/10/22 15:49:26","新北市新店區安一路一段1-1號","121.519653333333","24.9611966666667","6500600","新店區"
"231019","108-UY","2018/10/22 15:49:37","新北市新店區金興路36號","121.553143333333","24.9306966666667","6500600","新店區"
"231011","187-VK","2018/10/22 15:49:26","新北市新店區中興路三段160號","121.54451","24.980705","6500600","新店區"
"231023","KEA-2219","2018/10/22 15:49:25","新北市新店區大新街9巷23號","121.544335","24.9671566666667","6500600","新店區"
"231026","256-BX","2018/10/22 15:49:31","新北市新店區中正路432號","121.534186666667","24.9781416666667","6500600","新店區"
"231003","268-BY","2018/10/22 15:49:34","新北市新店區寶興路60巷2號","121.54987","24.971965","6500600","新店區"
"231018","278-BY","2018/10/22 15:49:27","新北市新店區中正路663巷7弄15號","121.532905","24.9900683333333","6500600","新店區"
"231014","AAD-862","2018/10/22 15:49:28","新北市新店區中華路117巷2弄5號","121.53795","24.9693833333333","6500600","新店區"
"231038","3712-VJ","2018/10/22 15:49:25","新北市新店區安德街173號","121.508626666667","24.959005","6500600","新店區"
"231037","4716-K9","2018/10/22 15:49:26","新北市新店區安民街347號","121.516845","24.9753333333333","6500600","新店區"
"231013","513-UM","2018/10/22 15:49:27","新北市新店區永業路81巷1弄2號","121.52962","24.94956","6500600","新店區"
"231030","619-UM","2018/10/22 15:49:25","新北市新店區永安街28-2號","121.517596666667","24.9865483333333","6500600","新店區"
"231034","641-BX","2018/10/22 15:49:27","新北市新店區吉祥街15巷1號","121.497751666667","24.9455983333333","6500600","新店區"
"231035","719-UM","2018/10/22 15:49:15","新北市新店區安民街365巷10弄3號","121.515758333333","24.9757116666667","6500600","新店區"
"231031","720-UM","2018/10/22 15:49:30","新北市新店區雙城路137號","121.494336666667","24.9451883333333","6500600","新店區"
"231029","897-TW","2018/10/22 15:49:35","新北市新店區薏仁坑路自強巷1號","121.497573333333","24.9576366666667","6500600","新店區"
"241011","013-R5","2018/10/22 15:49:24","新北市三重區文化北路242號","121.497411666667","25.069735","6500200","三重區"
"241028","022-UY","2018/10/22 15:49:25","新北市三重區中正南路62號","121.494051666667","25.0595966666667","6500200","三重區"
"241008","059-VK","2018/10/22 15:49:26","新北市三重區重新路四段121號","121.485131666667","25.0523033333333","6500200","三重區"
"241022","060-VK","2018/10/22 15:49:23","新北市三重區三陽路170-1號","121.481113333333","25.058625","6500200","三重區"
"241015","062-VK","2018/10/22 15:49:24","新北市三重區重新路四段121號","121.485033333333","25.0523766666667","6500200","三重區"
"241024","065-VK","2018/10/22 15:49:34","新北市三重區重新路四段121號","121.48474","25.052385","6500200","三重區"
"241026","066-VK","2018/10/22 15:49:22","新北市三重區泉州街84巷20號","121.495873333333","25.0543816666667","6500200","三重區"
"241002","090-VK","2018/10/22 15:49:30","新北市三重區仁義街22號","121.499121666667","25.0773083333333","6500200","三重區"
"241003","091-VK","2018/10/22 15:49:28","新北市三重區慈愛街6號","121.484301666667","25.0784033333333","6500200","三重區"
"241005","262-UM","2018/10/22 15:49:23","新北市三重區河邊北街307號","121.5028","25.0748783333333","6500200","三重區"
"241012","265-UM","2018/10/22 15:49:35","新北市三重區文化北路83巷2-2號","121.498401666667","25.06696","6500200","三重區"
"241016","266-UM","2018/10/22 15:49:31","新北市三重區重新路四段121號","121.484808333333","25.0526433333333","6500200","三重區"
"241018","268-UM","2018/10/22 15:49:31","新北市三重區重新路四段121號","121.484865","25.0527783333333","6500200","三重區"
"241013","270-UM","2018/10/22 15:49:19","新北市三重區三和路三段40號","121.495985","25.0708283333333","6500200","三重區"
"241025","271-UM","2018/10/22 15:49:26","新北市三重區三陽路170-1號","121.481016666667","25.0587016666667","6500200","三重區"
"241004","475-VK","2018/10/22 15:49:19","新北市三重區重新路四段121號","121.485121666667","25.0523633333333","6500200","三重區"
"241020","478-VK","2018/10/22 15:49:29","新北市三重區忠孝路二段52號","121.485095","25.0703383333333","6500200","三重區"
"241014","543-UM","2018/10/22 15:49:34","新北市三重區重新路四段121號","121.485233333333","25.0522783333333","6500200","三重區"
"241023","545-UM","2018/10/22 15:49:19","新北市三重區忠孝路三段84巷16-1號","121.480745","25.0646883333333","6500200","三重區"
"241019","KEA-2593","2018/10/22 15:49:17","新北市三重區重新路四段121號","121.484435","25.0523916666667","6500200","三重區"
"241006","AAD-863","2018/10/22 15:49:18","新北市三重區重新路四段121號","121.484613333333","25.0525466666667","6500200","三重區"
"241007","743-BX","2018/10/22 15:49:19","新北市三重區重新路四段121號","121.48435","25.0521133333333","6500200","三重區"
"241009","887-TS","2018/10/22 15:49:35","新北市三重區重新路四段121號","121.48496","25.0524716666667","6500200","三重區"
"241029","942-UM","2018/10/22 15:49:27","新北市三重區大同南路242號","121.497003333333","25.0558916666667","6500200","三重區"
"241033","AAC-255","2018/10/22 15:49:35","新北市三重區光復路一段132號","121.472046666667","25.0521066666667","6500200","三重區"
"235033","4980-A6","2018/10/22 15:49:23","新北市中和區連城路469巷21弄3號","121.48395","24.99515","6500300","中和區"
"235018","640-BX","2018/10/22 15:49:28","新北市八里區中山路三段409號","121.368386666667","25.1349516666667","6500300","中和區"
"235026","800-TS","2018/10/22 15:49:37","新北市中和區永和路193號","121.491106666667","25.0074066666667","6500300","中和區"
"224007","275-VK","2018/10/22 15:49:23","新北市瑞芳區大寮路356-1號","121.784813333333","25.10324","6501200","瑞芳區"
"227001","642-TC","2018/10/22 15:49:36","新北市雙溪區平林里外平林44號","121.852965","25.036345","6502500","雙溪區"
"227008","400-TW","2018/10/22 15:49:15","新北市雙溪區牡丹里中正路65號","121.865325","25.0436166666667","6502500","雙溪區"
"236064","105-UM","2018/10/22 15:49:36","新北市土城區福安街30-1號","121.419463333333","24.96486","6501300","土城區"
"236074","166-UM","2018/10/22 15:49:35","新北市土城區福安街53號","121.418571666667","24.9644266666667","6501300","土城區"
"236024","269-VK","2018/10/22 15:49:34","新北市土城區裕生路82巷7號","121.44699","24.985795","6501300","土城區"
"236057","912-UM","2018/10/22 15:49:28","新北市土城區中央路二段70號","121.44251","24.9791066666667","6501300","土城區"
"236045","913-UM","2018/10/22 15:49:22","新北市土城區金城路三段17號","121.464876666667","24.9864516666667","6501300","土城區"
"236054","AAC-216","2018/10/22 15:49:22","新北市土城區中華路一段236號","121.439768333333","24.9798533333333","6501300","土城區"
"238002","755-BX","2018/10/22 15:49:21","新北市樹林區樹德街136巷15號","121.419643333333","24.9934433333333","6500700","樹林區"
"238010","601-UM","2018/10/22 15:49:22","新北市樹林區龍興街32巷35號","121.401876666667","25.0153083333333","6500700","樹林區"
"238006","599-UM","2018/10/22 15:49:36","新北市樹林區忠孝街101巷1號","121.424641666667","24.98105","6500700","樹林區"
"238005","571-TV","2018/10/22 15:49:38","新北市樹林區中華路49號","121.423533333333","24.9834566666667","6500700","樹林區"
"238011","5061-A6","2018/10/22 15:49:26","新北市樹林區山佳街57號","121.392905","24.97251","6500700","樹林區"
"238009","KEA-2213","2018/10/22 15:49:30","新北市樹林區太順街86巷26號","121.416568333333","24.9787766666667","6500700","樹林區"
"238008","KEA-2539","2018/10/22 15:49:30","新北市樹林區柑園街二段175號","121.380571666667","24.95292","6500700","樹林區"
"238012","303-VK","2018/10/22 15:49:23","新北市樹林區保安二街55號","121.424663333333","24.9944683333333","6500700","樹林區"
"238004","283-BY","2018/10/22 15:49:24","新北市樹林區保安街二段167巷26號","121.414261666667","25.0028266666667","6500700","樹林區"
"238001","282-BY","2018/10/22 15:49:29","新北市樹林區保安二街40巷18號","121.425656666667","24.9946633333333","6500700","樹林區"
"238007","268-VK","2018/10/22 15:49:22","新北市樹林區三俊街219號","121.421286666667","25.015005","6500700","樹林區"
"238013","172-UY","2018/10/22 15:49:27","新北市樹林區佳園路一段27號","121.392903333333","24.971045","6500700","樹林區"
"238003","169-UY","2018/10/22 15:49:35","新北市樹林區啟智街137巷1號","121.41722","24.9882916666667","6500700","樹林區"
"221010","269-BY","2018/10/22 15:34:05","新北市汐止區汐萬路一段256巷3號","121.652111666667","25.074735","6501100","汐止區"
"220028","200-UY","2018/10/22 15:48:40","新北市土城區自強街37號","121.433313333333","24.9736016666667","6500100","板橋區"
"220050","280-UM","2018/10/22 15:49:21","新北市板橋區民治街71巷60弄1號","121.48158","25.0340783333333","6500100","板橋區"
"220038","487-VK","2018/10/22 15:49:33","新北市板橋區長江路一段156巷9弄19號","121.461981666667","25.0303283333333","6500100","板橋區"
"235046","KEA-2876","2018/10/22 15:44:33","新北市中和區員山路36巷13號","121.484128333333","24.9908466666667","6500300","中和區"
