"lineid","car","time","location","longitude","latitude","cityid","cityname"
"248002","655-BX","2018/10/22 16:01:41","新北市五股區中興路二段83巷26-6號","121.459881666667","25.0753266666667","6501500","五股區"
"243012","646-TV","2018/10/22 15:54:03","新北市泰山區犁頭窠3-1號","121.421968333333","25.060415","6501600","泰山區"
"231046","107-UY","2018/10/22 16:19:26","新北市新店區灣潭路3-2號","121.53835","24.9508466666667","6500600","新店區"
"231018","278-BY","2018/10/22 16:19:27","新北市新店區溪園路47號","121.529451666667","24.9876933333333","6500600","新店區"
"241011","013-R5","2018/10/22 16:19:24","新北市三重區龍濱路285號","121.501111666667","25.0733766666667","6500200","三重區"
"241028","022-UY","2018/10/22 16:19:25","新北市三重區正義南路169號","121.49891","25.0575033333333","6500200","三重區"
"241008","059-VK","2018/10/22 16:19:26","新北市三重區力行路二段136巷45弄12號","121.479038333333","25.07537","6500200","三重區"
"241022","060-VK","2018/10/22 16:19:23","新北市三重區過圳街31巷2號","121.489008333333","25.060635","6500200","三重區"
"241031","061-VK","2018/10/22 16:19:34","新北市三重區重陽路一段58號","121.486603333333","25.0580633333333","6500200","三重區"
"241015","062-VK","2018/10/22 16:19:24","新北市三重區三和路一段12-1號","121.503523333333","25.0647633333333","6500200","三重區"
"241017","063-VK","2018/10/22 16:19:30","新北市三重區大同北路83號","121.494891666667","25.063565","6500200","三重區"
"241024","065-VK","2018/10/22 16:19:34","新北市三重區中正北路145巷1弄2號","121.48312","25.0675283333333","6500200","三重區"
"241026","066-VK","2018/10/22 16:19:22","新北市三重區正義南路67號","121.498293333333","25.060145","6500200","三重區"
"241002","090-VK","2018/10/22 16:19:30","新北市三重區仁義街91號","121.499595","25.07986","6500200","三重區"
"241003","091-VK","2018/10/22 16:19:28","新北市三重區五華街57巷10號","121.493198333333","25.0827716666667","6500200","三重區"
"241005","262-UM","2018/10/22 16:19:23","新北市三重區溪尾街300-2號","121.487506666667","25.0837166666667","6500200","三重區"
"241012","265-UM","2018/10/22 16:19:35","新北市三重區河邊北街317號","121.502403333333","25.0749033333333","6500200","三重區"
"241016","266-UM","2018/10/22 16:19:31","新北市三重區大仁街94號","121.492913333333","25.0655266666667","6500200","三重區"
"241018","268-UM","2018/10/22 16:19:31","新北市三重區重陽路三段43號","121.48951","25.0670083333333","6500200","三重區"
"241032","269-UM","2018/10/22 16:19:31","新北市三重區三陽路100巷3弄13號","121.48303","25.0580216666667","6500200","三重區"
"241013","270-UM","2018/10/22 16:19:39","新北市三重區三和路三段83巷56號","121.496673333333","25.0727866666667","6500200","三重區"
"241025","271-UM","2018/10/22 16:19:26","新北市三重區中正北路560巷100弄2號","121.47263","25.0682516666667","6500200","三重區"
"241004","475-VK","2018/10/22 16:19:19","新北市三重區自強路五段33-1號","121.493706666667","25.0810883333333","6500200","三重區"
"241020","478-VK","2018/10/22 16:19:29","新北市三重區車路頭街35號","121.483846666667","25.07135","6500200","三重區"
"241030","480-VK","2018/10/22 16:19:34","新北市三重區重新路四段121號","121.485083333333","25.052435","6500200","三重區"
"241014","543-UM","2018/10/22 16:19:34","新北市三重區河邊北街96-1號","121.504063333333","25.0699083333333","6500200","三重區"
"241023","545-UM","2018/10/22 16:19:19","新北市三重區忠孝路二段138號","121.482565","25.068185","6500200","三重區"
"241001","547-UM","2018/10/22 16:19:25","新北市三重區仁政街159號","121.49129","25.079565","6500200","三重區"
"241019","KEA-2593","2018/10/22 16:19:37","新北市三重區自強路二段69號","121.488808333333","25.06993","6500200","三重區"
"241006","AAD-863","2018/10/22 16:19:18","新北市三重區永福街46巷41弄13號","121.481845","25.0771366666667","6500200","三重區"
"241007","743-BX","2018/10/22 16:18:59","新北市三重區三和路四段163巷74號","121.486865","25.0798083333333","6500200","三重區"
"241009","887-TS","2018/10/22 16:19:35","新北市三重區溪尾街196巷17號","121.48772","25.08081","6500200","三重區"
"241029","942-UM","2018/10/22 16:19:27","新北市三重區重安街141號","121.495521666667","25.0546616666667","6500200","三重區"
"241033","AAC-255","2018/10/22 16:19:35","新北市三重區重新路五段442號","121.474835","25.0470883333333","6500200","三重區"
"235026","800-TS","2018/10/22 16:19:24","新北市中和區建八路125巷6弄7號","121.490003333333","24.9991466666667","6500300","中和區"
"224007","275-VK","2018/10/22 16:19:23","新北市瑞芳區大埔路108號","121.762363333333","25.101935","6501200","瑞芳區"
"224005","271-BY","2018/10/22 16:19:33","新北市瑞芳區中正路2號","121.809216666667","25.1068616666667","6501200","瑞芳區"
"227001","642-TC","2018/10/22 16:19:36","新北市雙溪區上林里內平林80號","121.82828","25.0279216666667","6502500","雙溪區"
"227008","400-TW","2018/10/22 16:19:35","新北市雙溪區三港里雙澳路80號","121.883793333333","25.0538866666667","6502500","雙溪區"
"251013","KEA-2871","2018/10/22 16:19:28","新北市淡水區北新路三段162號","121.492391666667","25.1915216666667","6501000","淡水區"
"251008","181-VK","2018/10/22 16:19:25","新北市淡水區中正東路二段48巷20號","121.457308333333","25.1583833333333","6501000","淡水區"
"238002","755-BX","2018/10/22 16:19:21","新北市樹林區中山路二段249巷1號","121.401946666667","24.97598","6500700","樹林區"
"238006","599-UM","2018/10/22 16:19:36","新北市樹林區東華街73號","121.415585","24.9809366666667","6500700","樹林區"
"238025","303-VK","2018/10/22 16:18:22","新北市樹林區中正路22-1號","121.427851666667","24.9994316666667","6500700","樹林區"
"238004","283-BY","2018/10/22 16:19:24","新北市樹林區中正路433-2號","121.414705","25.0083783333333","6500700","樹林區"
"238001","282-BY","2018/10/22 16:19:29","新北市樹林區中正路22-1號","121.427763333333","24.9994616666667","6500700","樹林區"
"238007","268-VK","2018/10/22 16:19:21","新北市樹林區三龍街80巷12號","121.413948333333","25.0180966666667","6500700","樹林區"
"238013","172-UY","2018/10/22 16:19:27","新北市樹林區育德街78-1號","121.38757","24.968165","6500700","樹林區"
"238003","169-UY","2018/10/22 16:19:31","新北市樹林區中洲街30巷13弄15號","121.398085","24.9720366666667","6500700","樹林區"
"220050","280-UM","2018/10/22 16:19:20","新北市八里區中山路三段382號","121.3687","25.1358866666667","6500100","板橋區"
