"lineid","car","time","location","longitude","latitude","cityid","cityname"
"249005","172-UM","2018/10/22 16:39:28","新北市八里區仁愛路10號","121.413268333333","25.1623283333333","6502300","八里區"
"249001","173-UM","2018/10/22 16:39:26","新北市八里區挖子尾街12號","121.415361666667","25.1642266666667","6502300","八里區"
"244019","403-UM","2018/10/22 16:39:31","新北市林口區粉寮路二段88巷100-12號","121.409658333333","25.0901483333333","6501700","林口區"
"231046","107-UY","2018/10/22 16:39:27","新北市新店區灣潭路70號","121.538531666667","24.94186","6500600","新店區"
"241011","013-R5","2018/10/22 16:39:24","新北市三重區仁愛街43巷12號","121.49723","25.0718083333333","6500200","三重區"
"241028","022-UY","2018/10/22 16:39:25","新北市三重區重新路三段40號","121.494401666667","25.0613866666667","6500200","三重區"
"241008","059-VK","2018/10/22 16:39:38","新北市三重區永安北路一段27巷11號","121.476935","25.075535","6500200","三重區"
"241022","060-VK","2018/10/22 16:39:23","新北市三重區三民街89號","121.485513333333","25.0631116666667","6500200","三重區"
"241031","061-VK","2018/10/22 16:39:34","新北市三重區重新路四段39-7號","121.487878333333","25.0577883333333","6500200","三重區"
"241015","062-VK","2018/10/22 16:39:24","新北市三重區文化北路41號","121.498923333333","25.065155","6500200","三重區"
"241017","063-VK","2018/10/22 16:39:30","新北市三重區中正北路25巷9號","121.492715","25.0621316666667","6500200","三重區"
"241024","065-VK","2018/10/22 16:39:34","新北市三重區中正北路315巷6弄64號","121.476118333333","25.0724366666667","6500200","三重區"
"241026","066-VK","2018/10/22 16:39:22","新北市三重區和平街39號","121.501493333333","25.0625233333333","6500200","三重區"
"241002","090-VK","2018/10/22 16:39:30","新北市三重區仁義街241巷26號","121.496961666667","25.083","6500200","三重區"
"241003","091-VK","2018/10/22 16:39:28","新北市三重區五華街71巷46號","121.493355","25.0833466666667","6500200","三重區"
"251014","742-BX","2018/10/22 16:39:20","新北市淡水區新市二路三段20號","121.431483333333","25.1923833333333","6501000","淡水區"
"241005","262-UM","2018/10/22 16:39:23","新北市三重區仁華街122號","121.486265","25.0831116666667","6500200","三重區"
"241012","265-UM","2018/10/22 16:39:35","新北市三重區仁興街4巷9號","121.499636666667","25.0737433333333","6500200","三重區"
"241016","266-UM","2018/10/22 16:39:37","新北市三重區大智街5號","121.494803333333","25.06498","6500200","三重區"
"241018","268-UM","2018/10/22 16:39:31","新北市三重區正義北路338巷50號","121.493071666667","25.0702616666667","6500200","三重區"
"241032","269-UM","2018/10/22 16:39:31","新北市三重區新北大道一段117號","121.483453333333","25.06144","6500200","三重區"
"241013","270-UM","2018/10/22 16:39:39","新北市三重區三和路三段101巷68號","121.496356666667","25.0730933333333","6500200","三重區"
"241025","271-UM","2018/10/22 16:39:26","新北市三重區中正北路428巷13號","121.474521666667","25.0701433333333","6500200","三重區"
"241004","475-VK","2018/10/22 16:39:19","新北市三重區五福街34號","121.492351666667","25.08104","6500200","三重區"
"241020","478-VK","2018/10/22 16:39:29","新北市三重區自強路三段8巷28號","121.486125","25.07161","6500200","三重區"
"241030","480-VK","2018/10/22 16:39:34","新北市三重區環河南路286號","121.488988333333","25.0489","6500200","三重區"
"241014","543-UM","2018/10/22 16:39:34","新北市三重區龍濱路32號","121.502866666667","25.06811","6500200","三重區"
"241023","545-UM","2018/10/22 16:39:39","新北市三重區忠孝路三段50巷45號","121.482888333333","25.0643433333333","6500200","三重區"
"241001","547-UM","2018/10/22 16:39:27","新北市三重區仁愛街202號","121.493845","25.0773933333333","6500200","三重區"
"241019","KEA-2593","2018/10/22 16:39:37","新北市三重區力行路一段81號","121.486783333333","25.0677483333333","6500200","三重區"
"241006","AAD-863","2018/10/22 16:39:38","新北市三重區力行路二段162巷3號","121.482748333333","25.0766083333333","6500200","三重區"
"241007","743-BX","2018/10/22 16:39:19","新北市三重區三和路四段167巷63號","121.485761666667","25.0796083333333","6500200","三重區"
"241009","887-TS","2018/10/22 16:39:35","新北市三重區三和路四段203巷84號","121.483936666667","25.0800216666667","6500200","三重區"
"241029","942-UM","2018/10/22 16:39:27","新北市三重區集美街156號","121.489678333333","25.0530333333333","6500200","三重區"
"241033","AAC-255","2018/10/22 16:39:35","新北市三重區光復路二段41號","121.472156666667","25.0553316666667","6500200","三重區"
"247010","056-VK","2018/10/22 16:39:33","新北市五股區中興路三段163號","121.449391666667","25.080315","6501400","蘆洲區"
"247004","002-UY","2018/10/22 16:39:38","新北市五股區凌雲路一段36號","121.451933333333","25.1007116666667","6501400","蘆洲區"
"247022","001-UY","2018/10/22 16:39:38","新北市五股區中興路三段2巷10號","121.449496666667","25.0808883333333","6501400","蘆洲區"
"224007","275-VK","2018/10/22 16:39:23","新北市瑞芳區瑞竹路161號","121.760271666667","25.10433","6501200","瑞芳區"
"224005","271-BY","2018/10/22 16:39:33","新北市瑞芳區籠山路214-1號","121.855621666667","25.1243416666667","6501200","瑞芳區"
"227001","642-TC","2018/10/22 16:39:36","新北市雙溪區外柑里外柑腳58號","121.807898333333","25.0178516666667","6502500","雙溪區"
"227008","400-TW","2018/10/22 16:39:35","新北市雙溪區牡丹里中正路67號","121.864726666667","25.04388","6502500","雙溪區"
"251013","KEA-2871","2018/10/22 16:39:28","新北市淡水區楓樹湖13號","121.498851666667","25.18769","6501000","淡水區"
"251008","181-VK","2018/10/22 16:39:25","新北市淡水區民生路169號","121.470218333333","25.142635","6501000","淡水區"
"251012","441-VK","2018/10/22 16:39:18","新北市淡水區中正路二段31號","121.41965","25.1815516666667","6501000","淡水區"
"252002","178-VK","2018/10/22 16:39:29","新北市三芝區芝柏路95號","121.51088","25.2574383333333","6502100","三芝區"
"238002","755-BX","2018/10/22 16:35:04","新北市樹林區育德街78-1號","121.387616666667","24.968145","6500700","樹林區"
"238025","303-VK","2018/10/22 16:18:22","新北市樹林區中正路22-1號","121.427851666667","24.9994316666667","6500700","樹林區"
"238004","283-BY","2018/10/22 16:39:24","新北市樹林區中正路433-2號","121.414705","25.00847","6500700","樹林區"
"238001","282-BY","2018/10/22 16:39:29","新北市樹林區中正路22-1號","121.427733333333","24.9995433333333","6500700","樹林區"
"238007","268-VK","2018/10/22 16:39:22","新北市樹林區大安路116號","121.421363333333","24.9967183333333","6500700","樹林區"
"239007","AAC-297","2018/10/22 16:39:33","新北市鶯歌區二甲路13-16號","121.345006666667","24.9349933333333","6500800","鶯歌區"
"220050","280-UM","2018/10/22 16:39:20","新北市板橋區長江路三段113號","121.474081666667","25.0370883333333","6500100","板橋區"
