"lineid","car","time","location","longitude","latitude","cityid","cityname"
"249005","172-UM","2018/10/22 16:59:28","新北市八里區渡船頭2號","121.434083333333","25.15178","6502300","八里區"
"249001","173-UM","2018/10/22 16:59:26","新北市八里區中山路三段110號","121.390585","25.1420383333333","6502300","八里區"
"249004","303-UY","2018/10/22 16:59:33","新北市八里區忠孝路439號","121.414015","25.1616716666667","6502300","八里區"
"249002","305-UY","2018/10/22 16:59:30","新北市八里區牛寮埔11號","121.432786666667","25.14255","6502300","八里區"
"249003","593-UM","2018/10/22 16:59:30","新北市八里區中山路二段398號","121.400528333333","25.14774","6502300","八里區"
"244023","069-UM","2018/10/22 16:59:24","新北市林口區粉寮路二段46號","121.40349","25.0869383333333","6501700","林口區"
"244019","403-UM","2018/10/22 16:59:31","新北市林口區中山路152號","121.39107","25.07874","6501700","林口區"
"244017","485-VK","2018/10/22 16:59:36","新北市林口區粉寮路二段88巷100-12號","121.409746666667","25.090215","6501700","林口區"
"244009","656-BX","2018/10/22 16:59:37","新北市林口區粉寮路15-3號","121.398258333333","25.080555","6501700","林口區"
"244025","837-TS","2018/10/22 16:59:36","新北市林口區粉寮路二段88巷100-6號","121.40869","25.0901416666667","6501700","林口區"
"244021","838-TS","2018/10/22 16:59:26","新北市林口區粉寮62號","121.4073","25.0894883333333","6501700","林口區"
"231046","107-UY","2018/10/22 16:59:26","新北市新店區永業路121號","121.528798333333","24.9454333333333","6500600","新店區"
"241011","013-R5","2018/10/22 16:59:24","新北市三重區公園街15號","121.49933","25.07292","6500200","三重區"
"241028","022-UY","2018/10/22 16:59:25","新北市三重區中正南路54號","121.493956666667","25.0598766666667","6500200","三重區"
"241008","059-VK","2018/10/22 16:59:26","新北市三重區永福街179巷42號","121.477386666667","25.0747233333333","6500200","三重區"
"241022","060-VK","2018/10/22 16:59:23","新北市三重區中華路75巷6號","121.483923333333","25.0626366666667","6500200","三重區"
"241031","061-VK","2018/10/22 16:59:35","新北市三重區重新路三段115巷10號","121.49037","25.060265","6500200","三重區"
"241015","062-VK","2018/10/22 16:59:31","新北市三重區三和路二段1號","121.501701666667","25.06647","6500200","三重區"
"241017","063-VK","2018/10/22 16:59:30","新北市三重區國隆路12巷9號","121.492503333333","25.0636616666667","6500200","三重區"
"241024","065-VK","2018/10/22 16:59:34","新北市三重區力行路二段2號","121.481941666667","25.07201","6500200","三重區"
"241026","066-VK","2018/10/22 16:59:22","新北市三重區光興街5號","121.500145","25.060445","6500200","三重區"
"241002","090-VK","2018/10/22 16:59:30","新北市三重區仁義街202號","121.496523333333","25.0821","6500200","三重區"
"241003","091-VK","2018/10/22 16:59:28","新北市三重區五華街141巷60號","121.49352","25.08678","6500200","三重區"
"251014","742-BX","2018/10/22 16:59:20","新北市淡水區淡金路四段472巷24號","121.452903333333","25.2240233333333","6501000","淡水區"
"241005","262-UM","2018/10/22 16:59:35","新北市三重區仁華街82號","121.485285","25.0831216666667","6500200","三重區"
"241012","265-UM","2018/10/22 16:59:35","新北市三重區仁和街86號","121.499318333333","25.0745766666667","6500200","三重區"
"241016","266-UM","2018/10/22 16:59:31","新北市三重區大同北路83號","121.494938333333","25.06369","6500200","三重區"
"241018","268-UM","2018/10/22 16:59:33","新北市三重區六張街126巷16號","121.492515","25.0686466666667","6500200","三重區"
"241032","269-UM","2018/10/22 16:59:31","新北市三重區三光街3號","121.485041666667","25.060835","6500200","三重區"
"241013","270-UM","2018/10/22 16:59:19","新北市三重區公園街30號","121.49866","25.0743416666667","6500200","三重區"
"241025","271-UM","2018/10/22 16:59:39","新北市三重區中正北路510號","121.472595","25.0714933333333","6500200","三重區"
"241004","475-VK","2018/10/22 16:59:19","新北市三重區五華街92巷9號","121.492191666667","25.08199","6500200","三重區"
"241020","478-VK","2018/10/22 16:59:35","新北市三重區後竹圍街175巷20號","121.485608333333","25.0727083333333","6500200","三重區"
"241030","480-VK","2018/10/22 16:59:34","新北市三重區昌隆街61號","121.491078333333","25.0511083333333","6500200","三重區"
"241014","543-UM","2018/10/22 16:59:34","新北市三重區三和路二段173巷149號","121.501195","25.07076","6500200","三重區"
"241023","545-UM","2018/10/22 16:59:22","新北市三重區中華路63號","121.48352","25.062365","6500200","三重區"
"241001","547-UM","2018/10/22 16:59:27","新北市三重區仁政街11號","121.49343","25.0764366666667","6500200","三重區"
"241019","KEA-2593","2018/10/22 16:59:37","新北市三重區三張街104號","121.487921666667","25.069955","6500200","三重區"
"241006","AAD-863","2018/10/22 16:59:18","新北市三重區力行路二段123巷14號","121.483785","25.0764133333333","6500200","三重區"
"241007","743-BX","2018/10/22 16:56:39","新北市三重區三和路四段181巷218號","121.487246666667","25.0804583333333","6500200","三重區"
"241009","887-TS","2018/10/22 16:59:34","新北市三重區仁美街108巷8號","121.485306666667","25.0806383333333","6500200","三重區"
"241029","942-UM","2018/10/22 16:59:27","新北市三重區重安街83號","121.492516666667","25.055785","6500200","三重區"
"241033","AAC-255","2018/10/22 16:59:35","新北市三重區中興北街271號","121.469161666667","25.0606316666667","6500200","三重區"
"247002","893-R6","2018/10/22 16:59:36","新北市蘆洲區永平街16號","121.459203333333","25.0906233333333","6501400","蘆洲區"
"247016","546-UM","2018/10/22 16:59:34","新北市蘆洲區正和街20號","121.469998333333","25.0823383333333","6501400","蘆洲區"
"247024","500-BY","2018/10/22 16:59:35","新北市蘆洲區長興路255號","121.460513333333","25.0874966666667","6501400","蘆洲區"
"247014","339-TH","2018/10/22 16:59:24","新北市蘆洲區三民路81-5號","121.474368333333","25.08386","6501400","蘆洲區"
"247006","337-TH","2018/10/22 16:59:29","新北市蘆洲區長安街99巷31號","121.460776666667","25.0797383333333","6501400","蘆洲區"
"247008","336-TH","2018/10/22 16:59:30","新北市蘆洲區信義路60號","121.475666666667","25.0795733333333","6501400","蘆洲區"
"247020","057-VK","2018/10/22 16:59:27","新北市蘆洲區民族路422巷82弄14號","121.473961666667","25.09385","6501400","蘆洲區"
"247010","056-VK","2018/10/22 16:59:33","新北市蘆洲區信義路201號","121.479033333333","25.0832216666667","6501400","蘆洲區"
"247018","007-UY","2018/10/22 16:59:22","新北市蘆洲區民族路227巷20號","121.476845","25.0892166666667","6501400","蘆洲區"
"247004","002-UY","2018/10/22 16:59:35","新北市蘆洲區長安街110號","121.460991666667","25.0816033333333","6501400","蘆洲區"
"247022","001-UY","2018/10/22 16:59:38","新北市蘆洲區三民路128巷166-1號","121.468401666667","25.0925","6501400","蘆洲區"
"228002","585-TW","2018/10/22 16:59:33","新北市貢寮區貢寮里長泰路28號","121.901533333333","25.0240816666667","6502600","貢寮區"
"228001","670-TC","2018/10/22 16:59:24","新北市貢寮區貢寮里朝陽街1-2號","121.912283333333","25.0212533333333","6502600","貢寮區"
"224006","676-BX","2018/10/22 16:59:30","新北市瑞芳區大寮路20號","121.783353333333","25.099235","6501200","瑞芳區"
"224008","285-BY","2018/10/22 16:59:35","新北市瑞芳區明燈路一段229號","121.817946666667","25.1081733333333","6501200","瑞芳區"
"224007","275-VK","2018/10/22 16:59:23","新北市瑞芳區頂埔巷19號","121.765895","25.1030016666667","6501200","瑞芳區"
"224009","273-VK","2018/10/22 16:59:38","新北市瑞芳區濱二路28-2號","121.840656666667","25.1142333333333","6501200","瑞芳區"
"224005","271-BY","2018/10/22 16:59:33","新北市瑞芳區明里路4號","121.868705","25.1210283333333","6501200","瑞芳區"
"227001","642-TC","2018/10/22 16:59:36","新北市雙溪區長源里柑腳41-2號","121.801856666667","25.0127566666667","6502500","雙溪區"
"227008","400-TW","2018/10/22 16:59:36","新北市雙溪區牡丹里聖南14號","121.85822","25.0527183333333","6502500","雙溪區"
"251005","010-UM","2018/10/22 16:59:32","新北市淡水區水源街一段85-1號","121.445213333333","25.1722966666667","6501000","淡水區"
"251013","KEA-2871","2018/10/22 16:59:28","新北市淡水區泉洲厝32號","121.489316666667","25.1925716666667","6501000","淡水區"
"251016","179-VK","2018/10/22 16:59:28","新北市淡水區瓦坑6-1號","121.477641666667","25.1811666666667","6501000","淡水區"
"251015","180-VK","2018/10/22 16:59:40","新北市淡水區忠愛街9-1號","121.45676","25.17442","6501000","淡水區"
"251008","181-VK","2018/10/22 16:59:25","新北市淡水區樹梅坑9號","121.472758333333","25.142685","6501000","淡水區"
"251010","413-VK","2018/10/22 16:59:34","新北市淡水區中正路二段31號","121.419471666667","25.1814916666667","6501000","淡水區"
"251012","441-VK","2018/10/22 16:59:18","新北市淡水區新民街一段57號","121.432915","25.18364","6501000","淡水區"
"251006","561-UM","2018/10/22 16:59:29","新北市淡水區中正路一段3號","121.426653333333","25.17612","6501000","淡水區"
"251009","575-R6","2018/10/22 16:59:32","新北市淡水區中正路一段85號","121.422436666667","25.1788566666667","6501000","淡水區"
"251007","577-R6","2018/10/22 16:59:35","新北市淡水區中正東路一段105巷7號","121.453146666667","25.160865","6501000","淡水區"
"251011","650-BX","2018/10/22 16:59:32","新北市淡水區中山路30號","121.444275","25.1697666666667","6501000","淡水區"
"252002","178-VK","2018/10/22 16:59:29","新北市三芝區忠孝街170號","121.506228333333","25.2590966666667","6502100","三芝區"
"252001","292-VK","2018/10/22 16:59:27","新北市三芝區淡金路二段47-2號","121.50362","25.2605683333333","6502100","三芝區"
"242056","751-BX","2018/10/22 16:59:22","新北市新莊區新泰路255巷83號","121.44226","25.0386883333333","6500500","新莊區"
"242029","612-BX","2018/10/22 16:59:19","新北市新莊區新泰路255巷83號","121.442178333333","25.039085","6500500","新莊區"
"242044","566-BX","2018/10/22 16:59:24","新北市新莊區三和路12-21號","121.442206666667","25.0385016666667","6500500","新莊區"
"242048","497-BY","2018/10/22 16:59:19","新北市新莊區新泰路357巷3弄57號","121.442175","25.0395416666667","6500500","新莊區"
"242015","442-UM","2018/10/22 16:59:27","新北市新莊區三和路12-21號","121.442016666667","25.0386433333333","6500500","新莊區"
"242046","400-BY","2018/10/22 16:59:20","新北市新莊區新泰路357巷3弄57號","121.44222","25.0396383333333","6500500","新莊區"
"242023","362-BY","2018/10/22 16:59:34","新北市新莊區新泰路357巷3弄57號","121.442006666667","25.03908","6500500","新莊區"
"242060","353-BY","2018/10/22 16:59:24","新北市新莊區新泰路357巷3弄57號","121.44199","25.0390333333333","6500500","新莊區"
"242042","133-UY","2018/10/22 16:59:28","新北市新莊區三和路12-21號","121.442061666667","25.0387183333333","6500500","新莊區"
"242017","346-TH","2018/10/22 16:59:35","新北市新莊區三和路12-21號","121.442228333333","25.03813","6500500","新莊區"
"242031","348-TH","2018/10/22 16:59:33","新北市新莊區新泰路357巷3弄57號","121.442086666667","25.0395533333333","6500500","新莊區"
"238002","755-BX","2018/10/22 16:35:04","新北市樹林區育德街78-1號","121.387616666667","24.968145","6500700","樹林區"
"238005","571-TV","2018/10/22 16:59:40","新北市樹林區八德街1160號","121.39053","24.968345","6500700","樹林區"
"238022","KEA-2213","2018/10/22 16:59:29","新北市樹林區八德街263-1號","121.419288333333","24.973825","6500700","樹林區"
"238004","283-BY","2018/10/22 16:59:24","新北市樹林區中正路433-2號","121.414726666667","25.0082233333333","6500700","樹林區"
"238001","282-BY","2018/10/22 16:59:29","新北市樹林區中正路22-1號","121.427738333333","24.999475","6500700","樹林區"
"238020","268-VK","2018/10/22 16:59:21","新北市樹林區中山路三段214號","121.379778333333","24.9676716666667","6500700","樹林區"
"239007","AAC-297","2018/10/22 16:59:33","新北市鶯歌區二甲路12-2號","121.345648333333","24.9349783333333","6500800","鶯歌區"
"239005","526-UM","2018/10/22 16:59:29","新北市鶯歌區永和街63巷8號","121.332851666667","24.9680933333333","6500800","鶯歌區"
"239001","417-VK","2018/10/22 16:59:25","新北市鶯歌區二甲路12-2號","121.345665","24.9350366666667","6500800","鶯歌區"
"239003","360-BY","2018/10/22 16:59:25","新北市鶯歌區二甲路12-2號","121.345518333333","24.93498","6500800","鶯歌區"
