"lineid","car","time","location","longitude","latitude","cityid","cityname"
"249005","172-UM","2018/10/22 17:09:28","新北市八里區華富山3-1號","121.416165","25.146055","6502300","八里區"
"249001","173-UM","2018/10/22 17:09:26","新北市八里區中華路二段201-27號","121.406141666667","25.1501916666667","6502300","八里區"
"249004","303-UY","2018/10/22 17:09:33","新北市八里區忠孝路175號","121.423121666667","25.160775","6502300","八里區"
"249002","305-UY","2018/10/22 17:09:30","新北市八里區米倉14-6號","121.439396666667","25.1499383333333","6502300","八里區"
"249003","593-UM","2018/10/22 17:09:30","新北市八里區訊塘路96號","121.397538333333","25.1465","6502300","八里區"
"244023","069-UM","2018/10/22 17:09:24","新北市林口區仁愛路一段619號","121.389901666667","25.0766283333333","6501700","林口區"
"244007","080-UY","2018/10/22 17:09:30","新北市林口區菁埔25-2號","121.376973333333","25.0961083333333","6501700","林口區"
"244019","403-UM","2018/10/22 17:09:31","新北市林口區四維路156號","121.380525","25.0755266666667","6501700","林口區"
"244013","KEA-2802","2018/10/22 17:09:22","新北市林口區粉寮路二段88巷100-12號","121.409575","25.09023","6501700","林口區"
"244017","485-VK","2018/10/22 17:09:36","新北市林口區粉寮路二段88巷100-12號","121.40975","25.09023","6501700","林口區"
"244009","656-BX","2018/10/22 17:09:37","新北市林口區文化三路二段798號","121.381426666667","25.088675","6501700","林口區"
"244011","701-TV","2018/10/22 17:09:37","新北市林口區粉寮路二段88巷22-1號","121.40623","25.0884716666667","6501700","林口區"
"244025","837-TS","2018/10/22 17:09:36","新北市林口區中山路248-1號","121.386208333333","25.0793983333333","6501700","林口區"
"244021","838-TS","2018/10/22 17:09:26","新北市林口區粉寮路60-7號","121.405696666667","25.088505","6501700","林口區"
"231046","107-UY","2018/10/22 17:09:26","新北市新店區直潭路92號","121.530905","24.9376166666667","6500600","新店區"
"241011","013-R5","2018/10/22 17:09:24","新北市三重區龍門路218號","121.500206666667","25.0735383333333","6500200","三重區"
"241028","022-UY","2018/10/22 17:09:25","新北市三重區重新路三段108號","121.492331666667","25.0604183333333","6500200","三重區"
"241008","059-VK","2018/10/22 17:09:32","新北市三重區力行路二段136巷21號","121.481525","25.07558","6500200","三重區"
"241022","060-VK","2018/10/22 17:09:23","新北市三重區重陽路二段16號","121.486671666667","25.0623533333333","6500200","三重區"
"241015","062-VK","2018/10/22 17:09:24","新北市三重區長生街20號","121.499366666667","25.0664116666667","6500200","三重區"
"241017","063-VK","2018/10/22 17:09:30","新北市三重區明志街29號","121.492115","25.0641183333333","6500200","三重區"
"241024","065-VK","2018/10/22 17:09:34","新北市三重區大勇街82巷9號","121.479428333333","25.0715866666667","6500200","三重區"
"241026","066-VK","2018/10/22 17:09:22","新北市三重區重新路一段43號","121.502358333333","25.0639216666667","6500200","三重區"
"241002","090-VK","2018/10/22 17:09:30","新北市三重區五華街37號","121.49471","25.0810233333333","6500200","三重區"
"241003","091-VK","2018/10/22 17:09:28","新北市三重區仁義街248號","121.493856666667","25.085925","6500200","三重區"
"251014","742-BX","2018/10/22 17:09:20","新北市淡水區八里堆7-6號","121.46095","25.2246016666667","6501000","淡水區"
"241005","262-UM","2018/10/22 17:09:23","新北市三重區碧華街50號","121.483461666667","25.0812683333333","6500200","三重區"
"241012","265-UM","2018/10/22 17:09:35","新北市三重區仁信街21號","121.501396666667","25.07561","6500200","三重區"
"241016","266-UM","2018/10/22 17:09:31","新北市三重區大仁街78號","121.492523333333","25.0652616666667","6500200","三重區"
"241018","268-UM","2018/10/22 17:09:31","新北市三重區大智街109號","121.49169","25.06941","6500200","三重區"
"241032","269-UM","2018/10/22 17:09:31","新北市三重區重陽路一段80號","121.486656666667","25.0590166666667","6500200","三重區"
"241013","270-UM","2018/10/22 17:09:39","新北市三重區仁昌街33號","121.49653","25.074055","6500200","三重區"
"241025","271-UM","2018/10/22 17:09:26","新北市三重區中正北路560巷47號","121.470916666667","25.0702333333333","6500200","三重區"
"241004","475-VK","2018/10/22 17:09:39","新北市三重區五華街98巷12號","121.491538333333","25.0817566666667","6500200","三重區"
"241020","478-VK","2018/10/22 17:09:35","新北市三重區自強路三段18號","121.486851666667","25.0721866666667","6500200","三重區"
"241030","480-VK","2018/10/22 17:09:34","新北市三重區集成路21號","121.48883","25.05231","6500200","三重區"
"241014","543-UM","2018/10/22 17:09:34","新北市三重區龍濱路130-1號","121.501671666667","25.071755","6500200","三重區"
"241023","545-UM","2018/10/22 17:09:39","新北市三重區忠孝路三段84巷1號","121.480256666667","25.064605","6500200","三重區"
"241001","547-UM","2018/10/22 17:09:27","新北市三重區仁愛街255巷42-1號","121.494105","25.0788783333333","6500200","三重區"
"241019","KEA-2593","2018/10/22 17:09:37","新北市三重區自強路二段74巷73號","121.487025","25.0693333333333","6500200","三重區"
"241006","AAD-863","2018/10/22 17:09:38","新北市三重區三和路四段218巷25號","121.485026666667","25.0762933333333","6500200","三重區"
"241007","743-BX","2018/10/22 16:56:39","新北市三重區三和路四段181巷218號","121.487246666667","25.0804583333333","6500200","三重區"
"241009","887-TS","2018/10/22 17:09:35","新北市三重區三和路四段215巷14號","121.482293333333","25.0799433333333","6500200","三重區"
"241029","942-UM","2018/10/22 17:09:27","新北市三重區重安街28號","121.49057","25.0579133333333","6500200","三重區"
"241033","AAC-255","2018/10/22 17:09:35","新北市三重區中興北街271號","121.469136666667","25.0605866666667","6500200","三重區"
"247012","KEA-2869","2018/10/22 17:09:33","新北市蘆洲區信義路292巷7號","121.478016666667","25.087735","6501400","蘆洲區"
"247002","893-R6","2018/10/22 17:09:36","新北市蘆洲區永樂街46號","121.457728333333","25.0884966666667","6501400","蘆洲區"
"247016","546-UM","2018/10/22 17:09:34","新北市蘆洲區光華路73巷7號","121.468385","25.082395","6501400","蘆洲區"
"247024","500-BY","2018/10/22 17:09:35","新北市蘆洲區長興路71號","121.46238","25.0847183333333","6501400","蘆洲區"
"247014","339-TH","2018/10/22 17:09:24","新北市蘆洲區得勝街83號","121.47359","25.08381","6501400","蘆洲區"
"247006","337-TH","2018/10/22 17:09:29","新北市蘆洲區長榮路39-1號","121.4628","25.0825","6501400","蘆洲區"
"247008","336-TH","2018/10/22 17:09:30","新北市蘆洲區信義路30巷112號","121.475138333333","25.0770333333333","6501400","蘆洲區"
"247020","057-VK","2018/10/22 17:09:27","新北市蘆洲區民族路422巷128號","121.472453333333","25.0943416666667","6501400","蘆洲區"
"247010","056-VK","2018/10/22 17:09:33","新北市蘆洲區民族路20號","121.47601","25.084175","6501400","蘆洲區"
"247018","007-UY","2018/10/22 17:09:22","新北市蘆洲區復興路87巷8號","121.476305","25.0877483333333","6501400","蘆洲區"
"247004","002-UY","2018/10/22 17:09:38","新北市蘆洲區長安街191號","121.460256666667","25.0818566666667","6501400","蘆洲區"
"247022","001-UY","2018/10/22 17:09:38","新北市蘆洲區民族路514號","121.469181666667","25.0901133333333","6501400","蘆洲區"
"228003","097-TW","2018/10/22 17:09:26","新北市貢寮區福隆里東興街66號","121.948063333333","25.0175116666667","6502600","貢寮區"
"228002","585-TW","2018/10/22 17:09:33","新北市貢寮區貢寮里長泰路14號","121.907458333333","25.0195166666667","6502600","貢寮區"
"228001","670-TC","2018/10/22 17:09:24","新北市貢寮區仁理村尖山腳街20號","121.92495","25.0468216666667","6502600","貢寮區"
"224006","676-BX","2018/10/22 17:09:27","新北市瑞芳區大寮路91號","121.780848333333","25.0975833333333","6501200","瑞芳區"
"224008","285-BY","2018/10/22 17:09:35","新北市瑞芳區侯硐路111-1號","121.831015","25.0896116666667","6501200","瑞芳區"
"224007","275-VK","2018/10/22 17:09:23","新北市瑞芳區楓子瀨路76號","121.762636666667","25.0985166666667","6501200","瑞芳區"
"224009","273-VK","2018/10/22 17:09:38","新北市瑞芳區輕便路28號","121.84367","25.1104433333333","6501200","瑞芳區"
"224005","271-BY","2018/10/22 17:09:33","新北市瑞芳區鼻頭路247號","121.906871666667","25.12105","6501200","瑞芳區"
"227001","642-TC","2018/10/22 17:09:36","新北市雙溪區外柑里外柑腳38號","121.808613333333","25.0180416666667","6502500","雙溪區"
"227008","400-TW","2018/10/22 17:09:35","新北市雙溪區牡丹里下坑26號","121.850188333333","25.0567216666667","6502500","雙溪區"
"251005","010-UM","2018/10/22 17:09:32","新北市淡水區中正東路40-7號","121.45017","25.1650133333333","6501000","淡水區"
"251013","KEA-2871","2018/10/22 17:09:25","新北市淡水區桂花樹1號","121.48286","25.1966733333333","6501000","淡水區"
"251016","179-VK","2018/10/22 17:09:41","新北市淡水區社厝坑2-5號","121.47587","25.18897","6501000","淡水區"
"251015","180-VK","2018/10/22 17:09:20","新北市淡水區樹林口168號","121.474591666667","25.1681166666667","6501000","淡水區"
"251008","181-VK","2018/10/22 17:09:25","新北市淡水區民生路169號","121.46962","25.1420766666667","6501000","淡水區"
"251010","413-VK","2018/10/22 17:09:34","新北市淡水區中正路二段31號","121.419541666667","25.1815316666667","6501000","淡水區"
"251012","441-VK","2018/10/22 17:09:38","新北市淡水區中山北路一段158號","121.444311666667","25.1778933333333","6501000","淡水區"
"251004","443-VK","2018/10/22 17:09:26","新北市淡水區中正路一段66號","121.425296666667","25.176985","6501000","淡水區"
"251006","561-UM","2018/10/22 17:09:29","新北市淡水區真理街6號","121.438413333333","25.174525","6501000","淡水區"
"251009","575-R6","2018/10/22 17:09:32","新北市淡水區三民街20號","121.439038333333","25.17178","6501000","淡水區"
"251007","577-R6","2018/10/22 17:09:36","新北市淡水區民生路7號","121.460478333333","25.1378566666667","6501000","淡水區"
"251011","650-BX","2018/10/22 17:09:32","新北市淡水區坪頂路49號","121.457881666667","25.1626416666667","6501000","淡水區"
"252002","178-VK","2018/10/22 17:09:29","新北市三芝區忠孝街1-14號","121.505536666667","25.2539366666667","6502100","三芝區"
"252001","292-VK","2018/10/22 17:09:27","新北市三芝區埔頭里埔頭15號","121.49519","25.2601516666667","6502100","三芝區"
"242056","751-BX","2018/10/22 17:09:22","新北市新莊區新泰路357巷3弄53號","121.442311666667","25.03989","6500500","新莊區"
"242029","612-BX","2018/10/22 17:09:39","新北市新莊區新泰路357巷3弄57號","121.442195","25.0391633333333","6500500","新莊區"
"242044","566-BX","2018/10/22 17:09:24","新北市新莊區新泰路357巷2-2號","121.441896666667","25.0413683333333","6500500","新莊區"
"242048","497-BY","2018/10/22 17:09:39","新北市新莊區中正路535-11號","121.437456666667","25.03312","6500500","新莊區"
"242015","442-UM","2018/10/22 17:09:27","新北市新莊區新泰路255巷83號","121.441998333333","25.0388883333333","6500500","新莊區"
"242039","415-TV","2018/10/22 17:09:34","新北市新莊區新泰路357巷3弄57號","121.442365","25.0397216666667","6500500","新莊區"
"242009","413-TV","2018/10/22 17:09:34","新北市新莊區新泰路357巷3弄57號","121.441988333333","25.039545","6500500","新莊區"
"242046","400-BY","2018/10/22 17:09:20","新北市新莊區新泰路357巷3弄57號","121.442233333333","25.0395533333333","6500500","新莊區"
"242023","362-BY","2018/10/22 17:09:34","新北市新莊區新泰路357巷3弄57號","121.442166666667","25.03922","6500500","新莊區"
"242060","353-BY","2018/10/22 17:09:24","新北市新莊區新泰路357巷3弄57號","121.44198","25.0390783333333","6500500","新莊區"
"242042","133-UY","2018/10/22 17:09:27","新北市新莊區新樹路9號","121.440811666667","25.0330816666667","6500500","新莊區"
"242034","135-UY","2018/10/22 17:09:31","新北市新莊區三和路12-21號","121.44211","25.0387383333333","6500500","新莊區"
"242050","172-VK","2018/10/22 17:09:34","新北市新莊區新樹路67巷5號","121.442026666667","25.03103","6500500","新莊區"
"242013","173-VK","2018/10/22 17:09:37","新北市新莊區三和路12-21號","121.441991666667","25.03875","6500500","新莊區"
"242019","175-VK","2018/10/22 17:09:30","新北市新莊區三和路12-21號","121.442031666667","25.0387516666667","6500500","新莊區"
"242007","176-VK","2018/10/22 17:09:37","新北市新莊區三和路12-21號","121.4419","25.0387566666667","6500500","新莊區"
"242017","346-TH","2018/10/22 17:09:35","新北市新莊區三和路12-21號","121.442193333333","25.0383133333333","6500500","新莊區"
"242031","348-TH","2018/10/22 17:09:33","新北市新莊區新泰路357巷3弄57號","121.442131666667","25.0394866666667","6500500","新莊區"
"242021","350-TH","2018/10/22 17:09:38","新北市新莊區新泰路255巷83號","121.442026666667","25.0389083333333","6500500","新莊區"
"238002","755-BX","2018/10/22 17:09:28","新北市樹林區中洲街2號","121.398526666667","24.9731816666667","6500700","樹林區"
"238023","601-UM","2018/10/22 17:09:21","新北市樹林區中正路433-2號","121.415","25.0084166666667","6500700","樹林區"
"238019","599-UM","2018/10/22 17:09:36","新北市樹林區太平路262號","121.418221666667","24.972385","6500700","樹林區"
"238018","571-TV","2018/10/22 17:09:39","新北市樹林區博愛街257號","121.424505","24.9845883333333","6500700","樹林區"
"238022","KEA-2213","2018/10/22 17:09:29","新北市樹林區國凱街138巷10號","121.423513333333","24.9804733333333","6500700","樹林區"
"238021","KEA-2539","2018/10/22 17:09:35","新北市樹林區西圳街一段165巷20弄11號","121.395661666667","24.9601733333333","6500700","樹林區"
"238025","303-VK","2018/10/22 17:09:31","新北市樹林區中正路11號","121.427875","24.9991716666667","6500700","樹林區"
"238017","283-BY","2018/10/22 17:09:24","新北市樹林區光武街7-3號","121.415721666667","25.0053633333333","6500700","樹林區"
"238014","282-BY","2018/10/22 17:09:29","新北市樹林區中正路22-1號","121.427753333333","24.999405","6500700","樹林區"
"238020","268-VK","2018/10/22 17:09:21","新北市樹林區福德街3號","121.401703333333","24.9756233333333","6500700","樹林區"
"238026","172-UY","2018/10/22 17:09:32","新北市樹林區八德街1146號","121.391005","24.9684733333333","6500700","樹林區"
"239007","AAC-297","2018/10/22 17:09:33","新北市鶯歌區信義街48號","121.35334","24.9552433333333","6500800","鶯歌區"
"239006","891-R6","2018/10/22 17:09:32","新北市鶯歌區八德路2巷37弄1號","121.33676","24.9467316666667","6500800","鶯歌區"
"239008","527-UM","2018/10/22 17:09:29","新北市鶯歌區文化路136巷33號","121.35125","24.9506633333333","6500800","鶯歌區"
"239005","526-UM","2018/10/22 17:09:29","新北市鶯歌區鶯桃路592號","121.33088","24.96838","6500800","鶯歌區"
"239001","417-VK","2018/10/22 17:09:31","新北市鶯歌區尖山路140巷11號","121.346476666667","24.94895","6500800","鶯歌區"
"239003","360-BY","2018/10/22 17:09:25","新北市鶯歌區八德路16號","121.330631666667","24.95546","6500800","鶯歌區"
"239002","359-BY","2018/10/22 17:09:32","新北市鶯歌區建國路216號","121.348891666667","24.9534883333333","6500800","鶯歌區"
"239004","193-VK","2018/10/22 17:09:28","新北市鶯歌區文化路324巷3弄1號","121.349715","24.945135","6500800","鶯歌區"
"242002","281-VK","2018/10/22 17:09:29","新北市新莊區三和路12-21號","121.442378333333","25.0383566666667","6500500","新莊區"
"242053","280-VK","2018/10/22 17:09:27","新北市新莊區新泰路357巷3弄5號","121.44232","25.0411316666667","6500500","新莊區"
