"lineid","car","time","location","longitude","latitude","cityid","cityname"
"249005","172-UM","2018/10/22 17:19:28","新北市五股區凌雲路三段118-3號","121.418946666667","25.1290266666667","6502300","八里區"
"249001","173-UM","2018/10/22 17:19:26","新北市八里區中華路二段165巷3號","121.407635","25.150975","6502300","八里區"
"249004","303-UY","2018/10/22 17:19:33","新北市八里區中山路一段45號","121.419111666667","25.1594366666667","6502300","八里區"
"249002","305-UY","2018/10/22 17:19:30","新北市八里區龍米路二段117巷5號","121.44671","25.1429233333333","6502300","八里區"
"249003","593-UM","2018/10/22 17:19:30","新北市八里區中山路二段460號","121.39907","25.14724","6502300","八里區"
"244023","069-UM","2018/10/22 17:19:24","新北市林口區興林路2號","121.389728333333","25.076585","6501700","林口區"
"244007","080-UY","2018/10/22 17:19:30","新北市林口區中湖40-9號","121.383211666667","25.0912316666667","6501700","林口區"
"244019","403-UM","2018/10/22 17:19:31","新北市林口區公園路225-3號","121.3743","25.0748216666667","6501700","林口區"
"244013","KEA-2802","2018/10/22 17:19:22","新北市林口區粉寮路二段88巷100-12號","121.409561666667","25.09023","6501700","林口區"
"244017","485-VK","2018/10/22 17:19:36","新北市林口區粉寮路37-1號","121.401041666667","25.0848583333333","6501700","林口區"
"244009","656-BX","2018/10/22 17:19:17","新北市林口區中華路123號","121.385938333333","25.08933","6501700","林口區"
"244011","701-TV","2018/10/22 17:19:37","新北市林口區粉寮路一段1號","121.396036666667","25.0758183333333","6501700","林口區"
"244025","837-TS","2018/10/22 17:19:36","新北市林口區民族路181號","121.367395","25.0767866666667","6501700","林口區"
"244021","838-TS","2018/10/22 17:19:26","新北市林口區粉寮87號","121.406821666667","25.0975","6501700","林口區"
"243012","646-TV","2018/10/22 17:19:36","新北市泰山區黎明路25號","121.421986666667","25.0606766666667","6501600","泰山區"
"231046","107-UY","2018/10/22 17:19:26","新北市新店區直潭路92號","121.530923333333","24.9376233333333","6500600","新店區"
"241011","013-R5","2018/10/22 17:19:24","新北市三重區河邊北街100巷23號","121.50291","25.0702766666667","6500200","三重區"
"241028","022-UY","2018/10/22 17:19:25","新北市三重區中正南路77號","121.494058333333","25.0587566666667","6500200","三重區"
"241008","059-VK","2018/10/22 17:19:26","新北市三重區下竹圍街14號","121.480891666667","25.0758033333333","6500200","三重區"
"241022","060-VK","2018/10/22 17:19:23","新北市三重區中正北路64巷20號","121.486133333333","25.063775","6500200","三重區"
"241015","062-VK","2018/10/22 17:19:24","新北市三重區長元街82-1號","121.501876666667","25.0663133333333","6500200","三重區"
"241017","063-VK","2018/10/22 17:19:30","新北市三重區大同北路52號","121.495066666667","25.0630416666667","6500200","三重區"
"241024","065-VK","2018/10/22 17:19:34","新北市三重區中正北路193巷21弄48號","121.479118333333","25.071145","6500200","三重區"
"241026","066-VK","2018/10/22 17:19:21","新北市三重區文化南路42號","121.50038","25.0602716666667","6500200","三重區"
"241002","090-VK","2018/10/22 17:19:30","新北市三重區自強路五段66-1號","121.496003333333","25.0826966666667","6500200","三重區"
"241003","091-VK","2018/10/22 17:19:28","新北市三重區富福街45號","121.491591666667","25.08421","6500200","三重區"
"251014","742-BX","2018/10/22 17:19:20","新北市淡水區公埔子45號","121.463948333333","25.23008","6501000","淡水區"
"241005","262-UM","2018/10/22 17:19:23","新北市三重區永安北路二段25巷7號","121.482396666667","25.0815883333333","6500200","三重區"
"241012","265-UM","2018/10/22 17:19:35","新北市三重區仁昌街112號","121.500273333333","25.0752916666667","6500200","三重區"
"241016","266-UM","2018/10/22 17:19:31","新北市三重區大同北路54巷3號","121.494058333333","25.0636183333333","6500200","三重區"
"241018","268-UM","2018/10/22 17:19:31","新北市三重區安慶街139號","121.494618333333","25.0688816666667","6500200","三重區"
"241032","269-UM","2018/10/22 17:19:31","新北市三重區興華街123號","121.483446666667","25.059835","6500200","三重區"
"241013","270-UM","2018/10/22 17:19:39","新北市三重區三和路三段107巷25號","121.495198333333","25.073125","6500200","三重區"
"241025","271-UM","2018/10/22 17:19:26","新北市三重區中正北路371-2號","121.47175","25.0719766666667","6500200","三重區"
"241004","475-VK","2018/10/22 17:19:39","新北市三重區五華街110巷17弄3號","121.490941666667","25.0823133333333","6500200","三重區"
"241020","478-VK","2018/10/22 17:19:35","新北市三重區永德街9號","121.48923","25.072575","6500200","三重區"
"241030","480-VK","2018/10/22 17:19:34","新北市三重區成功路73巷18號","121.489421666667","25.0519616666667","6500200","三重區"
"241014","543-UM","2018/10/22 17:19:34","新北市三重區三和路二段83號","121.500148333333","25.0684566666667","6500200","三重區"
"241023","545-UM","2018/10/22 17:19:39","新北市三重區三民街166號","121.482265","25.0655116666667","6500200","三重區"
"241001","547-UM","2018/10/22 17:19:27","新北市三重區仁愛街269巷9號","121.493378333333","25.0789316666667","6500200","三重區"
"241019","KEA-2593","2018/10/22 17:19:37","新北市三重區自強路二段76號","121.488086666667","25.0702383333333","6500200","三重區"
"241007","743-BX","2018/10/22 17:19:39","新北市三重區三和路四段157號","121.483741666667","25.0785116666667","6500200","三重區"
"241009","887-TS","2018/10/22 17:19:35","新北市三重區仁愛街598號","121.4841","25.0810333333333","6500200","三重區"
"241033","AAC-255","2018/10/22 17:19:35","新北市三重區中興北街191號","121.469045","25.05653","6500200","三重區"
"247012","KEA-2869","2018/10/22 17:19:33","新北市蘆洲區信義路319巷3號","121.478083333333","25.0862866666667","6501400","蘆洲區"
"247002","893-R6","2018/10/22 17:19:34","新北市蘆洲區永樂街38巷45弄2號","121.458105","25.0899033333333","6501400","蘆洲區"
"247016","546-UM","2018/10/22 17:19:34","新北市蘆洲區正和街96巷7號","121.467728333333","25.0811916666667","6501400","蘆洲區"
"247024","500-BY","2018/10/22 17:19:35","新北市蘆洲區長榮路211巷1號","121.460958333333","25.0849716666667","6501400","蘆洲區"
"247014","339-TH","2018/10/22 17:19:24","新北市蘆洲區得勝街118號","121.471051666667","25.082765","6501400","蘆洲區"
"247006","337-TH","2018/10/22 17:19:29","新北市蘆洲區長安街73巷32號","121.461821666667","25.079195","6501400","蘆洲區"
"247008","336-TH","2018/10/22 17:19:30","新北市蘆洲區信義路34巷158號","121.475958333333","25.0759883333333","6501400","蘆洲區"
"247020","057-VK","2018/10/22 17:19:27","新北市蘆洲區仁愛街2號","121.47265","25.0923366666667","6501400","蘆洲區"
"247010","056-VK","2018/10/22 17:19:13","新北市蘆洲區中山一路120巷7弄8號","121.477561666667","25.0822166666667","6501400","蘆洲區"
"247018","007-UY","2018/10/22 17:19:22","新北市蘆洲區民權路96巷3弄2號","121.474606666667","25.08852","6501400","蘆洲區"
"247004","002-UY","2018/10/22 17:19:38","新北市蘆洲區中原路62號","121.458745","25.0821633333333","6501400","蘆洲區"
"247022","001-UY","2018/10/22 17:19:38","新北市蘆洲區民族路504號","121.469441666667","25.0902916666667","6501400","蘆洲區"
"228003","097-TW","2018/10/22 17:19:26","新北市貢寮區福隆里東興街38號","121.949031666667","25.01799","6502600","貢寮區"
"228002","585-TW","2018/10/22 17:19:33","新北市貢寮區雙玉里下雙溪街17-1號","121.91737","25.0113566666667","6502600","貢寮區"
"228001","670-TC","2018/10/22 17:19:24","新北市貢寮區仁理村尖山腳街18-3號","121.925433333333","25.04835","6502600","貢寮區"
"224006","676-BX","2018/10/22 17:19:22","新北市瑞芳區傑魚坑路309號","121.786306666667","25.1045733333333","6501200","瑞芳區"
"224008","285-BY","2018/10/22 17:19:39","新北市瑞芳區侯硐路94號","121.825895","25.083275","6501200","瑞芳區"
"224009","273-VK","2018/10/22 17:19:38","新北市瑞芳區汽車路29號","121.844491666667","25.1098183333333","6501200","瑞芳區"
"224005","271-BY","2018/10/22 17:19:33","新北市瑞芳區鼻頭路115號","121.916306666667","25.122505","6501200","瑞芳區"
"227001","642-TC","2018/10/22 17:19:36","新北市雙溪區上林里內平林90號","121.827543333333","25.0274783333333","6502500","雙溪區"
"227008","400-TW","2018/10/22 17:19:35","新北市雙溪區三貂里政光路3號","121.85136","25.0631983333333","6502500","雙溪區"
"251005","010-UM","2018/10/22 17:19:32","新北市淡水區鄧公路23巷2號","121.451221666667","25.1700683333333","6501000","淡水區"
"251013","KEA-2871","2018/10/22 17:19:28","新北市淡水區演戲埔腳8號","121.473786666667","25.195275","6501000","淡水區"
"251016","179-VK","2018/10/22 17:19:28","新北市淡水區鄒厝崙14號","121.461655","25.1904666666667","6501000","淡水區"
"251015","180-VK","2018/10/22 17:19:20","新北市淡水區三空泉16-10號","121.471911666667","25.164795","6501000","淡水區"
"251008","181-VK","2018/10/22 17:19:25","新北市淡水區大同路235號","121.465705","25.142155","6501000","淡水區"
"251010","413-VK","2018/10/22 17:19:34","新北市淡水區中正路二段211號","121.426196666667","25.1891183333333","6501000","淡水區"
"251012","441-VK","2018/10/22 17:19:38","新北市淡水區水碓街81號","121.445143333333","25.1776916666667","6501000","淡水區"
"251004","443-VK","2018/10/22 17:19:26","新北市淡水區中正東路一段11號","121.451076666667","25.1638116666667","6501000","淡水區"
"251006","561-UM","2018/10/22 17:19:29","新北市淡水區新生街122-2號","121.440871666667","25.1746533333333","6501000","淡水區"
"251009","575-R6","2018/10/22 17:19:32","新北市淡水區建設街5-1號","121.438968333333","25.1720583333333","6501000","淡水區"
"251007","577-R6","2018/10/22 17:19:35","新北市淡水區民生路47-4號","121.462078333333","25.1380033333333","6501000","淡水區"
"251011","650-BX","2018/10/22 17:19:32","新北市淡水區坪頂路128號","121.4652","25.16109","6501000","淡水區"
"251002","672-BX","2018/10/22 17:19:33","新北市淡水區中正路二段31號","121.419366666667","25.181605","6501000","淡水區"
"251003","766-UM","2018/10/22 17:19:32","新北市淡水區中正路二段31號","121.419085","25.1820583333333","6501000","淡水區"
"207003","550-UM","2018/10/22 17:19:38","新北市萬里區萬里里獅頭路23號","121.693276666667","25.1782633333333","6502800","萬里區"
"252002","178-VK","2018/10/22 17:19:29","新北市三芝區忠孝街1-15號","121.505595","25.253955","6502100","三芝區"
"252001","292-VK","2018/10/22 17:19:27","新北市三芝區淡金路一段3號","121.49809","25.2596783333333","6502100","三芝區"
"242058","986-R7","2018/10/22 17:19:39","新北市新莊區新泰路255巷83號","121.442246666667","25.039095","6500500","新莊區"
"242056","751-BX","2018/10/22 17:19:22","新北市新莊區新莊路664-2號","121.44238","25.0328683333333","6500500","新莊區"
"242029","612-BX","2018/10/22 17:19:19","新北市新莊區幸福路784號","121.44679","25.0491683333333","6500500","新莊區"
"242044","566-BX","2018/10/22 17:19:24","新北市新莊區福營路371號","121.423508333333","25.0275883333333","6500500","新莊區"
"242048","497-BY","2018/10/22 17:19:39","新北市新莊區龍安路116號","121.419001666667","25.0204","6500500","新莊區"
"242015","442-UM","2018/10/22 17:19:27","新北市新莊區新泰路330號","121.444931666667","25.041895","6500500","新莊區"
"242039","415-TV","2018/10/22 17:19:34","新北市新莊區新樹路72-7號","121.436408333333","25.0249916666667","6500500","新莊區"
"242009","413-TV","2018/10/22 17:19:34","新北市新莊區中環路二段392-1號","121.442433333333","25.0454833333333","6500500","新莊區"
"242046","400-BY","2018/10/22 17:19:20","新北市新莊區中正路471號","121.44195","25.0336866666667","6500500","新莊區"
"242023","362-BY","2018/10/22 17:19:34","新北市新莊區中港一街142號","121.446675","25.0449516666667","6500500","新莊區"
"242060","353-BY","2018/10/22 17:19:25","新北市新莊區中正路471號","121.441856666667","25.033885","6500500","新莊區"
"242011","132-UY","2018/10/22 17:19:27","新北市新莊區中環路二段392-1號","121.44241","25.04572","6500500","新莊區"
"242042","133-UY","2018/10/22 17:19:27","新北市新莊區新樹路113巷33號","121.439528333333","25.02638","6500500","新莊區"
"242034","135-UY","2018/10/22 17:19:31","新北市新莊區中正路471號","121.441916666667","25.0334933333333","6500500","新莊區"
"242050","172-VK","2018/10/22 17:19:34","新北市新莊區瓊林南路75-10號","121.434943333333","25.0140183333333","6500500","新莊區"
"242013","173-VK","2018/10/22 17:19:37","新北市新莊區三和路12-21號","121.441943333333","25.038755","6500500","新莊區"
"242019","175-VK","2018/10/22 17:19:30","新北市新莊區中港路307號","121.452751666667","25.0446933333333","6500500","新莊區"
"242007","176-VK","2018/10/22 17:19:37","新北市新莊區新泰路357巷3弄1號","121.442363333333","25.0413333333333","6500500","新莊區"
"242017","346-TH","2018/10/22 17:19:35","新北市新莊區中港一街94號","121.449195","25.0454133333333","6500500","新莊區"
"242031","348-TH","2018/10/22 17:19:33","新北市新莊區新泰路421-1號","121.443166666667","25.0447816666667","6500500","新莊區"
"242004","349-TH","2018/10/22 17:19:39","新北市新莊區復興路一段49號","121.44709","25.0422166666667","6500500","新莊區"
"242021","350-TH","2018/10/22 17:19:38","新北市新莊區中港路137號","121.455151666667","25.040505","6500500","新莊區"
"238015","755-BX","2018/10/22 17:19:28","新北市樹林區大安路267號","121.419018333333","24.9937416666667","6500700","樹林區"
"238023","601-UM","2018/10/22 17:19:21","新北市樹林區中正路433-2號","121.41501","25.0084083333333","6500700","樹林區"
"238019","599-UM","2018/10/22 17:19:36","新北市樹林區八德街170號","121.421691666667","24.97813","6500700","樹林區"
"238018","571-TV","2018/10/22 17:19:21","新北市樹林區鎮前街271號","121.420096666667","24.98573","6500700","樹林區"
"238024","5061-A6","2018/10/22 17:19:34","新北市樹林區樹新路79巷11號","121.427108333333","24.9956283333333","6500700","樹林區"
"238022","KEA-2213","2018/10/22 17:19:29","新北市樹林區忠孝街15號","121.42336","24.9826233333333","6500700","樹林區"
"238021","KEA-2539","2018/10/22 17:19:35","新北市樹林區西圳街一段98-2號","121.40006","24.96359","6500700","樹林區"
"238025","303-VK","2018/10/22 17:19:31","新北市樹林區保安二街47號","121.424766666667","24.994195","6500700","樹林區"
"238017","283-BY","2018/10/22 17:19:24","新北市樹林區中正路250號","121.417721666667","25.00726","6500700","樹林區"
"238014","282-BY","2018/10/22 17:19:29","新北市樹林區長壽街70巷12弄4號","121.422151666667","24.99475","6500700","樹林區"
"238020","268-VK","2018/10/22 17:19:21","新北市樹林區大安路37-1號","121.42428","24.999605","6500700","樹林區"
"238026","172-UY","2018/10/22 17:19:32","新北市樹林區東順街97-1號","121.408786666667","24.975995","6500700","樹林區"
"238016","169-UY","2018/10/22 17:19:30","新北市樹林區中山路二段34號","121.417393333333","24.9849166666667","6500700","樹林區"
"239007","AAC-297","2018/10/22 17:19:33","新北市鶯歌區國慶街115巷13弄6號","121.35103","24.9547716666667","6500800","鶯歌區"
"239006","891-R6","2018/10/22 17:19:32","新北市鶯歌區福昌街24號","121.332921666667","24.960955","6500800","鶯歌區"
"239008","527-UM","2018/10/22 17:19:29","新北市鶯歌區西湖街45巷13號","121.34001","24.9589183333333","6500800","鶯歌區"
"239005","526-UM","2018/10/22 17:19:35","新北市鶯歌區福德三街17號","121.329641666667","24.96743","6500800","鶯歌區"
"239001","417-VK","2018/10/22 17:19:25","新北市鶯歌區尖山路242號","121.342756666667","24.94661","6500800","鶯歌區"
"239003","360-BY","2018/10/22 17:19:25","新北市鶯歌區德昌街50號","121.333143333333","24.95988","6500800","鶯歌區"
"239002","359-BY","2018/10/22 17:19:32","新北市鶯歌區國慶街98號","121.350096666667","24.9544783333333","6500800","鶯歌區"
"239004","193-VK","2018/10/22 17:19:28","新北市鶯歌區文化路298號","121.352483333333","24.946835","6500800","鶯歌區"
"221010","269-BY","2018/10/22 17:19:27","新北市汐止區汐萬路一段256巷3號","121.652108333333","25.074775","6501100","汐止區"
"242002","281-VK","2018/10/22 17:19:29","新北市新莊區中正路473-1號","121.441951666667","25.0330033333333","6500500","新莊區"
"242053","280-VK","2018/10/22 17:19:27","新北市新莊區環漢路三段1號","121.44227","25.0240583333333","6500500","新莊區"
