"lineid","car","time","location","longitude","latitude","cityid","cityname"
"234001","149-BY","2018/10/22 17:21:05","新北市永和區福和路1號","121.526373333333","25.00996","6500400","永和區"
"234026","9371-KE","2018/10/22 17:39:28","新北市永和區中正路708號","121.516006666667","25.0099483333333","6500400","永和區"
"249005","172-UM","2018/10/22 17:39:28","新北市八里區荖阡坑路57號","121.403211666667","25.1327216666667","6502300","八里區"
"249001","173-UM","2018/10/22 17:39:26","新北市八里區龍米路二段199號","121.433001666667","25.1583416666667","6502300","八里區"
"249004","303-UY","2018/10/22 17:39:33","新北市八里區賢二街37號","121.41894","25.1578083333333","6502300","八里區"
"249002","305-UY","2018/10/22 17:39:37","新北市八里區坪子頂3號","121.442221666667","25.12566","6502300","八里區"
"249003","593-UM","2018/10/22 17:39:30","新北市八里區中山路二段175號","121.40493","25.1504133333333","6502300","八里區"
"248008","095-VK","2018/10/22 17:39:23","新北市五股區中興路二段37巷28號","121.460216666667","25.075095","6501500","五股區"
"232011","375-UM","2018/10/22 17:39:22","新北市坪林區北宜路八段105號","121.706151666667","24.9348416666667","6502000","坪林區"
"244023","069-UM","2018/10/22 17:39:04","新北市林口區東明一街142巷6號","121.38992","25.07099","6501700","林口區"
"244007","080-UY","2018/10/22 17:39:09","","121.386006666667","25.0862233333333","6501700","林口區"
"244019","403-UM","2018/10/22 17:39:31","新北市林口區忠孝路512-1號","121.37178","25.069185","6501700","林口區"
"244013","KEA-2802","2018/10/22 17:39:22","新北市林口區中山路319號","121.38365","25.0805466666667","6501700","林口區"
"244017","485-VK","2018/10/22 17:39:36","新北市林口區文化二路一段170號","121.368988333333","25.0717416666667","6501700","林口區"
"244009","656-BX","2018/10/22 17:39:37","新北市林口區文化一路二段226號","121.384135","25.0825433333333","6501700","林口區"
"244011","701-TV","2018/10/22 17:39:37","新北市林口區佳林路146號","121.3842","25.0771533333333","6501700","林口區"
"244025","837-TS","2018/10/22 17:39:36","新北市林口區南勢街19號","121.365018333333","25.0737233333333","6501700","林口區"
"244021","838-TS","2018/10/22 17:39:26","新北市林口區仁愛路一段26號","121.397391666667","25.0754433333333","6501700","林口區"
"222002","659-BX","2018/10/22 17:39:37","新北市深坑區深南路1號","121.622013333333","25.004965","6501800","深坑區"
"231046","107-UY","2018/10/22 17:39:26","新北市新店區直潭路92-1號","121.530836666667","24.9374316666667","6500600","新店區"
"251014","742-BX","2018/10/22 17:39:40","新北市淡水區公埔子15-1號","121.479225","25.2266283333333","6501000","淡水區"
"241005","262-UM","2018/10/22 17:39:23","新北市三重區永安北路二段5巷40號","121.483075","25.08139","6500200","三重區"
"241012","265-UM","2018/10/22 17:39:35","新北市三重區仁興街39巷73號","121.500571666667","25.07633","6500200","三重區"
"241016","266-UM","2018/10/22 17:39:31","新北市三重區正義北路22號","121.49755","25.06309","6500200","三重區"
"241035","KEA-2210","2018/10/22 17:39:22","新北市三重區車路頭街52號","121.483856666667","25.0722916666667","6500200","三重區"
"241014","543-UM","2018/10/22 17:39:34","新北市三重區龍濱路19號","121.503013333333","25.0678466666667","6500200","三重區"
"241023","545-UM","2018/10/22 17:39:39","新北市三重區中華路121號","121.483606666667","25.0638166666667","6500200","三重區"
"241007","743-BX","2018/10/22 17:39:19","新北市三重區三和路四段143-1號","121.484401666667","25.0783433333333","6500200","三重區"
"241033","AAC-255","2018/10/22 17:39:35","新北市三重區光復路一段51號","121.47225","25.0488783333333","6500200","三重區"
"247012","KEA-2869","2018/10/22 17:39:33","新北市蘆洲區民權路33號","121.475971666667","25.0864883333333","6501400","蘆洲區"
"235071","783-BX","2018/10/22 17:39:23","新北市中和區員山路36巷16-3號","121.485196666667","24.99119","6500300","中和區"
"247002","893-R6","2018/10/22 17:39:37","新北市蘆洲區環堤大道212號","121.457531666667","25.0919883333333","6501400","蘆洲區"
"247016","546-UM","2018/10/22 17:39:34","新北市蘆洲區光華路68號","121.46814","25.0828166666667","6501400","蘆洲區"
"247024","500-BY","2018/10/22 17:39:35","新北市蘆洲區長樂路125-1號","121.462135","25.0880816666667","6501400","蘆洲區"
"247014","339-TH","2018/10/22 17:39:24","新北市蘆洲區中正路14-1號","121.471656666667","25.0821416666667","6501400","蘆洲區"
"247006","337-TH","2018/10/22 17:39:29","新北市蘆洲區長安街74號","121.462595","25.08029","6501400","蘆洲區"
"247008","336-TH","2018/10/22 17:39:30","新北市蘆洲區中山一路287號","121.47183","25.079485","6501400","蘆洲區"
"247020","057-VK","2018/10/22 17:39:38","新北市蘆洲區民族路434號","121.473405","25.0920083333333","6501400","蘆洲區"
"247010","056-VK","2018/10/22 17:39:33","新北市蘆洲區中山一路74巷55號","121.479795","25.0815133333333","6501400","蘆洲區"
"247018","007-UY","2018/10/22 17:39:22","新北市蘆洲區三民路98巷21號","121.472965","25.08751","6501400","蘆洲區"
"247004","002-UY","2018/10/22 17:39:38","新北市蘆洲區長安街249巷40號","121.457823333333","25.0826116666667","6501400","蘆洲區"
"247022","001-UY","2018/10/22 17:39:38","新北市蘆洲區中正路198號","121.466685","25.08827","6501400","蘆洲區"
"228003","097-TW","2018/10/22 17:39:26","新北市貢寮區仁理村仁和路148號","121.92317","25.0516716666667","6502600","貢寮區"
"228002","585-TW","2018/10/22 17:39:33","新北市貢寮區福隆里龜壽谷街26號","121.953033333333","25.0077883333333","6502600","貢寮區"
"228001","670-TC","2018/10/22 17:39:24","新北市貢寮區仁理村仁愛路95-1號","121.927671666667","25.05548","6502600","貢寮區"
"224010","AGQ-8101","2018/10/22 17:39:35","新北市瑞芳區岳王路99號","121.807021666667","25.1121883333333","6501200","瑞芳區"
"224006","676-BX","2018/10/22 17:39:22","新北市瑞芳區中山路326號","121.796531666667","25.1101566666667","6501200","瑞芳區"
"224008","285-BY","2018/10/22 17:39:35","新北市瑞芳區明燈路一段200號","121.83127","25.1024966666667","6501200","瑞芳區"
"224009","273-VK","2018/10/22 17:39:38","新北市瑞芳區金光路376號","121.850323333333","25.1111466666667","6501200","瑞芳區"
"224005","271-BY","2018/10/22 17:39:33","新北市瑞芳區海濱路8-6號","121.831686666667","25.1261716666667","6501200","瑞芳區"
"251005","010-UM","2018/10/22 17:39:31","新北市淡水區鄧公路33巷3號","121.451576666667","25.17108","6501000","淡水區"
"251013","KEA-2871","2018/10/22 17:39:32","新北市淡水區演戲埔腳7號","121.471228333333","25.19407","6501000","淡水區"
"251016","179-VK","2018/10/22 17:39:28","新北市淡水區埤島39-15號","121.452733333333","25.1958766666667","6501000","淡水區"
"251015","180-VK","2018/10/22 17:39:40","新北市淡水區糞箕湖22號","121.485953333333","25.17072","6501000","淡水區"
"251008","181-VK","2018/10/22 17:39:28","新北市淡水區八勢路一段110號","121.467298333333","25.1559766666667","6501000","淡水區"
"251010","413-VK","2018/10/22 17:39:34","新北市淡水區淡海路280巷33弄1號","121.419703333333","25.1901016666667","6501000","淡水區"
"251012","441-VK","2018/10/22 17:39:38","新北市淡水區北新路213號","121.451681666667","25.1800316666667","6501000","淡水區"
"251004","443-VK","2018/10/22 17:39:36","新北市淡水區中正東路二段88巷37-22號","121.459305","25.1438133333333","6501000","淡水區"
"251001","559-UM","2018/10/22 17:39:31","新北市淡水區民權路92巷35-1號","121.462186666667","25.126715","6501000","淡水區"
"251006","561-UM","2018/10/22 17:39:29","新北市淡水區大信街32號","121.44217","25.1771166666667","6501000","淡水區"
"251009","575-R6","2018/10/22 17:39:32","新北市淡水區中正路28號","121.444355","25.1691583333333","6501000","淡水區"
"251007","577-R6","2018/10/22 17:39:35","新北市淡水區民生路124巷23號","121.464213333333","25.137615","6501000","淡水區"
"251011","650-BX","2018/10/22 17:39:32","新北市淡水區小坪頂20-1號","121.484611666667","25.1575833333333","6501000","淡水區"
"251002","672-BX","2018/10/22 17:39:37","新北市淡水區清水街246號","121.440551666667","25.1722333333333","6501000","淡水區"
"251003","766-UM","2018/10/22 17:39:32","新北市淡水區中山北路一段71號","121.442033333333","25.1759616666667","6501000","淡水區"
"207003","550-UM","2018/10/22 17:39:38","新北市萬里區龜吼里漁澳路29-1號","121.686113333333","25.1948683333333","6502800","萬里區"
"207004","225-TW","2018/10/22 17:39:28","新北市萬里區中幅里中福路23號","121.682158333333","25.1653133333333","6502800","萬里區"
"252002","178-VK","2018/10/22 17:39:29","新北市三芝區中正路二段15號","121.504378333333","25.2553683333333","6502100","三芝區"
"252001","292-VK","2018/10/22 17:39:27","新北市三芝區淡金路二段4號","121.502398333333","25.2592716666667","6502100","三芝區"
"237013","252-BX","2018/10/22 17:39:40","新北市三峽區愛國路33-9號","121.374836666667","24.9330683333333","6500900","三峽區"
"237014","433-BY","2018/10/22 17:39:24","新北市三峽區中山路459巷163-3號","121.34871","24.932805","6500900","三峽區"
"237006","5529-G3","2018/10/22 17:39:24","新北市三峽區介壽路一段550號","121.387301666667","24.93316","6500900","三峽區"
"237011","KEA-2596","2018/10/22 17:39:36","新北市三峽區中山路257巷35號","121.362128333333","24.9360116666667","6500900","三峽區"
"237015","649-BX","2018/10/22 17:39:27","新北市三峽區正義街100號","121.368806666667","24.91751","6500900","三峽區"
"237010","706-TV","2018/10/22 17:39:29","新北市三峽區中山路153號","121.364798333333","24.93635","6500900","三峽區"
"237005","AKY-6261","2018/10/22 17:39:33","新北市三峽區中山路459巷163-3號","121.348618333333","24.93306","6500900","三峽區"
"236078","166-UM","2018/10/22 17:39:36","新北市土城區城林路6巷80號","121.438423333333","24.97964","6501300","土城區"
"236014","270-VK","2018/10/22 17:39:38","新北市土城區城林路6巷80號","121.438546666667","24.9796483333333","6501300","土城區"
"236039","271-VK","2018/10/22 17:39:28","新北市土城區城林路6巷80號","121.438483333333","24.979745","6501300","土城區"
"242036","AAC-296","2018/10/22 17:38:25","新北市新莊區建福路59巷55號","121.428988333333","25.027975","6500500","新莊區"
"242058","986-R7","2018/10/22 17:39:39","新北市新莊區中正路596號","121.42686","25.0303283333333","6500500","新莊區"
"242056","751-BX","2018/10/22 17:39:22","新北市新莊區新莊路543巷9弄28號","121.448325","25.0318633333333","6500500","新莊區"
"242027","705-TV","2018/10/22 17:39:38","新北市新莊區福壽街90號","121.458225","25.0499133333333","6500500","新莊區"
"242025","613-BX","2018/10/22 17:39:34","新北市新莊區思源路120號","121.460206666667","25.0469916666667","6500500","新莊區"
"242029","612-BX","2018/10/22 17:39:39","新北市新莊區復興路一段165號","121.451043333333","25.0434083333333","6500500","新莊區"
"242044","566-BX","2018/10/22 17:39:24","新北市新莊區中正路871巷9弄1號","121.418678333333","25.0268316666667","6500500","新莊區"
"242048","497-BY","2018/10/22 17:39:39","新北市新莊區萬安街135號","121.42058","25.0221016666667","6500500","新莊區"
"242015","442-UM","2018/10/22 17:39:31","新北市新莊區新泰路406巷1弄1號","121.444143333333","25.0439283333333","6500500","新莊區"
"242039","415-TV","2018/10/22 17:39:34","新北市新莊區民安東路11號","121.427835","25.0209983333333","6500500","新莊區"
"242009","413-TV","2018/10/22 17:39:34","新北市新莊區昌明街14巷5弄2號","121.457356666667","25.0532366666667","6500500","新莊區"
"242046","400-BY","2018/10/22 17:39:20","新北市新莊區中正路575號","121.434676666667","25.032365","6500500","新莊區"
"242023","362-BY","2018/10/22 17:39:34","新北市新莊區民樂街55號","121.457951666667","25.041485","6500500","新莊區"
"242060","353-BY","2018/10/22 17:39:24","新北市新莊區瓊林南路171-5號","121.433865","25.0109416666667","6500500","新莊區"
"242011","132-UY","2018/10/22 17:39:27","新北市新莊區中港路613號","121.451363333333","25.0533916666667","6500500","新莊區"
"242042","133-UY","2018/10/22 17:39:27","新北市新莊區中正路514巷15號","121.43309","25.0329816666667","6500500","新莊區"
"242034","135-UY","2018/10/22 17:39:31","新北市新莊區新莊路637號","121.445276666667","25.0328366666667","6500500","新莊區"
"242050","172-VK","2018/10/22 17:39:34","新北市新莊區西盛街189號","121.428963333333","25.01715","6500500","新莊區"
"242013","173-VK","2018/10/22 17:39:37","新北市新莊區中誠街92號","121.450035","25.047815","6500500","新莊區"
"242019","175-VK","2018/10/22 17:39:30","新北市新莊區中港路242號","121.453923333333","25.043235","6500500","新莊區"
"242007","176-VK","2018/10/22 17:39:37","新北市新莊區福樂街69號","121.457068333333","25.04778","6500500","新莊區"
"242017","346-TH","2018/10/22 17:39:35","新北市新莊區復興路一段149巷10號","121.450341666667","25.0437166666667","6500500","新莊區"
"242031","348-TH","2018/10/22 17:39:33","新北市新莊區新泰路334號","121.444838333333","25.042","6500500","新莊區"
"242004","349-TH","2018/10/22 17:39:19","新北市新莊區自立街216號","121.457163333333","25.0454183333333","6500500","新莊區"
"242021","350-TH","2018/10/22 17:39:39","新北市新莊區中華路一段180號","121.452673333333","25.0420516666667","6500500","新莊區"
"238015","755-BX","2018/10/22 17:39:28","新北市樹林區樹德街120巷14號","121.419756666667","24.993275","6500700","樹林區"
"238023","601-UM","2018/10/22 17:39:22","新北市樹林區三福街68號","121.404853333333","25.0164133333333","6500700","樹林區"
"238019","599-UM","2018/10/22 17:39:36","新北市樹林區太平路127巷12號","121.419793333333","24.9805733333333","6500700","樹林區"
"238018","571-TV","2018/10/22 17:39:21","新北市樹林區鎮前街42-1號","121.425895","24.9928566666667","6500700","樹林區"
"238024","5061-A6","2018/10/22 17:39:34","新北市樹林區環河路2-2號","121.4254","24.9768233333333","6500700","樹林區"
"238022","KEA-2213","2018/10/22 17:39:29","新北市樹林區太元街42號","121.418171666667","24.9797683333333","6500700","樹林區"
"238021","KEA-2539","2018/10/22 17:39:35","新北市樹林區柑園街一段206號","121.393328333333","24.95631","6500700","樹林區"
"238025","303-VK","2018/10/22 17:39:31","新北市樹林區保安街二段180號","121.412578333333","25.010025","6500700","樹林區"
"238017","283-BY","2018/10/22 17:39:24","新北市樹林區三德街30巷30號","121.414706666667","25.0121683333333","6500700","樹林區"
"238014","282-BY","2018/10/22 17:39:29","新北市樹林區保安街一段313巷28號","121.417038333333","24.9974316666667","6500700","樹林區"
"238020","268-VK","2018/10/22 17:39:21","新北市樹林區俊英街116巷2號","121.427656666667","25.0057333333333","6500700","樹林區"
"238026","172-UY","2018/10/22 17:39:32","新北市樹林區新興街19巷36弄18號","121.402445","24.9728766666667","6500700","樹林區"
"238016","169-UY","2018/10/22 17:39:30","新北市樹林區復興路275號","121.418916666667","24.989395","6500700","樹林區"
"239007","AAC-297","2018/10/22 17:39:33","新北市鶯歌區鶯桃路182巷96弄5號","121.339891666667","24.9574","6500800","鶯歌區"
"239006","891-R6","2018/10/22 17:39:32","新北市鶯歌區永和街34巷19號","121.3338","24.9672316666667","6500800","鶯歌區"
"239008","527-UM","2018/10/22 17:39:29","新北市鶯歌區大湖路391號","121.330956666667","24.9789516666667","6500800","鶯歌區"
"239005","526-UM","2018/10/22 17:39:09","新北市鶯歌區福隆二街13號","121.32522","24.9720133333333","6500800","鶯歌區"
"239001","417-VK","2018/10/22 17:39:25","新北市鶯歌區中正三路281號","121.332065","24.9377833333333","6500800","鶯歌區"
"239003","360-BY","2018/10/22 17:39:25","新北市鶯歌區鶯桃路206巷14號","121.337593333333","24.9594516666667","6500800","鶯歌區"
"239002","359-BY","2018/10/22 17:39:32","新北市鶯歌區育智路22號","121.344981666667","24.9552283333333","6500800","鶯歌區"
"239004","193-VK","2018/10/22 17:39:28","新北市鶯歌區三鶯路68號","121.357616666667","24.9426816666667","6500800","鶯歌區"
"221008","489-VK","2018/10/22 17:39:26","新北市汐止區康寧街901號","121.651426666667","25.07504","6501100","汐止區"
"221015","131-UY","2018/10/22 17:39:33","新北市汐止區汐萬路一段312號","121.650605","25.075465","6501100","汐止區"
"221010","269-BY","2018/10/22 17:39:19","新北市汐止區汐萬路一段418巷25號","121.649953333333","25.0790233333333","6501100","汐止區"
"221023","279-VK","2018/10/22 17:39:31","新北市汐止區康寧街901號","121.651781666667","25.0750066666667","6501100","汐止區"
"221032","280-BY","2018/10/22 17:39:29","新北市汐止區樟樹二路351號","121.642975","25.073755","6501100","汐止區"
"221021","299-VK","2018/10/22 17:39:33","新北市汐止區康寧街901號","121.65085","25.0753133333333","6501100","汐止區"
"221031","353-TW","2018/10/22 17:39:21","新北市汐止區康寧街901號","121.651271666667","25.075095","6501100","汐止區"
"221033","647-BX","2018/10/22 17:39:31","新北市汐止區林森街131巷38號","121.62606","25.0431666666667","6501100","汐止區"
"242002","281-VK","2018/10/22 17:39:29","新北市新莊區新莊路286號","121.451416666667","25.0338183333333","6500500","新莊區"
"242053","280-VK","2018/10/22 17:39:27","新北市新莊區新樹路697號","121.432208333333","25.002355","6500500","新莊區"
