"lineid","car","time","location","longitude","latitude","cityid","cityname"
"234046","148-BY","2018/10/22 19:19:32","新北市永和區得和路375號","121.524733333333","24.9996316666667","6500400","永和區"
"234007","207-UY","2018/10/22 19:19:38","新北市永和區永貞路375號","121.508253333333","25.0082","6500400","永和區"
"234081","298-R6","2018/10/22 19:19:21","新北市永和區福和路50號","121.523495","25.00812","6500400","永和區"
"234038","336-UY","2018/10/22 19:19:32","新北市永和區民樂街59巷2號","121.527511666667","24.9982766666667","6500400","永和區"
"234064","337-UY","2018/10/22 19:19:30","新北市永和區永元路17巷9號","121.521265","25.0006983333333","6500400","永和區"
"234086","338-UY","2018/10/22 19:19:40","新北市永和區中正路558號","121.517191666667","25.0057983333333","6500400","永和區"
"234070","552-UM","2018/10/22 19:19:33","新北市永和區豫溪街72-1號","121.517138333333","25.0098433333333","6500400","永和區"
"234017","745-BX","2018/10/22 19:19:35","新北市永和區環河西路一段95巷19弄2號","121.511655","25.0171183333333","6500400","永和區"
"234030","746-BX","2018/10/22 19:19:40","新北市永和區厚德街58號","121.52455","24.998765","6500400","永和區"
"234054","KEA-2590","2018/10/22 19:19:42","新北市永和區中興街32號","121.516266666667","25.0117683333333","6500400","永和區"
"234013","KEA-2591","2018/10/22 19:19:30","新北市永和區仁愛路121號","121.511985","25.013125","6500400","永和區"
"234061","AAD-866","2018/10/22 19:19:24","新北市永和區秀朗路一段175號","121.51705","25.0036716666667","6500400","永和區"
"234042","862-TW","2018/10/22 19:19:38","新北市永和區保平路151巷12弄2號","121.510541666667","25.0051066666667","6500400","永和區"
"234050","863-TW","2018/10/22 19:19:35","新北市永和區保福路二段78號","121.51057","25.01331","6500400","永和區"
"234026","9371-KE","2018/10/22 19:19:28","新北市永和區安樂路144巷31號","121.515161666667","24.999735","6500400","永和區"
"234011","9373-KE","2018/10/22 19:19:34","新北市永和區保福路二段19-1號","121.510823333333","25.0111966666667","6500400","永和區"
"249005","172-UM","2018/10/22 19:19:28","新北市八里區荖阡坑路4-24號","121.398268333333","25.1431533333333","6502300","八里區"
"249001","173-UM","2018/10/22 19:19:26","新北市八里區埤頭二街30號","121.413958333333","25.1558883333333","6502300","八里區"
"249003","593-UM","2018/10/22 19:19:36","新北市八里區中山路二段466巷7號","121.398625","25.1474716666667","6502300","八里區"
"248016","026-BX","2018/10/22 19:19:25","新北市五股區成洲五路12號","121.452305","25.10158","6501500","五股區"
"248018","225-UY","2018/10/22 19:19:30","新北市五股區民義路二段17號","121.420876666667","25.0964216666667","6501500","五股區"
"248012","247-BX","2018/10/22 19:19:31","新北市五股區中興路四段48巷16號","121.43862","25.083415","6501500","五股區"
"248010","272-BY","2018/10/22 19:19:36","新北市五股區水碓二路1號","121.430585","25.0712516666667","6501500","五股區"
"248002","655-BX","2018/10/22 19:19:26","新北市五股區凌雲路一段158巷1號","121.447736666667","25.1030466666667","6501500","五股區"
"248004","677-BX","2018/10/22 19:19:37","新北市五股區五福路105號","121.432228333333","25.0907116666667","6501500","五股區"
"234023","9380-KE","2018/10/22 19:19:26","新北市永和區竹林路105號","121.519893333333","25.0118933333333","6500400","永和區"
"234077","969-R7","2018/10/22 19:19:22","新北市永和區民族街42號","121.5184","24.9987933333333","6500400","永和區"
"234074","AAC-211","2018/10/22 19:19:29","新北市永和區竹林路101號","121.519741666667","25.011935","6500400","永和區"
"234067","AAC-212","2018/10/22 19:19:24","新北市永和區保平路50巷23號","121.510481666667","25.0080166666667","6500400","永和區"
"234003","AAC-295","2018/10/22 19:19:33","新北市永和區永平路186-1號","121.510433333333","25.0092166666667","6500400","永和區"
"244023","069-UM","2018/10/22 19:19:24","新北市林口區文林六街13巷22號","121.370183333333","25.0808166666667","6501700","林口區"
"244019","403-UM","2018/10/22 19:19:31","新北市林口區公園路233-4號","121.376595","25.0756233333333","6501700","林口區"
"244017","485-VK","2018/10/22 19:19:36","新北市林口區頂福里82號","121.370806666667","25.0828766666667","6501700","林口區"
"244011","701-TV","2018/10/22 19:19:36","新北市林口區中正路264巷11號","121.388983333333","25.0781733333333","6501700","林口區"
"243013","AAD-798","2018/10/22 19:19:34","新北市泰山區明志路三段145巷2弄1號","121.425425","25.0398833333333","6501600","泰山區"
"243009","297-R6","2018/10/22 19:19:38","新北市泰山區和平街13巷32號","121.434458333333","25.0653533333333","6501600","泰山區"
"243016","KEA-2801","2018/10/22 19:19:21","新北市泰山區明志路三段159號","121.424701666667","25.03969","6501600","泰山區"
"243015","421-VK","2018/10/22 19:19:36","新北市泰山區公園路71號","121.426313333333","25.0553583333333","6501600","泰山區"
"243011","KEA-2215","2018/10/22 19:19:34","新北市泰山區中央路36巷3號","121.426243333333","25.0427733333333","6501600","泰山區"
"243010","KEA-2216","2018/10/22 19:19:34","新北市泰山區明志路一段508號","121.430368333333","25.0541916666667","6501600","泰山區"
"243012","646-TV","2018/10/22 19:19:33","新北市泰山區仁愛路100巷29號","121.433553333333","25.05507","6501600","泰山區"
"243014","680-BX","2018/10/22 19:19:36","新北市泰山區泰林路二段99巷1號","121.434783333333","25.0588766666667","6501600","泰山區"
"222003","436-BY","2018/10/22 19:19:31","新北市深坑區深南路204號","121.626576666667","25.01602","6501800","深坑區"
"222002","659-BX","2018/10/22 19:19:37","新北市深坑區北深路一段177號","121.632568333333","25.0109166666667","6501800","深坑區"
"231041","002-UM","2018/10/22 19:19:27","新北市新店區溪園路203號","121.526743333333","24.9842783333333","6500600","新店區"
"231059","046-UY","2018/10/22 19:19:42","新北市新店區安和路二段173號","121.518645","24.9745533333333","6500600","新店區"
"231040","047-UY","2018/10/22 19:19:41","新北市新店區三民路41號","121.537213333333","24.9708683333333","6500600","新店區"
"231046","107-UY","2018/10/22 19:19:25","新北市新店區華城路5-3號","121.529273333333","24.9579166666667","6500600","新店區"
"231052","108-UY","2018/10/22 19:19:31","新北市新店區屈尺路2號","121.549311666667","24.9225533333333","6500600","新店區"
"231047","187-VK","2018/10/22 19:19:38","新北市新店區中興路二段55-1號","121.546448333333","24.970425","6500600","新店區"
"231054","KEA-2219","2018/10/22 19:19:22","新北市新店區國校路28號","121.538035","24.9546516666667","6500600","新店區"
"231042","268-BY","2018/10/22 19:19:38","新北市新店區中興路一段115號","121.541415","24.9628","6500600","新店區"
"231051","278-BY","2018/10/22 19:19:23","新北市新店區中央路115號","121.530841666667","24.9745383333333","6500600","新店區"
"231050","AAD-862","2018/10/22 19:19:39","新北市新店區竹林路30巷1號","121.552208333333","24.9512983333333","6500600","新店區"
"231058","3713-VJ","2018/10/22 19:19:29","新北市新店區檳榔路36巷14號","121.541163333333","24.963355","6500600","新店區"
"231066","4716-K9","2018/10/22 19:19:22","新北市新店區安康路三段440-5號","121.484603333333","24.95134","6500600","新店區"
"231056","4715-K9","2018/10/22 19:19:37","新北市新店區安德街148巷31號","121.506623333333","24.960945","6500600","新店區"
"231067","4772-VM","2018/10/22 19:19:32","新北市新店區安康路一段247巷32號","121.524556666667","24.96205","6500600","新店區"
"231065","512-UM","2018/10/22 19:19:22","新北市新店區安祥路108巷53號","121.47438","24.9571233333333","6500600","新店區"
"231049","513-UM","2018/10/22 19:19:32","新北市新店區明德路111號","121.541536666667","24.9794466666667","6500600","新店區"
"231045","617-UM","2018/10/22 19:19:39","新北市新店區北宜路一段260號","121.545711666667","24.9527533333333","6500600","新店區"
"231044","618-UM","2018/10/22 19:19:39","新北市新店區中興路三段313號","121.541901666667","24.9860766666667","6500600","新店區"
"231061","619-UM","2018/10/22 19:19:32","新北市新店區安康路一段65號","121.530335","24.9610766666667","6500600","新店區"
"231063","641-BX","2018/10/22 19:19:36","新北市新店區達觀路14巷2號","121.503388333333","24.9414366666667","6500600","新店區"
"231064","719-UM","2018/10/22 19:19:40","新北市新店區安忠路57巷1-7號","121.513473333333","24.9593866666667","6500600","新店區"
"231062","720-UM","2018/10/22 19:19:32","新北市新店區莒光路38巷3號","121.522298333333","24.9589083333333","6500600","新店區"
"231060","897-TW","2018/10/22 19:19:39","新北市新店區安康路二段95號","121.51304","24.9627066666667","6500600","新店區"
"231043","899-TW","2018/10/22 19:19:36","新北市新店區北新路二段101號","121.542951666667","24.9744033333333","6500600","新店區"
"241022","060-VK","2018/10/22 19:19:23","新北市三重區重陽路二段50號","121.487185","25.0634033333333","6500200","三重區"
"241031","061-VK","2018/10/22 19:19:34","新北市三重區重新路四段101號","121.485835","25.0544766666667","6500200","三重區"
"241017","063-VK","2018/10/22 19:19:38","新北市三重區大同北路215號","121.491776666667","25.0660466666667","6500200","三重區"
"241026","066-VK","2018/10/22 19:19:21","新北市三重區泉州街84巷20號","121.495931666667","25.0545183333333","6500200","三重區"
"251014","742-BX","2018/10/22 19:19:40","新北市淡水區小中寮19-7號","121.484735","25.22961","6501000","淡水區"
"241032","269-UM","2018/10/22 19:19:31","新北市三重區新生街96號","121.48332","25.0593066666667","6500200","三重區"
"241025","271-UM","2018/10/22 19:19:25","新北市三重區中正北路406號","121.475378333333","25.0704433333333","6500200","三重區"
"241020","478-VK","2018/10/22 19:19:42","新北市三重區大智街183號","121.489485","25.0729583333333","6500200","三重區"
"241030","480-VK","2018/10/22 19:19:33","新北市三重區成功路41巷99號","121.491468333333","25.05324","6500200","三重區"
"241006","AAD-863","2018/10/22 19:19:38","新北市三重區車路頭街162號","121.483771666667","25.0765433333333","6500200","三重區"
"241007","743-BX","2018/10/22 19:19:39","新北市三重區慈愛街58號","121.486683333333","25.0793766666667","6500200","三重區"
"241009","887-TS","2018/10/22 19:19:35","新北市三重區仁美街113號","121.485766666667","25.0810166666667","6500200","三重區"
"241029","942-UM","2018/10/22 19:19:23","新北市三重區重安街27號","121.491153333333","25.0570266666667","6500200","三重區"
"235066","003-UY","2018/10/22 19:19:35","新北市中和區景新街2號","121.502485","24.9997433333333","6500300","中和區"
"235064","005-UY","2018/10/22 19:19:29","新北市中和區泰和街2號","121.499951666667","25.0014083333333","6500300","中和區"
"235063","006-UY","2018/10/22 19:19:39","新北市中和區連勝街121巷18弄7號","121.494981666667","24.9943683333333","6500300","中和區"
"235056","096-UM","2018/10/22 19:19:34","新北市中和區中正路1171號","121.481145","25.0095533333333","6500300","中和區"
"235039","097-UM","2018/10/22 19:19:35","新北市中和區秀峰街87號","121.521328333333","24.9902733333333","6500300","中和區"
"235065","098-UM","2018/10/22 19:19:37","新北市中和區中山路二段2巷3弄7-1號","121.504565","25.0058833333333","6500300","中和區"
"235040","150-BY","2018/10/22 19:18:08","新北市中和區保健路48巷75號","121.509128333333","24.9955","6500300","中和區"
"235058","151-BY","2018/10/22 19:19:26","新北市中和區連城路469巷22弄5號","121.483205","24.9951216666667","6500300","中和區"
"235055","183-VK","2018/10/22 19:19:39","新北市中和區德光路59號","121.469866666667","25.0039166666667","6500300","中和區"
"235038","185-VK","2018/10/22 19:19:20","新北市中和區大仁街108號","121.52058","24.9928166666667","6500300","中和區"
"235049","186-VK","2018/10/22 19:19:28","新北市中和區景新街235號","121.508086666667","24.99451","6500300","中和區"
"235067","255-BX","2018/10/22 19:19:25","新北市中和區新生街191號","121.483888333333","25.0002633333333","6500300","中和區"
"235044","293-VK","2018/10/22 19:19:32","新北市中和區復興路308號","121.501193333333","24.9902966666667","6500300","中和區"
"235072","301-VK","2018/10/22 19:19:36","新北市中和區連城路263-2號","121.491548333333","24.996465","6500300","中和區"
"235043","352-BY","2018/10/22 19:19:36","新北市中和區景平路472號","121.505478333333","24.99366","6500300","中和區"
"235050","4979-A6","2018/10/22 19:19:34","新北市中和區景安路208巷16號","121.503216666667","24.991405","6500300","中和區"
"235069","4980-A6","2018/10/22 19:19:24","新北市中和區莊敬路31巷36-1號","121.499916666667","25.0058616666667","6500300","中和區"
"235042","551-UM","2018/10/22 19:19:23","新北市永和區民有街96號","121.51735","24.9959266666667","6500300","中和區"
"235070","558-UM","2018/10/22 19:19:26","新北市中和區中山路二段228號","121.499021666667","25.0026916666667","6500300","中和區"
"235045","565-BX","2018/10/22 19:19:11","新北市中和區景新街383巷36號","121.513805","24.9906066666667","6500300","中和區"
"235054","640-BX","2018/10/22 19:19:35","新北市中和區國光街109巷17號","121.469626666667","24.9998033333333","6500300","中和區"
"235060","647-TV","2018/10/22 19:19:33","新北市中和區員山路294巷19號","121.482366666667","25.0023966666667","6500300","中和區"
"235047","732-UM","2018/10/22 19:19:43","新北市中和區和平街40號","121.509098333333","24.9904833333333","6500300","中和區"
"235071","783-BX","2018/10/22 19:19:23","新北市中和區中正路639號","121.485213333333","24.995475","6500300","中和區"
"235057","801-TS","2018/10/22 19:19:43","新北市中和區員山路220號","121.48127","25.0010833333333","6500300","中和區"
"235052","805-TS","2018/10/22 19:19:37","新北市中和區興南路二段142巷13號","121.503505","24.9832866666667","6500300","中和區"
"235048","896-TW","2018/10/22 19:19:37","新北市中和區忠孝街106巷2號","121.512128333333","24.98452","6500300","中和區"
"235053","900-TW","2018/10/22 19:19:36","新北市中和區華安街21巷9號","121.467405","24.997595","6500300","中和區"
"235051","157-BY","2018/10/22 19:19:38","新北市中和區和平街26號","121.509798333333","24.9902833333333","6500300","中和區"
"235037","AAC-213","2018/10/22 19:19:29","新北市中和區秀朗路三段10巷37弄15號","121.524031666667","24.995535","6500300","中和區"
"235059","AAC-215","2018/10/22 19:19:33","新北市中和區圓通路252巷18弄1號","121.492293333333","24.992535","6500300","中和區"
"220068","013-TV","2018/10/22 19:19:27","新北市板橋區翠華街6巷53號","121.481421666667","25.0246433333333","6500100","板橋區"
"220065","072-UY","2018/10/22 19:19:38","新北市板橋區民族路170巷16號","121.467228333333","25.00731","6500100","板橋區"
"220086","073-UY","2018/10/22 19:19:39","新北市板橋區中正路216巷69號","121.457776666667","25.0190016666667","6500100","板橋區"
"220106","075-UY","2018/10/22 19:19:25","新北市板橋區雙十路三段70巷1號","121.47027","25.0324483333333","6500100","板橋區"
"220069","AAD-861","2018/10/22 19:19:28","新北市板橋區華興街43號","121.457895","25.0047016666667","6500100","板橋區"
"226004","312-R5","2018/10/22 19:19:38","新北市平溪區南山里南山坪23號","121.77117","25.0361766666667","6502400","平溪區"
"235041","251-BX","2018/10/22 19:19:34","新北市中和區中和路294號","121.508548333333","24.9997616666667","6500300","中和區"
"228003","097-TW","2018/10/22 19:19:26","新北市貢寮區和美里和美街22-1號","121.912783333333","25.0826316666667","6502600","貢寮區"
"228002","585-TW","2018/10/22 19:19:33","新北市貢寮區龍門里復興街8-1號","121.92667","25.0266766666667","6502600","貢寮區"
"228001","670-TC","2018/10/22 19:19:23","新北市貢寮區真理里新港街10號","121.925501666667","25.054365","6502600","貢寮區"
"224010","AGQ-8101","2018/10/22 19:19:35","新北市瑞芳區烏勢巷145號","121.847256666667","25.1081466666667","6501200","瑞芳區"
"224008","285-BY","2018/10/22 19:19:35","新北市瑞芳區明燈路三段131號","121.803346666667","25.1092233333333","6501200","瑞芳區"
"227001","642-TC","2018/10/22 19:19:38","新北市雙溪區平林里梅竹蹊66-1號","121.860165","25.03583","6502500","雙溪區"
"227008","400-TW","2018/10/22 19:19:35","新北市雙溪區新基里新基北街40號","121.868481666667","25.0380216666667","6502500","雙溪區"
"253006","032-BX","2018/10/22 19:19:35","新北市石門區楓林19號","121.53662","25.290915","6502200","石門區"
"253005","295-VK","2018/10/22 19:19:38","新北市石門區阿里荖5號","121.611565","25.279455","6502200","石門區"
"222001","KEA-2212","2018/10/22 19:19:32","新北市深坑區北深路二段84號","121.617486666667","25.0035083333333","6501800","深坑區"
"208002","KEA-2872","2018/10/22 19:19:28","新北市金山區中華路133號","121.633108333333","25.2209333333333","6502700","金山區"
"208003","665-BX","2018/10/22 19:19:38","新北市金山區中山路117號","121.639491666667","25.219625","6502700","金山區"
"208001","761-BX","2018/10/22 19:19:31","新北市金山區慈護街35號","121.639375","25.2198316666667","6502700","金山區"
"251005","010-UM","2018/10/22 19:19:31","新北市淡水區水源街一段25號","121.443056666667","25.1722916666667","6501000","淡水區"
"251013","KEA-2871","2018/10/22 19:19:28","新北市淡水區安子內12號","121.48096","25.2194033333333","6501000","淡水區"
"251016","179-VK","2018/10/22 19:14:36","新北市淡水區下圭柔山119-51號","121.450723333333","25.2084666666667","6501000","淡水區"
"251015","180-VK","2018/10/22 19:19:40","新北市淡水區北新路三段6號","121.482881666667","25.1846933333333","6501000","淡水區"
"251010","413-VK","2018/10/22 19:19:34","新北市淡水區沙崙路30號","121.421526666667","25.18144","6501000","淡水區"
"251001","559-UM","2018/10/22 19:19:31","新北市淡水區自強路201巷43號","121.46203","25.126835","6501000","淡水區"
"251006","561-UM","2018/10/22 19:19:29","新北市淡水區大信街33號","121.442028333333","25.1773683333333","6501000","淡水區"
"251009","575-R6","2018/10/22 19:19:32","新北市淡水區清水街140號","121.44145","25.170255","6501000","淡水區"
"251007","577-R6","2018/10/22 19:19:35","新北市淡水區民生路145巷46號","121.467103333333","25.1389283333333","6501000","淡水區"
"251003","766-UM","2018/10/22 19:19:32","新北市淡水區中山北路一段204號","121.444608333333","25.17956","6501000","淡水區"
"207003","550-UM","2018/10/22 19:19:37","新北市萬里區大鵬里萬里加投79-3號","121.647323333333","25.2123566666667","6502800","萬里區"
"207004","225-TW","2018/10/22 19:19:30","新北市萬里區萬里里成功新村44號","121.687698333333","25.1746216666667","6502800","萬里區"
"252002","178-VK","2018/10/22 19:19:28","新北市三芝區淡金路二段18-1號","121.502668333333","25.2595166666667","6502100","三芝區"
"252001","292-VK","2018/10/22 19:19:27","新北市三芝區長勤街9巷11弄1號","121.501745","25.2548833333333","6502100","三芝區"
"237007","153-BY","2018/10/22 19:19:21","新北市三峽區二鬮路138號","121.359803333333","24.9078383333333","6500900","三峽區"
"237013","252-BX","2018/10/22 19:19:40","新北市三峽區光明路75巷4號","121.377156666667","24.9278983333333","6500900","三峽區"
"237012","275-BY","2018/10/22 19:19:33","新北市三峽區三樹路100號","121.378915","24.938715","6500900","三峽區"
"237008","302-VK","2018/10/22 19:19:33","新北市三峽區光明路106巷48號","121.3754","24.926905","6500900","三峽區"
"237014","433-BY","2018/10/22 19:19:24","新北市三峽區大仁路60號","121.365105","24.9374533333333","6500900","三峽區"
"237006","5529-G3","2018/10/22 19:19:24","新北市三峽區橫溪路20號","121.396233333333","24.9358033333333","6500900","三峽區"
"237011","KEA-2596","2018/10/22 19:19:36","新北市三峽區介壽路三段107號","121.395438333333","24.939305","6500900","三峽區"
"237015","649-BX","2018/10/22 19:19:27","新北市三峽區建安65-1號","121.44723","24.9268966666667","6500900","三峽區"
"237010","706-TV","2018/10/22 19:19:29","新北市三峽區民生街44號","121.375405","24.9363316666667","6500900","三峽區"
"237005","AKY-6261","2018/10/22 19:19:33","新北市三峽區隆恩街245號","121.357551666667","24.9409083333333","6500900","三峽區"
"236069","105-UM","2018/10/22 19:19:42","新北市土城區學成路10號","121.453326666667","24.986595","6501300","土城區"
"236078","166-UM","2018/10/22 19:19:36","新北市土城區中央路四段321巷26號","121.411328333333","24.95131","6501300","土城區"
"236026","269-VK","2018/10/22 19:19:37","新北市土城區中正路67巷27號","121.444121666667","24.9766166666667","6501300","土城區"
"236014","270-VK","2018/10/22 19:19:42","新北市土城區學府路一段23巷27號","121.457635","24.986935","6501300","土城區"
"236020","401-BY","2018/10/22 19:19:37","新北市土城區峰廷街3號","121.469026666667","24.987325","6501300","土城區"
"236042","752-BX","2018/10/22 19:19:35","新北市土城區學府路一段239號","121.450398333333","24.98339","6501300","土城區"
"236059","912-UM","2018/10/22 19:19:40","新北市土城區中央路二段243號","121.440093333333","24.9716733333333","6501300","土城區"
"236048","913-UM","2018/10/22 19:19:39","新北市土城區明德路一段365-1號","121.45364","24.9790866666667","6501300","土城區"
"242048","497-BY","2018/10/22 19:19:42","新北市新莊區後港一路3號","121.424165","25.0263483333333","6500500","新莊區"
"242013","173-VK","2018/10/22 19:19:36","新北市新莊區三和路12-21號","121.441855","25.0387633333333","6500500","新莊區"
"242007","176-VK","2018/10/22 19:19:36","新北市新莊區新泰路357巷3弄1號","121.442491666667","25.04132","6500500","新莊區"
"242031","348-TH","2018/10/22 19:19:38","新北市新莊區三和路12-19號","121.442215","25.0377533333333","6500500","新莊區"
"238015","755-BX","2018/10/22 19:19:24","新北市樹林區備內街101號","121.407266666667","24.9894416666667","6500700","樹林區"
"238023","601-UM","2018/10/22 19:19:21","桃園市龜山區萬壽路一段309號","121.40276","25.0172666666667","6500700","樹林區"
"238019","599-UM","2018/10/22 19:19:36","新北市樹林區鎮前街347巷8號","121.416803333333","24.9835","6500700","樹林區"
"238024","5061-A6","2018/10/22 19:19:34","新北市樹林區福德街18號","121.400935","24.9761133333333","6500700","樹林區"
"238022","KEA-2213","2018/10/22 19:19:29","新北市樹林區中山路二段230號","121.40906","24.980225","6500700","樹林區"
"238021","KEA-2539","2018/10/22 19:19:37","新北市樹林區柑園街二段382巷11號","121.367838333333","24.9497333333333","6500700","樹林區"
"238025","303-VK","2018/10/22 19:19:31","新北市樹林區中山路二段219號","121.402621666667","24.9761416666667","6500700","樹林區"
"238017","283-BY","2018/10/22 19:19:44","新北市樹林區光興街280號","121.406903333333","25.005295","6500700","樹林區"
"238014","282-BY","2018/10/22 19:19:29","新北市樹林區保安二街40巷18號","121.425601666667","24.9946083333333","6500700","樹林區"
"238020","268-VK","2018/10/22 19:19:41","新北市樹林區俊英街121巷21號","121.423726666667","25.0101433333333","6500700","樹林區"
"238026","172-UY","2018/10/22 19:19:32","新北市樹林區佳園路一段39-1號","121.393328333333","24.9708016666667","6500700","樹林區"
"238016","169-UY","2018/10/22 19:19:30","新北市樹林區備前街29號","121.416888333333","24.9857033333333","6500700","樹林區"
"239007","AAC-297","2018/10/22 19:19:33","新北市鶯歌區西湖街53巷30號","121.341908333333","24.9605366666667","6500800","鶯歌區"
"239006","891-R6","2018/10/22 19:19:39","新北市鶯歌區鶯桃路91巷1號","121.339386666667","24.95342","6500800","鶯歌區"
"239008","527-UM","2018/10/22 19:19:29","新北市鶯歌區大湖路542號","121.3368","24.97294","6500800","鶯歌區"
"239005","526-UM","2018/10/22 19:19:29","新北市鶯歌區中湖街94-1號","121.348548333333","24.97291","6500800","鶯歌區"
"239001","417-VK","2018/10/22 19:19:25","新北市鶯歌區建國路596巷48號","121.340528333333","24.9515833333333","6500800","鶯歌區"
"239003","360-BY","2018/10/22 19:19:24","新北市鶯歌區中正一路474號","121.365108333333","24.95653","6500800","鶯歌區"
"239004","193-VK","2018/10/22 19:19:28","新北市鶯歌區中正三路291巷8號","121.329773333333","24.9357733333333","6500800","鶯歌區"
"221008","489-VK","2018/10/22 19:19:26","新北市汐止區康寧街349號","121.627946666667","25.06756","6501100","汐止區"
"221036","130-UY","2018/10/22 19:19:38","新北市汐止區康寧街901號","121.651556666667","25.07499","6501100","汐止區"
"221015","131-UY","2018/10/22 19:19:33","新北市汐止區汐萬路一段256巷3號","121.653363333333","25.0744516666667","6501100","汐止區"
"221010","269-BY","2018/10/22 19:19:39","新北市汐止區康寧街901號","121.651328333333","25.07503","6501100","汐止區"
"221012","278-VK","2018/10/22 19:19:21","新北市汐止區汐萬路一段160號","121.652585","25.07155","6501100","汐止區"
"221023","279-VK","2018/10/22 19:19:31","新北市汐止區康寧街901號","121.651691666667","25.0749366666667","6501100","汐止區"
"221032","280-BY","2018/10/22 19:19:29","新北市汐止區汐萬路一段212號","121.651981666667","25.0724866666667","6501100","汐止區"
"221027","281-BY","2018/10/22 19:19:29","新北市汐止區汐萬路一段312號","121.650343333333","25.0750783333333","6501100","汐止區"
"221029","298-VK","2018/10/22 19:19:22","新北市汐止區康寧街901號","121.651635","25.074895","6501100","汐止區"
"221021","299-VK","2018/10/22 19:19:33","新北市汐止區康寧街901號","121.651456666667","25.0750233333333","6501100","汐止區"
"221031","353-TW","2018/10/22 19:19:41","新北市汐止區汐萬路一段256巷3號","121.653308333333","25.0746216666667","6501100","汐止區"
"221025","623-UM","2018/10/22 19:19:33","新北市汐止區汐萬路一段312號","121.650568333333","25.0754083333333","6501100","汐止區"
"221038","646-BX","2018/10/22 19:19:35","新北市汐止區汐萬路一段312號","121.650626666667","25.0753116666667","6501100","汐止區"
"221002","707-TV","2018/10/22 19:19:31","新北市汐止區大同路一段398-1號","121.640055","25.0598983333333","6501100","汐止區"
"220079","145-BY","2018/10/22 19:19:29","新北市板橋區民權路202巷17弄22號","121.45993","25.0166083333333","6500100","板橋區"
"220080","200-UY","2018/10/22 19:15:24","新北市新莊區建國二路57號","121.432566666667","25.0246166666667","6500100","板橋區"
"220082","610-BX","2018/10/22 19:19:39","新北市板橋區金門街316號","121.428695","24.985115","6500100","板橋區"
"220103","257-TC","2018/10/22 19:19:22","新北市板橋區介壽街17號","121.467708333333","25.0201316666667","6500100","板橋區"
"220056","276-BY","2018/10/22 19:19:25","新北市板橋區信義路201號","121.459318333333","24.99154","6500100","板橋區"
"220072","277-BY","2018/10/22 19:19:26","新北市板橋區篤行路二段161巷7號","121.42988","24.9875716666667","6500100","板橋區"
"220101","280-UM","2018/10/22 19:19:27","新北市板橋區莊敬路25巷17號","121.474416666667","25.0270816666667","6500100","板橋區"
"220094","283-UM","2018/10/22 19:19:35","新北市板橋區吳鳳路21巷2號","121.46692","25.031265","6500100","板橋區"
"220071","283-VK","2018/10/22 19:19:40","新北市板橋區忠孝路48巷64號","121.461143333333","25.000045","6500100","板橋區"
"220053","285-VK","2018/10/22 19:19:40","新北市板橋區永豐街259號","121.47806","25.021285","6500100","板橋區"
"220083","286-VK","2018/10/22 19:19:40","新北市板橋區大觀路二段174巷186弄2-3號","121.442366666667","25.0036383333333","6500100","板橋區"
"220081","287-VK","2018/10/22 19:19:32","新北市板橋區南雅西路二段2-1號","121.453193333333","25.008845","6500100","板橋區"
"220090","288-VK","2018/10/22 19:19:36","新北市板橋區長江路一段106巷13弄21號","121.460846666667","25.029515","6500100","板橋區"
"220061","293-UM","2018/10/22 19:19:37","新北市板橋區中山路二段309巷12號","121.478576666667","25.0189816666667","6500100","板橋區"
"220062","295-UM","2018/10/22 19:19:35","新北市板橋區三民路二段153巷30弄33號","121.481095","25.0147116666667","6500100","板橋區"
"220084","296-UM","2018/10/22 19:19:23","新北市板橋區溪北路97號","121.428626666667","24.98933","6500100","板橋區"
"220075","303-R5","2018/10/22 19:19:38","新北市板橋區中正路275巷77號","121.452271666667","25.0181466666667","6500100","板橋區"
"220092","307-R5","2018/10/22 19:19:32","新北市板橋區松江街51號","121.468575","25.027535","6500100","板橋區"
"220098","317-R6","2018/10/22 19:19:37","新北市板橋區民有街91號","121.4646","25.027595","6500100","板橋區"
"220064","486-VK","2018/10/22 19:19:26","新北市板橋區縣民大道二段７號","121.464821666667","25.0141016666667","6500100","板橋區"
"220089","487-VK","2018/10/22 19:19:39","新北市板橋區文化路一段361號","121.46681","25.0212166666667","6500100","板橋區"
"220088","491-VK","2018/10/22 19:19:43","新北市板橋區雙十路二段4號","121.477166666667","25.0254683333333","6500100","板橋區"
"220035","560-BX","2018/10/22 19:19:36","新北市板橋區中正路362號","121.454478333333","25.0238766666667","6500100","板橋區"
"220063","609-BX","2018/10/22 19:19:40","新北市板橋區三民路一段94號","121.479373333333","25.02156","6500100","板橋區"
"220091","637-BX","2018/10/22 19:19:38","新北市板橋區萬板路468號","121.479745","25.0258866666667","6500100","板橋區"
"220057","686-BX","2018/10/22 19:19:32","新北市中和區民德路358號","121.466338333333","24.993865","6500100","板橋區"
"220077","687-BX","2018/10/22 19:19:42","新北市板橋區僑中二街12巷2號","121.446853333333","25.0106966666667","6500100","板橋區"
"220093","689-BX","2018/10/22 19:19:36","新北市板橋區文化路一段241號","121.464198333333","25.01779","6500100","板橋區"
"220054","741-BX","2018/10/22 19:19:29","新北市板橋區實踐路169號","121.464288333333","25.0037883333333","6500100","板橋區"
"220102","KEA-2699","2018/10/22 19:19:41","新北市板橋區文聖街207-2號","121.479593333333","25.02658","6500100","板橋區"
"220055","827-TW","2018/10/22 19:19:31","新北市板橋區民族路57號","121.46465","25.0088283333333","6500100","板橋區"
"220067","829-TW","2018/10/22 19:19:38","新北市板橋區長安街178巷8號","121.474116666667","25.0110833333333","6500100","板橋區"
"220096","831-TW","2018/10/22 19:19:42","新北市板橋區大同街53號","121.478525","25.0274683333333","6500100","板橋區"
"220074","895-R6","2018/10/22 19:19:29","新北市板橋區西門街3號","121.456108333333","25.0116433333333","6500100","板橋區"
"220073","985-R7","2018/10/22 19:19:20","新北市板橋區新生街26號","121.456011666667","25.0211566666667","6500100","板橋區"
"220097","AAC-210","2018/10/22 19:19:28","新北市板橋區幸福路60巷77-2號","121.459843333333","25.02209","6500100","板橋區"
"220070","AAC-253","2018/10/22 19:19:28","新北市板橋區忠孝路41-1號","121.461343333333","25.0020716666667","6500100","板橋區"
"235068","KEA-2873","2018/10/22 19:19:38","新北市中和區連勝街38巷7號","121.497645","24.9979","6500300","中和區"
"235061","KEA-2875","2018/10/22 19:19:25","新北市中和區中山路二段523巷60號","121.482098333333","25.0027566666667","6500300","中和區"
"235046","KEA-2876","2018/10/22 19:19:15","新北市中和區華新街108號","121.508558333333","24.98284","6500300","中和區"
