"lineid","car","time","location","longitude","latitude","cityid","cityname"
"234081","298-R6","2018/10/22 20:29:21","新北市永和區永貞路31號","121.521028333333","25.0066483333333","6500400","永和區"
"234038","336-UY","2018/10/22 20:29:32","新北市永和區民樂街31巷8弄13號","121.52892","25.00126","6500400","永和區"
"234064","337-UY","2018/10/22 20:29:30","新北市永和區中正路417-1號","121.517045","25.00492","6500400","永和區"
"234086","338-UY","2018/10/22 20:29:40","新北市永和區永和路二段233號","121.515565","25.0141533333333","6500400","永和區"
"234070","552-UM","2018/10/22 20:29:32","新北市永和區永亨路7號","121.519405","25.00566","6500400","永和區"
"234054","KEA-2590","2018/10/22 20:29:42","新北市永和區環河東路一段82號","121.519628333333","25.01647","6500400","永和區"
"234013","KEA-2591","2018/10/22 20:29:30","新北市永和區仁愛路306巷18弄7號","121.502951666667","25.008985","6500400","永和區"
"234061","AAD-866","2018/10/22 20:29:24","新北市永和區得和路2號","121.514933333333","25.0006683333333","6500400","永和區"
"234042","862-TW","2018/10/22 20:29:38","新北市永和區安樂路431號","121.51439","25.0043066666667","6500400","永和區"
"234050","863-TW","2018/10/22 20:29:35","新北市永和區新生路87號","121.50838","25.015825","6500400","永和區"
"234026","9371-KE","2018/10/22 20:29:28","新北市永和區環河西路二段125號","121.506055","25.0144666666667","6500400","永和區"
"249001","173-UM","2018/10/22 20:29:26","新北市八里區中山路三段133號","121.388325","25.142455","6502300","八里區"
"249004","303-UY","2018/10/22 20:29:36","新北市八里區中山路一段131號","121.413348333333","25.159265","6502300","八里區"
"249002","305-UY","2018/10/22 20:29:30","新北市八里區龍米路二段125巷23號","121.445868333333","25.145545","6502300","八里區"
"249003","593-UM","2018/10/22 20:29:36","新北市八里區華峰一街20號","121.39922","25.1467083333333","6502300","八里區"
"248018","225-UY","2018/10/22 20:29:30","新北市八里區中山路三段386號","121.368483333333","25.13606","6501500","五股區"
"248002","655-BX","2018/10/22 20:29:41","新北市五股區新五路三段38號","121.44394","25.08769","6501500","五股區"
"234023","9380-KE","2018/10/22 20:29:26","新北市永和區博愛街32巷12號","121.518783333333","25.0152966666667","6500400","永和區"
"234074","AAC-211","2018/10/22 20:29:30","新北市永和區豫溪街191巷7弄23號","121.523238333333","25.0109866666667","6500400","永和區"
"234067","AAC-212","2018/10/22 20:29:24","新北市永和區保平路292巷4號","121.50791","25.0048683333333","6500400","永和區"
"243013","AAD-798","2018/10/22 20:29:37","新北市泰山區明志路二段257號","121.427028333333","25.0477483333333","6501600","泰山區"
"243009","297-R6","2018/10/22 20:29:38","新北市泰山區忠孝街16巷13號","121.428066666667","25.0650633333333","6501600","泰山區"
"243016","KEA-2801","2018/10/22 20:29:41","新北市泰山區明志路二段246-1號","121.427068333333","25.0481066666667","6501600","泰山區"
"243015","421-VK","2018/10/22 20:29:36","新北市泰山區福興三街21號","121.43446","25.05743","6501600","泰山區"
"243011","KEA-2215","2018/10/22 20:29:34","新北市泰山區中山路二段841號","121.425541666667","25.03529","6501600","泰山區"
"243010","KEA-2216","2018/10/22 20:29:34","新北市泰山區明志路二段237巷21號","121.428123333333","25.0481283333333","6501600","泰山區"
"243012","646-TV","2018/10/22 20:29:33","新北市泰山區忠孝街19巷3-1號","121.427465","25.065745","6501600","泰山區"
"243014","680-BX","2018/10/22 20:29:36","新北市泰山區橫窠雅36號","121.404418333333","25.0727933333333","6501600","泰山區"
"222003","436-BY","2018/10/22 20:29:31","新北市深坑區深坑街45號","121.615428333333","25.0018516666667","6501800","深坑區"
"222002","659-BX","2018/10/22 20:29:37","新北市深坑區萬福路63巷8號","121.599798333333","25.0077533333333","6501800","深坑區"
"231041","002-UM","2018/10/22 20:29:27","新北市新店區中正路501-2號","121.533641666667","24.9837566666667","6500600","新店區"
"231059","046-UY","2018/10/22 20:29:41","新北市新店區安德街171號","121.508606666667","24.959025","6500600","新店區"
"231040","047-UY","2018/10/22 20:29:41","新北市新店區中正路346號","121.536335","24.9751383333333","6500600","新店區"
"231052","108-UY","2018/10/22 20:29:31","新北市新店區松林路36號","121.546216666667","24.9102633333333","6500600","新店區"
"231047","187-VK","2018/10/22 20:29:38","新北市新店區寶慶街58巷21-1號","121.542025","24.98731","6500600","新店區"
"231054","KEA-2219","2018/10/22 20:29:22","新北市新店區檳榔路150號","121.544295","24.96156","6500600","新店區"
"231057","256-BX","2018/10/22 20:29:29","新北市新店區花園十路二段3號","121.555035","24.9340566666667","6500600","新店區"
"231042","268-BY","2018/10/22 20:29:38","新北市新店區寶橋路156-1號","121.548563333333","24.9769733333333","6500600","新店區"
"231051","278-BY","2018/10/22 20:29:23","新北市新店區中央七街29號","121.529498333333","24.97542","6500600","新店區"
"231050","AAD-862","2018/10/22 20:29:25","新北市新店區建興街9巷11號","121.539915","24.9762633333333","6500600","新店區"
"231058","3713-VJ","2018/10/22 20:29:29","新北市新店區自由街8號","121.53535","24.9749616666667","6500600","新店區"
"231066","4716-K9","2018/10/22 20:29:02","新北市新店區柴埕路60巷9-2號","121.508363333333","24.9651766666667","6500600","新店區"
"231056","4715-K9","2018/10/22 20:29:37","新北市新店區中央路85號","121.532171666667","24.97653","6500600","新店區"
"231067","4772-VM","2018/10/22 20:29:32","新北市新店區安華路28-1號","121.519911666667","24.9608266666667","6500600","新店區"
"231065","512-UM","2018/10/22 20:29:41","新北市新店區安祥路102巷46弄67號","121.486743333333","24.9634183333333","6500600","新店區"
"231049","513-UM","2018/10/22 20:29:32","新北市新店區華潭街52號","121.52842","24.954645","6500600","新店區"
"231045","617-UM","2018/10/22 20:29:39","新北市新店區新坡一街2號","121.548476666667","24.96106","6500600","新店區"
"231044","618-UM","2018/10/22 20:29:26","新北市新店區建國路174號","121.538095","24.9797666666667","6500600","新店區"
"231061","619-UM","2018/10/22 20:29:32","新北市新店區新和街34號","121.519271666667","24.9848366666667","6500600","新店區"
"231063","641-BX","2018/10/22 20:29:35","新北市新店區玫瑰路4-1號","121.493591666667","24.951395","6500600","新店區"
"231064","719-UM","2018/10/22 20:29:40","新北市新店區永安街74巷24號","121.519181666667","24.9859833333333","6500600","新店區"
"231068","719-UY","2018/10/22 20:29:26","新北市新店區中興路三段252號","121.542908333333","24.9840666666667","6500600","新店區"
"231062","720-UM","2018/10/22 20:29:32","新北市新店區安泰路11巷1號","121.485551666667","24.9502083333333","6500600","新店區"
"231060","897-TW","2018/10/22 20:29:38","新北市新店區錦秀路1-3號","121.479093333333","24.9455216666667","6500600","新店區"
"231043","899-TW","2018/10/22 20:29:33","新北市新店區建國路88號","121.540476666667","24.9771833333333","6500600","新店區"
"241011","013-R5","2018/10/22 20:29:40","新北市三重區三和路三段53號","121.495353333333","25.0716483333333","6500200","三重區"
"241028","022-UY","2018/10/22 20:29:27","新北市三重區光興街89號","121.497433333333","25.0599483333333","6500200","三重區"
"241008","059-VK","2018/10/22 20:29:30","新北市三重區下竹圍街93巷1號","121.481133333333","25.074685","6500200","三重區"
"241022","060-VK","2018/10/22 20:29:40","新北市三重區中正北路20巷9號","121.487935","25.0630716666667","6500200","三重區"
"241031","061-VK","2018/10/22 20:29:34","新北市三重區三寧街22號","121.489511666667","25.059915","6500200","三重區"
"241015","062-VK","2018/10/22 20:29:44","新北市三重區正義北路107巷68號","121.498623333333","25.0660616666667","6500200","三重區"
"241017","063-VK","2018/10/22 20:29:29","新北市三重區自強路一段207號","121.4916","25.06843","6500200","三重區"
"241024","065-VK","2018/10/22 20:29:34","新北市三重區中正北路276巷28號","121.480318333333","25.06732","6500200","三重區"
"241026","066-VK","2018/10/22 20:29:41","新北市三重區福德南路36號","121.50284","25.0627483333333","6500200","三重區"
"241002","090-VK","2018/10/22 20:29:29","新北市三重區仁義街211巷13號","121.497378333333","25.0821033333333","6500200","三重區"
"241003","091-VK","2018/10/22 20:29:24","新北市三重區富華街173號","121.493558333333","25.085155","6500200","三重區"
"251014","742-BX","2018/10/22 20:29:39","新北市淡水區石頭厝2-3號","121.458983333333","25.2365083333333","6501000","淡水區"
"241005","262-UM","2018/10/22 20:29:43","新北市三重區碧華街380號","121.49123","25.084535","6500200","三重區"
"241012","265-UM","2018/10/22 20:29:35","新北市三重區龍濱路269號","121.501401666667","25.072905","6500200","三重區"
"241016","266-UM","2018/10/22 20:29:31","新北市三重區正義北路124號","121.496853333333","25.0655583333333","6500200","三重區"
"241018","268-UM","2018/10/22 20:29:31","新北市三重區正義北路220號","121.49632","25.06763","6500200","三重區"
"241032","269-UM","2018/10/22 20:29:31","新北市三重區重陽路一段120巷35號","121.485285","25.0601583333333","6500200","三重區"
"241013","270-UM","2018/10/22 20:29:37","新北市三重區溪尾街5巷21號","121.49257","25.0745916666667","6500200","三重區"
"241025","271-UM","2018/10/22 20:29:25","新北市三重區頂崁街210巷27號","121.475748333333","25.0681933333333","6500200","三重區"
"241035","KEA-2210","2018/10/22 20:29:42","新北市三重區重新路二段58號","121.498145","25.0619766666667","6500200","三重區"
"241004","475-VK","2018/10/22 20:29:34","新北市三重區溪尾街191號","121.488678333333","25.0805583333333","6500200","三重區"
"241020","478-VK","2018/10/22 20:29:42","新北市三重區明德街50號","121.492035","25.071865","6500200","三重區"
"241030","480-VK","2018/10/22 20:29:33","新北市三重區成功路70號","121.488506666667","25.050975","6500200","三重區"
"241014","543-UM","2018/10/22 20:29:33","新北市三重區長壽街120巷10-1號","121.501981666667","25.0692483333333","6500200","三重區"
"241023","545-UM","2018/10/22 20:29:39","新北市三重區自由街17巷1號","121.479886666667","25.0666933333333","6500200","三重區"
"241001","547-UM","2018/10/22 20:29:42","新北市三重區福隆路8號","121.490021666667","25.0772766666667","6500200","三重區"
"241019","KEA-2593","2018/10/22 20:29:36","新北市三重區大智街137號","121.49076","25.070545","6500200","三重區"
"241006","AAD-863","2018/10/22 20:29:38","新北市三重區車路頭街135-1號","121.484223333333","25.0761633333333","6500200","三重區"
"241007","743-BX","2018/10/22 20:29:39","新北市三重區自強路四段41號","121.489501666667","25.0775483333333","6500200","三重區"
"241009","887-TS","2018/10/22 20:29:35","新北市三重區永福街46巷15弄7號","121.481405","25.0780183333333","6500200","三重區"
"241029","942-UM","2018/10/22 20:29:23","新北市三重區集美街205號","121.49163","25.0546416666667","6500200","三重區"
"241033","AAC-255","2018/10/22 20:29:28","新北市三重區五谷王北街82號","121.475991666667","25.0527733333333","6500200","三重區"
"235066","003-UY","2018/10/22 20:29:32","新北市中和區中山路二段3巷22弄24號","121.505878333333","25.0045916666667","6500300","中和區"
"235065","098-UM","2018/10/22 20:29:43","新北市中和區福美路312巷9號","121.496568333333","25.0053083333333","6500300","中和區"
"247012","KEA-2869","2018/10/22 20:29:38","新北市蘆洲區復興路228號","121.47918","25.0893833333333","6501400","蘆洲區"
"235050","4979-A6","2018/10/22 20:29:34","新北市中和區景平路566號","121.50185","24.9953533333333","6500300","中和區"
"235069","4980-A6","2018/10/22 20:29:24","新北市中和區中正路432巷20號","121.49095","24.9953483333333","6500300","中和區"
"235054","640-BX","2018/10/22 20:29:35","新北市林口區汕頭32號","121.366345","25.1345633333333","6500300","中和區"
"235059","AAC-215","2018/10/22 20:29:33","新北市中和區員山路49-9號","121.480378333333","24.9913366666667","6500300","中和區"
"247002","893-R6","2018/10/22 20:29:40","新北市蘆洲區長安街361巷26號","121.456016666667","25.087625","6501400","蘆洲區"
"247016","546-UM","2018/10/22 20:29:25","新北市蘆洲區光華路92號","121.467678333333","25.08266","6501400","蘆洲區"
"247024","500-BY","2018/10/22 20:29:34","新北市蘆洲區光復路70巷16號","121.46461","25.0851666666667","6501400","蘆洲區"
"247014","339-TH","2018/10/22 20:29:29","新北市蘆洲區中山二路62號","121.47366","25.0821283333333","6501400","蘆洲區"
"247006","337-TH","2018/10/22 20:29:29","新北市蘆洲區和平路121巷14弄38號","121.466088333333","25.08015","6501400","蘆洲區"
"247008","336-TH","2018/10/22 20:29:30","新北市蘆洲區重陽街91號","121.48234","25.0852583333333","6501400","蘆洲區"
"247020","057-VK","2018/10/22 20:29:30","新北市蘆洲區仁愛街161巷33-1號","121.468636666667","25.09428","6501400","蘆洲區"
"247010","056-VK","2018/10/22 20:29:27","新北市蘆洲區信義路220號","121.479141666667","25.08523","6501400","蘆洲區"
"247018","007-UY","2018/10/22 20:29:26","新北市蘆洲區民族路327巷100-1號","121.474928333333","25.0903716666667","6501400","蘆洲區"
"247004","002-UY","2018/10/22 20:29:29","新北市蘆洲區長安街222號","121.458106666667","25.0849133333333","6501400","蘆洲區"
"247022","001-UY","2018/10/22 20:29:31","新北市蘆洲區中正路263巷2號","121.467338333333","25.0875633333333","6501400","蘆洲區"
"224010","AGQ-8101","2018/10/22 20:25:55","新北市瑞芳區崙頂路1-6號","121.84705","25.1059883333333","6501200","瑞芳區"
"222001","KEA-2212","2018/10/22 20:29:31","新北市深坑區北深路三段329號","121.597205","25.0050033333333","6501800","深坑區"
"251013","KEA-2871","2018/10/22 20:29:38","新北市淡水區奎柔山路460號","121.463838333333","25.2047083333333","6501000","淡水區"
"251016","179-VK","2018/10/22 20:29:36","新北市淡水區新埔子11-1號","121.44719","25.2286183333333","6501000","淡水區"
"251015","180-VK","2018/10/22 20:29:40","新北市淡水區淡金路四段542巷17號","121.452718333333","25.2270916666667","6501000","淡水區"
"251008","181-VK","2018/10/22 20:29:25","新北市淡水區淡海路189巷6號","121.420121666667","25.1844983333333","6501000","淡水區"
"251010","413-VK","2018/10/22 20:29:34","新北市淡水區沙崙路181巷2號","121.42441","25.1840083333333","6501000","淡水區"
"251012","441-VK","2018/10/22 20:29:38","新北市淡水區興仁路108號","121.451646666667","25.2181783333333","6501000","淡水區"
"251001","559-UM","2018/10/22 20:29:31","新北市淡水區新市一路三段168號","121.447755","25.1829333333333","6501000","淡水區"
"251006","561-UM","2018/10/22 20:29:33","新北市淡水區商工路296號","121.460873333333","25.1862683333333","6501000","淡水區"
"251007","577-R6","2018/10/22 20:29:35","新北市淡水區淡金路一段69號","121.458076666667","25.17353","6501000","淡水區"
"251002","672-BX","2018/10/22 20:29:32","新北市淡水區中正路27號","121.442468333333","25.1696366666667","6501000","淡水區"
"251003","766-UM","2018/10/22 20:29:32","新北市淡水區新生街39號","121.440166666667","25.174805","6501000","淡水區"
"252002","178-VK","2018/10/22 20:29:28","新北市三芝區淡金路二段47-2號","121.503653333333","25.2605333333333","6502100","三芝區"
"252001","292-VK","2018/10/22 20:29:27","新北市三芝區中山路一段35號","121.500686666667","25.2579416666667","6502100","三芝區"
"242058","986-R7","2018/10/22 20:29:30","新北市新莊區四維路149號","121.422658333333","25.0221416666667","6500500","新莊區"
"242056","751-BX","2018/10/22 20:29:41","新北市新莊區瓊泰路181號","121.443061666667","25.0315766666667","6500500","新莊區"
"242027","705-TV","2018/10/22 20:29:41","新北市新莊區思源路245號","121.459806666667","25.0470566666667","6500500","新莊區"
"242025","613-BX","2018/10/22 20:29:26","新北市新莊區五工三路64號","121.459526666667","25.0645083333333","6500500","新莊區"
"242029","612-BX","2018/10/22 20:29:24","新北市新莊區中華路二段141號","121.452961666667","25.0508616666667","6500500","新莊區"
"242044","566-BX","2018/10/22 20:29:34","新北市新莊區中正路新建巷55號","121.414725","25.0214483333333","6500500","新莊區"
"242048","497-BY","2018/10/22 20:29:41","新北市新莊區裕民街85巷20號","121.419605","25.0231983333333","6500500","新莊區"
"242015","442-UM","2018/10/22 20:29:35","新北市新莊區中平路82巷16號","121.445518333333","25.0448133333333","6500500","新莊區"
"242039","415-TV","2018/10/22 20:29:35","新北市新莊區民安路234號","121.426231666667","25.022235","6500500","新莊區"
"242009","413-TV","2018/10/22 20:29:34","新北市新莊區昌盛街105-6號","121.456461666667","25.0500116666667","6500500","新莊區"
"242046","400-BY","2018/10/22 20:29:40","新北市新莊區富國路22巷21號","121.418335","25.0257483333333","6500500","新莊區"
"242023","362-BY","2018/10/22 20:29:34","新北市新莊區頭前路82號","121.466186666667","25.0525016666667","6500500","新莊區"
"242060","353-BY","2018/10/22 20:29:35","新北市新莊區民安東路40號","121.428955","25.0208983333333","6500500","新莊區"
"242011","132-UY","2018/10/22 20:29:42","新北市新莊區中信街65號","121.449141666667","25.0508133333333","6500500","新莊區"
"242042","133-UY","2018/10/22 20:29:27","新北市新莊區中正路694巷3弄2號","121.418305","25.028375","6500500","新莊區"
"242034","135-UY","2018/10/22 20:29:38","新北市新莊區新泰路198號","121.447071666667","25.0383633333333","6500500","新莊區"
"242050","172-VK","2018/10/22 20:29:34","新北市新莊區民安西路189巷11號","121.426566666667","25.01535","6500500","新莊區"
"242013","173-VK","2018/10/22 20:29:36","新北市新莊區中平路302巷6號","121.44538","25.05164","6500500","新莊區"
"242019","175-VK","2018/10/22 20:29:37","新北市新莊區銘德街77號","121.456421666667","25.0435266666667","6500500","新莊區"
"242007","176-VK","2018/10/22 20:29:36","新北市新莊區思源路287巷1弄27號","121.4594","25.0472216666667","6500500","新莊區"
"242017","346-TH","2018/10/22 20:29:25","新北市新莊區中港三街26號","121.450458333333","25.0464066666667","6500500","新莊區"
"242031","348-TH","2018/10/22 20:29:38","新北市新莊區三和路13-21號","121.440551666667","25.0368033333333","6500500","新莊區"
"242004","349-TH","2018/10/22 20:29:39","新北市新莊區化成路349巷74號","121.463265","25.0565233333333","6500500","新莊區"
"242021","350-TH","2018/10/22 20:29:40","新北市新莊區公園路122號","121.451526666667","25.0401066666667","6500500","新莊區"
"221008","489-VK","2018/10/22 20:29:26","新北市汐止區康寧街511號","121.633115","25.0686033333333","6501100","汐止區"
"221036","130-UY","2018/10/22 20:29:38","新北市汐止區新台五路二段144號","121.663965","25.06656","6501100","汐止區"
"221015","131-UY","2018/10/22 20:29:33","新北市汐止區建成路142巷19弄1號","121.6622","25.0738116666667","6501100","汐止區"
"221010","269-BY","2018/10/22 20:26:59","新北市汐止區八連路二段435號","121.6286","25.1034966666667","6501100","汐止區"
"221012","278-VK","2018/10/22 20:29:41","新北市汐止區保新街4號","121.683748333333","25.0733666666667","6501100","汐止區"
"221023","279-VK","2018/10/22 20:29:31","新北市汐止區湖東街5巷29號","121.634758333333","25.0734733333333","6501100","汐止區"
"221032","280-BY","2018/10/22 20:29:29","新北市汐止區弘道街53巷22號","121.618748333333","25.0494916666667","6501100","汐止區"
"221027","281-BY","2018/10/22 20:29:29","新北市汐止區中正路229號","121.65793","25.0687066666667","6501100","汐止區"
"221029","298-VK","2018/10/22 20:29:42","新北市汐止區樟樹一路129巷34弄13號","121.640473333333","25.0651116666667","6501100","汐止區"
"221021","299-VK","2018/10/22 20:29:33","新北市汐止區水源路一段284號","121.654263333333","25.0583166666667","6501100","汐止區"
"221031","353-TW","2018/10/22 20:29:41","新北市汐止區中興路110巷34號","121.634293333333","25.06466","6501100","汐止區"
"221035","622-UM","2018/10/22 20:29:36","新北市汐止區長江街101-5號","121.658703333333","25.0731716666667","6501100","汐止區"
"221025","623-UM","2018/10/22 20:29:33","新北市汐止區水源路二段86號","121.656443333333","25.05606","6501100","汐止區"
"221038","646-BX","2018/10/22 20:29:14","新北市汐止區水源路一段56-1號","121.657211666667","25.0654183333333","6501100","汐止區"
"221033","647-BX","2018/10/22 20:29:31","新北市汐止區林森街73巷15號","121.623733333333","25.04123","6501100","汐止區"
"221002","707-TV","2018/10/22 20:29:31","新北市汐止區福德二路50號","121.6342","25.0672666666667","6501100","汐止區"
"221018","753-BX","2018/10/22 20:29:36","新北市汐止區茄苳路225巷3號","121.671188333333","25.0690366666667","6501100","汐止區"
"220080","200-UY","2018/10/22 20:19:44","新北市板橋區大觀路二段力行1巷3弄2號","121.445666666667","24.9992566666667","6500100","板橋區"
"220103","257-TC","2018/10/22 20:29:41","新北市板橋區漢生東路33巷42號","121.466066666667","25.0177","6500100","板橋區"
"220083","286-VK","2018/10/22 20:29:40","新北市板橋區僑中二街104巷24號","121.445106666667","25.0080316666667","6500100","板橋區"
"220061","293-UM","2018/10/22 20:29:37","新北市板橋區華東街262號","121.452358333333","25.0007966666667","6500100","板橋區"
"242002","281-VK","2018/10/22 20:29:37","新北市新莊區中正路育農巷1號","121.456911666667","25.03792","6500500","新莊區"
"220089","487-VK","2018/10/22 20:29:39","新北市板橋區四維路319號","121.462868333333","25.0289733333333","6500100","板橋區"
"242053","280-VK","2018/10/22 20:29:39","新北市新莊區民安西路229巷9號","121.426676666667","25.0142233333333","6500500","新莊區"
"220070","AAC-253","2018/10/22 20:29:26","新北市新莊區瓊林路118號","121.442548333333","25.0256233333333","6500100","板橋區"
