"lineid","car","time","location","longitude","latitude","cityid","cityname"
"241028","022-UY","2018/10/22 21:49:27","新北市林口區太平里180號","121.368545","25.1338616666667","6500200","三重區"
"247012","KEA-2869","2018/10/22 21:49:18","新北市林口區汕頭32號","121.366468333333","25.1349783333333","6501400","蘆洲區"
"251005","010-UM","2018/10/22 21:49:31","新北市淡水區鄧公路30巷1號","121.452888333333","25.1698983333333","6501000","淡水區"
"251008","181-VK","2018/10/22 21:49:29","新北市淡水區水源街二段48號","121.450511666667","25.173885","6501000","淡水區"
"251010","413-VK","2018/10/22 21:49:34","新北市淡水區中正路二段211號","121.426221666667","25.1891266666667","6501000","淡水區"
"251012","441-VK","2018/10/22 21:49:37","新北市淡水區淡金路三段315號","121.44909","25.2057466666667","6501000","淡水區"
"251004","443-VK","2018/10/22 21:49:40","新北市淡水區自強路201巷39號","121.462171666667","25.1268233333333","6501000","淡水區"
"251006","561-UM","2018/10/22 21:49:29","新北市淡水區中正路11巷3號","121.437813333333","25.1707683333333","6501000","淡水區"
"251009","575-R6","2018/10/22 21:49:32","新北市淡水區民族路35巷16號","121.465016666667","25.1371433333333","6501000","淡水區"
"251007","577-R6","2018/10/22 21:49:35","新北市淡水區水源街二段177巷41弄1-1號","121.452843333333","25.1768616666667","6501000","淡水區"
"251011","650-BX","2018/10/22 21:49:44","新北市淡水區新民街322巷9號","121.436401666667","25.1829033333333","6501000","淡水區"
"251002","672-BX","2018/10/22 21:49:32","新北市淡水區學府路210號","121.44767","25.1763666666667","6501000","淡水區"
"251003","766-UM","2018/10/22 21:49:32","新北市淡水區新春街81號","121.438778333333","25.1823966666667","6501000","淡水區"
"220070","AAC-253","2018/10/22 21:49:26","新北市板橋區華東街1-9號","121.448261666667","24.99488","6500100","板橋區"
