"lineid","car","time","location","longitude","latitude","cityid","cityname"
"248005","653-BX","2018/10/23 06:59:51","新北市五股區中興路二段37巷28號","121.46003","25.07492","6501500","五股區"
"232002","290-BY","2018/10/23 06:59:58","新北市坪林區下坑子口15-1號","121.715766666667","24.9495716666667","6502000","坪林區"
"232013","291-BY","2018/10/23 06:59:55","新北市坪林區粗窟4-1號","121.68236","24.9380416666667","6502000","坪林區"
"232006","758-BX","2018/10/23 06:59:55","新北市坪林區北宜路九段86號","121.73621","24.8945683333333","6502000","坪林區"
"244002","248-BX","2018/10/23 06:59:44","新北市林口區中山路255號","121.385511666667","25.0794733333333","6501700","林口區"
"235001","611-BX","2018/10/23 06:59:53","新北市中和區圓通路367巷4號","121.491353333333","24.9892466666667","6500300","中和區"
"235001","157-BY","2018/10/23 06:59:49","新北市中和區和平街88號","121.507488333333","24.9911883333333","6500300","中和區"
"226002","7418-A5","2018/10/23 06:59:49","新北市平溪區石底里公園街18-3號","121.733475","25.0256383333333","6502400","平溪區"
"223006","022-BY","2018/10/23 06:57:53","新北市石碇區碇坪路一段89號","121.66217","24.9902383333333","6501900","石碇區"
"223002","KEA-2673","2018/10/23 06:59:48","新北市石碇區碇格路二段8號","121.644685","24.961635","6501900","石碇區"
"223003","205-TH","2018/10/23 06:59:48","新北市石碇區石碇東街141號","121.65894","24.98937","6501900","石碇區"
"223008","406-TH","2018/10/23 06:59:42","新北市石碇區十八重溪16-3號","121.67764","25.011205","6501900","石碇區"
"223004","437-BY","2018/10/23 06:59:44","新北市石碇區碇坪路一段60號","121.657095","24.9914166666667","6501900","石碇區"
"223001","592-UM","2018/10/23 06:59:54","新北市石碇區石碇東街46號","121.659521666667","24.9911516666667","6501900","石碇區"
"223007","661-BX","2018/10/23 06:59:42","新北市石碇區十八重溪16-3號","121.677855","25.0110966666667","6501900","石碇區"
"223005","677-TV","2018/10/23 06:59:47","新北市石碇區碇坪路一段62號","121.6572","24.9914066666667","6501900","石碇區"
"227006","282-VK","2018/10/23 06:59:53","新北市雙溪區新基里自強路5號","121.86637","25.0390833333333","6502500","雙溪區"
"252005","073-UM","2018/10/23 06:59:35","新北市三芝區中正路三段3號","121.502995","25.2542016666667","6502100","三芝區"
"252004","249-BX","2018/10/23 06:59:53","新北市三芝區埔坪里埔頭坑41號","121.504645","25.2636716666667","6502100","三芝區"
"252007","AAC-283","2018/10/23 06:59:37","新北市三芝區中興街一段55號","121.498181666667","25.2569316666667","6502100","三芝區"
"242001","233-RS","2018/10/23 06:59:54","新北市新莊區中港路303號","121.452845","25.0445583333333","6500500","新莊區"
