"lineid","car","time","location","longitude","latitude","cityid","cityname"
"248005","653-BX","2018/09/21 08:28:57","新北市五股區明德路10號","121.433481666667","25.07174","6501500","五股區"
"244004","248-BX","2018/09/21 08:29:08","新北市林口區中山路73號","121.392843333333","25.0785","6501700","林口區"
"222005","289-BY","2018/09/21 08:29:05","新北市深坑區萬福路147號","121.611045","25.0163616666667","6501800","深坑區"
"231007","189-VK","2018/09/21 08:29:03","新北市新店區小坑二路100號","121.519958333333","24.912425","6500600","新店區"
"231009","192-VK","2018/09/21 08:29:05","新北市新店區永興路17號","121.54446","24.9389316666667","6500600","新店區"
"235001","611-BX","2018/09/21 08:29:07","新北市中和區員山路425號","121.48098","25.0035","6500300","中和區"
"226005","5620-A6","2018/09/21 08:29:08","新北市平溪區南山里六分9號","121.79682","25.0499083333333","6502400","平溪區"
"226001","7418-A5","2018/09/21 08:29:05","新北市平溪區東勢里芊蓁林47-2號","121.752285","25.0119766666667","6502400","平溪區"
"226006","AGD-0702","2018/09/21 08:29:12","新北市平溪區十分里十分街241號","121.778006666667","25.0442316666667","6502400","平溪區"
"223006","022-BY","2018/09/21 08:28:56","新北市坪林區水柳腳26號","121.7108","24.935725","6501900","石碇區"
"223003","205-TH","2018/09/21 08:29:12","新北市石碇區北宜路六段塗潭巷7號","121.646123333333","24.9340016666667","6501900","石碇區"
"223008","406-TH","2018/09/21 08:28:58","新北市石碇區靜安路一段208號","121.672423333333","25.0070216666667","6501900","石碇區"
"223001","592-UM","2018/09/21 08:29:15","新北市石碇區北宜路六段塗潭巷7號","121.646196666667","24.9340483333333","6501900","石碇區"
"223004","660-BX","2018/09/21 08:29:04","新北市石碇區碇坪路一段186號","121.667516666667","24.9846633333333","6501900","石碇區"
"223007","661-BX","2018/09/21 08:28:58","新北市石碇區番子坑56號","121.676378333333","25.0105133333333","6501900","石碇區"
"223005","677-TV","2018/09/21 08:29:14","新北市石碇區碇坪路一段186號","121.667723333333","24.9842183333333","6501900","石碇區"
"227005","282-VK","2018/09/21 08:25:50","新北市雙溪區上林里大瀨13號","121.824871666667","25.0206133333333","6502500","雙溪區"
"252003","249-BX","2018/09/21 08:29:06","新北市三芝區中山路二段50號","121.503186666667","25.254205","6502100","三芝區"
"237001","159-UY","2018/09/21 08:29:04","新北市三峽區大義路189號","121.37828","24.9449083333333","6500900","三峽區"
"242001","233-RS","2018/09/21 08:29:06","新北市樹林區八德街435號","121.406763333333","24.9694883333333","6500500","新莊區"
