"lineid","car","time","location","longitude","latitude","cityid","cityname"
"248005","653-BX","2018/09/21 09:18:43","新北市五股區水碓一路39號","121.4312","25.0716383333333","6501500","五股區"
"222005","289-BY","2018/09/21 09:18:45","新北市深坑區土庫尖路75-1號","121.631178333333","25.0181983333333","6501800","深坑區"
"231007","189-VK","2018/09/21 09:18:43","新北市新店區新潭路三段215巷25號","121.50811","24.9040833333333","6500600","新店區"
"231009","192-VK","2018/09/21 09:18:45","新北市新店區平廣路一段11號","121.537963333333","24.90737","6500600","新店區"
"235001","611-BX","2018/09/21 09:18:27","新北市中和區中山路三段120-17號","121.474441666667","25.0084066666667","6500300","中和區"
"223006","022-BY","2018/09/21 09:18:37","新北市石碇區石碇東街44號","121.65976","24.9910083333333","6501900","石碇區"
"223003","205-TH","2018/09/21 09:18:31","新北市石碇區北宜路四段20號","121.619198333333","24.959225","6501900","石碇區"
"223008","406-TH","2018/09/21 09:18:43","新北市石碇區南勢坑2-6號","121.701708333333","24.99347","6501900","石碇區"
"223001","592-UM","2018/09/21 09:18:35","新北市石碇區北宜路四段16號","121.616258333333","24.9593266666667","6501900","石碇區"
"223004","660-BX","2018/09/21 09:18:44","新北市石碇區磨石坑13號","121.689135","24.9735433333333","6501900","石碇區"
"223007","661-BX","2018/09/21 09:17:38","新北市石碇區南勢坑4-1號","121.697811666667","24.98325","6501900","石碇區"
"223005","677-TV","2018/09/21 09:18:34","新北市石碇區大崙16號","121.690713333333","24.978545","6501900","石碇區"
"227005","282-VK","2018/09/21 09:18:30","新北市雙溪區泰平里料角坑13-1號","121.817088333333","24.973095","6502500","雙溪區"
"237001","159-UY","2018/09/21 09:18:44","新北市三峽區國際一街19號","121.373773333333","24.94275","6500900","三峽區"
"242001","233-RS","2018/09/21 09:18:29","新北市新莊區環河路636-7號","121.437431666667","25.01162","6500500","新莊區"
