"lineid","car","time","location","longitude","latitude","cityid","cityname"
"248005","653-BX","2018/09/21 09:59:03","新北市五股區成泰路一段210號","121.436153333333","25.0790783333333","6501500","五股區"
"231007","189-VK","2018/09/21 09:59:03","新北市新店區新潭路三段215巷25號","121.508191666667","24.9041066666667","6500600","新店區"
"231009","192-VK","2018/09/21 09:59:05","新北市新店區小坑一路22號","121.53233","24.9140666666667","6500600","新店區"
"227005","282-VK","2018/09/21 09:48:30","新北市雙溪區泰平里溪尾寮7號","121.821673333333","24.9593133333333","6502500","雙溪區"
"242001","233-RS","2018/09/21 09:32:00","新北市新莊區環河路636-7號","121.437406666667","25.01163","6500500","新莊區"
