"lineid","car","time","location","longitude","latitude","cityid","cityname"
"248019","225-UY","2018/09/21 15:13:22","新北市五股區凌雲路三段24巷20-1號","121.434528333333","25.1066066666667","6501500","五股區"
"244004","248-BX","2018/09/21 15:13:04","新北市林口區竹林路265號","121.389585","25.0808066666667","6501700","林口區"
"231002","002-UM","2018/09/21 15:13:05","新北市新店區中正路707號","121.533795","24.9911916666667","6500600","新店區"
"231028","046-UY","2018/09/21 15:13:15","新北市新店區僑愛七路53號","121.501523333333","24.9447183333333","6500600","新店區"
"231001","047-UY","2018/09/21 15:13:23","新北市新店區中正路114號","121.5424","24.971","6500600","新店區"
"231005","106-UY","2018/09/21 15:13:06","新北市新店區民族路6-1號","121.541918333333","24.97892","6500600","新店區"
"231022","108-UY","2018/09/21 15:13:11","新北市新店區新烏路一段247號","121.54666","24.9301483333333","6500600","新店區"
"231012","187-VK","2018/09/21 15:13:23","新北市新店區寶元路一段65號","121.542193333333","24.9858433333333","6500600","新店區"
"231023","KEA-2219","2018/09/21 15:13:15","新北市新店區中興路一段138號","121.542266666667","24.9635883333333","6500600","新店區"
"231026","256-BX","2018/09/21 15:13:07","新北市新店區建安街26號","121.539708333333","24.97553","6500600","新店區"
"231003","268-BY","2018/09/21 15:13:07","新北市新店區寶橋路188-3號","121.550075","24.9779416666667","6500600","新店區"
"231018","278-BY","2018/09/21 15:13:20","新北市新店區中央七街85號","121.5268","24.9769683333333","6500600","新店區"
"231016","AAD-862","2018/09/21 15:13:23","新北市新店區明山路45號","121.56354","24.9558666666667","6500600","新店區"
"231038","3712-VJ","2018/09/21 15:13:12","新北市新店區安華路28-1號","121.519711666667","24.9608333333333","6500600","新店區"
"231037","4716-K9","2018/09/21 15:13:24","新北市新店區安興路56號","121.516628333333","24.974865","6500600","新店區"
"231025","4715-K9","2018/09/21 15:13:05","新北市新店區中央路2號","121.533788333333","24.9788283333333","6500600","新店區"
"231036","512-UM","2018/09/21 15:13:11","新北市新店區安祥路104巷11弄13號","121.480935","24.9633283333333","6500600","新店區"
"231034","616-UM","2018/09/21 15:13:20","新北市新店區玫瑰路4-1號","121.493578333333","24.9514016666667","6500600","新店區"
"231006","617-UM","2018/09/21 15:13:14","新北市新店區新坡一街105-1號","121.54765","24.963195","6500600","新店區"
"231030","619-UM","2018/09/21 15:13:04","新北市新店區安民街341-1號","121.516693333333","24.9749933333333","6500600","新店區"
"231039","718-UY","2018/09/21 15:13:20","新北市新店區寶元路一段65號","121.542223333333","24.98579","6500600","新店區"
"231035","719-UM","2018/09/21 15:13:26","新北市新店區安和路三段111巷5弄2號","121.516978333333","24.9847433333333","6500600","新店區"
"231032","720-UM","2018/09/21 15:13:20","新北市新店區安泰路170號","121.48886","24.9357833333333","6500600","新店區"
"231029","897-TW","2018/09/21 15:13:12","新北市新店區安康路三段740號","121.473818333333","24.94195","6500600","新店區"
"231004","899-TW","2018/09/21 15:13:18","新北市新店區建國路29號","121.540206666667","24.9740433333333","6500600","新店區"
"231024","AKT-0513","2018/09/21 15:13:04","新北市新店區中華路29號","121.540503333333","24.9675366666667","6500600","新店區"
"241011","013-R5","2018/09/21 15:13:20","新北市三重區重新路四段121號","121.484743333333","25.0522316666667","6500200","三重區"
"241013","270-UM","2018/09/21 15:13:08","新北市三重區重新路四段121號","121.484841666667","25.0525133333333","6500200","三重區"
"235030","003-UY","2018/09/21 15:13:14","新北市中和區光華街85號","121.506968333333","25.0026616666667","6500300","中和區"
"235029","098-UM","2018/09/21 15:13:16","新北市中和區圓通路227號","121.496423333333","24.9942966666667","6500300","中和區"
"235014","4979-A6","2018/09/21 15:13:18","新北市中和區景新街317號","121.511246666667","24.9923233333333","6500300","中和區"
"235033","4980-A6","2018/09/21 15:13:19","新北市中和區南山路127巷27弄14號","121.503385","24.9979533333333","6500300","中和區"
"235012","896-TW","2018/09/21 15:13:19","新北市中和區興南路一段108號","121.50961","24.9887633333333","6500300","中和區"
"235023","AAC-215","2018/09/21 15:13:10","新北市中和區圓通路425號","121.488266666667","24.9888366666667","6500300","中和區"
"226005","4501-MT","2018/09/21 15:13:19","新北市平溪區菁桐里菁桐街45號","121.72686","25.0223383333333","6502400","平溪區"
"207002","749-BX","2018/09/21 15:13:25","新北市萬里區崁腳里內中福路12-2號","121.661935","25.16404","6502800","萬里區"
"207001","662-BX","2018/09/21 15:13:14","新北市萬里區磺潭里員潭路42號","121.645223333333","25.1934716666667","6502800","萬里區"
"236067","105-UM","2018/09/21 15:13:16","新北市土城區裕民路185巷36弄10號","121.45437","24.984515","6501300","土城區"
"236040","107-UM","2018/09/21 15:13:20","新北市土城區裕民路259巷24號","121.455321666667","24.9830016666667","6501300","土城區"
"236077","166-UM","2018/09/21 15:13:20","新北市土城區中州路59號","121.412591666667","24.957895","6501300","土城區"
"236024","269-VK","2018/09/21 15:13:08","新北市土城區中央路二段98號","121.442235","24.978355","6501300","土城區"
"236013","270-VK","2018/09/21 15:13:18","新北市土城區廣福街16號","121.457138333333","24.9890916666667","6501300","土城區"
"236032","271-VK","2018/09/21 15:13:22","新北市土城區國際路158巷54號","121.467975","24.9748533333333","6501300","土城區"
"236016","401-BY","2018/09/21 15:13:23","新北市土城區金城路三段200-11號","121.46929","24.9875133333333","6501300","土城區"
"236057","912-UM","2018/09/21 15:13:18","新北市土城區千歲路3巷6弄16號","121.441706666667","24.9700966666667","6501300","土城區"
"236045","913-UM","2018/09/21 15:13:25","新北市土城區清水路175號","121.459426666667","24.981525","6501300","土城區"
"236060","915-UM","2018/09/21 15:13:12","新北市土城區延平街33巷2號","121.467788333333","24.991765","6501300","土城區"
"236054","AAC-216","2018/09/21 15:13:21","新北市土城區學府路一段260號","121.451313333333","24.9843566666667","6501300","土城區"
"221033","647-BX","2018/09/21 14:51:58","台北市內湖區安康路250號","121.604448333333","25.0645316666667","6501100","汐止區"
"220050","245-BX","2018/09/21 15:13:13","新北市板橋區莊敬路75巷35號","121.47402","25.0262466666667","6500100","板橋區"
"220031","286-VK","2018/09/21 15:13:12","新北市板橋區僑中二街102巷37號","121.444648333333","25.0084533333333","6500100","板橋區"
"220009","293-UM","2018/09/21 15:13:23","新北市板橋區中山路一段32號","121.460461666667","25.0086283333333","6500100","板橋區"
"220041","307-R5","2018/09/21 15:13:23","新北市板橋區文化路一段109號","121.46168","25.0144583333333","6500100","板橋區"
"220052","561-BX","2018/09/21 15:13:04","新北市板橋區陽明街263號","121.462385","25.02574","6500100","板橋區"
"220005","686-BX","2018/09/21 15:07:54","新北市板橋區華東街1-9號","121.448233333333","24.9949433333333","6500100","板橋區"
"220025","687-BX","2018/09/21 15:13:17","新北市板橋區大觀路一段29巷131弄125號","121.451645","25.0056916666667","6500100","板橋區"
"220042","689-BX","2018/09/21 15:13:23","新北市板橋區長江路二段57號","121.464495","25.0312966666667","6500100","板橋區"
"220051","KEA-2699","2018/09/21 15:13:03","新北市板橋區文化路二段389號","121.47339","25.0312866666667","6500100","板橋區"
"220038","833-TW","2018/09/21 15:13:22","新北市板橋區互助街83號","121.459855","25.025935","6500100","板橋區"
"220018","AAC-253","2018/09/21 15:13:16","新北市板橋區四川路二段245巷16-2號","121.451028333333","24.99297","6500100","板橋區"
