"lineid","car","time","location","longitude","latitude","cityid","cityname"
"234038","336-UY","2018/09/21 18:09:12","新北市永和區福和路1號","121.526603333333","25.0100566666667","6500400","永和區"
"234026","9371-KE","2018/09/21 18:09:28","新北市永和區永和路一段3號","121.512868333333","25.0051733333333","6500400","永和區"
"249005","172-UM","2018/09/21 18:09:16","新北市八里區荖阡坑路15-40號","121.401698333333","25.1398716666667","6502300","八里區"
"249001","173-UM","2018/09/21 18:09:12","新北市八里區龍米路二段35號","121.448388333333","25.1400216666667","6502300","八里區"
"249004","303-UY","2018/09/21 18:09:11","新北市八里區龍米路二段200巷3號","121.433695","25.1588083333333","6502300","八里區"
"249002","305-UY","2018/09/21 18:09:20","新北市八里區龍米路一段356巷5號","121.452248333333","25.1311933333333","6502300","八里區"
"249003","593-UM","2018/09/21 18:09:07","新北市八里區松子腳2-2號","121.403281666667","25.1449183333333","6502300","八里區"
"248014","025-BX","2018/09/21 18:09:28","新北市五股區成泰路二段88號","121.437505","25.0826","6501500","五股區"
"248006","077-UY","2018/09/21 18:09:10","新北市五股區中興路二段81號","121.460828333333","25.077165","6501500","五股區"
"248008","095-VK","2018/09/21 18:09:25","新北市蘆洲區永安南路二段294號","121.457226666667","25.0817983333333","6501500","五股區"
"248018","225-UY","2018/09/21 18:09:25","新北市五股區中興路三段160號","121.445365","25.08096","6501500","五股區"
"248010","272-BY","2018/09/21 18:09:14","新北市五股區成泰路一段212號","121.436381666667","25.0792183333333","6501500","五股區"
"248004","677-BX","2018/09/21 18:09:21","新北市五股區工商路28號","121.439433333333","25.083455","6501500","五股區"
"248002","678-BX","2018/09/21 18:09:12","新北市五股區中興路三段165號","121.44707","25.0805366666667","6501500","五股區"
"232011","375-UM","2018/09/21 18:09:24","新北市坪林區坪雙路一段41號","121.71172","24.942435","6502000","坪林區"
"244023","069-UM","2018/09/21 18:09:11","新北市林口區仁愛路二段159號","121.382195","25.0738","6501700","林口區"
"244007","080-UY","2018/09/21 18:09:17","新北市林口區林口路215號","121.38722","25.0830916666667","6501700","林口區"
"244019","403-UM","2018/09/21 18:09:16","新北市林口區忠孝路561巷10號","121.373266666667","25.0688333333333","6501700","林口區"
"244013","KEA-2802","2018/09/21 18:09:19","新北市林口區中山路148號","121.391283333333","25.0787266666667","6501700","林口區"
"244017","485-VK","2018/09/21 18:09:03","新北市林口區文化一路一段21巷1號","121.369336666667","25.0694666666667","6501700","林口區"
"244009","656-BX","2018/09/21 18:09:26","新北市林口區佳林路22號","121.38659","25.082495","6501700","林口區"
"244011","657-BX","2018/09/21 18:09:16","新北市林口區中正路18號","121.396098333333","25.0775116666667","6501700","林口區"
"244025","837-TS","2018/09/21 18:09:24","新北市林口區文化北路一段301-1號","121.360315","25.0727083333333","6501700","林口區"
"244021","838-TS","2018/09/21 18:07:18","新北市林口區中山路1號","121.396948333333","25.077875","6501700","林口區"
"243013","AAD-798","2018/09/21 18:09:10","新北市泰山區犁頭窠18號","121.420163333333","25.0498833333333","6501600","泰山區"
"222003","436-BY","2018/09/21 18:09:26","新北市深坑區阿柔洋47號","121.61224","24.9977916666667","6501800","深坑區"
"222002","659-BX","2018/09/21 18:09:23","新北市深坑區文化街52號","121.618953333333","25.0015966666667","6501800","深坑區"
"231041","002-UM","2018/09/21 18:09:11","新北市新店區安華路28-1號","121.519806666667","24.960705","6500600","新店區"
"231059","046-UY","2018/09/21 18:09:14","新北市新店區安華路28-1號","121.519508333333","24.9607766666667","6500600","新店區"
"231040","047-UY","2018/09/21 18:09:12","新北市新店區安華路28-1號","121.51916","24.96084","6500600","新店區"
"231044","106-UY","2018/09/21 18:09:25","新北市新店區安華路28-1號","121.519446666667","24.960705","6500600","新店區"
"231046","107-UY","2018/09/21 18:09:11","新北市新店區直潭路93號","121.532196666667","24.939915","6500600","新店區"
"231053","108-UY","2018/09/21 18:09:26","新北市新店區安一路一段1-1號","121.51951","24.9610916666667","6500600","新店區"
"231054","KEA-2219","2018/09/21 18:09:12","新北市新店區安一路一段1-1號","121.51966","24.961215","6500600","新店區"
"231042","268-BY","2018/09/21 18:09:13","新北市新店區安一路一段1-1號","121.519706666667","24.9610583333333","6500600","新店區"
"231051","278-BY","2018/09/21 18:09:16","新北市新店區安一路一段1-1號","121.519411666667","24.9611566666667","6500600","新店區"
"231050","AAD-862","2018/09/21 18:09:25","新北市新店區安一路一段1-1號","121.519715","24.961185","6500600","新店區"
"231058","3713-VJ","2018/09/21 18:09:12","新北市新店區安華路28-1號","121.519358333333","24.9606383333333","6500600","新店區"
"231066","4716-K9","2018/09/21 18:09:16","新北市新店區安一路一段1-1號","121.519235","24.9612266666667","6500600","新店區"
"231056","4715-K9","2018/09/21 18:09:15","新北市新店區安康路一段132號","121.526706666667","24.9628016666667","6500600","新店區"
"231065","512-UM","2018/09/21 18:09:08","新北市新店區安一路一段1-1號","121.519366666667","24.9610533333333","6500600","新店區"
"231049","513-UM","2018/09/21 18:09:24","新北市新店區安一路一段1-1號","121.519635","24.9611083333333","6500600","新店區"
"231061","619-UM","2018/09/21 18:09:11","新北市新店區安華路28-1號","121.519713333333","24.96079","6500600","新店區"
"231055","AKT-0513","2018/09/21 18:09:24","新北市新店區安華路28-1號","121.519408333333","24.960585","6500600","新店區"
"241015","062-VK","2018/09/21 17:48:19","新北市三重區重新路一段1號","121.503836666667","25.0642233333333","6500200","三重區"
"241024","065-VK","2018/09/21 18:09:15","新北市三重區中正北路193巷35弄21號","121.477003333333","25.0709933333333","6500200","三重區"
"241005","262-UM","2018/09/21 18:09:19","新北市五股區成泰路三段544-1號","121.45442","25.1027666666667","6500200","三重區"
"241004","475-VK","2018/09/21 18:09:27","新北市三重區仁義街91號","121.499686666667","25.0797716666667","6500200","三重區"
"241033","AAC-255","2018/09/21 18:09:16","新北市三重區中興北街52-9號","121.469181666667","25.0506366666667","6500200","三重區"
"235066","003-UY","2018/09/21 18:09:10","新北市中和區圓通路114號","121.499231666667","24.996465","6500300","中和區"
"235064","005-UY","2018/09/21 18:09:12","新北市中和區中正路169號","121.497961666667","24.9934883333333","6500300","中和區"
"235063","006-UY","2018/09/21 18:09:11","新北市中和區員山路36巷16-3號","121.48503","24.991285","6500300","中和區"
"235056","096-UM","2018/09/21 18:09:23","新北市中和區員山路36巷16-2號","121.485211666667","24.9916983333333","6500300","中和區"
"235039","097-UM","2018/09/21 18:09:18","新北市中和區中正路637巷60弄61號","121.485603333333","24.9931133333333","6500300","中和區"
"235065","098-UM","2018/09/21 18:09:16","新北市中和區福祥路135號","121.498211666667","25.0075133333333","6500300","中和區"
"235040","150-BY","2018/09/21 18:09:26","新北市中和區中正路395號","121.489683333333","24.9936183333333","6500300","中和區"
"235058","151-BY","2018/09/21 18:09:13","新北市中和區圓通路367巷61弄2號","121.491823333333","24.98351","6500300","中和區"
"235055","183-VK","2018/09/21 18:09:14","新北市中和區員山路36巷16-3號","121.48505","24.9913666666667","6500300","中和區"
"235038","185-VK","2018/09/21 18:09:22","新北市中和區景平路274號","121.514198333333","24.9925366666667","6500300","中和區"
"235067","255-BX","2018/09/21 18:09:23","新北市中和區和城路一段271巷1號","121.485788333333","24.9917916666667","6500300","中和區"
"235043","352-BY","2018/09/21 18:09:21","新北市中和區中正路395號","121.489716666667","24.993525","6500300","中和區"
"235042","KEA-2878","2018/09/21 18:09:11","新北市中和區中正路246號","121.495771666667","24.9939016666667","6500300","中和區"
"247012","KEA-2869","2018/09/21 18:09:16","新北市五股區四維路185巷8-1號","121.466585","25.0770366666667","6501400","蘆洲區"
"235050","4979-A6","2018/09/21 18:09:25","新北市中和區中正路395號","121.489731666667","24.9935383333333","6500300","中和區"
"235069","4980-A6","2018/09/21 18:09:24","新北市中和區中正路154號","121.498766666667","24.9939783333333","6500300","中和區"
"235070","558-UM","2018/09/21 18:09:19","新北市中和區圓通路176號","121.496918333333","24.9944283333333","6500300","中和區"
"235045","565-BX","2018/09/21 18:09:21","新北市中和區錦和路350-1號","121.490498333333","24.9935866666667","6500300","中和區"
"235054","640-BX","2018/09/21 18:09:18","新北市中和區連城路607號","121.4785","24.99314","6500300","中和區"
"235047","732-UM","2018/09/21 18:09:09","新北市中和區錦和路350-1號","121.490421666667","24.9935683333333","6500300","中和區"
"235057","801-TS","2018/09/21 18:09:22","新北市中和區中正路637巷52弄1號","121.485475","24.9933283333333","6500300","中和區"
"235048","896-TW","2018/09/21 18:09:24","新北市中和區員山路36巷16-2號","121.48527","24.9917033333333","6500300","中和區"
"235051","157-BY","2018/09/21 18:09:22","新北市中和區中興街124-1號","121.499866666667","24.9929416666667","6500300","中和區"
"235037","AAC-213","2018/09/21 18:09:10","新北市中和區景平路269號","121.50812","24.993105","6500300","中和區"
"235059","AAC-215","2018/09/21 18:09:16","新北市中和區員山路36巷16-3號","121.484991666667","24.9912216666667","6500300","中和區"
"226004","205-ST","2018/09/21 18:09:20","新北市平溪區靜安路二段198號","121.723526666667","25.022","6502400","平溪區"
"235062","251-BX","2018/09/21 18:09:08","新北市中和區民樂路78號","121.484471666667","25.0012133333333","6500300","中和區"
"228002","663-BX","2018/09/21 18:09:19","新北市貢寮區福連里福連街37號","121.988473333333","25.0108266666667","6502600","貢寮區"
"228001","670-TC","2018/09/21 18:09:27","新北市貢寮區真理里新港街26巷55弄2-1號","121.927373333333","25.0529116666667","6502600","貢寮區"
"228003","828-UM","2018/09/21 18:09:27","新北市貢寮區真理里美艷山街6-2號","121.928788333333","25.0607433333333","6502600","貢寮區"
"224006","676-BX","2018/09/21 18:09:28","新北市瑞芳區中山路22號","121.804073333333","25.1062033333333","6501200","瑞芳區"
"224002","639-TC","2018/09/21 18:09:15","新北市瑞芳區三爪子坑路149巷22-5號","121.811433333333","25.1062383333333","6501200","瑞芳區"
"224008","285-BY","2018/09/21 18:09:18","新北市瑞芳區三爪子坑路303-2號","121.81809","25.1060583333333","6501200","瑞芳區"
"224007","275-VK","2018/09/21 18:09:13","新北市瑞芳區四腳亭坑路9號","121.777736666667","25.1096533333333","6501200","瑞芳區"
"224009","273-VK","2018/09/21 18:09:23","新北市瑞芳區金光路209號","121.852718333333","25.1076533333333","6501200","瑞芳區"
"224005","271-BY","2018/09/21 18:09:12","新北市瑞芳區深澳路19號","121.81687","25.1292633333333","6501200","瑞芳區"
"227011","642-TC","2018/09/21 18:09:11","新北市雙溪區三貂里定福路1-2號","121.850736666667","25.0633983333333","6502500","雙溪區"
"227003","400-TW","2018/09/21 18:09:13","新北市雙溪區雙溪里太平路2號","121.863561666667","25.034935","6502500","雙溪區"
"253006","032-BX","2018/09/21 18:09:20","新北市石門區老梅路52巷25弄2-1號","121.546708333333","25.287455","6502200","石門區"
"253005","295-VK","2018/09/21 18:09:21","新北市石門區福安街8號","121.568506666667","25.292635","6502200","石門區"
"222001","KEA-2212","2018/09/21 18:09:17","新北市深坑區北深路二段155號","121.614063333333","25.0020333333333","6501800","深坑區"
"208002","KEA-2872","2018/09/21 18:09:12","新北市金山區三界壇路111巷20-3號","121.617438333333","25.2316066666667","6502700","金山區"
"208003","665-BX","2018/09/21 18:09:26","新北市金山區磺港里磺港路46號","121.648138333333","25.2286466666667","6502700","金山區"
"208001","761-BX","2018/09/21 18:09:23","新北市金山區磺港里磺港路108號","121.646443333333","25.226935","6502700","金山區"
"251009","008-UM","2018/09/21 18:09:21","新北市淡水區大忠街34巷13號","121.443871666667","25.17564","6501000","淡水區"
"251005","010-UM","2018/09/21 18:09:21","新北市淡水區水源街一段120號","121.447283333333","25.1717933333333","6501000","淡水區"
"251001","011-UM","2018/09/21 18:09:20","新北市淡水區自立路6-2號","121.462543333333","25.1293033333333","6501000","淡水區"
"251008","181-VK","2018/09/21 18:09:21","新北市淡水區淡金路16巷62弄7號","121.460066666667","25.1607683333333","6501000","淡水區"
"251010","413-VK","2018/09/21 18:09:18","新北市淡水區中正路二段50巷10號","121.419901666667","25.1833016666667","6501000","淡水區"
"251012","441-VK","2018/09/21 18:09:26","新北市淡水區泉洲厝20-1號","121.490673333333","25.19101","6501000","淡水區"
"251004","443-VK","2018/09/21 18:09:19","新北市淡水區民權路187巷91號","121.46139","25.1348633333333","6501000","淡水區"
"251006","561-UM","2018/09/21 18:09:15","新北市淡水區真理街3巷24-1號","121.43791","25.1766416666667","6501000","淡水區"
"251007","577-R6","2018/09/21 18:09:10","新北市淡水區中正東路二段153號","121.459615","25.1466033333333","6501000","淡水區"
"251011","650-BX","2018/09/21 18:09:13","新北市淡水區三空泉9-2號","121.474126666667","25.1635316666667","6501000","淡水區"
"251002","672-BX","2018/09/21 18:09:24","新北市淡水區中正東路一段127巷2號","121.455175","25.1593616666667","6501000","淡水區"
"251003","766-UM","2018/09/21 18:09:19","新北市淡水區大忠街113巷24號","121.447391666667","25.1774383333333","6501000","淡水區"
"207003","550-UM","2018/09/21 18:09:24","新北市萬里區野柳里港西路74號","121.685558333333","25.2049616666667","6502800","萬里區"
"207004","225-TW","2018/09/21 18:09:08","新北市萬里區中幅里中福路94號","121.675458333333","25.1701716666667","6502800","萬里區"
"252003","249-BX","2018/09/21 18:09:09","新北市三芝區埔頭里埔頭43-3號","121.49975","25.26125","6502100","三芝區"
"252001","292-VK","2018/09/21 18:09:07","新北市三芝區中興街二段2號","121.498385","25.25666","6502100","三芝區"
"252002","AAC-283","2018/09/21 18:09:10","新北市三芝區中山路二段38號","121.50296","25.255165","6502100","三芝區"
"237007","153-BY","2018/09/21 18:09:22","新北市三峽區中正路二段352號","121.365838333333","24.9099683333333","6500900","三峽區"
"237009","210-TH","2018/09/21 18:09:27","新北市三峽區大仁路59號","121.365235","24.9374533333333","6500900","三峽區"
"237013","252-BX","2018/09/21 18:09:21","新北市三峽區長泰街54號","121.37777","24.9325766666667","6500900","三峽區"
"237012","275-BY","2018/09/21 18:07:10","新北市三峽區民生街1巷6-12號","121.377203333333","24.9358716666667","6500900","三峽區"
"237008","302-VK","2018/09/21 18:09:21","新北市三峽區白雞42-3號","121.378803333333","24.911375","6500900","三峽區"
"237006","5529-G3","2018/09/21 18:09:17","新北市三峽區介壽路二段138巷1弄146-1號","121.399078333333","24.930865","6500900","三峽區"
"237011","KEA-2596","2018/09/21 18:09:16","新北市三峽區大同路2-1號","121.378343333333","24.9300233333333","6500900","三峽區"
"237015","649-BX","2018/09/21 18:09:23","新北市三峽區紫新路1號","121.422691666667","24.9203933333333","6500900","三峽區"
"237010","706-TV","2018/09/21 18:09:17","新北市三峽區民族街152號","121.369131666667","24.9283616666667","6500900","三峽區"
"237005","AKY-6261","2018/09/21 18:09:16","新北市三峽區和平街77號","121.370023333333","24.9372266666667","6500900","三峽區"
"236069","105-UM","2018/09/21 18:09:27","新北市土城區明德路一段126號","121.4638","24.9789983333333","6501300","土城區"
"236042","107-UM","2018/09/21 18:09:08","新北市土城區明德路二段104號","121.445256666667","24.98416","6501300","土城區"
"236079","166-UM","2018/09/21 18:09:24","新北市土城區永安街3號","121.434453333333","24.9652783333333","6501300","土城區"
"236030","253-BX","2018/09/21 18:09:09","新北市土城區城林路6巷80號","121.438438333333","24.9796283333333","6501300","土城區"
"236026","269-VK","2018/09/21 18:09:14","新北市土城區承天路18號","121.439331666667","24.9637866666667","6501300","土城區"
"236014","270-VK","2018/09/21 18:09:14","新北市土城區員福街50號","121.440486666667","24.9791283333333","6501300","土城區"
"236039","271-VK","2018/09/21 18:09:25","新北市土城區員福街6號","121.44184","24.9784783333333","6501300","土城區"
"236020","401-BY","2018/09/21 18:09:18","新北市土城區城林路6巷80號","121.438476666667","24.9795983333333","6501300","土城區"
"236059","912-UM","2018/09/21 18:09:25","新北市土城區中央路四段158號","121.417033333333","24.95826","6501300","土城區"
"236048","913-UM","2018/09/21 18:09:11","新北市土城區金城路二段12號","121.449255","24.977325","6501300","土城區"
"236063","915-UM","2018/09/21 18:09:11","新北市土城區中正路67巷12號","121.444545","24.9760383333333","6501300","土城區"
"236055","AAC-216","2018/09/21 18:09:30","新北市土城區中華路二段80號","121.438746666667","24.97586","6501300","土城區"
"242037","AAC-296","2018/09/21 18:09:16","新北市新莊區後港一路55號","121.426175","25.0266166666667","6500500","新莊區"
"242058","986-R7","2018/09/21 18:09:21","新北市新莊區中山路三段97號","121.416843333333","25.0318033333333","6500500","新莊區"
"242056","751-BX","2018/09/21 18:09:20","新北市新莊區豐年街豐1巷34號","121.4477","25.0311883333333","6500500","新莊區"
"242029","705-TV","2018/09/21 18:09:10","新北市新莊區中平路110巷20號","121.445656666667","25.0457933333333","6500500","新莊區"
"242027","615-BX","2018/09/21 18:09:17","新北市新莊區幸福路515號","121.455638333333","25.0492483333333","6500500","新莊區"
"242025","613-BX","2018/09/21 18:09:24","新北市新莊區五工路86號","121.457268333333","25.06406","6500500","新莊區"
"242044","566-BX","2018/09/21 18:09:23","新北市新莊區雙鳳路106號","121.413875","25.02815","6500500","新莊區"
"242048","497-BY","2018/09/21 18:09:16","新北市新莊區民安路98巷3號","121.423698333333","25.0257283333333","6500500","新莊區"
"242054","442-UM","2018/09/21 18:09:27","新北市新莊區光華街62號","121.42827","25.0119233333333","6500500","新莊區"
"242002","440-UM","2018/09/21 18:09:21","新北市新莊區新莊路80號","121.457156666667","25.036525","6500500","新莊區"
"242039","415-TV","2018/09/21 18:09:20","新北市新莊區民安西路38巷10號","121.426825","25.0208016666667","6500500","新莊區"
"242009","413-TV","2018/09/21 18:09:29","新北市新莊區昌平街71巷13號","121.453733333333","25.0534733333333","6500500","新莊區"
"242046","400-BY","2018/09/21 18:09:14","新北市新莊區建福路27號","121.42652","25.0289583333333","6500500","新莊區"
"242023","362-BY","2018/09/21 18:09:19","新北市泰山區泰林路一段2號","121.442011666667","25.0477766666667","6500500","新莊區"
"242060","353-BY","2018/09/21 18:09:14","新北市新莊區新樹路186號","121.434238333333","25.021105","6500500","新莊區"
"242011","132-UY","2018/09/21 18:09:26","新北市新莊區中信街82號","121.44797","25.0532033333333","6500500","新莊區"
"242041","133-UY","2018/09/21 18:09:24","新北市新莊區壽山路31號","121.420065","25.0288116666667","6500500","新莊區"
"242034","135-UY","2018/09/21 18:09:23","新北市新莊區景德路308號","121.44748","25.0335933333333","6500500","新莊區"
"242050","172-VK","2018/09/21 18:07:07","新北市新莊區民本街11巷2弄29號","121.42915","25.020135","6500500","新莊區"
"242019","175-VK","2018/09/21 18:09:18","新北市新莊區中港路138巷7弄5號","121.455763333333","25.041155","6500500","新莊區"
"242007","176-VK","2018/09/21 18:09:15","新北市新莊區自強街37巷1號","121.454458333333","25.0464683333333","6500500","新莊區"
"242017","346-TH","2018/09/21 18:09:26","新北市新莊區中港路307號","121.452703333333","25.0446616666667","6500500","新莊區"
"242032","348-TH","2018/09/21 18:09:28","新北市新莊區新泰路277巷27號","121.444801666667","25.0401766666667","6500500","新莊區"
"242005","349-TH","2018/09/21 18:09:23","新北市新莊區中華路二段9號","121.453743333333","25.0455766666667","6500500","新莊區"
"242021","350-TH","2018/09/21 18:09:12","新北市新莊區新興街45巷1號","121.450555","25.038985","6500500","新莊區"
"242015","351-TH","2018/09/21 18:09:19","新北市新莊區中平路132巷34號","121.44626","25.0466366666667","6500500","新莊區"
"238015","755-BX","2018/09/21 18:09:23","新北市樹林區文德街4巷1號","121.419093333333","24.9915333333333","6500700","樹林區"
"238023","601-UM","2018/09/21 18:09:20","新北市樹林區三寶街5號","121.406658333333","25.0156933333333","6500700","樹林區"
"238019","599-UM","2018/09/21 18:09:29","新北市樹林區忠孝街101巷33號","121.425003333333","24.9812483333333","6500700","樹林區"
"238018","571-TV","2018/09/21 18:09:13","新北市板橋區大觀路三段212巷72號","121.42979","24.9934416666667","6500700","樹林區"
"238022","KEA-2213","2018/09/21 18:09:19","新北市樹林區太平路150巷45號","121.416983333333","24.976815","6500700","樹林區"
"238021","KEA-2539","2018/09/21 18:09:28","新北市樹林區柑園街二段9號","121.388126666667","24.9558533333333","6500700","樹林區"
"238025","303-VK","2018/09/21 18:09:29","新北市樹林區中正路592號","121.410806666667","25.0153833333333","6500700","樹林區"
"238017","283-BY","2018/09/21 18:09:18","新北市樹林區中正路803號","121.409593333333","25.0165066666667","6500700","樹林區"
"238014","282-BY","2018/09/21 18:09:08","新北市樹林區潭興街107巷21弄10號","121.424111666667","24.999","6500700","樹林區"
"238020","268-VK","2018/09/21 18:09:11","新北市新莊區龍安路254巷18-1號","121.420658333333","25.0185433333333","6500700","樹林區"
"238026","172-UY","2018/09/21 18:09:09","新北市樹林區佳園路一段24號","121.392823333333","24.97115","6500700","樹林區"
"238016","169-UY","2018/09/21 18:09:27","新北市樹林區日新街148巷37號","121.419446666667","24.9878733333333","6500700","樹林區"
"239007","AAC-297","2018/09/21 18:09:12","新北市鶯歌區育英街98號","121.34735","24.9518866666667","6500800","鶯歌區"
"239006","891-R6","2018/09/21 18:09:20","新北市鶯歌區鶯桃路385號","121.333546666667","24.9636533333333","6500800","鶯歌區"
"239008","527-UM","2018/09/21 18:09:07","新北市鶯歌區國際一路179號","121.33625","24.9764916666667","6500800","鶯歌區"
"239005","526-UM","2018/09/21 18:09:13","新北市鶯歌區永和二街28號","121.336393333333","24.9716883333333","6500800","鶯歌區"
"239001","417-VK","2018/09/21 18:09:13","新北市鶯歌區中正三路福德巷2弄19號","121.339133333333","24.940825","6500800","鶯歌區"
"239003","360-BY","2018/09/21 18:09:28","新北市鶯歌區福安街32巷30號","121.335218333333","24.9635383333333","6500800","鶯歌區"
"239002","359-BY","2018/09/21 18:09:14","新北市鶯歌區中山路182號","121.348526666667","24.9570733333333","6500800","鶯歌區"
"239004","193-VK","2018/09/21 18:09:17","新北市鶯歌區尖山路212巷11號","121.343341666667","24.947315","6500800","鶯歌區"
"221008","489-VK","2018/09/21 18:09:24","新北市汐止區康寧街315號","121.627033333333","25.06792","6501100","汐止區"
"221036","130-UY","2018/09/21 18:09:14","新北市汐止區大同路三段251號","121.673375","25.076095","6501100","汐止區"
"221015","131-UY","2018/09/21 18:09:20","新北市汐止區長江街367-1號","121.668086666667","25.0824266666667","6501100","汐止區"
"221010","269-BY","2018/09/21 18:09:22","新北市汐止區祥雲街14號","121.64622","25.08988","6501100","汐止區"
"221012","278-VK","2018/09/21 18:09:21","新北市汐止區保一街107號","121.674818333333","25.0802816666667","6501100","汐止區"
"221023","279-VK","2018/09/21 18:09:18","新北市汐止區中興路293號","121.627958333333","25.0701083333333","6501100","汐止區"
"221032","280-BY","2018/09/21 18:09:17","新北市汐止區力行街4號","121.61719","25.0511316666667","6501100","汐止區"
"221027","281-BY","2018/09/21 18:09:19","新北市汐止區大同路二段468號","121.660203333333","25.0677333333333","6501100","汐止區"
"221029","298-VK","2018/09/21 18:09:10","新北市汐止區樟樹二路134號","121.63997","25.0656166666667","6501100","汐止區"
"221021","299-VK","2018/09/21 18:09:26","新北市汐止區復興路20號","121.655998333333","25.0639833333333","6501100","汐止區"
"221031","353-TW","2018/09/21 18:09:09","新北市汐止區中興路181巷1號","121.630111666667","25.0666883333333","6501100","汐止區"
"221035","622-UM","2018/09/21 18:09:11","新北市汐止區汐萬路一段130號","121.653581666667","25.0712366666667","6501100","汐止區"
"221025","623-UM","2018/09/21 18:09:21","新北市汐止區勤進路1號","121.660416666667","25.0621133333333","6501100","汐止區"
"221038","646-BX","2018/09/21 18:09:11","新北市汐止區水源路一段273號","121.654018333333","25.0589783333333","6501100","汐止區"
"221002","707-TV","2018/09/21 18:09:17","新北市汐止區福德一路197號","121.63541","25.0656666666667","6501100","汐止區"
"221018","753-BX","2018/09/21 18:09:25","新北市汐止區忠孝東路384號","121.665518333333","25.0702233333333","6501100","汐止區"
"235061","KEA-2875","2018/09/21 18:09:17","新北市中和區連城路607號","121.478193333333","24.99351","6500300","中和區"
