"lineid","car","time","location","longitude","latitude","cityid","cityname"
"234007","207-UY","2018/09/21 18:19:20","新北市永和區保生路55-6號","121.504731666667","25.012145","6500400","永和區"
"234038","336-UY","2018/09/21 18:19:12","新北市永和區福和路1號","121.526613333333","25.0100616666667","6500400","永和區"
"234070","552-UM","2018/09/21 18:19:11","新北市永和區福和路1號","121.526248333333","25.0098383333333","6500400","永和區"
"234042","862-TW","2018/09/21 18:19:18","新北市永和區福和路1號","121.526361666667","25.0097083333333","6500400","永和區"
"234026","9371-KE","2018/09/21 18:19:28","新北市永和區豫溪街28巷22號","121.514938333333","25.0090116666667","6500400","永和區"
"234011","9373-KE","2018/09/21 18:19:23","新北市永和區環河東路二段30號","121.522713333333","25.0127533333333","6500400","永和區"
"249005","172-UM","2018/09/21 18:19:16","新北市八里區荖阡坑路15-3號","121.400955","25.1402133333333","6502300","八里區"
"249001","173-UM","2018/09/21 18:19:12","新北市八里區龍米路一段129號","121.452248333333","25.1267283333333","6502300","八里區"
"249004","303-UY","2018/09/21 18:19:11","新北市八里區觀海大道35-2號","121.429743333333","25.1607966666667","6502300","八里區"
"249002","305-UY","2018/09/21 18:19:20","新北市八里區龍形二街52號","121.450306666667","25.1329983333333","6502300","八里區"
"248014","025-BX","2018/09/21 18:19:28","新北市五股區成泰路一段193號","121.4349","25.0765833333333","6501500","五股區"
"248016","026-BX","2018/09/21 18:19:13","新北市五股區成泰路三段477巷18號","121.449875","25.0989966666667","6501500","五股區"
"248006","077-UY","2018/09/21 18:19:16","新北市五股區中興路一段169號","121.464546666667","25.0737316666667","6501500","五股區"
"248008","095-VK","2018/09/21 18:19:25","新北市五股區更洲路32巷8弄14號","121.459241666667","25.0796333333333","6501500","五股區"
"248018","225-UY","2018/09/21 18:19:25","新北市五股區御史路120號","121.437546666667","25.09627","6501500","五股區"
"248012","247-BX","2018/09/21 18:19:22","新北市五股區御史路1巷101弄2號","121.440948333333","25.0912016666667","6501500","五股區"
"248010","272-BY","2018/09/21 18:19:14","新北市五股區成泰路一段189巷24-5號","121.433473333333","25.0775816666667","6501500","五股區"
"248004","677-BX","2018/09/21 18:19:21","新北市五股區成泰路二段101號","121.438296666667","25.0842933333333","6501500","五股區"
"248002","678-BX","2018/09/21 18:19:12","新北市五股區西雲路18號","121.443131666667","25.0904066666667","6501500","五股區"
"244023","069-UM","2018/09/21 18:19:10","新北市林口區仁愛路二段8號","121.38588","25.0763383333333","6501700","林口區"
"244007","080-UY","2018/09/21 18:19:17","新北市林口區林口路113巷6弄1號","121.388721666667","25.0806116666667","6501700","林口區"
"244019","403-UM","2018/09/21 18:19:16","新北市林口區忠孝路584號","121.375431666667","25.068215","6501700","林口區"
"244013","KEA-2802","2018/09/21 18:19:25","新北市林口區中山路202-1號","121.387543333333","25.0792833333333","6501700","林口區"
"244017","485-VK","2018/09/21 18:19:23","新北市林口區八德路20巷16號","121.367583333333","25.06782","6501700","林口區"
"244009","656-BX","2018/09/21 18:19:26","新北市林口區福林路115號","121.377495","25.089295","6501700","林口區"
"244011","657-BX","2018/09/21 18:19:16","新北市林口區中正路74巷12號","121.394671666667","25.0780233333333","6501700","林口區"
"244025","837-TS","2018/09/21 18:19:24","新北市林口區南勢二街85巷1號","121.355805","25.0695866666667","6501700","林口區"
"244021","838-TS","2018/09/21 18:19:10","新北市林口區自強一街93號","121.40022","25.0768683333333","6501700","林口區"
"243013","AAD-798","2018/09/21 18:19:30","新北市泰山區南林路103號","121.415486666667","25.044075","6501600","泰山區"
"222003","436-BY","2018/09/21 18:19:06","新北市深坑區旺耽路67號","121.626223333333","25.0029016666667","6501800","深坑區"
"222002","659-BX","2018/09/21 18:19:23","新北市深坑區雲鄉路26號","121.621406666667","24.999735","6501800","深坑區"
"231041","002-UM","2018/09/21 18:19:11","新北市新店區安華路28-1號","121.519656666667","24.96074","6500600","新店區"
"231059","046-UY","2018/09/21 18:19:14","新北市新店區安華路28-1號","121.519508333333","24.9607866666667","6500600","新店區"
"231040","047-UY","2018/09/21 18:19:12","新北市新店區安一路一段1-1號","121.519305","24.9611016666667","6500600","新店區"
"231044","106-UY","2018/09/21 18:19:25","新北市新店區安華路28-1號","121.519586666667","24.9607833333333","6500600","新店區"
"231046","107-UY","2018/09/21 18:19:11","新北市新店區直潭七街60號","121.532226666667","24.9399316666667","6500600","新店區"
"231053","108-UY","2018/09/21 18:19:26","新北市新店區安康路一段35-1號","121.532023333333","24.96061","6500600","新店區"
"231054","KEA-2219","2018/09/21 18:19:12","新北市新店區安一路一段1-1號","121.519678333333","24.961195","6500600","新店區"
"231057","256-BX","2018/09/21 18:19:28","新北市新店區安一路一段1-1號","121.519705","24.96105","6500600","新店區"
"231042","268-BY","2018/09/21 18:19:13","新北市新店區安一路一段1-1號","121.519998333333","24.9611033333333","6500600","新店區"
"231051","278-BY","2018/09/21 18:19:16","新北市新店區安一路一段1-1號","121.519608333333","24.961135","6500600","新店區"
"231050","AAD-862","2018/09/21 18:19:25","新北市新店區安一路一段1-1號","121.519706666667","24.9611666666667","6500600","新店區"
"231058","3713-VJ","2018/09/21 18:19:12","新北市新店區環河路5號","121.538108333333","24.9612233333333","6500600","新店區"
"231066","4716-K9","2018/09/21 18:19:16","新北市新店區安一路一段1-1號","121.51921","24.9611966666667","6500600","新店區"
"231056","4715-K9","2018/09/21 18:19:15","新北市新店區中央路2號","121.533833333333","24.9787733333333","6500600","新店區"
"231067","4772-VM","2018/09/21 18:19:08","新北市新店區安華路28-1號","121.519283333333","24.960575","6500600","新店區"
"231065","512-UM","2018/09/21 18:19:28","新北市新店區安一路一段1-1號","121.51933","24.9610783333333","6500600","新店區"
"231049","513-UM","2018/09/21 18:19:24","新北市新店區安一路一段1-1號","121.519581666667","24.9610883333333","6500600","新店區"
"231045","617-UM","2018/09/21 18:19:20","新北市新店區安華路28-1號","121.519431666667","24.9608216666667","6500600","新店區"
"231061","619-UM","2018/09/21 18:19:11","新北市新店區安華路28-1號","121.519471666667","24.9607566666667","6500600","新店區"
"231064","719-UM","2018/09/21 18:19:11","新北市新店區安一路一段1-1號","121.519448333333","24.961125","6500600","新店區"
"231062","720-UM","2018/09/21 18:19:24","新北市新店區安一路一段1-1號","121.519106666667","24.9612383333333","6500600","新店區"
"231060","897-TW","2018/09/21 18:19:15","新北市新店區安華路28-1號","121.519588333333","24.9607483333333","6500600","新店區"
"231055","AKT-0513","2018/09/21 18:19:24","新北市新店區光明街187號","121.53978","24.963325","6500600","新店區"
"241024","065-VK","2018/09/21 18:19:15","新北市三重區忠孝路三段84巷5號","121.480195","25.0643033333333","6500200","三重區"
"241005","262-UM","2018/09/21 18:17:59","新北市八里區下罟子17號","121.379316666667","25.1427933333333","6500200","三重區"
"241004","475-VK","2018/09/21 18:19:27","新北市三重區仁義街91號","121.499681666667","25.0797733333333","6500200","三重區"
"241033","AAC-255","2018/09/21 18:19:16","新北市三重區中興北街42巷17號","121.468836666667","25.0493466666667","6500200","三重區"
"235066","003-UY","2018/09/21 18:19:10","新北市中和區泰和街2號","121.500046666667","25.0014533333333","6500300","中和區"
"235064","005-UY","2018/09/21 18:19:12","新北市中和區圓通路167巷8號","121.498016666667","24.9949716666667","6500300","中和區"
"235063","006-UY","2018/09/21 18:19:11","新北市中和區中正路525號","121.487931666667","24.9936966666667","6500300","中和區"
"235056","096-UM","2018/09/21 18:19:23","新北市中和區新生街20號","121.483195","25.0041966666667","6500300","中和區"
"235039","097-UM","2018/09/21 18:19:18","新北市中和區中正路25號","121.502411666667","24.99329","6500300","中和區"
"235065","098-UM","2018/09/21 18:19:16","新北市中和區莊敬路49巷18號","121.501678333333","25.0060433333333","6500300","中和區"
"235040","150-BY","2018/09/21 18:19:26","新北市中和區中正路1號","121.503351666667","24.9934166666667","6500300","中和區"
"235058","151-BY","2018/09/21 18:19:13","新北市中和區圓通路435巷3-7號","121.488566666667","24.9873266666667","6500300","中和區"
"235055","183-VK","2018/09/21 18:19:14","新北市中和區員山路77巷1弄11號","121.480498333333","24.9935566666667","6500300","中和區"
"235038","185-VK","2018/09/21 18:19:23","新北市中和區大智街42巷1號","121.522113333333","24.9920066666667","6500300","中和區"
"235049","186-VK","2018/09/21 18:19:20","新北市中和區中正路637巷52弄1號","121.485456666667","24.9934266666667","6500300","中和區"
"235067","255-BX","2018/09/21 18:19:23","新北市中和區和城路一段271巷1號","121.485756666667","24.9917483333333","6500300","中和區"
"235072","301-VK","2018/09/21 18:19:19","新北市中和區連城路196號","121.492145","24.9967","6500300","中和區"
"235043","352-BY","2018/09/21 18:19:21","新北市中和區景平路381號","121.50395","24.9934566666667","6500300","中和區"
"235042","KEA-2878","2018/09/21 18:19:11","新北市中和區大仁街20巷25弄1號","121.518488333333","24.9935783333333","6500300","中和區"
"247012","KEA-2869","2018/09/21 18:19:16","新北市五股區凌雲路三段24巷10號","121.435773333333","25.10707","6501400","蘆洲區"
"235050","4979-A6","2018/09/21 18:19:25","新北市中和區南山路321號","121.505103333333","24.9913583333333","6500300","中和區"
"235069","4980-A6","2018/09/21 18:19:24","新北市中和區景平路535號","121.498783333333","24.9991966666667","6500300","中和區"
"235070","558-UM","2018/09/21 18:19:19","新北市中和區圓通路123號","121.499271666667","24.996195","6500300","中和區"
"235045","565-BX","2018/09/21 18:19:21","新北市中和區景安路200巷1弄2號","121.503793333333","24.9914733333333","6500300","中和區"
"235054","640-BX","2018/09/21 18:19:18","新北市中和區莒光路203號","121.472363333333","24.9987666666667","6500300","中和區"
"235047","732-UM","2018/09/21 18:19:29","新北市中和區南山路325-1號","121.50535","24.99111","6500300","中和區"
"235046","733-UM","2018/09/21 18:19:17","新北市中和區中正路637巷52弄1號","121.485466666667","24.993365","6500300","中和區"
"235057","801-TS","2018/09/21 18:19:22","新北市中和區民安街148號","121.477668333333","24.9998533333333","6500300","中和區"
"235041","802-TS","2018/09/21 18:19:25","新北市中和區中正路395號","121.489433333333","24.9936066666667","6500300","中和區"
"235048","896-TW","2018/09/21 18:19:24","新北市中和區錦和路350-1號","121.490418333333","24.993515","6500300","中和區"
"235053","900-TW","2018/09/21 18:19:25","新北市中和區連城路523巷13弄24號","121.482241666667","24.9935783333333","6500300","中和區"
"235060","911-UM","2018/09/21 18:19:09","新北市中和區連城路525-1號","121.481546666667","24.9950083333333","6500300","中和區"
"235051","157-BY","2018/09/21 18:19:22","新北市中和區興南路二段130號","121.504258333333","24.9835216666667","6500300","中和區"
"235037","AAC-213","2018/09/21 18:19:10","新北市中和區景德街67號","121.516923333333","24.9914833333333","6500300","中和區"
"235059","AAC-215","2018/09/21 18:19:16","新北市中和區員山路36巷16-3號","121.485018333333","24.9912216666667","6500300","中和區"
"220065","072-UY","2018/09/21 18:19:11","新北市板橋區華東街1-9號","121.448165","24.9949433333333","6500100","板橋區"
"226004","205-ST","2018/09/21 18:19:20","新北市平溪區靜安路二段11巷7號","121.709843333333","25.0192833333333","6502400","平溪區"
"235062","251-BX","2018/09/21 18:19:28","新北市中和區橋和路77號","121.489256666667","25.005185","6500300","中和區"
"228002","663-BX","2018/09/21 18:19:19","新北市貢寮區福連里馬崗街2-1號","122.001263333333","25.0140433333333","6502600","貢寮區"
"228001","670-TC","2018/09/21 18:19:27","新北市貢寮區真理里新港街26巷55弄2-1號","121.9274","25.0528633333333","6502600","貢寮區"
"228003","828-UM","2018/09/21 18:19:27","新北市貢寮區真理里美艷山街64-2號","121.919916666667","25.0723566666667","6502600","貢寮區"
"224006","676-BX","2018/09/21 18:19:28","新北市瑞芳區明燈路三段1號","121.809381666667","25.107165","6501200","瑞芳區"
"224002","639-TC","2018/09/21 18:19:15","新北市瑞芳區三爪子坑路69巷32號","121.812436666667","25.1063716666667","6501200","瑞芳區"
"224008","285-BY","2018/09/21 18:19:18","新北市瑞芳區逢甲路15號","121.809788333333","25.1086933333333","6501200","瑞芳區"
"224007","275-VK","2018/09/21 18:19:13","新北市瑞芳區大埔路67巷3-1號","121.76457","25.1015266666667","6501200","瑞芳區"
"224009","273-VK","2018/09/21 18:19:23","新北市瑞芳區祈堂路184號","121.857688333333","25.1095566666667","6501200","瑞芳區"
"224005","271-BY","2018/09/21 18:19:12","新北市瑞芳區建基新村1號","121.81284","25.1305016666667","6501200","瑞芳區"
"227011","642-TC","2018/09/21 18:19:11","新北市雙溪區牡丹里牡丹73號","121.851665","25.0593983333333","6502500","雙溪區"
"227003","400-TW","2018/09/21 18:19:13","新北市雙溪區共和里中山路2號","121.863783333333","25.033805","6502500","雙溪區"
"253006","032-BX","2018/09/21 18:19:20","新北市石門區老梅路63號","121.545786666667","25.2892533333333","6502200","石門區"
"253005","295-VK","2018/09/21 18:19:22","新北市石門區中央路4-3號","121.565618333333","25.29136","6502200","石門區"
"222001","KEA-2212","2018/09/21 18:19:17","新北市深坑區北深路二段66號","121.618978333333","25.0041866666667","6501800","深坑區"
"208002","KEA-2872","2018/09/21 18:19:12","新北市金山區磺港里社寮28號","121.63781","25.22896","6502700","金山區"
"208003","665-BX","2018/09/21 18:19:26","新北市金山區民生路128號","121.647473333333","25.223645","6502700","金山區"
"208001","761-BX","2018/09/21 18:19:23","新北市金山區中山路16號","121.641606666667","25.2177683333333","6502700","金山區"
"251005","010-UM","2018/09/21 18:19:21","新北市淡水區水源街一段122巷38號","121.44707","25.1706366666667","6501000","淡水區"
"251001","011-UM","2018/09/21 18:19:20","新北市淡水區自強路299號","121.461475","25.1314783333333","6501000","淡水區"
"251008","181-VK","2018/09/21 18:19:21","新北市淡水區水源街二段346巷1弄1號","121.464378333333","25.175515","6501000","淡水區"
"251010","413-VK","2018/09/21 18:19:18","新北市淡水區淡海路188號","121.420345","25.185075","6501000","淡水區"
"251012","441-VK","2018/09/21 18:19:26","新北市淡水區北新路二段77-5號","121.480571666667","25.1855633333333","6501000","淡水區"
"251004","443-VK","2018/09/21 18:19:19","新北市淡水區民族路148號","121.462671666667","25.13408","6501000","淡水區"
"251006","561-UM","2018/09/21 18:19:15","新北市淡水區新民街64號","121.438761666667","25.1760766666667","6501000","淡水區"
"251007","577-R6","2018/09/21 18:19:10","新北市淡水區中正東路二段143巷2弄1號","121.460573333333","25.147285","6501000","淡水區"
"251011","650-BX","2018/09/21 18:19:23","新北市淡水區坪頂路51巷2號","121.458408333333","25.1626","6501000","淡水區"
"251002","672-BX","2018/09/21 18:19:24","新北市淡水區中正東路一段79號","121.452788333333","25.1620833333333","6501000","淡水區"
"251003","766-UM","2018/09/21 18:19:19","新北市淡水區北新路139號","121.449456666667","25.178915","6501000","淡水區"
"207003","550-UM","2018/09/21 18:19:24","新北市萬里區野柳里港東路23號","121.687353333333","25.2036866666667","6502800","萬里區"
"207004","225-TW","2018/09/21 18:19:28","新北市萬里區中幅里中福路123號","121.676501666667","25.1658583333333","6502800","萬里區"
"252003","249-BX","2018/09/21 18:19:29","新北市三芝區錫板里南勢崗6號","121.479361666667","25.26207","6502100","三芝區"
"252001","292-VK","2018/09/21 18:19:07","新北市三芝區中興街二段2號","121.498391666667","25.2566383333333","6502100","三芝區"
"252002","AAC-283","2018/09/21 18:19:10","新北市三芝區中山路二段38號","121.502971666667","25.2551466666667","6502100","三芝區"
"237007","153-BY","2018/09/21 18:19:22","新北市三峽區中正路二段534號","121.360658333333","24.90645","6500900","三峽區"
"237009","210-TH","2018/09/21 18:19:07","新北市三峽區大仁路67號","121.364953333333","24.9372633333333","6500900","三峽區"
"237013","252-BX","2018/09/21 18:19:21","新北市三峽區永安街9巷28號","121.37677","24.930115","6500900","三峽區"
"237012","275-BY","2018/09/21 18:18:50","新北市三峽區民生街1巷6-7號","121.377251666667","24.9361266666667","6500900","三峽區"
"237008","302-VK","2018/09/21 18:19:21","新北市三峽區白雞68-83號","121.392485","24.9086133333333","6500900","三峽區"
"237006","5529-G3","2018/09/21 18:19:17","新北市三峽區溪東路173號","121.403426666667","24.933905","6500900","三峽區"
"237011","KEA-2596","2018/09/21 18:19:16","新北市三峽區溪東路124號","121.404338333333","24.9334416666667","6500900","三峽區"
"237015","649-BX","2018/09/21 18:19:23","新北市三峽區紫新路1號","121.422648333333","24.9203483333333","6500900","三峽區"
"237010","706-TV","2018/09/21 18:19:17","新北市三峽區中山路119號","121.36548","24.93588","6500900","三峽區"
"237005","AKY-6261","2018/09/21 18:19:16","新北市三峽區秀川街26巷3號","121.371506666667","24.9343366666667","6500900","三峽區"
"236069","105-UM","2018/09/21 18:19:28","新北市土城區永豐路149-1號","121.467268333333","24.98267","6501300","土城區"
"236042","107-UM","2018/09/21 18:19:08","新北市土城區樂利街3巷30號","121.448558333333","24.9865116666667","6501300","土城區"
"236079","166-UM","2018/09/21 18:19:11","新北市土城區中央路三段281巷23弄19號","121.426353333333","24.9615266666667","6501300","土城區"
"236030","253-BX","2018/09/21 18:19:09","新北市土城區中央路二段180巷2號","121.441503333333","24.9763033333333","6501300","土城區"
"236026","269-VK","2018/09/21 18:19:14","新北市土城區承天路18號","121.43952","24.96342","6501300","土城區"
"236014","270-VK","2018/09/21 18:19:14","新北市土城區學府路一段8號","121.459616666667","24.9884983333333","6501300","土城區"
"236039","271-VK","2018/09/21 18:19:30","新北市土城區青雲路451巷8弄12號","121.45933","24.97417","6501300","土城區"
"236020","401-BY","2018/09/21 18:19:18","新北市土城區中正路71號","121.444671666667","24.9758066666667","6501300","土城區"
"236059","912-UM","2018/09/21 18:19:29","新北市土城區中央路四段440號","121.41077","24.9514633333333","6501300","土城區"
"236048","913-UM","2018/09/21 18:19:11","新北市土城區明德路一段365-1號","121.45355","24.9790333333333","6501300","土城區"
"236063","915-UM","2018/09/21 18:19:11","新北市土城區金城路三段198號","121.468428333333","24.98811","6501300","土城區"
"236055","AAC-216","2018/09/21 18:19:10","新北市土城區中華路二段90號","121.438303333333","24.9747866666667","6501300","土城區"
"242037","AAC-296","2018/09/21 18:19:16","新北市新莊區後港一路49巷3弄11號","121.425138333333","25.0267466666667","6500500","新莊區"
"242058","986-R7","2018/09/21 18:19:25","新北市新莊區新北大道七段399號","121.412735","25.0258166666667","6500500","新莊區"
"242056","751-BX","2018/09/21 18:19:26","新北市新莊區瓊林路34號","121.448826666667","25.031045","6500500","新莊區"
"242029","705-TV","2018/09/21 18:19:10","新北市新莊區中平路181號","121.444685","25.0490783333333","6500500","新莊區"
"242027","615-BX","2018/09/21 18:19:17","新北市新莊區幸福路836號","121.44511","25.04914","6500500","新莊區"
"242025","613-BX","2018/09/21 18:19:24","新北市新莊區五權一路120號","121.460235","25.0680583333333","6500500","新莊區"
"242044","566-BX","2018/09/21 18:19:23","新北市新莊區天泉二街26巷1號","121.414471666667","25.0256316666667","6500500","新莊區"
"242054","442-UM","2018/09/21 18:19:27","新北市新莊區民安西路480巷5號","121.431986666667","25.00697","6500500","新莊區"
"242002","440-UM","2018/09/21 18:19:21","新北市新莊區碧江街31-1號","121.45215","25.0329983333333","6500500","新莊區"
"242039","415-TV","2018/09/21 18:19:20","新北市新莊區新樹路206巷4號","121.433648333333","25.020385","6500500","新莊區"
"242009","413-TV","2018/09/21 18:19:29","新北市新莊區中華路二段13號","121.453743333333","25.04568","6500500","新莊區"
"242046","400-BY","2018/09/21 18:19:13","新北市新莊區中正路829巷21號","121.421138333333","25.0275866666667","6500500","新莊區"
"242060","353-BY","2018/09/21 18:19:23","新北市新莊區新樹路69-34號","121.438208333333","25.02883","6500500","新莊區"
"242011","132-UY","2018/09/21 18:19:26","新北市新莊區中港路591巷34號","121.449598333333","25.0523116666667","6500500","新莊區"
"242041","133-UY","2018/09/21 18:19:24","新北市新莊區雙鳳路106號","121.413928333333","25.028225","6500500","新莊區"
"242050","172-VK","2018/09/21 18:19:27","新北市新莊區新樹路601號","121.433165","25.00587","6500500","新莊區"
"242007","176-VK","2018/09/21 18:19:15","新北市新莊區中港一街96號","121.449158333333","25.04527","6500500","新莊區"
"242032","348-TH","2018/09/21 18:19:21","新北市新莊區新泰路255巷73號","121.44324","25.0393666666667","6500500","新莊區"
"242005","349-TH","2018/09/21 18:19:23","新北市新莊區新泰路368號","121.444356666667","25.0426433333333","6500500","新莊區"
"242021","350-TH","2018/09/21 18:19:11","新北市新莊區中正路170號","121.450821666667","25.03602","6500500","新莊區"
"242015","351-TH","2018/09/21 18:19:19","新北市新莊區中平路198巷31號","121.446595","25.0484066666667","6500500","新莊區"
"238015","755-BX","2018/09/21 18:19:23","新北市樹林區文化街79巷1號","121.416793333333","24.98912","6500700","樹林區"
"238023","601-UM","2018/09/21 18:19:19","新北市樹林區忠義街27巷1號","121.409731666667","25.0141916666667","6500700","樹林區"
"238019","599-UM","2018/09/21 18:19:29","新北市樹林區國凱街122巷1號","121.422766666667","24.980195","6500700","樹林區"
"238018","571-TV","2018/09/21 18:19:12","新北市樹林區保安街一段20巷34號","121.428371666667","24.99451","6500700","樹林區"
"238024","5061-A6","2018/09/21 18:19:14","新北市樹林區文化街91巷6號","121.415863333333","24.98966","6500700","樹林區"
"238021","KEA-2539","2018/09/21 18:19:28","新北市樹林區柑園街二段95號","121.386078333333","24.9550266666667","6500700","樹林區"
"238025","303-VK","2018/09/21 18:19:09","新北市樹林區保安二街二段6-11號","121.415746666667","25.001325","6500700","樹林區"
"238017","283-BY","2018/09/21 18:19:10","新北市樹林區中正路705號","121.411481666667","25.01401","6500700","樹林區"
"238014","282-BY","2018/09/21 18:19:08","新北市樹林區大安路111巷2號","121.422965","24.9975866666667","6500700","樹林區"
"238020","268-VK","2018/09/21 18:19:11","新北市樹林區俊興街276號","121.418256666667","25.0168716666667","6500700","樹林區"
"238026","172-UY","2018/09/21 18:19:09","新北市樹林區柑園街72巷8-1號","121.392791666667","24.9696783333333","6500700","樹林區"
"238016","169-UY","2018/09/21 18:18:27","新北市樹林區文化街28號","121.41924","24.9877566666667","6500700","樹林區"
"239007","AAC-297","2018/09/21 18:19:12","新北市鶯歌區重慶街95號","121.34804","24.9522716666667","6500800","鶯歌區"
"239006","891-R6","2018/09/21 18:19:12","新北市鶯歌區德昌街140巷20號","121.332143333333","24.9611716666667","6500800","鶯歌區"
"239008","527-UM","2018/09/21 18:19:28","新北市鶯歌區國際一路179號","121.336241666667","24.9764916666667","6500800","鶯歌區"
"239005","526-UM","2018/09/21 18:19:13","桃園市八德區桃鶯路137號","121.328725","24.9696266666667","6500800","鶯歌區"
"239001","417-VK","2018/09/21 18:19:13","新北市鶯歌區國中街178號","121.338231666667","24.9392483333333","6500800","鶯歌區"
"239003","360-BY","2018/09/21 18:19:08","新北市鶯歌區福安街58號","121.335603333333","24.9652083333333","6500800","鶯歌區"
"239002","359-BY","2018/09/21 18:19:14","新北市鶯歌區國慶街177號","121.351315","24.9527716666667","6500800","鶯歌區"
"239004","193-VK","2018/09/21 18:19:18","新北市鶯歌區尖山路245號","121.34049","24.9435483333333","6500800","鶯歌區"
"221008","489-VK","2018/09/21 18:19:24","新北市汐止區汐萬路一段301號","121.6493","25.0758883333333","6501100","汐止區"
"221036","130-UY","2018/09/21 18:19:14","新北市汐止區長興街一段15號","121.669585","25.07871","6501100","汐止區"
"221015","131-UY","2018/09/21 18:19:13","新北市汐止區鄉長路二段63號","121.666963333333","25.0841216666667","6501100","汐止區"
"221010","269-BY","2018/09/21 18:19:22","新北市汐止區汐萬路35號","121.644475","25.0911416666667","6501100","汐止區"
"221012","278-VK","2018/09/21 18:19:21","新北市汐止區長興街二段4巷21號","121.673176666667","25.0804616666667","6501100","汐止區"
"221023","279-VK","2018/09/21 18:19:18","新北市汐止區康寧街430號","121.631228333333","25.0675883333333","6501100","汐止區"
"221032","280-BY","2018/09/21 18:19:17","新北市汐止區橫科路73巷1號","121.619283333333","25.0505783333333","6501100","汐止區"
"221027","281-BY","2018/09/21 18:19:19","新北市汐止區和平街6巷8-1號","121.663676666667","25.0717483333333","6501100","汐止區"
"221029","298-VK","2018/09/21 18:19:10","新北市汐止區樟樹二路330巷72號","121.642896666667","25.0700466666667","6501100","汐止區"
"221021","299-VK","2018/09/21 18:19:26","新北市汐止區龍安路202巷15號","121.652306666667","25.063255","6501100","汐止區"
"221031","353-TW","2018/09/21 18:19:24","新北市汐止區中興路62號","121.635245","25.061195","6501100","汐止區"
"221035","622-UM","2018/09/21 18:19:11","新北市汐止區龍安路202巷51號","121.652876666667","25.0639966666667","6501100","汐止區"
"221025","623-UM","2018/09/21 18:19:13","新北市汐止區勤進路12巷37號","121.659173333333","25.0626083333333","6501100","汐止區"
"221038","646-BX","2018/09/21 18:19:11","新北市汐止區仁愛路202號","121.664851666667","25.06589","6501100","汐止區"
"221002","707-TV","2018/09/21 18:19:17","新北市汐止區福德一路201巷11號","121.635911666667","25.0652016666667","6501100","汐止區"
"221018","753-BX","2018/09/21 18:19:25","新北市汐止區茄苳路118號","121.667913333333","25.0704083333333","6501100","汐止區"
"220064","486-VK","2018/09/21 18:19:09","新北市板橋區華東街1-10號","121.448361666667","24.9950166666667","6500100","板橋區"
"220035","560-BX","2018/09/21 18:19:17","新北市板橋區南雅南路二段144巷2號","121.451591666667","24.9962716666667","6500100","板橋區"
"220054","741-BX","2018/09/21 18:19:15","新北市板橋區華東街1-9號","121.448106666667","24.9949433333333","6500100","板橋區"
"235068","KEA-2873","2018/09/21 18:19:13","新北市中和區和城路一段271巷1號","121.48548","24.99192","6500300","中和區"
"235061","KEA-2875","2018/09/21 18:19:17","新北市中和區國光街215巷24弄10號","121.466715","25.000095","6500300","中和區"
