"lineid","car","time","location","longitude","latitude","cityid","cityname"
"234046","148-BY","2018/09/21 18:29:11","新北市永和區福和路1號","121.526138333333","25.0097266666667","6500400","永和區"
"234007","207-UY","2018/09/21 18:29:20","新北市永和區保生路55-6號","121.503658333333","25.0123216666667","6500400","永和區"
"234081","298-R6","2018/09/21 18:29:13","新北市永和區豫溪街217巷15號","121.52454","25.0097983333333","6500400","永和區"
"234038","336-UY","2018/09/21 18:29:12","新北市永和區福和路1號","121.52628","25.009765","6500400","永和區"
"234086","338-UY","2018/09/21 18:29:26","新北市永和區福和路349號","121.515233333333","25.0070583333333","6500400","永和區"
"234070","552-UM","2018/09/21 18:29:11","新北市永和區福和路1號","121.526186666667","25.0097316666667","6500400","永和區"
"234042","862-TW","2018/09/21 18:29:18","新北市永和區福和路297號","121.516531666667","25.0072483333333","6500400","永和區"
"234026","9371-KE","2018/09/21 18:29:28","新北市永和區中正路659號","121.51469","25.01025","6500400","永和區"
"234011","9373-KE","2018/09/21 18:29:23","新北市永和區保福路二段156號","121.509141666667","25.0149583333333","6500400","永和區"
"249005","172-UM","2018/09/21 18:29:16","新北市八里區下罟子1-10號","121.393711666667","25.13994","6502300","八里區"
"249001","173-UM","2018/09/21 18:29:12","新北市八里區龍米路一段140號","121.453011666667","25.1256816666667","6502300","八里區"
"249004","303-UY","2018/09/21 18:29:11","新北市八里區忠孝路47號","121.428321666667","25.1602216666667","6502300","八里區"
"249002","305-UY","2018/09/21 18:29:20","新北市八里區龍形三街26號","121.44795","25.1316466666667","6502300","八里區"
"248014","025-BX","2018/09/21 18:29:28","新北市五股區自強路56號","121.433283333333","25.0737666666667","6501500","五股區"
"248016","026-BX","2018/09/21 18:29:13","新北市五股區凌雲路一段83巷22弄2號","121.449943333333","25.10072","6501500","五股區"
"248006","077-UY","2018/09/21 18:29:10","新北市五股區四維路23號","121.467101666667","25.0705566666667","6501500","五股區"
"248008","095-VK","2018/09/21 18:29:25","新北市五股區四維路185巷42弄1號","121.463373333333","25.07697","6501500","五股區"
"248018","225-UY","2018/09/21 18:29:25","新北市五股區御史路269號","121.421871666667","25.1061416666667","6501500","五股區"
"248012","247-BX","2018/09/21 18:29:22","新北市五股區御史路59號","121.441833333333","25.0936783333333","6501500","五股區"
"248010","272-BY","2018/09/21 18:29:14","新北市五股區成泰路一段139巷2弄4號","121.435066666667","25.0730166666667","6501500","五股區"
"248004","677-BX","2018/09/21 18:29:21","新北市五股區工商路130號","121.436043333333","25.08605","6501500","五股區"
"248002","678-BX","2018/09/21 18:29:12","新北市五股區西雲路113-1號","121.444001666667","25.0931383333333","6501500","五股區"
"234077","969-R7","2018/09/21 18:29:27","新北市永和區福和路8巷1號","121.525018333333","25.0090133333333","6500400","永和區"
"244023","069-UM","2018/09/21 18:29:10","新北市林口區四維路245巷25號","121.382053333333","25.0751083333333","6501700","林口區"
"244007","080-UY","2018/09/21 18:29:17","新北市林口區後湖17-1號","121.386783333333","25.096795","6501700","林口區"
"244019","403-UM","2018/09/21 18:29:16","新北市林口區忠孝路603號","121.378356666667","25.0684766666667","6501700","林口區"
"244013","KEA-2802","2018/09/21 18:29:19","新北市林口區文化一路二段106號","121.382105","25.0792166666667","6501700","林口區"
"244017","485-VK","2018/09/21 18:29:23","新北市林口區八德路78號","121.365646666667","25.06564","6501700","林口區"
"244009","656-BX","2018/09/21 18:29:26","新北市林口區文化三路二段291-11號","121.378008333333","25.08666","6501700","林口區"
"244011","657-BX","2018/09/21 18:29:16","新北市林口區新寮1-61號","121.39281","25.0764383333333","6501700","林口區"
"244025","837-TS","2018/09/21 18:29:24","新北市林口區南勢六街32-1號","121.356378333333","25.071225","6501700","林口區"
"244021","838-TS","2018/09/21 18:29:10","新北市林口區自強四街14號","121.399221666667","25.0766566666667","6501700","林口區"
"243013","AAD-798","2018/09/21 18:29:10","新北市泰山區明志路三段206巷3號","121.423291666667","25.03792","6501600","泰山區"
"222003","436-BY","2018/09/21 18:29:26","新北市深坑區文山路一段28-1號","121.630833333333","25.00536","6501800","深坑區"
"222002","659-BX","2018/09/21 18:29:23","新北市深坑區雲鄉路191號","121.622613333333","24.997935","6501800","深坑區"
"231041","002-UM","2018/09/21 18:29:11","新北市新店區安華路28-1號","121.51973","24.9607783333333","6500600","新店區"
"231059","046-UY","2018/09/21 18:29:14","新北市新店區安華路28-1號","121.519561666667","24.9608216666667","6500600","新店區"
"231040","047-UY","2018/09/21 18:29:12","新北市新店區安華路28-1號","121.519283333333","24.9609283333333","6500600","新店區"
"231044","106-UY","2018/09/21 18:29:25","新北市新店區安華路28-1號","121.519636666667","24.9609266666667","6500600","新店區"
"231046","107-UY","2018/09/21 18:29:11","新北市新店區直潭路93號","121.532206666667","24.9399233333333","6500600","新店區"
"231053","108-UY","2018/09/21 18:29:26","新北市新店區新烏路一段50-2號","121.545663333333","24.949275","6500600","新店區"
"231048","187-VK","2018/09/21 18:29:21","新北市新店區安一路一段1-1號","121.519531666667","24.9611383333333","6500600","新店區"
"231054","KEA-2219","2018/09/21 18:29:12","新北市新店區安一路一段1-1號","121.519693333333","24.9612133333333","6500600","新店區"
"231057","256-BX","2018/09/21 18:29:28","新北市新店區環河路29巷1號","121.536793333333","24.96127","6500600","新店區"
"231042","268-BY","2018/09/21 18:29:13","新北市新店區安華路28-1號","121.519908333333","24.96105","6500600","新店區"
"231051","278-BY","2018/09/21 18:29:16","新北市新店區安一路一段1-1號","121.519633333333","24.9611566666667","6500600","新店區"
"231050","AAD-862","2018/09/21 18:29:25","新北市新店區安華路28-1號","121.519826666667","24.9609983333333","6500600","新店區"
"231058","3713-VJ","2018/09/21 18:29:12","新北市新店區新店後街24號","121.537948333333","24.9532883333333","6500600","新店區"
"231066","4716-K9","2018/09/21 18:29:16","新北市新店區安一路一段1-1號","121.519386666667","24.961225","6500600","新店區"
"231056","4715-K9","2018/09/21 18:29:21","新北市新店區二十張路66號","121.536626666667","24.9800766666667","6500600","新店區"
"231067","4772-VM","2018/09/21 18:29:28","新北市新店區安華路1-1號","121.519215","24.9604933333333","6500600","新店區"
"231065","512-UM","2018/09/21 18:29:08","新北市新店區安一路一段1-1號","121.519426666667","24.9612216666667","6500600","新店區"
"231049","513-UM","2018/09/21 18:29:24","新北市新店區安一路一段1-1號","121.519563333333","24.9610883333333","6500600","新店區"
"231063","616-UM","2018/09/21 18:29:25","新北市新店區安華路1-1號","121.519455","24.9604983333333","6500600","新店區"
"231045","617-UM","2018/09/21 18:29:20","新北市新店區安華路28-1號","121.519421666667","24.9608233333333","6500600","新店區"
"231061","619-UM","2018/09/21 18:29:11","新北市新店區安華路28-1號","121.519421666667","24.960805","6500600","新店區"
"231064","719-UM","2018/09/21 18:29:12","新北市新店區安一路一段1-1號","121.519445","24.9611033333333","6500600","新店區"
"231062","720-UM","2018/09/21 18:29:24","新北市新店區安康路一段359-27號","121.51871","24.9613916666667","6500600","新店區"
"231060","897-TW","2018/09/21 18:29:15","新北市新店區安華路28-1號","121.519553333333","24.9607883333333","6500600","新店區"
"231043","899-TW","2018/09/21 18:29:15","新北市新店區安華路28-1號","121.519255","24.9606983333333","6500600","新店區"
"231055","AKT-0513","2018/09/21 18:29:24","新北市新店區中正路211號","121.53986","24.97262","6500600","新店區"
"241004","475-VK","2018/09/21 18:29:27","新北市三重區仁義街91號","121.499671666667","25.0797716666667","6500200","三重區"
"235066","003-UY","2018/09/21 18:29:10","新北市中和區中山路二段120號","121.502623333333","25.003775","6500300","中和區"
"235064","005-UY","2018/09/21 18:29:12","新北市中和區連城路139巷41號","121.496601666667","24.9976566666667","6500300","中和區"
"235063","006-UY","2018/09/21 18:29:11","新北市中和區中正路508號","121.488563333333","24.9946566666667","6500300","中和區"
"235056","096-UM","2018/09/21 18:29:23","新北市中和區新民街104號","121.480825","25.008395","6500300","中和區"
"235039","097-UM","2018/09/21 18:29:18","新北市中和區安平路161號","121.5125","24.9985183333333","6500300","中和區"
"235065","098-UM","2018/09/21 18:29:16","新北市中和區中山路二段64巷24號","121.502966666667","25.0059383333333","6500300","中和區"
"235040","150-BY","2018/09/21 18:29:26","新北市中和區安平路59號","121.509446666667","24.9950683333333","6500300","中和區"
"235058","151-BY","2018/09/21 18:29:13","新北市中和區圓通路369巷30弄62號","121.48876","24.9848116666667","6500300","中和區"
"235055","183-VK","2018/09/21 18:29:14","新北市中和區莒光路181號","121.472685","24.9991983333333","6500300","中和區"
"235038","185-VK","2018/09/21 18:29:22","新北市中和區自立路141巷18號","121.52303","24.993455","6500300","中和區"
"235049","186-VK","2018/09/21 18:29:25","新北市中和區景安路142號","121.505095","24.9941766666667","6500300","中和區"
"235067","255-BX","2018/09/21 18:29:23","新北市中和區連城路467-5號","121.483591666667","24.99601","6500300","中和區"
"235072","301-VK","2018/09/21 18:29:19","新北市中和區連城路137號","121.495793333333","24.9988433333333","6500300","中和區"
"235043","352-BY","2018/09/21 18:29:21","新北市中和區景平路321號","121.50624","24.993345","6500300","中和區"
"235042","KEA-2878","2018/09/21 18:29:11","新北市中和區自立路56巷6號","121.523065","24.99175","6500300","中和區"
"247012","KEA-2869","2018/09/21 18:29:16","新北市八里區中山路三段386號","121.368551666667","25.1357116666667","6501400","蘆洲區"
"235050","4979-A6","2018/09/21 18:29:25","新北市中和區興南路一段16號","121.511363333333","24.9912816666667","6500300","中和區"
"235069","4980-A6","2018/09/21 18:29:24","新北市中和區連城路127巷27號","121.497178333333","24.9976683333333","6500300","中和區"
"235070","558-UM","2018/09/21 18:29:19","新北市中和區景平路429-3號","121.50117","24.9954766666667","6500300","中和區"
"235045","565-BX","2018/09/21 18:29:21","新北市中和區南山路236巷24弄21號","121.504901666667","24.9890216666667","6500300","中和區"
"235054","640-BX","2018/09/21 18:29:18","新北市中和區民享街86巷1號","121.474483333333","25.00091","6500300","中和區"
"235047","732-UM","2018/09/21 18:29:09","新北市中和區南山路320巷9號","121.507583333333","24.9864616666667","6500300","中和區"
"235046","733-UM","2018/09/21 18:29:17","新北市中和區板南路100號","121.50385","24.9923466666667","6500300","中和區"
"235057","801-TS","2018/09/21 18:29:30","新北市中和區民享街97巷15號","121.475671666667","24.9999683333333","6500300","中和區"
"235041","802-TS","2018/09/21 18:29:25","新北市中和區景安路72號","121.505751666667","24.9965616666667","6500300","中和區"
"235048","896-TW","2018/09/21 18:29:24","新北市中和區中正路83號","121.500681666667","24.9933983333333","6500300","中和區"
"235053","900-TW","2018/09/21 18:29:25","新北市中和區民享街469-1號","121.469846666667","24.9922866666667","6500300","中和區"
"235060","911-UM","2018/09/21 18:29:09","新北市中和區員山路451號","121.480523333333","25.0041633333333","6500300","中和區"
"235051","157-BY","2018/09/21 18:29:28","新北市中和區興南路二段114巷12號","121.50394","24.9845833333333","6500300","中和區"
"235037","AAC-213","2018/09/21 18:29:10","新北市中和區景平路123號","121.515398333333","24.9915516666667","6500300","中和區"
"235059","AAC-215","2018/09/21 18:29:16","新北市中和區員山路36巷16-3號","121.48501","24.991195","6500300","中和區"
"220065","072-UY","2018/09/21 18:29:11","新北市板橋區遠東路9號","121.457328333333","24.998995","6500100","板橋區"
"220086","073-UY","2018/09/21 18:29:27","新北市板橋區南雅南路二段140號","121.451703333333","24.9962483333333","6500100","板橋區"
"226004","205-ST","2018/09/21 18:29:21","新北市平溪區靜安路二段240號","121.724585","25.0220333333333","6502400","平溪區"
"235062","251-BX","2018/09/21 18:29:09","新北市中和區景平路999巷1號","121.495416666667","25.0059516666667","6500300","中和區"
"228002","663-BX","2018/09/21 18:29:19","新北市貢寮區福連里福連街34號","121.98831","25.0121333333333","6502600","貢寮區"
"228001","670-TC","2018/09/21 18:29:27","新北市貢寮區仁理村仁和路102號","121.922855","25.0507616666667","6502600","貢寮區"
"228003","828-UM","2018/09/21 18:29:07","新北市貢寮區和美里和美街40號","121.912563333333","25.0898183333333","6502600","貢寮區"
"224006","676-BX","2018/09/21 18:29:08","新北市瑞芳區明燈路二段38號","121.810161666667","25.10754","6501200","瑞芳區"
"224002","639-TC","2018/09/21 18:29:15","新北市瑞芳區三爪子坑路29巷2號","121.813521666667","25.10729","6501200","瑞芳區"
"224008","285-BY","2018/09/21 18:29:19","新北市瑞芳區逢甲路159巷2號","121.806283333333","25.1101416666667","6501200","瑞芳區"
"224007","275-VK","2018/09/21 18:29:13","新北市瑞芳區大埔路國宅新村36號","121.764231666667","25.0998933333333","6501200","瑞芳區"
"224009","273-VK","2018/09/21 18:29:23","新北市瑞芳區五號路308號","121.856846666667","25.11151","6501200","瑞芳區"
"224005","271-BY","2018/09/21 18:29:12","新北市瑞芳區瑞濱路93號","121.820593333333","25.1207283333333","6501200","瑞芳區"
"227011","642-TC","2018/09/21 18:29:27","新北市雙溪區牡丹里牡丹137-1號","121.851143333333","25.0589783333333","6502500","雙溪區"
"227003","400-TW","2018/09/21 18:29:13","新北市雙溪區魚行里坤溪21-1號","121.870441666667","25.0281366666667","6502500","雙溪區"
"253006","032-BX","2018/09/21 18:29:20","新北市石門區公地20-1號","121.545833333333","25.2901633333333","6502200","石門區"
"253005","295-VK","2018/09/21 18:29:21","新北市石門區海園路37號","121.557356666667","25.2911483333333","6502200","石門區"
"222001","KEA-2212","2018/09/21 18:29:17","新北市深坑區北深路一段177號","121.632466666667","25.0107766666667","6501800","深坑區"
"208002","KEA-2872","2018/09/21 18:29:12","新北市金山區磺港里磺港路171-1號","121.643683333333","25.223875","6502700","金山區"
"208003","665-BX","2018/09/21 18:29:26","新北市金山區中山路116號","121.639343333333","25.2198766666667","6502700","金山區"
"208001","761-BX","2018/09/21 18:29:23","新北市金山區溫泉路21巷1號","121.637771666667","25.2228566666667","6502700","金山區"
"251005","010-UM","2018/09/21 18:29:20","新北市淡水區中正東路35巷19號","121.446568333333","25.1689333333333","6501000","淡水區"
"251001","011-UM","2018/09/21 18:29:20","新北市淡水區自強路373號","121.464558333333","25.133395","6501000","淡水區"
"251008","181-VK","2018/09/21 18:29:21","新北市淡水區北投子87-3號","121.469153333333","25.17864","6501000","淡水區"
"251010","413-VK","2018/09/21 18:29:18","新北市淡水區沙崙路181巷1號","121.424165","25.1842083333333","6501000","淡水區"
"251012","441-VK","2018/09/21 18:29:06","新北市淡水區北新路一段156-1號","121.4606","25.1824916666667","6501000","淡水區"
"251004","443-VK","2018/09/21 18:29:19","新北市淡水區民族路31巷33號","121.46225","25.136675","6501000","淡水區"
"251006","561-UM","2018/09/21 18:29:15","新北市淡水區中山北路一段45巷18號","121.440933333333","25.1759583333333","6501000","淡水區"
"251007","577-R6","2018/09/21 18:29:10","新北市淡水區中正東路二段143巷2弄1號","121.460546666667","25.1472683333333","6501000","淡水區"
"251011","650-BX","2018/09/21 18:29:13","新北市淡水區中正東路36-1號","121.448851666667","25.1659283333333","6501000","淡水區"
"251002","672-BX","2018/09/21 18:29:24","新北市淡水區竿蓁二街17號","121.453193333333","25.163015","6501000","淡水區"
"251003","766-UM","2018/09/21 18:29:19","新北市淡水區北新路169巷16號","121.44979","25.1801166666667","6501000","淡水區"
"207003","550-UM","2018/09/21 18:29:24","新北市萬里區野柳里港東路151-2號","121.688435","25.205105","6502800","萬里區"
"207004","225-TW","2018/09/21 18:29:28","新北市萬里區萬里里瑪鋉路183號","121.690255","25.178605","6502800","萬里區"
"252003","249-BX","2018/09/21 18:29:09","新北市三芝區後厝里北勢子20-6號","121.473051666667","25.2535616666667","6502100","三芝區"
"252001","292-VK","2018/09/21 18:29:27","新北市三芝區中興街二段2號","121.498395","25.2565866666667","6502100","三芝區"
"252002","AAC-283","2018/09/21 18:29:10","新北市三芝區中山路二段38號","121.502993333333","25.2551216666667","6502100","三芝區"
"237004","KEA-2597","2018/09/21 18:29:18","新北市三峽區金敏16號","121.390261666667","24.8746316666667","6500900","三峽區"
"237007","153-BY","2018/09/21 18:29:27","新北市三峽區中正路三段168號","121.35265","24.90382","6500900","三峽區"
"237009","210-TH","2018/09/21 18:29:07","新北市三峽區大同路268號","121.365478333333","24.9253366666667","6500900","三峽區"
"237013","252-BX","2018/09/21 18:29:21","新北市三峽區光明路69巷22號","121.376408333333","24.92898","6500900","三峽區"
"237012","275-BY","2018/09/21 18:29:10","新北市三峽區三樹路214巷13號","121.380151666667","24.94143","6500900","三峽區"
"237008","302-VK","2018/09/21 18:29:21","新北市三峽區白雞68-119號","121.391605","24.9082366666667","6500900","三峽區"
"237006","5529-G3","2018/09/21 18:29:17","新北市三峽區溪東路473巷76號","121.415593333333","24.9293733333333","6500900","三峽區"
"237011","KEA-2596","2018/09/21 18:29:26","新北市三峽區成福路3號","121.416638333333","24.928055","6500900","三峽區"
"237015","649-BX","2018/09/21 18:29:23","新北市三峽區紫微南路36號","121.421485","24.9147883333333","6500900","三峽區"
"237010","706-TV","2018/09/21 18:29:17","新北市三峽區復興路489號","121.361238333333","24.9384466666667","6500900","三峽區"
"237005","AKY-6261","2018/09/21 18:29:16","新北市三峽區民族街5巷56號","121.369726666667","24.9320183333333","6500900","三峽區"
"236069","105-UM","2018/09/21 18:29:27","新北市土城區永豐路255巷21弄2-1號","121.475028333333","24.9735983333333","6501300","土城區"
"236042","107-UM","2018/09/21 18:29:26","新北市土城區學成路91巷7號","121.450265","24.9876633333333","6501300","土城區"
"236079","166-UM","2018/09/21 18:29:28","新北市土城區大暖路53-2號","121.422406666667","24.95859","6501300","土城區"
"236030","253-BX","2018/09/21 18:29:29","新北市土城區福仁街50巷18號","121.439283333333","24.9755133333333","6501300","土城區"
"236026","269-VK","2018/09/21 18:29:24","新北市土城區南天母路135巷20號","121.448706666667","24.95473","6501300","土城區"
"236014","270-VK","2018/09/21 18:29:13","新北市土城區青雲路39巷7號","121.460315","24.98736","6501300","土城區"
"236039","271-VK","2018/09/21 18:29:25","新北市土城區明德路一段321號","121.459171666667","24.9770766666667","6501300","土城區"
"236020","401-BY","2018/09/21 18:29:18","新北市土城區明德路一段93巷6號","121.466061666667","24.983295","6501300","土城區"
"236059","912-UM","2018/09/21 18:29:25","新北市土城區中央路四段76-3號","121.419005","24.95956","6501300","土城區"
"236048","913-UM","2018/09/21 18:29:14","新北市土城區青雲路449-1號","121.458743333333","24.974705","6501300","土城區"
"236063","915-UM","2018/09/21 18:29:22","新北市土城區延壽路75巷19號","121.46869","24.9922816666667","6501300","土城區"
"236055","AAC-216","2018/09/21 18:29:10","新北市土城區中華路一段243-8號","121.441105","24.9820433333333","6501300","土城區"
"242058","986-R7","2018/09/21 18:29:21","新北市新莊區中正路816號","121.409953333333","25.0208533333333","6500500","新莊區"
"242056","751-BX","2018/09/21 18:29:26","新北市新莊區中環路一段30號","121.442185","25.02727","6500500","新莊區"
"242025","613-BX","2018/09/21 18:29:24","新北市新莊區五權一路12巷21弄1號","121.457666666667","25.0644766666667","6500500","新莊區"
"242044","566-BX","2018/09/21 18:29:23","新北市新莊區新北大道七段441號","121.41388","25.0235383333333","6500500","新莊區"
"242054","442-UM","2018/09/21 18:29:07","新北市樹林區中正路6號","121.429743333333","24.9974433333333","6500500","新莊區"
"242009","413-TV","2018/09/21 18:29:09","新北市新莊區新泰路357巷1弄2號","121.442661666667","25.0412866666667","6500500","新莊區"
"242046","400-BY","2018/09/21 18:29:13","新北市新莊區民安路16-29號","121.42243","25.0280466666667","6500500","新莊區"
"242060","353-BY","2018/09/21 18:29:14","新北市新莊區後港一路107號","121.428471666667","25.0270316666667","6500500","新莊區"
"242011","132-UY","2018/09/21 18:29:26","新北市新莊區中信街74號","121.448","25.0523683333333","6500500","新莊區"
"242041","133-UY","2018/09/21 18:29:27","新北市新莊區雙鳳路90巷3弄5號","121.414853333333","25.0285216666667","6500500","新莊區"
"242032","348-TH","2018/09/21 18:29:28","新北市新莊區新泰路289巷56號","121.443048333333","25.040365","6500500","新莊區"
"242005","349-TH","2018/09/21 18:29:23","新北市新莊區三和路12-21號","121.441826666667","25.0379166666667","6500500","新莊區"
"242021","350-TH","2018/09/21 18:29:17","新北市新莊區新泰路131號","121.448243333333","25.0363083333333","6500500","新莊區"
"238015","755-BX","2018/09/21 18:29:23","新北市樹林區備內街30號","121.412608333333","24.9872216666667","6500700","樹林區"
"238023","601-UM","2018/09/21 18:29:19","新北市樹林區三福街114號","121.406435","25.0163316666667","6500700","樹林區"
"238019","599-UM","2018/09/21 18:27:37","新北市樹林區中華路190-16號","121.411806666667","24.980655","6500700","樹林區"
"238018","571-TV","2018/09/21 18:29:12","新北市樹林區樹新路50巷5弄7號","121.429645","24.99702","6500700","樹林區"
"238024","5061-A6","2018/09/21 18:29:14","新北市樹林區中山路一段65-2號","121.424225","24.9917383333333","6500700","樹林區"
"238025","303-VK","2018/09/21 18:29:29","新北市樹林區保安二街61號","121.424411666667","24.994595","6500700","樹林區"
"238017","283-BY","2018/09/21 18:29:10","新北市樹林區光榮街3巷1號","121.41308","25.0039633333333","6500700","樹林區"
"238014","282-BY","2018/09/21 18:29:08","新北市樹林區大安路111巷41號","121.423266666667","24.9975516666667","6500700","樹林區"
"238020","268-VK","2018/09/21 18:29:11","新北市樹林區三俊街65巷18弄40號","121.415333333333","25.0172283333333","6500700","樹林區"
"238026","172-UY","2018/09/21 18:29:09","新北市樹林區佳園路一段75巷92號","121.396378333333","24.9703116666667","6500700","樹林區"
"238016","169-UY","2018/09/21 18:29:27","新北市樹林區文化街23號","121.419291666667","24.9876383333333","6500700","樹林區"
"239007","AAC-297","2018/09/21 18:29:13","新北市鶯歌區中山路64號","121.35193","24.95704","6500800","鶯歌區"
"239006","891-R6","2018/09/21 18:29:12","新北市鶯歌區鶯桃路296巷51號","121.335776666667","24.9613533333333","6500800","鶯歌區"
"239008","527-UM","2018/09/21 18:29:28","新北市鶯歌區國際一路179號","121.336278333333","24.976525","6500800","鶯歌區"
"239005","526-UM","2018/09/21 18:29:13","新北市鶯歌區鳳吉一街155號","121.32883","24.9751783333333","6500800","鶯歌區"
"239001","417-VK","2018/09/21 18:29:06","新北市鶯歌區二橋街30號","121.336511666667","24.939335","6500800","鶯歌區"
"239003","360-BY","2018/09/21 18:29:08","新北市鶯歌區永和街47號","121.332605","24.9674566666667","6500800","鶯歌區"
"239002","359-BY","2018/09/21 18:29:14","新北市鶯歌區中正一路213號","121.35364","24.9571416666667","6500800","鶯歌區"
"239004","193-VK","2018/09/21 18:29:17","新北市鶯歌區中正三路156巷1號","121.334113333333","24.9390716666667","6500800","鶯歌區"
"221008","489-VK","2018/09/21 18:29:24","新北市汐止區康寧街901號","121.651383333333","25.07498","6501100","汐止區"
"221036","130-UY","2018/09/21 18:29:14","新北市汐止區忠孝東路473巷24-1號","121.665325","25.0735683333333","6501100","汐止區"
"221015","131-UY","2018/09/21 18:29:23","新北市汐止區鄉長路二段22號","121.668318333333","25.0824633333333","6501100","汐止區"
"221010","269-BY","2018/09/21 18:29:22","新北市汐止區汐萬路三段252巷15號","121.644471666667","25.1048716666667","6501100","汐止區"
"221012","278-VK","2018/09/21 18:29:21","新北市汐止區保長路53號","121.673503333333","25.07884","6501100","汐止區"
"221023","279-VK","2018/09/21 18:29:19","新北市汐止區康寧街518-1號","121.634105","25.0688316666667","6501100","汐止區"
"221032","280-BY","2018/09/21 18:29:17","新北市汐止區福山街62巷2號","121.617981666667","25.04671","6501100","汐止區"
"221027","281-BY","2018/09/21 18:29:24","新北市汐止區和平街45號","121.662148333333","25.0708116666667","6501100","汐止區"
"221029","298-VK","2018/09/21 18:29:10","新北市汐止區樟樹二路330巷13號","121.642153333333","25.0702366666667","6501100","汐止區"
"221021","299-VK","2018/09/21 18:29:26","新北市汐止區新台五路一段97-1號","121.650943333333","25.0614666666667","6501100","汐止區"
"221031","353-TW","2018/09/21 18:29:29","新北市汐止區大同路一段405-1號","121.641523333333","25.0602083333333","6501100","汐止區"
"221035","622-UM","2018/09/21 18:29:11","新北市汐止區大同路二段187巷3號","121.652086666667","25.064605","6501100","汐止區"
"221025","623-UM","2018/09/21 18:29:13","新北市汐止區仁愛路122巷18號","121.663381666667","25.0632816666667","6501100","汐止區"
"221038","646-BX","2018/09/21 18:29:11","新北市汐止區忠孝東路310號","121.664351666667","25.0689116666667","6501100","汐止區"
"221002","707-TV","2018/09/21 18:29:17","新北市汐止區福德一路167號","121.636205","25.066195","6501100","汐止區"
"221018","753-BX","2018/09/21 18:29:25","新北市汐止區茄苳路250巷7號","121.671383333333","25.0680266666667","6501100","汐止區"
"220082","610-BX","2018/09/21 18:29:11","新北市板橋區華東街1-9號","121.448266666667","24.99488","6500100","板橋區"
"220056","276-BY","2018/09/21 18:29:21","新北市板橋區華東街1-10號","121.448678333333","24.9949633333333","6500100","板橋區"
"220072","277-BY","2018/09/21 18:29:18","新北市板橋區華東街1-10號","121.4483","24.9950533333333","6500100","板橋區"
"220094","280-UM","2018/09/21 18:29:18","新北市板橋區民生路二段161巷9號","121.47022","25.0194883333333","6500100","板橋區"
"220071","283-VK","2018/09/21 18:29:21","新北市板橋區華東街1-9號","121.448083333333","24.9949016666667","6500100","板橋區"
"220083","286-VK","2018/09/21 18:29:22","新北市板橋區華東街1-10號","121.44834","24.9949883333333","6500100","板橋區"
"220064","486-VK","2018/09/21 18:29:29","新北市板橋區南雅南路二段120-16號","121.451853333333","24.9992116666667","6500100","板橋區"
"220035","560-BX","2018/09/21 18:29:17","新北市板橋區南雅西路二段145巷10號","121.451581666667","25.0120116666667","6500100","板橋區"
"220084","568-UM","2018/09/21 18:29:25","新北市板橋區華東街1-9號","121.448201666667","24.9949566666667","6500100","板橋區"
"220077","687-BX","2018/09/21 18:29:20","新北市板橋區華東街1-10號","121.448356666667","24.9949666666667","6500100","板橋區"
"220054","741-BX","2018/09/21 18:29:15","新北市板橋區華東街1-9號","121.448251666667","24.99488","6500100","板橋區"
"220074","895-R6","2018/09/21 18:29:23","新北市板橋區華東街1-10號","121.448265","24.9950266666667","6500100","板橋區"
"220073","985-R7","2018/09/21 18:29:21","新北市板橋區華東街1-10號","121.448281666667","24.9949333333333","6500100","板橋區"
"235068","KEA-2873","2018/09/21 18:29:13","新北市中和區中正路395號","121.48974","24.993575","6500300","中和區"
"235061","KEA-2875","2018/09/21 18:29:17","新北市中和區民享街101號","121.47505","24.9997683333333","6500300","中和區"
