"lineid","car","time","location","longitude","latitude","cityid","cityname"
"234046","148-BY","2018/09/21 18:49:11","新北市永和區秀朗路二段151號","121.524868333333","25.0016083333333","6500400","永和區"
"234007","207-UY","2018/09/21 18:49:20","新北市永和區文化路80號","121.514051666667","25.01516","6500400","永和區"
"234081","298-R6","2018/09/21 18:49:19","新北市永和區林森路136號","121.522131666667","25.00294","6500400","永和區"
"234038","336-UY","2018/09/21 18:49:12","新北市永和區成功路二段207號","121.526575","24.9959683333333","6500400","永和區"
"234064","337-UY","2018/09/21 18:49:14","新北市永和區福和路1號","121.526335","25.0098116666667","6500400","永和區"
"234086","338-UY","2018/09/21 18:49:30","新北市永和區中正路9號","121.514046666667","24.99563","6500400","永和區"
"234070","552-UM","2018/09/21 18:49:11","新北市永和區竹林路96巷1號","121.51937","25.0120716666667","6500400","永和區"
"234017","745-BX","2018/09/21 18:49:16","新北市永和區永和路二段405巷3號","121.51531","25.0172366666667","6500400","永和區"
"234030","746-BX","2018/09/21 18:49:27","新北市永和區得和路321號","121.5234","24.9996416666667","6500400","永和區"
"234054","KEA-2590","2018/09/21 18:49:19","新北市永和區豫溪街207巷22號","121.523375","25.0103916666667","6500400","永和區"
"234013","KEA-2591","2018/09/21 18:49:13","新北市永和區保福路二段133巷15弄1-1號","121.509655","25.0136116666667","6500400","永和區"
"234061","AAD-866","2018/09/21 18:49:26","新北市永和區福和路137號","121.521161666667","25.007675","6500400","永和區"
"234042","862-TW","2018/09/21 18:49:18","新北市永和區永貞路267號","121.511963333333","25.004685","6500400","永和區"
"234050","863-TW","2018/09/21 18:49:27","新北市永和區環河東路二段28號","121.522601666667","25.0128516666667","6500400","永和區"
"234026","9371-KE","2018/09/21 18:49:28","新北市永和區自由街58號","121.513778333333","25.005905","6500400","永和區"
"234011","9373-KE","2018/09/21 18:49:23","新北市永和區文化路124號","121.513051666667","25.015445","6500400","永和區"
"249005","172-UM","2018/09/21 18:49:16","新北市八里區長道坑17號","121.396098333333","25.1155116666667","6502300","八里區"
"249001","173-UM","2018/09/21 18:49:12","新北市八里區龍米路二段68號","121.447933333333","25.1416016666667","6502300","八里區"
"248014","025-BX","2018/09/21 18:49:08","新北市五股區成泰路一段218號","121.436426666667","25.0797883333333","6501500","五股區"
"248016","026-BX","2018/09/21 18:49:13","新北市五股區凌雲路一段149巷13-1號","121.448593333333","25.1008783333333","6501500","五股區"
"248006","077-UY","2018/09/21 18:49:10","新北市五股區四維路1巷2弄2號","121.466488333333","25.0701433333333","6501500","五股區"
"248008","095-VK","2018/09/21 18:49:25","新北市五股區中興路一段151巷41號","121.465168333333","25.0720033333333","6501500","五股區"
"248018","225-UY","2018/09/21 18:49:25","新北市五股區民義路二段48巷3-1號","121.414028333333","25.10314","6501500","五股區"
"248012","247-BX","2018/09/21 18:49:22","新北市五股區成泰路二段147巷12號","121.43897","25.0861516666667","6501500","五股區"
"248010","272-BY","2018/09/21 18:49:14","新北市五股區水碓一路53號","121.431443333333","25.0719133333333","6501500","五股區"
"248004","677-BX","2018/09/21 18:49:21","新北市五股區民義路二段41號","121.41394","25.1014566666667","6501500","五股區"
"248002","678-BX","2018/09/21 18:49:26","新北市五股區西雲路247號","121.449303333333","25.0979233333333","6501500","五股區"
"234023","9380-KE","2018/09/21 18:49:28","新北市永和區竹林路119巷28-3號","121.521883333333","25.0117733333333","6500400","永和區"
"234077","969-R7","2018/09/21 18:49:27","新北市永和區中正路2巷5號","121.512843333333","24.99341","6500400","永和區"
"234067","AAC-212","2018/09/21 18:49:23","新北市永和區永和路一段22號","121.512981666667","25.0048166666667","6500400","永和區"
"234003","AAC-295","2018/09/21 18:49:21","新北市永和區中正路708號","121.516041666667","25.0099383333333","6500400","永和區"
"232011","375-UM","2018/09/21 18:49:24","新北市坪林區坪碇路87號","121.71176","24.9388166666667","6502000","坪林區"
"244023","069-UM","2018/09/21 18:49:10","新北市林口區文化三路二段211巷85號","121.375161666667","25.0841516666667","6501700","林口區"
"244007","080-UY","2018/09/21 18:49:17","新北市林口區太平里5-15號","121.380543333333","25.11395","6501700","林口區"
"244019","403-UM","2018/09/21 18:49:16","新北市林口區麗園二街42巷25號","121.382358333333","25.066545","6501700","林口區"
"244013","KEA-2802","2018/09/21 18:49:19","新北市林口區麗園一街6巷6-3號","121.375276666667","25.07042","6501700","林口區"
"244017","485-VK","2018/09/21 18:49:23","新北市林口區文化二路一段156號","121.368426666667","25.0714333333333","6501700","林口區"
"244009","656-BX","2018/09/21 18:49:26","新北市林口區竹林路362巷1號","121.391791666667","25.0846816666667","6501700","林口區"
"244011","657-BX","2018/09/21 18:49:16","新北市林口區新寮1-84號","121.392751666667","25.076765","6501700","林口區"
"244025","837-TS","2018/09/21 18:49:24","新北市林口區忠孝一路162號","121.359355","25.0739483333333","6501700","林口區"
"244021","838-TS","2018/09/21 18:49:10","新北市林口區自強二街67號","121.399698333333","25.0768033333333","6501700","林口區"
"243013","AAD-798","2018/09/21 18:32:45","新北市泰山區明志路三段206巷3號","121.423301666667","25.037925","6501600","泰山區"
"243015","421-VK","2018/09/21 18:49:23","新北市泰山區泰林路二段416號","121.427223333333","25.06435","6501600","泰山區"
"243012","646-TV","2018/09/21 18:49:15","新北市泰山區福興三街11號","121.434515","25.0577433333333","6501600","泰山區"
"243014","680-BX","2018/09/21 18:49:12","新北市泰山區黎明路33號","121.421695","25.0605166666667","6501600","泰山區"
"222003","436-BY","2018/09/21 18:49:26","新北市深坑區深南路51-1號","121.621321666667","25.010135","6501800","深坑區"
"222002","659-BX","2018/09/21 18:49:23","新北市深坑區文山路一段69號","121.627001666667","25.0019","6501800","深坑區"
"231041","002-UM","2018/09/21 18:49:31","新北市新店區安華路28-1號","121.51982","24.960695","6500600","新店區"
"231059","046-UY","2018/09/21 18:49:14","新北市新店區安華路28-1號","121.519596666667","24.960795","6500600","新店區"
"231040","047-UY","2018/09/21 18:49:12","新北市新店區安康路一段81號","121.529718333333","24.9612283333333","6500600","新店區"
"231044","106-UY","2018/09/21 18:49:25","新北市新店區寶中路72號","121.547853333333","24.9806183333333","6500600","新店區"
"231046","107-UY","2018/09/21 18:49:23","新北市新店區直潭路37號","121.533903333333","24.9426566666667","6500600","新店區"
"231053","108-UY","2018/09/21 18:49:26","新北市新店區新烏路一段140-1號","121.546271666667","24.9322783333333","6500600","新店區"
"231048","187-VK","2018/09/21 18:49:21","新北市新店區北新路一段303號","121.541471666667","24.96738","6500600","新店區"
"231054","KEA-2219","2018/09/21 18:49:12","新北市新店區安康路一段355號","121.5198","24.9629616666667","6500600","新店區"
"231042","268-BY","2018/09/21 18:49:13","新北市新店區北新路一段89號","121.538526666667","24.9616583333333","6500600","新店區"
"231051","278-BY","2018/09/21 18:49:16","新北市新店區中央路59號","121.532746666667","24.9773316666667","6500600","新店區"
"231050","AAD-862","2018/09/21 18:49:25","新北市新店區安康路一段48號","121.530521666667","24.96108","6500600","新店區"
"231058","3713-VJ","2018/09/21 18:49:12","新北市新店區中興路一段139號","121.542146666667","24.96367","6500600","新店區"
"231066","4716-K9","2018/09/21 18:49:16","新北市新店區安一路一段1-1號","121.519283333333","24.9612083333333","6500600","新店區"
"231056","4715-K9","2018/09/21 18:49:15","新北市新店區大同街25號","121.53873","24.9806483333333","6500600","新店區"
"231067","4772-VM","2018/09/21 18:49:28","新北市新店區安華路1-1號","121.519135","24.96048","6500600","新店區"
"231065","512-UM","2018/09/21 18:49:08","新北市新店區安一路一段1-1號","121.51939","24.96135","6500600","新店區"
"231049","513-UM","2018/09/21 18:49:24","新北市新店區中正路454-5號","121.534455","24.97902","6500600","新店區"
"231063","616-UM","2018/09/21 18:49:25","新北市新店區安華路1-1號","121.51944","24.9604333333333","6500600","新店區"
"231045","617-UM","2018/09/21 18:49:20","新北市新店區安康路一段85號","121.529423333333","24.9614","6500600","新店區"
"231061","619-UM","2018/09/21 18:49:11","新北市新店區安華路28-1號","121.519473333333","24.9608083333333","6500600","新店區"
"231064","719-UM","2018/09/21 18:49:12","新北市新店區安一路一段1-1號","121.519595","24.9611333333333","6500600","新店區"
"231062","720-UM","2018/09/21 18:49:24","新北市新店區安一路一段1-1號","121.519331666667","24.9612116666667","6500600","新店區"
"231060","897-TW","2018/09/21 18:49:15","新北市新店區安華路28-1號","121.519686666667","24.9607433333333","6500600","新店區"
"231043","899-TW","2018/09/21 18:49:15","新北市新店區安康路一段244-1號","121.521343333333","24.963895","6500600","新店區"
"231055","AKT-0513","2018/09/21 18:49:24","新北市新店區北新路一段271巷8號","121.540543333333","24.9668466666667","6500600","新店區"
"241035","KEA-2210","2018/09/21 18:49:30","新北市三重區重新路四段121號","121.48454","25.052235","6500200","三重區"
"241004","475-VK","2018/09/21 18:49:07","新北市三重區仁義街91號","121.49973","25.0795366666667","6500200","三重區"
"235066","003-UY","2018/09/21 18:49:29","新北市中和區水源路18巷3號","121.504061666667","25.00323","6500300","中和區"
"235064","005-UY","2018/09/21 18:49:12","新北市中和區連城路110號","121.496418333333","24.999855","6500300","中和區"
"235063","006-UY","2018/09/21 18:49:11","新北市中和區建一路198號","121.48763","24.99632","6500300","中和區"
"235056","096-UM","2018/09/21 18:49:23","新北市中和區員山路611巷5弄3號","121.478006666667","25.0109866666667","6500300","中和區"
"235039","097-UM","2018/09/21 18:49:24","新北市中和區宜安路52巷3號","121.51214","24.9969033333333","6500300","中和區"
"235065","098-UM","2018/09/21 18:49:16","新北市中和區莊敬路33巷38弄4號","121.500845","25.0069183333333","6500300","中和區"
"235040","150-BY","2018/09/21 18:49:26","新北市中和區保健路106巷7號","121.51253","24.9958133333333","6500300","中和區"
"235058","151-BY","2018/09/21 18:49:13","新北市中和區連城路534巷2號","121.475435","24.9914516666667","6500300","中和區"
"235055","183-VK","2018/09/21 18:49:14","新北市中和區民生街71號","121.469291666667","25.0049533333333","6500300","中和區"
"235038","185-VK","2018/09/21 18:49:22","新北市中和區大勇街31巷13弄13號","121.51746","24.994065","6500300","中和區"
"235049","186-VK","2018/09/21 18:49:20","新北市中和區明義街11巷12弄2號","121.503708333333","24.9946816666667","6500300","中和區"
"235067","255-BX","2018/09/21 18:49:23","新北市中和區中山路二段449巷1弄11號","121.483901666667","25.0039316666667","6500300","中和區"
"235044","293-VK","2018/09/21 18:49:14","新北市中和區中興街123號","121.49994","24.9918116666667","6500300","中和區"
"235072","301-VK","2018/09/21 18:49:19","新北市中和區中山路二段93號","121.50342","25.00414","6500300","中和區"
"235043","352-BY","2018/09/21 18:49:21","新北市中和區成功路133號","121.526098333333","24.9906","6500300","中和區"
"235042","KEA-2878","2018/09/21 18:49:11","新北市中和區秀朗路三段70巷50號","121.525068333333","24.9943133333333","6500300","中和區"
"247012","KEA-2869","2018/09/21 18:48:56","新北市八里區荖阡坑路34號","121.402523333333","25.12839","6501400","蘆洲區"
"235050","4979-A6","2018/09/21 18:49:25","新北市中和區忠孝街62巷9弄1號","121.513115","24.9839533333333","6500300","中和區"
"235069","4980-A6","2018/09/21 18:49:24","新北市中和區泰和街38號","121.499293333333","25.0000466666667","6500300","中和區"
"235070","558-UM","2018/09/21 18:49:19","新北市中和區南山路6號","121.502001666667","24.9986283333333","6500300","中和區"
"235045","565-BX","2018/09/21 18:49:21","新北市中和區捷運路129號","121.507101666667","24.9907616666667","6500300","中和區"
"235054","640-BX","2018/09/21 18:49:18","新北市中和區民享街66號","121.474121666667","25.002095","6500300","中和區"
"235047","732-UM","2018/09/21 18:49:29","新北市中和區興南路二段34巷28弄2號","121.505008333333","24.986485","6500300","中和區"
"235046","733-UM","2018/09/21 18:49:17","新北市中和區仁愛街36巷30號","121.511038333333","24.9868483333333","6500300","中和區"
"235057","801-TS","2018/09/21 18:49:22","新北市中和區民安街34號","121.480205","25.0004916666667","6500300","中和區"
"235041","802-TS","2018/09/21 18:49:25","新北市中和區中安街198號","121.511595","24.9991483333333","6500300","中和區"
"235052","805-TS","2018/09/21 18:49:22","新北市中和區興南路二段399巷98弄40號","121.499338333333","24.9770116666667","6500300","中和區"
"235048","896-TW","2018/09/21 18:49:24","新北市中和區南山路304號","121.507821666667","24.987","6500300","中和區"
"235053","900-TW","2018/09/21 18:49:25","新北市中和區民德路290巷19號","121.466466666667","24.9959833333333","6500300","中和區"
"235060","911-UM","2018/09/21 18:49:09","新北市中和區中山路三段163號","121.47332","25.006265","6500300","中和區"
"235051","157-BY","2018/09/21 18:49:22","新北市中和區忠孝街106巷52-1號","121.5137","24.9842266666667","6500300","中和區"
"235037","AAC-213","2018/09/21 18:49:10","新北市中和區秀朗路三段128巷9弄1號","121.524495","24.9932333333333","6500300","中和區"
"235059","AAC-215","2018/09/21 18:49:16","新北市中和區圓通路393巷18號","121.489835","24.988575","6500300","中和區"
"220065","072-UY","2018/09/21 18:49:11","新北市板橋區民族路247巷5弄42號","121.470155","25.00849","6500100","板橋區"
"220086","073-UY","2018/09/21 18:49:27","新北市板橋區大智街40-2號","121.454941666667","25.015155","6500100","板橋區"
"220106","075-UY","2018/09/21 18:49:24","新北市板橋區民生路二段120號","121.470406666667","25.0196933333333","6500100","板橋區"
"226004","205-ST","2018/09/21 18:49:20","新北市平溪區平溪里三坑路50號","121.73377","25.0305383333333","6502400","平溪區"
"235062","251-BX","2018/09/21 18:49:28","新北市中和區中山路二段312巷33弄17號","121.494836666667","25.0038366666667","6500300","中和區"
"228002","663-BX","2018/09/21 18:49:19","新北市貢寮區福隆里東興街6-11號","121.95075","25.0210283333333","6502600","貢寮區"
"228001","670-TC","2018/09/21 18:49:27","新北市貢寮區仁理村保健街73號","121.923706666667","25.0516933333333","6502600","貢寮區"
"228003","828-UM","2018/09/21 18:49:07","新北市貢寮區和美里龍洞街63-7號","121.91746","25.1184933333333","6502600","貢寮區"
"224010","AGQ-8101","2018/09/21 18:48:00","新北市瑞芳區烏勢巷148號","121.846921666667","25.1078083333333","6501200","瑞芳區"
"224006","676-BX","2018/09/21 18:49:28","新北市瑞芳區中正路38號","121.807083333333","25.1072933333333","6501200","瑞芳區"
"224002","639-TC","2018/09/21 18:49:14","新北市瑞芳區靜安路四段28號","121.797645","25.0912316666667","6501200","瑞芳區"
"224008","285-BY","2018/09/21 18:49:25","新北市瑞芳區逢甲路402號","121.797601666667","25.1134766666667","6501200","瑞芳區"
"224007","275-VK","2018/09/21 18:49:13","新北市瑞芳區大埔路東泰新村1號","121.761278333333","25.1011233333333","6501200","瑞芳區"
"224009","273-VK","2018/09/21 18:49:23","新北市瑞芳區山尖路54號","121.856468333333","25.1152716666667","6501200","瑞芳區"
"224005","271-BY","2018/09/21 18:49:12","新北市瑞芳區海濱路136-1號","121.830341666667","25.1222733333333","6501200","瑞芳區"
"227011","642-TC","2018/09/21 18:49:11","新北市雙溪區牡丹里聖南48號","121.854051666667","25.055645","6502500","雙溪區"
"227003","400-TW","2018/09/21 18:49:13","新北市雙溪區平林里梅竹蹊28號","121.861636666667","25.0360266666667","6502500","雙溪區"
"253006","032-BX","2018/09/21 18:49:20","新北市石門區下員坑16號","121.510795","25.2835116666667","6502200","石門區"
"253005","295-VK","2018/09/21 18:49:21","新北市石門區中山路23-1號","121.566193333333","25.290255","6502200","石門區"
"222001","KEA-2212","2018/09/21 18:49:17","新北市深坑區松柏街30巷2號","121.638725","25.0110983333333","6501800","深坑區"
"208002","KEA-2872","2018/09/21 18:49:12","新北市金山區信義路62號","121.635708333333","25.2189316666667","6502700","金山區"
"208003","665-BX","2018/09/21 18:49:26","新北市金山區中山路393號","121.633425","25.2252533333333","6502700","金山區"
"208001","761-BX","2018/09/21 18:49:23","新北市金山區文化三路66巷1號","121.634181666667","25.2256666666667","6502700","金山區"
"251009","008-UM","2018/09/21 18:49:21","新北市淡水區重建街199號","121.441125","25.1746316666667","6501000","淡水區"
"251001","011-UM","2018/09/21 18:49:20","新北市淡水區自強路80巷1號","121.462891666667","25.1281966666667","6501000","淡水區"
"251008","181-VK","2018/09/21 18:49:21","新北市淡水區下圭柔山91-4號","121.429031666667","25.2083066666667","6501000","淡水區"
"251010","413-VK","2018/09/21 18:49:18","新北市淡水區沙崙路13號","121.421208333333","25.1812466666667","6501000","淡水區"
"251012","441-VK","2018/09/21 18:49:26","新北市淡水區中山北路一段210號","121.44463","25.1797733333333","6501000","淡水區"
"251004","443-VK","2018/09/21 18:49:19","新北市淡水區中正東路二段143巷2弄1號","121.460528333333","25.1473283333333","6501000","淡水區"
"251007","577-R6","2018/09/21 18:49:10","新北市淡水區大同路113巷6號","121.46345","25.1416183333333","6501000","淡水區"
"251011","650-BX","2018/09/21 18:49:13","新北市淡水區學府路9號","121.447453333333","25.1680833333333","6501000","淡水區"
"251002","672-BX","2018/09/21 18:49:24","新北市淡水區學府路71號","121.448411666667","25.169795","6501000","淡水區"
"251003","766-UM","2018/09/21 18:49:19","新北市淡水區中山北路一段186巷27弄1-1號","121.446205","25.17887","6501000","淡水區"
"207003","550-UM","2018/09/21 18:49:24","新北市萬里區大鵬里頂社1號","121.657031666667","25.2097183333333","6502800","萬里區"
"207004","225-TW","2018/09/21 18:49:28","新北市萬里區萬里里獅頭路23號","121.693251666667","25.1782933333333","6502800","萬里區"
"252003","249-BX","2018/09/21 18:49:09","新北市三芝區後厝里大片頭83-7號","121.45864","25.2431583333333","6502100","三芝區"
"252001","292-VK","2018/09/21 18:49:27","新北市三芝區中正路三段9號","121.50293","25.2539183333333","6502100","三芝區"
"252002","AAC-283","2018/09/21 18:49:30","新北市三芝區中正路一段112號","121.504841666667","25.25638","6502100","三芝區"
"237004","KEA-2597","2018/09/21 18:49:18","新北市三峽區有木205-1號","121.439021666667","24.85149","6500900","三峽區"
"237007","153-BY","2018/09/21 18:49:22","新北市三峽區中正路二段395巷9號","121.36528","24.9076883333333","6500900","三峽區"
"237013","252-BX","2018/09/21 18:49:21","新北市三峽區光明路69巷25號","121.376543333333","24.9292066666667","6500900","三峽區"
"237012","275-BY","2018/09/21 18:49:30","新北市三峽區三樹路362號","121.383823333333","24.9434883333333","6500900","三峽區"
"237008","302-VK","2018/09/21 18:49:21","新北市三峽區白雞33-60號","121.370891666667","24.91313","6500900","三峽區"
"237006","5529-G3","2018/09/21 18:49:17","新北市三峽區溪東路211巷17號","121.405321666667","24.9338066666667","6500900","三峽區"
"237011","KEA-2596","2018/09/21 18:49:16","新北市三峽區介壽路三段198號","121.4031","24.9444333333333","6500900","三峽區"
"237015","649-BX","2018/09/21 18:49:23","新北市三峽區建安112-1號","121.458841666667","24.9219183333333","6500900","三峽區"
"237010","706-TV","2018/09/21 18:49:17","新北市三峽區復興路174巷4號","121.37075","24.93891","6500900","三峽區"
"237005","AKY-6261","2018/09/21 18:49:16","新北市三峽區新興街10號","121.372606666667","24.9357833333333","6500900","三峽區"
"236069","105-UM","2018/09/21 18:49:07","新北市土城區永豐路137號","121.466961666667","24.9832516666667","6501300","土城區"
"236042","107-UM","2018/09/21 18:49:28","新北市土城區裕民路138號","121.451571666667","24.986105","6501300","土城區"
"236079","166-UM","2018/09/21 18:49:11","新北市土城區中央路四段67巷34號","121.417815","24.9571716666667","6501300","土城區"
"236030","253-BX","2018/09/21 18:49:09","新北市土城區忠義路26巷10號","121.439893333333","24.9699083333333","6501300","土城區"
"236026","269-VK","2018/09/21 18:49:19","新北市土城區興城路60號","121.441221666667","24.972405","6501300","土城區"
"236014","270-VK","2018/09/21 18:49:13","新北市土城區清水路278巷26號","121.462728333333","24.9826766666667","6501300","土城區"
"236039","271-VK","2018/09/21 18:49:25","新北市土城區仁愛路38號","121.461753333333","24.979365","6501300","土城區"
"236020","401-BY","2018/09/21 18:49:18","新北市土城區延安街13號","121.467455","24.98576","6501300","土城區"
"236059","752-BX","2018/09/21 18:49:23","新北市土城區城林路6巷80號","121.438748333333","24.9798983333333","6501300","土城區"
"236059","912-UM","2018/09/21 18:49:25","新北市土城區金城路二段12號","121.449221666667","24.9772183333333","6501300","土城區"
"236048","913-UM","2018/09/21 18:49:22","新北市土城區青雲路8號","121.460231666667","24.9891983333333","6501300","土城區"
"236063","915-UM","2018/09/21 18:49:11","新北市土城區延和路260號","121.470073333333","24.9893683333333","6501300","土城區"
"236055","AAC-216","2018/09/21 18:49:30","新北市土城區學府路一段169號","121.45272","24.9854466666667","6501300","土城區"
"242058","986-R7","2018/09/21 18:49:21","新北市新莊區中正路879-7號","121.417755","25.0261366666667","6500500","新莊區"
"242025","613-BX","2018/09/21 18:49:24","新北市新莊區立信一街39號","121.44193","25.049355","6500500","新莊區"
"242054","442-UM","2018/09/21 18:49:27","新北市樹林區環河路250-1號","121.423183333333","24.9753566666667","6500500","新莊區"
"242005","349-TH","2018/09/21 18:48:43","新北市新莊區三和路12-18號","121.441911666667","25.0375833333333","6500500","新莊區"
"238023","601-UM","2018/09/21 18:49:19","新北市樹林區工興街14巷2號","121.398913333333","25.0135666666667","6500700","樹林區"
"238019","599-UM","2018/09/21 18:49:13","新北市樹林區東陽街3號","121.41276","24.9822316666667","6500700","樹林區"
"238024","5061-A6","2018/09/21 18:49:14","新北市樹林區八德街232號","121.413156666667","24.97073","6500700","樹林區"
"238022","KEA-2213","2018/09/21 18:49:19","新北市樹林區東大街1號","121.413948333333","24.976665","6500700","樹林區"
"238025","303-VK","2018/09/21 18:49:29","新北市樹林區中山路三段22號","121.395596666667","24.9729133333333","6500700","樹林區"
"238017","283-BY","2018/09/21 18:49:10","新北市樹林區光興街44號","121.409895","25.0026783333333","6500700","樹林區"
"238014","282-BY","2018/09/21 18:49:28","新北市樹林區大安路111巷8號","121.423163333333","24.9974633333333","6500700","樹林區"
"238020","268-VK","2018/09/21 18:49:11","新北市樹林區俊興街277號","121.418425","25.0181683333333","6500700","樹林區"
"238026","172-UY","2018/09/21 18:49:29","新北市樹林區育德街121巷7號","121.389418333333","24.968235","6500700","樹林區"
"238016","169-UY","2018/09/21 18:49:27","新北市樹林區文化街23號","121.419263333333","24.9876183333333","6500700","樹林區"
"239007","AAC-297","2018/09/21 18:49:12","新北市鶯歌區成功街20巷11號","121.358876666667","24.9577083333333","6500800","鶯歌區"
"239006","891-R6","2018/09/21 18:49:12","新北市鶯歌區鶯桃路296巷108號","121.337215","24.9622183333333","6500800","鶯歌區"
"239008","527-UM","2018/09/21 18:49:28","新北市鶯歌區晨曦街11號","121.337508333333","24.976455","6500800","鶯歌區"
"239005","526-UM","2018/09/21 18:49:13","新北市鶯歌區大湖路361巷62號","121.33106","24.9773166666667","6500800","鶯歌區"
"239001","417-VK","2018/09/21 18:49:13","新北市鶯歌區光明街232號","121.341368333333","24.9559466666667","6500800","鶯歌區"
"239003","360-BY","2018/09/21 18:49:28","新北市鶯歌區鶯桃路658巷135號","121.333051666667","24.9713933333333","6500800","鶯歌區"
"239002","359-BY","2018/09/21 18:49:14","新北市鶯歌區中山路129號","121.349508333333","24.9571183333333","6500800","鶯歌區"
"239004","193-VK","2018/09/21 18:49:17","新北市鶯歌區中正三路335巷37號","121.32996","24.9342666666667","6500800","鶯歌區"
"221008","489-VK","2018/09/21 18:49:24","新北市汐止區康寧街901號","121.651398333333","25.0749983333333","6501100","汐止區"
"221036","130-UY","2018/09/21 18:49:14","新北市汐止區忠孝東路314巷3號","121.664605","25.06882","6501100","汐止區"
"221015","131-UY","2018/09/21 18:49:13","新北市汐止區鄉長路一段55巷6號","121.665391666667","25.07614","6501100","汐止區"
"221010","269-BY","2018/09/21 18:49:22","新北市汐止區康寧街901號","121.651551666667","25.0749783333333","6501100","汐止區"
"221012","278-VK","2018/09/21 18:49:21","新北市汐止區汐萬路一段256巷3號","121.652951666667","25.0744016666667","6501100","汐止區"
"221023","279-VK","2018/09/21 18:49:18","新北市汐止區汐萬路一段256巷3號","121.652085","25.0747216666667","6501100","汐止區"
"221032","280-BY","2018/09/21 18:49:18","新北市汐止區橫科路121巷11弄5號","121.621676666667","25.0506083333333","6501100","汐止區"
"221027","281-BY","2018/09/21 18:49:19","新北市汐止區康寧街901號","121.6514","25.07496","6501100","汐止區"
"221029","298-VK","2018/09/21 18:48:51","新北市汐止區樟樹一路2巷59號","121.641605","25.06298","6501100","汐止區"
"221021","299-VK","2018/09/21 18:49:26","新北市汐止區南興路9號","121.652128333333","25.0622933333333","6501100","汐止區"
"221031","353-TW","2018/09/21 18:49:09","新北市汐止區福德一路296號","121.631588333333","25.0632666666667","6501100","汐止區"
"221035","622-UM","2018/09/21 18:49:26","新北市汐止區大同路二段276號","121.654786666667","25.06622","6501100","汐止區"
"221025","623-UM","2018/09/21 18:49:19","新北市汐止區秀峰路68號","121.659828333333","25.0644816666667","6501100","汐止區"
"221038","646-BX","2018/09/21 18:49:11","新北市汐止區汐萬路一段256巷1號","121.651776666667","25.07482","6501100","汐止區"
"221002","707-TV","2018/09/21 18:49:27","新北市汐止區大同路一段106號","121.630098333333","25.0544483333333","6501100","汐止區"
"221018","753-BX","2018/09/21 18:49:25","新北市汐止區大同路二段373號","121.657293333333","25.0672966666667","6501100","汐止區"
"220079","145-BY","2018/09/21 18:49:23","新北市板橋區民權路202巷6弄1號","121.45996","25.0144766666667","6500100","板橋區"
"220082","610-BX","2018/09/21 18:49:22","新北市板橋區篤行路三段玉平巷45號","121.428613333333","24.9868466666667","6500100","板橋區"
"220101","245-BX","2018/09/21 18:49:11","新北市板橋區民生路二段161巷3號","121.47026","25.0198333333333","6500100","板橋區"
"220056","276-BY","2018/09/21 18:49:21","新北市土城區四川路16號","121.455466666667","24.9960333333333","6500100","板橋區"
"220072","277-BY","2018/09/21 18:49:19","新北市板橋區金門街21號","121.433551666667","24.9947133333333","6500100","板橋區"
"220094","280-UM","2018/09/21 18:49:18","新北市板橋區民生路二段161巷7號","121.470073333333","25.0196116666667","6500100","板橋區"
"220071","283-VK","2018/09/21 18:49:21","新北市板橋區忠孝路196巷26號","121.465425","25.0016133333333","6500100","板橋區"
"220053","285-VK","2018/09/21 18:49:24","新北市板橋區永豐街55巷12弄18號","121.472655","25.018455","6500100","板橋區"
"220083","286-VK","2018/09/21 18:49:22","新北市板橋區僑中二街116巷2號","121.445721666667","25.0064166666667","6500100","板橋區"
"220081","287-VK","2018/09/21 18:49:30","新北市板橋區光華街13巷52號","121.452716666667","25.0112216666667","6500100","板橋區"
"220061","293-UM","2018/09/21 18:49:24","新北市板橋區民生路二段56-6號","121.470751666667","25.018695","6500100","板橋區"
"220067","299-UM","2018/09/21 18:49:20","新北市板橋區民生路二段56-6號","121.470693333333","25.0187833333333","6500100","板橋區"
"220075","303-R5","2018/09/21 18:49:19","新北市板橋區館前西路257號","121.4542","25.0086916666667","6500100","板橋區"
"220080","461-BY","2018/09/21 18:49:24","新北市板橋區大觀路二段265巷60弄3號","121.442556666667","24.998025","6500100","板橋區"
"220064","486-VK","2018/09/21 18:49:29","新北市板橋區民生路二段7號","121.472743333333","25.01584","6500100","板橋區"
"220035","560-BX","2018/09/21 18:49:17","新北市板橋區中正路325巷30-2號","121.45299","25.0186483333333","6500100","板橋區"
"220103","561-BX","2018/09/21 18:49:20","新北市板橋區介壽街113號","121.47038","25.0186616666667","6500100","板橋區"
"220084","568-UM","2018/09/21 18:49:25","新北市板橋區大觀路二段150巷72號","121.441481666667","25.0011016666667","6500100","板橋區"
"220063","609-BX","2018/09/21 18:49:27","新北市板橋區中山路二段37號","121.47312","25.0157683333333","6500100","板橋區"
"220091","637-BX","2018/09/21 18:49:14","新北市板橋區民生路二段120號","121.470295","25.019795","6500100","板橋區"
"220057","686-BX","2018/09/21 18:49:12","新北市板橋區館前西路47號","121.457876666667","25.006845","6500100","板橋區"
"220077","687-BX","2018/09/21 18:49:20","新北市板橋區龍興街103巷1號","121.4445","25.0033433333333","6500100","板橋區"
"220054","741-BX","2018/09/21 18:49:24","新北市板橋區後埔街14號","121.460316666667","25.0066816666667","6500100","板橋區"
"220102","KEA-2699","2018/09/21 18:49:18","新北市板橋區民生路二段120號","121.470443333333","25.019525","6500100","板橋區"
"220055","827-TW","2018/09/21 18:49:30","新北市板橋區縣民大道一段314號","121.461076666667","25.0101466666667","6500100","板橋區"
"220074","895-R6","2018/09/21 18:49:23","新北市板橋區南門街20號","121.457265","25.0087816666667","6500100","板橋區"
"220073","985-R7","2018/09/21 18:49:21","新北市板橋區林園街46號","121.453966666667","25.0105433333333","6500100","板橋區"
"220070","AAC-253","2018/09/21 18:49:25","新北市板橋區四川路一段30號","121.45952","25.00623","6500100","板橋區"
"235068","KEA-2873","2018/09/21 18:49:12","新北市中和區中正路211巷8號","121.496985","24.99323","6500300","中和區"
"235061","KEA-2875","2018/09/21 18:49:17","新北市中和區民享街47號","121.474211666667","25.0028","6500300","中和區"
