"lineid","car","time","location","longitude","latitude","cityid","cityname"
"234046","148-BY","2018/09/21 19:09:31","新北市永和區永元路18巷40弄2號","121.524198333333","25.0003266666667","6500400","永和區"
"234007","207-UY","2018/09/21 19:09:20","新北市永和區永貞路420-1號","121.508823333333","25.008275","6500400","永和區"
"234081","298-R6","2018/09/21 19:09:13","新北市永和區福和路57巷14弄1號","121.52267","25.0069533333333","6500400","永和區"
"234038","336-UY","2018/09/21 19:09:12","新北市永和區民樂街92巷2號","121.527326666667","24.9972933333333","6500400","永和區"
"234064","337-UY","2018/09/21 19:09:14","新北市永和區秀朗路二段17號","121.521003333333","25.00263","6500400","永和區"
"234086","338-UY","2018/09/21 19:09:26","新北市永和區永貞路118號","121.518751666667","25.0045333333333","6500400","永和區"
"234070","552-UM","2018/09/21 19:09:11","新北市永和區豫溪街95巷4弄1號","121.51828","25.010565","6500400","永和區"
"234017","745-BX","2018/09/21 19:09:16","新北市永和區文化路90巷17號","121.513713333333","25.01619","6500400","永和區"
"234030","746-BX","2018/09/21 19:09:28","新北市永和區民生路23號","121.522836666667","24.998745","6500400","永和區"
"234054","KEA-2590","2018/09/21 19:09:19","新北市永和區竹林路72巷4號","121.518886666667","25.0128183333333","6500400","永和區"
"234013","KEA-2591","2018/09/21 19:09:27","新北市永和區保福路二段20號","121.510921666667","25.011505","6500400","永和區"
"234061","AAD-866","2018/09/21 19:09:26","新北市永和區安樂路336號","121.514423333333","25.0060316666667","6500400","永和區"
"234042","862-TW","2018/09/21 19:09:18","新北市永和區永貞路334號","121.511213333333","25.0055433333333","6500400","永和區"
"234050","863-TW","2018/09/21 19:09:27","新北市永和區仁愛路104巷7弄23號","121.511016666667","25.0141316666667","6500400","永和區"
"234026","9371-KE","2018/09/21 19:09:28","新北市永和區安樂路270號","121.51456","25.0041283333333","6500400","永和區"
"234011","9373-KE","2018/09/21 19:09:23","新北市永和區信義路25巷53號","121.512313333333","25.0115716666667","6500400","永和區"
"249005","172-UM","2018/09/21 19:09:16","新北市八里區中華路三段99巷2號","121.393793333333","25.138395","6502300","八里區"
"249001","173-UM","2018/09/21 19:09:12","新北市八里區龍米路二段236號","121.431251666667","25.1586316666667","6502300","八里區"
"248016","026-BX","2018/09/21 19:09:13","新北市五股區凌雲路一段116巷6號","121.450391666667","25.102235","6501500","五股區"
"248006","077-UY","2018/09/21 19:09:10","新北市五股區四維路112號","121.467708333333","25.07392","6501500","五股區"
"248008","095-VK","2018/09/21 19:09:25","新北市五股區中興路一段118巷17號","121.465971666667","25.0742916666667","6501500","五股區"
"248018","225-UY","2018/09/21 19:09:25","新北市五股區民義路一段287巷3號","121.425116666667","25.09209","6501500","五股區"
"248012","247-BX","2018/09/21 19:09:22","新北市五股區中興路四段48巷16號","121.438635","25.0834016666667","6501500","五股區"
"248010","272-BY","2018/09/21 19:09:14","新北市五股區水碓一路23號","121.430616666667","25.07129","6501500","五股區"
"248004","677-BX","2018/09/21 19:09:21","新北市五股區工商路191號","121.433738333333","25.0870333333333","6501500","五股區"
"248002","678-BX","2018/09/21 19:09:21","新北市五股區天乙路1號","121.448598333333","25.1028033333333","6501500","五股區"
"234023","9380-KE","2018/09/21 19:09:08","新北市永和區勵行街72巷21號","121.516365","25.0125466666667","6500400","永和區"
"234077","969-R7","2018/09/21 19:09:27","新北市永和區民權路32號","121.520256666667","24.9989916666667","6500400","永和區"
"234074","AAC-211","2018/09/21 19:09:20","新北市永和區竹林路206號","121.52067","25.00835","6500400","永和區"
"234067","AAC-212","2018/09/21 19:09:23","新北市永和區保平路21號","121.512688333333","25.00748","6500400","永和區"
"234003","AAC-295","2018/09/21 19:09:21","新北市永和區保福路一段57號","121.51267","25.00947","6500400","永和區"
"244023","069-UM","2018/09/21 19:09:11","新北市林口區仁愛路二段698號","121.36939","25.0806383333333","6501700","林口區"
"244019","403-UM","2018/09/21 19:09:16","新北市林口區仁愛路二段235號","121.375595","25.0761116666667","6501700","林口區"
"244013","KEA-2802","2018/09/21 19:09:19","新北市林口區麗園一街4巷1號","121.376115","25.0709383333333","6501700","林口區"
"244017","485-VK","2018/09/21 19:09:22","新北市林口區文化二路一段120巷5號","121.367926666667","25.0700166666667","6501700","林口區"
"244009","656-BX","2018/09/21 19:09:26","新北市林口區竹林路77號","121.388326666667","25.0791483333333","6501700","林口區"
"244011","657-BX","2018/09/21 19:09:16","新北市林口區中正路349號","121.387876666667","25.077695","6501700","林口區"
"244025","837-TS","2018/09/21 19:09:24","新北市林口區民族路82巷28號","121.366713333333","25.0747383333333","6501700","林口區"
"243013","AAD-798","2018/09/21 19:09:28","新北市泰山區明志路三段277號","121.423126666667","25.0368133333333","6501600","泰山區"
"243009","297-R6","2018/09/21 19:09:10","新北市泰山區明志路一段117巷3號","121.433801666667","25.0634366666667","6501600","泰山區"
"243016","KEA-2801","2018/09/21 19:09:24","新北市泰山區明志路二段325號","121.42578","25.0450783333333","6501600","泰山區"
"243015","421-VK","2018/09/21 19:09:23","新北市泰山區明志路一段431號","121.430681666667","25.0564533333333","6501600","泰山區"
"243011","KEA-2215","2018/09/21 19:09:17","新北市泰山區明志路二段318號","121.426241666667","25.045995","6501600","泰山區"
"243010","KEA-2216","2018/09/21 19:09:03","新北市泰山區仁愛路39巷23號","121.431093333333","25.055285","6501600","泰山區"
"243012","646-TV","2018/09/21 19:09:15","新北市泰山區辭修路36巷8弄5號","121.42787","25.058575","6501600","泰山區"
"243014","680-BX","2018/09/21 19:09:19","新北市泰山區泰林路二段466號","121.425416666667","25.0641966666667","6501600","泰山區"
"222003","436-BY","2018/09/21 19:09:26","新北市深坑區深南路162號","121.626088333333","25.0149616666667","6501800","深坑區"
"222002","659-BX","2018/09/21 19:09:23","新北市深坑區紅葉街61號","121.632295","25.0138683333333","6501800","深坑區"
"231041","002-UM","2018/09/21 19:09:11","新北市新店區溪園路403號","121.524021666667","24.97809","6500600","新店區"
"231059","046-UY","2018/09/21 19:09:14","新北市新店區安康路一段351-1號","121.519378333333","24.96405","6500600","新店區"
"231040","047-UY","2018/09/21 19:09:22","新北市新店區三民路100號","121.53392","24.9737733333333","6500600","新店區"
"231044","106-UY","2018/09/21 19:09:25","新北市新店區中興路三段180號","121.544168333333","24.9812283333333","6500600","新店區"
"231046","107-UY","2018/09/21 19:09:11","新北市新店區新潭路一段26號","121.523158333333","24.94268","6500600","新店區"
"231053","108-UY","2018/09/21 19:09:26","新北市新店區屈尺路91號","121.545568333333","24.92304","6500600","新店區"
"231048","187-VK","2018/09/21 19:09:21","新北市新店區德正街27巷29弄76號","121.545771666667","24.9733466666667","6500600","新店區"
"231054","KEA-2219","2018/09/21 19:09:12","新北市新店區新店路137號","121.53703","24.9546083333333","6500600","新店區"
"231042","268-BY","2018/09/21 19:09:13","新北市新店區中興路一段203號","121.543696666667","24.96568","6500600","新店區"
"231051","278-BY","2018/09/21 19:09:16","新北市新店區中正路382巷9號","121.53525","24.977685","6500600","新店區"
"231050","AAD-862","2018/09/21 19:09:25","新北市新店區竹林路30巷21號","121.552","24.9501166666667","6500600","新店區"
"231058","3713-VJ","2018/09/21 19:09:12","新北市新店區光明街286巷21號","121.541205","24.96336","6500600","新店區"
"231066","4716-K9","2018/09/21 19:09:16","新北市新店區安豐路21號","121.501043333333","24.9567616666667","6500600","新店區"
"231056","4715-K9","2018/09/21 19:09:15","新北市新店區民權路131號","121.535145","24.9826316666667","6500600","新店區"
"231067","4772-VM","2018/09/21 19:09:28","新北市新店區安康路一段76巷28號","121.527996666667","24.9632633333333","6500600","新店區"
"231065","512-UM","2018/09/21 19:09:27","新北市新店區安祥路147巷50號","121.476461666667","24.956595","6500600","新店區"
"231049","513-UM","2018/09/21 19:09:24","新北市新店區二十張路25巷18弄9號","121.53927","24.9816933333333","6500600","新店區"
"231063","616-UM","2018/09/21 19:09:25","新北市新店區車子路134號","121.505248333333","24.9499716666667","6500600","新店區"
"231045","617-UM","2018/09/21 19:09:20","新北市新店區北宜路一段121-2號","121.54053","24.9538416666667","6500600","新店區"
"231061","619-UM","2018/09/21 19:09:23","新北市新店區安康路一段355-10號","121.5204","24.9638583333333","6500600","新店區"
"231064","719-UM","2018/09/21 19:09:17","新北市新店區安忠路90-6號","121.511371666667","24.9577383333333","6500600","新店區"
"231062","720-UM","2018/09/21 19:09:24","新北市新店區安平路53號","121.519721666667","24.96838","6500600","新店區"
"231060","897-TW","2018/09/21 19:09:26","新北市新店區安康路二段348號","121.502608333333","24.9575533333333","6500600","新店區"
"231043","899-TW","2018/09/21 19:09:15","新北市新店區寶橋路88號","121.546635","24.9758033333333","6500600","新店區"
"231055","AKT-0513","2018/09/21 19:09:24","新北市新店區安民街65巷15-2號","121.515456666667","24.9667766666667","6500600","新店區"
"241015","062-VK","2018/09/21 19:06:43","新北市三重區三和路一段9號","121.503986666667","25.0645666666667","6500200","三重區"
"241026","066-VK","2018/09/21 19:09:08","新北市三重區泉州街70巷1弄9號","121.495023333333","25.0547666666667","6500200","三重區"
"241035","KEA-2210","2018/09/21 19:09:29","新北市三重區信義西街138號","121.495448333333","25.06436","6500200","三重區"
"241029","942-UM","2018/09/21 19:09:23","新北市三重區集美街222號","121.491996666667","25.055285","6500200","三重區"
"235066","003-UY","2018/09/21 19:09:10","新北市中和區廣福路32號","121.504613333333","25.00235","6500300","中和區"
"235064","005-UY","2018/09/21 19:09:12","新北市中和區泰和街30巷27號","121.498833333333","25.00135","6500300","中和區"
"235063","006-UY","2018/09/21 19:09:31","新北市中和區中正路582號","121.486098333333","24.9948866666667","6500300","中和區"
"235056","096-UM","2018/09/21 19:09:23","新北市板橋區三民路二段228號","121.47888","25.0114466666667","6500300","中和區"
"235039","097-UM","2018/09/21 19:09:18","新北市中和區景平路64巷14弄1號","121.5226","24.9912733333333","6500300","中和區"
"235065","098-UM","2018/09/21 19:09:16","新北市中和區中山路二段136巷8號","121.501873333333","25.00374","6500300","中和區"
"235040","150-BY","2018/09/21 19:09:26","新北市中和區保健路48巷2號","121.509965","24.9969266666667","6500300","中和區"
"235058","151-BY","2018/09/21 19:09:13","新北市中和區連城路523巷13弄17號","121.482055","24.99386","6500300","中和區"
"235055","183-VK","2018/09/21 19:09:21","新北市中和區德光路59號","121.469865","25.00391","6500300","中和區"
"235038","185-VK","2018/09/21 19:09:02","新北市中和區大仁街20巷34號","121.519271666667","24.9931283333333","6500300","中和區"
"235049","186-VK","2018/09/21 19:09:20","新北市中和區明禮街13號","121.504968333333","24.9958466666667","6500300","中和區"
"235067","255-BX","2018/09/21 19:09:23","新北市中和區新生街176巷22號","121.482656666667","24.9999083333333","6500300","中和區"
"235044","293-VK","2018/09/21 19:09:14","新北市中和區復興路331號","121.500656666667","24.9902416666667","6500300","中和區"
"235072","301-VK","2018/09/21 19:09:19","新北市中和區福美路269號","121.498108333333","25.0049716666667","6500300","中和區"
"235043","352-BY","2018/09/21 19:09:21","新北市中和區景平路59-17號","121.520951666667","24.991005","6500300","中和區"
"235042","KEA-2878","2018/09/21 19:09:11","新北市中和區自強路13巷3號","121.520673333333","24.9935683333333","6500300","中和區"
"235050","4979-A6","2018/09/21 19:09:25","新北市中和區復興路249巷11弄3號","121.503576666667","24.9897016666667","6500300","中和區"
"235069","4980-A6","2018/09/21 19:09:24","新北市中和區中和路217巷18弄1號","121.50475","25.000335","6500300","中和區"
"235070","558-UM","2018/09/21 19:09:19","新北市中和區中和路27號","121.499885","25.00182","6500300","中和區"
"235045","565-BX","2018/09/21 19:09:21","新北市中和區景新街449號","121.513245","24.9885783333333","6500300","中和區"
"235054","640-BX","2018/09/21 19:09:18","新北市中和區民德路174號","121.468446666667","24.9995233333333","6500300","中和區"
"235047","732-UM","2018/09/21 19:09:10","新北市中和區和平街38巷27號","121.509531666667","24.991215","6500300","中和區"
"235046","733-UM","2018/09/21 19:09:19","新北市中和區忠孝街1巷42號","121.508508333333","24.9841233333333","6500300","中和區"
"235071","783-BX","2018/09/21 19:09:20","新北市中和區連城路469-1號","121.483568333333","24.995785","6500300","中和區"
"235057","801-TS","2018/09/21 19:09:22","新北市中和區民利街58巷5弄11號","121.47817","24.9991366666667","6500300","中和區"
"235041","802-TS","2018/09/21 19:09:25","新北市永和區中和路331號","121.507451666667","24.9998133333333","6500300","中和區"
"235052","805-TS","2018/09/21 19:09:22","新北市中和區興南路二段142巷31弄81號","121.501556666667","24.9836","6500300","中和區"
"235048","896-TW","2018/09/21 19:09:24","新北市中和區華新街143巷55弄23號","121.507731666667","24.9804683333333","6500300","中和區"
"235053","900-TW","2018/09/21 19:09:25","新北市中和區民德路268號","121.467915","24.9965783333333","6500300","中和區"
"235060","911-UM","2018/09/21 19:09:09","新北市中和區民享街40號","121.473923333333","25.0029033333333","6500300","中和區"
"235051","157-BY","2018/09/21 19:09:22","新北市中和區興南路一段88號","121.50997","24.9891916666667","6500300","中和區"
"235037","AAC-213","2018/09/21 19:09:30","新北市中和區秀朗路三段93號","121.52649","24.9951916666667","6500300","中和區"
"235059","AAC-215","2018/09/21 19:09:16","新北市中和區圓通路296巷31弄1號","121.48856","24.99039","6500300","中和區"
"220065","072-UY","2018/09/21 19:09:25","新北市板橋區民族路219巷57號","121.468771666667","25.0087583333333","6500100","板橋區"
"220086","073-UY","2018/09/21 19:09:27","新北市板橋區中正路216巷150弄4號","121.46063","25.01924","6500100","板橋區"
"220106","075-UY","2018/09/21 19:09:27","新北市板橋區雙十路三段8-1號","121.471963333333","25.0306066666667","6500100","板橋區"
"220069","AAD-861","2018/09/21 19:09:16","新北市板橋區華興街1號","121.459433333333","25.0046283333333","6500100","板橋區"
"226004","205-ST","2018/09/21 19:09:22","新北市平溪區嶺腳里嶺腳寮9-1號","121.747721666667","25.0297783333333","6502400","平溪區"
"235062","251-BX","2018/09/21 19:09:14","新北市中和區中山路二段390號","121.490385","25.003645","6500300","中和區"
"228002","663-BX","2018/09/21 19:09:19","新北市貢寮區福隆里興隆街21-1號","121.94357","25.0165483333333","6502600","貢寮區"
"228001","670-TC","2018/09/21 19:09:27","新北市貢寮區真理里新港街10號","121.925528333333","25.0543566666667","6502600","貢寮區"
"228003","828-UM","2018/09/21 19:09:27","新北市貢寮區和美里和美街38號","121.912136666667","25.0891033333333","6502600","貢寮區"
"224010","AGQ-8101","2018/09/21 19:08:20","新北市瑞芳區基山街87號","121.844835","25.10831","6501200","瑞芳區"
"224006","676-BX","2018/09/21 19:09:28","新北市瑞芳區中山路250號","121.799876666667","25.1073616666667","6501200","瑞芳區"
"224008","285-BY","2018/09/21 19:09:18","新北市瑞芳區一坑路48號","121.803643333333","25.10892","6501200","瑞芳區"
"224007","275-VK","2018/09/21 19:09:13","新北市瑞芳區瑞竹路46號","121.763526666667","25.1033683333333","6501200","瑞芳區"
"224009","273-VK","2018/09/21 19:09:23","新北市瑞芳區海濱路3巷2-11號","121.84925","25.1262933333333","6501200","瑞芳區"
"227011","642-TC","2018/09/21 19:09:11","新北市雙溪區牡丹里中正路23號","121.864426666667","25.0376583333333","6502500","雙溪區"
"227003","400-TW","2018/09/21 19:09:13","新北市雙溪區平林里外平林9-5號","121.859158333333","25.0380316666667","6502500","雙溪區"
"253006","032-BX","2018/09/21 19:09:20","新北市石門區崁子腳58-5號","121.53021","25.28637","6502200","石門區"
"253005","295-VK","2018/09/21 19:09:21","新北市石門區阿里荖42號","121.605356666667","25.2803133333333","6502200","石門區"
"222001","KEA-2212","2018/09/21 19:09:17","新北市深坑區北深路一段300號","121.624253333333","25.0057066666667","6501800","深坑區"
"208002","KEA-2872","2018/09/21 19:09:12","新北市金山區中正路75號","121.633666666667","25.2216516666667","6502700","金山區"
"208003","665-BX","2018/09/21 19:09:26","新北市金山區中正路59號","121.634253333333","25.2218883333333","6502700","金山區"
"208001","761-BX","2018/09/21 19:09:23","新北市金山區福德街2號","121.63949","25.2219433333333","6502700","金山區"
"251009","008-UM","2018/09/21 19:09:21","新北市淡水區清水街143號","121.440233333333","25.1714166666667","6501000","淡水區"
"251005","010-UM","2018/09/21 19:09:20","新北市淡水區原德路11號","121.442146666667","25.1712583333333","6501000","淡水區"
"251001","011-UM","2018/09/21 19:09:20","新北市淡水區自強路201巷39號","121.46212","25.1267916666667","6501000","淡水區"
"251008","181-VK","2018/09/21 19:09:21","新北市淡水區新市二路二段2號","121.426795","25.1964933333333","6501000","淡水區"
"251010","413-VK","2018/09/21 19:09:18","新北市淡水區中正路一段156巷3號","121.421118333333","25.1803233333333","6501000","淡水區"
"251007","577-R6","2018/09/21 19:09:30","新北市淡水區民生路145巷58號","121.468011666667","25.13876","6501000","淡水區"
"251002","672-BX","2018/09/21 19:09:24","新北市淡水區中山路93-2號","121.442208333333","25.17051","6501000","淡水區"
"251003","766-UM","2018/09/21 19:09:24","新北市淡水區中山北路一段96號","121.44246","25.1764333333333","6501000","淡水區"
"207003","550-UM","2018/09/21 19:09:26","新北市萬里區大鵬里萬里加投29-2號","121.647076666667","25.207855","6502800","萬里區"
"207004","225-TW","2018/09/21 19:09:08","新北市萬里區萬里里瑪鋉下街50號","121.69156","25.17951","6502800","萬里區"
"252003","249-BX","2018/09/21 19:09:29","新北市三芝區錫板里南勢崗6號","121.47959","25.26199","6502100","三芝區"
"252001","292-VK","2018/09/21 19:09:27","新北市三芝區長勤街80號","121.500283333333","25.25515","6502100","三芝區"
"252002","AAC-283","2018/09/21 19:09:30","新北市三芝區埔坪里埔頭坑79號","121.509488333333","25.2544133333333","6502100","三芝區"
"237004","KEA-2597","2018/09/21 19:09:18","新北市三峽區有木206號","121.439108333333","24.85152","6500900","三峽區"
"237007","153-BY","2018/09/21 19:09:22","新北市三峽區中正路二段42巷84號","121.364286666667","24.92052","6500900","三峽區"
"237013","252-BX","2018/09/21 19:09:21","新北市三峽區光明路69巷25號","121.376573333333","24.92914","6500900","三峽區"
"237012","275-BY","2018/09/21 19:09:10","新北市三峽區三樹路222巷236弄69-18號","121.394766666667","24.94364","6500900","三峽區"
"237008","302-VK","2018/09/21 19:09:21","新北市三峽區大同路95號","121.374698333333","24.927095","6500900","三峽區"
"237006","5529-G3","2018/09/21 19:09:17","新北市三峽區溪東路205巷4號","121.404718333333","24.9337183333333","6500900","三峽區"
"237011","KEA-2596","2018/09/21 19:09:16","新北市三峽區介壽路一段237號","121.379455","24.9303666666667","6500900","三峽區"
"237015","649-BX","2018/09/21 19:09:23","新北市三峽區建安83號","121.453675","24.9205066666667","6500900","三峽區"
"237010","706-TV","2018/09/21 19:09:17","新北市三峽區復興路46號","121.373476666667","24.9370583333333","6500900","三峽區"
"237005","AKY-6261","2018/09/21 19:09:16","新北市三峽區中山路459巷163-3號","121.34869","24.932785","6500900","三峽區"
"236069","105-UM","2018/09/21 19:09:27","新北市土城區裕生路84巷1號","121.447265","24.9853183333333","6501300","土城區"
"236042","107-UM","2018/09/21 19:09:28","新北市土城區學府路一段239號","121.45042","24.9834083333333","6501300","土城區"
"236079","166-UM","2018/09/21 19:09:11","新北市土城區龍泉路23-3號","121.412","24.9460716666667","6501300","土城區"
"236026","269-VK","2018/09/21 19:09:14","新北市土城區中央路二段187號","121.442155","24.9756666666667","6501300","土城區"
"236020","401-BY","2018/09/21 19:09:18","新北市土城區延峰街14號","121.468631666667","24.9864033333333","6501300","土城區"
"236014","752-BX","2018/09/21 19:09:23","新北市土城區金城路二段354巷20號","121.46067","24.984095","6501300","土城區"
"236059","912-UM","2018/09/21 19:09:25","新北市土城區金城路一段139號","121.445201666667","24.9741283333333","6501300","土城區"
"236048","913-UM","2018/09/21 19:09:31","新北市土城區明德路一段365-1號","121.453661666667","24.9790816666667","6501300","土城區"
"242054","442-UM","2018/09/21 19:09:27","新北市樹林區八德街437-1號","121.405365","24.9693416666667","6500500","新莊區"
"242005","349-TH","2018/09/21 19:09:23","新北市新莊區三和路12-18號","121.442025","25.0376583333333","6500500","新莊區"
"238023","601-UM","2018/09/21 19:09:19","新北市樹林區三興路41號","121.395965","25.0144833333333","6500700","樹林區"
"238019","599-UM","2018/09/21 19:09:25","新北市樹林區東華街69號","121.415483333333","24.9810616666667","6500700","樹林區"
"238024","5061-A6","2018/09/21 19:09:28","新北市樹林區中山路二段249巷17號","121.402673333333","24.9756266666667","6500700","樹林區"
"238022","KEA-2213","2018/09/21 19:09:19","新北市樹林區中山路二段151巷8弄41號","121.405873333333","24.9774683333333","6500700","樹林區"
"238021","KEA-2539","2018/09/21 19:09:28","新北市樹林區柑園街二段370號","121.36979","24.9502066666667","6500700","樹林區"
"238025","303-VK","2018/09/21 19:09:29","新北市樹林區民和街61號","121.381568333333","24.9707133333333","6500700","樹林區"
"238017","283-BY","2018/09/21 19:09:30","新北市樹林區光興街44號","121.409898333333","25.00268","6500700","樹林區"
"238014","282-BY","2018/09/21 19:09:28","新北市樹林區千歲街92巷7弄17號","121.427313333333","24.9980233333333","6500700","樹林區"
"238020","268-VK","2018/09/21 19:09:11","新北市樹林區俊英街155巷43弄11號","121.422791666667","25.0115866666667","6500700","樹林區"
"238026","172-UY","2018/09/21 19:09:18","新北市樹林區佳園路一段22-3號","121.392788333333","24.9714233333333","6500700","樹林區"
"238016","169-UY","2018/09/21 19:09:07","新北市樹林區中山路一段356巷8號","121.418993333333","24.9863416666667","6500700","樹林區"
"239007","AAC-297","2018/09/21 19:09:12","新北市鶯歌區中山路138巷3-10號","121.349611666667","24.95855","6500800","鶯歌區"
"239006","891-R6","2018/09/21 19:09:12","新北市鶯歌區鶯桃路67巷9號","121.340995","24.9520883333333","6500800","鶯歌區"
"239008","527-UM","2018/09/21 19:09:27","新北市鶯歌區國際二路2巷8號","121.339221666667","24.97302","6500800","鶯歌區"
"239005","526-UM","2018/09/21 19:09:13","新北市鶯歌區三界公坑30-1號","121.352796666667","24.97088","6500800","鶯歌區"
"239001","417-VK","2018/09/21 19:09:13","新北市鶯歌區鶯桃路64號","121.340593333333","24.9532083333333","6500800","鶯歌區"
"239003","360-BY","2018/09/21 19:09:28","新北市鶯歌區德昌二街92-1號","121.33272","24.955025","6500800","鶯歌區"
"239002","359-BY","2018/09/21 19:09:14","新北市鶯歌區大湖路530巷9號","121.337496666667","24.973015","6500800","鶯歌區"
"239004","193-VK","2018/09/21 19:09:16","新北市鶯歌區二甲路45-1號","121.33634","24.9340866666667","6500800","鶯歌區"
"221008","489-VK","2018/09/21 19:09:24","新北市汐止區康寧街464號","121.63179","25.068155","6501100","汐止區"
"221036","130-UY","2018/09/21 19:09:14","新北市汐止區康寧街901號","121.651573333333","25.0749016666667","6501100","汐止區"
"221015","131-UY","2018/09/21 19:09:13","新北市汐止區汐萬路一段244-1號","121.651221666667","25.0735733333333","6501100","汐止區"
"221010","269-BY","2018/09/21 19:09:22","新北市汐止區康寧街901號","121.651396666667","25.0750533333333","6501100","汐止區"
"221012","278-VK","2018/09/21 19:09:21","新北市汐止區康寧街901號","121.650741666667","25.07529","6501100","汐止區"
"221023","279-VK","2018/09/21 19:09:17","新北市汐止區康寧街901號","121.650958333333","25.07515","6501100","汐止區"
"221027","281-BY","2018/09/21 19:09:19","新北市汐止區康寧街901號","121.651423333333","25.0749283333333","6501100","汐止區"
"221029","298-VK","2018/09/21 19:07:50","新北市汐止區連峰街1巷1號","121.646386666667","25.0761116666667","6501100","汐止區"
"221021","299-VK","2018/09/21 19:09:26","新北市汐止區康寧街901號","121.651595","25.0749716666667","6501100","汐止區"
"221031","353-TW","2018/09/21 19:09:09","新北市汐止區福德一路1號","121.639316666667","25.070345","6501100","汐止區"
"221035","622-UM","2018/09/21 19:09:11","新北市汐止區汐萬路一段273號","121.650486666667","25.0744433333333","6501100","汐止區"
"221025","623-UM","2018/09/21 19:09:12","新北市汐止區康寧街901號","121.651563333333","25.0749866666667","6501100","汐止區"
"221038","646-BX","2018/09/21 19:09:11","新北市汐止區康寧街901號","121.650753333333","25.07526","6501100","汐止區"
"221002","707-TV","2018/09/21 19:09:17","新北市汐止區大同路一段156-2號","121.632446666667","25.056245","6501100","汐止區"
"220079","145-BY","2018/09/21 19:09:23","新北市板橋區民權路260巷51號","121.459813333333","25.01526","6500100","板橋區"
"220082","610-BX","2018/09/21 19:09:11","新北市板橋區溪崑二街62號","121.427928333333","24.9904333333333","6500100","板橋區"
"220101","245-BX","2018/09/21 19:09:20","新北市板橋區萬板路13號","121.47056","25.0209366666667","6500100","板橋區"
"220098","257-TC","2018/09/21 19:09:20","新北市板橋區四維路103巷30號","121.464495","25.0240133333333","6500100","板橋區"
"220056","276-BY","2018/09/21 19:09:20","新北市板橋區信義路74巷1弄9號","121.457476666667","24.9929116666667","6500100","板橋區"
"220072","277-BY","2018/09/21 19:09:25","新北市板橋區金門街369巷57弄8號","121.42923","24.9840533333333","6500100","板橋區"
"220094","280-UM","2018/09/21 19:09:19","新北市板橋區光武街127巷1號","121.465935","25.0287183333333","6500100","板橋區"
"220071","283-VK","2018/09/21 19:09:21","新北市板橋區重慶路247-3號","121.463285","25.000355","6500100","板橋區"
"220053","285-VK","2018/09/21 19:09:24","新北市板橋區富山街53巷2弄1號","121.477421666667","25.0204533333333","6500100","板橋區"
"220083","286-VK","2018/09/21 19:09:22","新北市板橋區龍興街97巷14號","121.443558333333","25.0028783333333","6500100","板橋區"
"220081","287-VK","2018/09/21 19:09:28","新北市板橋區南雅西路二段156巷22號","121.45231","25.012925","6500100","板橋區"
"220090","288-VK","2018/09/21 19:09:25","新北市板橋區裕民街45巷3-1號","121.461536666667","25.028385","6500100","板橋區"
"220061","293-UM","2018/09/21 19:09:24","新北市板橋區懷仁街97號","121.47763","25.0180766666667","6500100","板橋區"
"220067","299-UM","2018/09/21 19:09:20","新北市板橋區民享街116巷1-3號","121.478068333333","25.0156883333333","6500100","板橋區"
"220075","303-R5","2018/09/21 19:09:18","新北市板橋區南雅東路1號","121.455423333333","25.0054916666667","6500100","板橋區"
"220062","305-R5","2018/09/21 19:09:10","新北市板橋區三民路二段245巷44號","121.480995","25.0124916666667","6500100","板橋區"
"220092","307-R5","2018/09/21 19:09:17","新北市板橋區文化路二段227號","121.470863333333","25.0283283333333","6500100","板橋區"
"220080","461-BY","2018/09/21 19:09:24","新北市板橋區大觀路二段1巷50號","121.45038","25.0036333333333","6500100","板橋區"
"220064","486-VK","2018/09/21 19:09:09","新北市板橋區板新路96號","121.472288333333","25.0147616666667","6500100","板橋區"
"220035","560-BX","2018/09/21 19:09:25","新北市板橋區中正路326巷5號","121.45496","25.0220383333333","6500100","板橋區"
"220103","561-BX","2018/09/21 19:09:20","新北市板橋區文化路一段188巷9弄126號","121.469256666667","25.01904","6500100","板橋區"
"220084","568-UM","2018/09/21 19:09:25","新北市板橋區篤行路二段130巷14-1號","121.430715","24.99074","6500100","板橋區"
"220063","609-BX","2018/09/21 19:09:27","新北市板橋區三民路二段155號","121.479135","25.01496","6500100","板橋區"
"220091","637-BX","2018/09/21 19:09:29","新北市板橋區萬板路518號","121.480646666667","25.0263766666667","6500100","板橋區"
"220057","686-BX","2018/09/21 19:09:26","新北市板橋區重慶路342號","121.46427","24.997525","6500100","板橋區"
"220077","687-BX","2018/09/21 19:09:23","新北市板橋區大觀路二段67號","121.446551666667","25.00245","6500100","板橋區"
"220093","689-BX","2018/09/21 19:09:25","新北市板橋區民生路三段163號","121.465673333333","25.0268883333333","6500100","板橋區"
"220054","741-BX","2018/09/21 19:09:15","新北市板橋區重慶路64號","121.461655","25.0067216666667","6500100","板橋區"
"220102","KEA-2699","2018/09/21 19:09:20","新北市板橋區田單街44號","121.482626666667","25.02788","6500100","板橋區"
"220055","827-TW","2018/09/21 19:09:10","新北市板橋區新民街7巷17號","121.463495","25.0103466666667","6500100","板橋區"
"220068","830-TW","2018/09/21 19:09:22","新北市板橋區三民路一段31巷21號","121.480285","25.0232283333333","6500100","板橋區"
"220096","831-TW","2018/09/21 19:09:14","新北市板橋區雙十路二段37-1號","121.476796666667","25.0259483333333","6500100","板橋區"
"220089","833-TW","2018/09/21 19:09:22","新北市板橋區文化路二段389號","121.47355","25.0314683333333","6500100","板橋區"
"220074","895-R6","2018/09/21 19:09:23","新北市板橋區中正路自強新村44-2號","121.454848333333","25.0136633333333","6500100","板橋區"
"220073","985-R7","2018/09/21 19:09:21","新北市板橋區中正路370號","121.454303333333","25.0242883333333","6500100","板橋區"
"220097","AAC-210","2018/09/21 19:09:26","新北市板橋區幸福路70巷18號","121.46053","25.0206583333333","6500100","板橋區"
"220070","AAC-253","2018/09/21 19:09:19","新北市板橋區忠孝路21號","121.460418333333","25.0020333333333","6500100","板橋區"
"235068","KEA-2873","2018/09/21 19:09:12","新北市中和區圓通路169號","121.497616666667","24.995335","6500300","中和區"
"235061","KEA-2875","2018/09/21 19:09:27","新北市中和區員山路394巷6號","121.481036666667","25.0046083333333","6500300","中和區"
