"lineid","car","time","location","longitude","latitude","cityid","cityname"
"234046","148-BY","2018/09/21 19:29:11","新北市永和區成功路二段6號","121.526501666667","25.0010483333333","6500400","永和區"
"234007","207-UY","2018/09/21 19:29:24","新北市永和區永和路一段100號","121.513245","25.0069983333333","6500400","永和區"
"234081","298-R6","2018/09/21 19:29:13","新北市永和區環河東路三段60號","121.527023333333","25.005905","6500400","永和區"
"234038","336-UY","2018/09/21 19:29:12","新北市永和區民樂街30巷2號","121.527551666667","25.00119","6500400","永和區"
"234064","337-UY","2018/09/21 19:29:14","新北市永和區中正路368巷1弄88號","121.520456666667","25.0007466666667","6500400","永和區"
"234086","338-UY","2018/09/21 19:29:25","新北市永和區林森路62號","121.523998333333","25.0041733333333","6500400","永和區"
"234070","552-UM","2018/09/21 19:29:28","新北市永和區中正路666巷59號","121.519101666667","25.0091683333333","6500400","永和區"
"234017","745-BX","2018/09/21 19:29:16","新北市永和區環河西路一段51巷1號","121.514195","25.0181733333333","6500400","永和區"
"234030","746-BX","2018/09/21 19:29:28","新北市永和區民生路63號","121.522656666667","24.9973433333333","6500400","永和區"
"234054","KEA-2590","2018/09/21 19:29:19","新北市永和區復興街21號","121.51613","25.0131","6500400","永和區"
"234013","KEA-2591","2018/09/21 19:29:27","新北市永和區中山路一段203號","121.50899","25.008505","6500400","永和區"
"234061","AAD-866","2018/09/21 19:29:26","新北市永和區中正路500號","121.517398333333","25.0043333333333","6500400","永和區"
"234042","862-TW","2018/09/21 19:29:18","新北市永和區中和路519巷7號","121.510736666667","25.0030083333333","6500400","永和區"
"234050","863-TW","2018/09/21 19:29:27","新北市永和區保福路二段76號","121.510498333333","25.01322","6500400","永和區"
"234026","9371-KE","2018/09/21 19:29:28","新北市中和區安樂路213號","121.514273333333","24.998755","6500400","永和區"
"234011","9373-KE","2018/09/21 19:29:23","新北市永和區保福路二段163巷13弄16號","121.509153333333","25.014245","6500400","永和區"
"249003","593-UM","2018/09/21 19:29:15","新北市八里區中山路二段502號","121.398245","25.1469183333333","6502300","八里區"
"248014","025-BX","2018/09/21 19:29:25","新北市五股區民義路一段183巷8-3號","121.429913333333","25.0867783333333","6501500","五股區"
"248016","026-BX","2018/09/21 19:29:17","新北市五股區凌雲路一段30號","121.452091666667","25.10064","6501500","五股區"
"248008","095-VK","2018/09/21 19:29:25","新北市五股區中興路一段95巷9號","121.466606666667","25.0724216666667","6501500","五股區"
"248018","225-UY","2018/09/21 19:27:25","新北市五股區壟路16-1號","121.414563333333","25.0853","6501500","五股區"
"248012","247-BX","2018/09/21 19:29:26","新北市五股區成泰路二段97號","121.438023333333","25.0842833333333","6501500","五股區"
"248010","272-BY","2018/09/21 19:29:14","新北市五股區水碓二路1號","121.430605","25.0712766666667","6501500","五股區"
"248004","677-BX","2018/09/21 19:29:21","新北市五股區工商路153-1號","121.434895","25.0865616666667","6501500","五股區"
"248002","678-BX","2018/09/21 19:29:12","新北市五股區凌雲路一段158巷6號","121.447775","25.103055","6501500","五股區"
"234023","9380-KE","2018/09/21 19:29:21","新北市永和區竹林路91巷47弄2號","121.521586666667","25.0130366666667","6500400","永和區"
"234077","969-R7","2018/09/21 19:29:27","新北市永和區民權路35號","121.519923333333","24.9977033333333","6500400","永和區"
"234074","AAC-211","2018/09/21 19:29:16","新北市永和區環河東路一段122號","121.520578333333","25.01564","6500400","永和區"
"234067","AAC-212","2018/09/21 19:29:23","新北市永和區保平路178號","121.51074","25.0066383333333","6500400","永和區"
"234003","AAC-295","2018/09/21 19:29:21","新北市永和區福和路385號","121.514203333333","25.0076966666667","6500400","永和區"
"244023","069-UM","2018/09/21 19:29:26","新北市林口區仁愛路二段267巷3號","121.373426666667","25.0771833333333","6501700","林口區"
"244019","403-UM","2018/09/21 19:29:16","新北市林口區嘉寶里42號","121.333435","25.12219","6501700","林口區"
"244017","485-VK","2018/09/21 19:29:22","新北市林口區湖南里70-9號","121.375765","25.0895333333333","6501700","林口區"
"243013","AAD-798","2018/09/21 19:29:28","新北市泰山區明志路三段123巷1弄6號","121.425713333333","25.04076","6501600","泰山區"
"243009","297-R6","2018/09/21 19:29:10","新北市泰山區半山雅3號","121.431406666667","25.0674466666667","6501600","泰山區"
"243016","KEA-2801","2018/09/21 19:29:23","新北市泰山區工專路61號","121.422546666667","25.0403916666667","6501600","泰山區"
"243015","421-VK","2018/09/21 19:29:22","新北市泰山區明志路二段134號","121.427541666667","25.0511183333333","6501600","泰山區"
"243011","KEA-2215","2018/09/21 19:29:17","新北市泰山區貴子路120號","121.428175","25.0407333333333","6501600","泰山區"
"243010","KEA-2216","2018/09/21 19:29:23","新北市泰山區民生路17巷6號","121.429865","25.0522466666667","6501600","泰山區"
"243012","646-TV","2018/09/21 19:29:24","新北市泰山區仁愛路36-6號","121.431588333333","25.0547083333333","6501600","泰山區"
"243014","680-BX","2018/09/21 19:29:12","新北市泰山區中港西路422號","121.433778333333","25.0539666666667","6501600","泰山區"
"222003","436-BY","2018/09/21 19:29:26","新北市深坑區深南路51-1號","121.621251666667","25.0098716666667","6501800","深坑區"
"222002","659-BX","2018/09/21 19:29:23","新北市深坑區北深路一段177號","121.632543333333","25.0108166666667","6501800","深坑區"
"231041","002-UM","2018/09/21 19:29:31","新北市新店區中正路542-5號","121.5337","24.98546","6500600","新店區"
"231059","046-UY","2018/09/21 19:29:14","新北市新店區安和路三段7號","121.518106666667","24.9804966666667","6500600","新店區"
"231040","047-UY","2018/09/21 19:29:12","新北市新店區中華路14號","121.540555","24.9675133333333","6500600","新店區"
"231044","106-UY","2018/09/21 19:29:25","新北市新店區中興路三段141號","121.544446666667","24.9798333333333","6500600","新店區"
"231046","107-UY","2018/09/21 19:29:11","新北市新店區北新路一段91號","121.538936666667","24.9617616666667","6500600","新店區"
"231053","108-UY","2018/09/21 19:29:26","新北市新店區廣興路32-1號","121.540805","24.9116333333333","6500600","新店區"
"231048","187-VK","2018/09/21 19:29:21","新北市新店區五峰路115號","121.545083333333","24.9666133333333","6500600","新店區"
"231054","KEA-2219","2018/09/21 19:29:12","新北市新店區文中路45號","121.53962","24.9566333333333","6500600","新店區"
"231057","256-BX","2018/09/21 19:29:27","新北市新店區花園一路二段23號","121.55111","24.9326116666667","6500600","新店區"
"231042","268-BY","2018/09/21 19:29:13","新北市新店區中興路一段58號","121.539223333333","24.959545","6500600","新店區"
"231051","278-BY","2018/09/21 19:29:16","新北市新店區中央五街55號","121.527778333333","24.9754233333333","6500600","新店區"
"231050","AAD-862","2018/09/21 19:29:25","新北市新店區竹林路97巷10號","121.554101666667","24.94954","6500600","新店區"
"231058","3713-VJ","2018/09/21 19:29:12","新北市新店區中興路三段1-20號","121.54614","24.9757116666667","6500600","新店區"
"231066","4716-K9","2018/09/21 19:29:16","新北市新店區安康路三段359巷12弄27號","121.483996666667","24.9493083333333","6500600","新店區"
"231067","4772-VM","2018/09/21 19:29:28","新北市新店區安康路二段96號","121.513671666667","24.9630416666667","6500600","新店區"
"231065","512-UM","2018/09/21 19:29:28","新北市新店區安祥路109巷3弄104號","121.479346666667","24.9604783333333","6500600","新店區"
"231049","513-UM","2018/09/21 19:29:24","新北市新店區北新路三段65巷34弄18號","121.540075","24.9815916666667","6500600","新店區"
"231063","616-UM","2018/09/21 19:29:25","新北市新店區達觀路16號","121.50329","24.9405866666667","6500600","新店區"
"231045","617-UM","2018/09/21 19:29:19","新北市新店區北宜路二段211號","121.553205","24.9533183333333","6500600","新店區"
"231061","619-UM","2018/09/21 19:29:31","新北市新店區安康路一段275-1號","121.523901666667","24.9634683333333","6500600","新店區"
"231064","719-UM","2018/09/21 19:29:12","新北市新店區安康路二段85巷13號","121.513793333333","24.9621683333333","6500600","新店區"
"231062","720-UM","2018/09/21 19:29:24","新北市新店區秀山路66號","121.530676666667","24.9609783333333","6500600","新店區"
"231060","897-TW","2018/09/21 19:29:23","新北市新店區安康路二段81號","121.513568333333","24.96291","6500600","新店區"
"231043","899-TW","2018/09/21 19:29:15","新北市新店區北新路二段200號","121.542881666667","24.976825","6500600","新店區"
"231055","AKT-0513","2018/09/21 19:29:24","新北市新店區環河路121-2號","121.530398333333","24.9712633333333","6500600","新店區"
"241028","022-UY","2018/09/21 19:29:17","新北市三重區中正南路97巷20號","121.493613333333","25.0577483333333","6500200","三重區"
"241031","061-VK","2018/09/21 19:29:18","新北市三重區集美街65-1號","121.48847","25.05416","6500200","三重區"
"241015","062-VK","2018/09/21 19:29:15","新北市三重區三和路一段2號","121.503975","25.06429","6500200","三重區"
"241017","063-VK","2018/09/21 19:29:16","新北市三重區大同北路120巷1-4號","121.49302","25.0640666666667","6500200","三重區"
"241026","066-VK","2018/09/21 19:29:08","新北市三重區文化南路36號","121.50029","25.06131","6500200","三重區"
"241009","267-UM","2018/09/21 19:29:12","新北市三重區溪尾街242巷43號","121.486576666667","25.0815983333333","6500200","三重區"
"241032","269-UM","2018/09/21 19:29:26","新北市三重區三陽路24號","121.48563","25.05873","6500200","三重區"
"241013","270-UM","2018/09/21 19:29:23","新北市三重區仁愛街129巷4號","121.495793333333","25.075055","6500200","三重區"
"241025","271-UM","2018/09/21 19:29:11","新北市三重區頂崁街210巷28弄5號","121.475758333333","25.06758","6500200","三重區"
"241007","398-BY","2018/09/21 19:29:23","新北市三重區溪尾街128號","121.489206666667","25.0794166666667","6500200","三重區"
"241035","KEA-2210","2018/09/21 19:29:29","新北市三重區信義西街1巷3號","121.49813","25.06494","6500200","三重區"
"241020","478-VK","2018/09/21 19:29:24","新北市三重區三和路四段20巷15號","121.49045","25.0738683333333","6500200","三重區"
"241006","AAD-863","2018/09/21 19:29:24","新北市三重區車路頭街80巷3號","121.484238333333","25.07411","6500200","三重區"
"241030","743-BX","2018/09/21 19:29:27","新北市三重區環河南路254巷22號","121.490243333333","25.0509283333333","6500200","三重區"
"241022","887-TS","2018/09/21 19:29:28","新北市三重區三民街155巷2號","121.483973333333","25.0644933333333","6500200","三重區"
"241029","942-UM","2018/09/21 19:29:22","新北市三重區中正南路216號","121.493838333333","25.0550616666667","6500200","三重區"
"235066","003-UY","2018/09/21 19:29:10","新北市中和區景新街38號","121.503483333333","24.9992766666667","6500300","中和區"
"235064","005-UY","2018/09/21 19:29:12","新北市中和區南山路75號","121.502011666667","24.9981433333333","6500300","中和區"
"235063","006-UY","2018/09/21 19:29:11","新北市中和區連勝街145號","121.494603333333","24.9961216666667","6500300","中和區"
"235056","096-UM","2018/09/21 19:29:23","新北市中和區中山路三段108號","121.476801666667","25.00639","6500300","中和區"
"235039","097-UM","2018/09/21 19:29:18","新北市中和區秀峰街103巷8弄14號","121.519605","24.989745","6500300","中和區"
"235065","098-UM","2018/09/21 19:29:16","新北市中和區中山路二段2巷45弄28號","121.501918333333","25.0066333333333","6500300","中和區"
"235040","150-BY","2018/09/21 19:29:26","新北市中和區保健路10巷23弄2號","121.508075","24.99667","6500300","中和區"
"235058","151-BY","2018/09/21 19:29:12","新北市中和區連城路509號","121.482401666667","24.9954383333333","6500300","中和區"
"235055","183-VK","2018/09/21 19:29:17","新北市中和區國光街38號","121.471138333333","25.0004316666667","6500300","中和區"
"235038","185-VK","2018/09/21 19:29:22","新北市中和區自立路115號","121.521921666667","24.9944633333333","6500300","中和區"
"235049","186-VK","2018/09/21 19:29:20","新北市中和區景新街285巷19號","121.510451666667","24.9936466666667","6500300","中和區"
"235067","255-BX","2018/09/21 19:29:27","新北市中和區連城路340巷8弄1號","121.482721666667","24.9963116666667","6500300","中和區"
"235044","293-VK","2018/09/21 19:29:14","新北市中和區捷運路185號","121.505408333333","24.9914266666667","6500300","中和區"
"235072","301-VK","2018/09/21 19:29:19","新北市中和區連城路265巷12弄4號","121.491515","24.995115","6500300","中和區"
"235043","352-BY","2018/09/21 19:29:21","新北市中和區景安路85號","121.506251666667","24.9969583333333","6500300","中和區"
"235042","KEA-2878","2018/09/21 19:29:11","新北市中和區中和路350巷8弄16號","121.510185","25.00017","6500300","中和區"
"235050","4979-A6","2018/09/21 19:29:25","新北市中和區中正路434號","121.491236666667","24.99424","6500300","中和區"
"235070","558-UM","2018/09/21 19:29:21","新北市中和區景平路626巷1號","121.500346666667","24.9977316666667","6500300","中和區"
"235045","565-BX","2018/09/21 19:29:21","新北市中和區景新街399巷8號","121.513015","24.9898516666667","6500300","中和區"
"235054","640-BX","2018/09/21 19:29:18","新北市中和區國光街102巷11弄11號","121.470645","25.0011616666667","6500300","中和區"
"235047","732-UM","2018/09/21 19:29:09","新北市中和區景平路329巷1弄4號","121.506053333333","24.992915","6500300","中和區"
"235046","733-UM","2018/09/21 19:29:17","新北市中和區忠孝街37巷44號","121.510641666667","24.9847083333333","6500300","中和區"
"235071","783-BX","2018/09/21 19:29:17","新北市中和區連城路469巷21弄22號","121.484146666667","24.9950816666667","6500300","中和區"
"235057","801-TS","2018/09/21 19:29:22","新北市中和區中山路三段37巷33號","121.479531666667","25.0047933333333","6500300","中和區"
"235041","802-TS","2018/09/21 19:29:25","新北市中和區中安街80號","121.512275","25.001795","6500300","中和區"
"235052","805-TS","2018/09/21 19:29:22","新北市中和區華新街143巷71弄37號","121.507746666667","24.9792333333333","6500300","中和區"
"235048","896-TW","2018/09/21 19:29:24","新北市中和區忠孝街137號","121.512796666667","24.9882433333333","6500300","中和區"
"235053","900-TW","2018/09/21 19:29:25","新北市中和區華順街14號","121.467236666667","24.9986983333333","6500300","中和區"
"235060","911-UM","2018/09/21 19:29:09","新北市中和區民樂路25號","121.482776666667","25.0016","6500300","中和區"
"235051","157-BY","2018/09/21 19:29:22","新北市中和區景新街170號","121.50598","24.9965916666667","6500300","中和區"
"235037","AAC-213","2018/09/21 19:29:10","新北市中和區秀朗路三段10巷12弄2號","121.525588333333","24.996585","6500300","中和區"
"235059","AAC-215","2018/09/21 19:29:15","新北市中和區圓通路252巷34號","121.492368333333","24.99267","6500300","中和區"
"220065","072-UY","2018/09/21 19:29:11","新北市板橋區國泰街111巷4-2號","121.465718333333","25.006115","6500100","板橋區"
"220086","073-UY","2018/09/21 19:29:27","新北市板橋區國光路158號","121.459965","25.0181766666667","6500100","板橋區"
"220106","075-UY","2018/09/21 19:29:25","新北市板橋區江寧路三段119號","121.473313333333","25.03308","6500100","板橋區"
"220069","AAD-861","2018/09/21 19:29:16","新北市板橋區稚暉街46巷1號","121.456446666667","25.0042816666667","6500100","板橋區"
"247004","002-UY","2018/09/21 19:29:22","新北市蘆洲區長安街239號","121.45934","25.0829716666667","6501400","蘆洲區"
"226004","205-ST","2018/09/21 19:29:26","新北市平溪區十分里十分街235號","121.778271666667","25.0439883333333","6502400","平溪區"
"228001","670-TC","2018/09/21 19:29:27","新北市貢寮區真理里延平街68號","121.92537","25.0574266666667","6502600","貢寮區"
"228003","828-UM","2018/09/21 19:29:07","新北市貢寮區和美里和美街19-2號","121.912806666667","25.0825916666667","6502600","貢寮區"
"224010","AGQ-8101","2018/09/21 19:24:59","新北市瑞芳區基山街34號","121.844906666667","25.1083716666667","6501200","瑞芳區"
"224002","639-TC","2018/09/21 19:29:15","新北市瑞芳區三爪子坑路13巷25號","121.814103333333","25.1069333333333","6501200","瑞芳區"
"227011","642-TC","2018/09/21 19:29:11","新北市雙溪區新基里新基北街43號","121.868188333333","25.03973","6502500","雙溪區"
"227003","400-TW","2018/09/21 19:29:13","新北市雙溪區雙溪里光復街16號","121.865118333333","25.0354016666667","6502500","雙溪區"
"253006","032-BX","2018/09/21 19:29:20","新北市石門區崁子腳28-2號","121.540353333333","25.289425","6502200","石門區"
"222001","KEA-2212","2018/09/21 19:29:28","新北市深坑區北深路二段120號","121.616481666667","25.0030766666667","6501800","深坑區"
"208002","KEA-2872","2018/09/21 19:29:12","新北市金山區仁愛路87巷1號","121.634568333333","25.221545","6502700","金山區"
"208003","665-BX","2018/09/21 19:29:26","新北市金山區仁愛路66號","121.635153333333","25.2211683333333","6502700","金山區"
"208001","761-BX","2018/09/21 19:29:23","新北市金山區中正路32號","121.635435","25.2221983333333","6502700","金山區"
"251009","008-UM","2018/09/21 19:29:21","新北市淡水區大忠街5巷8號","121.443353333333","25.1765166666667","6501000","淡水區"
"251005","010-UM","2018/09/21 19:29:20","新北市淡水區水源街一段71巷11號","121.444418333333","25.1729333333333","6501000","淡水區"
"251001","011-UM","2018/09/21 19:29:20","新北市淡水區民權路137號","121.4601","25.1365633333333","6501000","淡水區"
"251008","181-VK","2018/09/21 19:29:21","新北市淡水區中正路二段31號","121.419128333333","25.1818983333333","6501000","淡水區"
"251010","413-VK","2018/09/21 19:29:18","新北市淡水區中正路二段142-10號","121.422778333333","25.1876516666667","6501000","淡水區"
"251006","561-UM","2018/09/21 19:29:24","新北市淡水區大義街48號","121.44184","25.1783783333333","6501000","淡水區"
"251007","577-R6","2018/09/21 19:29:10","新北市淡水區坪頂路47號","121.457626666667","25.1625466666667","6501000","淡水區"
"207003","550-UM","2018/09/21 19:29:24","新北市萬里區大鵬里萬里加投228號","121.644418333333","25.215785","6502800","萬里區"
"207004","225-TW","2018/09/21 19:29:28","新北市萬里區萬里里瑪鋉路121號","121.688935","25.1779283333333","6502800","萬里區"
"252001","292-VK","2018/09/21 19:29:27","新北市三芝區長勤街63-1號","121.500088333333","25.25608","6502100","三芝區"
"252002","AAC-283","2018/09/21 19:29:30","新北市三芝區淡金路二段18-1號","121.502705","25.2594966666667","6502100","三芝區"
"237004","KEA-2597","2018/09/21 19:29:17","新北市三峽區有木206號","121.439116666667","24.8515566666667","6500900","三峽區"
"237007","153-BY","2018/09/21 19:29:22","新北市三峽區二鬮路136巷20弄87號","121.358438333333","24.909135","6500900","三峽區"
"237009","210-TH","2018/09/21 19:29:27","新北市三峽區民權街100號","121.369163333333","24.932595","6500900","三峽區"
"237013","252-BX","2018/09/21 19:29:27","新北市三峽區介壽路一段309號","121.381215","24.9305583333333","6500900","三峽區"
"237012","275-BY","2018/09/21 19:29:10","新北市三峽區三樹路70號","121.377631666667","24.93844","6500900","三峽區"
"237008","302-VK","2018/09/21 19:29:21","新北市三峽區永安街95巷2號","121.374633333333","24.92882","6500900","三峽區"
"237006","5529-G3","2018/09/21 19:29:17","新北市三峽區中正路一段292巷21號","121.370598333333","24.9259133333333","6500900","三峽區"
"237015","649-BX","2018/09/21 19:29:23","新北市三峽區成福路217號","121.423606666667","24.9284683333333","6500900","三峽區"
"237005","AKY-6261","2018/09/21 19:29:16","新北市三峽區復興路367巷1弄8號","121.363953333333","24.937915","6500900","三峽區"
"236069","105-UM","2018/09/21 19:29:27","新北市土城區裕民路185巷36弄10號","121.454358333333","24.9845333333333","6501300","土城區"
"236042","107-UM","2018/09/21 19:29:27","新北市土城區學府路一段239號","121.450411666667","24.983405","6501300","土城區"
"236079","166-UM","2018/09/21 19:29:15","新北市土城區中州路27巷25號","121.413235","24.9571683333333","6501300","土城區"
"236026","269-VK","2018/09/21 19:29:14","新北市土城區中央路二段61巷26號","121.443298333333","24.9786933333333","6501300","土城區"
"236020","401-BY","2018/09/21 19:29:18","新北市土城區峰廷街3號","121.469068333333","24.987275","6501300","土城區"
"236014","752-BX","2018/09/21 19:29:23","新北市土城區學府路一段75巷18弄2號","121.45746","24.9874733333333","6501300","土城區"
"236048","913-UM","2018/09/21 19:29:19","新北市土城區清水路200號","121.460421666667","24.981875","6501300","土城區"
"242023","362-BY","2018/09/21 19:29:24","新北市新莊區新泰路500號","121.442485","25.0461383333333","6500500","新莊區"
"242013","173-VK","2018/09/21 19:29:11","新北市新莊區自立街178號","121.455966666667","25.0454566666667","6500500","新莊區"
"242032","348-TH","2018/09/21 19:29:31","新北市新莊區新泰路225巷22弄5號","121.444941666667","25.0392633333333","6500500","新莊區"
"238015","755-BX","2018/09/21 19:29:16","新北市樹林區啟智街131號","121.417433333333","24.9887866666667","6500700","樹林區"
"238023","601-UM","2018/09/21 19:29:19","新北市樹林區三福街42號","121.407938333333","25.016515","6500700","樹林區"
"238019","599-UM","2018/09/21 19:29:21","新北市樹林區東榮街21號","121.417695","24.9833466666667","6500700","樹林區"
"238018","571-TV","2018/09/21 19:29:12","新北市樹林區中華路108號","121.418468333333","24.9808333333333","6500700","樹林區"
"238024","5061-A6","2018/09/21 19:29:14","新北市樹林區中山路三段155巷12號","121.39609","24.972565","6500700","樹林區"
"238022","KEA-2213","2018/09/21 19:29:30","新北市樹林區名園街35號","121.419588333333","24.9789166666667","6500700","樹林區"
"238021","KEA-2539","2018/09/21 19:29:27","新北市樹林區大成路162號","121.381831666667","24.9482116666667","6500700","樹林區"
"238025","303-VK","2018/09/21 19:29:29","新北市樹林區中山路二段230號","121.408833333333","24.9801183333333","6500700","樹林區"
"238017","283-BY","2018/09/21 19:29:30","新北市樹林區光興街78-1號","121.408343333333","25.0023516666667","6500700","樹林區"
"238014","282-BY","2018/09/21 19:29:28","新北市樹林區千歲街6巷26號","121.425756666667","24.9951","6500700","樹林區"
"238020","268-VK","2018/09/21 19:29:11","新北市樹林區俊英街121巷53號","121.423405","25.00936","6500700","樹林區"
"238026","172-UY","2018/09/21 19:29:09","新北市樹林區佳園路二段143號","121.390088333333","24.95764","6500700","樹林區"
"238016","169-UY","2018/09/21 19:29:27","新北市樹林區中山路二段110-6號","121.413763333333","24.98329","6500700","樹林區"
"239007","AAC-297","2018/09/21 19:29:12","新北市鶯歌區大湖路326巷61弄1號","121.345973333333","24.9693716666667","6500800","鶯歌區"
"239006","891-R6","2018/09/21 19:29:12","新北市鶯歌區重慶街29號","121.351665","24.952195","6500800","鶯歌區"
"239001","417-VK","2018/09/21 19:29:13","新北市鶯歌區中山路23號","121.352386666667","24.95704","6500800","鶯歌區"
"239003","360-BY","2018/09/21 19:29:28","新北市鶯歌區忠孝街29號","121.355498333333","24.9554766666667","6500800","鶯歌區"
"239002","359-BY","2018/09/21 19:29:14","新北市鶯歌區大湖路185巷9弄9號","121.344","24.9689416666667","6500800","鶯歌區"
"221008","489-VK","2018/09/21 19:29:24","新北市汐止區康寧街145號","121.621883333333","25.06673","6501100","汐止區"
"221036","130-UY","2018/09/21 19:29:14","新北市汐止區康寧街901號","121.651705","25.075","6501100","汐止區"
"221015","131-UY","2018/09/21 19:29:13","新北市汐止區康寧街901號","121.65179","25.0749983333333","6501100","汐止區"
"221010","269-BY","2018/09/21 19:29:22","新北市汐止區連峰街7號","121.646343333333","25.07731","6501100","汐止區"
"221012","278-VK","2018/09/21 19:29:21","新北市汐止區大同路三段176號","121.674193333333","25.074835","6501100","汐止區"
"221023","279-VK","2018/09/21 19:29:17","新北市汐止區康寧街753巷2弄20號","121.640015","25.0744383333333","6501100","汐止區"
"221027","281-BY","2018/09/21 19:29:19","新北市汐止區忠孝東路9號","121.658311666667","25.0659566666667","6501100","汐止區"
"221029","298-VK","2018/09/21 19:29:10","新北市汐止區汐萬路一段256巷1號","121.651708333333","25.074835","6501100","汐止區"
"221021","299-VK","2018/09/21 19:29:26","新北市汐止區康寧街901號","121.651563333333","25.074995","6501100","汐止區"
"221031","353-TW","2018/09/21 19:29:29","新北市汐止區康寧街901號","121.650808333333","25.0752683333333","6501100","汐止區"
"221035","622-UM","2018/09/21 19:29:11","新北市汐止區康寧街901號","121.650965","25.0750966666667","6501100","汐止區"
"221025","623-UM","2018/09/21 19:29:12","新北市汐止區秀峰路9號","121.659316666667","25.06574","6501100","汐止區"
"221038","646-BX","2018/09/21 19:29:11","新北市汐止區大同路二段348號","121.656776666667","25.0670766666667","6501100","汐止區"
"221002","707-TV","2018/09/21 19:29:17","新北市汐止區大同路一段337巷16弄3號","121.637793333333","25.0600783333333","6501100","汐止區"
"220079","145-BY","2018/09/21 19:29:23","新北市板橋區建國街26號","121.457568333333","25.0166816666667","6500100","板橋區"
"220082","610-BX","2018/09/21 19:29:27","新北市板橋區金門街119-3號","121.432995","24.99178","6500100","板橋區"
"220101","245-BX","2018/09/21 19:29:11","新北市板橋區縣民大道三段127巷21號","121.476793333333","25.023805","6500100","板橋區"
"220098","257-TC","2018/09/21 19:29:27","新北市板橋區民生路三段281巷1號","121.463655","25.029735","6500100","板橋區"
"220056","276-BY","2018/09/21 19:29:27","新北市板橋區國慶路49巷19弄2號","121.459265","24.9962866666667","6500100","板橋區"
"220072","277-BY","2018/09/21 19:29:18","新北市板橋區篤行路二段161巷2號","121.429621666667","24.9875616666667","6500100","板橋區"
"220094","280-UM","2018/09/21 19:29:27","新北市板橋區吳鳳路50巷2號","121.468068333333","25.0304933333333","6500100","板橋區"
"220071","283-VK","2018/09/21 19:29:24","新北市板橋區四川路一段325巷16號","121.459078333333","25.000265","6500100","板橋區"
"220053","285-VK","2018/09/21 19:29:24","新北市板橋區中山路二段275號","121.477765","25.017905","6500100","板橋區"
"220083","286-VK","2018/09/21 19:29:22","新北市板橋區龍興街73巷17號","121.443048333333","25.0024433333333","6500100","板橋區"
"220081","287-VK","2018/09/21 19:29:28","新北市板橋區大觀路一段28巷1弄102號","121.451876666667","25.0063683333333","6500100","板橋區"
"220090","288-VK","2018/09/21 19:29:25","新北市板橋區裕民街70號","121.460953333333","25.0284333333333","6500100","板橋區"
"220061","293-UM","2018/09/21 19:29:29","新北市板橋區中山路二段251號","121.477268333333","25.017775","6500100","板橋區"
"220067","299-UM","2018/09/21 19:29:27","新北市板橋區漢生東路313巷2弄26號","121.472396666667","25.0077266666667","6500100","板橋區"
"220075","303-R5","2018/09/21 19:29:13","新北市板橋區中正路253巷27號","121.454155","25.0177133333333","6500100","板橋區"
"220062","305-R5","2018/09/21 19:29:24","新北市板橋區三民路二段123巷26-3號","121.480403333333","25.0155883333333","6500100","板橋區"
"220092","307-R5","2018/09/21 19:29:17","新北市板橋區光武街4巷23號","121.468205","25.0259116666667","6500100","板橋區"
"220080","461-BY","2018/09/21 19:29:30","新北市板橋區大觀路二段37巷148號","121.449178333333","25.0012983333333","6500100","板橋區"
"220064","486-VK","2018/09/21 19:29:09","新北市板橋區中山路一段24號","121.460255","25.0081566666667","6500100","板橋區"
"220035","560-BX","2018/09/21 19:29:17","新北市板橋區中正路399巷13弄6號","121.453183333333","25.0224183333333","6500100","板橋區"
"220103","561-BX","2018/09/21 19:29:20","新北市板橋區文化路一段210號","121.466366666667","25.0202383333333","6500100","板橋區"
"220084","568-UM","2018/09/21 19:29:30","新北市板橋區篤行路三段玉平巷68弄15號","121.427158333333","24.986255","6500100","板橋區"
"220063","609-BX","2018/09/21 19:29:27","新北市板橋區三民路一段31巷5號","121.479551666667","25.0232016666667","6500100","板橋區"
"220091","637-BX","2018/09/21 19:29:14","新北市板橋區文聖街149巷22號","121.479575","25.028575","6500100","板橋區"
"220057","686-BX","2018/09/21 19:29:12","新北市板橋區和平路69號","121.461226666667","24.9946483333333","6500100","板橋區"
"220077","687-BX","2018/09/21 19:29:20","新北市板橋區僑中二街116巷1號","121.445668333333","25.0062033333333","6500100","板橋區"
"220093","689-BX","2018/09/21 19:29:25","新北市板橋區新海路43號","121.461935","25.0213633333333","6500100","板橋區"
"220054","741-BX","2018/09/21 19:29:15","新北市板橋區忠孝路269號","121.467195","25.00299","6500100","板橋區"
"220102","KEA-2699","2018/09/21 19:29:21","新北市板橋區雙十路二段130巷2弄9號","121.474455","25.0290833333333","6500100","板橋區"
"220055","827-TW","2018/09/21 19:29:22","新北市板橋區重慶路290巷22弄8號","121.462265","24.99927","6500100","板橋區"
"220068","830-TW","2018/09/21 19:29:22","新北市板橋區翠華街6巷70號","121.481766666667","25.0249583333333","6500100","板橋區"
"220096","831-TW","2018/09/21 19:29:14","新北市板橋區萬板路165號","121.47406","25.0237766666667","6500100","板橋區"
"220089","833-TW","2018/09/21 19:29:22","新北市板橋區文化路一段247號","121.464298333333","25.0179916666667","6500100","板橋區"
"220074","895-R6","2018/09/21 19:29:23","新北市板橋區宮口街37號","121.457146666667","25.0107883333333","6500100","板橋區"
"220073","985-R7","2018/09/21 19:29:21","新北市板橋區中正路202號","121.456056666667","25.01796","6500100","板橋區"
"220097","AAC-210","2018/09/21 19:29:26","新北市板橋區漢生西路137號","121.462803333333","25.02161","6500100","板橋區"
"220070","AAC-253","2018/09/21 19:29:25","新北市板橋區四川路一段22號","121.459413333333","25.0063733333333","6500100","板橋區"
"235068","KEA-2873","2018/09/21 19:29:12","新北市中和區連勝街21號","121.498621666667","24.9981416666667","6500300","中和區"
"235061","KEA-2875","2018/09/21 19:29:17","新北市中和區民利街60號","121.479066666667","24.9986783333333","6500300","中和區"
