"lineid","car","time","location","longitude","latitude","cityid","cityname"
"234046","148-BY","2018/09/21 19:38:51","新北市永和區秀朗路二段68號","121.5227","25.0016333333333","6500400","永和區"
"234007","207-UY","2018/09/21 19:39:00","新北市中和區中和路362號","121.510355","25.0018283333333","6500400","永和區"
"234081","298-R6","2018/09/21 19:38:55","新北市永和區國中路104巷8弄6號","121.52487","25.006725","6500400","永和區"
"234038","336-UY","2018/09/21 19:38:52","新北市永和區民樂街31巷6弄1號","121.527948333333","25.0014633333333","6500400","永和區"
"234064","337-UY","2018/09/21 19:38:54","新北市永和區秀朗路一段192巷6弄12號","121.519093333333","25.0023316666667","6500400","永和區"
"234086","338-UY","2018/09/21 19:38:46","新北市永和區永亨路165巷8號","121.526211666667","25.0041516666667","6500400","永和區"
"234070","552-UM","2018/09/21 19:38:51","新北市永和區永和路二段147號","121.51512","25.0126633333333","6500400","永和區"
"234017","745-BX","2018/09/21 19:38:56","新北市永和區永和路二段425巷75弄5號","121.51347","25.01711","6500400","永和區"
"234030","746-BX","2018/09/21 19:38:49","新北市永和區民生路37巷3號","121.523123333333","24.9981333333333","6500400","永和區"
"234054","KEA-2590","2018/09/21 19:38:38","新北市永和區竹林路39巷7號","121.518198333333","25.0144716666667","6500400","永和區"
"234013","KEA-2591","2018/09/21 19:38:47","新北市永和區仁愛路247號","121.508635","25.01181","6500400","永和區"
"234061","AAD-866","2018/09/21 19:38:46","新北市永和區中正路446號","121.51745","25.002865","6500400","永和區"
"234042","862-TW","2018/09/21 19:38:58","新北市永和區中和路573號","121.511663333333","25.00342","6500400","永和區"
"234050","863-TW","2018/09/21 19:38:47","新北市永和區保安路46號","121.510341666667","25.0168416666667","6500400","永和區"
"234026","9371-KE","2018/09/21 19:38:48","新北市永和區中和路501巷7號","121.510361666667","25.0025583333333","6500400","永和區"
"234011","9373-KE","2018/09/21 19:38:43","新北市永和區保順路11號","121.504745","25.0095533333333","6500400","永和區"
"249004","303-UY","2018/09/21 19:38:57","新北市八里區中山路一段268巷5弄40號","121.414343333333","25.1608466666667","6502300","八里區"
"249002","305-UY","2018/09/21 19:38:40","新北市八里區頂寮二街138號","121.449186666667","25.12935","6502300","八里區"
"249003","593-UM","2018/09/21 19:38:55","新北市八里區華峰三街36號","121.3994","25.14613","6502300","八里區"
"248014","025-BX","2018/09/21 19:38:45","新北市五股區五福路100巷23號","121.433203333333","25.090865","6501500","五股區"
"248016","026-BX","2018/09/21 19:38:53","新北市五股區成泰路四段22巷43號","121.45612","25.109175","6501500","五股區"
"248008","095-VK","2018/09/21 19:38:45","新北市五股區四維路118巷10弄1號","121.468853333333","25.0743383333333","6501500","五股區"
"248018","225-UY","2018/09/21 19:38:45","新北市五股區外寮路4-3號","121.424588333333","25.0771683333333","6501500","五股區"
"248012","247-BX","2018/09/21 19:38:42","新北市五股區成泰路二段65號","121.437983333333","25.0836333333333","6501500","五股區"
"248010","272-BY","2018/09/21 19:38:53","新北市五股區自強路90巷18號","121.431915","25.0722483333333","6501500","五股區"
"248004","677-BX","2018/09/21 19:39:01","新北市五股區成泰路二段38號","121.437065","25.08134","6501500","五股區"
"248002","678-BX","2018/09/21 19:39:00","新北市五股區成泰路三段577巷75號","121.449923333333","25.1036666666667","6501500","五股區"
"234077","969-R7","2018/09/21 19:38:58","新北市永和區民族街67巷25號","121.519328333333","24.9971816666667","6500400","永和區"
"234074","AAC-211","2018/09/21 19:38:56","新北市永和區竹林路225巷11號","121.521461666667","25.00857","6500400","永和區"
"234067","AAC-212","2018/09/21 19:38:56","新北市永和區永貞路418號","121.508831666667","25.0079866666667","6500400","永和區"
"234003","AAC-295","2018/09/21 19:39:01","新北市永和區自由街76號","121.513341666667","25.0053166666667","6500400","永和區"
"244023","069-UM","2018/09/21 19:38:50","新北市林口區民權路179號","121.374415","25.0849116666667","6501700","林口區"
"243013","AAD-798","2018/09/21 19:38:48","新北市泰山區應化街7號","121.42387","25.0437083333333","6501600","泰山區"
"243009","297-R6","2018/09/21 19:38:50","新北市泰山區美寧街64號","121.430993333333","25.0646633333333","6501600","泰山區"
"243016","KEA-2801","2018/09/21 19:38:43","新北市泰山區明志路三段222號","121.42142","25.035975","6501600","泰山區"
"243015","421-VK","2018/09/21 19:38:50","新北市泰山區明志路二段237巷19號","121.427953333333","25.0480466666667","6501600","泰山區"
"243011","KEA-2215","2018/09/21 19:38:57","新北市泰山區貴子路67巷2號","121.430936666667","25.0404716666667","6501600","泰山區"
"243010","KEA-2216","2018/09/21 19:38:43","新北市泰山區明志路二段5號","121.430265","25.0535916666667","6501600","泰山區"
"243012","646-TV","2018/09/21 19:38:55","新北市泰山區中港西路408號","121.434356666667","25.0544066666667","6501600","泰山區"
"243014","680-BX","2018/09/21 19:38:52","新北市泰山區泰林路二段33-8號","121.435093333333","25.056485","6501600","泰山區"
"222003","436-BY","2018/09/21 19:30:07","新北市深坑區深南路51-1號","121.62125","25.00987","6501800","深坑區"
"222002","659-BX","2018/09/21 19:38:43","新北市深坑區北深路一段177號","121.632571666667","25.0108483333333","6501800","深坑區"
"231041","002-UM","2018/09/21 19:38:50","新北市新店區中正路485號","121.533866666667","24.982015","6500600","新店區"
"231059","046-UY","2018/09/21 19:38:54","新北市新店區安和路三段109號","121.517755","24.9845733333333","6500600","新店區"
"231040","047-UY","2018/09/21 19:38:52","新北市新店區中正路75巷71號","121.54312","24.9688666666667","6500600","新店區"
"231044","106-UY","2018/09/21 19:38:45","新北市新店區民權路27號","121.541041666667","24.98261","6500600","新店區"
"231046","107-UY","2018/09/21 19:38:51","新北市新店區自由街13號","121.53551","24.9748916666667","6500600","新店區"
"231053","108-UY","2018/09/21 19:38:46","新北市新店區廣興路15號","121.541835","24.912085","6500600","新店區"
"231048","187-VK","2018/09/21 19:38:41","新北市新店區五峰路63巷8弄44號","121.548031666667","24.9685766666667","6500600","新店區"
"231054","KEA-2219","2018/09/21 19:38:52","新北市新店區文中路45號","121.539615","24.9566233333333","6500600","新店區"
"231057","256-BX","2018/09/21 19:38:49","新北市新店區橘園一路11號","121.54798","24.9339966666667","6500600","新店區"
"231042","268-BY","2018/09/21 19:38:53","新北市新店區中興路一段174號","121.542993333333","24.9645633333333","6500600","新店區"
"231051","278-BY","2018/09/21 19:38:56","新北市新店區中央四街21號","121.529126666667","24.9741616666667","6500600","新店區"
"231050","AAD-862","2018/09/21 19:38:45","新北市新店區秀水路11號","121.554826666667","24.9546733333333","6500600","新店區"
"231058","3713-VJ","2018/09/21 19:38:52","新北市新店區華中街26號","121.540093333333","24.970205","6500600","新店區"
"231066","4716-K9","2018/09/21 19:38:56","新北市新店區安康路三段355巷45號","121.485043333333","24.94941","6500600","新店區"
"231056","4715-K9","2018/09/21 19:38:55","新北市新店區安民街115巷16號","121.515213333333","24.968295","6500600","新店區"
"231067","4772-VM","2018/09/21 19:38:56","新北市新店區薏仁坑路自強巷6號","121.49663","24.9585133333333","6500600","新店區"
"231065","512-UM","2018/09/21 19:38:48","新北市新店區安祥路109巷6弄23號","121.47549","24.957875","6500600","新店區"
"231049","513-UM","2018/09/21 19:38:46","新北市新店區大豐路67號","121.539471666667","24.9795666666667","6500600","新店區"
"231063","616-UM","2018/09/21 19:38:45","新北市新店區達觀路16號","121.503073333333","24.9410466666667","6500600","新店區"
"231045","617-UM","2018/09/21 19:38:59","新北市新店區北宜路二段417號","121.560065","24.95456","6500600","新店區"
"231061","619-UM","2018/09/21 19:38:51","新北市新店區安民街11號","121.515251666667","24.9645183333333","6500600","新店區"
"231064","719-UM","2018/09/21 19:33:52","新北市新店區安和路一段16號","121.517265","24.965125","6500600","新店區"
"231062","720-UM","2018/09/21 19:38:44","新北市新店區碧潭路2號","121.534975","24.9563466666667","6500600","新店區"
"231060","897-TW","2018/09/21 19:38:56","新北市新店區安康路二段161號","121.510231666667","24.959395","6500600","新店區"
"231043","899-TW","2018/09/21 19:38:56","新北市新店區中正路114號","121.542448333333","24.9710183333333","6500600","新店區"
"231055","AKT-0513","2018/09/21 19:38:44","新北市新店區新生街1號","121.540341666667","24.9656166666667","6500600","新店區"
"241011","013-R5","2018/09/21 19:38:55","新北市三重區秀江街176號","121.498006666667","25.0716883333333","6500200","三重區"
"241028","022-UY","2018/09/21 19:38:57","新北市三重區中正南路163號","121.4938","25.056065","6500200","三重區"
"241031","061-VK","2018/09/21 19:38:58","新北市三重區重新路四段248號","121.486121666667","25.053335","6500200","三重區"
"241015","062-VK","2018/09/21 19:38:55","新北市三重區福德北路26-3號","121.502031666667","25.0648916666667","6500200","三重區"
"241017","063-VK","2018/09/21 19:38:56","新北市三重區大同北路182號","121.491563333333","25.0658983333333","6500200","三重區"
"241026","066-VK","2018/09/21 19:38:48","新北市三重區文化南路65巷13號","121.49966","25.0608616666667","6500200","三重區"
"241003","091-VK","2018/09/21 19:38:57","新北市三重區五華街87巷66-1號","121.493876666667","25.084735","6500200","三重區"
"241009","267-UM","2018/09/21 19:38:52","新北市三重區三和路四段406巷10號","121.480608333333","25.0794383333333","6500200","三重區"
"241032","269-UM","2018/09/21 19:38:46","新北市三重區重陽路一段60巷73號","121.484266666667","25.0582233333333","6500200","三重區"
"241013","270-UM","2018/09/21 19:38:43","新北市三重區仁賢街10號","121.495815","25.0746416666667","6500200","三重區"
"241025","271-UM","2018/09/21 19:38:51","新北市三重區忠孝路三段93巷10-1號","121.478778333333","25.06489","6500200","三重區"
"241007","398-BY","2018/09/21 19:38:43","新北市三重區仁美街64號","121.486561666667","25.0783266666667","6500200","三重區"
"241035","KEA-2210","2018/09/21 19:38:49","新北市三重區正義北路104號","121.497055","25.065","6500200","三重區"
"241020","478-VK","2018/09/21 19:38:43","新北市三重區自強路三段93號","121.487521666667","25.0750666666667","6500200","三重區"
"241014","543-UM","2018/09/21 19:38:55","新北市三重區龍濱路149號","121.502868333333","25.069265","6500200","三重區"
"241023","545-UM","2018/09/21 19:38:43","新北市三重區忠孝路三段99巷21號","121.479378333333","25.0644283333333","6500200","三重區"
"241001","547-UM","2018/09/21 19:38:48","新北市三重區仁愛街315巷24號","121.493531666667","25.0798666666667","6500200","三重區"
"241019","KEA-2593","2018/09/21 19:38:43","新北市三重區安慶街297巷3弄2號","121.488581666667","25.068175","6500200","三重區"
"241006","AAD-863","2018/09/21 19:38:44","新北市三重區車路頭街109巷7號","121.484851666667","25.0746816666667","6500200","三重區"
"241030","743-BX","2018/09/21 19:38:47","新北市三重區中正南路287號","121.492798333333","25.052095","6500200","三重區"
"241022","887-TS","2018/09/21 19:38:52","新北市三重區中正北路168-1號","121.48411","25.066035","6500200","三重區"
"241012","941-UM","2018/09/21 19:38:49","新北市三重區河邊北街256巷33號","121.500551666667","25.0759833333333","6500200","三重區"
"241029","942-UM","2018/09/21 19:38:59","新北市三重區同安街145號","121.493125","25.0560616666667","6500200","三重區"
"235066","003-UY","2018/09/21 19:38:50","新北市中和區景新街135號","121.505825","24.9971133333333","6500300","中和區"
"235064","005-UY","2018/09/21 19:38:52","新北市中和區南山路127巷5號","121.502661666667","24.9973216666667","6500300","中和區"
"235063","006-UY","2018/09/21 19:38:51","新北市中和區連城路203巷10弄6號","121.494745","24.99726","6500300","中和區"
"235056","096-UM","2018/09/21 19:38:43","新北市中和區員山路581巷31弄22號","121.476576666667","25.0103966666667","6500300","中和區"
"235039","097-UM","2018/09/21 19:38:38","新北市中和區景平路148號","121.518393333333","24.9918566666667","6500300","中和區"
"235065","098-UM","2018/09/21 19:38:56","新北市中和區永和路7號","121.49931","25.0039333333333","6500300","中和區"
"235040","150-BY","2018/09/21 19:38:46","新北市中和區安和路43號","121.509621666667","24.9948566666667","6500300","中和區"
"235058","151-BY","2018/09/21 19:38:53","新北市中和區員山路132巷24號","121.482355","24.99622","6500300","中和區"
"235055","183-VK","2018/09/21 19:38:54","新北市中和區中山路三段181巷2號","121.472815","25.00596","6500300","中和區"
"235038","185-VK","2018/09/21 19:38:47","新北市中和區自立路141巷3號","121.52245","24.9935883333333","6500300","中和區"
"235049","186-VK","2018/09/21 19:38:40","新北市中和區景新街269號","121.50907","24.9938966666667","6500300","中和區"
"235067","255-BX","2018/09/21 19:38:42","新北市中和區新生街186巷1弄2號","121.48324","24.9996566666667","6500300","中和區"
"235044","293-VK","2018/09/21 19:38:54","新北市中和區興南路一段91號","121.5097","24.98873","6500300","中和區"
"235072","301-VK","2018/09/21 19:38:59","新北市中和區中正路432巷34號","121.490936666667","24.9958666666667","6500300","中和區"
"235043","352-BY","2018/09/21 19:38:41","新北市中和區安樂路8-1號","121.511698333333","24.9917433333333","6500300","中和區"
"235042","KEA-2878","2018/09/21 19:38:51","新北市中和區景安路79巷37弄16號","121.508065","24.9961683333333","6500300","中和區"
"235050","4979-A6","2018/09/21 19:38:45","新北市中和區中正路545巷1號","121.487356666667","24.9935333333333","6500300","中和區"
"235070","558-UM","2018/09/21 19:38:39","新北市中和區景平路533號","121.498873333333","24.9991833333333","6500300","中和區"
"235045","565-BX","2018/09/21 19:38:41","新北市中和區景新街448號","121.513381666667","24.9878416666667","6500300","中和區"
"235054","640-BX","2018/09/21 19:38:58","新北市中和區國光街107巷2弄32號","121.469363333333","24.9991033333333","6500300","中和區"
"235047","732-UM","2018/09/21 19:38:49","新北市中和區南山路283巷8號","121.504635","24.992365","6500300","中和區"
"235046","733-UM","2018/09/21 19:38:57","新北市中和區忠孝街126號","121.512048333333","24.986385","6500300","中和區"
"235071","783-BX","2018/09/21 19:38:57","新北市中和區中正路839巷29號","121.4836","25.0023683333333","6500300","中和區"
"235057","801-TS","2018/09/21 19:38:42","新北市中和區員山路202號","121.481346666667","25.0006466666667","6500300","中和區"
"235041","802-TS","2018/09/21 19:38:45","新北市中和區中和路460號","121.51223","25.0037766666667","6500300","中和區"
"235052","805-TS","2018/09/21 19:38:42","新北市中和區華新街206巷11號","121.50627","24.9824016666667","6500300","中和區"
"235048","896-TW","2018/09/21 19:38:43","新北市中和區忠孝街1巷2-1號","121.509208333333","24.9831433333333","6500300","中和區"
"235053","900-TW","2018/09/21 19:38:45","新北市中和區國光街215巷8弄3號","121.466523333333","25.0013766666667","6500300","中和區"
"235060","911-UM","2018/09/21 19:38:49","新北市中和區員山路314巷7弄4號","121.482093333333","25.0030266666667","6500300","中和區"
"235051","157-BY","2018/09/21 19:38:42","新北市中和區中正路2號","121.503331666667","24.9938016666667","6500300","中和區"
"235037","AAC-213","2018/09/21 19:38:50","新北市中和區秀朗路三段50巷4弄3號","121.52566","24.9956","6500300","中和區"
"235059","AAC-215","2018/09/21 19:38:55","新北市中和區錦和路203巷7號","121.491181666667","24.990465","6500300","中和區"
"220065","072-UY","2018/09/21 19:38:51","新北市板橋區民族路270巷37號","121.469225","25.006","6500100","板橋區"
"220086","073-UY","2018/09/21 19:38:47","新北市板橋區林園街4號","121.454235","25.0094433333333","6500100","板橋區"
"220106","075-UY","2018/09/21 19:38:24","新北市板橋區文化路二段548巷27號","121.476758333333","25.033705","6500100","板橋區"
"220069","AAD-861","2018/09/21 19:38:55","新北市板橋區貴興路106巷16弄2號","121.454731666667","25.0034683333333","6500100","板橋區"
"247008","336-TH","2018/09/21 19:38:51","新北市蘆洲區中山一路176號","121.474116666667","25.0811266666667","6501400","蘆洲區"
"247004","002-UY","2018/09/21 19:38:42","新北市蘆洲區長安街98巷21號","121.46303","25.0818833333333","6501400","蘆洲區"
"226004","205-ST","2018/09/21 19:38:40","新北市平溪區靜安路三段392巷3號","121.784121666667","25.0495016666667","6502400","平溪區"
"228001","670-TC","2018/09/21 19:38:47","新北市貢寮區真理里延平街49號","121.924653333333","25.0556633333333","6502600","貢寮區"
"228003","828-UM","2018/09/21 19:38:47","新北市貢寮區真理里美艷山街31號","121.923298333333","25.0689916666667","6502600","貢寮區"
"224010","AGQ-8101","2018/09/21 19:32:59","新北市瑞芳區基山街34號","121.844906666667","25.1083716666667","6501200","瑞芳區"
"224002","639-TC","2018/09/21 19:38:54","新北市瑞芳區民享新村22號","121.81698","25.10557","6501200","瑞芳區"
"227011","642-TC","2018/09/21 19:38:51","新北市雙溪區新基里新基北街22號","121.86725","25.03893","6502500","雙溪區"
"227003","400-TW","2018/09/21 19:38:53","新北市雙溪區雙溪里太平路62號","121.865043333333","25.0358316666667","6502500","雙溪區"
"222001","KEA-2212","2018/09/21 19:38:57","新北市深坑區深坑街152號","121.612976666667","25.0014266666667","6501800","深坑區"
"208002","KEA-2872","2018/09/21 19:38:52","新北市金山區三民街13號","121.634655","25.2227083333333","6502700","金山區"
"208003","665-BX","2018/09/21 19:38:46","新北市金山區仁愛路1巷1號","121.638561666667","25.22008","6502700","金山區"
"208001","761-BX","2018/09/21 19:38:53","新北市金山區六股里下六股59-1號","121.615468333333","25.2221833333333","6502700","金山區"
"251009","008-UM","2018/09/21 19:38:41","新北市淡水區中山北路一段198巷5號","121.445093333333","25.17932","6501000","淡水區"
"251005","010-UM","2018/09/21 19:38:40","新北市淡水區原德路108巷1號","121.443481666667","25.1737383333333","6501000","淡水區"
"251001","011-UM","2018/09/21 19:38:54","新北市淡水區民權路49號","121.459756666667","25.1392483333333","6501000","淡水區"
"251008","181-VK","2018/09/21 19:39:01","新北市淡水區中正路32巷2號","121.430915","25.175315","6501000","淡水區"
"251010","413-VK","2018/09/21 19:38:58","新北市淡水區新市三路一段336號","121.430356666667","25.19616","6501000","淡水區"
"251012","441-VK","2018/09/21 19:38:46","新北市淡水區中山北路三段164號","121.44568","25.19655","6501000","淡水區"
"251006","561-UM","2018/09/21 19:38:55","新北市淡水區中山北路一段207巷74號","121.44133","25.17932","6501000","淡水區"
"251007","577-R6","2018/09/21 19:38:58","新北市淡水區中正東路一段111巷1號","121.454146666667","25.1600983333333","6501000","淡水區"
"251011","650-BX","2018/09/21 19:39:00","新北市淡水區中正東路二段5巷31號","121.460418333333","25.158715","6501000","淡水區"
"207003","550-UM","2018/09/21 19:38:44","新北市萬里區大鵬里下社1號","121.647796666667","25.215125","6502800","萬里區"
"207004","225-TW","2018/09/21 19:38:48","新北市萬里區萬里里瑪鋉路21號","121.687246666667","25.175365","6502800","萬里區"
"252001","292-VK","2018/09/21 19:38:47","新北市三芝區公正街66號","121.499828333333","25.257495","6502100","三芝區"
"252002","AAC-283","2018/09/21 19:38:50","新北市三芝區中正路一段18巷56號","121.504303333333","25.2586833333333","6502100","三芝區"
"237004","KEA-2597","2018/09/21 19:38:57","新北市三峽區有木314號","121.422008333333","24.864835","6500900","三峽區"
"237007","153-BY","2018/09/21 19:38:42","新北市三峽區二鬮路136巷121號","121.356016666667","24.91043","6500900","三峽區"
"237009","210-TH","2018/09/21 19:38:57","新北市三峽區中園街117號","121.367626666667","24.9241616666667","6500900","三峽區"
"237013","252-BX","2018/09/21 19:38:40","新北市三峽區介壽路三段1號","121.39524","24.9361166666667","6500900","三峽區"
"237012","275-BY","2018/09/21 19:38:50","新北市三峽區光明路36號","121.37377","24.9305933333333","6500900","三峽區"
"237008","302-VK","2018/09/21 19:38:41","新北市三峽區大同路154號","121.373143333333","24.926955","6500900","三峽區"
"237006","5529-G3","2018/09/21 19:38:57","新北市三峽區中正路一段336巷15弄2號","121.369961666667","24.9249533333333","6500900","三峽區"
"237015","649-BX","2018/09/21 19:38:42","新北市三峽區溪東路307號","121.409783333333","24.93085","6500900","三峽區"
"237005","AKY-6261","2018/09/21 19:38:36","新北市三峽區中山路219巷5號","121.36319","24.93642","6500900","三峽區"
"236069","105-UM","2018/09/21 19:38:47","新北市土城區金城路2段39巷3-1號","121.44969","24.979185","6501300","土城區"
"236042","107-UM","2018/09/21 19:38:48","新北市土城區學士路12巷2號","121.453638333333","24.9830083333333","6501300","土城區"
"236079","166-UM","2018/09/21 19:38:51","新北市土城區溪頭路8號","121.413415","24.9557166666667","6501300","土城區"
"236030","253-BX","2018/09/21 19:38:47","新北市土城區福祥街97號","121.441403333333","24.9813366666667","6501300","土城區"
"236026","269-VK","2018/09/21 19:38:54","新北市土城區中央路二段61巷26號","121.443286666667","24.9787083333333","6501300","土城區"
"236039","271-VK","2018/09/21 19:38:45","新北市土城區青雲路255號","121.459156666667","24.9808933333333","6501300","土城區"
"236020","401-BY","2018/09/21 19:38:58","新北市土城區峰廷街2號","121.468593333333","24.9877916666667","6501300","土城區"
"236014","752-BX","2018/09/21 19:38:54","新北市土城區廣福街92巷2號","121.456561666667","24.9911533333333","6501300","土城區"
"236048","913-UM","2018/09/21 19:38:51","新北市土城區明德路一段97號","121.465705","24.98291","6501300","土城區"
"236063","915-UM","2018/09/21 19:38:51","新北市土城區延平街31號","121.46802","24.99176","6501300","土城區"
"236055","AAC-216","2018/09/21 19:38:50","新北市土城區學府路一段72號","121.456643333333","24.98829","6501300","土城區"
"242056","751-BX","2018/09/21 19:38:46","新北市新莊區瓊林南路61-71號","121.439943333333","25.0183133333333","6500500","新莊區"
"242048","497-BY","2018/09/21 19:38:56","新北市新莊區民安路100號","121.42396","25.0260433333333","6500500","新莊區"
"242009","413-TV","2018/09/21 19:38:42","新北市新莊區新泰路357巷3弄57號","121.441863333333","25.0395516666667","6500500","新莊區"
"242023","362-BY","2018/09/21 19:38:44","新北市新莊區思源路70號","121.459968333333","25.0444866666667","6500500","新莊區"
"242034","135-UY","2018/09/21 19:38:38","新北市新莊區仁愛街11號","121.444201666667","25.035275","6500500","新莊區"
"242013","173-VK","2018/09/21 19:39:00","新北市新莊區中誠街147巷8號","121.448746666667","25.0470033333333","6500500","新莊區"
"242032","348-TH","2018/09/21 19:39:01","新北市新莊區公園一路142號","121.44644","25.0382316666667","6500500","新莊區"
"242005","349-TH","2018/09/21 19:38:55","新北市新莊區化成路29巷34號","121.46378","25.043925","6500500","新莊區"
"242021","350-TH","2018/09/21 19:38:51","新北市新莊區三和路12-10號","121.442035","25.03681","6500500","新莊區"
"238015","755-BX","2018/09/21 19:38:56","新北市樹林區育英街80號","121.420741666667","24.9897266666667","6500700","樹林區"
"238023","601-UM","2018/09/21 19:38:59","新北市樹林區三福街121巷11號","121.406058333333","25.015725","6500700","樹林區"
"238019","599-UM","2018/09/21 19:38:53","新北市樹林區中華路190-16號","121.411838333333","24.98055","6500700","樹林區"
"238024","5061-A6","2018/09/21 19:38:57","新北市樹林區佳園路一段72巷7號","121.392963333333","24.970045","6500700","樹林區"
"238022","KEA-2213","2018/09/21 19:38:59","新北市樹林區名園街59號","121.42002","24.978065","6500700","樹林區"
"238021","KEA-2539","2018/09/21 19:38:47","新北市樹林區佳園路三段147號","121.385745","24.9492533333333","6500700","樹林區"
"238025","303-VK","2018/09/21 19:38:49","新北市樹林區中山路一段106號","121.423056666667","24.99093","6500700","樹林區"
"238017","283-BY","2018/09/21 19:38:50","新北市樹林區保安街二段197巷16號","121.413865","25.0028516666667","6500700","樹林區"
"238014","282-BY","2018/09/21 19:38:48","新北市樹林區保安二街40號","121.424656666667","24.9950066666667","6500700","樹林區"
"238020","268-VK","2018/09/21 19:38:51","新北市樹林區千歲街186號","121.429398333333","25.00095","6500700","樹林區"
"238026","172-UY","2018/09/21 19:38:49","新北市樹林區佳園路三段36號","121.387916666667","24.9536233333333","6500700","樹林區"
"239006","891-R6","2018/09/21 19:38:52","新北市鶯歌區文化路52號","121.35649","24.95479","6500800","鶯歌區"
"239002","359-BY","2018/09/21 19:38:54","新北市鶯歌區中正一路350號","121.357868333333","24.9570133333333","6500800","鶯歌區"
"221008","489-VK","2018/09/21 19:38:45","新北市汐止區康寧街141巷22弄2號","121.621348333333","25.068075","6501100","汐止區"
"221036","130-UY","2018/09/21 19:38:53","新北市汐止區康寧街901號","121.651638333333","25.0749266666667","6501100","汐止區"
"221015","131-UY","2018/09/21 19:38:53","新北市汐止區康寧街901號","121.65177","25.0749883333333","6501100","汐止區"
"221010","269-BY","2018/09/21 19:38:42","新北市汐止區汐萬路二段23巷1號","121.649568333333","25.0808016666667","6501100","汐止區"
"221012","278-VK","2018/09/21 19:38:41","新北市汐止區汐平路一段5號","121.68078","25.071305","6501100","汐止區"
"221023","279-VK","2018/09/21 19:38:58","新北市汐止區中興路284號","121.62843","25.069375","6501100","汐止區"
"221032","280-BY","2018/09/21 19:38:57","新北市汐止區新台五路一段131號","121.652226666667","25.06195","6501100","汐止區"
"221027","281-BY","2018/09/21 19:38:39","新北市汐止區忠孝東路9號","121.658335","25.0660016666667","6501100","汐止區"
"221029","298-VK","2018/09/21 19:38:50","新北市汐止區康寧街901號","121.651535","25.0750416666667","6501100","汐止區"
"221021","299-VK","2018/09/21 19:38:46","新北市汐止區大同路二段173號","121.65164","25.064435","6501100","汐止區"
"221031","353-TW","2018/09/21 19:38:49","新北市汐止區康寧街901號","121.650848333333","25.0752683333333","6501100","汐止區"
"221035","622-UM","2018/09/21 19:38:51","新北市汐止區康寧街901號","121.65093","25.0751166666667","6501100","汐止區"
"221025","623-UM","2018/09/21 19:38:53","新北市汐止區福安街20巷5號","121.662513333333","25.06486","6501100","汐止區"
"221038","646-BX","2018/09/21 19:38:51","新北市汐止區忠孝東路235號","121.662543333333","25.067255","6501100","汐止區"
"221002","707-TV","2018/09/21 19:38:57","新北市汐止區大同路一段219巷27號","121.633271666667","25.0583583333333","6501100","汐止區"
"220079","145-BY","2018/09/21 19:38:44","新北市板橋區復興街119號","121.460471666667","25.0180266666667","6500100","板橋區"
"220082","610-BX","2018/09/21 19:38:56","新北市板橋區大觀路三段212巷72號","121.429658333333","24.9933983333333","6500100","板橋區"
"220101","245-BX","2018/09/21 19:38:51","新北市板橋區縣民大道三段33巷6弄1號","121.474028333333","25.0212266666667","6500100","板橋區"
"220098","257-TC","2018/09/21 19:38:40","新北市板橋區四維路269巷62號","121.460771666667","25.0273066666667","6500100","板橋區"
"220056","276-BY","2018/09/21 19:38:40","新北市板橋區四川路二段47巷2弄1號","121.454025","24.9949033333333","6500100","板橋區"
"220072","277-BY","2018/09/21 19:38:58","新北市板橋區金門街253巷16弄8號","121.432641666667","24.9879983333333","6500100","板橋區"
"220094","280-UM","2018/09/21 19:38:57","新北市板橋區銘傳街98號","121.469698333333","25.03165","6500100","板橋區"
"220071","283-VK","2018/09/21 19:38:45","新北市板橋區信義路279巷13號","121.462921666667","24.9899366666667","6500100","板橋區"
"220053","285-VK","2018/09/21 19:38:44","新北市板橋區民享街62號","121.476325","25.0152583333333","6500100","板橋區"
"220083","286-VK","2018/09/21 19:38:42","新北市板橋區龍興街71巷9號","121.443411666667","25.0020016666667","6500100","板橋區"
"220081","287-VK","2018/09/21 19:38:48","新北市板橋區大觀路一段29巷133弄2號","121.450391666667","25.0053933333333","6500100","板橋區"
"220090","288-VK","2018/09/21 19:38:45","新北市板橋區新海路411號","121.458436666667","25.0270983333333","6500100","板橋區"
"220061","293-UM","2018/09/21 19:38:44","新北市板橋區中山路二段147號","121.475543333333","25.0167583333333","6500100","板橋區"
"220067","299-UM","2018/09/21 19:39:00","新北市板橋區長安街138巷2弄5號","121.4726","25.009595","6500100","板橋區"
"220075","303-R5","2018/09/21 19:38:52","新北市板橋區大勇街12號","121.454706666667","25.0174016666667","6500100","板橋區"
"220062","305-R5","2018/09/21 19:38:50","新北市板橋區三民路二段29巷9弄38號","121.480795","25.01809","6500100","板橋區"
"220092","307-R5","2018/09/21 19:38:57","新北市板橋區自由路7號","121.465401666667","25.02256","6500100","板橋區"
"220080","461-BY","2018/09/21 19:38:47","新北市板橋區大觀路二段37巷326號","121.449818333333","25.0024333333333","6500100","板橋區"
"220064","486-VK","2018/09/21 19:38:49","新北市板橋區民權路45號","121.462086666667","25.011405","6500100","板橋區"
"220035","560-BX","2018/09/21 19:38:57","新北市板橋區金華街113號","121.459086666667","25.020895","6500100","板橋區"
"220103","561-BX","2018/09/21 19:38:59","新北市板橋區文化路一段296號","121.467685","25.0215133333333","6500100","板橋區"
"220084","568-UM","2018/09/21 19:38:45","新北市板橋區滿平二街2巷1弄24號","121.424918333333","24.986925","6500100","板橋區"
"220063","609-BX","2018/09/21 19:38:47","新北市板橋區林森街3巷1弄6號","121.482623333333","25.0235916666667","6500100","板橋區"
"220091","637-BX","2018/09/21 19:38:54","新北市板橋區懷德街139巷20弄6-2號","121.480048333333","25.03072","6500100","板橋區"
"220057","686-BX","2018/09/21 19:38:52","新北市板橋區和平路安樂巷40號","121.461826666667","24.993275","6500100","板橋區"
"220077","687-BX","2018/09/21 19:38:40","新北市板橋區僑中一街88號","121.447195","25.0116933333333","6500100","板橋區"
"220093","689-BX","2018/09/21 19:38:40","新北市板橋區新海路405號","121.458458333333","25.0267683333333","6500100","板橋區"
"220054","741-BX","2018/09/21 19:38:55","新北市板橋區忠孝路忠義巷15弄92-2號","121.465381666667","25.0055666666667","6500100","板橋區"
"220102","KEA-2699","2018/09/21 19:38:58","新北市板橋區文化路二段410巷42號","121.474563333333","25.03042","6500100","板橋區"
"220055","827-TW","2018/09/21 19:38:50","新北市板橋區國慶路149巷5號","121.461203333333","24.9968916666667","6500100","板橋區"
"220068","830-TW","2018/09/21 19:38:44","新北市板橋區中山路二段581-2號","121.484596666667","25.022145","6500100","板橋區"
"220096","831-TW","2018/09/21 19:38:55","新北市板橋區民生路二段240巷65號","121.47019","25.022925","6500100","板橋區"
"220089","833-TW","2018/09/21 19:38:42","新北市板橋區漢生西路89巷4弄11號","121.46135","25.01859","6500100","板橋區"
"220074","895-R6","2018/09/21 19:38:43","新北市板橋區大東街55號","121.45652","25.0082616666667","6500100","板橋區"
"220073","985-R7","2018/09/21 19:38:41","新北市板橋區國光路49巷17號","121.458995","25.0187833333333","6500100","板橋區"
"220097","AAC-210","2018/09/21 19:38:46","新北市板橋區幸福路32巷4號","121.46165","25.02056","6500100","板橋區"
"220070","AAC-253","2018/09/21 19:38:59","新北市板橋區民族路232號","121.468933333333","25.00729","6500100","板橋區"
"235068","KEA-2873","2018/09/21 19:38:42","新北市中和區連勝街57巷20號","121.498085","24.99644","6500300","中和區"
"235061","KEA-2875","2018/09/21 19:38:47","新北市中和區民安街4號","121.480833333333","25.001","6500300","中和區"
