"lineid","car","time","location","longitude","latitude","cityid","cityname"
"234030","746-BX","2018/09/21 20:48:47","新北市五股區中興路三段2-3號","121.452966666667","25.0745916666667","6500400","永和區"
"234074","AAC-211","2018/09/21 20:48:56","新北市永和區環河東路二段20號","121.522286666667","25.013165","6500400","永和區"
"222003","436-BY","2018/09/21 20:48:54","新北市深坑區文山路三段48-1號","121.609941666667","24.998545","6501800","深坑區"
"222002","659-BX","2018/09/21 20:48:43","新北市深坑區北深路三段93巷73號","121.603443333333","25.0011966666667","6501800","深坑區"
"231059","046-UY","2018/09/21 20:48:54","新北市新店區僑愛一路1號","121.499886666667","24.9447983333333","6500600","新店區"
"231040","047-UY","2018/09/21 20:48:52","新北市新店區中正路272號","121.538971666667","24.9736533333333","6500600","新店區"
"231044","106-UY","2018/09/21 20:48:45","新北市新店區自由街2-1號","121.535761666667","24.9755666666667","6500600","新店區"
"231053","108-UY","2018/09/21 20:48:46","新北市新店區新烏路161號","121.545346666667","24.9328916666667","6500600","新店區"
"231048","187-VK","2018/09/21 20:48:41","新北市新店區寶元路一段109號","121.545696666667","24.98314","6500600","新店區"
"231054","KEA-2219","2018/09/21 20:48:52","新北市新店區北新路一段96巷23號","121.543051666667","24.96875","6500600","新店區"
"231042","268-BY","2018/09/21 20:48:53","新北市新店區寶高路120巷1號","121.554568333333","24.976075","6500600","新店區"
"231051","278-BY","2018/09/21 20:48:56","新北市新店區溪園路75號","121.52934","24.987285","6500600","新店區"
"231050","AAD-862","2018/09/21 20:48:45","新北市新店區中正路247巷24弄1號","121.538198333333","24.9720316666667","6500600","新店區"
"231058","3713-VJ","2018/09/21 20:48:43","新北市新店區安興路83-8號","121.515326666667","24.97579","6500600","新店區"
"231066","4716-K9","2018/09/21 20:48:56","新北市新店區安興路105-1號","121.514681666667","24.977745","6500600","新店區"
"231056","4715-K9","2018/09/21 20:48:55","新北市新店區安民街251巷1號","121.516125","24.9730233333333","6500600","新店區"
"231067","4772-VM","2018/09/21 20:48:56","新北市新店區安華路28-1號","121.519673333333","24.960865","6500600","新店區"
"231065","512-UM","2018/09/21 20:48:48","新北市新店區安祥路104巷6弄39號","121.482811666667","24.963125","6500600","新店區"
"231049","513-UM","2018/09/21 20:48:44","新北市新店區華潭街52號","121.529163333333","24.955185","6500600","新店區"
"231063","616-UM","2018/09/21 20:48:45","新北市新店區如意街8號","121.494738333333","24.9481983333333","6500600","新店區"
"231045","617-UM","2018/09/21 20:48:59","新北市新店區北新路一段99號","121.539048333333","24.962125","6500600","新店區"
"231061","619-UM","2018/09/21 20:48:51","新北市新店區新和街79號","121.520656666667","24.9861516666667","6500600","新店區"
"231068","718-UY","2018/09/21 20:48:54","新北市新店區中興路三段220巷19號","121.544973333333","24.9832283333333","6500600","新店區"
"231064","719-UM","2018/09/21 20:48:52","新北市新店區安民街365巷6號","121.516203333333","24.9757316666667","6500600","新店區"
"231062","720-UM","2018/09/21 20:48:44","新北市新店區和成街17-1號","121.48763","24.9466333333333","6500600","新店區"
"231060","897-TW","2018/09/21 20:48:54","新北市新店區安康路三段696號","121.474615","24.942665","6500600","新店區"
"231043","899-TW","2018/09/21 20:48:56","新北市新店區建國路35巷2號","121.540415","24.9746033333333","6500600","新店區"
"241011","013-R5","2018/09/21 20:48:55","新北市三重區龍濱路199號","121.501875","25.0716583333333","6500200","三重區"
"241028","022-UY","2018/09/21 20:48:57","新北市三重區中正南路50號","121.49393","25.05989","6500200","三重區"
"241031","061-VK","2018/09/21 20:48:58","新北市三重區重陽路一段113巷2弄2號","121.487538333333","25.05985","6500200","三重區"
"241015","062-VK","2018/09/21 20:48:55","新北市三重區自強路一段8號","121.498788333333","25.0682833333333","6500200","三重區"
"241017","063-VK","2018/09/21 20:48:56","新北市三重區民生街15號","121.491725","25.0672066666667","6500200","三重區"
"241024","065-VK","2018/09/21 20:48:52","新北市三重區國道路一段58巷20號","121.481245","25.0720033333333","6500200","三重區"
"241026","066-VK","2018/09/21 20:48:48","新北市三重區和平街1號","121.500153333333","25.0623683333333","6500200","三重區"
"241002","090-VK","2018/09/21 20:48:39","新北市三重區仁義街157巷85號","121.498966666667","25.0818733333333","6500200","三重區"
"241005","262-UM","2018/09/21 20:48:59","新北市三重區碧華街430號","121.492576666667","25.0856483333333","6500200","三重區"
"241016","266-UM","2018/09/21 20:48:56","新北市三重區自強路一段79號","121.496293333333","25.0663716666667","6500200","三重區"
"241009","267-UM","2018/09/21 20:48:32","新北市三重區碧華街57號","121.484735","25.0813216666667","6500200","三重區"
"241018","268-UM","2018/09/21 20:48:50","新北市三重區正義北路263號","121.495413333333","25.069845","6500200","三重區"
"241032","269-UM","2018/09/21 20:48:46","新北市三重區重陽路一段120巷48號","121.485035","25.0601816666667","6500200","三重區"
"241013","270-UM","2018/09/21 20:49:02","新北市三重區仁賢街12-1號","121.495675","25.0748566666667","6500200","三重區"
"241025","271-UM","2018/09/21 20:48:51","新北市三重區貴陽街14號","121.48424","25.0618833333333","6500200","三重區"
"241007","398-BY","2018/09/21 20:48:43","新北市三重區三和路四段143-1號","121.48436","25.0783466666667","6500200","三重區"
"241035","KEA-2210","2018/09/21 20:48:49","新北市三重區三和路三段29號","121.496023333333","25.0709016666667","6500200","三重區"
"241004","475-VK","2018/09/21 20:48:47","新北市三重區分子尾街19號","121.489526666667","25.0810333333333","6500200","三重區"
"241020","478-VK","2018/09/21 20:48:43","新北市三重區忠孝路一段101號","121.489388333333","25.072165","6500200","三重區"
"241014","543-UM","2018/09/21 20:48:55","新北市三重區萬全街71號","121.501395","25.0702883333333","6500200","三重區"
"241023","545-UM","2018/09/21 20:48:42","新北市三重區忠孝路三段84巷1號","121.480245","25.0645766666667","6500200","三重區"
"241001","547-UM","2018/09/21 20:48:48","新北市三重區三和路四段124號","121.489118333333","25.0752533333333","6500200","三重區"
"241019","KEA-2593","2018/09/21 20:48:43","新北市三重區三張街51號","121.491215","25.0710716666667","6500200","三重區"
"241006","AAD-863","2018/09/21 20:48:44","新北市三重區車路頭街139巷14號","121.484328333333","25.0762733333333","6500200","三重區"
"241030","743-BX","2018/09/21 20:48:47","新北市三重區集美街192號","121.490821666667","25.053505","6500200","三重區"
"241022","887-TS","2018/09/21 20:48:45","新北市三重區中正北路20巷12號","121.488011666667","25.0625083333333","6500200","三重區"
"241012","941-UM","2018/09/21 20:48:48","新北市三重區仁信街27號","121.501258333333","25.0755716666667","6500200","三重區"
"241029","942-UM","2018/09/21 20:48:42","新北市三重區重安街14號","121.490243333333","25.0582233333333","6500200","三重區"
"241033","AAC-255","2018/09/21 20:48:47","新北市三重區光復路二段1號","121.472208333333","25.053305","6500200","三重區"
"235049","186-VK","2018/09/21 20:49:00","新北市中和區中正路395號","121.489438333333","24.994005","6500300","中和區"
"247012","KEA-2869","2018/09/21 20:48:53","新北市蘆洲區復興路340巷39號","121.483833333333","25.08868","6501400","蘆洲區"
"235069","4980-A6","2018/09/21 20:48:43","新北市中和區新生街122號","121.483375","25.00138","6500300","中和區"
"247002","893-R6","2018/09/21 20:48:51","新北市蘆洲區永康街30號","121.458708333333","25.0855983333333","6501400","蘆洲區"
"247016","546-UM","2018/09/21 20:48:59","新北市蘆洲區中正路71號","121.470455","25.082755","6501400","蘆洲區"
"247024","500-BY","2018/09/21 20:48:54","新北市蘆洲區長樂路140號","121.461986666667","25.090175","6501400","蘆洲區"
"247014","339-TH","2018/09/21 20:49:02","新北市蘆洲區三民路95號","121.473935","25.084885","6501400","蘆洲區"
"247006","337-TH","2018/09/21 20:48:40","新北市蘆洲區永安南路二段14號","121.46766","25.0768966666667","6501400","蘆洲區"
"247008","336-TH","2018/09/21 20:48:50","新北市三重區三和路四段237號","121.481061666667","25.0804183333333","6501400","蘆洲區"
"247020","057-VK","2018/09/21 20:48:55","新北市蘆洲區仁愛街66號","121.47155","25.0938866666667","6501400","蘆洲區"
"247004","002-UY","2018/09/21 20:48:42","新北市蘆洲區長安街100號","121.461598333333","25.0809033333333","6501400","蘆洲區"
"247022","001-UY","2018/09/21 20:48:48","新北市蘆洲區民權路131巷10號","121.471236666667","25.0898833333333","6501400","蘆洲區"
"222001","KEA-2212","2018/09/21 20:48:57","新北市深坑區北深路三段133號","121.603961666667","25.0025083333333","6501800","深坑區"
"251001","011-UM","2018/09/21 20:49:00","新北市淡水區淡金路一段69號","121.458851666667","25.1731666666667","6501000","淡水區"
"251010","413-VK","2018/09/21 20:48:58","新北市淡水區沙崙路145號","121.423298333333","25.1831583333333","6501000","淡水區"
"251012","441-VK","2018/09/21 20:48:46","新北市淡水區淡金路四段493號","121.452063333333","25.2249516666667","6501000","淡水區"
"251007","577-R6","2018/09/21 20:48:56","新北市淡水區鄧公路29巷16號","121.452261666667","25.1702033333333","6501000","淡水區"
"251011","650-BX","2018/09/21 20:48:40","新北市淡水區新市一路一段240號","121.432915","25.1862916666667","6501000","淡水區"
"251002","672-BX","2018/09/21 20:48:43","新北市淡水區中正東路6號","121.447038333333","25.1670666666667","6501000","淡水區"
"251003","766-UM","2018/09/21 20:48:59","新北市淡水區中山北路一段207巷62號","121.441993333333","25.1793533333333","6501000","淡水區"
"252002","AAC-283","2018/09/21 20:48:50","新北市三芝區淡金路二段89-1號","121.504076666667","25.2608366666667","6502100","三芝區"
"242037","AAC-296","2018/09/21 20:48:58","新北市新莊區中正路471號","121.441808333333","25.033695","6500500","新莊區"
"242058","986-R7","2018/09/21 20:48:46","新北市新莊區四維路95號","121.423341666667","25.0237683333333","6500500","新莊區"
"242029","705-TV","2018/09/21 20:48:41","新北市新莊區中華路二段85號","121.45273","25.0490183333333","6500500","新莊區"
"242054","442-UM","2018/09/21 20:48:47","新北市新莊區新樹路589號","121.43293","25.006555","6500500","新莊區"
"242002","440-UM","2018/09/21 20:48:51","新北市新莊區中港路59號","121.455095","25.0385083333333","6500500","新莊區"
"242009","413-TV","2018/09/21 20:49:02","新北市新莊區思源路63號","121.459886666667","25.0404133333333","6500500","新莊區"
"242023","362-BY","2018/09/21 20:48:44","新北市新莊區化成路579巷1號","121.464718333333","25.066215","6500500","新莊區"
"242011","132-UY","2018/09/21 20:48:57","新北市泰山區新五路一段135-1號","121.439465","25.063605","6500500","新莊區"
"242050","172-VK","2018/09/21 20:48:34","新北市新莊區民安東路182號","121.433516666667","25.0203266666667","6500500","新莊區"
"242005","349-TH","2018/09/21 20:48:43","新北市五股區中興路三段2巷10號","121.448183333333","25.0831216666667","6500500","新莊區"
"221027","281-BY","2018/09/21 20:48:59","新北市汐止區大同路二段370號","121.657666666667","25.0671816666667","6501100","汐止區"
"221029","298-VK","2018/09/21 20:48:50","新北市汐止區樟樹二路349號","121.64247","25.0736","6501100","汐止區"
"221021","299-VK","2018/09/21 20:48:46","新北市汐止區新台五路一段210-1號","121.655681666667","25.06296","6501100","汐止區"
"221035","622-UM","2018/09/21 20:48:51","新北市汐止區汐萬路一段294號","121.650656666667","25.0744433333333","6501100","汐止區"
"221002","707-TV","2018/09/21 20:48:57","新北市汐止區福德二路二段170號","121.629365","25.0649266666667","6501100","汐止區"
"221018","753-BX","2018/09/21 20:48:45","新北市汐止區汐萬路一段17號","121.655925","25.0674733333333","6501100","汐止區"
"220070","AAC-253","2018/09/21 20:48:59","新北市八里區中山路三段386號","121.368448333333","25.1360166666667","6500100","板橋區"
