"lineid","car","time","location","longitude","latitude","cityid","cityname"
"231059","046-UY","2018/09/21 20:58:58","新北市新店區僑信路128號","121.500653333333","24.9460583333333","6500600","新店區"
"231040","047-UY","2018/09/21 20:58:52","新北市新店區中正路188號","121.540891666667","24.9723166666667","6500600","新店區"
"231053","108-UY","2018/09/21 20:58:46","新北市新店區環河路14號","121.537665","24.96163","6500600","新店區"
"231048","187-VK","2018/09/21 20:59:01","新北市新店區寶元路一段109號","121.545681666667","24.98314","6500600","新店區"
"231054","KEA-2219","2018/09/21 20:58:32","新北市新店區中正路75巷71號","121.543111666667","24.9686916666667","6500600","新店區"
"231042","268-BY","2018/09/21 20:58:52","新北市新店區寶興路45巷3號","121.549875","24.9738516666667","6500600","新店區"
"231051","278-BY","2018/09/21 20:58:56","新北市新店區中正路663巷1弄2號","121.532878333333","24.9900216666667","6500600","新店區"
"231050","AAD-862","2018/09/21 20:58:45","新北市新店區三民路75巷1弄2號","121.53579","24.97119","6500600","新店區"
"231066","4716-K9","2018/09/21 20:58:56","新北市新店區吉安街10號","121.51682","24.9657066666667","6500600","新店區"
"231067","4772-VM","2018/09/21 20:58:56","新北市新店區安德街148巷11弄2號","121.507788333333","24.9601166666667","6500600","新店區"
"231065","512-UM","2018/09/21 20:58:48","新北市新店區安祥路69巷90號","121.482783333333","24.9591666666667","6500600","新店區"
"231063","616-UM","2018/09/21 20:58:45","新北市新店區如意街97號","121.49546","24.9468716666667","6500600","新店區"
"231061","619-UM","2018/09/21 20:58:51","新北市新店區永安街105號","121.520935","24.9857166666667","6500600","新店區"
"231068","718-UY","2018/09/21 20:58:54","新北市新店區寶中路73號","121.547485","24.9805616666667","6500600","新店區"
"231064","719-UM","2018/09/21 20:58:32","新北市新店區安民街154號","121.516666666667","24.96999","6500600","新店區"
"231062","720-UM","2018/09/21 20:58:53","新北市新店區雙城路4巷1號","121.491181666667","24.9507783333333","6500600","新店區"
"231060","897-TW","2018/09/21 20:58:55","新北市新店區安康路三段265號","121.486488333333","24.9518066666667","6500600","新店區"
"231043","899-TW","2018/09/21 20:58:55","新北市新店區中正路354號","121.535755","24.9756233333333","6500600","新店區"
"241011","013-R5","2018/09/21 20:58:55","新北市三重區秀江街119號","121.499693333333","25.07221","6500200","三重區"
"241028","022-UY","2018/09/21 20:58:57","新北市三重區重新路三段7號","121.495446666667","25.0616316666667","6500200","三重區"
"241031","061-VK","2018/09/21 20:58:58","新北市三重區重陽路一段113巷2弄2號","121.487518333333","25.05985","6500200","三重區"
"241015","062-VK","2018/09/21 20:58:55","新北市三重區福德北路61號","121.502163333333","25.0655116666667","6500200","三重區"
"241017","063-VK","2018/09/21 20:58:56","新北市三重區大仁街55號","121.493468333333","25.065885","6500200","三重區"
"241024","065-VK","2018/09/21 20:58:52","新北市三重區大勇街82巷15弄30號","121.481248333333","25.0719633333333","6500200","三重區"
"241026","066-VK","2018/09/21 20:58:48","新北市三重區文化南路45號","121.500233333333","25.0614583333333","6500200","三重區"
"241002","090-VK","2018/09/21 20:58:59","新北市三重區五華街1巷60號","121.49668","25.0803433333333","6500200","三重區"
"241003","091-VK","2018/09/21 20:58:56","新北市三重區進安街198號","121.493855","25.0860083333333","6500200","三重區"
"241005","262-UM","2018/09/21 20:58:59","新北市三重區五華街213號","121.489491666667","25.08568","6500200","三重區"
"241016","266-UM","2018/09/21 20:58:56","新北市三重區自強路一段79號","121.496291666667","25.0664433333333","6500200","三重區"
"241009","267-UM","2018/09/21 20:58:52","新北市三重區三和路四段177-1號","121.482775","25.07881","6500200","三重區"
"241018","268-UM","2018/09/21 20:58:50","新北市三重區雙園街99號","121.49381","25.06732","6500200","三重區"
"241032","269-UM","2018/09/21 20:58:47","新北市三重區興華街130號","121.483296666667","25.0597233333333","6500200","三重區"
"241013","270-UM","2018/09/21 20:58:42","新北市三重區仁賢街12-1號","121.495695","25.074855","6500200","三重區"
"241025","271-UM","2018/09/21 20:58:51","新北市三重區貴陽街18-1號","121.484195","25.0619333333333","6500200","三重區"
"241007","398-BY","2018/09/21 20:58:58","新北市三重區慈愛街11號","121.485116666667","25.0787516666667","6500200","三重區"
"241004","475-VK","2018/09/21 20:58:47","新北市三重區仁愛街423-1號","121.490375","25.0814483333333","6500200","三重區"
"241020","478-VK","2018/09/21 20:58:43","新北市三重區忠孝路二段34號","121.485801666667","25.0710533333333","6500200","三重區"
"241014","543-UM","2018/09/21 20:58:55","新北市三重區長壽街120巷11號","121.502503333333","25.0691183333333","6500200","三重區"
"241023","545-UM","2018/09/21 20:58:42","新北市三重區洛陽街45巷20號","121.482343333333","25.0637816666667","6500200","三重區"
"241001","547-UM","2018/09/21 20:58:48","新北市三重區自強路三段87巷21號","121.488258333333","25.074965","6500200","三重區"
"241019","KEA-2593","2018/09/21 20:58:43","新北市三重區自強路二段74巷21號","121.487951666667","25.06985","6500200","三重區"
"241006","AAD-863","2018/09/21 20:58:44","新北市三重區永福街23號","121.48174","25.0781366666667","6500200","三重區"
"241030","743-BX","2018/09/21 20:58:47","新北市三重區中正南路293號","121.492495","25.0520616666667","6500200","三重區"
"241022","887-TS","2018/09/21 20:58:45","新北市三重區中正北路20巷12號","121.487985","25.0625083333333","6500200","三重區"
"241012","941-UM","2018/09/21 20:58:49","新北市三重區仁信街27號","121.501261666667","25.07556","6500200","三重區"
"241029","942-UM","2018/09/21 20:58:42","新北市三重區電信街104號","121.495251666667","25.0581266666667","6500200","三重區"
"241033","AAC-255","2018/09/21 20:58:47","新北市三重區光復路二段2號","121.472185","25.0532933333333","6500200","三重區"
"235049","186-VK","2018/09/21 20:59:00","新北市中和區員山路36巷13號","121.484325","24.9907316666667","6500300","中和區"
"247012","KEA-2869","2018/09/21 20:58:53","新北市蘆洲區民權路6-1號","121.476828333333","25.0856333333333","6501400","蘆洲區"
"235069","4980-A6","2018/09/21 20:58:43","新北市中和區中正路637巷18弄20號","121.484253333333","24.9951283333333","6500300","中和區"
"247002","893-R6","2018/09/21 20:58:51","新北市蘆洲區長安街389號","121.457308333333","25.0883783333333","6501400","蘆洲區"
"247016","546-UM","2018/09/21 20:58:59","新北市蘆洲區正和街92號","121.468193333333","25.0808133333333","6501400","蘆洲區"
"247024","500-BY","2018/09/21 20:58:54","新北市蘆洲區光明路20號","121.461161666667","25.0864116666667","6501400","蘆洲區"
"247014","339-TH","2018/09/21 20:59:02","新北市蘆洲區中央路56號","121.473433333333","25.0837666666667","6501400","蘆洲區"
"247006","337-TH","2018/09/21 20:59:00","新北市蘆洲區永安南路二段16巷8號","121.467818333333","25.0772","6501400","蘆洲區"
"247008","336-TH","2018/09/21 20:58:50","新北市蘆洲區民生街76號","121.472763333333","25.079115","6501400","蘆洲區"
"247020","057-VK","2018/09/21 20:58:55","新北市蘆洲區民族路488號","121.47112","25.0912566666667","6501400","蘆洲區"
"247018","007-UY","2018/09/21 20:58:42","新北市蘆洲區民權路87號","121.473161666667","25.0887833333333","6501400","蘆洲區"
"247004","002-UY","2018/09/21 20:58:52","新北市蘆洲區永安南路二段266號","121.458961666667","25.0806233333333","6501400","蘆洲區"
"247022","001-UY","2018/09/21 20:58:48","新北市蘆洲區中正路198-1號","121.466848333333","25.088425","6501400","蘆洲區"
"251005","010-UM","2018/09/21 20:59:00","新北市淡水區學府路51巷2弄16號","121.447965","25.1700216666667","6501000","淡水區"
"251001","011-UM","2018/09/21 20:58:40","新北市淡水區淡金路二段147號","121.449843333333","25.1827","6501000","淡水區"
"251010","413-VK","2018/09/21 20:58:58","新北市淡水區淡海路23號","121.423745","25.17905","6501000","淡水區"
"251012","441-VK","2018/09/21 20:58:46","新北市淡水區淡金路五段120-3號","121.456758333333","25.237915","6501000","淡水區"
"251007","577-R6","2018/09/21 20:58:56","新北市淡水區仁愛街2巷11號","121.446175","25.1706583333333","6501000","淡水區"
"251011","650-BX","2018/09/21 20:58:40","新北市淡水區新民街一段8巷8號","121.434825","25.1840133333333","6501000","淡水區"
"251002","672-BX","2018/09/21 20:58:43","新北市淡水區仁愛街1號","121.445665","25.1704783333333","6501000","淡水區"
"251003","766-UM","2018/09/21 20:58:59","新北市淡水區新春街125巷7號","121.44142","25.1823933333333","6501000","淡水區"
"242054","442-UM","2018/09/21 20:58:47","新北市三重區中興南街82號","121.470103333333","25.0422483333333","6500500","新莊區"
"242023","362-BY","2018/09/21 20:58:44","新北市八里區商港路50號","121.395585","25.1460216666667","6500500","新莊區"
"242005","349-TH","2018/09/21 20:58:43","新北市八里區中山路三段112號","121.388216666667","25.1468733333333","6500500","新莊區"
"221027","281-BY","2018/09/21 20:58:59","新北市汐止區汐萬路一段256巷1號","121.651746666667","25.07489","6501100","汐止區"
"221029","298-VK","2018/09/21 20:58:50","新北市汐止區汐萬路一段256巷1號","121.651641666667","25.0747333333333","6501100","汐止區"
"220070","AAC-253","2018/09/21 20:58:39","新北市林口區太平里180號","121.368246666667","25.1345033333333","6500100","板橋區"
