"lineid","car","time","location","longitude","latitude","cityid","cityname"
"231059","046-UY","2018/09/21 21:08:54","新北市新店區僑信路25號","121.499478333333","24.9513383333333","6500600","新店區"
"231040","047-UY","2018/09/21 21:08:52","新北市新店區北新路一段351號","121.541881666667","24.9693433333333","6500600","新店區"
"231048","187-VK","2018/09/21 21:09:01","新北市新店區中興路三段160號","121.544485","24.9806716666667","6500600","新店區"
"231054","KEA-2219","2018/09/21 21:08:52","新北市新店區大新街7巷18號","121.54381","24.9681083333333","6500600","新店區"
"231042","268-BY","2018/09/21 21:08:52","新北市新店區寶興路60巷4號","121.549858333333","24.9718433333333","6500600","新店區"
"231051","278-BY","2018/09/21 21:08:56","新北市新店區中正路700巷79號","121.536056666667","24.9933583333333","6500600","新店區"
"231050","AAD-862","2018/09/21 21:08:45","新北市新店區中華路83巷4弄20號","121.538285","24.96893","6500600","新店區"
"231065","512-UM","2018/09/21 21:08:48","新北市新店區安祥路69巷41弄82號","121.48262","24.962015","6500600","新店區"
"231063","616-UM","2018/09/21 21:08:45","新北市新店區玫瑰路66巷1號","121.495958333333","24.9452766666667","6500600","新店區"
"231061","619-UM","2018/09/21 21:08:56","新北市新店區永安街10號","121.516923333333","24.986175","6500600","新店區"
"231064","719-UM","2018/09/21 21:06:32","新北市新店區薏仁坑路自強巷1號","121.497073333333","24.9579716666667","6500600","新店區"
"231062","720-UM","2018/09/21 21:08:44","新北市新店區安康路二段416號","121.496568333333","24.9551633333333","6500600","新店區"
"231060","897-TW","2018/09/21 21:08:54","新北市新店區薏仁坑路自強巷6號","121.497153333333","24.9587483333333","6500600","新店區"
"231043","899-TW","2018/09/21 21:08:55","新北市新店區安德街60巷19-1號","121.510363333333","24.9632816666667","6500600","新店區"
"241011","013-R5","2018/09/21 21:08:55","新北市三重區秀江街111號","121.499853333333","25.07226","6500200","三重區"
"241028","022-UY","2018/09/21 21:08:57","新北市三重區正義南路60-1號","121.498281666667","25.0606416666667","6500200","三重區"
"241031","061-VK","2018/09/21 21:08:58","新北市三重區重新路五段283號","121.480596666667","25.0498716666667","6500200","三重區"
"241015","062-VK","2018/09/21 21:08:58","新北市三重區福德北路89號","121.501936666667","25.06605","6500200","三重區"
"241017","063-VK","2018/09/21 21:08:56","新北市三重區大同北路132巷8號","121.492275","25.0646133333333","6500200","三重區"
"241024","065-VK","2018/09/21 21:08:52","新北市三重區大勇街82巷15弄30號","121.481215","25.0719783333333","6500200","三重區"
"241026","066-VK","2018/09/21 21:08:53","新北市三重區文化南路67號","121.500273333333","25.060765","6500200","三重區"
"241002","090-VK","2018/09/21 21:08:59","新北市三重區五華街19號","121.495001666667","25.080515","6500200","三重區"
"241003","091-VK","2018/09/21 21:08:56","新北市三重區仁義街224號","121.494893333333","25.08473","6500200","三重區"
"241005","262-UM","2018/09/21 21:08:59","新北市三重區三信路11號","121.488126666667","25.08611","6500200","三重區"
"241016","266-UM","2018/09/21 21:08:56","新北市三重區信義西街138號","121.495606666667","25.0642766666667","6500200","三重區"
"241009","267-UM","2018/09/21 21:08:52","新北市三重區忠孝路二段122號","121.482998333333","25.06879","6500200","三重區"
"241018","268-UM","2018/09/21 21:08:50","新北市三重區正義北路332-1號","121.494306666667","25.0705183333333","6500200","三重區"
"241032","269-UM","2018/09/21 21:08:46","新北市三重區忠孝路三段125號","121.479145","25.0616133333333","6500200","三重區"
"241013","270-UM","2018/09/21 21:08:42","新北市三重區仁賢街12-1號","121.495693333333","25.074865","6500200","三重區"
"241025","271-UM","2018/09/21 21:08:51","新北市三重區中正北路208巷10弄4號","121.482348333333","25.0669083333333","6500200","三重區"
"241007","398-BY","2018/09/21 21:08:43","新北市三重區三和路四段145巷85號","121.486391666667","25.0787933333333","6500200","三重區"
"241004","475-VK","2018/09/21 21:08:47","新北市三重區仁愛街423-1號","121.490386666667","25.0814616666667","6500200","三重區"
"241020","478-VK","2018/09/21 21:08:44","新北市三重區忠孝路二段51號","121.485721666667","25.071045","6500200","三重區"
"241014","543-UM","2018/09/21 21:08:55","新北市三重區三和路二段37-9號","121.5013","25.067665","6500200","三重區"
"241023","545-UM","2018/09/21 21:09:02","新北市三重區洛陽街45巷15號","121.48235","25.0637683333333","6500200","三重區"
"241001","547-UM","2018/09/21 21:08:48","新北市三重區福隆路50號","121.49243","25.0784383333333","6500200","三重區"
"241019","KEA-2593","2018/09/21 21:08:43","新北市三重區自強路二段74巷21號","121.48797","25.0698433333333","6500200","三重區"
"241006","AAD-863","2018/09/21 21:08:44","新北市三重區重陽路三段5巷1號","121.490433333333","25.0656566666667","6500200","三重區"
"241030","743-BX","2018/09/21 21:08:47","新北市三重區五谷王北街20巷15弄1號","121.475015","25.0485116666667","6500200","三重區"
"241022","887-TS","2018/09/21 21:08:45","新北市三重區中正北路64巷24號","121.486053333333","25.0637366666667","6500200","三重區"
"241012","941-UM","2018/09/21 21:08:48","新北市三重區龍門路274巷45號","121.501228333333","25.0755483333333","6500200","三重區"
"241029","942-UM","2018/09/21 21:09:02","新北市三重區正義南路111號","121.49813","25.0585616666667","6500200","三重區"
"241033","AAC-255","2018/09/21 21:08:47","新北市三重區重光街83號","121.466393333333","25.0640916666667","6500200","三重區"
"247012","KEA-2869","2018/09/21 21:08:53","新北市蘆洲區民權路26號","121.476716666667","25.0857566666667","6501400","蘆洲區"
"235010","733-UM","2018/09/21 21:08:56","新北市中和區員山路36巷13號","121.484358333333","24.990725","6500300","中和區"
"247002","893-R6","2018/09/21 21:08:51","新北市蘆洲區永樂街38巷40號","121.458568333333","25.0900766666667","6501400","蘆洲區"
"247024","500-BY","2018/09/21 21:08:54","新北市蘆洲區長興路50巷1號","121.463786666667","25.08378","6501400","蘆洲區"
"247006","337-TH","2018/09/21 21:09:00","新北市蘆洲區九芎街15巷5號","121.468185","25.0782166666667","6501400","蘆洲區"
"247008","336-TH","2018/09/21 21:08:30","新北市蘆洲區民生街127號","121.472775","25.0790466666667","6501400","蘆洲區"
"247020","057-VK","2018/09/21 21:08:55","新北市蘆洲區民族路480號","121.471435","25.09152","6501400","蘆洲區"
"247018","007-UY","2018/09/21 21:08:42","新北市蘆洲區民族路408巷10號","121.47481","25.09182","6501400","蘆洲區"
"247004","002-UY","2018/09/21 21:08:42","新北市蘆洲區永安南路二段268號","121.458671666667","25.0807716666667","6501400","蘆洲區"
"247022","001-UY","2018/09/21 21:08:53","新北市蘆洲區中正路180號","121.467011666667","25.087945","6501400","蘆洲區"
"251009","008-UM","2018/09/21 21:08:49","新北市淡水區民族路112巷40號","121.462021666667","25.13438","6501000","淡水區"
"251005","010-UM","2018/09/21 21:08:40","新北市淡水區博愛街61號","121.446908333333","25.1689033333333","6501000","淡水區"
"251001","011-UM","2018/09/21 21:09:00","新北市淡水區新市一路三段101巷16弄3號","121.446656666667","25.1838716666667","6501000","淡水區"
"251010","413-VK","2018/09/21 21:08:58","新北市淡水區中正路一段86號","121.424545","25.1776533333333","6501000","淡水區"
"251012","441-VK","2018/09/21 21:08:46","新北市淡水區淡金路五段109-1號","121.45641","25.237005","6501000","淡水區"
"251011","650-BX","2018/09/21 21:08:40","新北市淡水區新民街120巷45弄38號","121.437561666667","25.1797483333333","6501000","淡水區"
"251002","672-BX","2018/09/21 21:08:46","新北市淡水區水源街一段110號","121.446655","25.1720183333333","6501000","淡水區"
"251003","766-UM","2018/09/21 21:08:58","新北市淡水區新春街92號","121.438926666667","25.1824166666667","6501000","淡水區"
"242054","442-UM","2018/09/21 21:08:47","新北市五股區五工一路104號","121.458081666667","25.0697383333333","6500500","新莊區"
"220070","AAC-253","2018/09/21 21:07:59","新北市八里區荖阡坑路34-2號","121.40123","25.1301","6500100","板橋區"
