"lineid","car","time","location","longitude","latitude","cityid","cityname"
"231048","187-VK","2018/09/21 21:28:41","新北市新店區安康路二段320巷15弄18號","121.502268333333","24.959075","6500600","新店區"
"231063","616-UM","2018/09/21 21:28:45","新北市新店區如意街53號","121.493428333333","24.9472","6500600","新店區"
"231062","720-UM","2018/09/21 21:28:44","新北市新店區薏仁坑路自強巷6號","121.49638","24.9584016666667","6500600","新店區"
"241028","022-UY","2018/09/21 21:28:57","新北市新莊區五工一路80巷1號","121.462118333333","25.06746","6500200","三重區"
"241017","063-VK","2018/09/21 21:28:56","新北市三重區中正北路25巷2號","121.493205","25.0627316666667","6500200","三重區"
"241024","065-VK","2018/09/21 21:28:52","新北市三重區中正北路145巷14號","121.484141666667","25.0677783333333","6500200","三重區"
"241026","066-VK","2018/09/21 21:28:48","新北市三重區新北大道一段7號","121.489758333333","25.0613483333333","6500200","三重區"
"241005","262-UM","2018/09/21 21:28:59","新北市三重區仁華街85號","121.485745","25.082945","6500200","三重區"
"241016","266-UM","2018/09/21 21:28:56","新北市三重區正義北路154號","121.496516666667","25.066375","6500200","三重區"
"241007","398-BY","2018/09/21 21:29:03","新北市三重區正義北路113號","121.496921666667","25.0657816666667","6500200","三重區"
"241030","743-BX","2018/09/21 21:28:47","新北市五股區中直路13-7號","121.424248333333","25.11066","6500200","三重區"
"241033","AAC-255","2018/09/21 21:28:47","新北市三重區光復路二段98號","121.471741666667","25.0581233333333","6500200","三重區"
"247012","KEA-2869","2018/09/21 21:28:53","新北市蘆洲區復興路323巷188號","121.476186666667","25.0969683333333","6501400","蘆洲區"
"235010","733-UM","2018/09/21 21:15:25","新北市中和區員山路36巷13號","121.484051666667","24.9908633333333","6500300","中和區"
"247002","893-R6","2018/09/21 21:28:51","新北市五股區凌雲路三段24巷10號","121.435673333333","25.1070766666667","6501400","蘆洲區"
"247008","336-TH","2018/09/21 21:28:50","新北市五股區中興路三段3-8號","121.450893333333","25.0801766666667","6501400","蘆洲區"
"251009","008-UM","2018/09/21 21:28:49","新北市淡水區民族路33巷16-8號","121.4634","25.1359516666667","6501000","淡水區"
"251005","010-UM","2018/09/21 21:29:00","新北市淡水區水源街一段28巷9號","121.443036666667","25.17186","6501000","淡水區"
"251001","011-UM","2018/09/21 21:29:00","新北市淡水區濱海路二段202巷27號","121.435105","25.1929783333333","6501000","淡水區"
"251008","181-VK","2018/09/21 21:28:41","新北市淡水區水源街二段118-1號","121.452898333333","25.1746433333333","6501000","淡水區"
"251010","413-VK","2018/09/21 21:28:58","新北市淡水區中正路二段32巷30號","121.42061","25.1825866666667","6501000","淡水區"
"251012","441-VK","2018/09/21 21:28:46","新北市淡水區淡金路四段579號","121.45158","25.230725","6501000","淡水區"
"251004","443-VK","2018/09/21 21:28:50","新北市淡水區民族路10-1號","121.460536666667","25.136735","6501000","淡水區"
"251006","561-UM","2018/09/21 21:28:55","新北市淡水區公明街35號","121.44319","25.1689166666667","6501000","淡水區"
"251011","650-BX","2018/09/21 21:29:00","新北市淡水區新民街158號","121.437166666667","25.1783133333333","6501000","淡水區"
"251002","672-BX","2018/09/21 21:24:32","新北市淡水區學府路172巷21號","121.44825","25.1748683333333","6501000","淡水區"
"251003","766-UM","2018/09/21 21:28:58","新北市淡水區崁頂15-5號","121.439006666667","25.1858833333333","6501000","淡水區"
"242054","442-UM","2018/09/21 21:28:47","新北市八里區中山路三段409號","121.368693333333","25.1345266666667","6500500","新莊區"
"220070","AAC-253","2018/09/21 21:28:59","新北市板橋區板城路319號","121.451806666667","25.0012383333333","6500100","板橋區"
