"lineid","car","time","location","longitude","latitude","cityid","cityname"
"248005","653-BX","2018/09/22 07:29:48","新北市五股區明德路10號","121.433386666667","25.0717333333333","6501500","五股區"
"232004","290-BY","2018/09/22 07:29:34","新北市坪林區下坑子口6-15號","121.711245","24.9433583333333","6502000","坪林區"
"232016","291-BY","2018/09/22 07:29:49","新北市坪林區金瓜寮1-1號","121.682801666667","24.925925","6502000","坪林區"
"232010","375-UM","2018/09/22 07:29:43","新北市坪林區水聳淒坑17號","121.715481666667","24.9322316666667","6502000","坪林區"
"232009","758-BX","2018/09/22 07:29:37","新北市坪林區北宜路七段328號","121.69682","24.93252","6502000","坪林區"
"244005","248-BX","2018/09/22 07:29:34","新北市林口區頂福里71-203號","121.346398333333","25.0840733333333","6501700","林口區"
"222004","289-BY","2018/09/22 07:26:27","新北市深坑區昇高坑路53號","121.630755","24.9916033333333","6501800","深坑區"
"235001","611-BX","2018/09/22 07:29:35","新北市中和區圓通路367巷6號","121.49151","24.9892183333333","6500300","中和區"
"226005","5620-A6","2018/09/22 07:29:33","新北市平溪區靜安路二段119號","121.721093333333","25.023775","6502400","平溪區"
"226007","7418-A5","2018/09/22 07:18:30","新北市平溪區望古里灰4-2號","121.763451666667","25.0293116666667","6502400","平溪區"
"226003","AGD-0702","2018/09/22 07:29:50","新北市平溪區嶺腳里嶺腳寮78號","121.74784","25.0337933333333","6502400","平溪區"
"223006","022-BY","2018/09/22 07:27:30","新北市石碇區深按2號","121.659981666667","25.0174916666667","6501900","石碇區"
"223002","KEA-2673","2018/09/22 07:26:33","新北市石碇區烏塗窟16-2號","121.65629","24.975665","6501900","石碇區"
"223008","406-TH","2018/09/22 07:29:47","新北市石碇區頭9號","121.70619","25.0004383333333","6501900","石碇區"
"223001","592-UM","2018/09/22 07:29:36","新北市石碇區中楒子腳5號","121.637731666667","24.9724583333333","6501900","石碇區"
"223004","660-BX","2018/09/22 07:29:40","新北市石碇區八分寮55-3號","121.644611666667","25.0137066666667","6501900","石碇區"
"223007","661-BX","2018/09/22 07:29:31","新北市石碇區大湖格21-6號","121.698361666667","25.0168266666667","6501900","石碇區"
"223005","677-TV","2018/09/22 07:29:40","新北市石碇區新興坑33號","121.646698333333","25.015235","6501900","石碇區"
"227006","282-VK","2018/09/22 07:29:39","新北市雙溪區新基里中華路115號","121.865841666667","25.03919","6502500","雙溪區"
"252004","249-BX","2018/09/22 07:29:36","新北市三芝區店子里店子45-4號","121.503055","25.2075166666667","6502100","三芝區"
"252007","AAC-283","2018/09/22 07:29:49","新北市三芝區古庄里茂興店71-1號","121.491568333333","25.2653233333333","6502100","三芝區"
"242001","233-RS","2018/09/22 07:29:42","新北市新莊區中華路二段2號","121.452965","25.0445083333333","6500500","新莊區"
