"lineid","car","time","location","longitude","latitude","cityid","cityname"
"248005","653-BX","2018/09/22 07:39:48","新北市五股區明德路10號","121.43336","25.0717416666667","6501500","五股區"
"232004","290-BY","2018/09/22 07:39:34","新北市坪林區下坑子口6-15號","121.711265","24.94334","6502000","坪林區"
"232010","375-UM","2018/09/22 07:39:43","新北市坪林區苦苓腳4號","121.714901666667","24.9406016666667","6502000","坪林區"
"244005","248-BX","2018/09/22 07:39:34","新北市林口區下福里1鄰3-1號","121.323976666667","25.0952783333333","6501700","林口區"
"222004","289-BY","2018/09/22 07:26:27","新北市深坑區昇高坑路53號","121.630755","24.9916033333333","6501800","深坑區"
"235001","611-BX","2018/09/22 07:39:35","新北市中和區圓通路367巷6號","121.491408333333","24.989205","6500300","中和區"
"226005","5620-A6","2018/09/22 07:39:33","新北市平溪區靜安路二段322號","121.736633333333","25.0242083333333","6502400","平溪區"
"226007","7418-A5","2018/09/22 07:39:50","新北市平溪區平湖里大厝37-3號","121.779595","25.029895","6502400","平溪區"
"226003","AGD-0702","2018/09/22 07:30:50","新北市平溪區嶺腳里嶺腳寮83-2號","121.750361666667","25.0349866666667","6502400","平溪區"
"223006","022-BY","2018/09/22 07:39:53","新北市石碇區新興坑28-2號","121.652113333333","25.0146233333333","6501900","石碇區"
"223002","KEA-2673","2018/09/22 07:26:33","新北市石碇區烏塗窟16-2號","121.65629","24.975665","6501900","石碇區"
"223001","592-UM","2018/09/22 07:39:36","新北市石碇區烏塗窟8號","121.655865","24.97504","6501900","石碇區"
"223004","660-BX","2018/09/22 07:39:40","新北市石碇區八分寮47-1號","121.642078333333","25.0135183333333","6501900","石碇區"
"223007","661-BX","2018/09/22 07:35:34","新北市石碇區靜安路一段337號","121.69878","25.0146216666667","6501900","石碇區"
"223005","677-TV","2018/09/22 07:39:40","新北市石碇區八分寮47-1號","121.642098333333","25.0136633333333","6501900","石碇區"
"227006","282-VK","2018/09/22 07:39:39","新北市雙溪區雙溪里太平路54號","121.864793333333","25.035445","6502500","雙溪區"
"252004","249-BX","2018/09/22 07:39:36","新北市三芝區店子里菜公坑99-1號","121.513613333333","25.2061033333333","6502100","三芝區"
"252007","AAC-283","2018/09/22 07:39:49","新北市三芝區古庄里四棧橋48-1號","121.482755","25.2641883333333","6502100","三芝區"
"242001","233-RS","2018/09/22 07:39:42","新北市新莊區中華路二段2號","121.45297","25.0444966666667","6500500","新莊區"
