"lineid","car","time","location","longitude","latitude","cityid","cityname"
"248005","653-BX","2018/09/22 07:49:48","新北市五股區明德路10號","121.433413333333","25.0717233333333","6501500","五股區"
"232010","375-UM","2018/09/22 07:49:43","新北市坪林區厚德岡坑8-5號","121.733181666667","24.9409816666667","6502000","坪林區"
"244005","248-BX","2018/09/22 07:49:34","新北市林口區下福里17號","121.315361666667","25.1056716666667","6501700","林口區"
"222004","289-BY","2018/09/22 07:26:27","新北市深坑區昇高坑路53號","121.630755","24.9916033333333","6501800","深坑區"
"231007","189-VK","2018/09/22 07:49:35","新北市新店區安華路28-1號","121.519631666667","24.960625","6500600","新店區"
"235001","611-BX","2018/09/22 07:49:35","新北市中和區圓通路367巷4號","121.491405","24.98923","6500300","中和區"
"226005","5620-A6","2018/09/22 07:49:33","新北市平溪區嶺腳里中華街52號","121.739141666667","25.02482","6502400","平溪區"
"226007","7418-A5","2018/09/22 07:49:50","新北市平溪區平湖里大厝37-3號","121.780058333333","25.0293366666667","6502400","平溪區"
"226003","AGD-0702","2018/09/22 07:49:50","新北市平溪區新寮里頂寮子4號","121.773718333333","25.0518483333333","6502400","平溪區"
"223006","022-BY","2018/09/22 07:49:44","新北市石碇區摸乳巷6號","121.660788333333","24.9833866666667","6501900","石碇區"
"223002","KEA-2673","2018/09/22 07:49:41","新北市石碇區石碇東街119號","121.659418333333","24.9901416666667","6501900","石碇區"
"223001","592-UM","2018/09/22 07:49:35","新北市石碇區蛇舌子8-2號","121.661453333333","24.9708916666667","6501900","石碇區"
"223004","660-BX","2018/09/22 07:49:40","新北市石碇區楓子林30號","121.642326666667","25.0095533333333","6501900","石碇區"
"223007","661-BX","2018/09/22 07:35:34","新北市石碇區靜安路一段337號","121.69878","25.0146216666667","6501900","石碇區"
"223005","677-TV","2018/09/22 07:49:40","新北市石碇區楓子林30號","121.642315","25.009615","6501900","石碇區"
"227006","282-VK","2018/09/22 07:49:39","新北市雙溪區雙溪里太平路54號","121.864681666667","25.03537","6502500","雙溪區"
"252004","249-BX","2018/09/22 07:49:36","新北市三芝區店子里菜公坑77-1號","121.510826666667","25.2061966666667","6502100","三芝區"
"252007","AAC-283","2018/09/22 07:49:49","新北市三芝區海景一街2-1號","121.474105","25.2457716666667","6502100","三芝區"
"237001","159-UY","2018/09/22 07:49:46","新北市三峽區國慶路144號","121.375668333333","24.9398583333333","6500900","三峽區"
"242001","233-RS","2018/09/22 07:49:42","新北市新莊區中華路二段2號","121.452958333333","25.044505","6500500","新莊區"
