"lineid","car","time","location","longitude","latitude","cityid","cityname"
"248005","653-BX","2018/03/23 08:28:03","新北市五股區明德路12巷3號","121.433303333333","25.0717533333333","6501500","五股區"
"222005","289-BY","2018/03/23 08:39:15","新北市深坑區深南路220號","121.624141666667","25.0168366666667","6501800","深坑區"
"231007","189-VK","2018/03/23 08:39:30","新北市新店區小坑二路19號","121.525393333333","24.9141883333333","6500600","新店區"
"231009","192-VK","2018/03/23 08:39:34","新北市新店區新烏路三段165巷36號","121.553421666667","24.90118","6500600","新店區"
"235001","611-BX","2018/03/23 08:39:27","新北市中和區民安街53-12號","121.479636666667","24.9992966666667","6500300","中和區"
"226005","5620-A6","2018/03/23 08:39:40","新北市平溪區南山里南山坪124號","121.784473333333","25.045435","6502400","平溪區"
"226001","7418-A5","2018/03/23 08:36:08","新北市平溪區東勢里番仔坑3號","121.748905","25.000025","6502400","平溪區"
"226003","AGD-0702","2018/03/23 08:39:25","新北市平溪區十分里十分街193號","121.778321666667","25.04394","6502400","平溪區"
"223006","022-BY","2018/03/23 08:39:43","新北市石碇區烏塗窟14-1號","121.655963333333","24.9751566666667","6501900","石碇區"
"223001","205-TH","2018/03/23 08:39:32","新北市石碇區北宜路六段柑腳巷2號","121.65954","24.93805","6501900","石碇區"
"223008","406-TH","2018/03/23 08:39:23","新北市石碇區光明路8號","121.680068333333","25.0271683333333","6501900","石碇區"
"223001","592-UM","2018/03/23 08:39:28","新北市石碇區北宜路六段柑腳巷2號","121.659583333333","24.9380733333333","6501900","石碇區"
"223004","660-BX","2018/03/23 08:39:29","新北市石碇區崩山24-2號","121.67866","24.967855","6501900","石碇區"
"223007","661-BX","2018/03/23 08:39:25","新北市石碇區光明路6號","121.676525","25.0275983333333","6501900","石碇區"
"223005","677-TV","2018/03/23 08:39:30","新北市石碇區崩山24-2號","121.678641666667","24.967845","6501900","石碇區"
"237001","159-UY","2018/03/23 08:39:31","新北市三峽區學成路303號","121.376501666667","24.9439433333333","6500900","三峽區"
"236010","165-UM","2018/03/23 08:39:33","新北市土城區石門路100-3號","121.458718333333","24.95168","6501300","土城區"
"236004","339-SR","2018/03/23 08:39:39","新北市土城區中州路78號","121.411966666667","24.9584266666667","6501300","土城區"
"236006","498-BY","2018/03/23 08:39:29","新北市土城區永和街42巷9號","121.434473333333","24.9600466666667","6501300","土城區"
"220004","461-BY","2018/03/23 08:39:26","新北市八里區中山路三段106號","121.392096666667","25.1428783333333","6500100","板橋區"
