"lineid","car","time","location","longitude","latitude","cityid","cityname"
"248005","653-BX","2018/03/23 09:09:35","新北市五股區水碓路3-1號","121.433821666667","25.072155","6501500","五股區"
"222005","289-BY","2018/03/23 09:09:35","新北市深坑區土庫尖路27-1號","121.636773333333","25.0168366666667","6501800","深坑區"
"231007","189-VK","2018/03/23 09:09:30","新北市新店區新潭路二段140巷1號","121.512316666667","24.9211266666667","6500600","新店區"
"231009","192-VK","2018/03/23 09:09:34","新北市新店區廣興路60巷27號","121.5411","24.9158166666667","6500600","新店區"
"235001","611-BX","2018/03/23 09:09:27","新北市中和區莒光路185號","121.47256","24.9990716666667","6500300","中和區"
"235017","900-TW","2018/03/23 09:04:23","新北市中和區員山路36巷16-3號","121.484985","24.991695","6500300","中和區"
"226001","7418-A5","2018/03/23 08:46:08","新北市平溪區東勢里火燒寮26-1號","121.758855","24.99218","6502400","平溪區"
"226003","AGD-0702","2018/03/23 09:09:24","新北市平溪區靜安路二段295號","121.732673333333","25.0244433333333","6502400","平溪區"
"223001","205-TH","2018/03/23 09:09:32","新北市石碇區北宜路四段9號","121.615138333333","24.9610616666667","6501900","石碇區"
"223008","406-TH","2018/03/23 09:09:23","新北市石碇區大湖格21號","121.698051666667","25.0183066666667","6501900","石碇區"
"223001","592-UM","2018/03/23 09:09:28","新北市石碇區北宜路四段3號","121.611468333333","24.9576683333333","6501900","石碇區"
"223004","660-BX","2018/03/23 09:09:29","新北市石碇區磨石坑7-2號","121.689825","24.9753633333333","6501900","石碇區"
"223007","661-BX","2018/03/23 09:09:05","新北市石碇區南勢坑2-2號","121.698316666667","24.9870883333333","6501900","石碇區"
"223005","677-TV","2018/03/23 09:09:30","新北市石碇區華梵路16-1號","121.69086","24.9777083333333","6501900","石碇區"
"237001","159-UY","2018/03/23 09:09:30","新北市三峽區大德路300號","121.375065","24.9483616666667","6500900","三峽區"
"236010","165-UM","2018/03/23 09:09:33","新北市土城區石門路29號","121.45957","24.965945","6501300","土城區"
"236004","339-SR","2018/03/23 09:09:39","新北市土城區中央路二段278巷2號","121.440773333333","24.974345","6501300","土城區"
"236006","498-BY","2018/03/23 09:09:28","新北市土城區中央路三段76巷48號","121.435658333333","24.9691833333333","6501300","土城區"
"220005","806-UM","2018/03/23 09:09:25","新北市板橋區南雅西路一段7巷5號","121.454438333333","25.00387","6500100","板橋區"
