"lineid","car","time","location","longitude","latitude","cityid","cityname"
"248005","653-BX","2018/03/23 09:59:35","新北市五股區中興路三段171-22號","121.442893333333","25.0812466666667","6501500","五股區"
"231007","189-VK","2018/03/23 09:59:30","新北市新店區新潭路三段256號","121.508238333333","24.9040483333333","6500600","新店區"
"231009","192-VK","2018/03/23 09:35:14","新北市新店區平廣路一段256號","121.50787","24.88828","6500600","新店區"
"227005","282-VK","2018/03/23 09:58:52","新北市雙溪區泰平里泰平16號","121.841735","24.9816183333333","6502500","雙溪區"
"236010","165-UM","2018/03/23 09:59:33","新北市土城區中央路四段321巷34弄5號","121.412708333333","24.9509383333333","6501300","土城區"
"236006","498-BY","2018/03/23 09:59:28","新北市土城區亞洲路32巷23號","121.434945","24.9750116666667","6501300","土城區"
"220005","806-UM","2018/03/23 09:59:25","新北市板橋區縣民大道二段82號","121.465465","25.0143566666667","6500100","板橋區"
