"lineid","car","time","location","longitude","latitude","cityid","cityname"
"234044","148-BY","2018/03/23 12:59:39","新北市永和區永元路52巷45號","121.524486666667","25.0008083333333","6500400","永和區"
"234005","207-UY","2018/03/23 12:59:25","新北市永和區中山路一段51號","121.512973333333","25.0106116666667","6500400","永和區"
"234078","298-R6","2018/03/23 12:59:34","新北市永和區永亨路59號","121.520888333333","25.006195","6500400","永和區"
"234036","336-UY","2018/03/23 12:59:40","新北市永和區成功路二段207號","121.526556666667","24.99596","6500400","永和區"
"234062","337-UY","2018/03/23 12:59:33","新北市永和區秀朗路一段146號","121.518245","25.0033633333333","6500400","永和區"
"234084","338-UY","2018/03/23 12:59:36","新北市永和區永利路10巷7號","121.517895","25.0055983333333","6500400","永和區"
"234068","552-UM","2018/03/23 12:59:32","新北市永和區竹林路96巷21號","121.518548333333","25.0118466666667","6500400","永和區"
"234015","745-BX","2018/03/23 12:59:40","新北市永和區永和路二段310號","121.51626","25.0160583333333","6500400","永和區"
"234028","746-BX","2018/03/23 12:59:46","新北市永和區四維街44號","121.525208333333","24.99811","6500400","永和區"
"234052","KEA-2590","2018/03/23 12:59:25","新北市永和區竹林路64號","121.518221666667","25.0135533333333","6500400","永和區"
"234012","KEA-2591","2018/03/23 12:59:35","新北市永和區信義路14-1號","121.514321666667","25.0121683333333","6500400","永和區"
"234060","AAD-866","2018/03/23 12:59:38","新北市永和區福和路297號","121.516505","25.0071266666667","6500400","永和區"
"234040","862-TW","2018/03/23 12:59:32","新北市永和區永貞路306號","121.511901666667","25.00487","6500400","永和區"
"234048","863-TW","2018/03/23 12:59:33","新北市永和區文化路194號","121.510781666667","25.0162766666667","6500400","永和區"
"234025","9371-KE","2018/03/23 12:59:33","新北市永和區永和路一段45-1號","121.512838333333","25.00627","6500400","永和區"
"234010","9373-KE","2018/03/23 12:59:32","新北市永和區文化路113巷23弄3號","121.513415","25.0140083333333","6500400","永和區"
"248019","225-UY","2018/03/23 12:59:34","新北市五股區中興路二段83巷26-3號","121.460043333333","25.0753583333333","6501500","五股區"
"234022","9380-KE","2018/03/23 12:59:44","新北市永和區竹林路73號","121.518898333333","25.0132166666667","6500400","永和區"
"234076","969-R7","2018/03/23 12:59:36","新北市永和區民享街11號","121.515328333333","24.99534","6500400","永和區"
"234072","AAC-211","2018/03/23 12:59:36","新北市永和區環河東路二段98號","121.524108333333","25.0103783333333","6500400","永和區"
"234066","AAC-212","2018/03/23 12:59:35","新北市永和區永和路一段1號","121.51292","25.0050933333333","6500400","永和區"
"234001","AAC-295","2018/03/23 12:59:33","新北市永和區永和路一段180號","121.514278333333","25.008955","6500400","永和區"
"244004","248-BX","2018/03/23 12:59:29","新北市林口區中山路150-1號","121.391108333333","25.0787633333333","6501700","林口區"
"231029","001-UM","2018/03/23 12:59:39","新北市新店區安華路28-1號","121.519465","24.9608166666667","6500600","新店區"
"231002","002-UM","2018/03/23 12:59:46","新北市新店區安華路28-1號","121.519611666667","24.9606883333333","6500600","新店區"
"231028","046-UY","2018/03/23 12:59:41","新北市新店區安華路28-1號","121.519516666667","24.9610366666667","6500600","新店區"
"231030","047-UY","2018/03/23 12:59:42","新北市新店區安華路28-1號","121.519016666667","24.9609583333333","6500600","新店區"
"231018","107-UY","2018/03/23 12:59:32","新北市新店區安華路28-1號","121.519226666667","24.9612816666667","6500600","新店區"
"231012","108-UY","2018/03/23 12:59:41","新北市新店區安華路28-1號","121.519588333333","24.960745","6500600","新店區"
"231022","187-VK","2018/03/23 12:59:44","新北市新店區安華路28-1號","121.519511666667","24.9611766666667","6500600","新店區"
"231016","KEA-2219","2018/03/23 12:59:35","新北市新店區安華路28-1號","121.519888333333","24.9612233333333","6500600","新店區"
"231023","AAD-862","2018/03/23 12:59:32","新北市新店區安華路28-1號","121.519896666667","24.9611866666667","6500600","新店區"
"231038","4715-K9","2018/03/23 12:59:32","新北市新店區安華路1-1號","121.519313333333","24.9604916666667","6500600","新店區"
"231036","512-UM","2018/03/23 12:59:35","新北市新店區安華路28-1號","121.519275","24.9612083333333","6500600","新店區"
"231035","513-UM","2018/03/23 12:59:41","新北市新店區安華路3號","121.519333333333","24.9597716666667","6500600","新店區"
"231006","617-UM","2018/03/23 12:59:38","新北市新店區安華路28-1號","121.519563333333","24.96069","6500600","新店區"
"231001","619-UM","2018/03/23 12:59:26","新北市新店區安華路28-1號","121.519393333333","24.9607216666667","6500600","新店區"
"231003","641-BX","2018/03/23 12:59:42","新北市新店區安華路1-1號","121.519608333333","24.9604883333333","6500600","新店區"
"231034","645-TV","2018/03/23 12:59:25","新北市新店區安華路28-1號","121.519161666667","24.96064","6500600","新店區"
"231013","719-UM","2018/03/23 12:59:30","新北市新店區安華路28-1號","121.519471666667","24.9609983333333","6500600","新店區"
"231005","897-TW","2018/03/23 12:59:46","新北市新店區安華路28-1號","121.51951","24.96062","6500600","新店區"
"231004","899-TW","2018/03/23 12:59:37","新北市新店區安華路28-1號","121.518908333333","24.9611383333333","6500600","新店區"
"231037","AKT-0513","2018/03/23 12:59:43","新北市新店區安華路28-1號","121.519511666667","24.9605466666667","6500600","新店區"
"235030","003-UY","2018/03/23 12:59:34","新北市中和區中正路637巷60弄61號","121.485611666667","24.9929383333333","6500300","中和區"
"235028","005-UY","2018/03/23 12:59:39","新北市中和區員山路36巷16-3號","121.485128333333","24.99135","6500300","中和區"
"235027","006-UY","2018/03/23 12:59:41","新北市中和區員山路36巷16-3號","121.48498","24.9911816666667","6500300","中和區"
"235029","098-UM","2018/03/23 12:59:35","新北市中和區景平路752號","121.496411666667","25.0044466666667","6500300","中和區"
"235022","151-BY","2018/03/23 12:59:42","新北市中和區圓通路367巷15-1號","121.492251666667","24.9877566666667","6500300","中和區"
"235002","185-VK","2018/03/23 12:59:41","新北市中和區景平路180號","121.516533333333","24.9921116666667","6500300","中和區"
"235031","255-BX","2018/03/23 12:57:59","新北市中和區中正路899號","121.484055","25.004905","6500300","中和區"
"235008","293-VK","2018/03/23 12:59:40","新北市中和區員山路36巷16-3號","121.48516","24.9911966666667","6500300","中和區"
"235025","378-QA","2018/03/23 12:32:16","新北市中和區員山路36巷16-9號","121.484971666667","24.9923383333333","6500300","中和區"
"235035","269-TV","2018/03/23 12:59:43","新北市中和區建八路1號","121.485433333333","24.9986366666667","6500300","中和區"
"235026","800-TS","2018/03/23 12:59:26","新北市中和區中正路509號","121.488468333333","24.9940183333333","6500300","中和區"
"235016","805-TS","2018/03/23 12:59:33","新北市中和區員山路36巷16號","121.484448333333","24.99148","6500300","中和區"
"235017","900-TW","2018/03/23 12:59:42","新北市中和區員山路36巷16-3號","121.484871666667","24.9918966666667","6500300","中和區"
"235015","157-BY","2018/03/23 12:59:41","新北市中和區員山路36巷16-3號","121.484565","24.99119","6500300","中和區"
"235001","AAC-213","2018/03/23 12:59:33","新北市中和區錦和路350-1號","121.490416666667","24.993575","6500300","中和區"
"207002","749-BX","2018/03/23 12:59:37","新北市萬里區雙興里大坪路49號","121.622451666667","25.1738816666667","6502800","萬里區"
"207001","662-BX","2018/03/23 12:59:41","新北市萬里區萬里里獅頭路22-1號","121.693078333333","25.1782333333333","6502800","萬里區"
"236006","498-BY","2018/03/23 12:59:44","新北市土城區亞洲路32巷2號","121.435855","24.9743983333333","6501300","土城區"
"221032","280-BY","2018/03/23 12:59:46","新北市汐止區大同路二段377號","121.657478333333","25.06732","6501100","汐止區"
