"lineid","car","time","location","longitude","latitude","cityid","cityname"
"234044","148-BY","2018/03/23 13:09:39","新北市永和區永元路18巷39號","121.524195","25.000395","6500400","永和區"
"234005","207-UY","2018/03/23 13:09:46","新北市永和區中山路一段211號","121.5088","25.00844","6500400","永和區"
"234078","298-R6","2018/03/23 13:09:34","新北市永和區福和路57巷14弄1號","121.522735","25.0068666666667","6500400","永和區"
"234036","336-UY","2018/03/23 13:09:40","新北市永和區民樂街69巷1號","121.52742","24.9977766666667","6500400","永和區"
"234062","337-UY","2018/03/23 13:09:33","新北市永和區秀朗路二段46號","121.521383333333","25.002355","6500400","永和區"
"234084","338-UY","2018/03/23 13:09:35","新北市永和區永貞路130號","121.518463333333","25.0045883333333","6500400","永和區"
"234068","552-UM","2018/03/23 13:09:32","新北市永和區豫溪街95巷9號","121.51808","25.0107483333333","6500400","永和區"
"234015","745-BX","2018/03/23 13:09:40","新北市永和區文化路90巷15弄1號","121.51381","25.0159616666667","6500400","永和區"
"234028","746-BX","2018/03/23 13:09:35","新北市永和區民生路23號","121.522853333333","24.9988433333333","6500400","永和區"
"234052","KEA-2590","2018/03/23 13:09:43","新北市永和區竹林路72巷8號","121.518745","25.0128466666667","6500400","永和區"
"234012","KEA-2591","2018/03/23 13:09:35","新北市永和區仁愛路150號","121.510823333333","25.01296","6500400","永和區"
"234060","AAD-866","2018/03/23 13:09:38","新北市永和區安樂路304巷7號","121.514571666667","25.0052466666667","6500400","永和區"
"234040","862-TW","2018/03/23 13:09:37","新北市永和區保平路93巷2弄10號","121.511181666667","25.006535","6500400","永和區"
"234048","863-TW","2018/03/23 13:09:33","新北市永和區文化路135巷22弄2號","121.510383333333","25.0148566666667","6500400","永和區"
"234025","9371-KE","2018/03/23 13:09:33","新北市永和區秀朗路一段10巷21號","121.513323333333","25.006355","6500400","永和區"
"234010","9373-KE","2018/03/23 13:09:32","新北市永和區仁愛路31巷3弄2號","121.51425","25.0129766666667","6500400","永和區"
"248019","225-UY","2018/03/23 13:09:34","新北市五股區凌雲路一段22巷11號","121.454386666667","25.100375","6501500","五股區"
"234022","9380-KE","2018/03/23 13:09:44","新北市永和區中興街52巷9弄8號","121.517685","25.011125","6500400","永和區"
"234076","969-R7","2018/03/23 13:09:36","新北市永和區民光街9號","121.515483333333","24.9962316666667","6500400","永和區"
"234072","AAC-211","2018/03/23 13:09:36","新北市永和區竹林路150號","121.520155","25.0107833333333","6500400","永和區"
"234066","AAC-212","2018/03/23 13:09:37","新北市永和區永和路一段93號","121.513346666667","25.0076916666667","6500400","永和區"
"234001","AAC-295","2018/03/23 13:09:40","新北市永和區永和路二段8號","121.514621666667","25.0102116666667","6500400","永和區"
"244004","248-BX","2018/03/23 13:09:29","新北市林口區頭湖74-7號","121.366501666667","25.087965","6501700","林口區"
"231029","001-UM","2018/03/23 13:09:39","新北市新店區安華路28-1號","121.519456666667","24.960855","6500600","新店區"
"231002","002-UM","2018/03/23 13:09:26","新北市新店區安華路28-1號","121.519656666667","24.9608483333333","6500600","新店區"
"231025","0293-UT","2018/03/23 13:09:37","新北市新店區安華路1-1號","121.519598333333","24.9604966666667","6500600","新店區"
"231028","046-UY","2018/03/23 13:09:41","新北市新店區安華路28-1號","121.519511666667","24.9609466666667","6500600","新店區"
"231030","047-UY","2018/03/23 13:09:42","新北市新店區安華路28-1號","121.518991666667","24.9609516666667","6500600","新店區"
"231018","107-UY","2018/03/23 13:09:32","新北市新店區安華路28-1號","121.519325","24.9612116666667","6500600","新店區"
"231012","108-UY","2018/03/23 13:09:41","新北市新店區安華路28-1號","121.519451666667","24.96109","6500600","新店區"
"231022","187-VK","2018/03/23 13:09:44","新北市新店區安華路28-1號","121.519508333333","24.9612266666667","6500600","新店區"
"231016","KEA-2219","2018/03/23 13:09:35","新北市新店區安華路28-1號","121.519836666667","24.9612216666667","6500600","新店區"
"231026","256-BX","2018/03/23 13:09:45","新北市新店區安華路28-1號","121.519996666667","24.9611066666667","6500600","新店區"
"231023","AAD-862","2018/03/23 13:09:32","新北市新店區安華路28-1號","121.519665","24.9611133333333","6500600","新店區"
"231027","3712-VJ","2018/03/23 13:09:36","新北市新店區安康路一段222-1號","121.522813333333","24.963685","6500600","新店區"
"231024","4716-K9","2018/03/23 13:09:43","新北市新店區安華路28-1號","121.51965","24.9610216666667","6500600","新店區"
"231038","4715-K9","2018/03/23 13:09:32","新北市新店區安華路1-1號","121.519293333333","24.9605116666667","6500600","新店區"
"231036","512-UM","2018/03/23 13:09:35","新北市新店區安華路28-1號","121.519276666667","24.96121","6500600","新店區"
"231035","513-UM","2018/03/23 13:09:41","新北市新店區安華路28-1號","121.519583333333","24.9611683333333","6500600","新店區"
"231006","617-UM","2018/03/23 13:09:38","新北市新店區安華路28-1號","121.519488333333","24.9608616666667","6500600","新店區"
"231001","619-UM","2018/03/23 13:09:47","新北市新店區安華路28-1號","121.519385","24.9607166666667","6500600","新店區"
"231003","641-BX","2018/03/23 13:09:42","新北市新店區安華路1-1號","121.519516666667","24.9604983333333","6500600","新店區"
"231034","645-TV","2018/03/23 13:09:45","新北市新店區安華路28-1號","121.519405","24.9605533333333","6500600","新店區"
"231013","719-UM","2018/03/23 13:09:30","新北市新店區安康路一段355-3號","121.519275","24.9614466666667","6500600","新店區"
"231032","720-UM","2018/03/23 13:09:43","新北市新店區安華路28-1號","121.519311666667","24.96119","6500600","新店區"
"231005","897-TW","2018/03/23 13:09:26","新北市新店區安華路28-1號","121.519483333333","24.9606416666667","6500600","新店區"
"231004","899-TW","2018/03/23 13:09:37","新北市新店區安華路28-1號","121.518998333333","24.9609933333333","6500600","新店區"
"231037","AKT-0513","2018/03/23 13:09:43","新北市新店區安華路28-1號","121.51935","24.9605666666667","6500600","新店區"
"235030","003-UY","2018/03/23 13:09:34","新北市中和區泰和街20號","121.499708333333","25.0007383333333","6500300","中和區"
"235028","005-UY","2018/03/23 13:09:39","新北市中和區中正路277號","121.495248333333","24.9938066666667","6500300","中和區"
"235027","006-UY","2018/03/23 13:09:41","新北市中和區員山路36巷16-3號","121.485093333333","24.991235","6500300","中和區"
"235029","098-UM","2018/03/23 13:09:35","新北市中和區中山路二段64巷14弄2號","121.50347","25.0054716666667","6500300","中和區"
"235004","150-BY","2018/03/23 13:08:49","新北市中和區中正路305號","121.492861666667","24.9937483333333","6500300","中和區"
"235022","151-BY","2018/03/23 13:09:42","新北市中和區圓通路367巷62-8號","121.493076666667","24.9831866666667","6500300","中和區"
"235002","185-VK","2018/03/23 13:09:41","新北市中和區大智街7-3號","121.519576666667","24.991915","6500300","中和區"
"235031","255-BX","2018/03/23 13:09:40","新北市中和區新生街24號","121.483148333333","25.004035","6500300","中和區"
"235008","293-VK","2018/03/23 13:09:40","新北市中和區員山路36巷16-3號","121.485136666667","24.991195","6500300","中和區"
"235007","352-BY","2018/03/23 13:09:28","新北市中和區員山路36巷16-3號","121.48478","24.99154","6500300","中和區"
"235025","378-QA","2018/03/23 13:04:28","新北市中和區和城路一段271巷1號","121.485365","24.9918166666667","6500300","中和區"
"235035","269-TV","2018/03/23 13:09:23","新北市中和區橋和路77號","121.48932","25.0052383333333","6500300","中和區"
"235014","4979-A6","2018/03/23 13:09:30","新北市中和區員山路36巷16-2號","121.485221666667","24.9916016666667","6500300","中和區"
"235033","4980-A6","2018/03/23 13:09:42","新北市中和區中正路395號","121.489856666667","24.99352","6500300","中和區"
"235006","551-UM","2018/03/23 13:09:34","新北市中和區景平路261號","121.50851","24.9929816666667","6500300","中和區"
"235018","640-BX","2018/03/23 13:09:42","新北市中和區連城路506號","121.477651666667","24.9928666666667","6500300","中和區"
"235011","732-UM","2018/03/23 13:09:48","新北市中和區中正路589巷15號","121.485668333333","24.9936533333333","6500300","中和區"
"235026","800-TS","2018/03/23 13:09:26","新北市中和區中山路二段359巷1號","121.488626666667","25.00404","6500300","中和區"
"235021","801-TS","2018/03/23 13:09:28","新北市中和區員山路36巷16-3號","121.484796666667","24.9914383333333","6500300","中和區"
"235016","805-TS","2018/03/23 13:09:33","新北市中和區中正路637巷52弄1號","121.485436666667","24.9935066666667","6500300","中和區"
"235017","900-TW","2018/03/23 13:09:42","新北市中和區員山路36巷16-3號","121.48494","24.9916433333333","6500300","中和區"
"235015","157-BY","2018/03/23 13:09:41","新北市中和區南山路291號","121.50438","24.9920483333333","6500300","中和區"
"235001","AAC-213","2018/03/23 13:09:33","新北市中和區景平路149號","121.51385","24.9921483333333","6500300","中和區"
"207002","749-BX","2018/03/23 13:09:26","新北市萬里區崁腳里內崁路10號","121.641305","25.1594733333333","6502800","萬里區"
"207001","662-BX","2018/03/23 13:09:41","新北市萬里區萬里里瑪鋉路85-2號","121.688775","25.17702","6502800","萬里區"
"236006","498-BY","2018/03/23 13:09:44","新北市土城區亞洲路9號","121.434353333333","24.9723466666667","6501300","土城區"
"221032","280-BY","2018/03/23 13:09:26","新北市汐止區龍安路202巷14號","121.652896666667","25.0632516666667","6501100","汐止區"
