"lineid","car","time","location","longitude","latitude","cityid","cityname"
"234044","148-BY","2018/03/23 13:19:39","新北市永和區秀朗路二段77號","121.522818333333","25.0017","6500400","永和區"
"234005","207-UY","2018/03/23 13:19:45","新北市永和區中山路一段343號","121.50581","25.0060483333333","6500400","永和區"
"234078","298-R6","2018/03/23 13:19:34","新北市永和區福和路7巷9-1號","121.525521666667","25.0076016666667","6500400","永和區"
"234036","336-UY","2018/03/23 13:19:40","新北市永和區民樂街47巷1號","121.527485","24.9991116666667","6500400","永和區"
"234062","337-UY","2018/03/23 13:19:44","新北市永和區永元路17巷6弄1號","121.521385","25.0007683333333","6500400","永和區"
"234084","338-UY","2018/03/23 13:19:47","新北市永和區永利路69號","121.519511666667","25.0050066666667","6500400","永和區"
"234068","552-UM","2018/03/23 13:19:32","新北市永和區中正路696-1號","121.516491666667","25.0098466666667","6500400","永和區"
"234015","745-BX","2018/03/23 13:19:40","新北市永和區環河西路一段95巷19弄4號","121.511671666667","25.01708","6500400","永和區"
"234028","746-BX","2018/03/23 13:19:43","新北市永和區厚德街48號","121.524951666667","24.9987766666667","6500400","永和區"
"234052","KEA-2590","2018/03/23 13:19:45","新北市永和區中興街20號","121.516053333333","25.0118683333333","6500400","永和區"
"234012","KEA-2591","2018/03/23 13:19:35","新北市永和區永和路二段94號","121.514983333333","25.011565","6500400","永和區"
"234060","AAD-866","2018/03/23 13:19:38","新北市永和區秀朗路一段175號","121.517048333333","25.0036866666667","6500400","永和區"
"234040","862-TW","2018/03/23 13:19:32","新北市永和區水源街43巷2號","121.509843333333","25.004195","6500400","永和區"
"234048","863-TW","2018/03/23 13:19:37","新北市永和區保福路二段88巷11號","121.51105","25.0135733333333","6500400","永和區"
"234025","9371-KE","2018/03/23 13:19:33","新北市永和區豫溪街42巷5號","121.51549","25.0094983333333","6500400","永和區"
"234010","9373-KE","2018/03/23 13:19:32","新北市永和區忠孝街34巷16號","121.51453","25.0167866666667","6500400","永和區"
"248019","225-UY","2018/03/23 13:19:35","新北市五股區孝義路47巷22號","121.45191","25.1092283333333","6501500","五股區"
"234022","9380-KE","2018/03/23 13:19:44","新北市永和區竹林路91巷15弄9號","121.520445","25.0123666666667","6500400","永和區"
"234076","969-R7","2018/03/23 13:19:36","新北市永和區民有街29號","121.51748","24.996045","6500400","永和區"
"234072","AAC-211","2018/03/23 13:19:36","新北市永和區竹林路30-1號","121.517115","25.0146616666667","6500400","永和區"
"234066","AAC-212","2018/03/23 13:19:35","新北市永和區保平路50巷6號","121.51122","25.007355","6500400","永和區"
"234001","AAC-295","2018/03/23 13:19:33","新北市永和區保福路一段86號","121.512236666667","25.01031","6500400","永和區"
"244004","248-BX","2018/03/23 13:19:29","新北市林口區頂福21-28號","121.35432","25.0890383333333","6501700","林口區"
"231029","001-UM","2018/03/23 13:19:39","新北市新店區安華路28-1號","121.519415","24.96087","6500600","新店區"
"231002","002-UM","2018/03/23 13:19:46","新北市新店區安華路28-1號","121.519578333333","24.960835","6500600","新店區"
"231025","0293-UT","2018/03/23 13:19:37","新北市新店區中央路177-3號","121.535373333333","24.9693533333333","6500600","新店區"
"231028","046-UY","2018/03/23 13:19:41","新北市新店區安華路28-1號","121.519541666667","24.9607916666667","6500600","新店區"
"231030","047-UY","2018/03/23 13:19:42","新北市新店區安華路28-1號","121.518968333333","24.960955","6500600","新店區"
"231018","107-UY","2018/03/23 13:19:32","新北市新店區安康路一段188號","121.524716666667","24.9633133333333","6500600","新店區"
"231012","108-UY","2018/03/23 13:19:41","新北市新店區安華路28-1號","121.51942","24.9611233333333","6500600","新店區"
"231022","187-VK","2018/03/23 13:19:44","新北市新店區安康路一段355-3號","121.519781666667","24.96226","6500600","新店區"
"231016","KEA-2219","2018/03/23 13:19:35","新北市新店區安康路一段355號","121.520005","24.9636416666667","6500600","新店區"
"231026","256-BX","2018/03/23 13:19:25","新北市新店區安華路28-1號","121.519893333333","24.961115","6500600","新店區"
"231010","278-BY","2018/03/23 13:19:42","新北市新店區安康路一段24巷2號","121.532955","24.9603783333333","6500600","新店區"
"231023","AAD-862","2018/03/23 13:19:32","新北市新店區安康路一段138號","121.526591666667","24.9628683333333","6500600","新店區"
"231027","3712-VJ","2018/03/23 13:19:36","新北市新店區環河路19巷13-1號","121.537588333333","24.960365","6500600","新店區"
"231024","4716-K9","2018/03/23 13:19:43","新北市新店區安康路一段355-3號","121.519733333333","24.9616","6500600","新店區"
"231038","4715-K9","2018/03/23 13:19:32","新北市新店區安華路28-1號","121.519271666667","24.9606933333333","6500600","新店區"
"231036","512-UM","2018/03/23 13:19:35","新北市新店區安忠路205巷8號","121.509856666667","24.955215","6500600","新店區"
"231035","513-UM","2018/03/23 13:19:41","新北市新店區安華路28-1號","121.519603333333","24.9612366666667","6500600","新店區"
"231006","617-UM","2018/03/23 13:19:38","新北市新店區安華路28-1號","121.51945","24.9608566666667","6500600","新店區"
"231001","619-UM","2018/03/23 13:19:26","新北市新店區安華路28-1號","121.519415","24.960685","6500600","新店區"
"231003","641-BX","2018/03/23 13:19:22","新北市新店區安華路1-1號","121.519483333333","24.9605116666667","6500600","新店區"
"231034","645-TV","2018/03/23 13:19:45","新北市新店區安華路1-1號","121.519396666667","24.9605366666667","6500600","新店區"
"231013","719-UM","2018/03/23 13:19:30","新北市新店區安康路一段164-1號","121.525915","24.963055","6500600","新店區"
"231032","720-UM","2018/03/23 13:19:43","新北市新店區安華路28-1號","121.519365","24.9612816666667","6500600","新店區"
"231005","897-TW","2018/03/23 13:19:46","新北市新店區安華路28-1號","121.51942","24.9606666666667","6500600","新店區"
"231004","899-TW","2018/03/23 13:19:37","新北市新店區安華路28-1號","121.518991666667","24.9609633333333","6500600","新店區"
"231037","AKT-0513","2018/03/23 13:19:43","新北市新店區安華路1-1號","121.519535","24.960395","6500600","新店區"
"235030","003-UY","2018/03/23 13:19:34","新北市中和區中山路二段120號","121.50282","25.003765","6500300","中和區"
"235028","005-UY","2018/03/23 13:19:39","新北市中和區圓通路141巷48弄15號","121.498223333333","24.9938616666667","6500300","中和區"
"235027","006-UY","2018/03/23 13:19:41","新北市中和區中正路589巷15號","121.485661666667","24.993605","6500300","中和區"
"235020","096-UM","2018/03/23 13:19:35","新北市中和區和城路一段271巷1號","121.485435","24.99216","6500300","中和區"
"235029","098-UM","2018/03/23 13:19:35","新北市中和區莊敬路49巷20弄20號","121.502681666667","25.0058616666667","6500300","中和區"
"235004","150-BY","2018/03/23 13:19:28","新北市中和區安平路59號","121.509563333333","24.9951016666667","6500300","中和區"
"235022","151-BY","2018/03/23 13:19:42","新北市中和區圓通路369巷51號","121.490026666667","24.9840883333333","6500300","中和區"
"235019","183-VK","2018/03/23 13:19:31","新北市中和區和城路一段271巷1號","121.485415","24.9921466666667","6500300","中和區"
"235002","185-VK","2018/03/23 13:19:41","新北市中和區秀朗路三段128巷9弄1號","121.52458","24.99312","6500300","中和區"
"235013","186-VK","2018/03/23 13:19:40","新北市中和區和城路一段271巷1號","121.485401666667","24.9921016666667","6500300","中和區"
"235031","255-BX","2018/03/23 13:19:39","新北市中和區中正路803號","121.48492","25.00121","6500300","中和區"
"235008","293-VK","2018/03/23 13:19:40","新北市中和區中正路501號","121.488908333333","24.9935683333333","6500300","中和區"
"235007","352-BY","2018/03/23 13:19:28","新北市中和區景平路377號","121.504135","24.9934366666667","6500300","中和區"
"235025","378-QA","2018/03/23 13:19:28","新北市中和區民德路218號","121.468251666667","24.9978233333333","6500300","中和區"
"235035","269-TV","2018/03/23 13:19:43","新北市中和區永和路335-2號","121.48485","25.0112483333333","6500300","中和區"
"235014","4979-A6","2018/03/23 13:19:29","新北市中和區南山路325號","121.50523","24.991205","6500300","中和區"
"235033","4980-A6","2018/03/23 13:19:42","新北市中和區安邦街33號","121.496141666667","24.9978666666667","6500300","中和區"
"235006","551-UM","2018/03/23 13:19:34","新北市中和區大仁街20巷25弄21號","121.518675","24.9936633333333","6500300","中和區"
"235034","558-UM","2018/03/23 13:19:09","新北市中和區圓通路181號","121.497775","24.9946616666667","6500300","中和區"
"235009","565-BX","2018/03/23 13:19:45","新北市中和區復興路301巷27號","121.50201","24.9897783333333","6500300","中和區"
"235018","640-BX","2018/03/23 13:19:42","新北市中和區國光街116號","121.469725","25.0008233333333","6500300","中和區"
"235024","647-TV","2018/03/23 13:19:42","新北市中和區員山路36巷16-3號","121.484955","24.9916333333333","6500300","中和區"
"235011","732-UM","2018/03/23 13:19:28","新北市中和區中正路752號","121.485355","24.998665","6500300","中和區"
"235026","800-TS","2018/03/23 13:19:31","新北市中和區景平路989巷2號","121.495803333333","25.0055833333333","6500300","中和區"
"235021","801-TS","2018/03/23 13:19:28","新北市中和區民利街10號","121.480755","24.99918","6500300","中和區"
"235005","802-TS","2018/03/23 13:19:46","新北市中和區中和路260號","121.50784","24.9992883333333","6500300","中和區"
"235016","805-TS","2018/03/23 13:19:33","新北市中和區南山路345號","121.50563","24.9908416666667","6500300","中和區"
"235017","900-TW","2018/03/23 13:19:42","新北市中和區員山路36巷16-3號","121.484983333333","24.9917466666667","6500300","中和區"
"235015","157-BY","2018/03/23 13:19:41","新北市中和區忠孝街46-2號","121.51126","24.98353","6500300","中和區"
"235001","AAC-213","2018/03/23 13:19:33","新北市中和區景德街80號","121.51649","24.9915","6500300","中和區"
"207002","749-BX","2018/03/23 13:19:37","新北市萬里區崁腳里崁腳路166號","121.645065","25.155865","6502800","萬里區"
"207001","662-BX","2018/03/23 13:19:41","新北市萬里區龜吼里玉田路43號","121.681418333333","25.188625","6502800","萬里區"
"236006","498-BY","2018/03/23 13:19:44","新北市土城區大安路138巷15號","121.43403","24.9713233333333","6501300","土城區"
"242048","172-VK","2018/03/23 13:19:43","新北市新莊區中正路新建巷13號","121.414151666667","25.0224566666667","6500500","新莊區"
"221032","280-BY","2018/03/23 13:19:46","新北市汐止區新興路28號","121.656336666667","25.0642833333333","6501100","汐止區"
"220030","610-BX","2018/03/23 13:19:34","新北市板橋區華東街1-10號","121.448301666667","24.9949533333333","6500100","板橋區"
"220025","687-BX","2018/03/23 13:19:30","新北市板橋區華東街1-10號","121.44826","24.9950066666667","6500100","板橋區"
