"lineid","car","time","location","longitude","latitude","cityid","cityname"
"234005","207-UY","2018/03/23 14:19:45","新北市永和區中正路644號","121.516945","25.0083183333333","6500400","永和區"
"234078","298-R6","2018/03/23 14:19:34","新北市永和區國中路138-1號","121.52343","25.0068533333333","6500400","永和區"
"234036","336-UY","2018/03/23 14:19:40","新北市永和區成功路一段1號","121.527161666667","25.00534","6500400","永和區"
"234062","337-UY","2018/03/23 14:19:33","新北市永和區得和路106號","121.518048333333","25.0001766666667","6500400","永和區"
"234084","338-UY","2018/03/23 14:19:35","新北市永和區永和路二段91號","121.514763333333","25.0114833333333","6500400","永和區"
"234068","552-UM","2018/03/23 14:19:45","新北市永和區福和路263巷14號","121.517906666667","25.00679","6500400","永和區"
"234015","745-BX","2018/03/23 14:19:40","新北市永和區仁愛路93號","121.512985","25.0129016666667","6500400","永和區"
"234028","746-BX","2018/03/23 14:19:35","新北市永和區民權路49巷17號","121.520926666667","24.9973383333333","6500400","永和區"
"234052","KEA-2590","2018/03/23 14:19:45","新北市永和區光復街2巷18號","121.51711","25.01663","6500400","永和區"
"234012","KEA-2591","2018/03/23 14:19:35","新北市永和區新生路273巷1-1號","121.504808333333","25.0125683333333","6500400","永和區"
"234060","AAD-866","2018/03/23 14:19:38","新北市永和區得和路45巷16弄4號","121.516173333333","25.0007833333333","6500400","永和區"
"234040","862-TW","2018/03/23 14:19:32","新北市永和區安樂路224號","121.514956666667","25.0023533333333","6500400","永和區"
"234048","863-TW","2018/03/23 14:19:49","新北市永和區新生路75號","121.508601666667","25.016145","6500400","永和區"
"234025","9371-KE","2018/03/23 14:19:33","新北市永和區安樂路144巷26號","121.515278333333","24.9996533333333","6500400","永和區"
"248019","225-UY","2018/03/23 14:04:28","新北市五股區凌雲路三段57號","121.425215","25.1250516666667","6501500","五股區"
"234022","9380-KE","2018/03/23 14:19:44","新北市永和區竹林路25巷21號","121.518155","25.0150216666667","6500400","永和區"
"234076","969-R7","2018/03/23 14:19:36","新北市永和區民族街81巷60號","121.52015","24.99657","6500400","永和區"
"234072","AAC-211","2018/03/23 14:19:36","新北市永和區福和路10巷1號","121.524668333333","25.0086066666667","6500400","永和區"
"234066","AAC-212","2018/03/23 14:19:35","新北市永和區保平路292巷13弄6號","121.50713","25.0054483333333","6500400","永和區"
"234001","AAC-295","2018/03/23 14:19:33","新北市永和區中正路618-1號","121.516936666667","25.0077666666667","6500400","永和區"
"244004","248-BX","2018/03/23 14:19:29","新北市林口區竹林路265號","121.389646666667","25.08074","6501700","林口區"
"231029","001-UM","2018/03/23 14:19:39","新北市新店區安康路二段161號","121.510193333333","24.959345","6500600","新店區"
"231002","002-UM","2018/03/23 14:19:26","新北市新店區中央路151號","121.529621666667","24.9723966666667","6500600","新店區"
"231025","0293-UT","2018/03/23 14:19:37","新北市新店區自立街45巷2-1號","121.537055","24.9799733333333","6500600","新店區"
"231028","046-UY","2018/03/23 14:19:41","新北市新店區安和路二段27號","121.518018333333","24.967635","6500600","新店區"
"231030","047-UY","2018/03/23 14:19:42","新北市新店區安民街50號","121.516108333333","24.9658316666667","6500600","新店區"
"231018","107-UY","2018/03/23 14:19:32","新北市新店區中央四街5-1號","121.53012","24.9738316666667","6500600","新店區"
"231012","108-UY","2018/03/23 14:19:41","新北市新店區中興路二段22-2號","121.547006666667","24.97033","6500600","新店區"
"231022","187-VK","2018/03/23 14:19:44","新北市新店區桂山路173巷6-3號","121.570295","24.885665","6500600","新店區"
"231016","KEA-2219","2018/03/23 14:18:55","新北市新店區北宜路二段599號","121.569471666667","24.95607","6500600","新店區"
"231023","AAD-862","2018/03/23 14:19:32","新北市新店區光明街51號","121.538653333333","24.9601283333333","6500600","新店區"
"231027","3712-VJ","2018/03/23 14:19:36","新北市新店區北新路二段94號","121.542965","24.973035","6500600","新店區"
"231024","4716-K9","2018/03/23 14:19:43","新北市新店區薏仁坑路6號","121.500296666667","24.9580116666667","6500600","新店區"
"231038","4715-K9","2018/03/23 14:19:32","新北市新店區溪洲路6巷2-2號","121.533883333333","24.960955","6500600","新店區"
"231036","512-UM","2018/03/23 14:19:35","新北市新店區安祥路109巷127號","121.476785","24.9580116666667","6500600","新店區"
"231035","513-UM","2018/03/23 14:19:41","新北市新店區光華街5巷32號","121.517526666667","24.96798","6500600","新店區"
"231006","617-UM","2018/03/23 14:19:38","新北市新店區玉山路22號","121.568065","24.9555816666667","6500600","新店區"
"231001","619-UM","2018/03/23 14:19:26","新北市新店區北新路一段90號","121.541876666667","24.9685883333333","6500600","新店區"
"231003","641-BX","2018/03/23 14:19:42","新北市新店區中興路一段216號","121.543963333333","24.96579","6500600","新店區"
"231034","645-TV","2018/03/23 14:19:45","新北市新店區黎明路3號","121.503571666667","24.952445","6500600","新店區"
"231013","719-UM","2018/03/23 14:19:30","新北市新店區民權路89號","121.537638333333","24.9827766666667","6500600","新店區"
"231032","720-UM","2018/03/23 14:19:23","新北市新店區溪洲路202-6號","121.528873333333","24.968225","6500600","新店區"
"231005","897-TW","2018/03/23 14:19:46","新北市新店區中興路三段135號","121.544578333333","24.979665","6500600","新店區"
"231004","899-TW","2018/03/23 14:19:37","新北市新店區中正路215號","121.539771666667","24.972865","6500600","新店區"
"231037","AKT-0513","2018/03/23 14:19:43","新北市新店區車子路14號","121.504701666667","24.954135","6500600","新店區"
"235030","003-UY","2018/03/23 14:19:34","新北市中和區中和路102號","121.50268","24.999815","6500300","中和區"
"235028","005-UY","2018/03/23 14:19:39","新北市中和區南山路81巷19號","121.502583333333","24.99815","6500300","中和區"
"235027","006-UY","2018/03/23 14:19:41","新北市中和區連勝街109號","121.495066666667","24.9949516666667","6500300","中和區"
"235020","096-UM","2018/03/23 14:19:35","新北市中和區民富街1號","121.47663","25.0069166666667","6500300","中和區"
"235029","098-UM","2018/03/23 14:19:35","新北市中和區福美路252號","121.498438333333","25.005165","6500300","中和區"
"235004","150-BY","2018/03/23 14:19:29","新北市中和區安平路59號","121.509526666667","24.9953733333333","6500300","中和區"
"235022","151-BY","2018/03/23 14:19:22","新北市中和區員山路36巷16-2號","121.485243333333","24.9915833333333","6500300","中和區"
"235019","183-VK","2018/03/23 14:19:31","新北市中和區中山路三段181巷20號","121.47298","25.0054216666667","6500300","中和區"
"235002","185-VK","2018/03/23 14:19:41","新北市中和區大仁街10巷37號","121.519526666667","24.992445","6500300","中和區"
"235013","186-VK","2018/03/23 14:19:40","新北市中和區景新街230巷5號","121.508148333333","24.994085","6500300","中和區"
"235031","255-BX","2018/03/23 14:19:39","新北市中和區中正路813號","121.484301666667","25.0017316666667","6500300","中和區"
"235008","293-VK","2018/03/23 14:19:40","新北市中和區中興街230巷11號","121.499663333333","24.9883133333333","6500300","中和區"
"235036","301-VK","2018/03/23 14:19:36","新北市中和區福美路298-1號","121.497235","25.0049383333333","6500300","中和區"
"235007","352-BY","2018/03/23 14:19:48","新北市中和區景平路296號","121.513211666667","24.9925966666667","6500300","中和區"
"235032","377-QA","2018/03/23 14:19:34","新北市中和區枋寮街4號","121.502263333333","24.999845","6500300","中和區"
"235025","378-QA","2018/03/23 14:19:48","新北市中和區民利街31巷2弄8號","121.479763333333","24.9987066666667","6500300","中和區"
"235035","269-TV","2018/03/23 14:19:43","新北市中和區中正路764號","121.485675","24.9996083333333","6500300","中和區"
"235014","4979-A6","2018/03/23 14:19:29","新北市中和區景安路208巷10號","121.503495","24.9912416666667","6500300","中和區"
"235033","4980-A6","2018/03/23 14:19:41","新北市中和區景平路736巷3弄4號","121.497323333333","25.003685","6500300","中和區"
"235006","551-UM","2018/03/23 14:19:34","新北市永和區民有街20號","121.51663","24.996565","6500300","中和區"
"235034","558-UM","2018/03/23 14:19:49","新北市中和區連城路71號","121.497318333333","25.0010866666667","6500300","中和區"
"235009","565-BX","2018/03/23 14:19:45","新北市中和區景新街423巷35弄11號","121.513973333333","24.9901483333333","6500300","中和區"
"235018","640-BX","2018/03/23 14:19:42","新北市中和區國光街109巷2弄8號","121.469401666667","25.0007183333333","6500300","中和區"
"235024","647-TV","2018/03/23 14:19:42","新北市中和區中山路三段41號","121.477131666667","25.0056266666667","6500300","中和區"
"235011","732-UM","2018/03/23 14:19:50","新北市中和區景平路239巷32號","121.508475","24.992215","6500300","中和區"
"235010","733-UM","2018/03/23 14:19:44","新北市中和區忠孝街2巷8-2號","121.51031","24.982025","6500300","中和區"
"235026","800-TS","2018/03/23 14:19:45","新北市中和區中山路二段480號","121.48773","25.0048333333333","6500300","中和區"
"235021","801-TS","2018/03/23 14:19:40","新北市中和區員山路423巷2弄2號","121.480726666667","25.0033883333333","6500300","中和區"
"235005","802-TS","2018/03/23 14:19:46","新北市中和區中和路260-1號","121.50809","24.99941","6500300","中和區"
"235016","805-TS","2018/03/23 14:19:33","新北市中和區華新街143巷8-1號","121.506528333333","24.9809466666667","6500300","中和區"
"235012","896-TW","2018/03/23 14:19:35","新北市中和區華新街109巷4號","121.509036666667","24.9821","6500300","中和區"
"235017","900-TW","2018/03/23 14:19:42","新北市中和區華安街17巷9號","121.466825","24.9982683333333","6500300","中和區"
"235015","157-BY","2018/03/23 14:19:40","新北市中和區景平路239巷33弄16號","121.509421666667","24.9921383333333","6500300","中和區"
"235001","AAC-213","2018/03/23 14:19:33","新北市中和區秀朗路三段10巷37弄4號","121.524086666667","24.9958566666667","6500300","中和區"
"235023","AAC-215","2018/03/23 14:19:41","新北市中和區圓通路286巷2號","121.491541666667","24.9911033333333","6500300","中和區"
"220013","072-UY","2018/03/23 14:19:42","新北市板橋區國泰街75巷33號","121.467958333333","25.005405","6500100","板橋區"
"220034","073-UY","2018/03/23 14:19:37","新北市板橋區中正路216巷22號","121.456746666667","25.0185033333333","6500100","板橋區"
"220017","AAD-861","2018/03/23 14:19:49","新北市板橋區貴興路41號","121.457441666667","25.0036933333333","6500100","板橋區"
"247023","893-R6","2018/03/23 14:19:31","新北市蘆洲區長榮路703號","121.460978333333","25.0929366666667","6501400","蘆洲區"
"247013","546-UM","2018/03/23 14:19:32","新北市蘆洲區成功路75號","121.473026666667","25.0808","6501400","蘆洲區"
"247021","500-BY","2018/03/23 14:19:37","新北市蘆洲區三民路300巷21號","121.466115","25.0914083333333","6501400","蘆洲區"
"247009","341-TH","2018/03/23 14:19:32","新北市蘆洲區三民路26巷22號","121.477436666667","25.08295","6501400","蘆洲區"
"247011","339-TH","2018/03/23 14:19:28","新北市蘆洲區民權路3巷24號","121.475165","25.0852266666667","6501400","蘆洲區"
"247005","336-TH","2018/03/23 14:19:43","新北市蘆洲區長安街23巷3號","121.463778333333","25.0788483333333","6501400","蘆洲區"
"247003","335-TH","2018/03/23 14:19:44","新北市蘆洲區長安街172巷35弄11號","121.46029","25.084415","6501400","蘆洲區"
"247017","057-VK","2018/03/23 14:19:41","新北市蘆洲區民權路94號","121.474146666667","25.087965","6501400","蘆洲區"
"247007","056-VK","2018/03/23 14:19:41","新北市蘆洲區中山一路97巷1號","121.47716","25.0811383333333","6501400","蘆洲區"
"247015","007-UY","2018/03/23 14:19:40","新北市蘆洲區中正路185巷76號","121.46631","25.0843116666667","6501400","蘆洲區"
"247001","002-UY","2018/03/23 14:19:29","新北市蘆洲區永樂街52號","121.457541666667","25.088495","6501400","蘆洲區"
"247019","001-UY","2018/03/23 14:19:29","新北市蘆洲區仁愛街37號","121.472198333333","25.09287","6501400","蘆洲區"
"207002","749-BX","2018/03/23 14:19:46","新北市萬里區溪底里溪底路6-2號","121.616805","25.1510966666667","6502800","萬里區"
"207001","662-BX","2018/03/23 14:19:41","新北市萬里區磺潭里清水18號","121.637688333333","25.1978583333333","6502800","萬里區"
"236067","105-UM","2018/03/23 14:19:43","新北市土城區明德路一段128巷17號","121.46301","24.9788483333333","6501300","土城區"
"236041","107-UM","2018/03/23 14:19:42","新北市土城區樂利街3巷2號","121.448398333333","24.986105","6501300","土城區"
"236077","166-UM","2018/03/23 14:19:41","新北市土城區中央路三段281巷11弄3號","121.42645","24.9628716666667","6501300","土城區"
"236029","253-BX","2018/03/23 14:19:40","新北市土城區順風路66號","121.440281666667","24.9775816666667","6501300","土城區"
"236024","269-VK","2018/03/23 14:19:47","新北市土城區承天路28號","121.439673333333","24.963275","6501300","土城區"
"236013","270-VK","2018/03/23 14:19:28","新北市土城區青雲路39巷7號","121.460311666667","24.9875216666667","6501300","土城區"
"236035","271-VK","2018/03/23 14:19:48","新北市土城區青雲路483巷1號","121.459433333333","24.9737916666667","6501300","土城區"
"236019","401-BY","2018/03/23 14:19:37","新北市土城區清水路149號","121.458523333333","24.9815866666667","6501300","土城區"
"236006","498-BY","2018/03/23 14:19:44","新北市土城區中華路一段70巷16號","121.44436","24.9889316666667","6501300","土城區"
"236057","912-UM","2018/03/23 14:19:27","新北市土城區中央路四段211號","121.413825","24.9559316666667","6501300","土城區"
"236046","913-UM","2018/03/23 14:19:35","新北市土城區明德路一段361-2號","121.456461666667","24.977685","6501300","土城區"
"236061","915-UM","2018/03/23 14:19:39","新北市土城區延壽路44巷11號","121.471446666667","24.9929166666667","6501300","土城區"
"236054","AAC-216","2018/03/23 14:19:47","新北市土城區中華路二段102號","121.438045","24.9743733333333","6501300","土城區"
"242051","441-UM","2018/03/23 14:19:40","新北市新莊區瓊林路59-20號","121.44079","25.0216466666667","6500500","新莊區"
"220027","145-BY","2018/03/23 14:19:33","新北市板橋區民權路202巷17弄26號","121.459785","25.01665","6500100","板橋區"
"220105","KEA-2550","2018/03/23 14:19:45","新北市板橋區雙十路三段68巷2號","121.470498333333","25.031975","6500100","板橋區"
"220030","610-BX","2018/03/23 14:19:34","新北市板橋區溪城路115號","121.427473333333","24.9826283333333","6500100","板橋區"
"220050","245-BX","2018/03/23 14:19:37","新北市板橋區莊敬路25巷4弄9-1號","121.474071666667","25.0269916666667","6500100","板橋區"
"220047","257-TC","2018/03/23 14:19:41","新北市板橋區民有街105號","121.46439","25.0281633333333","6500100","板橋區"
"220004","276-BY","2018/03/23 14:19:34","新北市板橋區干城路20巷1號","121.459305","24.9934933333333","6500100","板橋區"
"220020","277-BY","2018/03/23 14:19:41","新北市板橋區金門街278-3號","121.429455","24.98597","6500100","板橋區"
"220043","280-UM","2018/03/23 14:19:27","新北市板橋區吳鳳路23號","121.467011666667","25.0310316666667","6500100","板橋區"
"220012","282-UM","2018/03/23 14:19:49","新北市板橋區中山路一段26號","121.460363333333","25.0084466666667","6500100","板橋區"
"220019","283-VK","2018/03/23 14:19:42","新北市板橋區忠孝路48巷9弄2-1號","121.461211666667","25.0000666666667","6500100","板橋區"
"220001","285-VK","2018/03/23 14:19:41","新北市板橋區縣民大道三段270巷13號","121.478488333333","25.02305","6500100","板橋區"
"220031","286-VK","2018/03/23 14:19:31","新北市板橋區龍興街73巷35-4號","121.4424","25.0027083333333","6500100","板橋區"
"220029","287-VK","2018/03/23 14:19:32","新北市板橋區南雅西路一段59號","121.453613333333","25.005155","6500100","板橋區"
"220039","288-VK","2018/03/23 14:19:44","新北市板橋區長江路一段106巷13弄28號","121.461145","25.029635","6500100","板橋區"
"220009","293-UM","2018/03/23 14:19:32","新北市板橋區光復街8號","121.481226666667","25.0192616666667","6500100","板橋區"
"220032","296-UM","2018/03/23 14:19:32","新北市板橋區篤行路三段玉平巷76弄2號","121.427981666667","24.9855616666667","6500100","板橋區"
"220023","303-R5","2018/03/23 14:19:36","新北市板橋區南雅南路一段71號","121.4559","25.00558","6500100","板橋區"
"220010","305-R5","2018/03/23 14:19:44","新北市板橋區三民路二段153巷4號","121.479643333333","25.0149033333333","6500100","板橋區"
"220041","307-R5","2018/03/23 14:19:40","新北市板橋區松江街41號","121.468633333333","25.0272816666667","6500100","板橋區"
"220028","461-BY","2018/03/23 14:19:45","新北市板橋區大觀路二段37巷166號","121.44933","25.001615","6500100","板橋區"
"220037","491-VK","2018/03/23 14:19:37","新北市板橋區雙十路二段149號","121.474755","25.028195","6500100","板橋區"
"220104","560-BX","2018/03/23 14:19:39","新北市板橋區中正路433巷25號","121.453285","25.023615","6500100","板橋區"
"220052","561-BX","2018/03/23 14:19:31","新北市板橋區文化路一段188巷5弄13號","121.467481666667","25.0197766666667","6500100","板橋區"
"220011","609-BX","2018/03/23 14:19:31","新北市板橋區三民路二段204-3號","121.478851666667","25.0123483333333","6500100","板橋區"
"220040","637-BX","2018/03/23 14:19:42","新北市板橋區文聖街72-5號","121.477168333333","25.0304883333333","6500100","板橋區"
"220005","686-BX","2018/03/23 14:19:48","新北市中和區壽德街13-3號","121.465268333333","24.99561","6500100","板橋區"
"220025","687-BX","2018/03/23 14:19:39","新北市板橋區大觀路二段77號","121.446411666667","25.0021016666667","6500100","板橋區"
"220042","689-BX","2018/03/23 14:19:43","新北市板橋區漢生西路36號","121.463366666667","25.0182966666667","6500100","板橋區"
"220002","741-BX","2018/03/23 14:19:39","新北市板橋區光明街86號","121.461865","25.0028083333333","6500100","板橋區"
"220051","KEA-2699","2018/03/23 14:19:49","新北市板橋區文聖街80號","121.477458333333","25.03006","6500100","板橋區"
"220003","827-TW","2018/03/23 14:19:42","新北市板橋區民族路57號","121.464638333333","25.008865","6500100","板橋區"
"220014","829-TW","2018/03/23 14:19:44","新北市板橋區長安街216號","121.474703333333","25.01225","6500100","板橋區"
"220016","830-TW","2018/03/23 14:19:45","新北市板橋區縣民大道418-1號","121.48217","25.025935","6500100","板橋區"
"220045","831-TW","2018/03/23 14:19:27","新北市板橋區大同街50巷37號","121.479173333333","25.0268283333333","6500100","板橋區"
"220038","833-TW","2018/03/23 14:19:41","新北市板橋區文化路一段295號","121.464885","25.0187866666667","6500100","板橋區"
"220022","895-R6","2018/03/23 14:19:30","新北市板橋區府中路93號","121.457111666667","25.0095183333333","6500100","板橋區"
"220021","985-R7","2018/03/23 14:19:34","新北市板橋區中正路346號","121.45428","25.02366","6500100","板橋區"
"220046","AAC-210","2018/03/23 14:19:48","新北市板橋區幸福路62號","121.461103333333","25.0200933333333","6500100","板橋區"
"220018","AAC-253","2018/03/23 14:19:32","新北市板橋區實踐路132號","121.464413333333","25.002585","6500100","板橋區"
