"lineid","car","time","location","longitude","latitude","cityid","cityname"
"234005","207-UY","2018/03/23 14:29:45","新北市永和區安樂路196號","121.515105","25.001505","6500400","永和區"
"234078","298-R6","2018/03/23 14:29:34","新北市永和區永貞路82號","121.52011","25.0050933333333","6500400","永和區"
"234062","337-UY","2018/03/23 14:29:33","新北市永和區中正路439號","121.517","25.00517","6500400","永和區"
"234084","338-UY","2018/03/23 14:29:35","新北市永和區光復街21號","121.516488333333","25.0173616666667","6500400","永和區"
"234068","552-UM","2018/03/23 14:29:32","新北市永和區永亨路7號","121.519391666667","25.0057083333333","6500400","永和區"
"234028","746-BX","2018/03/23 14:29:35","新北市永和區民生路24號","121.522586666667","24.9972533333333","6500400","永和區"
"234052","KEA-2590","2018/03/23 14:29:45","新北市永和區環河東路一段80號","121.519545","25.0164683333333","6500400","永和區"
"234040","862-TW","2018/03/23 14:29:32","新北市永和區自由街20號","121.514435","25.006515","6500400","永和區"
"234048","863-TW","2018/03/23 14:29:33","新北市永和區環河西路二段87號","121.506636666667","25.0150433333333","6500400","永和區"
"234025","9371-KE","2018/03/23 14:29:33","新北市中和區中安街104-1號","121.511535","25.0010683333333","6500400","永和區"
"248019","225-UY","2018/03/23 14:04:28","新北市五股區凌雲路三段57號","121.425215","25.1250516666667","6501500","五股區"
"234072","AAC-211","2018/03/23 14:29:36","新北市永和區竹林路119巷22弄2號","121.52113","25.0114866666667","6500400","永和區"
"234001","AAC-295","2018/03/23 14:29:33","新北市永和區大新街16號","121.51507","25.00851","6500400","永和區"
"244004","248-BX","2018/03/23 14:29:49","新北市林口區竹林路267號","121.389626666667","25.0808016666667","6501700","林口區"
"231029","001-UM","2018/03/23 14:29:39","新北市新店區安康路二段383號","121.49489","24.954585","6500600","新店區"
"231002","002-UM","2018/03/23 14:29:46","新北市新店區中央路7號","121.533441666667","24.9786216666667","6500600","新店區"
"231025","0293-UT","2018/03/23 14:29:37","新北市新店區民族路161號","121.537766666667","24.9768716666667","6500600","新店區"
"231028","046-UY","2018/03/23 14:29:41","新北市新店區安康路二段147號","121.511203333333","24.9598116666667","6500600","新店區"
"231030","047-UY","2018/03/23 14:29:42","新北市新店區安民街152號","121.516686666667","24.9699066666667","6500600","新店區"
"231018","107-UY","2018/03/23 14:29:32","新北市新店區中央三街31號","121.528271666667","24.9742133333333","6500600","新店區"
"231012","108-UY","2018/03/23 14:29:41","新北市新店區中興路二段236巷1號","121.548021666667","24.9757216666667","6500600","新店區"
"231022","187-VK","2018/03/23 14:29:44","新北市新店區桂山路81巷3號","121.566611666667","24.895715","6500600","新店區"
"231016","KEA-2219","2018/03/23 14:29:35","新北市新店區雙峰路20號","121.582221666667","24.9502316666667","6500600","新店區"
"231023","AAD-862","2018/03/23 14:29:32","新北市新店區光明街137號","121.5395","24.9620033333333","6500600","新店區"
"231027","3712-VJ","2018/03/23 14:29:36","新北市新店區寶橋路69-1號","121.545455","24.9751133333333","6500600","新店區"
"231024","4716-K9","2018/03/23 14:29:43","新北市新店區薏仁坑路自強巷1號","121.497811666667","24.957665","6500600","新店區"
"231038","4715-K9","2018/03/23 14:29:32","新北市新店區溪洲路8巷101號","121.532783333333","24.96325","6500600","新店區"
"231036","512-UM","2018/03/23 14:29:35","新北市新店區安祥路106巷185號","121.473996666667","24.9598533333333","6500600","新店區"
"231035","513-UM","2018/03/23 14:29:41","新北市新店區安光路11號","121.513471666667","24.9639316666667","6500600","新店區"
"231006","617-UM","2018/03/23 14:29:38","新北市新店區北宜路二段353號","121.558313333333","24.954245","6500600","新店區"
"231001","619-UM","2018/03/23 14:29:46","新北市新店區北新路一段96巷23號","121.54295","24.968905","6500600","新店區"
"231003","641-BX","2018/03/23 14:29:42","新北市新店區中興路一段280號","121.54554","24.9684633333333","6500600","新店區"
"231034","645-TV","2018/03/23 14:29:45","新北市新店區黎明路60巷2號","121.502326666667","24.9469766666667","6500600","新店區"
"231013","719-UM","2018/03/23 14:29:30","新北市新店區民權路108-4號","121.536043333333","24.9833666666667","6500600","新店區"
"231032","720-UM","2018/03/23 14:29:42","新北市新店區安業街33號","121.517796666667","24.9769583333333","6500600","新店區"
"231005","897-TW","2018/03/23 14:29:46","新北市新店區北新路三段218號","121.541056666667","24.98438","6500600","新店區"
"231004","899-TW","2018/03/23 14:29:37","新北市新店區中正路282號","121.538585","24.9737883333333","6500600","新店區"
"231037","AKT-0513","2018/03/23 14:29:43","新北市新店區安康路二段320巷6號","121.504805","24.9598916666667","6500600","新店區"
"235030","003-UY","2018/03/23 14:29:34","新北市中和區中和路196巷21號","121.505008333333","24.9987083333333","6500300","中和區"
"235028","005-UY","2018/03/23 14:29:39","新北市中和區南山路127巷35號","121.503748333333","24.997555","6500300","中和區"
"235027","006-UY","2018/03/23 14:29:41","新北市中和區連城路203巷10弄19號","121.494933333333","24.99688","6500300","中和區"
"235020","096-UM","2018/03/23 14:29:35","新北市中和區員山路514巷2號","121.479355","25.0096316666667","6500300","中和區"
"235029","098-UM","2018/03/23 14:29:35","新北市中和區莊敬路1號","121.499613333333","25.0044466666667","6500300","中和區"
"235004","150-BY","2018/03/23 14:29:29","新北市中和區安平路59號","121.509526666667","24.9953733333333","6500300","中和區"
"235022","151-BY","2018/03/23 14:29:42","新北市中和區員山路124巷5號","121.481638333333","24.9959883333333","6500300","中和區"
"235019","183-VK","2018/03/23 14:29:31","新北市中和區德光路27巷1弄1號","121.470796666667","25.0040083333333","6500300","中和區"
"235002","185-VK","2018/03/23 14:29:41","新北市中和區自立路31號","121.522103333333","24.9956","6500300","中和區"
"235013","186-VK","2018/03/23 14:29:45","新北市中和區景平路396-2號","121.509781666667","24.9932366666667","6500300","中和區"
"235031","255-BX","2018/03/23 14:26:31","新北市中和區連城路280號","121.484496666667","24.9964316666667","6500300","中和區"
"235008","293-VK","2018/03/23 14:29:40","新北市中和區南山路160號","121.504423333333","24.9917083333333","6500300","中和區"
"235036","301-VK","2018/03/23 14:29:36","新北市中和區光華街8號","121.504238333333","25.00437","6500300","中和區"
"235007","352-BY","2018/03/23 14:29:28","新北市中和區景平路368號","121.511036666667","24.9930266666667","6500300","中和區"
"235032","377-QA","2018/03/23 14:29:33","新北市中和區中山路二段136巷3弄4號","121.501255","25.0036383333333","6500300","中和區"
"235025","378-QA","2018/03/23 14:29:48","新北市中和區員山路226巷5弄3號","121.481686666667","25.000855","6500300","中和區"
"235035","269-TV","2018/03/23 14:29:43","新北市中和區連城路469巷32號","121.483481666667","24.99486","6500300","中和區"
"235014","4979-A6","2018/03/23 14:29:29","新北市中和區中正路454號","121.49075","24.9941916666667","6500300","中和區"
"235033","4980-A6","2018/03/23 14:29:41","新北市中和區連城路134巷18號","121.49523","25.000075","6500300","中和區"
"235006","551-UM","2018/03/23 14:29:34","新北市中和區中安街96-1號","121.511823333333","25.0013966666667","6500300","中和區"
"235034","558-UM","2018/03/23 14:29:29","新北市中和區中和路131號","121.501763333333","24.999975","6500300","中和區"
"235009","565-BX","2018/03/23 14:29:45","新北市中和區景新街514號","121.514203333333","24.9868166666667","6500300","中和區"
"235018","640-BX","2018/03/23 14:29:42","新北市中和區國光街112巷16弄1號","121.469733333333","25.001645","6500300","中和區"
"235024","647-TV","2018/03/23 14:29:42","新北市中和區新生街118巷14號","121.482965","25.001695","6500300","中和區"
"235011","732-UM","2018/03/23 14:29:28","新北市中和區景平路259巷20號","121.5077","24.9927066666667","6500300","中和區"
"235010","733-UM","2018/03/23 14:29:42","新北市中和區忠孝街37巷52號","121.51109","24.9849883333333","6500300","中和區"
"235026","800-TS","2018/03/23 14:29:46","新北市中和區中山路二段403號","121.486155","25.0047616666667","6500300","中和區"
"235021","801-TS","2018/03/23 14:29:48","新北市中和區中山路三段37巷23號","121.479338333333","25.00509","6500300","中和區"
"235005","802-TS","2018/03/23 14:29:46","新北市中和區中和路260-1號","121.508131666667","24.9993633333333","6500300","中和區"
"235016","805-TS","2018/03/23 14:29:33","新北市中和區華新街143巷70號","121.506366666667","24.97923","6500300","中和區"
"235012","896-TW","2018/03/23 14:29:35","新北市中和區忠孝街37巷4號","121.511368333333","24.9836333333333","6500300","中和區"
"235017","900-TW","2018/03/23 14:29:42","新北市中和區民德路197號","121.46901","24.9982533333333","6500300","中和區"
"235015","157-BY","2018/03/23 14:29:40","新北市中和區南山路146巷3號","121.503556666667","24.9923583333333","6500300","中和區"
"235001","AAC-213","2018/03/23 14:29:33","新北市中和區秀朗路三段10巷14弄2號","121.525341666667","24.996515","6500300","中和區"
"235023","AAC-215","2018/03/23 14:29:41","新北市中和區圓通路252巷1號","121.493556666667","24.991065","6500300","中和區"
"220013","072-UY","2018/03/23 14:29:42","新北市板橋區國泰街111巷3號","121.465745","25.00623","6500100","板橋區"
"220034","073-UY","2018/03/23 14:29:37","新北市板橋區中正路250巷107號","121.46005","25.020115","6500100","板橋區"
"220017","AAD-861","2018/03/23 14:29:49","新北市板橋區稚暉街26號","121.455498333333","25.004285","6500100","板橋區"
"247023","893-R6","2018/03/23 14:29:31","新北市蘆洲區中正路263巷2號","121.467431666667","25.0874633333333","6501400","蘆洲區"
"247013","546-UM","2018/03/23 14:29:30","新北市蘆洲區忠孝路22號","121.470956666667","25.08416","6501400","蘆洲區"
"247021","500-BY","2018/03/23 14:29:37","新北市蘆洲區中正路382號","121.463366666667","25.0930233333333","6501400","蘆洲區"
"247009","341-TH","2018/03/23 14:29:32","新北市蘆洲區鷺江街49號","121.478061666667","25.08239","6501400","蘆洲區"
"247011","339-TH","2018/03/23 14:29:48","新北市蘆洲區中興街125號","121.482081666667","25.08942","6501400","蘆洲區"
"247005","336-TH","2018/03/23 14:29:43","新北市蘆洲區長安街48號","121.463378333333","25.079645","6501400","蘆洲區"
"247003","335-TH","2018/03/23 14:29:44","新北市蘆洲區長安街307號","121.457946666667","25.08525","6501400","蘆洲區"
"247017","057-VK","2018/03/23 14:29:41","新北市蘆洲區復興路201號","121.479516666667","25.08951","6501400","蘆洲區"
"247007","056-VK","2018/03/23 14:29:41","新北市蘆洲區和平路16號","121.472303333333","25.0795033333333","6501400","蘆洲區"
"247015","007-UY","2018/03/23 14:29:40","新北市蘆洲區中正路185巷78弄17號","121.465738333333","25.08477","6501400","蘆洲區"
"247001","002-UY","2018/03/23 14:29:29","新北市蘆洲區永樂街38巷33弄60號","121.456433333333","25.0899883333333","6501400","蘆洲區"
"247019","001-UY","2018/03/23 14:29:29","新北市蘆洲區仁愛街101巷9號","121.470541666667","25.093945","6501400","蘆洲區"
"207002","749-BX","2018/03/23 14:29:36","新北市萬里區崁腳里內崁路2-1號","121.639286666667","25.160485","6502800","萬里區"
"207001","662-BX","2018/03/23 14:29:41","新北市萬里區磺潭里員潭路6-2號","121.646435","25.1998916666667","6502800","萬里區"
"236067","105-UM","2018/03/23 14:29:38","新北市土城區永豐路255巷27弄43號","121.47696","24.9737016666667","6501300","土城區"
"236041","107-UM","2018/03/23 14:29:42","新北市土城區學成路91巷1號","121.450505","24.9879516666667","6501300","土城區"
"236077","166-UM","2018/03/23 14:29:38","新北市土城區中央路四段46巷28號","121.421925","24.96165","6501300","土城區"
"236029","253-BX","2018/03/23 14:29:37","新北市土城區水源街37號","121.440835","24.9755816666667","6501300","土城區"
"236024","269-VK","2018/03/23 14:29:28","新北市土城區承天路26號","121.439558333333","24.9632766666667","6501300","土城區"
"236013","270-VK","2018/03/23 14:29:48","新北市土城區青雲路39巷7號","121.460305","24.9875466666667","6501300","土城區"
"236035","271-VK","2018/03/23 14:29:47","新北市土城區明德路一段297號","121.459983333333","24.977265","6501300","土城區"
"236019","401-BY","2018/03/23 14:29:47","新北市土城區永豐路202巷14號","121.466353333333","24.98331","6501300","土城區"
"236006","498-BY","2018/03/23 14:29:44","新北市土城區中華路一段167號","121.443673333333","24.9860683333333","6501300","土城區"
"236057","912-UM","2018/03/23 14:29:27","新北市土城區中央路四段281-6號","121.412273333333","24.9535216666667","6501300","土城區"
"236046","913-UM","2018/03/23 14:29:36","新北市土城區明德路一段319號","121.459201666667","24.9770933333333","6501300","土城區"
"236061","915-UM","2018/03/23 14:29:39","新北市中和區莒光路213號","121.468966666667","24.99463","6501300","土城區"
"236054","AAC-216","2018/03/23 14:29:40","新北市土城區中華路二段61號","121.439446666667","24.97871","6501300","土城區"
"220027","145-BY","2018/03/23 14:29:33","新北市板橋區建國街5號","121.4572","25.0169416666667","6500100","板橋區"
"220105","KEA-2550","2018/03/23 14:29:45","新北市板橋區江寧路三段115-4號","121.473058333333","25.0329383333333","6500100","板橋區"
"220030","610-BX","2018/03/23 14:29:34","新北市板橋區金門街120-3號","121.432965","24.9916933333333","6500100","板橋區"
"220050","245-BX","2018/03/23 14:29:37","新北市板橋區富山街109巷6號","121.475993333333","25.021825","6500100","板橋區"
"220047","257-TC","2018/03/23 14:29:34","新北市板橋區四維路306號","121.462543333333","25.0296733333333","6500100","板橋區"
"220004","276-BY","2018/03/23 14:29:34","新北市板橋區信義路1巷26弄23號","121.458261666667","24.99664","6500100","板橋區"
"220020","277-BY","2018/03/23 14:29:41","新北市板橋區金門街253巷17弄9號","121.433398333333","24.9889933333333","6500100","板橋區"
"220043","280-UM","2018/03/23 14:29:27","新北市板橋區吳鳳路50巷87號","121.470395","25.0304833333333","6500100","板橋區"
"220012","282-UM","2018/03/23 14:29:37","新北市板橋區中山路一段53號","121.460975","25.0093533333333","6500100","板橋區"
"220019","283-VK","2018/03/23 14:29:42","新北市板橋區四川路一段351號","121.458473333333","24.9999066666667","6500100","板橋區"
"220001","285-VK","2018/03/23 14:29:41","新北市板橋區富山街53巷35號","121.477588333333","25.0209183333333","6500100","板橋區"
"220031","286-VK","2018/03/23 14:29:38","新北市板橋區龍興街69號","121.443633333333","25.0016066666667","6500100","板橋區"
"220029","287-VK","2018/03/23 14:29:31","新北市板橋區大觀路一段75巷43號","121.449085","25.0041266666667","6500100","板橋區"
"220039","288-VK","2018/03/23 14:29:44","新北市板橋區裕民街62號","121.461226666667","25.0285683333333","6500100","板橋區"
"220009","293-UM","2018/03/23 14:29:32","新北市板橋區中山路一段275號","121.469138333333","25.013615","6500100","板橋區"
"220032","296-UM","2018/03/23 14:29:32","新北市板橋區滿平二街4號","121.425518333333","24.9864083333333","6500100","板橋區"
"220023","303-R5","2018/03/23 14:29:36","新北市板橋區中正路275巷50號","121.453736666667","25.0182266666667","6500100","板橋區"
"220010","305-R5","2018/03/23 14:29:40","新北市板橋區三民路二段81巷17號","121.480171666667","25.0167216666667","6500100","板橋區"
"220041","307-R5","2018/03/23 14:29:43","新北市板橋區光武街2巷9號","121.468413333333","25.0250716666667","6500100","板橋區"
"220028","461-BY","2018/03/23 14:29:45","新北市板橋區大觀路二段37巷65號","121.449711666667","25.0024683333333","6500100","板橋區"
"220037","491-VK","2018/03/23 14:29:34","新北市板橋區雙十路二段39-1號","121.476685","25.0260216666667","6500100","板橋區"
"220104","560-BX","2018/03/23 14:29:39","新北市板橋區中正路379巷1弄19號","121.453098333333","25.0217433333333","6500100","板橋區"
"220052","561-BX","2018/03/23 14:29:31","新北市板橋區介壽街3號","121.467133333333","25.0204966666667","6500100","板橋區"
"220011","609-BX","2018/03/23 14:26:18","新北市板橋區三民路二段257號","121.479106666667","25.0115633333333","6500100","板橋區"
"220040","637-BX","2018/03/23 14:29:42","新北市板橋區文聖街149巷41號","121.480078333333","25.029","6500100","板橋區"
"220005","686-BX","2018/03/23 14:29:28","新北市板橋區和平路101巷3號","121.462466666667","24.9950383333333","6500100","板橋區"
"220025","687-BX","2018/03/23 14:29:48","新北市板橋區僑中二街12巷2號","121.44682","25.010685","6500100","板橋區"
"220042","689-BX","2018/03/23 14:29:43","新北市板橋區雨農路27巷2號","121.461196666667","25.0241766666667","6500100","板橋區"
"220002","741-BX","2018/03/23 14:29:39","新北市板橋區忠孝路239巷34號","121.467345","25.003555","6500100","板橋區"
"220051","KEA-2699","2018/03/23 14:29:49","新北市板橋區松柏街22巷9-2號","121.474716666667","25.02947","6500100","板橋區"
"220003","827-TW","2018/03/23 14:29:42","新北市板橋區重慶路290巷22弄14號","121.462258333333","24.9994766666667","6500100","板橋區"
"220014","829-TW","2018/03/23 14:29:43","新北市板橋區漢生東路313巷2弄66號","121.47272","25.0080583333333","6500100","板橋區"
"220016","830-TW","2018/03/23 14:29:45","新北市板橋區萬安街103巷4號","121.483271666667","25.0247183333333","6500100","板橋區"
"220045","831-TW","2018/03/23 14:29:47","新北市板橋區莊敬路168號","121.471703333333","25.0225716666667","6500100","板橋區"
"220038","833-TW","2018/03/23 14:29:41","新北市板橋區民權路202巷16弄11號","121.461238333333","25.0160533333333","6500100","板橋區"
"220022","895-R6","2018/03/23 14:29:30","新北市板橋區東門街30號","121.457995","25.008625","6500100","板橋區"
"220021","985-R7","2018/03/23 14:29:31","新北市板橋區瑞安街51號","121.455306666667","25.02225","6500100","板橋區"
"220046","AAC-210","2018/03/23 14:29:46","新北市板橋區漢生西路137號","121.462888333333","25.0216666666667","6500100","板橋區"
"220018","AAC-253","2018/03/23 14:29:43","新北市板橋區四川路一段60號","121.45962","25.00565","6500100","板橋區"
