"lineid","car","time","location","longitude","latitude","cityid","cityname"
"234062","337-UY","2018/03/23 14:39:33","新北市中和區立德街26巷17弄9號","121.490616666667","25.0091833333333","6500400","永和區"
"234084","338-UY","2018/03/23 14:39:35","新北市中和區光環路二段27號","121.487665","25.01353","6500400","永和區"
"234028","746-BX","2018/03/23 14:39:35","新北市永和區成功路二段201巷10弄10號","121.527618333333","24.9957283333333","6500400","永和區"
"234052","KEA-2590","2018/03/23 14:39:45","新北市永和區環河東路一段80號","121.519518333333","25.0164283333333","6500400","永和區"
"234025","9371-KE","2018/03/23 14:39:33","新北市永和區雙和街7巷7號","121.50951","25.0015283333333","6500400","永和區"
"234072","AAC-211","2018/03/23 14:39:36","新北市永和區環河東路二段54-1號","121.523371666667","25.0115466666667","6500400","永和區"
"244004","248-BX","2018/03/23 14:39:29","新北市林口區竹林路267號","121.389626666667","25.0808166666667","6501700","林口區"
"231029","001-UM","2018/03/23 14:39:39","新北市新店區安康路三段356-1號","121.48609","24.951755","6500600","新店區"
"231002","002-UM","2018/03/23 14:39:46","新北市新店區中正路468號","121.534005","24.979445","6500600","新店區"
"231025","0293-UT","2018/03/23 14:39:37","新北市新店區民族路161號","121.53778","24.97687","6500600","新店區"
"231028","046-UY","2018/03/23 14:39:41","新北市新店區安德街60巷27號","121.511135","24.9633316666667","6500600","新店區"
"231030","047-UY","2018/03/23 14:39:42","新北市新店區安民街318號","121.517551666667","24.9742666666667","6500600","新店區"
"231018","107-UY","2018/03/23 14:39:32","新北市新店區中央一街29號","121.528036666667","24.973475","6500600","新店區"
"231012","108-UY","2018/03/23 14:39:41","新北市新店區寶橋路98號","121.547141666667","24.9760566666667","6500600","新店區"
"231022","187-VK","2018/03/23 14:39:44","新北市新店區新烏路三段69號","121.554548333333","24.9036166666667","6500600","新店區"
"231016","KEA-2219","2018/03/23 14:39:35","新北市新店區北宜路三段283號","121.604016666667","24.95567","6500600","新店區"
"231023","AAD-862","2018/03/23 14:39:32","新北市新店區檳榔路43巷1號","121.542896666667","24.9631866666667","6500600","新店區"
"231027","3712-VJ","2018/03/23 14:39:36","新北市新店區中正路328巷1號","121.536903333333","24.9753433333333","6500600","新店區"
"231024","4716-K9","2018/03/23 14:39:43","新北市新店區安和路三段4巷3號","121.518871666667","24.9808866666667","6500600","新店區"
"231038","4715-K9","2018/03/23 14:39:32","新北市新店區溪洲路160號","121.530275","24.9646566666667","6500600","新店區"
"231036","512-UM","2018/03/23 14:39:35","新北市新店區安祥路106巷2號","121.47893","24.9623983333333","6500600","新店區"
"231035","513-UM","2018/03/23 14:39:41","新北市新店區安康路二段58巷9號","121.513465","24.9640466666667","6500600","新店區"
"231006","617-UM","2018/03/23 14:39:38","新北市新店區北宜路二段103號","121.550196666667","24.9523783333333","6500600","新店區"
"231001","619-UM","2018/03/23 14:39:46","新北市新店區中正路106號","121.543183333333","24.970605","6500600","新店區"
"231003","641-BX","2018/03/23 14:39:42","新北市新店區中興路二段192號","121.548396666667","24.9734883333333","6500600","新店區"
"231034","645-TV","2018/03/23 14:39:45","新北市新店區黎明路9號","121.50263","24.9506516666667","6500600","新店區"
"231013","719-UM","2018/03/23 14:39:30","新北市新店區明德路24-1號","121.541945","24.977195","6500600","新店區"
"231005","897-TW","2018/03/23 14:39:46","新北市新店區復興路94號","121.532183333333","24.9883716666667","6500600","新店區"
"231004","899-TW","2018/03/23 14:39:37","新北市新店區中正路265-2號","121.537931666667","24.9741233333333","6500600","新店區"
"231037","AKT-0513","2018/03/23 14:39:43","新北市新店區柴埕路60巷32號","121.506721666667","24.9671816666667","6500600","新店區"
"235030","003-UY","2018/03/23 14:39:34","新北市中和區中和路196巷9弄5號","121.505331666667","24.9991766666667","6500300","中和區"
"235027","006-UY","2018/03/23 14:39:41","新北市中和區連城路174巷39號","121.494406666667","25.0003383333333","6500300","中和區"
"235020","096-UM","2018/03/23 14:39:35","新北市中和區員山路581巷2弄7-2號","121.477888333333","25.0097233333333","6500300","中和區"
"235029","098-UM","2018/03/23 14:39:35","新北市中和區福美路236號","121.498928333333","25.0052583333333","6500300","中和區"
"235004","150-BY","2018/03/23 14:29:29","新北市中和區安平路59號","121.509526666667","24.9953733333333","6500300","中和區"
"235022","151-BY","2018/03/23 14:39:42","新北市中和區員山路187號","121.481236666667","24.997175","6500300","中和區"
"235019","183-VK","2018/03/23 14:39:31","新北市中和區民生街10巷2號","121.471023333333","25.0058033333333","6500300","中和區"
"235002","185-VK","2018/03/23 14:39:41","新北市中和區大智街55巷36號","121.52058","24.9931666666667","6500300","中和區"
"235013","186-VK","2018/03/23 14:39:40","新北市中和區安平路16號","121.509225","24.9941866666667","6500300","中和區"
"235031","255-BX","2018/03/23 14:39:48","新北市中和區新生街186巷5弄7號","121.482893333333","24.9994083333333","6500300","中和區"
"235008","293-VK","2018/03/23 14:39:40","新北市中和區興南路一段146號","121.508478333333","24.9870516666667","6500300","中和區"
"235036","301-VK","2018/03/23 14:39:42","新北市中和區中山路二段3巷22弄7號","121.506275","25.005105","6500300","中和區"
"235007","352-BY","2018/03/23 14:39:48","新北市中和區南華路16號","121.502635","24.99549","6500300","中和區"
"235032","377-QA","2018/03/23 14:39:34","新北市中和區中山路二段250巷24號","121.497346666667","25.0033966666667","6500300","中和區"
"235035","269-TV","2018/03/23 14:39:43","新北市中和區建一路154號","121.48798","24.9982366666667","6500300","中和區"
"235014","4979-A6","2018/03/23 14:39:29","新北市中和區錦和路350-1號","121.490396666667","24.99357","6500300","中和區"
"235006","551-UM","2018/03/23 14:39:34","新北市中和區景安路23號","121.507753333333","24.9988066666667","6500300","中和區"
"235034","558-UM","2018/03/23 14:39:29","新北市中和區景平路597號","121.497201666667","25.000785","6500300","中和區"
"235009","565-BX","2018/03/23 14:39:45","新北市中和區景平路177號","121.511995","24.9925983333333","6500300","中和區"
"235018","640-BX","2018/03/23 14:39:42","新北市中和區德光路78號","121.469111666667","25.003745","6500300","中和區"
"235024","647-TV","2018/03/23 14:39:42","新北市中和區中山路二段521號","121.481691666667","25.00501","6500300","中和區"
"235011","732-UM","2018/03/23 14:39:28","新北市中和區捷運路16號","121.50891","24.98994","6500300","中和區"
"235010","733-UM","2018/03/23 14:39:42","新北市中和區景新街487號","121.513741666667","24.9873466666667","6500300","中和區"
"235026","800-TS","2018/03/23 14:39:45","新北市中和區錦和路25號","121.486626666667","25.0027983333333","6500300","中和區"
"235021","801-TS","2018/03/23 14:39:28","新北市中和區中山路三段6號","121.479661666667","25.0061033333333","6500300","中和區"
"235005","802-TS","2018/03/23 14:39:46","新北市中和區永貞路245號","121.512941666667","25.003855","6500300","中和區"
"235016","805-TS","2018/03/23 14:39:46","新北市中和區華新街192巷20號","121.50644","24.98309","6500300","中和區"
"235012","896-TW","2018/03/23 14:39:35","新北市中和區四維街19號","121.513035","24.98716","6500300","中和區"
"235017","900-TW","2018/03/23 14:39:46","新北市中和區民德路76號","121.468611666667","25.0015783333333","6500300","中和區"
"235015","157-BY","2018/03/23 14:39:40","新北市中和區中興街156號","121.499896666667","24.991765","6500300","中和區"
"235001","AAC-213","2018/03/23 14:39:33","新北市中和區秀朗路三段50巷4弄1號","121.525713333333","24.99546","6500300","中和區"
"235023","AAC-215","2018/03/23 14:39:41","新北市中和區圓通路256號","121.493423333333","24.9909516666667","6500300","中和區"
"220013","072-UY","2018/03/23 14:39:42","新北市板橋區民族路270巷37號","121.46926","25.0060766666667","6500100","板橋區"
"220034","073-UY","2018/03/23 14:39:37","新北市板橋區國光路11號","121.456673333333","25.0173783333333","6500100","板橋區"
"220017","AAD-861","2018/03/23 14:39:49","新北市板橋區南雅南路二段4巷2號","121.45443","25.003605","6500100","板橋區"
"247023","893-R6","2018/03/23 14:39:31","新北市蘆洲區正和街63巷11號","121.469341666667","25.0806083333333","6501400","蘆洲區"
"247013","546-UM","2018/03/23 14:39:30","新北市蘆洲區成功路185號","121.471866666667","25.082995","6501400","蘆洲區"
"247009","341-TH","2018/03/23 14:39:32","新北市蘆洲區信義路222巷57號","121.481005","25.0855416666667","6501400","蘆洲區"
"247011","339-TH","2018/03/23 14:39:45","新北市蘆洲區中興街57號","121.481535","25.0876","6501400","蘆洲區"
"247005","336-TH","2018/03/23 14:39:43","新北市蘆洲區中華街40號","121.462468333333","25.0810416666667","6501400","蘆洲區"
"247003","335-TH","2018/03/23 14:39:44","新北市蘆洲區環堤大道92號","121.455288333333","25.0850416666667","6501400","蘆洲區"
"247007","056-VK","2018/03/23 14:39:41","新北市蘆洲區信義路7號","121.473903333333","25.07927","6501400","蘆洲區"
"247015","007-UY","2018/03/23 14:39:40","新北市蘆洲區正和街32號","121.469631666667","25.0819833333333","6501400","蘆洲區"
"247001","002-UY","2018/03/23 14:39:29","新北市蘆洲區長安街274巷9號","121.457825","25.0871266666667","6501400","蘆洲區"
"247019","001-UY","2018/03/23 14:39:49","新北市蘆洲區民權路176號","121.47197","25.0902583333333","6501400","蘆洲區"
"207002","749-BX","2018/03/23 14:39:36","新北市萬里區崁腳里崁腳路73號","121.647588333333","25.1596133333333","6502800","萬里區"
"207001","662-BX","2018/03/23 14:39:16","新北市萬里區雙興里豐稟路31-1號","121.64301","25.1810866666667","6502800","萬里區"
"236067","105-UM","2018/03/23 14:39:38","新北市土城區永豐路173號","121.469655","24.9788733333333","6501300","土城區"
"236041","107-UM","2018/03/23 14:39:42","新北市土城區裕民路92巷21弄2號","121.449938333333","24.9863716666667","6501300","土城區"
"236077","166-UM","2018/03/23 14:39:43","新北市土城區中央路四段67巷60-13號","121.417023333333","24.956055","6501300","土城區"
"236029","253-BX","2018/03/23 14:39:37","新北市土城區中華路二段118號","121.4379","24.973905","6501300","土城區"
"236024","269-VK","2018/03/23 14:39:47","新北市土城區千歲路13號","121.44089","24.9695866666667","6501300","土城區"
"236013","270-VK","2018/03/23 14:39:48","新北市土城區清水路228-5號","121.461601666667","24.9818433333333","6501300","土城區"
"236035","271-VK","2018/03/23 14:39:28","新北市土城區明德路一段232號","121.46048","24.9774616666667","6501300","土城區"
"236019","401-BY","2018/03/23 14:39:43","新北市土城區延吉街253巷14號","121.4677","24.984295","6501300","土城區"
"236057","912-UM","2018/03/23 14:39:27","新北市土城區中央路四段29號","121.423898333333","24.9622633333333","6501300","土城區"
"236046","913-UM","2018/03/23 14:39:35","新北市土城區金城路二段368號","121.462433333333","24.98546","6501300","土城區"
"236061","915-UM","2018/03/23 14:39:46","新北市土城區延壽路13巷19號","121.469931666667","24.9913833333333","6501300","土城區"
"236054","AAC-216","2018/03/23 14:39:40","新北市土城區裕民路34號","121.447996666667","24.9884383333333","6501300","土城區"
"220027","145-BY","2018/03/23 14:39:47","新北市板橋區建國街54巷14號","121.459445","25.016885","6500100","板橋區"
"220105","KEA-2550","2018/03/23 14:39:45","新北市板橋區民治街26巷2號","121.477696666667","25.0339916666667","6500100","板橋區"
"220030","610-BX","2018/03/23 14:39:34","新北市板橋區沙崙街2-5號","121.43112","24.9943533333333","6500100","板橋區"
"220050","245-BX","2018/03/23 14:39:44","新北市板橋區萬板路48號","121.471973333333","25.0228666666667","6500100","板橋區"
"220047","257-TC","2018/03/23 14:39:34","新北市板橋區四維路269巷94弄18號","121.45934","25.0269333333333","6500100","板橋區"
"220004","276-BY","2018/03/23 14:39:34","新北市板橋區四川路二段47巷3弄5號","121.45445","24.9948733333333","6500100","板橋區"
"220020","277-BY","2018/03/23 14:39:47","新北市板橋區金門街215巷6號","121.433098333333","24.9897","6500100","板橋區"
"220043","280-UM","2018/03/23 14:39:47","新北市板橋區宏國路77巷2弄11號","121.469716666667","25.0325816666667","6500100","板橋區"
"220012","282-UM","2018/03/23 14:39:49","新北市板橋區公園街50-3號","121.46221","25.008145","6500100","板橋區"
"220019","283-VK","2018/03/23 14:39:42","新北市板橋區廣權路87號","121.46425","24.9923116666667","6500100","板橋區"
"220001","285-VK","2018/03/23 14:39:41","新北市板橋區中山路二段148巷38號","121.476956666667","25.0159833333333","6500100","板橋區"
"220031","286-VK","2018/03/23 14:39:29","新北市板橋區僑中二街124巷2號","121.445461666667","25.0053583333333","6500100","板橋區"
"220029","287-VK","2018/03/23 14:39:43","新北市板橋區大觀路一段29巷131弄22號","121.450528333333","25.0048683333333","6500100","板橋區"
"220039","288-VK","2018/03/23 14:39:44","新北市板橋區新海路431巷1號","121.457866666667","25.0273366666667","6500100","板橋區"
"220009","293-UM","2018/03/23 14:39:32","新北市板橋區板新路236號","121.46826","25.016095","6500100","板橋區"
"220032","296-UM","2018/03/23 14:39:32","新北市板橋區溪崑二街103巷13號","121.427166666667","24.9887533333333","6500100","板橋區"
"220023","303-R5","2018/03/23 14:39:43","新北市板橋區大勇街77號","121.452935","25.01665","6500100","板橋區"
"220010","305-R5","2018/03/23 14:39:44","新北市板橋區中山路二段416巷38弄36號","121.481691666667","25.0195083333333","6500100","板橋區"
"220041","307-R5","2018/03/23 14:39:40","新北市板橋區文化路一段383號","121.4671","25.021845","6500100","板橋區"
"220028","461-BY","2018/03/23 14:39:45","新北市板橋區大觀路二段163巷9號","121.446003333333","25.0003133333333","6500100","板橋區"
"220037","491-VK","2018/03/23 14:39:35","新北市板橋區文化路二段488號","121.4753","25.0331266666667","6500100","板橋區"
"220104","560-BX","2018/03/23 14:39:39","新北市板橋區金華街111號","121.45902","25.0208766666667","6500100","板橋區"
"220052","561-BX","2018/03/23 14:39:31","新北市板橋區文化路一段315號","121.465933333333","25.0204283333333","6500100","板橋區"
"220011","609-BX","2018/03/23 14:39:45","新北市板橋區三民路二段33號","121.47931","25.0175616666667","6500100","板橋區"
"220040","637-BX","2018/03/23 14:39:42","新北市板橋區懷德街139巷5號","121.479536666667","25.03063","6500100","板橋區"
"220005","686-BX","2018/03/23 14:39:48","新北市板橋區廣和街52號","121.462258333333","24.9942483333333","6500100","板橋區"
"220025","687-BX","2018/03/23 14:39:30","新北市板橋區僑中二街126巷2號","121.44517","25.0051566666667","6500100","板橋區"
"220042","689-BX","2018/03/23 14:39:43","新北市板橋區新海路389號","121.458918333333","25.026255","6500100","板橋區"
"220002","741-BX","2018/03/23 14:39:39","新北市板橋區實踐路93巷36號","121.465438333333","25.0052216666667","6500100","板橋區"
"220051","KEA-2699","2018/03/23 14:39:29","新北市板橋區雙十路二段76巷2號","121.475185","25.0279316666667","6500100","板橋區"
"220003","827-TW","2018/03/23 14:39:44","新北市板橋區國慶路149巷4弄2號","121.461306666667","24.9967383333333","6500100","板橋區"
"220014","829-TW","2018/03/23 14:39:47","新北市板橋區長安街138巷1弄1號","121.472838333333","25.0096783333333","6500100","板橋區"
"220016","830-TW","2018/03/23 14:39:45","新北市板橋區中山路二段517號","121.482948333333","25.0212883333333","6500100","板橋區"
"220045","831-TW","2018/03/23 14:39:46","新北市板橋區民生路二段240巷65號","121.470058333333","25.0229416666667","6500100","板橋區"
"220038","833-TW","2018/03/23 14:39:41","新北市板橋區英士路57號","121.46067","25.024395","6500100","板橋區"
"220022","895-R6","2018/03/23 14:39:30","新北市板橋區文化路一段46巷21號","121.460511666667","25.0116966666667","6500100","板橋區"
"220021","985-R7","2018/03/23 14:39:31","新北市板橋區大仁街86號","121.453951666667","25.0163133333333","6500100","板橋區"
"220046","AAC-210","2018/03/23 14:39:48","新北市板橋區漢生西路89巷1弄1號","121.462113333333","25.01942","6500100","板橋區"
"220018","AAC-253","2018/03/23 14:39:32","新北市板橋區民族路258號","121.469428333333","25.00718","6500100","板橋區"
