"lineid","car","time","location","longitude","latitude","cityid","cityname"
"231046","278-BY","2018/03/23 16:39:30","新北市新店區灣潭路23-2號","121.538746666667","24.9411516666667","6500600","新店區"
"241011","013-R5","2018/03/23 16:39:31","新北市三重區仁愛街49號","121.496571666667","25.0716883333333","6500200","三重區"
"241028","022-UY","2018/03/23 16:39:39","新北市三重區中正南路50號","121.493981666667","25.05997","6500200","三重區"
"241008","059-VK","2018/03/23 16:39:36","新北市三重區永安北路一段27巷38號","121.477625","25.0755866666667","6500200","三重區"
"241009","060-VK","2018/03/23 16:39:42","新北市三重區三和路四段203巷88號","121.484141666667","25.0800966666667","6500200","三重區"
"241031","061-VK","2018/03/23 16:39:36","新北市三重區重新路四段41巷5弄2號","121.487325","25.0585383333333","6500200","三重區"
"241015","062-VK","2018/03/23 16:39:44","新北市三重區文化北路37號","121.498946666667","25.0650383333333","6500200","三重區"
"241017","063-VK","2018/03/23 16:39:47","新北市三重區中正北路25巷17號","121.492951666667","25.0624616666667","6500200","三重區"
"241024","065-VK","2018/03/23 16:39:49","新北市三重區中正北路315巷6弄74號","121.476936666667","25.0724933333333","6500200","三重區"
"241026","066-VK","2018/03/23 16:39:42","新北市三重區福和街1號","121.503055","25.0618866666667","6500200","三重區"
"241002","090-VK","2018/03/23 16:39:46","新北市三重區仁義街243號","121.49633","25.0826483333333","6500200","三重區"
"241003","091-VK","2018/03/23 16:39:52","新北市三重區五華街73號","121.492508333333","25.0828133333333","6500200","三重區"
"241019","156-TC","2018/03/23 16:39:53","新北市三重區安慶街325號","121.487941666667","25.0670583333333","6500200","三重區"
"241005","262-UM","2018/03/23 16:39:38","新北市三重區碧華街180號","121.485973333333","25.08216","6500200","三重區"
"241016","265-UM","2018/03/23 16:39:32","新北市三重區大智街3號","121.494895","25.06498","6500200","三重區"
"241022","267-UM","2018/03/23 16:39:42","新北市三重區貴陽街18-1號","121.48413","25.06199","6500200","三重區"
"241018","268-UM","2018/03/23 16:39:42","新北市三重區正義北路338巷50號","121.49311","25.0703416666667","6500200","三重區"
"241032","269-UM","2018/03/23 16:39:38","新北市三重區中山路40巷1-1號","121.485988333333","25.06132","6500200","三重區"
"241007","398-BY","2018/03/23 16:39:47","新北市三重區仁美街86號","121.4859","25.0796866666667","6500200","三重區"
"241020","413-TH","2018/03/23 16:39:38","新北市三重區後竹圍街205巷25號","121.484858333333","25.0723683333333","6500200","三重區"
"241004","475-VK","2018/03/23 16:39:37","新北市三重區五福街12號","121.492903333333","25.081575","6500200","三重區"
"241013","478-VK","2018/03/23 16:39:41","新北市三重區三和路三段103號","121.494471666667","25.072615","6500200","三重區"
"241030","480-VK","2018/03/23 16:39:39","新北市三重區環河南路286號","121.489136666667","25.0488533333333","6500200","三重區"
"241014","543-UM","2018/03/23 16:39:37","新北市三重區龍濱路48號","121.502698333333","25.0685716666667","6500200","三重區"
"241023","545-UM","2018/03/23 16:39:43","新北市三重區忠孝路三段50巷98號","121.483461666667","25.0642316666667","6500200","三重區"
"241001","547-UM","2018/03/23 16:39:41","新北市三重區仁政街93號","121.492596666667","25.0780066666667","6500200","三重區"
"241033","557-UM","2018/03/23 16:38:33","新北市三重區光復路二段25號","121.47215","25.0549283333333","6500200","三重區"
"241006","AAD-863","2018/03/23 16:39:45","新北市三重區力行路二段91巷21弄5號","121.483466666667","25.07555","6500200","三重區"
"241025","887-TS","2018/03/23 16:39:35","新北市三重區中正北路428巷17號","121.474396666667","25.06999","6500200","三重區"
"241012","941-UM","2018/03/23 16:39:50","新北市三重區仁興街4巷19號","121.499405","25.0737783333333","6500200","三重區"
"241029","942-UM","2018/03/23 16:39:44","新北市三重區集美街112巷15號","121.48959","25.05411","6500200","三重區"
"235062","800-TS","2018/03/23 16:38:49","新北市中和區員山路36巷16-3號","121.484975","24.9914783333333","6500300","中和區"
"247008","056-VK","2018/03/23 16:39:36","新北市五股區中興路三段5號","121.449848333333","25.07966","6501400","蘆洲區"
"228002","663-BX","2018/03/23 16:39:53","新北市貢寮區貢寮里朝陽街40號","121.911018333333","25.0216383333333","6502600","貢寮區"
"224008","285-BY","2018/03/23 16:39:43","新北市瑞芳區三爪子坑路124號","121.805846666667","25.105745","6501200","瑞芳區"
"224009","273-VK","2018/03/23 16:39:35","新北市瑞芳區大寮路356-1號","121.784881666667","25.1031983333333","6501200","瑞芳區"
"224007","272-VK","2018/03/23 16:39:36","新北市瑞芳區大埔路60號","121.763783333333","25.10222","6501200","瑞芳區"
"224005","271-BY","2018/03/23 16:39:41","新北市瑞芳區洞頂路124號","121.860391666667","25.1185583333333","6501200","瑞芳區"
"227011","642-TC","2018/03/23 16:39:32","新北市雙溪區牡丹里中正路63號","121.865703333333","25.0432966666667","6502500","雙溪區"
"227003","400-TW","2018/03/23 16:39:49","新北市雙溪區外柑里外柑腳56號","121.80794","25.0178933333333","6502500","雙溪區"
"251008","181-VK","2018/03/23 16:39:35","台北市北投區中央北路四段30巷160號","121.474153333333","25.1404733333333","6501000","淡水區"
"251006","561-UM","2018/03/23 16:39:39","新北市淡水區中正路二段31號","121.419285","25.181815","6501000","淡水區"
"251007","577-R6","2018/03/23 16:39:37","新北市淡水區中正路二段31號","121.419525","25.181655","6501000","淡水區"
"251011","650-BX","2018/03/23 16:39:38","新北市淡水區中正路二段31號","121.419398333333","25.181745","6501000","淡水區"
"252002","178-VK","2018/03/23 16:39:41","新北市三芝區芝柏路25號","121.511945","25.2555966666667","6502100","三芝區"
"239002","359-BY","2018/03/23 16:39:29","新北市鶯歌區環河路177-3號","121.346295","24.93491","6500800","鶯歌區"
"220029","287-VK","2018/03/23 16:24:08","新北市板橋區華東街1-10號","121.448276666667","24.9950083333333","6500100","板橋區"
