"lineid","car","time","location","longitude","latitude","cityid","cityname"
"249005","172-UM","2018/03/23 16:59:45","新北市八里區渡船頭3-7號","121.434393333333","25.1534666666667","6502300","八里區"
"249001","173-UM","2018/03/23 16:59:44","新北市八里區中山路三段106號","121.391206666667","25.1423466666667","6502300","八里區"
"249004","303-UY","2018/03/23 16:59:45","新北市八里區仁愛路10號","121.41318","25.1622783333333","6502300","八里區"
"249002","305-UY","2018/03/23 16:58:08","新北市八里區牛寮埔19-1號","121.431725","25.1428583333333","6502300","八里區"
"249003","593-UM","2018/03/23 16:59:39","新北市八里區中山路二段301號","121.401081666667","25.1481383333333","6502300","八里區"
"244023","483-VK","2018/03/23 16:59:36","新北市林口區中山路2號","121.396868333333","25.0786316666667","6501700","林口區"
"244021","838-TS","2018/03/23 16:59:34","新北市林口區粉寮69號","121.40478","25.090845","6501700","林口區"
"231046","278-BY","2018/03/23 16:59:30","新北市新店區直潭路92號","121.53084","24.9377033333333","6500600","新店區"
"241011","013-R5","2018/03/23 16:59:51","新北市三重區仁愛街55巷102號","121.498413333333","25.0726716666667","6500200","三重區"
"241028","022-UY","2018/03/23 16:59:39","新北市三重區中正南路40號","121.493845","25.0601866666667","6500200","三重區"
"241008","059-VK","2018/03/23 16:59:36","新北市三重區永福街179-1號","121.478881666667","25.0751116666667","6500200","三重區"
"241009","060-VK","2018/03/23 16:59:42","新北市三重區仁愛街600巷18號","121.484286666667","25.0804266666667","6500200","三重區"
"241031","061-VK","2018/03/23 16:59:36","新北市三重區三寧街25號","121.489765","25.0600133333333","6500200","三重區"
"241015","062-VK","2018/03/23 16:59:44","新北市三重區三和路二段13號","121.501375","25.0668016666667","6500200","三重區"
"241017","063-VK","2018/03/23 16:59:47","新北市三重區大同北路112號","121.493208333333","25.0639133333333","6500200","三重區"
"241024","065-VK","2018/03/23 16:59:49","新北市三重區大勇街82巷26弄13號","121.478991666667","25.072165","6500200","三重區"
"241026","066-VK","2018/03/23 16:59:42","新北市三重區文化南路42號","121.500511666667","25.0603033333333","6500200","三重區"
"241002","090-VK","2018/03/23 16:59:46","新北市三重區仁義街126號","121.497598333333","25.0802566666667","6500200","三重區"
"241003","091-VK","2018/03/23 16:59:52","新北市三重區五華街141巷58號","121.493548333333","25.0867916666667","6500200","三重區"
"241019","156-TC","2018/03/23 16:59:33","新北市三重區自強路二段74巷19號","121.487966666667","25.069975","6500200","三重區"
"241005","262-UM","2018/03/23 16:59:38","新北市三重區碧華街114號","121.484723333333","25.08174","6500200","三重區"
"241016","265-UM","2018/03/23 16:59:52","新北市三重區大同北路133巷1號","121.493098333333","25.0642766666667","6500200","三重區"
"241022","267-UM","2018/03/23 16:59:42","新北市三重區三民街111號","121.484861666667","25.0638","6500200","三重區"
"241018","268-UM","2018/03/23 16:59:42","新北市三重區六張街126巷2弄20號","121.492496666667","25.0694966666667","6500200","三重區"
"241032","269-UM","2018/03/23 16:59:38","新北市三重區重陽路一段130巷11號","121.486061666667","25.06068","6500200","三重區"
"241007","398-BY","2018/03/23 16:59:46","新北市三重區三和路四段145巷205號","121.488638333333","25.0793533333333","6500200","三重區"
"241020","413-TH","2018/03/23 16:59:38","新北市三重區後竹圍街175巷27號","121.485623333333","25.0728666666667","6500200","三重區"
"241004","475-VK","2018/03/23 16:59:37","新北市三重區五華街96號","121.492663333333","25.0822816666667","6500200","三重區"
"241013","478-VK","2018/03/23 16:59:41","新北市三重區仁和街26號","121.496486666667","25.073675","6500200","三重區"
"241030","480-VK","2018/03/23 16:59:39","新北市三重區環河南路255號","121.491061666667","25.050585","6500200","三重區"
"241014","543-UM","2018/03/23 16:59:52","新北市三重區介壽路189號","121.50144","25.070835","6500200","三重區"
"241023","545-UM","2018/03/23 16:59:43","新北市三重區忠孝路三段99巷4號","121.480141666667","25.0643366666667","6500200","三重區"
"241001","547-UM","2018/03/23 16:59:35","新北市三重區仁愛街174號","121.4941","25.0766666666667","6500200","三重區"
"241033","557-UM","2018/03/23 16:59:32","新北市三重區中興北街271號","121.469035","25.06066","6500200","三重區"
"241006","AAD-863","2018/03/23 16:59:45","新北市三重區車路頭街131巷28號","121.485506666667","25.07589","6500200","三重區"
"241025","887-TS","2018/03/23 16:59:35","新北市三重區中正北路357號","121.472703333333","25.0717433333333","6500200","三重區"
"241012","941-UM","2018/03/23 16:59:30","新北市三重區仁和街96號","121.499551666667","25.0746516666667","6500200","三重區"
"241029","942-UM","2018/03/23 16:59:44","新北市三重區中正南路260-1號","121.493205","25.0529283333333","6500200","三重區"
"235062","800-TS","2018/03/23 16:38:49","新北市中和區員山路36巷16-3號","121.484975","24.9914783333333","6500300","中和區"
"247024","893-R6","2018/03/23 16:59:50","新北市蘆洲區長興路202號","121.460576666667","25.0874866666667","6501400","蘆洲區"
"247014","546-UM","2018/03/23 16:59:38","新北市蘆洲區中山二路36巷9號","121.474211666667","25.0826616666667","6501400","蘆洲區"
"247010","341-TH","2018/03/23 16:59:34","新北市蘆洲區三民路26巷69號","121.478646666667","25.083315","6501400","蘆洲區"
"247006","336-TH","2018/03/23 16:59:37","新北市蘆洲區永安南路二段242號","121.460341666667","25.0799866666667","6501400","蘆洲區"
"247004","335-TH","2018/03/23 16:59:38","新北市蘆洲區中原路23號","121.460493333333","25.0827883333333","6501400","蘆洲區"
"247018","057-VK","2018/03/23 16:59:52","新北市蘆洲區民族路302號","121.4777","25.0900233333333","6501400","蘆洲區"
"247008","056-VK","2018/03/23 16:59:40","新北市蘆洲區信義路56號","121.475383333333","25.0796966666667","6501400","蘆洲區"
"247016","007-UY","2018/03/23 16:59:38","新北市蘆洲區正和街10號","121.470245","25.082755","6501400","蘆洲區"
"247020","001-UY","2018/03/23 16:59:41","新北市蘆洲區民族路422巷84號","121.473721666667","25.0937983333333","6501400","蘆洲區"
"228001","212-TW","2018/03/23 16:59:39","新北市貢寮區貢寮里朝陽街1-2號","121.912201666667","25.0213366666667","6502600","貢寮區"
"228002","663-BX","2018/03/23 16:59:50","新北市貢寮區貢寮里朝陽街18號","121.911496666667","25.021365","6502600","貢寮區"
"228003","828-UM","2018/03/23 16:59:53","新北市貢寮區福隆里興隆街22號","121.944711666667","25.0167083333333","6502600","貢寮區"
"224006","676-BX","2018/03/23 16:59:51","新北市瑞芳區大寮路2-1號","121.785541666667","25.1008483333333","6501200","瑞芳區"
"224008","285-BY","2018/03/23 16:59:43","新北市瑞芳區明燈路一段15號","121.824481666667","25.106565","6501200","瑞芳區"
"224009","273-VK","2018/03/23 16:59:35","新北市瑞芳區明燈路一段1號","121.83067","25.112045","6501200","瑞芳區"
"224007","272-VK","2018/03/23 16:59:37","新北市瑞芳區中央路48巷56-4號","121.760616666667","25.1035316666667","6501200","瑞芳區"
"224005","271-BY","2018/03/23 16:59:41","","121.902446666667","25.12162","6501200","瑞芳區"
"227011","642-TC","2018/03/23 16:59:33","新北市雙溪區牡丹里聖南34號","121.85372","25.0557683333333","6502500","雙溪區"
"227003","400-TW","2018/03/23 16:59:49","新北市雙溪區長源里柑腳9號","121.804693333333","25.01463","6502500","雙溪區"
"251004","009-UM","2018/03/23 16:59:49","新北市淡水區中正路一段22巷6號","121.42737","25.175875","6501000","淡水區"
"251008","181-VK","2018/03/23 16:59:35","新北市淡水區樹梅坑9號","121.47273","25.1427066666667","6501000","淡水區"
"251010","413-VK","2018/03/23 16:59:52","新北市淡水區沙崙路172號","121.424318333333","25.1835716666667","6501000","淡水區"
"251012","441-VK","2018/03/23 16:59:46","新北市淡水區沙崙路257號","121.426586666667","25.1855333333333","6501000","淡水區"
"251005","443-VK","2018/03/23 16:59:41","新北市淡水區中正路二段31號","121.419198333333","25.1817966666667","6501000","淡水區"
"251006","561-UM","2018/03/23 16:59:39","新北市淡水區中正路二段31號","121.41928","25.18181","6501000","淡水區"
"251009","575-R6","2018/03/23 16:59:31","新北市淡水區中正路一段60號","121.425591666667","25.176845","6501000","淡水區"
"251007","577-R6","2018/03/23 16:59:37","新北市淡水區中正東路二段81號","121.459421666667","25.15404","6501000","淡水區"
"251011","650-BX","2018/03/23 16:59:38","新北市淡水區長興街4號","121.443883333333","25.1705916666667","6501000","淡水區"
"252002","178-VK","2018/03/23 16:59:41","新北市三芝區忠孝街175號","121.505393333333","25.2614816666667","6502100","三芝區"
"252001","292-VK","2018/03/23 16:59:35","新北市三芝區淡金路二段47-2號","121.503688333333","25.26062","6502100","三芝區"
"242054","751-BX","2018/03/23 16:59:31","新北市新莊區新泰路357巷3弄57號","121.44204","25.0391483333333","6500500","新莊區"
"242029","705-TV","2018/03/23 16:59:47","新北市新莊區新泰路357巷3弄57號","121.442176666667","25.03915","6500500","新莊區"
"242025","613-BX","2018/03/23 16:59:23","新北市新莊區新泰路255巷83號","121.442405","25.0390466666667","6500500","新莊區"
"242046","497-BY","2018/03/23 16:59:34","新北市新莊區新泰路357巷3弄57號","121.442003333333","25.039505","6500500","新莊區"
"242056","440-UM","2018/03/23 16:59:26","新北市新莊區新泰路357巷3弄57號","121.442038333333","25.0392483333333","6500500","新莊區"
"242037","415-TV","2018/03/23 16:59:44","新北市新莊區新泰路357巷3弄57號","121.44223","25.039355","6500500","新莊區"
"242023","362-BY","2018/03/23 16:59:39","新北市新莊區新泰路255巷83號","121.442488333333","25.038755","6500500","新莊區"
"242039","133-UY","2018/03/23 16:59:40","新北市新莊區三和路12-21號","121.442008333333","25.0388216666667","6500500","新莊區"
"242017","175-VK","2018/03/23 16:59:42","新北市新莊區三和路12-21號","121.441963333333","25.0387","6500500","新莊區"
"242015","346-TH","2018/03/23 16:57:19","新北市新莊區三和路16-3號","121.44142","25.03726","6500500","新莊區"
"242021","348-TH","2018/03/23 16:59:33","新北市新莊區新泰路357巷3弄57號","121.442063333333","25.03952","6500500","新莊區"
"242019","350-TH","2018/03/23 16:59:45","新北市新莊區三和路12-21號","121.44187","25.0388633333333","6500500","新莊區"
"242013","351-TH","2018/03/23 16:59:35","新北市新莊區新泰路357巷3弄57號","121.441988333333","25.0395166666667","6500500","新莊區"
"238019","599-UM","2018/03/23 16:59:41","新北市樹林區育德街78-1號","121.38794","24.9682916666667","6500700","樹林區"
"238018","571-TV","2018/03/23 16:59:39","新北市樹林區育德街78-1號","121.388148333333","24.9680733333333","6500700","樹林區"
"238017","283-BY","2018/03/23 16:59:33","新北市樹林區育德街78號","121.387505","24.96846","6500700","樹林區"
"238014","282-BY","2018/03/23 16:59:33","新北市樹林區育德街78-1號","121.387706666667","24.9681666666667","6500700","樹林區"
"238020","268-VK","2018/03/23 16:59:47","新北市樹林區育德街78-1號","121.387588333333","24.96814","6500700","樹林區"
"238016","169-UY","2018/03/23 16:59:46","新北市樹林區中山路二段163號","121.406115","24.9786683333333","6500700","樹林區"
"239007","AAC-297","2018/03/23 16:59:42","新北市鶯歌區二甲路9-2號","121.346616666667","24.9365316666667","6500800","鶯歌區"
"239006","891-R6","2018/03/23 16:59:38","新北市鶯歌區二甲路12-2號","121.345938333333","24.935085","6500800","鶯歌區"
"239005","526-UM","2018/03/23 16:59:50","新北市鶯歌區環河路85號","121.347118333333","24.9390583333333","6500800","鶯歌區"
"239002","359-BY","2018/03/23 16:59:29","新北市鶯歌區環河路177-3號","121.346295","24.93491","6500800","鶯歌區"
"242041","280-VK","2018/03/23 16:59:49","新北市新莊區三和路12-21號","121.441966666667","25.0383216666667","6500500","新莊區"
