"lineid","car","time","location","longitude","latitude","cityid","cityname"
"234046","148-BY","2018/03/23 18:29:43","新北市永和區福和路1號","121.526028333333","25.0097316666667","6500400","永和區"
"234038","336-UY","2018/03/23 18:29:35","新北市永和區福和路1號","121.526721666667","25.0101116666667","6500400","永和區"
"234026","9371-KE","2018/03/23 18:29:36","新北市永和區中山路一段98-2號","121.511451666667","25.0107916666667","6500400","永和區"
"234011","9373-KE","2018/03/23 18:29:45","新北市永和區保福路二段158巷1號","121.509158333333","25.01506","6500400","永和區"
"249005","172-UM","2018/03/23 18:29:45","新北市八里區中華路三段130號","121.392188333333","25.134865","6502300","八里區"
"249001","173-UM","2018/03/23 18:29:44","新北市八里區龍米路一段96號","121.453726666667","25.124125","6502300","八里區"
"249004","303-UY","2018/03/23 18:29:45","新北市八里區忠四街3號","121.424758333333","25.1594633333333","6502300","八里區"
"249002","305-UY","2018/03/23 18:29:47","新北市八里區龍形三街26號","121.448405","25.1317033333333","6502300","八里區"
"248014","025-BX","2018/03/23 18:29:51","新北市五股區明德路7巷18號","121.434683333333","25.0709033333333","6501500","五股區"
"248016","026-BX","2018/03/23 18:29:50","新北市五股區凌雲路一段83巷12號","121.450381666667","25.1008033333333","6501500","五股區"
"248006","077-UY","2018/03/23 18:29:44","新北市五股區四維路25號","121.467086666667","25.0706216666667","6501500","五股區"
"248008","095-VK","2018/03/23 18:29:49","新北市五股區四維路185巷42弄1號","121.463578333333","25.076905","6501500","五股區"
"248018","225-UY","2018/03/23 18:29:33","新北市五股區御史路287號","121.419876666667","25.1068166666667","6501500","五股區"
"248012","247-BX","2018/03/23 18:29:47","新北市五股區御成路2號","121.44214","25.09083","6501500","五股區"
"248010","272-BY","2018/03/23 18:29:39","新北市五股區成泰路一段110-3號","121.435675","25.072165","6501500","五股區"
"248004","677-BX","2018/03/23 18:29:38","新北市五股區工商路130號","121.436031666667","25.085985","6501500","五股區"
"248002","678-BX","2018/03/23 18:29:48","新北市五股區西雲路163號","121.446283333333","25.094465","6501500","五股區"
"234023","9380-KE","2018/03/23 18:29:42","新北市永和區福和路1號","121.525503333333","25.0095066666667","6500400","永和區"
"232011","375-UM","2018/03/23 18:18:13","新北市坪林區坪雙路一段43號","121.711695","24.9424666666667","6502000","坪林區"
"244013","069-UM","2018/03/23 18:29:46","新北市林口區佳林路101巷36號","121.387023333333","25.0800583333333","6501700","林口區"
"244007","080-UY","2018/03/23 18:29:51","新北市林口區後湖15-1號","121.387936666667","25.0983583333333","6501700","林口區"
"244025","742-UY","2018/03/23 18:29:39","新北市林口區南勢五街302-11號","121.357068333333","25.0756616666667","6501700","林口區"
"244023","483-VK","2018/03/23 18:29:36","新北市林口區四維路251號","121.38146","25.0748766666667","6501700","林口區"
"244017","485-VK","2018/03/23 18:29:51","新北市林口區文化二路一段8號","121.364478333333","25.0666966666667","6501700","林口區"
"244009","656-BX","2018/03/23 18:29:35","新北市林口區文林一街12巷1號","121.377145","25.0853116666667","6501700","林口區"
"244019","657-BX","2018/03/23 18:29:45","新北市林口區忠孝路602號","121.376471666667","25.0683483333333","6501700","林口區"
"244011","701-TV","2018/03/23 18:29:43","新北市林口區中山路158號","121.390696666667","25.078775","6501700","林口區"
"244021","838-TS","2018/03/23 18:29:34","新北市林口區自強二街15號","121.397933333333","25.0781283333333","6501700","林口區"
"243012","AAD-798","2018/03/23 18:29:48","新北市泰山區忠孝街10-1號","121.427641666667","25.0647433333333","6501600","泰山區"
"243013","646-TV","2018/03/23 18:29:36","新北市泰山區明志路三段206巷10號","121.42326","25.0380033333333","6501600","泰山區"
"222003","436-BY","2018/03/23 18:29:46","新北市深坑區翠谷街8巷7號","121.627725","25.0076916666667","6501800","深坑區"
"222002","659-BX","2018/03/23 18:29:31","新北市深坑區雲鄉路176號","121.622431666667","24.99826","6501800","深坑區"
"231060","001-UM","2018/03/23 18:29:48","新北市新店區安華路28-1號","121.519435","24.9609683333333","6500600","新店區"
"231041","002-UM","2018/03/23 18:29:42","新北市新店區安華路28-1號","121.519801666667","24.9608516666667","6500600","新店區"
"231059","046-UY","2018/03/23 18:29:44","新北市新店區安華路28-1號","121.51963","24.96084","6500600","新店區"
"231061","047-UY","2018/03/23 18:29:43","新北市新店區安華路28-1號","121.519255","24.9609116666667","6500600","新店區"
"231051","107-UY","2018/03/23 18:29:36","新北市新店區安華路28-1號","121.519623333333","24.961405","6500600","新店區"
"231048","108-UY","2018/03/23 18:29:34","新北市新店區安華路28-1號","121.519508333333","24.9612083333333","6500600","新店區"
"231053","187-VK","2018/03/23 18:29:50","新北市新店區新烏路一段12號","121.546695","24.9513683333333","6500600","新店區"
"231050","KEA-2219","2018/03/23 18:29:36","新北市新店區安華路28-1號","121.519741666667","24.9612333333333","6500600","新店區"
"221015","KEA-2785","2018/03/23 18:29:37","新北市汐止區鄉友街1號","121.667955","25.0806716666667","6501100","汐止區"
"231057","256-BX","2018/03/23 18:29:49","新北市新店區光明街101號","121.53884","24.9613466666667","6500600","新店區"
"231046","278-BY","2018/03/23 18:29:54","新北市新店區直潭八街46號","121.532666666667","24.9393316666667","6500600","新店區"
"231054","AAD-862","2018/03/23 18:29:36","新北市新店區安華路28-1號","121.519693333333","24.9611383333333","6500600","新店區"
"231058","3712-VJ","2018/03/23 18:29:54","新北市新店區新店後街52號","121.537803333333","24.9538783333333","6500600","新店區"
"231056","3713-VJ","2018/03/23 18:29:34","新北市新店區自立街45巷7號","121.536628333333","24.9795883333333","6500600","新店區"
"231055","4716-K9","2018/03/23 18:29:36","新北市新店區光明街181號","121.539661666667","24.9630633333333","6500600","新店區"
"231067","4772-VM","2018/03/23 18:29:35","新北市新店區安華路1-1號","121.519171666667","24.9605533333333","6500600","新店區"
"231065","512-UM","2018/03/23 18:29:44","新北市新店區安華路28-1號","121.519725","24.9615233333333","6500600","新店區"
"231064","513-UM","2018/03/23 18:29:43","新北市新店區安華路28-1號","121.519765","24.9611666666667","6500600","新店區"
"231045","617-UM","2018/03/23 18:17:48","新北市新店區安華路28-1號","121.519446666667","24.9610116666667","6500600","新店區"
"231040","619-UM","2018/03/23 18:29:52","新北市新店區安華路28-1號","121.519551666667","24.9608366666667","6500600","新店區"
"231042","641-BX","2018/03/23 18:29:37","新北市新店區安華路28-1號","121.519545","24.9605616666667","6500600","新店區"
"231063","645-TV","2018/03/23 18:29:39","新北市新店區安華路28-1號","121.519418333333","24.96083","6500600","新店區"
"231049","719-UM","2018/03/23 18:29:45","新北市新店區安華路28-1號","121.519366666667","24.9612266666667","6500600","新店區"
"231062","720-UM","2018/03/23 18:29:47","新北市新店區安康路一段355-3號","121.519421666667","24.961585","6500600","新店區"
"231044","897-TW","2018/03/23 18:29:44","新北市新店區安華路28-1號","121.51984","24.9607516666667","6500600","新店區"
"231043","899-TW","2018/03/23 18:29:40","新北市新店區安華路28-1號","121.519543333333","24.9611683333333","6500600","新店區"
"231066","AKT-0513","2018/03/23 18:29:47","新北市新店區安華路28-1號","121.519513333333","24.9605266666667","6500600","新店區"
"235066","003-UY","2018/03/23 18:29:49","新北市中和區中山路二段120號","121.502746666667","25.0037766666667","6500300","中和區"
"235064","005-UY","2018/03/23 18:29:35","新北市中和區圓通路141巷17號","121.498985","24.99533","6500300","中和區"
"235063","006-UY","2018/03/23 18:29:40","新北市中和區連城路347巷4弄37號","121.486641666667","24.9954933333333","6500300","中和區"
"235056","096-UM","2018/03/23 18:29:45","新北市中和區中山路二段441號","121.484735","25.0045716666667","6500300","中和區"
"235065","098-UM","2018/03/23 18:29:34","新北市中和區莊敬路49巷20弄24號","121.502845","25.0056883333333","6500300","中和區"
"235040","150-BY","2018/03/23 18:29:46","新北市中和區安平路38號","121.509736666667","24.9949583333333","6500300","中和區"
"235058","151-BY","2018/03/23 18:29:48","新北市中和區圓通路369巷30弄16號","121.489586666667","24.985375","6500300","中和區"
"235055","183-VK","2018/03/23 18:29:52","新北市中和區莒光路203-2號","121.47181","24.9980883333333","6500300","中和區"
"235038","185-VK","2018/03/23 18:29:50","新北市中和區立人街14巷40弄5號","121.519016666667","24.9957066666667","6500300","中和區"
"235049","186-VK","2018/03/23 18:29:44","新北市中和區景安路130號","121.505175","24.9944933333333","6500300","中和區"
"235067","255-BX","2018/03/23 18:29:38","新北市中和區新生街146號","121.483635","25.0007833333333","6500300","中和區"
"235044","293-VK","2018/03/23 18:29:51","新北市中和區復興路301巷2弄1號","121.50148","24.9899316666667","6500300","中和區"
"235043","352-BY","2018/03/23 18:29:50","新北市中和區景平路426號","121.50752","24.993185","6500300","中和區"
"235068","377-QA","2018/03/23 18:29:35","新北市中和區圓通路284號","121.491453333333","24.9906533333333","6500300","中和區"
"235061","378-QA","2018/03/23 18:29:52","新北市中和區民享街97巷11號","121.475158333333","24.9994816666667","6500300","中和區"
"235050","4979-A6","2018/03/23 18:29:47","新北市中和區景新街327號","121.511763333333","24.9914466666667","6500300","中和區"
"235069","4980-A6","2018/03/23 18:29:48","新北市中和區景平路634-3號","121.499315","24.9989616666667","6500300","中和區"
"235042","551-UM","2018/03/23 18:29:43","新北市中和區自立路58巷14號","121.52299","24.9913816666667","6500300","中和區"
"235070","558-UM","2018/03/23 18:29:48","新北市中和區景平路566號","121.50198","24.9954116666667","6500300","中和區"
"235045","565-BX","2018/03/23 18:29:39","新北市中和區南山路236巷24弄20號","121.504938333333","24.9890416666667","6500300","中和區"
"235054","640-BX","2018/03/23 18:29:40","新北市中和區民享街86巷1號","121.47447","25.0008866666667","6500300","中和區"
"235060","647-TV","2018/03/23 18:29:48","新北市中和區員山路379號","121.48122","25.0024483333333","6500300","中和區"
"235047","732-UM","2018/03/23 18:29:33","新北市中和區南山路300號","121.507843333333","24.9871583333333","6500300","中和區"
"235046","733-UM","2018/03/23 18:29:38","新北市中和區中正路271號","121.495763333333","24.9938683333333","6500300","中和區"
"235062","800-TS","2018/03/23 18:29:44","新北市中和區景平路742號","121.496545","25.0041966666667","6500300","中和區"
"235057","801-TS","2018/03/23 18:29:43","新北市中和區民安街148號","121.47721","25","6500300","中和區"
"235041","802-TS","2018/03/23 18:29:41","新北市中和區景安路68號","121.50587","24.99665","6500300","中和區"
"235048","896-TW","2018/03/23 18:29:47","新北市中和區中正路83號","121.500651666667","24.9935183333333","6500300","中和區"
"235053","900-TW","2018/03/23 18:29:36","新北市中和區連城路526-1號","121.475958333333","24.9916616666667","6500300","中和區"
"235051","157-BY","2018/03/23 18:29:48","新北市中和區興南路二段142巷18-4號","121.50277","24.9842933333333","6500300","中和區"
"235037","AAC-213","2018/03/23 18:29:54","新北市中和區景德街88號","121.516095","24.9915083333333","6500300","中和區"
"235059","AAC-215","2018/03/23 18:29:36","新北市中和區員山路36巷16-3號","121.485101666667","24.991285","6500300","中和區"
"220086","073-UY","2018/03/23 18:29:44","新北市板橋區四川路二段130巷27號","121.449388333333","24.994275","6500100","板橋區"
"226004","205-ST","2018/03/23 18:29:33","新北市平溪區靜安路二段346號","121.737388333333","25.0243666666667","6502400","平溪區"
"228001","212-TW","2018/03/23 18:29:18","新北市貢寮區仁理村仁和路11號","121.923075","25.051645","6502600","貢寮區"
"228002","663-BX","2018/03/23 18:29:50","新北市貢寮區福連里香蘭街16-2號","121.983116666667","25.02177","6502600","貢寮區"
"228003","828-UM","2018/03/23 18:29:33","新北市貢寮區和美里和美街44-2號","121.915423333333","25.0939533333333","6502600","貢寮區"
"224010","AGQ-8101","2018/03/23 18:28:00","新北市瑞芳區崙頂路107號","121.845118333333","25.1068416666667","6501200","瑞芳區"
"224006","676-BX","2018/03/23 18:29:51","新北市瑞芳區明燈路二段38號","121.810103333333","25.1076283333333","6501200","瑞芳區"
"224002","639-TC","2018/03/23 18:29:47","新北市瑞芳區正貿新村15號","121.813611666667","25.1059766666667","6501200","瑞芳區"
"224008","285-BY","2018/03/23 18:29:47","新北市瑞芳區岳王路1巷50號","121.805791666667","25.1105316666667","6501200","瑞芳區"
"224009","273-VK","2018/03/23 18:29:35","新北市瑞芳區祈堂路219號","121.856078333333","25.10929","6501200","瑞芳區"
"224007","272-VK","2018/03/23 18:29:43","新北市瑞芳區大埔路有勝二村11號","121.764021666667","25.0999833333333","6501200","瑞芳區"
"224005","271-BY","2018/03/23 18:29:41","新北市瑞芳區瑞濱路147-9號","121.818418333333","25.1182966666667","6501200","瑞芳區"
"227011","642-TC","2018/03/23 18:29:32","新北市雙溪區牡丹里牡丹113號","121.850928333333","25.0595416666667","6502500","雙溪區"
"227003","400-TW","2018/03/23 18:29:47","新北市雙溪區魚行里坤溪18-1號","121.87336","25.0246083333333","6502500","雙溪區"
"253005","032-BX","2018/03/23 18:29:50","新北市石門區老崩山2-1號","121.554673333333","25.2917916666667","6502200","石門區"
"253006","295-VK","2018/03/23 18:29:46","新北市石門區公地16號","121.54578","25.2903166666667","6502200","石門區"
"222001","KEA-2212","2018/03/23 18:29:49","新北市深坑區北深路一段199號","121.630585","25.00917","6501800","深坑區"
"208002","KEA-2872","2018/03/23 18:29:32","新北市金山區磺港里磺港路258號","121.643576666667","25.226015","6502700","金山區"
"208003","665-BX","2018/03/23 18:29:45","新北市金山區中山路256號","121.635598333333","25.2238916666667","6502700","金山區"
"208001","761-BX","2018/03/23 18:29:43","新北市金山區文化二路6號","121.636831666667","25.2246583333333","6502700","金山區"
"251004","009-UM","2018/03/23 18:29:49","新北市淡水區民生路52巷22弄12號","121.46244","25.137125","6501000","淡水區"
"251008","181-VK","2018/03/23 18:29:15","新北市淡水區北投子93號","121.466276666667","25.1767433333333","6501000","淡水區"
"251010","413-VK","2018/03/23 18:29:32","新北市淡水區沙崙路181巷1號","121.424138333333","25.1842333333333","6501000","淡水區"
"251012","441-VK","2018/03/23 18:29:46","新北市淡水區北新路一段55號","121.455773333333","25.1816666666667","6501000","淡水區"
"251001","559-UM","2018/03/23 18:29:40","新北市淡水區自強路387號","121.464905","25.1336266666667","6501000","淡水區"
"251006","561-UM","2018/03/23 18:29:39","新北市淡水區大義街5號","121.443486666667","25.1782483333333","6501000","淡水區"
"251011","650-BX","2018/03/23 18:29:38","新北市淡水區中正東路一段25號","121.45186","25.1633933333333","6501000","淡水區"
"251002","672-BX","2018/03/23 18:29:38","新北市淡水區中正東路一段21巷27號","121.452301666667","25.164255","6501000","淡水區"
"251003","673-BX","2018/03/23 18:29:36","新北市淡水區北新路169巷53號","121.448706666667","25.1807666666667","6501000","淡水區"
"207003","291-VK","2018/03/23 18:29:49","新北市萬里區野柳里港東路153號","121.689418333333","25.2050533333333","6502800","萬里區"
"207004","225-TW","2018/03/23 18:29:46","新北市萬里區萬里里瑪鋉路252號","121.688936666667","25.180815","6502800","萬里區"
"252002","178-VK","2018/03/23 18:29:41","新北市三芝區中山路二段36號","121.502933333333","25.255245","6502100","三芝區"
"252003","249-BX","2018/03/23 18:29:45","新北市三芝區後厝里北勢子45-32號","121.469445","25.25092","6502100","三芝區"
"252001","292-VK","2018/03/23 18:29:35","新北市三芝區中興街二段2號","121.498391666667","25.2567","6502100","三芝區"
"237004","KEA-2597","2018/03/23 18:29:43","新北市三峽區插角24號","121.402578333333","24.8729233333333","6500900","三峽區"
"237007","153-BY","2018/03/23 18:29:51","新北市三峽區中正路三段170巷34號","121.35268","24.9046933333333","6500900","三峽區"
"237009","210-TH","2018/03/23 18:29:46","新北市三峽區大同路240巷45弄6號","121.365323333333","24.92623","6500900","三峽區"
"237013","252-BX","2018/03/23 18:29:43","新北市三峽區光明路69巷25號","121.376716666667","24.9292583333333","6500900","三峽區"
"237012","275-BY","2018/03/23 18:29:48","新北市三峽區三樹路112號","121.378326666667","24.9393083333333","6500900","三峽區"
"237008","302-VK","2018/03/23 18:29:34","新北市三峽區白雞68-33號","121.39292","24.9096483333333","6500900","三峽區"
"237014","433-BY","2018/03/23 18:29:42","新北市三峽區文化路41號","121.372508333333","24.9360916666667","6500900","三峽區"
"237006","5529-G3","2018/03/23 18:29:34","新北市三峽區溪東路357號","121.411496666667","24.9295516666667","6500900","三峽區"
"237011","KEA-2596","2018/03/23 18:29:38","新北市三峽區溪東路313號","121.410368333333","24.930485","6500900","三峽區"
"237010","706-TV","2018/03/23 18:29:41","新北市三峽區復興路295號","121.365761666667","24.9389383333333","6500900","三峽區"
"237005","AKY-6261","2018/03/23 18:29:36","新北市三峽區民族街5巷35號","121.369878333333","24.9325466666667","6500900","三峽區"
"236072","105-UM","2018/03/23 18:29:38","新北市土城區永豐路255巷21弄2-1號","121.475053333333","24.9736766666667","6501300","土城區"
"236043","107-UM","2018/03/23 18:29:36","新北市土城區裕民路67巷9號","121.449793333333","24.9881183333333","6501300","土城區"
"236079","166-UM","2018/03/23 18:29:51","新北市土城區中央路四段27巷10弄1號","121.424616666667","24.9621383333333","6501300","土城區"
"236031","253-BX","2018/03/23 18:29:36","新北市土城區福仁街10號","121.440221666667","24.9762183333333","6501300","土城區"
"236026","269-VK","2018/03/23 18:29:42","新北市土城區南天母路135巷32號","121.448868333333","24.95443","6501300","土城區"
"236015","270-VK","2018/03/23 18:29:32","新北市土城區青雲路39巷7號","121.460296666667","24.9874466666667","6501300","土城區"
"236039","271-VK","2018/03/23 18:29:44","新北市土城區青雲路451巷1號","121.459083333333","24.97471","6501300","土城區"
"236022","401-BY","2018/03/23 18:29:46","新北市土城區永豐路135巷1號","121.466593333333","24.983405","6501300","土城區"
"236059","912-UM","2018/03/23 18:29:33","新北市土城區中央路四段281-3號","121.412286666667","24.9536416666667","6501300","土城區"
"236050","913-UM","2018/03/23 18:29:39","新北市土城區青雲路369-2號","121.458776666667","24.9756166666667","6501300","土城區"
"236063","915-UM","2018/03/23 18:29:38","新北市土城區延壽路16弄1號","121.4688","24.9917816666667","6501300","土城區"
"236055","AAC-216","2018/03/23 18:29:38","新北市土城區中華路二段69號","121.439416666667","24.9783816666667","6501300","土城區"
"242058","986-R7","2018/03/23 18:29:34","新北市新莊區中正路887-17號","121.416135","25.0242083333333","6500500","新莊區"
"242054","751-BX","2018/03/23 18:29:51","新北市樹林區俊英街2號","121.430471666667","24.999055","6500500","新莊區"
"242025","613-BX","2018/03/23 18:29:42","新北市新莊區中原路656號","121.443665","25.05444","6500500","新莊區"
"242046","497-BY","2018/03/23 18:29:54","新北市新莊區富國路77巷23號","121.420325","25.0265016666667","6500500","新莊區"
"242060","353-BY","2018/03/23 18:29:40","新北市新莊區富國路176巷7號","121.42411","25.02411","6500500","新莊區"
"242002","349-TH","2018/03/23 18:29:50","新北市新莊區瓊林南路77-39號","121.437831666667","25.013795","6500500","新莊區"
"238015","755-BX","2018/03/23 18:29:40","新北市樹林區啟智街173巷2號","121.415738333333","24.98765","6500700","樹林區"
"238023","601-UM","2018/03/23 18:29:40","新北市樹林區忠信街15號","121.407615","25.01493","6500700","樹林區"
"238019","599-UM","2018/03/23 18:29:41","新北市樹林區中華路190號","121.411933333333","24.9805316666667","6500700","樹林區"
"238018","571-TV","2018/03/23 18:29:38","新北市樹林區樹新路30-3號","121.427318333333","24.9947166666667","6500700","樹林區"
"238024","5061-A6","2018/03/23 18:29:36","新北市樹林區中山路一段31號","121.424781666667","24.99289","6500700","樹林區"
"238025","303-VK","2018/03/23 18:29:48","新北市樹林區大安路586號","121.411663333333","24.983435","6500700","樹林區"
"238017","283-BY","2018/03/23 18:29:33","新北市樹林區光榮街18-1號","121.412425","25.0039083333333","6500700","樹林區"
"238014","282-BY","2018/03/23 18:29:33","新北市樹林區大安路111巷11號","121.423086666667","24.9976283333333","6500700","樹林區"
"238020","268-VK","2018/03/23 18:29:47","新北市樹林區三俊街21號","121.411688333333","25.0155483333333","6500700","樹林區"
"238026","172-UY","2018/03/23 18:29:43","新北市樹林區中山路三段204號","121.387181666667","24.968395","6500700","樹林區"
"238016","169-UY","2018/03/23 18:29:45","新北市樹林區文化街28-1號","121.419125","24.9878433333333","6500700","樹林區"
"239007","AAC-297","2018/03/23 18:29:42","新北市鶯歌區光明街76號","121.34689","24.95572","6500800","鶯歌區"
"239006","891-R6","2018/03/23 18:29:38","新北市鶯歌區鶯桃路296巷84弄21號","121.337248333333","24.961535","6500800","鶯歌區"
"239008","527-UM","2018/03/23 18:29:24","新北市鶯歌區國際一路179號","121.336226666667","24.97651","6500800","鶯歌區"
"239005","526-UM","2018/03/23 18:29:50","新北市鶯歌區鳳吉二街146號","121.328576666667","24.9749566666667","6500800","鶯歌區"
"239001","417-VK","2018/03/23 18:29:46","新北市鶯歌區高職南街13號","121.33759","24.939135","6500800","鶯歌區"
"239003","360-BY","2018/03/23 18:29:36","新北市鶯歌區鶯桃路441號","121.332436666667","24.9653683333333","6500800","鶯歌區"
"239002","359-BY","2018/03/23 18:29:49","新北市鶯歌區中正一路455號","121.362488333333","24.9568116666667","6500800","鶯歌區"
"239004","193-VK","2018/03/23 18:29:33","新北市鶯歌區尖山路302巷19號","121.34164","24.9433866666667","6500800","鶯歌區"
"221008","489-VK","2018/03/23 18:29:44","新北市汐止區康寧街901號","121.651426666667","25.0750933333333","6501100","汐止區"
"221036","130-UY","2018/03/23 18:29:47","新北市汐止區南昌街27號","121.663216666667","25.06923","6501100","汐止區"
"221025","131-UY","2018/03/23 18:29:41","新北市汐止區仁愛路122巷13號","121.663348333333","25.063355","6501100","汐止區"
"221010","269-BY","2018/03/23 18:29:35","新北市汐止區汐萬路35號","121.644176666667","25.091595","6501100","汐止區"
"221012","278-VK","2018/03/23 18:29:47","新北市汐止區保長路51巷25號","121.674511666667","25.07905","6501100","汐止區"
"221023","279-VK","2018/03/23 18:29:40","新北市汐止區康寧街476號","121.632211666667","25.0681266666667","6501100","汐止區"
"221032","280-BY","2018/03/23 18:29:34","新北市汐止區民權街二段97巷12號","121.619458333333","25.0468166666667","6501100","汐止區"
"221027","281-BY","2018/03/23 18:29:48","新北市汐止區和平街63號","121.661696666667","25.0707083333333","6501100","汐止區"
"221029","298-VK","2018/03/23 18:29:42","新北市汐止區樟樹一路272-6號","121.642765","25.0688366666667","6501100","汐止區"
"221021","299-VK","2018/03/23 18:29:35","新北市汐止區復興路71號","121.657311666667","25.06195","6501100","汐止區"
"221031","353-TW","2018/03/23 18:29:46","新北市汐止區中興路20號","121.637123333333","25.0595433333333","6501100","汐止區"
"221035","622-UM","2018/03/23 18:29:33","新北市汐止區大同路二段169巷40-1號","121.650396666667","25.0652516666667","6501100","汐止區"
"221038","646-BX","2018/03/23 18:29:44","新北市汐止區汐萬路一段282號","121.650811666667","25.074175","6501100","汐止區"
"221033","647-BX","2018/03/23 18:29:40","新北市汐止區宜興街1號","121.62075","25.04109","6501100","汐止區"
"221002","707-TV","2018/03/23 18:29:44","新北市汐止區福德一路143號","121.63671","25.0668283333333","6501100","汐止區"
"221018","753-BX","2018/03/23 18:29:49","新北市汐止區茄苳路224巷3弄8號","121.670905","25.0682483333333","6501100","汐止區"
"220064","282-UM","2018/03/23 18:29:41","新北市板橋區四川路二段130巷27號","121.449453333333","24.9942216666667","6500100","板橋區"
"220029","287-VK","2018/03/23 18:29:35","新北市板橋區華東街1-10號","121.448228333333","24.9950216666667","6500100","板橋區"
"220062","305-R5","2018/03/23 18:29:39","新北市板橋區民生路二段120號","121.470596666667","25.019705","6500100","板橋區"
"242041","280-VK","2018/03/23 18:29:29","新北市新莊區中正路694巷103號","121.416295","25.029815","6500500","新莊區"
"220035","560-BX","2018/03/23 18:29:37","新北市板橋區四川路二段130巷22號","121.44959","24.9941466666667","6500100","板橋區"
"220057","686-BX","2018/03/23 18:29:32","新北市板橋區華東街1-10號","121.448286666667","24.994935","6500100","板橋區"
"220070","AAC-253","2018/03/23 18:29:45","新北市板橋區華東街1-10號","121.448325","24.9949083333333","6500100","板橋區"
