"lineid","car","time","location","longitude","latitude","cityid","cityname"
"234046","148-BY","2018/03/23 18:59:43","新北市永和區永元路52巷52號","121.524535","25.0007483333333","6500400","永和區"
"234007","207-UY","2018/03/23 18:59:41","新北市永和區中山路一段58號","121.512971666667","25.010665","6500400","永和區"
"234081","298-R6","2018/03/23 18:59:48","新北市永和區永亨路83號","121.522073333333","25.0057533333333","6500400","永和區"
"234038","336-UY","2018/03/23 18:59:35","新北市永和區成功路二段207號","121.526585","24.9959716666667","6500400","永和區"
"234064","337-UY","2018/03/23 18:59:46","新北市永和區秀朗路一段146號","121.518243333333","25.0033766666667","6500400","永和區"
"234086","338-UY","2018/03/23 18:59:49","新北市永和區中正路397號","121.517261666667","25.004135","6500400","永和區"
"234070","552-UM","2018/03/23 18:59:43","新北市永和區中興街68巷5弄1號","121.517896666667","25.0115616666667","6500400","永和區"
"234017","745-BX","2018/03/23 18:59:55","新北市永和區永和路二段310號","121.51615","25.0160616666667","6500400","永和區"
"234030","746-BX","2018/03/23 18:59:33","新北市永和區四維街48號","121.525061666667","24.99812","6500400","永和區"
"234054","KEA-2590","2018/03/23 18:59:49","新北市永和區竹林路66巷2號","121.518306666667","25.0133316666667","6500400","永和區"
"234013","KEA-2591","2018/03/23 18:59:34","新北市永和區信義路17巷6號","121.513966666667","25.0118166666667","6500400","永和區"
"234061","AAD-866","2018/03/23 18:59:44","新北市永和區福和路303號","121.516391666667","25.007105","6500400","永和區"
"234050","863-TW","2018/03/23 18:59:37","新北市永和區保安路60號","121.510088333333","25.0165566666667","6500400","永和區"
"234026","9371-KE","2018/03/23 18:59:36","新北市永和區安樂路459號","121.514295","25.00506","6500400","永和區"
"234011","9373-KE","2018/03/23 18:59:42","新北市永和區仁愛路141巷3弄3號","121.51179","25.0124533333333","6500400","永和區"
"249005","172-UM","2018/03/23 18:59:45","新北市八里區長道坑6號","121.39739","25.1236566666667","6502300","八里區"
"249001","173-UM","2018/03/23 18:59:44","新北市八里區渡船頭街3-1號","121.434415","25.15834","6502300","八里區"
"248016","026-BX","2018/03/23 18:59:43","新北市五股區成泰路三段543巷12弄1號","121.451173333333","25.10212","6501500","五股區"
"248006","077-UY","2018/03/23 18:59:46","新北市五股區中興路一段40號","121.468321666667","25.072525","6501500","五股區"
"248008","095-VK","2018/03/23 18:59:49","新北市五股區中興路一段118巷6弄30號","121.466356666667","25.074945","6501500","五股區"
"248018","225-UY","2018/03/23 18:59:52","新北市五股區民義路二段22巷2號","121.420348333333","25.0967183333333","6501500","五股區"
"248012","247-BX","2018/03/23 18:59:47","新北市五股區中興路四段48巷16號","121.43862","25.0834716666667","6501500","五股區"
"248010","272-BY","2018/03/23 18:59:39","新北市五股區水碓二路21號","121.429796666667","25.07209","6501500","五股區"
"248004","677-BX","2018/03/23 18:59:38","新北市五股區民義路二段50-16號","121.4128","25.102215","6501500","五股區"
"248002","678-BX","2018/03/23 18:59:32","新北市五股區凌雲路一段163號","121.44888","25.102615","6501500","五股區"
"234023","9380-KE","2018/03/23 18:59:42","新北市永和區竹林路91巷55弄1號","121.521863333333","25.0137583333333","6500400","永和區"
"234077","969-R7","2018/03/23 18:59:46","新北市永和區智光街24號","121.518043333333","24.9990933333333","6500400","永和區"
"234074","AAC-211","2018/03/23 18:59:35","新北市永和區福和路1號","121.526236666667","25.0098866666667","6500400","永和區"
"234067","AAC-212","2018/03/23 18:59:44","新北市永和區中和路625號","121.513011666667","25.0049316666667","6500400","永和區"
"234003","AAC-295","2018/03/23 18:59:49","新北市永和區和平街36號","121.513055","25.01009","6500400","永和區"
"232011","375-UM","2018/03/23 18:59:37","新北市坪林區坪林街10-2號","121.712978333333","24.9353633333333","6502000","坪林區"
"244013","069-UM","2018/03/23 18:59:46","新北市林口區麗園一街6巷8-3號","121.37502","25.0710933333333","6501700","林口區"
"244007","080-UY","2018/03/23 18:59:51","新北市林口區太平里25-3號","121.374906666667","25.1216216666667","6501700","林口區"
"244025","742-UY","2018/03/23 18:59:39","新北市林口區仁愛二路101-1號","121.367796666667","25.0752016666667","6501700","林口區"
"244023","483-VK","2018/03/23 18:59:36","新北市林口區民權路81號","121.372213333333","25.0810966666667","6501700","林口區"
"244017","485-VK","2018/03/23 18:59:53","新北市林口區公園路92號","121.369563333333","25.07048","6501700","林口區"
"244009","656-BX","2018/03/23 18:59:35","新北市林口區台電新村22號","121.387478333333","25.08609","6501700","林口區"
"244019","657-BX","2018/03/23 18:59:45","新北市林口區麗園二街87號","121.382728333333","25.0667783333333","6501700","林口區"
"244011","701-TV","2018/03/23 18:59:43","新北市林口區中正路332號","121.387495","25.0777216666667","6501700","林口區"
"243012","AAD-798","2018/03/23 18:59:48","新北市泰山區同義街47巷7弄20號","121.432441666667","25.0569216666667","6501600","泰山區"
"243015","380-SR","2018/03/23 18:59:45","新北市泰山區美寧街2號","121.430105","25.0632766666667","6501600","泰山區"
"243014","421-VK","2018/03/23 18:59:44","新北市泰山區黎明路23號","121.420911666667","25.0626566666667","6501600","泰山區"
"243010","KEA-2215","2018/03/23 18:59:44","新北市泰山區辭修路24號","121.429045","25.0581583333333","6501600","泰山區"
"243013","646-TV","2018/03/23 18:59:49","新北市泰山區明志路三段351巷22號","121.422643333333","25.0348783333333","6501600","泰山區"
"243016","680-BX","2018/03/23 18:59:49","新北市泰山區明志路二段137號","121.42766","25.05057","6501600","泰山區"
"222003","436-BY","2018/03/23 18:59:46","新北市深坑區深南路51-1號","121.6214","25.0101983333333","6501800","深坑區"
"222002","659-BX","2018/03/23 18:59:51","新北市深坑區文山路一段31巷2號","121.629913333333","25.0033383333333","6501800","深坑區"
"231060","001-UM","2018/03/23 18:59:48","新北市新店區安康路二段380號","121.500681666667","24.95705","6500600","新店區"
"231041","002-UM","2018/03/23 18:59:42","新北市新店區環河路78號","121.536971666667","24.963285","6500600","新店區"
"231059","046-UY","2018/03/23 18:59:44","新北市新店區安康路一段355-3號","121.51977","24.9617583333333","6500600","新店區"
"231061","047-UY","2018/03/23 18:59:43","新北市新店區安康路一段351-1號","121.5196","24.9639083333333","6500600","新店區"
"231051","107-UY","2018/03/23 18:59:36","新北市新店區三民路189號","121.535211666667","24.97554","6500600","新店區"
"231048","108-UY","2018/03/23 18:59:34","新北市新店區德正街27巷29弄76號","121.545801666667","24.973255","6500600","新店區"
"231053","187-VK","2018/03/23 18:59:50","新北市新店區屈尺路28號","121.548511666667","24.9226716666667","6500600","新店區"
"231050","KEA-2219","2018/03/23 18:59:36","新北市新店區北宜路二段30巷5弄2號","121.548063333333","24.95083","6500600","新店區"
"221015","KEA-2785","2018/03/23 18:59:37","新北市汐止區汐萬路一段256巷3號","121.652703333333","25.0745216666667","6501100","汐止區"
"231046","278-BY","2018/03/23 18:59:50","新北市新店區直潭一街1號","121.53564","24.9440816666667","6500600","新店區"
"231054","AAD-862","2018/03/23 18:59:35","新北市新店區新店路13號","121.540308333333","24.952865","6500600","新店區"
"231058","3712-VJ","2018/03/23 18:59:34","新北市新店區光明街98號","121.538978333333","24.960395","6500600","新店區"
"231056","3713-VJ","2018/03/23 18:59:34","新北市新店區二十張路33巷11號","121.538896666667","24.9810716666667","6500600","新店區"
"231055","4716-K9","2018/03/23 18:59:44","新北市新店區北新路一段271巷8號","121.540506666667","24.9668616666667","6500600","新店區"
"231067","4772-VM","2018/03/23 18:59:35","新北市新店區安康路一段247巷31號","121.524818333333","24.9619383333333","6500600","新店區"
"231065","512-UM","2018/03/23 18:59:44","新北市新店區安祥路145巷2號","121.474716666667","24.9554366666667","6500600","新店區"
"231064","513-UM","2018/03/23 18:59:43","新北市新店區安康路一段266巷4號","121.519828333333","24.96406","6500600","新店區"
"231045","617-UM","2018/03/23 18:59:38","新北市新店區光明街9號","121.538123333333","24.959325","6500600","新店區"
"231040","619-UM","2018/03/23 18:59:32","新北市新店區中正路376號","121.53482","24.97681","6500600","新店區"
"231042","641-BX","2018/03/23 18:59:37","新北市新店區中興路一段292號","121.545875","24.9692066666667","6500600","新店區"
"231063","645-TV","2018/03/23 18:59:40","新北市新店區車子路110號","121.505211666667","24.95208","6500600","新店區"
"231049","719-UM","2018/03/23 18:59:51","新北市新店區二十張路142-1號","121.534998333333","24.9788683333333","6500600","新店區"
"231062","720-UM","2018/03/23 18:59:47","新北市新店區安和路一段53號","121.517546666667","24.9659866666667","6500600","新店區"
"231044","897-TW","2018/03/23 18:59:44","新北市新店區寶中路94-1號","121.549023333333","24.97999","6500600","新店區"
"231043","899-TW","2018/03/23 18:59:40","新北市新店區北新路二段18號","121.542773333333","24.9713466666667","6500600","新店區"
"231066","AKT-0513","2018/03/23 18:59:47","新北市新店區安祥路78號","121.489371666667","24.9586366666667","6500600","新店區"
"241035","462-BY","2018/03/23 18:59:44","新北市三重區重新路四段121號","121.484848333333","25.05204","6500200","三重區"
"241029","942-UM","2018/03/23 18:59:44","新北市三重區重安街15-1號","121.490425","25.0578733333333","6500200","三重區"
"235066","003-UY","2018/03/23 18:59:49","新北市中和區光華街33號","121.504951666667","25.0039933333333","6500300","中和區"
"235064","005-UY","2018/03/23 18:59:35","新北市中和區景平路634-3號","121.499493333333","24.9989383333333","6500300","中和區"
"235063","006-UY","2018/03/23 18:59:46","新北市中和區中正路462號","121.490168333333","24.99431","6500300","中和區"
"235056","096-UM","2018/03/23 18:59:45","新北市中和區新民街94巷5號","121.481273333333","25.0087233333333","6500300","中和區"
"235065","098-UM","2018/03/23 18:59:34","新北市中和區勝利路35巷3弄2號","121.499175","25.0071433333333","6500300","中和區"
"235040","150-BY","2018/03/23 18:59:46","新北市中和區宜安路21號","121.512845","24.9957766666667","6500300","中和區"
"235058","151-BY","2018/03/23 18:59:37","新北市中和區連城路569巷9弄9號","121.479681666667","24.99412","6500300","中和區"
"235055","183-VK","2018/03/23 18:59:52","新北市中和區民德路25巷1號","121.469175","25.002765","6500300","中和區"
"235038","185-VK","2018/03/23 18:59:50","新北市中和區大勇街31巷13弄13號","121.517386666667","24.993955","6500300","中和區"
"235049","186-VK","2018/03/23 18:59:44","新北市中和區景安路167巷8號","121.5057","24.9946066666667","6500300","中和區"
"235067","255-BX","2018/03/23 18:57:38","新北市中和區新生街185號","121.48374","25.0004316666667","6500300","中和區"
"235044","293-VK","2018/03/23 18:59:51","新北市中和區中興街161巷4弄1號","121.50053","24.9908966666667","6500300","中和區"
"235043","352-BY","2018/03/23 18:59:50","新北市中和區成功路64號","121.526023333333","24.9920866666667","6500300","中和區"
"235068","377-QA","2018/03/23 18:59:35","新北市中和區圓通路289號","121.49526","24.99261","6500300","中和區"
"235061","378-QA","2018/03/23 18:59:52","新北市中和區民享街53號","121.474193333333","25.00267","6500300","中和區"
"235071","269-TV","2018/03/23 18:59:44","新北市中和區員山路36巷16-3號","121.484758333333","24.99142","6500300","中和區"
"235050","4979-A6","2018/03/23 18:59:47","新北市中和區忠孝街1巷2-1號","121.509113333333","24.98304","6500300","中和區"
"235069","4980-A6","2018/03/23 18:59:48","新北市中和區中和路88號","121.501233333333","25.0004833333333","6500300","中和區"
"235042","551-UM","2018/03/23 18:59:43","新北市中和區秀朗路三段60巷46號","121.524835","24.9949883333333","6500300","中和區"
"235070","558-UM","2018/03/23 18:59:48","新北市中和區安和路163號","121.50616","24.9974766666667","6500300","中和區"
"235045","565-BX","2018/03/23 18:59:49","新北市中和區景新街467巷32弄10號","121.514291666667","24.9880983333333","6500300","中和區"
"235054","640-BX","2018/03/23 18:59:36","新北市中和區民享街2巷2號","121.473783333333","25.0059133333333","6500300","中和區"
"235060","647-TV","2018/03/23 18:59:48","新北市中和區民治街5巷1號","121.474971666667","25.00509","6500300","中和區"
"235047","732-UM","2018/03/23 18:59:53","新北市中和區興南路二段80號","121.505905","24.984675","6500300","中和區"
"235046","733-UM","2018/03/23 18:59:38","新北市中和區興南路一段135巷22弄14號","121.508926666667","24.986715","6500300","中和區"
"235062","800-TS","2018/03/23 18:59:44","新北市中和區中山路二段362號","121.492535","25.00295","6500300","中和區"
"235057","801-TS","2018/03/23 18:59:43","新北市中和區民利街58巷1號","121.478923333333","24.9989566666667","6500300","中和區"
"235041","802-TS","2018/03/23 18:59:41","新北市中和區宜安路125號","121.509895","24.9981583333333","6500300","中和區"
"235016","805-TS","2018/03/23 18:59:54","新北市中和區興南路二段252號","121.50296","24.9817916666667","6500300","中和區"
"235048","896-TW","2018/03/23 18:59:47","新北市中和區華新街111號","121.508581666667","24.9816","6500300","中和區"
"235053","900-TW","2018/03/23 18:59:37","新北市中和區壽德街26號","121.4666","24.9942933333333","6500300","中和區"
"235051","157-BY","2018/03/23 18:59:48","新北市中和區忠孝街13號","121.510033333333","24.9828783333333","6500300","中和區"
"235037","AAC-213","2018/03/23 18:59:34","新北市永和區民生路83號","121.522606666667","24.9967716666667","6500300","中和區"
"235059","AAC-215","2018/03/23 18:59:36","新北市中和區圓通路367巷20弄7號","121.491938333333","24.9885016666667","6500300","中和區"
"220065","072-UY","2018/03/23 18:59:52","新北市板橋區漢生東路340巷13號","121.471398333333","25.0072916666667","6500100","板橋區"
"220086","073-UY","2018/03/23 18:59:44","新北市板橋區中正路170號","121.456488333333","25.0170833333333","6500100","板橋區"
"220069","AAD-861","2018/03/23 18:59:48","新北市板橋區華興街32-6號","121.458798333333","25.004695","6500100","板橋區"
"226004","205-ST","2018/03/23 18:59:33","新北市平溪區靜安路三段51號","121.764373333333","25.03334","6502400","平溪區"
"228001","212-TW","2018/03/23 18:59:38","新北市貢寮區仁理村研海街12-1號","121.923753333333","25.0516683333333","6502600","貢寮區"
"228002","663-BX","2018/03/23 18:59:50","新北市貢寮區福隆里東興街106巷25弄1號","121.946445","25.0183366666667","6502600","貢寮區"
"228003","828-UM","2018/03/23 18:59:33","新北市貢寮區和美里龍洞街40號","121.913768333333","25.1115916666667","6502600","貢寮區"
"224010","AGQ-8101","2018/03/23 18:51:20","新北市瑞芳區基山街31巷10號","121.845481666667","25.1095466666667","6501200","瑞芳區"
"224006","676-BX","2018/03/23 18:59:53","新北市瑞芳區三爪子坑路106巷182號","121.808986666667","25.1034966666667","6501200","瑞芳區"
"224008","285-BY","2018/03/23 18:59:42","新北市瑞芳區瑞芳街112巷9號","121.801563333333","25.1109433333333","6501200","瑞芳區"
"224009","273-VK","2018/03/23 18:59:35","新北市瑞芳區長仁路50-1號","121.8663","25.1186866666667","6501200","瑞芳區"
"224007","272-VK","2018/03/23 18:59:43","新北市瑞芳區中央路48巷56-26號","121.759393333333","25.1038066666667","6501200","瑞芳區"
"224005","271-BY","2018/03/23 18:59:41","新北市瑞芳區瑞芳街32-10號","121.822348333333","25.12093","6501200","瑞芳區"
"227011","642-TC","2018/03/23 18:59:52","新北市雙溪區牡丹里中正路58巷23號","121.866398333333","25.04162","6502500","雙溪區"
"227003","400-TW","2018/03/23 18:59:47","新北市雙溪區平林里康福家園10號","121.85881","25.0373183333333","6502500","雙溪區"
"253005","032-BX","2018/03/23 18:59:50","新北市石門區尖子鹿76號","121.570873333333","25.29692","6502200","石門區"
"253006","295-VK","2018/03/23 18:59:46","新北市石門區下員坑30-7號","121.519731666667","25.2821583333333","6502200","石門區"
"222001","KEA-2212","2018/03/23 18:59:53","新北市深坑區北深路一段177號","121.632523333333","25.0108616666667","6501800","深坑區"
"208002","KEA-2872","2018/03/23 18:59:52","新北市金山區仁愛路37-23號","121.635645","25.22045","6502700","金山區"
"208003","665-BX","2018/03/23 18:59:52","新北市金山區中正路105-1號","121.632695","25.2215983333333","6502700","金山區"
"208001","761-BX","2018/03/23 18:59:43","新北市金山區中山路69號","121.64114","25.2179016666667","6502700","金山區"
"251010","413-VK","2018/03/23 18:59:52","新北市淡水區沙崙路97號","121.4223","25.182415","6501000","淡水區"
"251001","559-UM","2018/03/23 18:59:38","新北市淡水區自強路58號","121.46317","25.127485","6501000","淡水區"
"251009","575-R6","2018/03/23 18:59:51","新北市淡水區重建街38號","121.439935","25.1713233333333","6501000","淡水區"
"251007","577-R6","2018/03/23 18:59:37","新北市淡水區民生路113巷1弄58號","121.46237","25.1386166666667","6501000","淡水區"
"251002","672-BX","2018/03/23 18:59:38","新北市淡水區中正東路55-4號","121.446771666667","25.1678516666667","6501000","淡水區"
"251003","673-BX","2018/03/23 18:59:36","新北市淡水區中山北路一段149巷33號","121.44306","25.1779816666667","6501000","淡水區"
"207003","291-VK","2018/03/23 18:59:48","新北市萬里區大鵬里頂社4號","121.656741666667","25.2096283333333","6502800","萬里區"
"207004","225-TW","2018/03/23 18:59:46","新北市萬里區萬里里獅頭路23號","121.693211666667","25.178305","6502800","萬里區"
"252002","178-VK","2018/03/23 18:59:46","新北市三芝區中正路一段78號","121.504003333333","25.2574683333333","6502100","三芝區"
"252003","249-BX","2018/03/23 18:59:45","新北市三芝區後厝里北勢子42-6號","121.472406666667","25.2527383333333","6502100","三芝區"
"252001","292-VK","2018/03/23 18:59:35","新北市三芝區中興街二段260號","121.501735","25.25306","6502100","三芝區"
"237004","KEA-2597","2018/03/23 18:51:26","新北市三峽區有木206號","121.439075","24.8515466666667","6500900","三峽區"
"237007","153-BY","2018/03/23 18:59:51","新北市三峽區中正路二段83巷17號","121.367186666667","24.9178533333333","6500900","三峽區"
"237009","210-TH","2018/03/23 18:59:46","新北市三峽區文化路208號","121.36912","24.9360483333333","6500900","三峽區"
"237013","252-BX","2018/03/23 18:59:43","新北市三峽區光明路69巷25號","121.376763333333","24.929205","6500900","三峽區"
"237012","275-BY","2018/03/23 18:59:47","新北市三峽區三樹路222巷24-2號","121.380251666667","24.9425916666667","6500900","三峽區"
"237008","302-VK","2018/03/23 18:59:33","新北市三峽區中正路一段275號","121.371698333333","24.9258833333333","6500900","三峽區"
"237014","433-BY","2018/03/23 18:59:42","新北市三峽區隆恩街246-1號","121.357386666667","24.94097","6500900","三峽區"
"237006","5529-G3","2018/03/23 18:59:54","新北市三峽區溪東路106號","121.403286666667","24.9339516666667","6500900","三峽區"
"237011","KEA-2596","2018/03/23 18:43:14","新北市三峽區溪東路309號","121.410198333333","24.9306166666667","6500900","三峽區"
"237010","706-TV","2018/03/23 18:59:41","新北市三峽區復興路44號","121.373631666667","24.9369883333333","6500900","三峽區"
"237005","AKY-6261","2018/03/23 18:59:35","新北市三峽區中山路459巷163-3號","121.348645","24.93294","6500900","三峽區"
"236072","105-UM","2018/03/23 18:59:38","新北市土城區青雲路113號","121.45877","24.9843966666667","6501300","土城區"
"236043","107-UM","2018/03/23 18:59:36","新北市土城區學府路一段248號","121.45153","24.9846283333333","6501300","土城區"
"236079","166-UM","2018/03/23 18:59:51","新北市土城區中央路四段125巷2弄18號","121.416433333333","24.9568866666667","6501300","土城區"
"236031","253-BX","2018/03/23 18:59:36","新北市土城區慶利街9號","121.439598333333","24.9736283333333","6501300","土城區"
"236026","269-VK","2018/03/23 18:59:42","新北市土城區中央路二段246號","121.441865","24.9748933333333","6501300","土城區"
"236015","270-VK","2018/03/23 18:59:52","新北市土城區立德路103號","121.463438333333","24.9875633333333","6501300","土城區"
"236039","271-VK","2018/03/23 18:59:44","新北市土城區青仁路13號","121.459836666667","24.9786683333333","6501300","土城區"
"236022","401-BY","2018/03/23 18:59:46","新北市土城區延吉街166號","121.46838","24.9854066666667","6501300","土城區"
"236059","912-UM","2018/03/23 18:59:53","新北市土城區明德路一段385-1號","121.452411666667","24.9798","6501300","土城區"
"236050","913-UM","2018/03/23 18:59:39","新北市土城區青雲路230號","121.459035","24.9808916666667","6501300","土城區"
"236063","915-UM","2018/03/23 18:59:38","新北市土城區金城路三段93巷16號","121.466838333333","24.98827","6501300","土城區"
"236055","AAC-216","2018/03/23 18:59:38","新北市土城區學成路62號","121.452078333333","24.987825","6501300","土城區"
"242002","349-TH","2018/03/23 18:59:49","新北市新莊區環河路636-7號","121.437448333333","25.011775","6500500","新莊區"
"238023","601-UM","2018/03/23 18:59:40","新北市樹林區工興街14巷2號","121.399111666667","25.0132333333333","6500700","樹林區"
"238019","599-UM","2018/03/23 18:59:41","新北市樹林區東榮街91巷1弄2號","121.41628","24.9823166666667","6500700","樹林區"
"238018","571-TV","2018/03/23 18:59:38","新北市樹林區八德街33號","121.41849","24.9836966666667","6500700","樹林區"
"238021","KEA-2539","2018/03/23 18:59:33","新北市樹林區西圳街二段135巷7-9號","121.382218333333","24.956845","6500700","樹林區"
"238025","303-VK","2018/03/23 18:59:48","新北市樹林區民和街67號","121.381073333333","24.9712533333333","6500700","樹林區"
"238017","283-BY","2018/03/23 18:59:33","新北市樹林區光興街50號","121.40985","25.002755","6500700","樹林區"
"238014","282-BY","2018/03/23 18:59:33","新北市樹林區千歲街61巷10號","121.425961666667","24.99827","6500700","樹林區"
"238020","268-VK","2018/03/23 18:59:47","新北市樹林區俊英街176號","121.426123333333","25.0075716666667","6500700","樹林區"
"238026","172-UY","2018/03/23 18:59:43","新北市樹林區地政街41號","121.39482","24.97181","6500700","樹林區"
"238016","169-UY","2018/03/23 18:49:45","新北市樹林區文化街21號","121.419296666667","24.9874416666667","6500700","樹林區"
"239007","AAC-297","2018/03/23 18:59:42","新北市鶯歌區中正一路277號","121.355141666667","24.9570833333333","6500800","鶯歌區"
"239006","891-R6","2018/03/23 18:59:38","新北市鶯歌區建國路512巷8號","121.340498333333","24.9510916666667","6500800","鶯歌區"
"239008","527-UM","2018/03/23 18:59:50","新北市鶯歌區國際二路14巷6號","121.337816666667","24.9748066666667","6500800","鶯歌區"
"239005","526-UM","2018/03/23 18:59:50","新北市鶯歌區大湖路466號","121.339695","24.972055","6500800","鶯歌區"
"239001","417-VK","2018/03/23 18:59:12","新北市鶯歌區鶯桃路161號","121.337331666667","24.9551766666667","6500800","鶯歌區"
"239003","360-BY","2018/03/23 18:59:36","新北市鶯歌區鶯桃路429號","121.332581666667","24.9650133333333","6500800","鶯歌區"
"239002","359-BY","2018/03/23 18:59:49","新北市鶯歌區中正一路298號","121.355616666667","24.9570916666667","6500800","鶯歌區"
"239004","193-VK","2018/03/23 18:59:53","新北市鶯歌區二甲路106巷2號","121.333908333333","24.93136","6500800","鶯歌區"
"221008","489-VK","2018/03/23 18:59:44","新北市汐止區康寧街753巷2弄22號","121.640088333333","25.0745766666667","6501100","汐止區"
"221036","130-UY","2018/03/23 18:59:47","新北市汐止區汐萬路一段115巷50號","121.653023333333","25.0702033333333","6501100","汐止區"
"221025","131-UY","2018/03/23 18:59:41","新北市汐止區汐萬路一段146號","121.652966666667","25.071095","6501100","汐止區"
"221010","269-BY","2018/03/23 18:59:55","新北市汐止區汐萬路一段256巷3號","121.652438333333","25.0745816666667","6501100","汐止區"
"221012","278-VK","2018/03/23 18:59:47","新北市汐止區康寧街901號","121.650873333333","25.0751933333333","6501100","汐止區"
"221023","279-VK","2018/03/23 18:59:40","新北市汐止區康寧街901號","121.650888333333","25.0752866666667","6501100","汐止區"
"221032","280-BY","2018/03/23 18:59:34","新北市汐止區橫科路407巷30弄28號","121.627275","25.0483533333333","6501100","汐止區"
"221027","281-BY","2018/03/23 18:59:48","新北市汐止區康寧街901號","121.651425","25.07499","6501100","汐止區"
"221029","298-VK","2018/03/23 18:59:42","新北市汐止區樟樹一路254號","121.642393333333","25.0672833333333","6501100","汐止區"
"221031","353-TW","2018/03/23 18:59:46","新北市汐止區福德三路127號","121.633638333333","25.06764","6501100","汐止區"
"221035","622-UM","2018/03/23 18:59:53","新北市汐止區汐萬路一段282號","121.650841666667","25.0741933333333","6501100","汐止區"
"221038","646-BX","2018/03/23 18:59:44","新北市汐止區汐萬路一段312號","121.650681666667","25.0753183333333","6501100","汐止區"
"221033","647-BX","2018/03/23 18:59:39","新北市汐止區南勢街3號","121.627096666667","25.0374083333333","6501100","汐止區"
"221002","707-TV","2018/03/23 18:59:44","新北市汐止區大同路一段2號","121.620993333333","25.0551116666667","6501100","汐止區"
"220079","145-BY","2018/03/23 18:59:56","新北市板橋區民權路202巷9弄4號","121.460285","25.0154066666667","6500100","板橋區"
"220106","KEA-2550","2018/03/23 18:59:53","新北市板橋區莊敬路66號","121.471768333333","25.0254716666667","6500100","板橋區"
"220082","610-BX","2018/03/23 18:59:45","新北市板橋區滿平街80號","121.427511666667","24.9891516666667","6500100","板橋區"
"220101","245-BX","2018/03/23 18:59:28","新北市板橋區文化路二段182巷11號","121.472008333333","25.02682","6500100","板橋區"
"220098","257-TC","2018/03/23 18:59:45","新北市板橋區民有街32號","121.46598","25.0254533333333","6500100","板橋區"
"220056","276-BY","2018/03/23 18:59:38","新北市板橋區信義路150巷40號","121.457205","24.9918483333333","6500100","板橋區"
"220072","277-BY","2018/03/23 18:59:42","新北市板橋區大觀路三段50巷49號","121.432168333333","24.9959066666667","6500100","板橋區"
"220094","280-UM","2018/03/23 18:59:52","新北市板橋區文化路二段76號","121.469406666667","25.0250033333333","6500100","板橋區"
"220064","282-UM","2018/03/23 18:59:41","新北市板橋區縣民大道二段106號","121.46696","25.0150783333333","6500100","板橋區"
"220071","283-VK","2018/03/23 18:59:43","新北市板橋區忠孝路154巷19號","121.464205","25.0016783333333","6500100","板橋區"
"220053","285-VK","2018/03/23 18:59:45","新北市板橋區中山路二段89巷45號","121.473673333333","25.0172383333333","6500100","板橋區"
"220083","286-VK","2018/03/23 18:59:44","新北市板橋區大觀路一段38巷162號","121.442143333333","25.0045483333333","6500100","板橋區"
"220081","287-VK","2018/03/23 18:59:36","新北市板橋區南雅西路二段102號","121.452365","25.01181","6500100","板橋區"
"220090","288-VK","2018/03/23 18:59:34","新北市板橋區四維路177巷2弄2號","121.464151666667","25.02632","6500100","板橋區"
"220061","293-UM","2018/03/23 18:59:49","新北市板橋區永豐街122號","121.476421666667","25.0208116666667","6500100","板橋區"
"220084","296-UM","2018/03/23 18:59:42","新北市板橋區大觀路二段164號","121.441258333333","24.99858","6500100","板橋區"
"220075","303-R5","2018/03/23 18:59:46","新北市板橋區館前西路162號","121.452748333333","25.0086266666667","6500100","板橋區"
"220062","305-R5","2018/03/23 18:59:39","新北市板橋區民享街138號","121.477915","25.0164633333333","6500100","板橋區"
"220092","307-R5","2018/03/23 18:59:38","新北市板橋區漢生東路15號","121.46456","25.0170083333333","6500100","板橋區"
"220080","461-BY","2018/03/23 18:59:35","新北市板橋區大觀路二段265巷20弄1號","121.4428","24.9981883333333","6500100","板橋區"
"220088","491-VK","2018/03/23 18:59:43","新北市板橋區民生路二段232號","121.469053333333","25.0220866666667","6500100","板橋區"
"220035","560-BX","2018/03/23 18:59:50","新北市板橋區中正路375巷42號","121.453693333333","25.0204216666667","6500100","板橋區"
"220103","561-BX","2018/03/23 18:59:35","新北市板橋區介壽街74號","121.469753333333","25.0189583333333","6500100","板橋區"
"220063","609-BX","2018/03/23 18:59:56","新北市板橋區中山路二段150號","121.476671666667","25.0170233333333","6500100","板橋區"
"220091","637-BX","2018/03/23 18:59:46","新北市板橋區雙十路二段47巷28號","121.47552","25.02579","6500100","板橋區"
"220057","686-BX","2018/03/23 18:59:32","新北市板橋區館前西路50號","121.458415","25.00704","6500100","板橋區"
"220077","687-BX","2018/03/23 18:59:38","新北市板橋區大觀路二段269號","121.442901666667","24.99903","6500100","板橋區"
"220093","689-BX","2018/03/23 18:59:40","新北市板橋區文化路一段435巷16號","121.467928333333","25.0235383333333","6500100","板橋區"
"220054","741-BX","2018/03/23 18:59:44","新北市板橋區館前西路46巷2號","121.458741666667","25.00704","6500100","板橋區"
"220102","KEA-2699","2018/03/23 18:59:32","新北市板橋區縣民大道三段133巷35號","121.47708","25.024765","6500100","板橋區"
"220055","827-TW","2018/03/23 18:59:36","新北市板橋區中山路一段158巷14-3號","121.466256666667","25.01151","6500100","板橋區"
"220067","829-TW","2018/03/23 18:59:38","新北市板橋區三民路2段正泰3巷18-1號","121.477878333333","25.0142733333333","6500100","板橋區"
"220068","830-TW","2018/03/23 18:59:52","新北市板橋區中山路二段465巷74弄10號","121.48135","25.0220466666667","6500100","板橋區"
"220096","831-TW","2018/03/23 18:59:44","新北市板橋區莒光路93號","121.472251666667","25.02403","6500100","板橋區"
"220089","833-TW","2018/03/23 18:59:39","新北市板橋區仁化街5號","121.474691666667","25.0317133333333","6500100","板橋區"
"220074","895-R6","2018/03/23 18:59:54","新北市板橋區後菜園街45號","121.456101666667","25.0097683333333","6500100","板橋區"
"220073","985-R7","2018/03/23 18:59:47","新北市板橋區民權路262號","121.457798333333","25.0152616666667","6500100","板橋區"
"220097","AAC-210","2018/03/23 18:59:45","新北市板橋區陽明街164巷6號","121.463883333333","25.0243433333333","6500100","板橋區"
"220070","AAC-253","2018/03/23 18:59:45","新北市板橋區四川路一段154號","121.460026666667","25.003375","6500100","板橋區"
