"lineid","car","time","location","longitude","latitude","cityid","cityname"
"234046","148-BY","2018/03/23 19:29:23","新北市永和區秀朗路二段235號","121.526338333333","25.0000566666667","6500400","永和區"
"234007","207-UY","2018/03/23 19:29:21","新北市永和區永和路二段6號","121.514525","25.0100516666667","6500400","永和區"
"234081","298-R6","2018/03/23 19:29:28","新北市永和區福和路1號","121.525176666667","25.0088216666667","6500400","永和區"
"234038","336-UY","2018/03/23 19:29:26","新北市永和區民樂街35巷1號","121.527578333333","25.0009833333333","6500400","永和區"
"234064","337-UY","2018/03/23 19:29:25","新北市永和區中正路368巷1弄75號","121.520453333333","25.0007866666667","6500400","永和區"
"234086","338-UY","2018/03/23 19:29:09","新北市永和區林森路62號","121.524046666667","25.0042083333333","6500400","永和區"
"234070","552-UM","2018/03/23 19:29:23","新北市永和區竹林路182號","121.520323333333","25.009645","6500400","永和區"
"234017","745-BX","2018/03/23 19:29:24","新北市永和區環河西路一段79號","121.513111666667","25.0180933333333","6500400","永和區"
"234030","746-BX","2018/03/23 19:29:13","新北市永和區民生路69號","121.52268","24.997295","6500400","永和區"
"234054","KEA-2590","2018/03/23 19:29:23","新北市永和區復興街21號","121.516103333333","25.0130716666667","6500400","永和區"
"234013","KEA-2591","2018/03/23 19:29:14","新北市永和區中山路一段184巷9弄17號","121.508395","25.00922","6500400","永和區"
"234061","AAD-866","2018/03/23 19:29:24","新北市永和區中正路445號","121.517168333333","25.0053916666667","6500400","永和區"
"234042","862-TW","2018/03/23 19:29:10","新北市永和區中和路519巷10號","121.510886666667","25.0031483333333","6500400","永和區"
"234050","863-TW","2018/03/23 19:29:17","新北市永和區信義路113號","121.512333333333","25.01474","6500400","永和區"
"234026","9371-KE","2018/03/23 19:29:16","新北市中和區中安街132號","121.51098","25.0004","6500400","永和區"
"234011","9373-KE","2018/03/23 19:29:21","新北市永和區保福路二段85號","121.51073","25.0125883333333","6500400","永和區"
"249003","593-UM","2018/03/23 19:29:24","新北市八里區中山路二段468號","121.39889","25.1473033333333","6502300","八里區"
"248014","025-BX","2018/03/23 19:29:26","新北市五股區民義路一段183巷5號","121.430781666667","25.08716","6501500","五股區"
"248008","095-VK","2018/03/23 19:29:29","新北市五股區中興路一段95巷13號","121.466615","25.0723233333333","6501500","五股區"
"248018","225-UY","2018/03/23 19:23:13","新北市五股區外寮路9-25號","121.41596","25.078905","6501500","五股區"
"248012","247-BX","2018/03/23 19:29:27","新北市五股區成泰路二段156號","121.438345","25.0840166666667","6501500","五股區"
"248010","272-BY","2018/03/23 19:29:19","新北市五股區水碓一路23號","121.430626666667","25.0712783333333","6501500","五股區"
"248004","677-BX","2018/03/23 19:29:19","新北市五股區工商路146-2號","121.434663333333","25.0867683333333","6501500","五股區"
"248002","678-BX","2018/03/23 19:29:12","新北市五股區凌雲路一段158巷14-1號","121.447933333333","25.103425","6501500","五股區"
"234023","9380-KE","2018/03/23 19:29:22","新北市永和區竹林路91巷45號","121.521331666667","25.0129033333333","6500400","永和區"
"234077","969-R7","2018/03/23 19:29:26","新北市永和區民權路58巷3號","121.51961","24.9982766666667","6500400","永和區"
"234074","AAC-211","2018/03/23 19:29:24","新北市永和區永和路二段254號","121.516293333333","25.0148716666667","6500400","永和區"
"234067","AAC-212","2018/03/23 19:29:24","新北市永和區保平路188號","121.510461666667","25.0065433333333","6500400","永和區"
"234003","AAC-295","2018/03/23 19:29:09","新北市永和區永和路一段125號","121.514018333333","25.0083333333333","6500400","永和區"
"244013","069-UM","2018/03/23 19:29:26","新北市林口區麗園一街1號","121.375885","25.072515","6501700","林口區"
"244023","483-VK","2018/03/23 19:29:15","新北市林口區仁愛路二段269號","121.37345","25.077425","6501700","林口區"
"244011","701-TV","2018/03/23 19:29:23","新北市林口區嘉寶里15鄰43號","121.341325","25.106575","6501700","林口區"
"243012","AAD-798","2018/03/23 19:29:08","新北市泰山區明志路一段501巷14號","121.43098","25.0542933333333","6501600","泰山區"
"243015","380-SR","2018/03/23 19:29:25","新北市泰山區明志路二段81號","121.428838333333","25.052385","6501600","泰山區"
"243014","421-VK","2018/03/23 19:29:24","新北市泰山區仁愛路6巷7號","121.431243333333","25.0537833333333","6501600","泰山區"
"243010","KEA-2215","2018/03/23 19:29:24","新北市泰山區民權街41號","121.429181666667","25.050875","6501600","泰山區"
"243009","KEA-2216","2018/03/23 19:29:08","新北市泰山區半山雅2號","121.431766666667","25.0673966666667","6501600","泰山區"
"243013","646-TV","2018/03/23 19:29:09","新北市泰山區明志路三段145巷5弄36號","121.42586","25.0407183333333","6501600","泰山區"
"243016","680-BX","2018/03/23 19:29:30","新北市泰山區明志路三段385號","121.421573333333","25.0346766666667","6501600","泰山區"
"222003","436-BY","2018/03/23 19:29:25","新北市深坑區深南路51-1號","121.621265","25.00983","6501800","深坑區"
"222002","659-BX","2018/03/23 19:29:11","新北市深坑區北深路一段177號","121.632548333333","25.0109066666667","6501800","深坑區"
"231060","001-UM","2018/03/23 19:29:28","新北市新店區安康路二段78號","121.514103333333","24.9633666666667","6500600","新店區"
"231041","002-UM","2018/03/23 19:29:22","新北市新店區中正路545號","121.533741666667","24.9877066666667","6500600","新店區"
"231059","046-UY","2018/03/23 19:29:24","新北市新店區安和路三段124號","121.516763333333","24.9856383333333","6500600","新店區"
"231061","047-UY","2018/03/23 19:29:23","新北市新店區安民街50號","121.516118333333","24.96579","6500600","新店區"
"231051","107-UY","2018/03/23 19:29:16","新北市新店區中央五街21號","121.529398333333","24.9744866666667","6500600","新店區"
"231048","108-UY","2018/03/23 19:29:14","新北市新店區五峰路63巷8弄42號","121.547933333333","24.96863","6500600","新店區"
"231053","187-VK","2018/03/23 19:29:16","新北市新店區廣興路7-3號","121.546195","24.9119916666667","6500600","新店區"
"231050","KEA-2219","2018/03/23 19:28:56","新北市新店區秀水路36號","121.555041666667","24.9554433333333","6500600","新店區"
"221015","KEA-2785","2018/03/23 19:29:16","新北市汐止區康寧街901號","121.651575","25.0750083333333","6501100","汐止區"
"231057","256-BX","2018/03/23 19:29:20","新北市新店區花園一路二段15號","121.550806666667","24.9333866666667","6500600","新店區"
"231046","278-BY","2018/03/23 19:29:10","新北市新店區中正路124號","121.542201666667","24.9712133333333","6500600","新店區"
"231054","AAD-862","2018/03/23 19:26:03","新北市新店區文中路45號","121.539558333333","24.9566633333333","6500600","新店區"
"231058","3712-VJ","2018/03/23 19:29:14","新北市新店區寶橋路85巷5弄3號","121.545801666667","24.975835","6500600","新店區"
"231067","4772-VM","2018/03/23 19:29:15","新北市新店區吉安街8號","121.51691","24.9656766666667","6500600","新店區"
"231065","512-UM","2018/03/23 19:29:24","新北市新店區安祥路109巷1弄81號","121.478546666667","24.9604783333333","6500600","新店區"
"231064","513-UM","2018/03/23 19:29:23","新北市新店區安和路一段16號","121.517233333333","24.9650683333333","6500600","新店區"
"231045","617-UM","2018/03/23 19:29:18","新北市新店區北宜路二段209號","121.553155","24.9533366666667","6500600","新店區"
"231040","619-UM","2018/03/23 19:29:12","新北市新店區北新路一段40號","121.540995","24.9660566666667","6500600","新店區"
"231042","641-BX","2018/03/23 19:29:17","新北市新店區中興路一段216號","121.543995","24.9656916666667","6500600","新店區"
"231063","645-TV","2018/03/23 19:29:19","新北市新店區達觀路16號","121.503228333333","24.9405866666667","6500600","新店區"
"231049","719-UM","2018/03/23 19:29:25","新北市新店區北新路三段65巷34弄6號","121.540041666667","24.981335","6500600","新店區"
"231062","720-UM","2018/03/23 19:29:27","新北市新店區安康路一段61號","121.530571666667","24.9610066666667","6500600","新店區"
"231044","897-TW","2018/03/23 19:29:24","新北市新店區北新路二段262號","121.542801666667","24.9785483333333","6500600","新店區"
"231043","899-TW","2018/03/23 19:29:20","新北市新店區北新路二段158號","121.543","24.9755733333333","6500600","新店區"
"231066","AKT-0513","2018/03/23 19:29:27","新北市新店區安康路二段341巷36號","121.496686666667","24.95437","6500600","新店區"
"241028","022-UY","2018/03/23 19:29:13","新北市三重區中寮街90號","121.493258333333","25.058015","6500200","三重區"
"241008","059-VK","2018/03/23 19:29:10","新北市三重區永福街135巷38號","121.477303333333","25.0772516666667","6500200","三重區"
"241009","060-VK","2018/03/23 19:29:22","新北市三重區溪尾街242巷79號","121.485773333333","25.0813633333333","6500200","三重區"
"241031","061-VK","2018/03/23 19:29:19","新北市三重區集美街69號","121.488538333333","25.0539583333333","6500200","三重區"
"241017","063-VK","2018/03/23 19:29:27","新北市三重區中正北路25巷24號","121.493751666667","25.0632","6500200","三重區"
"241026","066-VK","2018/03/23 19:29:09","新北市三重區文化南路47巷26號","121.499258333333","25.0610883333333","6500200","三重區"
"241022","267-UM","2018/03/23 19:29:29","新北市三重區三民街163-1號","121.483516666667","25.064805","6500200","三重區"
"241032","269-UM","2018/03/23 19:29:18","新北市三重區三陽路106號","121.483551666667","25.058815","6500200","三重區"
"241007","398-BY","2018/03/23 19:29:26","新北市三重區溪尾街138號","121.489358333333","25.079705","6500200","三重區"
"241020","413-TH","2018/03/23 19:29:20","新北市三重區三和路四段32巷80號","121.48912","25.07362","6500200","三重區"
"241035","462-BY","2018/03/23 19:29:24","新北市三重區信義西街1巷3號","121.49812","25.06494","6500200","三重區"
"241030","480-VK","2018/03/23 19:29:19","新北市三重區成功路41巷11弄1號","121.490368333333","25.05123","6500200","三重區"
"241006","AAD-863","2018/03/23 19:29:26","新北市三重區國道路一段3號","121.486343333333","25.073415","6500200","三重區"
"241025","887-TS","2018/03/23 19:29:15","新北市三重區頂崁街210巷27號","121.475805","25.0681633333333","6500200","三重區"
"241029","942-UM","2018/03/23 19:29:24","新北市三重區中正南路216號","121.4938","25.0551066666667","6500200","三重區"
"235066","003-UY","2018/03/23 19:29:09","新北市中和區中和路196巷21號","121.50498","24.9986833333333","6500300","中和區"
"235064","005-UY","2018/03/23 19:29:15","新北市中和區南山路24號","121.501996666667","24.9981733333333","6500300","中和區"
"235063","006-UY","2018/03/23 19:29:20","新北市中和區連勝街126號","121.49441","24.9964666666667","6500300","中和區"
"235056","096-UM","2018/03/23 19:29:25","新北市中和區民富街23號","121.476476666667","25.007605","6500300","中和區"
"235065","098-UM","2018/03/23 19:29:14","新北市中和區中山路二段2巷45弄42號","121.50188","25.0065533333333","6500300","中和區"
"235040","150-BY","2018/03/23 19:29:26","新北市中和區保健路10巷26號","121.507983333333","24.996485","6500300","中和區"
"235058","151-BY","2018/03/23 19:29:17","新北市中和區員山路36巷16-2號","121.485188333333","24.9916166666667","6500300","中和區"
"235055","183-VK","2018/03/23 19:29:12","新北市中和區莒光路120巷17弄1號","121.471705","25.0010816666667","6500300","中和區"
"235038","185-VK","2018/03/23 19:29:10","新北市中和區自立路35號","121.522106666667","24.9954016666667","6500300","中和區"
"235049","186-VK","2018/03/23 19:29:24","新北市中和區景新街273巷13號","121.509863333333","24.99391","6500300","中和區"
"235067","255-BX","2018/03/23 19:04:18","新北市中和區新生街148巷19弄10號","121.482531666667","25.0002033333333","6500300","中和區"
"235044","293-VK","2018/03/23 19:29:11","新北市中和區捷運路185號","121.505435","24.9914366666667","6500300","中和區"
"235072","301-VK","2018/03/23 19:29:28","新北市中和區連城路265號","121.491345","24.9963966666667","6500300","中和區"
"235043","352-BY","2018/03/23 19:29:10","新北市中和區景新街133號","121.505986666667","24.9972633333333","6500300","中和區"
"235068","377-QA","2018/03/23 19:29:16","新北市中和區連勝街57巷20號","121.498061666667","24.9965533333333","6500300","中和區"
"235061","378-QA","2018/03/23 19:29:25","新北市中和區民利街72號","121.478391666667","24.998415","6500300","中和區"
"235071","269-TV","2018/03/23 19:29:24","新北市中和區中正路637巷18弄20號","121.484268333333","24.9951083333333","6500300","中和區"
"235050","4979-A6","2018/03/23 19:29:27","新北市中和區中正路426號","121.491578333333","24.9942466666667","6500300","中和區"
"235069","4980-A6","2018/03/23 19:29:08","新北市中和區景平路736巷1弄6號","121.497236666667","25.0039566666667","6500300","中和區"
"235042","551-UM","2018/03/23 19:29:22","新北市中和區中安街188號","121.511343333333","24.9993666666667","6500300","中和區"
"235070","558-UM","2018/03/23 19:29:08","新北市中和區中山路二段228號","121.499023333333","25.002655","6500300","中和區"
"235045","565-BX","2018/03/23 19:29:19","新北市中和區景新街399巷11號","121.512963333333","24.98991","6500300","中和區"
"235054","640-BX","2018/03/23 19:29:16","新北市中和區國光街112巷15號","121.469678333333","25.0019933333333","6500300","中和區"
"235060","647-TV","2018/03/23 19:29:08","新北市中和區新生街112巷2號","121.483035","25.002975","6500300","中和區"
"235047","732-UM","2018/03/23 19:29:13","新北市中和區景平路241巷64弄8號","121.507776666667","24.9925916666667","6500300","中和區"
"235046","733-UM","2018/03/23 19:29:18","新北市中和區興南路一段105巷20弄35號","121.510588333333","24.9848316666667","6500300","中和區"
"235057","801-TS","2018/03/23 19:29:23","新北市中和區中山路三段24號","121.479258333333","25.0060533333333","6500300","中和區"
"235041","802-TS","2018/03/23 19:29:21","新北市中和區中安街78號","121.512236666667","25.0018766666667","6500300","中和區"
"235016","805-TS","2018/03/23 19:29:13","新北市中和區華新街143巷67弄20號","121.507311666667","24.9790716666667","6500300","中和區"
"235048","896-TW","2018/03/23 19:29:07","新北市中和區忠孝街113巷2號","121.512633333333","24.9875766666667","6500300","中和區"
"235053","900-TW","2018/03/23 19:29:16","新北市中和區華順街16號","121.467205","24.9986933333333","6500300","中和區"
"235051","157-BY","2018/03/23 19:29:28","新北市中和區景新街168-1號","121.5059","24.9969333333333","6500300","中和區"
"235037","AAC-213","2018/03/23 19:29:14","新北市中和區秀朗路三段10巷14弄2號","121.525421666667","24.996475","6500300","中和區"
"235059","AAC-215","2018/03/23 19:29:16","新北市中和區圓通路252巷6號","121.493043333333","24.991735","6500300","中和區"
"220065","072-UY","2018/03/23 19:29:11","新北市板橋區國泰街111巷1號","121.465735","25.00624","6500100","板橋區"
"220086","073-UY","2018/03/23 19:29:24","新北市板橋區中正路236巷118號","121.459445","25.0196266666667","6500100","板橋區"
"220069","AAD-861","2018/03/23 19:29:28","新北市板橋區大明街20巷29弄6-2號","121.457953333333","25.0035216666667","6500100","板橋區"
"226004","205-ST","2018/03/23 19:29:13","新北市平溪區十分里十分街76號","121.776295","25.0421533333333","6502400","平溪區"
"228001","212-TW","2018/03/23 19:29:18","新北市貢寮區真理里延平街68-1號","121.925375","25.0574483333333","6502600","貢寮區"
"228002","663-BX","2018/03/23 19:29:10","新北市貢寮區龍門里龍門街69號","121.931001666667","25.0265633333333","6502600","貢寮區"
"228003","828-UM","2018/03/23 19:29:13","新北市貢寮區和美里和美街19-2號","121.91278","25.0825983333333","6502600","貢寮區"
"224010","AGQ-8101","2018/03/23 19:25:20","新北市瑞芳區基山街109號","121.844508333333","25.108595","6501200","瑞芳區"
"224002","639-TC","2018/03/23 19:29:26","新北市瑞芳區三爪子坑路3號","121.8144","25.10788","6501200","瑞芳區"
"227011","642-TC","2018/03/23 19:29:12","新北市雙溪區新基里新基北街43號","121.868165","25.039695","6502500","雙溪區"
"227003","400-TW","2018/03/23 19:29:27","新北市雙溪區雙溪里光復街20號","121.865181666667","25.035435","6502500","雙溪區"
"253005","032-BX","2018/03/23 19:29:10","新北市石門區小坑9號","121.594423333333","25.2883566666667","6502200","石門區"
"253006","295-VK","2018/03/23 19:29:26","新北市石門區老崩山11-13號","121.551696666667","25.2905666666667","6502200","石門區"
"222001","KEA-2212","2018/03/23 19:29:12","新北市深坑區北深路二段120號","121.616508333333","25.0030933333333","6501800","深坑區"
"208002","KEA-2872","2018/03/23 19:29:12","新北市金山區仁愛路78巷1號","121.63462","25.2215933333333","6502700","金山區"
"208003","665-BX","2018/03/23 19:29:25","新北市金山區中山路263巷14號","121.636428333333","25.2215783333333","6502700","金山區"
"208001","761-BX","2018/03/23 19:29:23","新北市金山區南勢40號","121.62948","25.2209783333333","6502700","金山區"
"251010","413-VK","2018/03/23 19:29:22","新北市淡水區中正路二段200巷5號","121.42597","25.1885333333333","6501000","淡水區"
"251012","441-VK","2018/03/23 19:29:26","新北市淡水區中山北路三段164號","121.44572","25.1965616666667","6501000","淡水區"
"251005","443-VK","2018/03/23 19:29:21","新北市淡水區水源街一段71巷13號","121.44445","25.17295","6501000","淡水區"
"251001","559-UM","2018/03/23 19:29:18","新北市淡水區民權路139號","121.460103333333","25.1365083333333","6501000","淡水區"
"251006","561-UM","2018/03/23 19:29:19","新北市淡水區大義街30號","121.442476666667","25.1783316666667","6501000","淡水區"
"251009","575-R6","2018/03/23 19:29:11","新北市淡水區大忠街5巷9號","121.443428333333","25.1765433333333","6501000","淡水區"
"251007","577-R6","2018/03/23 19:29:16","新北市淡水區坪頂路47號","121.457623333333","25.1624566666667","6501000","淡水區"
"251011","650-BX","2018/03/23 19:29:11","新北市淡水區中正東路二段161巷11弄20號","121.460593333333","25.14585","6501000","淡水區"
"251003","673-BX","2018/03/23 19:29:15","新北市淡水區中山北路二段182號","121.444356666667","25.184925","6501000","淡水區"
"207003","291-VK","2018/03/23 19:29:29","新北市萬里區大鵬里萬里加投249號","121.64433","25.2156383333333","6502800","萬里區"
"207004","225-TW","2018/03/23 19:29:26","新北市萬里區萬里里瑪鋉路121號","121.688998333333","25.1779916666667","6502800","萬里區"
"252002","178-VK","2018/03/23 19:29:21","新北市三芝區淡金路二段18-1號","121.50268","25.2594916666667","6502100","三芝區"
"252001","292-VK","2018/03/23 19:29:15","新北市三芝區長勤街44號","121.500595","25.2555616666667","6502100","三芝區"
"237007","153-BY","2018/03/23 19:29:11","新北市三峽區二鬮路136巷20弄99號","121.358265","24.9088266666667","6500900","三峽區"
"237009","210-TH","2018/03/23 19:29:26","新北市三峽區民權街145號","121.368766666667","24.9318216666667","6500900","三峽區"
"237013","252-BX","2018/03/23 19:29:23","新北市三峽區介壽路一段340號","121.38129","24.9302466666667","6500900","三峽區"
"237012","275-BY","2018/03/23 19:29:27","新北市三峽區三樹路98巷175號","121.384555","24.9399283333333","6500900","三峽區"
"237008","302-VK","2018/03/23 19:29:13","新北市三峽區永安街150號","121.373908333333","24.92857","6500900","三峽區"
"237014","433-BY","2018/03/23 19:29:22","新北市三峽區中園街18號","121.368105","24.9271666666667","6500900","三峽區"
"237006","5529-G3","2018/03/23 19:29:14","新北市三峽區中正路一段330-10號","121.369881666667","24.924615","6500900","三峽區"
"237015","649-BX","2018/03/23 19:29:14","新北市三峽區中山路459巷137號","121.350118333333","24.9339816666667","6500900","三峽區"
"237005","AKY-6261","2018/03/23 19:29:16","新北市三峽區復興路367巷1弄5號","121.363791666667","24.938195","6500900","三峽區"
"236072","105-UM","2018/03/23 19:29:27","新北市土城區學府路一段143巷18號","121.454026666667","24.9854033333333","6501300","土城區"
"236079","166-UM","2018/03/23 19:29:11","新北市土城區中州路27巷34-1號","121.413091666667","24.957045","6501300","土城區"
"236026","269-VK","2018/03/23 19:29:22","新北市土城區中央路二段61巷28號","121.443408333333","24.978765","6501300","土城區"
"236022","401-BY","2018/03/23 19:29:26","新北市土城區峰廷街3號","121.469048333333","24.9873733333333","6501300","土城區"
"236059","912-UM","2018/03/23 19:29:13","新北市土城區中央路二段128號","121.442031666667","24.9775966666667","6501300","土城區"
"236050","913-UM","2018/03/23 19:29:19","新北市土城區清水路193號","121.459801666667","24.98158","6501300","土城區"
"242023","362-BY","2018/03/23 19:29:16","新北市新莊區三和路12-21號","121.442291666667","25.0385716666667","6500500","新莊區"
"242032","135-UY","2018/03/23 19:29:24","新北市新莊區新泰路225巷24號","121.445228333333","25.0391433333333","6500500","新莊區"
"242048","172-VK","2018/03/23 19:29:27","新北市新莊區後港一路3號","121.424025","25.026365","6500500","新莊區"
"242002","349-TH","2018/03/23 19:29:10","新北市新莊區瓊林南路77-41號","121.437758333333","25.0124583333333","6500500","新莊區"
"242013","351-TH","2018/03/23 19:29:07","新北市新莊區中平路132巷7號","121.44595","25.046745","6500500","新莊區"
"238015","755-BX","2018/03/23 19:29:14","新北市樹林區復興路315號","121.418385","24.9885833333333","6500700","樹林區"
"238023","601-UM","2018/03/23 19:29:20","新北市樹林區三福街18號","121.40859","25.0167416666667","6500700","樹林區"
"238019","599-UM","2018/03/23 19:29:20","新北市樹林區東榮街33號","121.41754","24.9832933333333","6500700","樹林區"
"238018","571-TV","2018/03/23 19:29:18","新北市樹林區太平路262號","121.41829","24.9724383333333","6500700","樹林區"
"238024","5061-A6","2018/03/23 19:29:20","新北市樹林區中山路三段92號","121.393146666667","24.972255","6500700","樹林區"
"238021","KEA-2539","2018/03/23 19:29:14","新北市樹林區學林路115號","121.380031666667","24.94961","6500700","樹林區"
"238025","303-VK","2018/03/23 19:29:08","新北市樹林區育英街22號","121.422325","24.989365","6500700","樹林區"
"238017","283-BY","2018/03/23 19:29:13","新北市樹林區保安街二段22號","121.415468333333","25.0017116666667","6500700","樹林區"
"238014","282-BY","2018/03/23 19:29:24","新北市樹林區千歲街6巷13號","121.425531666667","24.9952533333333","6500700","樹林區"
"238020","268-VK","2018/03/23 19:29:27","新北市樹林區俊英街111巷8-3號","121.424206666667","25.0096933333333","6500700","樹林區"
"238026","172-UY","2018/03/23 19:29:23","新北市樹林區佳園路二段15巷11號","121.39356","24.9629766666667","6500700","樹林區"
"239007","AAC-297","2018/03/23 19:29:22","新北市鶯歌區大湖路326巷4號","121.346113333333","24.970345","6500800","鶯歌區"
"239006","891-R6","2018/03/23 19:29:17","新北市鶯歌區文化路42號","121.356783333333","24.9549966666667","6500800","鶯歌區"
"239001","417-VK","2018/03/23 19:29:25","新北市鶯歌區國華路100-1號","121.343188333333","24.9536733333333","6500800","鶯歌區"
"239003","360-BY","2018/03/23 19:29:16","新北市鶯歌區中正一路阿四巷7-1號","121.368031666667","24.9573433333333","6500800","鶯歌區"
"239002","359-BY","2018/03/23 19:29:09","新北市鶯歌區大湖路237號","121.346073333333","24.97267","6500800","鶯歌區"
"221008","489-VK","2018/03/23 19:29:24","新北市汐止區康寧街145號","121.621983333333","25.066745","6501100","汐止區"
"221036","130-UY","2018/03/23 19:29:26","新北市汐止區康寧街901號","121.651696666667","25.07494","6501100","汐止區"
"221025","131-UY","2018/03/23 19:29:22","新北市汐止區秀峰路60號","121.659473333333","25.06552","6501100","汐止區"
"221010","269-BY","2018/03/23 19:29:15","新北市汐止區汐萬路一段312號","121.650456666667","25.0754616666667","6501100","汐止區"
"221012","278-VK","2018/03/23 19:29:06","新北市汐止區大同路三段275號","121.675281666667","25.07626","6501100","汐止區"
"221023","279-VK","2018/03/23 19:29:20","新北市汐止區康寧街753巷2弄12號","121.639506666667","25.0740816666667","6501100","汐止區"
"221027","281-BY","2018/03/23 19:29:28","新北市汐止區忠孝東路9號","121.658263333333","25.0659833333333","6501100","汐止區"
"221029","298-VK","2018/03/23 19:29:22","新北市汐止區康寧街901號","121.651591666667","25.0749183333333","6501100","汐止區"
"221031","353-TW","2018/03/23 19:29:26","新北市汐止區康寧街901號","121.651685","25.0749016666667","6501100","汐止區"
"221038","646-BX","2018/03/23 19:29:24","新北市汐止區汐萬路一段22號","121.655801666667","25.0678916666667","6501100","汐止區"
"221033","647-BX","2018/03/23 19:29:19","新北市汐止區南勢街3號","121.627068333333","25.0373766666667","6501100","汐止區"
"221002","707-TV","2018/03/23 19:29:24","新北市汐止區大同路一段337巷17弄1號","121.6374","25.0599266666667","6501100","汐止區"
"220079","145-BY","2018/03/23 19:29:27","新北市板橋區復興街52號","121.458668333333","25.0174966666667","6500100","板橋區"
"220106","KEA-2550","2018/03/23 19:29:13","新北市板橋區文化路二段417巷6號","121.474601666667","25.0332966666667","6500100","板橋區"
"220082","610-BX","2018/03/23 19:29:25","新北市板橋區大觀路三段133巷12號","121.433248333333","24.9939516666667","6500100","板橋區"
"220101","245-BX","2018/03/23 19:29:24","新北市板橋區富山街109巷65弄9號","121.475361666667","25.0209483333333","6500100","板橋區"
"220098","257-TC","2018/03/23 19:29:24","新北市板橋區民生路三段299巷18號","121.462708333333","25.0302083333333","6500100","板橋區"
"220056","276-BY","2018/03/23 19:29:22","新北市板橋區信義路1巷26弄30號","121.45834","24.9965933333333","6500100","板橋區"
"220072","277-BY","2018/03/23 19:29:21","新北市板橋區篤行路二段141巷25號","121.43072","24.9876833333333","6500100","板橋區"
"220094","280-UM","2018/03/23 19:29:12","新北市板橋區吳鳳路50巷21弄2號","121.468493333333","25.0303883333333","6500100","板橋區"
"220064","282-UM","2018/03/23 19:29:21","新北市板橋區中山路一段24號","121.460325","25.0082416666667","6500100","板橋區"
"220071","283-VK","2018/03/23 19:29:23","新北市板橋區四川路一段281號","121.459436666667","25.0017716666667","6500100","板橋區"
"220053","285-VK","2018/03/23 19:29:25","新北市板橋區富山街53巷1弄12號","121.477838333333","25.02062","6500100","板橋區"
"220083","286-VK","2018/03/23 19:29:14","新北市板橋區大觀路二段174巷163弄10號","121.441245","25.003345","6500100","板橋區"
"220081","287-VK","2018/03/23 19:29:16","新北市板橋區南雅南路一段106號","121.454971666667","25.0044283333333","6500100","板橋區"
"220090","288-VK","2018/03/23 19:29:14","新北市板橋區裕民街82號","121.460596666667","25.028275","6500100","板橋區"
"220061","293-UM","2018/03/23 19:29:22","新北市板橋區中山路二段189號","121.476211666667","25.017135","6500100","板橋區"
"220084","296-UM","2018/03/23 19:29:22","新北市板橋區滿平街84巷100弄8號","121.42623","24.98643","6500100","板橋區"
"220075","303-R5","2018/03/23 19:29:26","新北市板橋區僑中一街124巷72-3號","121.449411666667","25.01751","6500100","板橋區"
"220062","305-R5","2018/03/23 19:29:19","新北市板橋區三民路二段123巷12號","121.479881666667","25.01556","6500100","板橋區"
"220092","307-R5","2018/03/23 19:29:18","新北市板橋區光武街4巷2號","121.468293333333","25.025555","6500100","板橋區"
"220080","461-BY","2018/03/23 19:29:15","新北市板橋區大觀路二段37巷164號","121.449288333333","25.001525","6500100","板橋區"
"220088","491-VK","2018/03/23 19:29:23","新北市板橋區文化路二段410巷2號","121.473833333333","25.03158","6500100","板橋區"
"220035","560-BX","2018/03/23 19:29:17","新北市板橋區中正路413巷2弄2號","121.453973333333","25.022615","6500100","板橋區"
"220103","561-BX","2018/03/23 19:29:15","新北市板橋區文化路一段270巷1弄2號","121.46774","25.0208883333333","6500100","板橋區"
"220063","609-BX","2018/03/23 19:29:09","新北市板橋區三民路一段31巷87弄13號","121.481473333333","25.02339","6500100","板橋區"
"220091","637-BX","2018/03/23 19:29:25","新北市板橋區文聖街132號","121.478368333333","25.0282333333333","6500100","板橋區"
"220057","686-BX","2018/03/23 19:29:12","新北市板橋區重慶路306-2號","121.463821666667","24.99823","6500100","板橋區"
"220077","687-BX","2018/03/23 19:29:18","新北市板橋區僑中三街31號","121.445571666667","25.0047666666667","6500100","板橋區"
"220093","689-BX","2018/03/23 19:29:27","新北市板橋區新海路186號","121.46073","25.0235416666667","6500100","板橋區"
"220054","741-BX","2018/03/23 19:29:23","新北市板橋區校前街9號","121.460495","25.0031166666667","6500100","板橋區"
"220102","KEA-2699","2018/03/23 19:29:12","新北市板橋區松柏街22巷43號","121.475095","25.0289266666667","6500100","板橋區"
"220055","827-TW","2018/03/23 19:29:25","新北市板橋區重慶路290巷22弄16號","121.462228333333","24.999575","6500100","板橋區"
"220067","829-TW","2018/03/23 19:29:18","新北市板橋區長安街138巷30號","121.473155","25.0088266666667","6500100","板橋區"
"220068","830-TW","2018/03/23 19:29:22","新北市板橋區翠華街6巷95號","121.48226","25.0255316666667","6500100","板橋區"
"220096","831-TW","2018/03/23 19:29:20","新北市板橋區雙十路二段6-12號","121.47659","25.0266416666667","6500100","板橋區"
"220089","833-TW","2018/03/23 19:29:19","新北市板橋區文化路一段135號","121.462026666667","25.0152133333333","6500100","板橋區"
"220074","895-R6","2018/03/23 19:29:14","新北市板橋區北門街8號","121.457708333333","25.0105233333333","6500100","板橋區"
"220073","985-R7","2018/03/23 19:29:26","新北市板橋區國光路3號","121.45638","25.0174","6500100","板橋區"
"220097","AAC-210","2018/03/23 19:29:25","新北市板橋區漢生西路161號","121.462991666667","25.023105","6500100","板橋區"
"220070","AAC-253","2018/03/23 19:29:25","新北市板橋區四川路一段140號","121.460008333333","25.003715","6500100","板橋區"
