"lineid","car","time","location","longitude","latitude","cityid","cityname"
"234046","148-BY","2018/03/23 19:49:23","新北市永和區永利路212號","121.523268333333","25.0025216666667","6500400","永和區"
"234007","207-UY","2018/03/23 19:49:21","新北市中和區中和路234號","121.50688","24.9994983333333","6500400","永和區"
"234081","298-R6","2018/03/23 19:49:08","新北市永和區永亨路100號","121.523091666667","25.0048916666667","6500400","永和區"
"234038","336-UY","2018/03/23 19:49:15","新北市永和區民樂街59巷3號","121.527826666667","24.99834","6500400","永和區"
"234064","337-UY","2018/03/23 19:49:25","新北市永和區中正路368巷22號","121.518583333333","25.0007","6500400","永和區"
"234086","338-UY","2018/03/23 19:49:09","新北市永和區永利路6號","121.517458333333","25.0059133333333","6500400","永和區"
"234070","552-UM","2018/03/23 19:49:23","新北市永和區竹林路81號","121.519488333333","25.0125933333333","6500400","永和區"
"234017","745-BX","2018/03/23 19:49:15","新北市永和區永和路二段299號","121.516083333333","25.0161683333333","6500400","永和區"
"234030","746-BX","2018/03/23 19:49:13","新北市永和區民生路67巷29號","121.524296666667","24.9973616666667","6500400","永和區"
"234054","KEA-2590","2018/03/23 19:49:23","新北市永和區竹林路73號","121.519033333333","25.013215","6500400","永和區"
"234013","KEA-2591","2018/03/23 19:49:14","新北市永和區永平路316號","121.506965","25.0126616666667","6500400","永和區"
"234061","AAD-866","2018/03/23 19:49:24","新北市永和區中正路63號","121.514811666667","24.996505","6500400","永和區"
"234042","862-TW","2018/03/23 19:49:10","新北市永和區中和路389巷10號","121.508113333333","25.0009683333333","6500400","永和區"
"234050","863-TW","2018/03/23 19:49:17","新北市永和區保安路138號","121.508668333333","25.015035","6500400","永和區"
"234026","9371-KE","2018/03/23 19:49:17","新北市永和區雙和街60號","121.509065","25.0033616666667","6500400","永和區"
"234011","9373-KE","2018/03/23 19:49:21","新北市永和區仁愛路352巷92弄16號","121.501325","25.0082416666667","6500400","永和區"
"249001","173-UM","2018/03/23 19:49:25","新北市八里區中華路二段252號","121.405386666667","25.1497133333333","6502300","八里區"
"249004","303-UY","2018/03/23 19:49:11","新北市八里區仁愛路79號","121.41169","25.1599516666667","6502300","八里區"
"249002","305-UY","2018/03/23 19:49:28","新北市八里區頂寮五街20號","121.451245","25.1262933333333","6502300","八里區"
"249003","593-UM","2018/03/23 19:49:24","新北市八里區中華路二段560巷3號","121.398628333333","25.1450766666667","6502300","八里區"
"248014","025-BX","2018/03/23 19:49:26","新北市五股區五福路32巷9號","121.434456666667","25.08939","6501500","五股區"
"248016","026-BX","2018/03/23 19:49:09","新北市五股區成泰路三段601巷12號","121.452125","25.103285","6501500","五股區"
"248008","095-VK","2018/03/23 19:49:29","新北市五股區四維路171巷2號","121.467645","25.0751683333333","6501500","五股區"
"248018","225-UY","2018/03/23 19:46:13","新北市五股區外寮路1-5號","121.42619","25.076995","6501500","五股區"
"248012","247-BX","2018/03/23 19:49:27","新北市五股區蓬萊路24號","121.433906666667","25.07992","6501500","五股區"
"248010","272-BY","2018/03/23 19:49:19","新北市五股區登林路貿商巷1弄6號","121.429598333333","25.0699716666667","6501500","五股區"
"248004","677-BX","2018/03/23 19:49:17","新北市五股區成泰路一段103號","121.435776666667","25.0708833333333","6501500","五股區"
"248002","678-BX","2018/03/23 19:49:21","新北市五股區成泰路三段639號","121.452711666667","25.1045816666667","6501500","五股區"
"234077","969-R7","2018/03/23 19:49:26","新北市永和區民治街35號","121.519283333333","24.997785","6500400","永和區"
"234074","AAC-211","2018/03/23 19:49:15","新北市永和區竹林路213巷1號","121.521033333333","25.00887","6500400","永和區"
"234067","AAC-212","2018/03/23 19:49:24","新北市永和區永貞路353號","121.509046666667","25.00753","6500400","永和區"
"234003","AAC-295","2018/03/23 19:49:23","新北市永和區福和路315號","121.516038333333","25.0072616666667","6500400","永和區"
"243012","AAD-798","2018/03/23 19:49:08","新北市泰山區全興路13號","121.432311666667","25.0589316666667","6501600","泰山區"
"243011","297-R6","2018/03/23 19:49:29","新北市泰山區明志路三段196巷21弄21號","121.422555","25.0384783333333","6501600","泰山區"
"243015","380-SR","2018/03/23 19:49:25","新北市泰山區明志路二段239號","121.427351666667","25.0480883333333","6501600","泰山區"
"243014","421-VK","2018/03/23 19:49:24","新北市泰山區泰林路二段33-7號","121.435201666667","25.056445","6501600","泰山區"
"243010","KEA-2215","2018/03/23 19:49:24","新北市泰山區民生路33號","121.43055","25.0522016666667","6501600","泰山區"
"243009","KEA-2216","2018/03/23 19:49:27","新北市泰山區美寧街60號","121.430966666667","25.06472","6501600","泰山區"
"243013","646-TV","2018/03/23 19:44:00","新北市泰山區明志路三段74巷25弄2號","121.423541666667","25.04167","6501600","泰山區"
"243016","680-BX","2018/03/23 19:49:09","新北市泰山區中山路三段114號","121.417965","25.032275","6501600","泰山區"
"222003","436-BY","2018/03/23 19:49:15","新北市深坑區深南路51-1號","121.621241666667","25.00989","6501800","深坑區"
"222002","659-BX","2018/03/23 19:49:11","新北市深坑區翠谷街1號","121.626056666667","25.0073","6501800","深坑區"
"231060","001-UM","2018/03/23 19:49:08","新北市新店區安康路二段161號","121.510178333333","24.959365","6500600","新店區"
"231041","002-UM","2018/03/23 19:49:22","新北市新店區中央路137號","121.530226666667","24.97357","6500600","新店區"
"231059","046-UY","2018/03/23 19:49:24","新北市新店區安和路一段52巷2-1號","121.517653333333","24.9666283333333","6500600","新店區"
"231061","047-UY","2018/03/23 19:49:23","新北市新店區安民街369號","121.516533333333","24.9760133333333","6500600","新店區"
"231051","107-UY","2018/03/23 19:49:16","新北市新店區中央三街40號","121.527943333333","24.974295","6500600","新店區"
"231048","108-UY","2018/03/23 19:49:14","新北市新店區寶興路41號","121.548961666667","24.9737066666667","6500600","新店區"
"231053","187-VK","2018/03/23 19:49:10","新北市新店區新烏路三段28號","121.553526666667","24.9051516666667","6500600","新店區"
"231050","KEA-2219","2018/03/23 19:49:16","新北市新店區北宜路二段581巷1號","121.565951666667","24.9538116666667","6500600","新店區"
"221015","KEA-2785","2018/03/23 19:49:16","新北市汐止區忠孝東路495號","121.666403333333","25.0745483333333","6501100","汐止區"
"231057","256-BX","2018/03/23 19:49:20","新北市新店區梅崗三路1號","121.558408333333","24.9311883333333","6500600","新店區"
"231046","278-BY","2018/03/23 19:49:10","新北市新店區民生路277號","121.5251","24.97894","6500600","新店區"
"231054","AAD-862","2018/03/23 19:49:19","新北市新店區光明街89號","121.538991666667","24.9609283333333","6500600","新店區"
"231067","4772-VM","2018/03/23 19:49:15","新北市新店區精忠路10-1號","121.532661666667","24.95908","6500600","新店區"
"231065","512-UM","2018/03/23 19:49:24","新北市新店區安祥路109巷151弄12號","121.478111666667","24.9589216666667","6500600","新店區"
"231064","513-UM","2018/03/23 19:49:23","新北市新店區安和路二段113巷1弄1號","121.518413333333","24.970185","6500600","新店區"
"231045","617-UM","2018/03/23 19:49:18","新北市新店區北宜路二段360-1號","121.564646666667","24.9526083333333","6500600","新店區"
"231040","619-UM","2018/03/23 19:49:12","新北市新店區中正路75巷71號","121.54306","24.969075","6500600","新店區"
"231042","641-BX","2018/03/23 19:49:17","新北市新店區中興路一段267-4號","121.545038333333","24.9679266666667","6500600","新店區"
"231063","645-TV","2018/03/23 19:49:19","新北市新店區黎明路3號","121.503556666667","24.9524533333333","6500600","新店區"
"231068","718-UY","2018/03/23 19:49:27","新北市新店區安華路28-1號","121.5192","24.9610066666667","6500600","新店區"
"231049","719-UM","2018/03/23 19:49:25","新北市新店區民權路127巷9號","121.535543333333","24.9818016666667","6500600","新店區"
"231062","720-UM","2018/03/23 19:49:27","新北市新店區華潭街1巷92號","121.529575","24.950705","6500600","新店區"
"231044","897-TW","2018/03/23 19:49:24","新北市新店區復興路43-1號","121.53687","24.9870466666667","6500600","新店區"
"231043","899-TW","2018/03/23 19:49:20","新北市新店區中正路263-2號","121.538438333333","24.9738","6500600","新店區"
"231066","AKT-0513","2018/03/23 19:49:27","新北市新店區安興路20號","121.51508","24.96601","6500600","新店區"
"241011","013-R5","2018/03/23 19:49:10","新北市三重區介壽路41號","121.498683333333","25.0700716666667","6500200","三重區"
"241028","022-UY","2018/03/23 19:49:13","新北市三重區中正南路157號","121.493855","25.0560716666667","6500200","三重區"
"241008","059-VK","2018/03/23 19:49:09","新北市三重區永福街145號","121.478706666667","25.0763466666667","6500200","三重區"
"241009","060-VK","2018/03/23 19:49:22","新北市三重區三和路四段396巷32號","121.479996666667","25.0788116666667","6500200","三重區"
"241031","061-VK","2018/03/23 19:49:15","新北市三重區重新路四段246-2號","121.485975","25.053505","6500200","三重區"
"241015","062-VK","2018/03/23 19:49:17","新北市三重區三和路一段2號","121.503855","25.0642516666667","6500200","三重區"
"241017","063-VK","2018/03/23 19:49:07","新北市三重區重陽路三段27巷1號","121.489633333333","25.0665483333333","6500200","三重區"
"241026","066-VK","2018/03/23 19:49:09","新北市三重區文化南路42號","121.500381666667","25.0602916666667","6500200","三重區"
"241003","091-VK","2018/03/23 19:49:10","新北市三重區五華街93巷6號","121.492153333333","25.08386","6500200","三重區"
"241016","265-UM","2018/03/23 19:49:26","新北市三重區正義北路48巷74號","121.495615","25.0634966666667","6500200","三重區"
"241022","267-UM","2018/03/23 19:49:29","新北市三重區新北大道一段7號","121.489806666667","25.061635","6500200","三重區"
"241018","268-UM","2018/03/23 19:49:26","新北市三重區雙園街57巷34弄7號","121.49426","25.0683833333333","6500200","三重區"
"241032","269-UM","2018/03/23 19:49:18","新北市三重區捷運路19巷31號","121.484948333333","25.0577816666667","6500200","三重區"
"241007","398-BY","2018/03/23 19:49:26","新北市三重區三和路四段125巷8號","121.485135","25.0780333333333","6500200","三重區"
"241020","413-TH","2018/03/23 19:49:20","新北市三重區三和路四段12號","121.49143","25.0739066666667","6500200","三重區"
"241035","462-BY","2018/03/23 19:49:24","新北市三重區文化北路8號","121.499316666667","25.0635516666667","6500200","三重區"
"241004","475-VK","2018/03/23 19:49:17","新北市三重區五華街74號","121.49341","25.0820183333333","6500200","三重區"
"241013","478-VK","2018/03/23 19:49:21","新北市三重區仁愛街112巷14號","121.494708333333","25.073965","6500200","三重區"
"241030","480-VK","2018/03/23 19:49:29","新北市三重區環河南路254巷45號","121.489031666667","25.05177","6500200","三重區"
"241014","543-UM","2018/03/23 19:49:17","新北市三重區三和路二段37-8號","121.501396666667","25.0674716666667","6500200","三重區"
"241023","545-UM","2018/03/23 19:49:08","新北市三重區頂崁街172號","121.477598333333","25.0659416666667","6500200","三重區"
"241001","547-UM","2018/03/23 19:49:15","新北市三重區仁愛街327巷103號","121.4943","25.0807516666667","6500200","三重區"
"241006","AAD-863","2018/03/23 19:49:26","新北市三重區力行路二段78號","121.48167","25.0736766666667","6500200","三重區"
"241025","887-TS","2018/03/23 19:49:15","新北市三重區忠孝路三段52號","121.480691666667","25.06564","6500200","三重區"
"241012","941-UM","2018/03/23 19:49:18","新北市三重區仁興街56巷44號","121.498088333333","25.0754483333333","6500200","三重區"
"241029","942-UM","2018/03/23 19:49:24","新北市三重區光明路15號","121.491001666667","25.05869","6500200","三重區"
"235066","003-UY","2018/03/23 19:49:29","新北市中和區水源路102號","121.506116666667","25.003425","6500300","中和區"
"235064","005-UY","2018/03/23 19:49:15","新北市中和區圓通路29號","121.501148333333","24.99785","6500300","中和區"
"235063","006-UY","2018/03/23 19:49:20","新北市中和區連城路263巷7弄2號","121.49226","24.99575","6500300","中和區"
"235056","096-UM","2018/03/23 19:49:25","新北市中和區中山路三段136巷10弄14號","121.474116666667","25.00755","6500300","中和區"
"235065","098-UM","2018/03/23 19:49:14","新北市中和區福祥路90巷5號","121.499618333333","25.005625","6500300","中和區"
"235040","150-BY","2018/03/23 19:49:26","新北市中和區安和路39號","121.509691666667","24.9946783333333","6500300","中和區"
"235058","151-BY","2018/03/23 19:49:17","新北市中和區員山路146巷13號","121.4821","24.99684","6500300","中和區"
"235055","183-VK","2018/03/23 19:49:17","新北市中和區莒光路35號","121.472243333333","25.0051666666667","6500300","中和區"
"235038","185-VK","2018/03/23 19:49:21","新北市中和區自強路20號","121.520276666667","24.9953583333333","6500300","中和區"
"235049","186-VK","2018/03/23 19:49:24","新北市中和區景平路429號","121.501481666667","24.9953766666667","6500300","中和區"
"235044","293-VK","2018/03/23 19:49:11","新北市中和區南山路311號","121.504876666667","24.9914883333333","6500300","中和區"
"235072","301-VK","2018/03/23 19:49:27","新北市中和區錦和路93巷4弄2號","121.490471666667","24.9956866666667","6500300","中和區"
"235043","352-BY","2018/03/23 19:49:29","新北市中和區興南路二段159巷1號","121.50519","24.98329","6500300","中和區"
"235068","377-QA","2018/03/23 19:49:15","新北市中和區莊敬路16巷15弄9號","121.50055","25.0039516666667","6500300","中和區"
"235061","378-QA","2018/03/23 19:49:12","新北市中和區員山路176-1號","121.481343333333","25.0000916666667","6500300","中和區"
"235071","269-TV","2018/03/23 19:49:04","新北市中和區立德街200巷23號","121.48537","25.0100116666667","6500300","中和區"
"235050","4979-A6","2018/03/23 19:49:27","新北市中和區景平路241巷82弄33號","121.506538333333","24.99242","6500300","中和區"
"235069","4980-A6","2018/03/23 19:49:28","新北市中和區員山路36巷16-8號","121.48533","24.9921566666667","6500300","中和區"
"235042","551-UM","2018/03/23 19:49:22","新北市中和區保健路2巷30號","121.507061666667","24.9974916666667","6500300","中和區"
"235070","558-UM","2018/03/23 19:49:28","新北市中和區連勝街14號","121.49877","24.9983366666667","6500300","中和區"
"235045","565-BX","2018/03/23 19:49:19","新北市中和區景平路402號","121.509228333333","24.9930466666667","6500300","中和區"
"235054","640-BX","2018/03/23 19:49:16","新北市中和區莒光路63-1號","121.472266666667","25.0040016666667","6500300","中和區"
"235060","647-TV","2018/03/23 19:49:08","新北市中和區新生街30巷3號","121.482925","25.0038483333333","6500300","中和區"
"235047","732-UM","2018/03/23 19:49:13","新北市中和區興南路一段86號","121.50993","24.989375","6500300","中和區"
"235046","733-UM","2018/03/23 19:49:18","新北市中和區仁愛街72號","121.511363333333","24.9876833333333","6500300","中和區"
"235026","800-TS","2018/03/23 19:38:16","新北市中和區員山路36巷16-3號","121.484861666667","24.991665","6500300","中和區"
"235057","801-TS","2018/03/23 19:49:22","新北市中和區員山路259號","121.481295","24.9989733333333","6500300","中和區"
"235041","802-TS","2018/03/23 19:49:21","新北市中和區永貞路239巷13號","121.512631666667","25.003175","6500300","中和區"
"235016","805-TS","2018/03/23 19:49:13","新北市中和區華新街109巷2號","121.508473333333","24.9827383333333","6500300","中和區"
"235048","896-TW","2018/03/23 19:49:27","新北市中和區興南路一段91-2號","121.50969","24.988635","6500300","中和區"
"235053","900-TW","2018/03/23 19:49:16","新北市中和區國光街189巷1號","121.467758333333","25.0011016666667","6500300","中和區"
"235051","157-BY","2018/03/23 19:49:08","新北市中和區中興街123號","121.499955","24.991775","6500300","中和區"
"235037","AAC-213","2018/03/23 19:49:14","新北市中和區自立路66號","121.523888333333","24.99136","6500300","中和區"
"235059","AAC-215","2018/03/23 19:49:16","新北市中和區圓通路305巷48號","121.495463333333","24.98892","6500300","中和區"
"220065","072-UY","2018/03/23 19:49:11","新北市板橋區海山路41號","121.467253333333","25.009755","6500100","板橋區"
"220086","073-UY","2018/03/23 19:49:24","新北市板橋區南雅西路二段7巷25號","121.45195","25.009485","6500100","板橋區"
"220069","AAD-861","2018/03/23 19:49:28","新北市板橋區南雅南路二段18號","121.45453","25.0035266666667","6500100","板橋區"
"247014","546-UM","2018/03/23 19:49:08","新北市蘆洲區中央路103號","121.472306666667","25.0840683333333","6501400","蘆洲區"
"247004","335-TH","2018/03/23 19:49:25","新北市蘆洲區中原路81號","121.458056666667","25.08179","6501400","蘆洲區"
"247008","056-VK","2018/03/23 19:49:10","新北市蘆洲區信義路115號","121.478535","25.0801583333333","6501400","蘆洲區"
"247002","002-UY","2018/03/23 19:49:19","新北市蘆洲區永平街24號","121.458998333333","25.0908433333333","6501400","蘆洲區"
"226004","205-ST","2018/03/23 19:49:13","新北市平溪區靜安路二段530巷7號","121.744941666667","25.0273716666667","6502400","平溪區"
"228001","212-TW","2018/03/23 19:49:18","新北市貢寮區真理里新港街78號","121.92737","25.0557","6502600","貢寮區"
"228003","828-UM","2018/03/23 19:49:13","新北市貢寮區真理里美艷山街3-1號","121.925741666667","25.05962","6502600","貢寮區"
"224010","AGQ-8101","2018/03/23 19:43:20","新北市瑞芳區金光路334號","121.84831","25.1097883333333","6501200","瑞芳區"
"224002","639-TC","2018/03/23 19:49:26","新北市瑞芳區員山子路員山巷39號","121.816546666667","25.1039233333333","6501200","瑞芳區"
"227011","642-TC","2018/03/23 19:49:12","新北市雙溪區新基里朝陽街2號","121.866398333333","25.0387333333333","6502500","雙溪區"
"227003","400-TW","2018/03/23 19:49:07","新北市雙溪區雙溪里內挖路47號","121.86322","25.03681","6502500","雙溪區"
"253005","032-BX","2018/03/23 19:49:10","新北市石門區尖子鹿76號","121.570891666667","25.296975","6502200","石門區"
"222001","KEA-2212","2018/03/23 19:49:12","新北市深坑區北深路三段71號","121.60684","25.0015366666667","6501800","深坑區"
"208002","KEA-2872","2018/03/23 19:49:27","新北市金山區中山路266號","121.635448333333","25.224135","6502700","金山區"
"208003","665-BX","2018/03/23 19:49:25","新北市金山區海興路38號","121.630926666667","25.23842","6502700","金山區"
"208001","761-BX","2018/03/23 19:49:23","新北市金山區重和里林口14號","121.598191666667","25.2110983333333","6502700","金山區"
"251004","009-UM","2018/03/23 19:48:57","新北市淡水區民權路185巷17號","121.460408333333","25.1339383333333","6501000","淡水區"
"251008","181-VK","2018/03/23 19:49:16","新北市淡水區中正路一段24巷13號","121.42659","25.1771433333333","6501000","淡水區"
"251012","441-VK","2018/03/23 19:49:26","新北市淡水區埤島6-10號","121.44625","25.1940566666667","6501000","淡水區"
"251005","443-VK","2018/03/23 19:49:21","新北市淡水區中正東路35號","121.445733333333","25.1683116666667","6501000","淡水區"
"251001","559-UM","2018/03/23 19:49:18","新北市淡水區中正東路二段45號","121.4593","25.1561433333333","6501000","淡水區"
"251006","561-UM","2018/03/23 19:49:19","新北市淡水區水碓街15號","121.443525","25.1769683333333","6501000","淡水區"
"251009","575-R6","2018/03/23 19:49:11","新北市淡水區中正路36號","121.44381","25.1692666666667","6501000","淡水區"
"251007","577-R6","2018/03/23 19:49:16","新北市淡水區竿蓁一街101號","121.454646666667","25.16642","6501000","淡水區"
"251011","650-BX","2018/03/23 19:49:11","新北市淡水區北投子14-6號","121.447576666667","25.184715","6501000","淡水區"
"251002","672-BX","2018/03/23 19:49:18","新北市淡水區沙崙路二段112號","121.432415","25.1959633333333","6501000","淡水區"
"207003","291-VK","2018/03/23 19:49:08","新北市萬里區大鵬里萬里加投51-1號","121.64198","25.211725","6502800","萬里區"
"207004","225-TW","2018/03/23 19:49:26","新北市萬里區萬里里瑪鋉路170號","121.689841666667","25.1798066666667","6502800","萬里區"
"252002","178-VK","2018/03/23 19:49:21","新北市三芝區三民街33-1號","121.504653333333","25.25855","6502100","三芝區"
"252001","292-VK","2018/03/23 19:49:15","新北市三芝區公正街66號","121.499775","25.2574616666667","6502100","三芝區"
"237004","KEA-2597","2018/03/23 19:49:24","新北市三峽區圳頭35號","121.376968333333","24.8868433333333","6500900","三峽區"
"237007","153-BY","2018/03/23 19:49:11","新北市三峽區二鬮路21號","121.362503333333","24.9109533333333","6500900","三峽區"
"237009","210-TH","2018/03/23 19:49:26","新北市三峽區民族街78巷8號","121.36867","24.9295766666667","6500900","三峽區"
"237012","275-BY","2018/03/23 19:49:07","新北市三峽區光明路1-12號","121.372846666667","24.932165","6500900","三峽區"
"237008","302-VK","2018/03/23 19:49:13","新北市三峽區中正路一段108巷7弄3號","121.37373","24.9298766666667","6500900","三峽區"
"237014","433-BY","2018/03/23 19:49:22","新北市三峽區添福29-1號","121.373128333333","24.903315","6500900","三峽區"
"237006","5529-G3","2018/03/23 19:49:14","新北市三峽區中正路一段336巷15弄2號","121.370211666667","24.9249483333333","6500900","三峽區"
"237015","649-BX","2018/03/23 19:49:14","新北市三峽區中山路459巷137號","121.350118333333","24.9339816666667","6500900","三峽區"
"237005","AKY-6261","2018/03/23 19:49:16","新北市三峽區長泰街52號","121.377905","24.9325683333333","6500900","三峽區"
"236072","105-UM","2018/03/23 19:49:17","新北市土城區光明街1號","121.442033333333","24.9749933333333","6501300","土城區"
"236043","107-UM","2018/03/23 19:49:16","新北市土城區裕民路288號","121.455671666667","24.98185","6501300","土城區"
"236079","166-UM","2018/03/23 19:49:11","新北市土城區中山路10號","121.416123333333","24.961895","6501300","土城區"
"236031","253-BX","2018/03/23 19:49:15","新北市土城區中央路一段290號","121.44337","24.9824433333333","6501300","土城區"
"236026","269-VK","2018/03/23 19:49:22","新北市土城區中央路二段61巷28號","121.443455","24.9788366666667","6501300","土城區"
"236039","271-VK","2018/03/23 19:49:23","新北市土城區國際路158巷33號","121.468411666667","24.975725","6501300","土城區"
"236022","401-BY","2018/03/23 19:49:26","新北市土城區峰廷街3號","121.469083333333","24.9873733333333","6501300","土城區"
"236059","912-UM","2018/03/23 19:49:22","新北市土城區中央路一段289-2號","121.44419","24.9841083333333","6501300","土城區"
"236050","913-UM","2018/03/23 19:49:19","新北市土城區青雲路230號","121.459021666667","24.9808833333333","6501300","土城區"
"236063","915-UM","2018/03/23 19:49:18","新北市土城區延和路148號","121.467731666667","24.9901766666667","6501300","土城區"
"236055","AAC-216","2018/03/23 19:49:18","新北市土城區延和路107號","121.467741666667","24.99024","6501300","土城區"
"242034","AAC-296","2018/03/23 19:49:10","新北市新莊區公園一路110號","121.444396666667","25.0375066666667","6500500","新莊區"
"242058","986-R7","2018/03/23 19:49:17","新北市新莊區新樹路168號","121.434671666667","25.0224333333333","6500500","新莊區"
"242029","705-TV","2018/03/23 19:49:28","新北市新莊區中平路299號","121.444713333333","25.051135","6500500","新莊區"
"242046","497-BY","2018/03/23 19:49:28","新北市新莊區福營路125巷4號","121.433131666667","25.031515","6500500","新莊區"
"242056","440-UM","2018/03/23 19:49:26","新北市新莊區新泰路69號","121.449458333333","25.0343483333333","6500500","新莊區"
"242037","415-TV","2018/03/23 19:49:23","新北市新莊區民安路207巷32弄4號","121.428193333333","25.0241466666667","6500500","新莊區"
"242023","362-BY","2018/03/23 19:49:16","新北市新莊區化成路69號","121.465578333333","25.0460333333333","6500500","新莊區"
"242032","135-UY","2018/03/23 19:49:23","新北市新莊區忠孝街26號","121.443916666667","25.035535","6500500","新莊區"
"242048","172-VK","2018/03/23 19:49:27","新北市新莊區建安街92巷9號","121.425856666667","25.0242666666667","6500500","新莊區"
"242005","176-VK","2018/03/23 19:49:28","新北市新莊區化成路63巷41號","121.463246666667","25.0458183333333","6500500","新莊區"
"242021","348-TH","2018/03/23 19:49:25","新北市新莊區建中街37號","121.448543333333","25.0372433333333","6500500","新莊區"
"242019","350-TH","2018/03/23 19:49:19","新北市新莊區明智街21巷2號","121.453903333333","25.041355","6500500","新莊區"
"242013","351-TH","2018/03/23 19:49:28","新北市新莊區中誠街53巷38號","121.45132","25.04704","6500500","新莊區"
"238015","755-BX","2018/03/23 19:49:14","新北市樹林區樹德街6號","121.423011666667","24.99137","6500700","樹林區"
"238023","601-UM","2018/03/23 19:49:20","新北市樹林區中正路286-2號","121.415543333333","25.0089566666667","6500700","樹林區"
"238021","KEA-2539","2018/03/23 19:49:21","新北市樹林區佳園路三段101巷62弄20號","121.394043333333","24.9492866666667","6500700","樹林區"
"238014","282-BY","2018/03/23 19:49:26","新北市樹林區千歲街70巷3弄2號","121.426901666667","24.9970916666667","6500700","樹林區"
"238020","268-VK","2018/03/23 19:49:07","新北市板橋區金門街337巷14弄18號","121.431631666667","24.9825216666667","6500700","樹林區"
"221008","489-VK","2018/03/23 19:49:24","新北市汐止區康寧街39號","121.618543333333","25.0668483333333","6501100","汐止區"
"221036","130-UY","2018/03/23 19:49:26","新北市汐止區汐萬路一段39-3號","121.654843333333","25.0697283333333","6501100","汐止區"
"221025","131-UY","2018/03/23 19:49:21","新北市汐止區新台五路二段70巷25號","121.661876666667","25.0648133333333","6501100","汐止區"
"221010","269-BY","2018/03/23 19:49:15","新北市汐止區汐萬路一段333巷1號","121.649868333333","25.0761366666667","6501100","汐止區"
"221012","278-VK","2018/03/23 19:49:27","新北市汐止區大同路三段549號","121.681346666667","25.071555","6501100","汐止區"
"221023","279-VK","2018/03/23 19:49:20","新北市汐止區民族六街3巷1號","121.62947","25.0703233333333","6501100","汐止區"
"221032","280-BY","2018/03/23 19:49:14","新北市汐止區橫科路403巷18號","121.62546","25.0476616666667","6501100","汐止區"
"221027","281-BY","2018/03/23 19:49:29","新北市汐止區大同路二段583號","121.663528333333","25.07012","6501100","汐止區"
"221029","298-VK","2018/03/23 19:49:22","新北市汐止區康寧街901號","121.651483333333","25.07497","6501100","汐止區"
"221021","299-VK","2018/03/23 19:49:15","新北市汐止區新興路83-3號","121.657753333333","25.0618316666667","6501100","汐止區"
"221031","353-TW","2018/03/23 19:49:26","新北市汐止區福德二路54巷4號","121.633765","25.06748","6501100","汐止區"
"221035","622-UM","2018/03/23 19:49:19","新北市汐止區長江街13巷6弄1號","121.654748333333","25.0717433333333","6501100","汐止區"
"221038","646-BX","2018/03/23 19:49:27","新北市汐止區忠孝東路329號","121.665073333333","25.0697033333333","6501100","汐止區"
"221033","647-BX","2018/03/23 19:49:19","新北市汐止區東勢街76巷100-1號","121.636415","25.0390183333333","6501100","汐止區"
"221018","753-BX","2018/03/23 19:49:29","新北市汐止區大同路二段509號","121.661386666667","25.0687266666667","6501100","汐止區"
"220079","145-BY","2018/03/23 19:49:27","新北市板橋區中正路135巷13號","121.455561666667","25.0154533333333","6500100","板橋區"
"220106","KEA-2550","2018/03/23 19:49:13","新北市板橋區民治街57巷32-1號","121.480305","25.034245","6500100","板橋區"
"220082","610-BX","2018/03/23 19:49:25","新北市板橋區篤行路二段104號","121.431216666667","24.991335","6500100","板橋區"
"220101","245-BX","2018/03/23 19:49:24","新北市板橋區縣民大道三段81號","121.475391666667","25.021695","6500100","板橋區"
"220098","257-TC","2018/03/23 19:49:24","新北市板橋區龍泉街157號","121.458056666667","25.024155","6500100","板橋區"
"220056","276-BY","2018/03/23 19:49:17","新北市板橋區四川路二段97號","121.452563333333","24.994785","6500100","板橋區"
"220072","277-BY","2018/03/23 19:49:21","新北市板橋區金門街151巷15號","121.433606666667","24.9904016666667","6500100","板橋區"
"220094","280-UM","2018/03/23 19:49:12","新北市板橋區長江路一段357號","121.46146","25.0305083333333","6500100","板橋區"
"220064","282-UM","2018/03/23 19:49:21","新北市板橋區公園街34巷2號","121.462415","25.0084783333333","6500100","板橋區"
"220071","283-VK","2018/03/23 19:49:23","新北市板橋區五權街32巷1號","121.464821666667","24.9931433333333","6500100","板橋區"
"220053","285-VK","2018/03/23 19:49:25","新北市板橋區中山路二段90巷10號","121.47535","25.0159433333333","6500100","板橋區"
"220083","286-VK","2018/03/23 19:49:14","新北市板橋區僑中二街2號","121.447258333333","25.0112533333333","6500100","板橋區"
"220081","287-VK","2018/03/23 19:49:16","新北市板橋區大觀路一段29巷127號","121.450671666667","25.0052266666667","6500100","板橋區"
"220090","288-VK","2018/03/23 19:49:14","新北市板橋區龍泉街72巷13號","121.456085","25.0262883333333","6500100","板橋區"
"220061","293-UM","2018/03/23 19:49:22","新北市板橋區中山路一段283巷2弄26號","121.47076","25.015065","6500100","板橋區"
"220084","296-UM","2018/03/23 19:49:22","新北市板橋區溪崑二街112巷10號","121.426148333333","24.9890416666667","6500100","板橋區"
"220075","303-R5","2018/03/23 19:49:26","新北市板橋區大勇街22號","121.454216666667","25.01716","6500100","板橋區"
"220062","305-R5","2018/03/23 19:49:19","新北市板橋區中山路二段416巷58號","121.482906666667","25.0189166666667","6500100","板橋區"
"220092","307-R5","2018/03/23 19:49:18","新北市板橋區四維路259巷13號","121.462671666667","25.02777","6500100","板橋區"
"220080","461-BY","2018/03/23 19:49:16","新北市板橋區大觀路二段153巷39弄1號","121.446965","25.0005133333333","6500100","板橋區"
"220088","491-VK","2018/03/23 19:49:23","新北市板橋區大同街89號","121.480011666667","25.0282583333333","6500100","板橋區"
"220035","560-BX","2018/03/23 19:49:17","新北市板橋區新生街30號","121.456148333333","25.0211633333333","6500100","板橋區"
"220103","561-BX","2018/03/23 19:49:15","新北市板橋區陽明街29巷1弄20號","121.464306666667","25.0219466666667","6500100","板橋區"
"220063","609-BX","2018/03/23 19:49:09","新北市板橋區縣民大道三段310號","121.478608333333","25.0237483333333","6500100","板橋區"
"220091","637-BX","2018/03/23 19:49:26","新北市板橋區文聖街149巷29號","121.479728333333","25.0287616666667","6500100","板橋區"
"220057","686-BX","2018/03/23 19:49:12","新北市板橋區和平路101巷27號","121.461931666667","24.9956116666667","6500100","板橋區"
"220077","687-BX","2018/03/23 19:49:18","新北市板橋區僑中一街124巷20弄1號","121.446191666667","25.0141566666667","6500100","板橋區"
"220093","689-BX","2018/03/23 19:49:20","新北市板橋區長江路二段281號","121.47028","25.0331216666667","6500100","板橋區"
"220054","741-BX","2018/03/23 19:49:23","新北市板橋區忠孝路239巷16號","121.466703333333","25.003245","6500100","板橋區"
"220102","KEA-2699","2018/03/23 19:49:12","新北市板橋區松柏街35號","121.475216666667","25.0303066666667","6500100","板橋區"
"220055","827-TW","2018/03/23 19:49:16","新北市板橋區國慶路208號","121.46356","24.9970383333333","6500100","板橋區"
"220067","829-TW","2018/03/23 19:49:18","新北市板橋區長安街138巷1弄85號","121.474923333333","25.0113616666667","6500100","板橋區"
"220068","830-TW","2018/03/23 19:49:22","新北市板橋區中山路二段416巷47弄18號","121.483521666667","25.0193683333333","6500100","板橋區"
"220096","831-TW","2018/03/23 19:49:19","新北市板橋區莒光路60號","121.470965","25.0240833333333","6500100","板橋區"
"220089","833-TW","2018/03/23 19:49:19","新北市板橋區龍泉街82巷11-4號","121.455818333333","25.0255166666667","6500100","板橋區"
"220074","895-R6","2018/03/23 19:49:25","新北市板橋區府中路29-2號","121.458578333333","25.00821","6500100","板橋區"
"220073","985-R7","2018/03/23 19:49:26","新北市板橋區大仁街95號","121.453153333333","25.0158983333333","6500100","板橋區"
"220097","AAC-210","2018/03/23 19:49:25","新北市板橋區文化路一段285巷2弄12號","121.464618333333","25.0193866666667","6500100","板橋區"
"220070","AAC-253","2018/03/23 19:49:24","新北市板橋區館前東路65號","121.464135","25.0078433333333","6500100","板橋區"
