"lineid","car","time","location","longitude","latitude","cityid","cityname"
"234046","148-BY","2018/03/23 19:59:23","新北市永和區成功路一段99號","121.52691","25.00257","6500400","永和區"
"234007","207-UY","2018/03/23 19:59:20","新北市永和區保生路22巷17號","121.507075","25.00825","6500400","永和區"
"234081","298-R6","2018/03/23 19:59:28","新北市永和區永亨路100號","121.523223333333","25.004795","6500400","永和區"
"234038","336-UY","2018/03/23 19:59:25","新北市永和區成功路二段149號","121.526641666667","24.99764","6500400","永和區"
"234064","337-UY","2018/03/23 19:59:25","新北市永和區中正路412巷20弄7號","121.518546666667","25.0019333333333","6500400","永和區"
"234086","338-UY","2018/03/23 19:59:25","新北市永和區福和路130號","121.521856666667","25.007885","6500400","永和區"
"234070","552-UM","2018/03/23 19:59:23","新北市永和區國光路29號","121.5195","25.0083983333333","6500400","永和區"
"234017","745-BX","2018/03/23 19:59:15","新北市永和區文化路69號","121.513951666667","25.0150833333333","6500400","永和區"
"234030","746-BX","2018/03/23 19:59:21","新北市永和區民生路22巷7號","121.522041666667","24.997175","6500400","永和區"
"234054","KEA-2590","2018/03/23 19:59:23","新北市永和區環河東路一段122號","121.520583333333","25.015485","6500400","永和區"
"234013","KEA-2591","2018/03/23 19:59:14","新北市永和區保生路55號","121.504728333333","25.01059","6500400","永和區"
"234061","AAD-866","2018/03/23 19:59:24","新北市永和區得和路47號","121.516661666667","25.0003516666667","6500400","永和區"
"234042","862-TW","2018/03/23 19:59:30","新北市永和區雙和街17巷8號","121.509133333333","25.0018566666667","6500400","永和區"
"234050","863-TW","2018/03/23 19:59:17","新北市永和區保安路212-1號","121.507515","25.013665","6500400","永和區"
"234011","9373-KE","2018/03/23 19:59:21","新北市永和區環河西路二段241號","121.500668333333","25.0091916666667","6500400","永和區"
"249001","173-UM","2018/03/23 19:57:46","新北市八里區中華路二段310號","121.403853333333","25.14833","6502300","八里區"
"249004","303-UY","2018/03/23 19:57:11","新北市八里區中山路一段217巷38號","121.411405","25.1559916666667","6502300","八里區"
"249002","305-UY","2018/03/23 19:59:28","新北市八里區頂寮一街45號","121.450451666667","25.1240783333333","6502300","八里區"
"249003","593-UM","2018/03/23 19:59:24","新北市八里區中華路二段538-4號","121.398726666667","25.14506","6502300","八里區"
"248014","025-BX","2018/03/23 19:59:26","新北市五股區五福路14巷29號","121.43548","25.0889916666667","6501500","五股區"
"248016","026-BX","2018/03/23 19:59:26","新北市五股區成泰路三段577巷80弄48號","121.449845","25.1050833333333","6501500","五股區"
"248008","095-VK","2018/03/23 19:59:29","新北市三重區中正北路598巷5號","121.469725","25.071505","6501500","五股區"
"248018","225-UY","2018/03/23 19:59:13","新北市五股區登林路99-1號","121.412715","25.0768316666667","6501500","五股區"
"248012","247-BX","2018/03/23 19:59:11","新北市五股區民義路一段134-3號","121.434171666667","25.08634","6501500","五股區"
"248010","272-BY","2018/03/23 19:59:19","新北市五股區登林路46巷2號","121.432126666667","25.0686483333333","6501500","五股區"
"248004","677-BX","2018/03/23 19:59:17","新北市五股區成泰路一段32巷56號","121.43487","25.067045","6501500","五股區"
"248002","678-BX","2018/03/23 19:59:12","新北市五股區成泰路三段487號","121.450755","25.0993233333333","6501500","五股區"
"234023","9380-KE","2018/03/23 19:59:22","新北市永和區中正路702巷20弄1號","121.516488333333","25.0105633333333","6500400","永和區"
"234077","969-R7","2018/03/23 19:59:26","新北市永和區民有街23巷1號","121.516823333333","24.99639","6500400","永和區"
"234074","AAC-211","2018/03/23 19:59:15","新北市永和區豫溪街215巷15號","121.523721666667","25.0099916666667","6500400","永和區"
"234067","AAC-212","2018/03/23 19:59:24","新北市永和區永貞路390號","121.509403333333","25.007345","6500400","永和區"
"234003","AAC-295","2018/03/23 19:59:29","新北市永和區中正路605號","121.516376666667","25.0097716666667","6500400","永和區"
"243012","AAD-798","2018/03/23 19:59:14","新北市泰山區全興路87號","121.433218333333","25.057525","6501600","泰山區"
"243011","297-R6","2018/03/23 19:59:09","新北市泰山區工專路65號","121.42217","25.0404716666667","6501600","泰山區"
"243015","380-SR","2018/03/23 19:59:26","新北市泰山區明志路二段230號","121.427028333333","25.0486866666667","6501600","泰山區"
"243014","421-VK","2018/03/23 19:59:27","新北市泰山區泰林路二段119號","121.434296666667","25.0596383333333","6501600","泰山區"
"243010","KEA-2215","2018/03/23 19:59:24","新北市泰山區中華街10巷1號","121.427915","25.05251","6501600","泰山區"
"243009","KEA-2216","2018/03/23 19:59:07","新北市泰山區泰林路二段164巷21號","121.434491666667","25.060965","6501600","泰山區"
"243013","646-TV","2018/03/23 19:44:00","新北市泰山區明志路三段74巷25弄2號","121.423541666667","25.04167","6501600","泰山區"
"243016","680-BX","2018/03/23 19:58:29","新北市泰山區新北大道六段409號","121.42159","25.0320533333333","6501600","泰山區"
"222003","436-BY","2018/03/23 19:59:15","新北市深坑區埔新街14號","121.620775","25.0039416666667","6501800","深坑區"
"222002","659-BX","2018/03/23 19:59:11","新北市深坑區北深路二段81巷8弄1號","121.618321666667","25.0030533333333","6501800","深坑區"
"231060","001-UM","2018/03/23 19:59:08","新北市新店區安康路二段341巷1號","121.49698","24.955365","6500600","新店區"
"231041","002-UM","2018/03/23 19:59:22","新北市新店區中正路374號","121.535075","24.9763266666667","6500600","新店區"
"231059","046-UY","2018/03/23 19:59:24","新北市新店區安康路二段147號","121.511318333333","24.959955","6500600","新店區"
"231061","047-UY","2018/03/23 19:59:23","新北市新店區安興路32號","121.51578","24.970385","6500600","新店區"
"231051","107-UY","2018/03/23 19:59:16","新北市新店區中央一街37號","121.52748","24.9736616666667","6500600","新店區"
"231048","108-UY","2018/03/23 19:59:14","新北市新店區寶橋路160號","121.548891666667","24.9771983333333","6500600","新店區"
"231053","187-VK","2018/03/23 19:59:10","新北市新店區新烏路三段251號","121.546335","24.8952966666667","6500600","新店區"
"231050","KEA-2219","2018/03/23 19:59:16","新北市新店區北新路一段62號","121.541226666667","24.9665916666667","6500600","新店區"
"221015","KEA-2785","2018/03/23 19:59:16","新北市汐止區大同路二段707號","121.66515","25.0728283333333","6501100","汐止區"
"231057","256-BX","2018/03/23 19:59:20","新北市新店區花園二路一段11號","121.555573333333","24.9324716666667","6500600","新店區"
"231054","AAD-862","2018/03/23 19:59:19","新北市新店區光明街133號","121.539455","24.961945","6500600","新店區"
"231058","3712-VJ","2018/03/23 19:59:14","新北市新店區薏仁坑路自強巷1號","121.496891666667","24.9579866666667","6500600","新店區"
"231067","4772-VM","2018/03/23 19:59:15","新北市新店區秀山路45巷17-2號","121.530996666667","24.9599916666667","6500600","新店區"
"231065","512-UM","2018/03/23 19:59:24","新北市新店區安祥路106-1號","121.478623333333","24.9620016666667","6500600","新店區"
"231064","513-UM","2018/03/23 19:59:23","新北市新店區光華街5巷2號","121.517698333333","24.9690083333333","6500600","新店區"
"231045","617-UM","2018/03/23 19:59:18","新北市新店區北宜路二段82-13號","121.554715","24.9534783333333","6500600","新店區"
"231040","619-UM","2018/03/23 19:59:12","新北市新店區中正路53號","121.544641666667","24.9699683333333","6500600","新店區"
"231042","641-BX","2018/03/23 19:59:26","新北市新店區五峰路57-1號","121.546943333333","24.9708133333333","6500600","新店區"
"231063","645-TV","2018/03/23 19:59:25","新北市新店區黎明路11號","121.50208","24.95003","6500600","新店區"
"231068","718-UY","2018/03/23 19:59:27","新北市新店區安華路28-1號","121.519255","24.9612566666667","6500600","新店區"
"231049","719-UM","2018/03/23 19:59:25","新北市新店區明德路31號","121.541661666667","24.977305","6500600","新店區"
"231062","720-UM","2018/03/23 19:59:27","新北市新店區華城路10巷1-3號","121.528831666667","24.9577316666667","6500600","新店區"
"231044","897-TW","2018/03/23 19:59:24","新北市新店區寶慶街58巷6號","121.542128333333","24.9870183333333","6500600","新店區"
"231043","899-TW","2018/03/23 19:59:20","新北市新店區中正路263-3號","121.538328333333","24.97375","6500600","新店區"
"231066","AKT-0513","2018/03/23 19:59:27","新北市新店區柴埕路60巷9-2號","121.508433333333","24.96511","6500600","新店區"
"241011","013-R5","2018/03/23 19:59:30","新北市三重區三和路二段165號","121.497886666667","25.069645","6500200","三重區"
"241028","022-UY","2018/03/23 19:59:28","新北市三重區中正南路43號","121.493911666667","25.0597966666667","6500200","三重區"
"241008","059-VK","2018/03/23 19:59:30","新北市三重區永福街179巷26號","121.478131666667","25.07485","6500200","三重區"
"241009","060-VK","2018/03/23 19:59:22","新北市三重區三和路四段388-2號","121.482095","25.07917","6500200","三重區"
"241031","061-VK","2018/03/23 19:59:15","新北市三重區重新路四段144巷3號","121.48689","25.055765","6500200","三重區"
"241015","062-VK","2018/03/23 19:59:17","新北市三重區三和路二段27號","121.501091666667","25.0669766666667","6500200","三重區"
"241017","063-VK","2018/03/23 19:59:27","新北市三重區自強路一段304號","121.491316666667","25.0683516666667","6500200","三重區"
"241024","065-VK","2018/03/23 19:59:29","新北市三重區力行路一段176號","121.48206","25.0715616666667","6500200","三重區"
"241026","066-VK","2018/03/23 19:59:09","新北市三重區仁慈街21號","121.502108333333","25.0630283333333","6500200","三重區"
"241002","090-VK","2018/03/23 19:59:26","新北市三重區仁愛街269巷4號","121.493178333333","25.0789","6500200","三重區"
"241003","091-VK","2018/03/23 19:59:10","新北市三重區仁愛街472號","121.489876666667","25.0822983333333","6500200","三重區"
"241005","262-UM","2018/03/23 19:59:18","新北市三重區溪尾街342號","121.488441666667","25.085205","6500200","三重區"
"241016","265-UM","2018/03/23 19:59:26","新北市三重區正義北路36巷28號","121.496251666667","25.0632983333333","6500200","三重區"
"241022","267-UM","2018/03/23 19:59:09","新北市三重區過圳街31巷2號","121.48908","25.060525","6500200","三重區"
"241018","268-UM","2018/03/23 19:59:26","新北市三重區正義北路244巷25號","121.495218333333","25.06802","6500200","三重區"
"241032","269-UM","2018/03/23 19:59:18","新北市三重區捷運路61號","121.483551666667","25.0555866666667","6500200","三重區"
"241007","398-BY","2018/03/23 19:59:26","新北市三重區慈愛街90號","121.488688333333","25.07994","6500200","三重區"
"241020","413-TH","2018/03/23 19:59:20","新北市三重區忠孝路一段101號","121.48969","25.0721316666667","6500200","三重區"
"241035","462-BY","2018/03/23 19:59:24","新北市三重區大榮街9號","121.498203333333","25.06317","6500200","三重區"
"241004","475-VK","2018/03/23 19:59:17","新北市三重區五華街74號","121.493401666667","25.0820066666667","6500200","三重區"
"241013","478-VK","2018/03/23 19:59:21","新北市三重區三和路三段125巷23號","121.493596666667","25.0735533333333","6500200","三重區"
"241030","480-VK","2018/03/23 19:59:19","新北市三重區重新路四段248-1號","121.486231666667","25.0533916666667","6500200","三重區"
"241014","543-UM","2018/03/23 19:59:16","新北市三重區三和路二段117號","121.499056666667","25.0688083333333","6500200","三重區"
"241023","545-UM","2018/03/23 19:59:28","新北市三重區頂崁街172號","121.477625","25.06594","6500200","三重區"
"241001","547-UM","2018/03/23 19:59:15","新北市三重區仁愛街283巷10號","121.493426666667","25.0794116666667","6500200","三重區"
"241006","AAD-863","2018/03/23 19:59:26","新北市三重區力行路二段91巷2號","121.482985","25.0758616666667","6500200","三重區"
"241025","887-TS","2018/03/23 19:59:15","新北市三重區頂崁街210巷16號","121.476496666667","25.0677916666667","6500200","三重區"
"241012","941-UM","2018/03/23 19:59:10","新北市三重區仁厚街52號","121.500303333333","25.07657","6500200","三重區"
"241029","942-UM","2018/03/23 19:59:24","新北市三重區重安街6號","121.490151666667","25.0582266666667","6500200","三重區"
"235066","003-UY","2018/03/23 19:59:09","新北市中和區中山路二段3巷22弄1號","121.506416666667","25.0053683333333","6500300","中和區"
"235056","096-UM","2018/03/23 19:59:28","新北市中和區中山路三段177號","121.472891666667","25.0063416666667","6500300","中和區"
"235065","098-UM","2018/03/23 19:59:14","新北市中和區福祥路58號","121.499386666667","25.004725","6500300","中和區"
"235040","150-BY","2018/03/23 19:59:26","新北市中和區保健路39巷2號","121.509091666667","24.99767","6500300","中和區"
"235058","151-BY","2018/03/23 19:59:21","新北市中和區員山路148巷19號","121.48217","24.99718","6500300","中和區"
"235055","183-VK","2018/03/23 19:59:12","新北市中和區民生街35巷2弄2號","121.470296666667","25.0051266666667","6500300","中和區"
"235049","186-VK","2018/03/23 19:59:24","新北市中和區南華路11號","121.502278333333","24.9955383333333","6500300","中和區"
"235067","255-BX","2018/03/23 19:59:24","新北市中和區員山路148巷23弄30號","121.482285","24.9978916666667","6500300","中和區"
"235044","293-VK","2018/03/23 19:59:24","新北市中和區中正路67號","121.501176666667","24.9934316666667","6500300","中和區"
"235043","352-BY","2018/03/23 19:59:10","新北市中和區興南路二段159巷10號","121.505078333333","24.9832816666667","6500300","中和區"
"235068","377-QA","2018/03/23 19:59:15","新北市中和區福美路301巷42號","121.4978","25.00348","6500300","中和區"
"235050","4979-A6","2018/03/23 19:59:27","新北市中和區景平路153號","121.513558333333","24.9917133333333","6500300","中和區"
"235069","4980-A6","2018/03/23 19:59:08","新北市中和區圓通路71號","121.500045","24.9970216666667","6500300","中和區"
"235070","558-UM","2018/03/23 19:59:28","新北市中和區圓通路156號","121.497858333333","24.9956133333333","6500300","中和區"
"235054","640-BX","2018/03/23 19:59:16","新北市中和區莒光路132號","121.47247","25.0015016666667","6500300","中和區"
"235047","732-UM","2018/03/23 19:59:13","新北市中和區和平街134號","121.506486666667","24.991735","6500300","中和區"
"235046","733-UM","2018/03/23 19:59:18","新北市中和區興南路一段93巷73號","121.510448333333","24.9866333333333","6500300","中和區"
"235026","800-TS","2018/03/23 19:38:16","新北市中和區員山路36巷16-3號","121.484861666667","24.991665","6500300","中和區"
"235041","802-TS","2018/03/23 19:59:21","新北市中和區安平路161號","121.512381666667","24.9985883333333","6500300","中和區"
"235016","805-TS","2018/03/23 19:59:13","新北市中和區忠孝街74號","121.512036666667","24.9841783333333","6500300","中和區"
"235048","896-TW","2018/03/23 19:59:27","新北市中和區景新街397號","121.512541666667","24.9900333333333","6500300","中和區"
"235051","157-BY","2018/03/23 19:59:28","新北市中和區中興街233巷10號","121.501525","24.9894783333333","6500300","中和區"
"235037","AAC-213","2018/03/23 19:59:14","新北市中和區自立路99巷22弄7號","121.523365","24.9942533333333","6500300","中和區"
"235059","AAC-215","2018/03/23 19:59:16","新北市中和區圓通路333號","121.492016666667","24.990465","6500300","中和區"
"220065","072-UY","2018/03/23 19:59:11","新北市板橋區中山路一段154巷18號","121.464898333333","25.011105","6500100","板橋區"
"220069","AAD-861","2018/03/23 19:59:22","新北市板橋區貴興路54號","121.456856666667","25.00306","6500100","板橋區"
"247024","893-R6","2018/03/23 19:59:26","新北市蘆洲區光明路112巷29弄13號","121.464203333333","25.08771","6501400","蘆洲區"
"247014","546-UM","2018/03/23 19:59:28","新北市蘆洲區成功路104號","121.472483333333","25.0821833333333","6501400","蘆洲區"
"247010","341-TH","2018/03/23 19:59:17","新北市三重區集賢路188號","121.48399","25.0881433333333","6501400","蘆洲區"
"247012","339-TH","2018/03/23 19:59:15","新北市蘆洲區民族路157號","121.479481666667","25.08811","6501400","蘆洲區"
"247006","336-TH","2018/03/23 19:59:24","新北市蘆洲區九芎街88號","121.465913333333","25.0798233333333","6501400","蘆洲區"
"247004","335-TH","2018/03/23 19:59:25","新北市蘆洲區長安街267巷7號","121.458335","25.0836633333333","6501400","蘆洲區"
"247018","057-VK","2018/03/23 19:59:18","新北市蘆洲區民族路282號","121.478245","25.089445","6501400","蘆洲區"
"247008","056-VK","2018/03/23 19:59:10","新北市蘆洲區信義路115號","121.47851","25.0801616666667","6501400","蘆洲區"
"247016","007-UY","2018/03/23 19:59:22","新北市蘆洲區光華路1號","121.469875","25.0835416666667","6501400","蘆洲區"
"247002","002-UY","2018/03/23 19:59:14","新北市蘆洲區永樂街31巷9號","121.458188333333","25.0871683333333","6501400","蘆洲區"
"226004","205-ST","2018/03/23 19:59:13","新北市平溪區石底里公園街18-3號","121.73326","25.025855","6502400","平溪區"
"224010","AGQ-8101","2018/03/23 19:59:20","新北市瑞芳區基山街183號","121.843213333333","25.10778","6501200","瑞芳區"
"224002","639-TC","2018/03/23 19:59:06","新北市瑞芳區三爪子坑路106巷1-11號","121.808195","25.1051616666667","6501200","瑞芳區"
"227011","642-TC","2018/03/23 19:59:12","新北市雙溪區新基里朝陽街3號","121.866255","25.0384816666667","6502500","雙溪區"
"227003","400-TW","2018/03/23 19:59:27","新北市雙溪區雙溪里長安街16號","121.865125","25.03456","6502500","雙溪區"
"222001","KEA-2212","2018/03/23 19:59:12","新北市深坑區北深路三段165-1號","121.60222","25.0033416666667","6501800","深坑區"
"208002","KEA-2872","2018/03/23 19:59:16","新北市金山區環金路91號","121.63654","25.2172233333333","6502700","金山區"
"208003","665-BX","2018/03/23 19:59:25","新北市金山區永興里忠義路25號","121.632238333333","25.2605033333333","6502700","金山區"
"208001","761-BX","2018/03/23 19:59:23","新北市金山區南勢41-1號","121.629088333333","25.2198533333333","6502700","金山區"
"251004","009-UM","2018/03/23 19:59:17","新北市淡水區民權路177巷7號","121.460956666667","25.1355916666667","6501000","淡水區"
"251008","181-VK","2018/03/23 19:59:19","新北市淡水區淡海路63巷2號","121.42284","25.180855","6501000","淡水區"
"251010","413-VK","2018/03/23 19:59:12","新北市淡水區崁頂里77號","121.430386666667","25.2031","6501000","淡水區"
"251012","441-VK","2018/03/23 19:59:26","新北市淡水區下圭柔山71-3號","121.447281666667","25.2062566666667","6501000","淡水區"
"251005","443-VK","2018/03/23 19:59:21","新北市淡水區學府路136巷41號","121.451965","25.1726566666667","6501000","淡水區"
"251001","559-UM","2018/03/23 19:59:18","新北市淡水區淡金路一段166-5號","121.45403","25.179975","6501000","淡水區"
"251006","561-UM","2018/03/23 19:59:19","新北市淡水區水碓街40巷1號","121.44446","25.177275","6501000","淡水區"
"251009","575-R6","2018/03/23 19:59:26","新北市淡水區英專路28巷2弄8-4號","121.445881666667","25.16971","6501000","淡水區"
"251011","650-BX","2018/03/23 19:59:11","新北市淡水區崁頂57-7號","121.442776666667","25.197225","6501000","淡水區"
"251002","672-BX","2018/03/23 19:59:18","新北市淡水區沙崙路129號","121.422565","25.1824016666667","6501000","淡水區"
"207003","291-VK","2018/03/23 19:59:28","新北市萬里區磺潭里公館崙5號","121.641928333333","25.21428","6502800","萬里區"
"207004","225-TW","2018/03/23 19:59:26","新北市萬里區北基里忠二街35號","121.685628333333","25.17576","6502800","萬里區"
"252002","178-VK","2018/03/23 19:59:21","新北市三芝區忠孝街116-3號","121.505505","25.2575","6502100","三芝區"
"252001","292-VK","2018/03/23 19:59:15","新北市三芝區公正街66號","121.499788333333","25.25746","6502100","三芝區"
"237004","KEA-2597","2018/03/23 19:59:24","新北市三峽區添福6號","121.37203","24.9058416666667","6500900","三峽區"
"237007","153-BY","2018/03/23 19:59:11","新北市三峽區麻園46號","121.363801666667","24.9213516666667","6500900","三峽區"
"237009","210-TH","2018/03/23 19:59:26","新北市三峽區仁愛街18號","121.36827","24.9323816666667","6500900","三峽區"
"237012","275-BY","2018/03/23 19:59:27","新北市三峽區中華路96號","121.371168333333","24.928075","6500900","三峽區"
"237014","433-BY","2018/03/23 19:59:22","新北市三峽區中正路一段157號","121.373123333333","24.928675","6500900","三峽區"
"237006","5529-G3","2018/03/23 19:59:14","新北市三峽區中正路二段168號","121.366046666667","24.915665","6500900","三峽區"
"237015","649-BX","2018/03/23 19:59:14","新北市三峽區中山路459巷137號","121.350118333333","24.9339816666667","6500900","三峽區"
"237005","AKY-6261","2018/03/23 19:59:16","新北市三峽區民生街1巷29號","121.38291","24.9334333333333","6500900","三峽區"
"236072","105-UM","2018/03/23 19:59:17","新北市土城區忠義路75號","121.442418333333","24.9656383333333","6501300","土城區"
"236043","107-UM","2018/03/23 19:59:16","新北市土城區學府路一段143巷6號","121.453868333333","24.9858783333333","6501300","土城區"
"236079","166-UM","2018/03/23 19:59:11","新北市土城區福安街53號","121.418598333333","24.9643866666667","6501300","土城區"
"236031","253-BX","2018/03/23 19:59:15","新北市土城區中央路一段252-1號","121.444236666667","24.984585","6501300","土城區"
"236026","269-VK","2018/03/23 19:59:22","新北市土城區中央路一段278號","121.443655","24.9828483333333","6501300","土城區"
"236015","270-VK","2018/03/23 19:59:12","新北市土城區廣福街123號","121.456283333333","24.99289","6501300","土城區"
"236039","271-VK","2018/03/23 19:59:23","新北市土城區國際路52號","121.466355","24.9787583333333","6501300","土城區"
"236022","401-BY","2018/03/23 19:59:26","新北市土城區延吉街120號","121.469823333333","24.98596","6501300","土城區"
"236059","912-UM","2018/03/23 19:59:13","新北市土城區中央路一段237號","121.445486666667","24.9861616666667","6501300","土城區"
"236050","913-UM","2018/03/23 19:59:19","新北市土城區金城路三段129號","121.467968333333","24.988055","6501300","土城區"
"236063","915-UM","2018/03/23 19:59:18","新北市土城區金城路三段73巷9弄13號","121.465856666667","24.98739","6501300","土城區"
"236055","AAC-216","2018/03/23 19:59:18","新北市土城區立德路37號","121.462341666667","24.987925","6501300","土城區"
"242034","AAC-296","2018/03/23 19:59:30","新北市新莊區建中街72號","121.44753","25.0369283333333","6500500","新莊區"
"242058","986-R7","2018/03/23 19:59:17","新北市新莊區八德街90號","121.42441","25.0215916666667","6500500","新莊區"
"242054","751-BX","2018/03/23 19:59:25","新北市新莊區西盛街418號","121.427196666667","25.0122166666667","6500500","新莊區"
"242029","705-TV","2018/03/23 19:59:09","新北市新莊區中榮街152巷18號","121.44598","25.0534816666667","6500500","新莊區"
"242025","613-BX","2018/03/23 19:59:18","新北市新莊區五工二路86巷43號","121.460755","25.067625","6500500","新莊區"
"242046","497-BY","2018/03/23 19:59:19","新北市新莊區裕民街19巷4號","121.419668333333","25.0252233333333","6500500","新莊區"
"242050","441-UM","2018/03/23 19:59:27","新北市新莊區西盛街137號","121.428258333333","25.0185666666667","6500500","新莊區"
"242056","440-UM","2018/03/23 19:59:26","新北市新莊區中正路347巷17弄6號","121.447396666667","25.034305","6500500","新莊區"
"242037","415-TV","2018/03/23 19:59:24","新北市新莊區建安街25巷2號","121.429146666667","25.02599","6500500","新莊區"
"242044","400-BY","2018/03/23 19:59:19","新北市新莊區中山路三段638巷14號","121.412231666667","25.02404","6500500","新莊區"
"242023","362-BY","2018/03/23 19:59:15","新北市新莊區化成路408號","121.465996666667","25.0507116666667","6500500","新莊區"
"242060","353-BY","2018/03/23 19:59:20","新北市新莊區瓊泰路19號","121.444345","25.0286133333333","6500500","新莊區"
"242039","133-UY","2018/03/23 19:59:20","新北市新莊區民安路316號","121.428581666667","25.022045","6500500","新莊區"
"242032","135-UY","2018/03/23 19:59:26","新北市新莊區忠孝街29巷35號","121.44355","25.036895","6500500","新莊區"
"242048","172-VK","2018/03/23 19:59:27","新北市新莊區富國路158號","121.42336","25.024875","6500500","新莊區"
"242017","175-VK","2018/03/23 19:59:26","新北市新莊區中華路二段3巷29號","121.453088333333","25.0463816666667","6500500","新莊區"
"242005","176-VK","2018/03/23 19:59:21","新北市新莊區化成路205-47號","121.465743333333","25.05112","6500500","新莊區"
"242015","346-TH","2018/03/23 19:59:09","新北市新莊區泰順街31號","121.446163333333","25.0424916666667","6500500","新莊區"
"242007","347-TH","2018/03/23 19:59:15","新北市新莊區思源路585號","121.459676666667","25.059425","6500500","新莊區"
"242021","348-TH","2018/03/23 19:59:25","新北市新莊區建中街32巷15號","121.44874","25.038005","6500500","新莊區"
"242002","349-TH","2018/03/23 19:59:30","新北市新莊區中正路219號","121.451","25.035845","6500500","新莊區"
"242019","350-TH","2018/03/23 19:58:59","新北市新莊區長青街35巷12號","121.45657","25.0418216666667","6500500","新莊區"
"242013","351-TH","2018/03/23 19:59:28","新北市新莊區中港路513號","121.451898333333","25.0508216666667","6500500","新莊區"
"238015","755-BX","2018/03/23 19:59:14","新北市樹林區中山路三段125-10號","121.397568333333","24.9736816666667","6500700","樹林區"
"238021","KEA-2539","2018/03/23 19:59:14","新北市樹林區佳園路三段101巷80弄3號","121.394998333333","24.9498566666667","6500700","樹林區"
"221008","489-VK","2018/03/23 19:59:24","新北市汐止區忠一街9巷7號","121.620491666667","25.0732216666667","6501100","汐止區"
"221036","130-UY","2018/03/23 19:59:26","新北市汐止區忠孝東路258巷11弄7號","121.664","25.06749","6501100","汐止區"
"221025","131-UY","2018/03/23 19:59:21","新北市汐止區秀峰路85號","121.659963333333","25.06404","6501100","汐止區"
"221010","269-BY","2018/03/23 19:59:28","新北市汐止區連峰街227號","121.645083333333","25.081095","6501100","汐止區"
"221012","278-VK","2018/03/23 19:59:27","新北市汐止區大同路三段176號","121.674213333333","25.0748766666667","6501100","汐止區"
"221023","279-VK","2018/03/23 19:59:20","新北市汐止區明峰街212號","121.627318333333","25.06904","6501100","汐止區"
"221032","280-BY","2018/03/23 19:59:14","新北市汐止區橫科路4巷1弄10號","121.617885","25.05084","6501100","汐止區"
"221027","281-BY","2018/03/23 19:59:28","新北市汐止區中正路97號","121.660978333333","25.06938","6501100","汐止區"
"221029","298-VK","2018/03/23 19:59:22","新北市汐止區樟樹一路137巷26號","121.641025","25.0659566666667","6501100","汐止區"
"221021","299-VK","2018/03/23 19:59:15","新北市汐止區水源路一段166-1號","121.655326666667","25.061975","6501100","汐止區"
"221031","353-TW","2018/03/23 19:59:26","新北市汐止區中興路130-1號","121.633041666667","25.0641933333333","6501100","汐止區"
"221035","622-UM","2018/03/23 19:59:19","新北市汐止區長江街57巷8號","121.656173333333","25.0718866666667","6501100","汐止區"
"221038","646-BX","2018/03/23 19:59:24","新北市汐止區忠孝東路497號","121.666391666667","25.074635","6501100","汐止區"
"221033","647-BX","2018/03/23 19:59:19","新北市汐止區東勢街201巷104號","121.633508333333","25.0429216666667","6501100","汐止區"
"221018","753-BX","2018/03/23 19:59:09","新北市汐止區茄苳路271號","121.672201666667","25.0680516666667","6501100","汐止區"
"220106","KEA-2550","2018/03/23 19:59:13","新北市板橋區民治街51巷1號","121.479033333333","25.033785","6500100","板橋區"
"220082","610-BX","2018/03/23 19:59:25","新北市板橋區大觀路三段121號","121.432675","24.99451","6500100","板橋區"
"220101","245-BX","2018/03/23 19:59:24","新北市板橋區莒光路219號","121.474288333333","25.0227666666667","6500100","板橋區"
"220098","257-TC","2018/03/23 19:59:24","新北市板橋區新海路72巷3號","121.462091666667","25.0221183333333","6500100","板橋區"
"220072","277-BY","2018/03/23 19:59:21","新北市板橋區篤行路二段1巷5-3號","121.43224","24.9929116666667","6500100","板橋區"
"220094","280-UM","2018/03/23 19:59:12","新北市板橋區雨農路27巷6號","121.46142","25.02393","6500100","板橋區"
"220064","282-UM","2018/03/23 19:59:21","新北市板橋區館前東路106號","121.462915","25.00772","6500100","板橋區"
"220071","283-VK","2018/03/23 19:59:23","新北市板橋區和平路174巷1弄7號","121.464341666667","24.9953016666667","6500100","板橋區"
"220053","285-VK","2018/03/23 19:59:25","新北市板橋區永豐街129號","121.474705","25.0198216666667","6500100","板橋區"
"220083","286-VK","2018/03/23 19:59:14","新北市板橋區僑中二街48巷26號","121.445301666667","25.0103866666667","6500100","板橋區"
"220081","287-VK","2018/03/23 19:59:16","新北市板橋區大觀路一段28巷88號","121.449921666667","25.0110733333333","6500100","板橋區"
"220090","288-VK","2018/03/23 19:59:14","新北市板橋區幸福路32巷34號","121.460738333333","25.0215733333333","6500100","板橋區"
"220061","293-UM","2018/03/23 19:59:22","新北市板橋區觀光街66號","121.46991","25.0167216666667","6500100","板橋區"
"220084","296-UM","2018/03/23 19:59:21","新北市板橋區溪崑二街112巷10號","121.426038333333","24.9888466666667","6500100","板橋區"
"242011","281-VK","2018/03/23 19:59:12","新北市新莊區中港路531巷138號","121.449528333333","25.0514066666667","6500500","新莊區"
"220075","303-R5","2018/03/23 19:59:26","新北市板橋區金華街10巷48弄10號","121.45731","25.0198616666667","6500100","板橋區"
"220062","305-R5","2018/03/23 19:59:19","新北市板橋區中山路二段617巷1弄2號","121.485301666667","25.02261","6500100","板橋區"
"220092","307-R5","2018/03/23 19:59:18","新北市板橋區幸福路70巷7號","121.46057","25.0204066666667","6500100","板橋區"
"220080","461-BY","2018/03/23 19:59:24","新北市板橋區大觀路二段179巷17號","121.445563333333","24.9998666666667","6500100","板橋區"
"242041","280-VK","2018/03/23 19:59:29","新北市新莊區青山路一段26號","121.410978333333","25.0275833333333","6500500","新莊區"
"220088","491-VK","2018/03/23 19:59:13","新北市板橋區民治街53-1號","121.479325","25.0335583333333","6500100","板橋區"
"220103","561-BX","2018/03/23 19:59:15","新北市板橋區文化路一段435巷31弄1號","121.466848333333","25.0229866666667","6500100","板橋區"
"220091","637-BX","2018/03/23 19:59:25","新北市板橋區民治街121號","121.478271666667","25.0309533333333","6500100","板橋區"
"220057","686-BX","2018/03/23 19:59:12","新北市板橋區廣權路9號","121.46054","24.9914266666667","6500100","板橋區"
"220093","689-BX","2018/03/23 19:59:19","新北市板橋區長江路三段122號","121.475216666667","25.0344116666667","6500100","板橋區"
"220054","741-BX","2018/03/23 19:59:26","新北市板橋區實踐路93巷38號","121.46555","25.0048633333333","6500100","板橋區"
"220102","KEA-2699","2018/03/23 19:59:12","新北市板橋區仁化街42巷3號","121.475366666667","25.0313416666667","6500100","板橋區"
"220055","827-TW","2018/03/23 19:59:15","新北市板橋區仁愛路62巷15弄2號","121.459995","24.9984816666667","6500100","板橋區"
"220067","829-TW","2018/03/23 19:59:18","新北市板橋區漢生東路193巷23-4號","121.471073333333","25.0122033333333","6500100","板橋區"
"220068","830-TW","2018/03/23 19:59:22","新北市板橋區光復街175號","121.485131666667","25.0208266666667","6500100","板橋區"
"220096","831-TW","2018/03/23 19:59:20","新北市板橋區莒光路40巷17弄8號","121.470631666667","25.0236083333333","6500100","板橋區"
"220089","833-TW","2018/03/23 19:59:19","新北市板橋區新海路385巷34弄12號","121.457166666667","25.0260333333333","6500100","板橋區"
"220074","895-R6","2018/03/23 19:59:14","新北市板橋區縣民大道一段295號","121.460941666667","25.010295","6500100","板橋區"
"220073","985-R7","2018/03/23 19:59:26","新北市板橋區南雅西路二段72號","121.452711666667","25.0103533333333","6500100","板橋區"
"220097","AAC-210","2018/03/23 19:59:25","新北市板橋區光正街11號","121.462816666667","25.0171416666667","6500100","板橋區"
"220070","AAC-253","2018/03/23 19:59:24","新北市板橋區四川路一段127號","121.459898333333","25.0047233333333","6500100","板橋區"
