"lineid","car","time","location","longitude","latitude","cityid","cityname"
"234046","148-BY","2018/03/23 20:09:23","新北市永和區得和路321號","121.523336666667","24.9997033333333","6500400","永和區"
"234007","207-UY","2018/03/23 20:09:20","新北市永和區保生路46號","121.505638333333","25.0083833333333","6500400","永和區"
"234081","298-R6","2018/03/23 20:09:19","新北市永和區國中路109巷1弄2號","121.52399","25.005745","6500400","永和區"
"234038","336-UY","2018/03/23 20:09:15","新北市永和區成功路一段47巷14號","121.52759","25.0039833333333","6500400","永和區"
"234064","337-UY","2018/03/23 20:09:25","新北市永和區永元路71號","121.522211666667","25.00102","6500400","永和區"
"234086","338-UY","2018/03/23 20:09:09","新北市永和區福和路282號","121.517756666667","25.0074866666667","6500400","永和區"
"234070","552-UM","2018/03/23 20:09:23","新北市永和區福和路185號","121.519886666667","25.0074516666667","6500400","永和區"
"234017","745-BX","2018/03/23 20:09:15","新北市永和區文化路68號","121.514296666667","25.015145","6500400","永和區"
"234030","746-BX","2018/03/23 20:09:28","新北市永和區民權路49巷39號","121.52208","24.9976633333333","6500400","永和區"
"234054","KEA-2590","2018/03/23 20:09:23","新北市永和區博愛街14號","121.516931666667","25.0158","6500400","永和區"
"234013","KEA-2591","2018/03/23 20:09:14","新北市永和區永貞路415號","121.507358333333","25.00935","6500400","永和區"
"234061","AAD-866","2018/03/23 20:09:26","新北市永和區中正路129巷5號","121.51559","24.9981133333333","6500400","永和區"
"234042","862-TW","2018/03/23 20:09:12","新北市永和區雙和街23號","121.50917","25.0020966666667","6500400","永和區"
"234050","863-TW","2018/03/23 20:09:17","新北市永和區新生路247號","121.505893333333","25.0134566666667","6500400","永和區"
"234011","9373-KE","2018/03/23 20:09:21","新北市永和區仁愛路352巷122弄13號","121.500731666667","25.00886","6500400","永和區"
"249005","172-UM","2018/03/23 20:09:11","新北市八里區下罟子2號","121.3874","25.1411383333333","6502300","八里區"
"249001","173-UM","2018/03/23 20:09:20","新北市八里區中華路二段318號","121.40357","25.14813","6502300","八里區"
"249004","303-UY","2018/03/23 19:59:52","新北市八里區中山路一段418-3號","121.4112","25.157905","6502300","八里區"
"249002","305-UY","2018/03/23 20:09:07","新北市八里區龍米路一段2-1號","121.45795","25.1148833333333","6502300","八里區"
"249003","593-UM","2018/03/23 20:09:24","新北市八里區中山路二段540巷9弄28號","121.396415","25.146575","6502300","八里區"
"248014","025-BX","2018/03/23 20:08:46","新北市五股區新城六路235號","121.447701666667","25.0918633333333","6501500","五股區"
"248016","026-BX","2018/03/23 20:09:27","新北市五股區凌雲路一段158巷50弄21號","121.447855","25.1043633333333","6501500","五股區"
"248008","095-VK","2018/03/23 20:09:09","新北市五股區中興路一段1巷12弄21號","121.469373333333","25.070715","6501500","五股區"
"248018","225-UY","2018/03/23 20:09:13","新北市五股區自強路135號","121.432203333333","25.06972","6501500","五股區"
"248012","247-BX","2018/03/23 20:09:27","新北市五股區六合街124號","121.429988333333","25.0907583333333","6501500","五股區"
"248010","272-BY","2018/03/23 20:09:19","新北市五股區成泰路一段7巷38號","121.432635","25.0671016666667","6501500","五股區"
"248004","677-BX","2018/03/23 20:09:17","新北市五股區成泰路一段196號","121.435813333333","25.0783233333333","6501500","五股區"
"248002","678-BX","2018/03/23 20:09:12","新北市五股區成泰路三段277號","121.447068333333","25.0941783333333","6501500","五股區"
"234023","9380-KE","2018/03/23 20:09:25","新北市永和區中正路654巷44號","121.518115","25.0085166666667","6500400","永和區"
"234077","969-R7","2018/03/23 20:09:26","新北市永和區智光街115號","121.515633333333","24.9961416666667","6500400","永和區"
"234074","AAC-211","2018/03/23 20:09:15","新北市永和區豫溪街159-1號","121.521391666667","25.0103683333333","6500400","永和區"
"234067","AAC-212","2018/03/23 20:09:24","新北市永和區保平路214巷10弄1號","121.509286666667","25.00655","6500400","永和區"
"234003","AAC-295","2018/03/23 20:09:29","新北市永和區自強街39號","121.516055","25.0081383333333","6500400","永和區"
"243012","AAD-798","2018/03/23 20:09:08","新北市泰山區楓江路48號","121.435153333333","25.0622933333333","6501600","泰山區"
"243011","297-R6","2018/03/23 20:09:29","新北市新莊區丹鳳街40號","121.421625","25.0296183333333","6501600","泰山區"
"243015","380-SR","2018/03/23 20:09:26","新北市泰山區明志路一段453-1號","121.430708333333","25.056295","6501600","泰山區"
"243014","421-VK","2018/03/23 20:09:24","新北市泰山區明志路一段17號","121.433696666667","25.0657916666667","6501600","泰山區"
"243010","KEA-2215","2018/03/23 20:09:24","新北市泰山區明志路二段214巷16弄37號","121.426851666667","25.0503016666667","6501600","泰山區"
"243009","KEA-2216","2018/03/23 20:09:27","新北市泰山區福泰街60號","121.434205","25.05909","6501600","泰山區"
"243013","646-TV","2018/03/23 20:09:11","新北市泰山區明志路二段385號","121.424985","25.043685","6501600","泰山區"
"243016","680-BX","2018/03/23 20:09:24","新北市泰山區貴陽街4-1號","121.42171","25.0331516666667","6501600","泰山區"
"222003","436-BY","2018/03/23 20:09:15","新北市深坑區埔新街60號","121.62029","25.002445","6501800","深坑區"
"222002","659-BX","2018/03/23 20:09:11","新北市深坑區北深路三段125號","121.604641666667","25.0022366666667","6501800","深坑區"
"231060","001-UM","2018/03/23 20:09:28","新北市新店區安康路三段410號","121.485643333333","24.9515333333333","6500600","新店區"
"231041","002-UM","2018/03/23 20:09:22","新北市新店區中正路460號","121.534005","24.9793866666667","6500600","新店區"
"231059","046-UY","2018/03/23 20:09:24","新北市新店區安德街47號","121.511136666667","24.96233","6500600","新店區"
"231061","047-UY","2018/03/23 20:09:23","新北市新店區安興路32號","121.515768333333","24.9703966666667","6500600","新店區"
"231051","107-UY","2018/03/23 20:09:16","新北市新店區中央六街5號","121.530341666667","24.9744783333333","6500600","新店區"
"231048","108-UY","2018/03/23 20:09:14","新北市新店區永華街24號","121.544205","24.9759","6500600","新店區"
"231053","187-VK","2018/03/23 20:09:30","新北市新店區新烏路三段寶島巷4號","121.551511666667","24.8992383333333","6500600","新店區"
"231050","KEA-2219","2018/03/23 20:09:16","新北市新店區北新路一段96巷23號","121.54287","24.9687516666667","6500600","新店區"
"221015","KEA-2785","2018/03/23 20:09:16","新北市汐止區建成路13號","121.664568333333","25.0725916666667","6501100","汐止區"
"231057","256-BX","2018/03/23 20:09:20","新北市新店區花園一路一段2號","121.55317","24.9324116666667","6500600","新店區"
"231054","AAD-862","2018/03/23 20:09:19","新北市新店區檳榔路38號","121.541516666667","24.96379","6500600","新店區"
"231058","3712-VJ","2018/03/23 20:09:14","新北市新店區中央路13號","121.533375","24.9783566666667","6500600","新店區"
"231056","3713-VJ","2018/03/23 20:09:14","新北市新店區北新路二段59巷1號","121.54233","24.972995","6500600","新店區"
"231055","4716-K9","2018/03/23 20:09:16","新北市新店區中華路48巷9號","121.540131666667","24.9688083333333","6500600","新店區"
"231067","4772-VM","2018/03/23 20:09:15","新北市新店區溪洲路6巷3號","121.533921666667","24.9613","6500600","新店區"
"231065","512-UM","2018/03/23 20:09:24","新北市新店區安祥路106巷128號","121.473506666667","24.9584233333333","6500600","新店區"
"231064","513-UM","2018/03/23 20:09:23","新北市新店區安光路13號","121.513405","24.9638466666667","6500600","新店區"
"231045","617-UM","2018/03/23 20:09:18","新北市新店區北宜路一段56號","121.538431666667","24.95629","6500600","新店區"
"231040","619-UM","2018/03/23 20:09:12","新北市新店區中正路104號","121.543156666667","24.9705166666667","6500600","新店區"
"231042","641-BX","2018/03/23 20:09:17","新北市新店區中興路二段229號","121.547583333333","24.9747133333333","6500600","新店區"
"231063","645-TV","2018/03/23 20:09:19","新北市新店區黎明路51巷6號","121.502153333333","24.9488766666667","6500600","新店區"
"231068","718-UY","2018/03/23 20:09:27","新北市新店區中興路二段163號","121.54707","24.9735266666667","6500600","新店區"
"231049","719-UM","2018/03/23 20:09:25","新北市新店區北新路二段57號","121.54258","24.9732483333333","6500600","新店區"
"231062","720-UM","2018/03/23 20:09:07","新北市新店區安康路二段192號","121.51124","24.9600216666667","6500600","新店區"
"231044","897-TW","2018/03/23 20:09:24","新北市新店區寶慶街66號","121.542023333333","24.98689","6500600","新店區"
"231043","899-TW","2018/03/23 20:09:20","新北市新店區民族路188號","121.536733333333","24.976085","6500600","新店區"
"231066","AKT-0513","2018/03/23 20:09:27","新北市新店區安民街341-1號","121.516871666667","24.9748883333333","6500600","新店區"
"241011","013-R5","2018/03/23 20:09:10","新北市三重區仁愛街51號","121.496505","25.0718733333333","6500200","三重區"
"241028","022-UY","2018/03/23 20:09:22","新北市三重區仁化街167號","121.494866666667","25.05685","6500200","三重區"
"241008","059-VK","2018/03/23 20:09:10","新北市三重區永福街197巷19號","121.47869","25.0743566666667","6500200","三重區"
"241009","060-VK","2018/03/23 20:09:22","新北市三重區三和路四段382巷153號","121.479076666667","25.0780666666667","6500200","三重區"
"241031","061-VK","2018/03/23 20:09:15","新北市三重區過圳街9-1號","121.488775","25.06014","6500200","三重區"
"241015","062-VK","2018/03/23 20:09:17","新北市三重區福德北路45號","121.502321666667","25.064985","6500200","三重區"
"241017","063-VK","2018/03/23 20:09:27","新北市三重區大同北路221巷58號","121.492683333333","25.06669","6500200","三重區"
"241024","065-VK","2018/03/23 20:09:29","新北市三重區中正北路284號","121.480493333333","25.0685983333333","6500200","三重區"
"241026","066-VK","2018/03/23 20:09:25","新北市三重區福德南路65巷2號","121.502276666667","25.0604366666667","6500200","三重區"
"241002","090-VK","2018/03/23 20:09:26","新北市三重區仁忠街25號","121.496203333333","25.08221","6500200","三重區"
"241003","091-VK","2018/03/23 20:09:10","新北市三重區富華街18號","121.489571666667","25.08247","6500200","三重區"
"241005","262-UM","2018/03/23 20:09:18","新北市三重區溪尾街327號","121.48858","25.0846633333333","6500200","三重區"
"241016","265-UM","2018/03/23 20:09:26","新北市三重區中正北路25巷8號","121.493348333333","25.0628583333333","6500200","三重區"
"241022","267-UM","2018/03/23 20:09:29","新北市三重區新北大道一段58號","121.48733","25.06146","6500200","三重區"
"241018","268-UM","2018/03/23 20:09:26","新北市三重區正義北路256巷96號","121.493841666667","25.0679583333333","6500200","三重區"
"241032","269-UM","2018/03/23 20:09:18","新北市三重區捷運路61號","121.483546666667","25.055525","6500200","三重區"
"241007","398-BY","2018/03/23 20:09:26","新北市三重區三和路四段111-10號","121.486635","25.0775533333333","6500200","三重區"
"241020","413-TH","2018/03/23 20:09:20","新北市三重區後竹圍街2巷1弄37號","121.49113","25.0731466666667","6500200","三重區"
"241035","462-BY","2018/03/23 20:09:24","新北市三重區平安街13號","121.49868","25.064265","6500200","三重區"
"241004","475-VK","2018/03/23 20:09:17","新北市三重區自強路四段100號","121.49131","25.079685","6500200","三重區"
"241013","478-VK","2018/03/23 20:09:21","新北市三重區三和路三段151巷47號","121.49419","25.0742466666667","6500200","三重區"
"241030","480-VK","2018/03/23 20:09:19","新北市三重區成功路145巷33號","121.48769","25.0532166666667","6500200","三重區"
"241014","543-UM","2018/03/23 20:09:16","新北市三重區長樂街119號","121.501771666667","25.0695316666667","6500200","三重區"
"241023","545-UM","2018/03/23 20:09:28","新北市三重區頂崁街233號","121.47699","25.06849","6500200","三重區"
"241001","547-UM","2018/03/23 20:09:15","新北市三重區溪尾街16號","121.491348333333","25.0755783333333","6500200","三重區"
"241006","AAD-863","2018/03/23 20:09:26","新北市三重區車路頭街139巷12號","121.484258333333","25.0762883333333","6500200","三重區"
"241025","887-TS","2018/03/23 20:09:15","新北市三重區中正北路291號","121.47463","25.0711316666667","6500200","三重區"
"241012","941-UM","2018/03/23 20:09:10","新北市三重區仁福街64巷37號","121.49757","25.0757916666667","6500200","三重區"
"241029","942-UM","2018/03/23 20:09:24","新北市三重區光明路32巷28號","121.492","25.0587383333333","6500200","三重區"
"235066","003-UY","2018/03/23 20:09:29","新北市中和區保平路289號","121.506645","25.00358","6500300","中和區"
"235065","098-UM","2018/03/23 20:09:16","新北市中和區永和路39巷4號","121.497946666667","25.005005","6500300","中和區"
"235040","150-BY","2018/03/23 20:09:26","新北市中和區保健路29巷10弄1號","121.509103333333","24.9982516666667","6500300","中和區"
"235068","377-QA","2018/03/23 20:09:27","新北市中和區福祥路85巷2弄6號","121.498793333333","25.0059933333333","6500300","中和區"
"235050","4979-A6","2018/03/23 20:09:27","新北市中和區景新街323-1號","121.511308333333","24.9920683333333","6500300","中和區"
"235069","4980-A6","2018/03/23 20:09:08","新北市中和區景新街132巷8號","121.504748333333","24.9981066666667","6500300","中和區"
"235070","558-UM","2018/03/23 20:09:28","新北市中和區中正路434號","121.491276666667","24.9942166666667","6500300","中和區"
"235046","733-UM","2018/03/23 20:09:18","新北市中和區忠孝街29號","121.51053","24.9830666666667","6500300","中和區"
"235048","896-TW","2018/03/23 20:09:07","新北市中和區景新街347號","121.511946666667","24.9909316666667","6500300","中和區"
"235051","157-BY","2018/03/23 20:09:08","新北市中和區景安路220巷4弄2號","121.503393333333","24.990915","6500300","中和區"
"235059","AAC-215","2018/03/23 20:09:16","新北市中和區圓通路367巷13弄39號","121.493458333333","24.9879483333333","6500300","中和區"
"220069","AAD-861","2018/03/23 20:09:28","新北市板橋區大明街25巷2弄23號","121.45751","25.00255","6500100","板橋區"
"247024","893-R6","2018/03/23 20:09:26","新北市蘆洲區光榮路120巷8弄21號","121.465128333333","25.0882933333333","6501400","蘆洲區"
"247014","546-UM","2018/03/23 20:09:28","新北市蘆洲區中山二路259號","121.469975","25.079795","6501400","蘆洲區"
"247022","500-BY","2018/03/23 20:09:28","新北市蘆洲區三民路165號","121.471305","25.0869283333333","6501400","蘆洲區"
"247010","341-TH","2018/03/23 20:09:17","新北市蘆洲區信義路213號","121.479263333333","25.08336","6501400","蘆洲區"
"247012","339-TH","2018/03/23 20:09:15","新北市蘆洲區民族路266號","121.47883","25.0888916666667","6501400","蘆洲區"
"247006","336-TH","2018/03/23 20:09:24","新北市蘆洲區永安南路二段18號","121.467698333333","25.0771133333333","6501400","蘆洲區"
"247004","335-TH","2018/03/23 20:09:25","新北市蘆洲區長安街283號","121.458246666667","25.0844683333333","6501400","蘆洲區"
"247018","057-VK","2018/03/23 20:09:18","新北市蘆洲區民族路314巷24號","121.477986666667","25.0904383333333","6501400","蘆洲區"
"247016","007-UY","2018/03/23 20:09:22","新北市蘆洲區光華路165號","121.46509","25.0820416666667","6501400","蘆洲區"
"247002","002-UY","2018/03/23 20:09:14","新北市蘆洲區長榮路269巷32號","121.459331666667","25.08607","6501400","蘆洲區"
"224010","AGQ-8101","2018/03/23 20:09:22","新北市瑞芳區輕便路300號","121.843511666667","25.108835","6501200","瑞芳區"
"222001","KEA-2212","2018/03/23 20:09:12","新北市深坑區北深路三段187號","121.601323333333","25.0037016666667","6501800","深坑區"
"208002","KEA-2872","2018/03/23 20:09:12","新北市金山區環金路462號","121.630178333333","25.2248066666667","6502700","金山區"
"208003","665-BX","2018/03/23 20:09:25","新北市金山區永興里忠義路25號","121.632063333333","25.2604866666667","6502700","金山區"
"251004","009-UM","2018/03/23 20:09:26","新北市淡水區民族路31巷21-2號","121.462006666667","25.136485","6501000","淡水區"
"251008","181-VK","2018/03/23 20:09:15","新北市淡水區淡海路72巷33弄6號","121.42439","25.182725","6501000","淡水區"
"251010","413-VK","2018/03/23 20:09:12","新北市淡水區崁頂五路303號","121.424156666667","25.197675","6501000","淡水區"
"251012","441-VK","2018/03/23 20:09:26","新北市淡水區下圭柔山61-1號","121.448361666667","25.2043883333333","6501000","淡水區"
"251006","561-UM","2018/03/23 20:09:19","新北市淡水區北新路141巷29號","121.448225","25.1796233333333","6501000","淡水區"
"251009","575-R6","2018/03/23 20:09:11","新北市淡水區清水街38號","121.444765","25.1703366666667","6501000","淡水區"
"251002","672-BX","2018/03/23 20:09:18","新北市淡水區中正路288號","121.437693333333","25.1719866666667","6501000","淡水區"
"207003","291-VK","2018/03/23 20:09:08","新北市萬里區大鵬里萬里加投192號","121.642861666667","25.2157083333333","6502800","萬里區"
"207004","225-TW","2018/03/23 20:09:26","新北市萬里區北基里大勇路13號","121.681856666667","25.176635","6502800","萬里區"
"252002","178-VK","2018/03/23 20:09:21","新北市三芝區三民街29號","121.50454","25.2585416666667","6502100","三芝區"
"252001","292-VK","2018/03/23 20:09:15","新北市三芝區公正街66號","121.499786666667","25.2574883333333","6502100","三芝區"
"237012","275-BY","2018/03/23 20:09:07","新北市三峽區中華路95號","121.371578333333","24.92914","6500900","三峽區"
"237006","5529-G3","2018/03/23 20:09:14","新北市三峽區嘉添65號","121.368696666667","24.9104366666667","6500900","三峽區"
"237015","649-BX","2018/03/23 20:09:14","新北市三峽區中山路459巷137號","121.350118333333","24.9339816666667","6500900","三峽區"
"237005","AKY-6261","2018/03/23 20:09:16","新北市三峽區三樹路50號","121.377793333333","24.9377683333333","6500900","三峽區"
"236072","105-UM","2018/03/23 20:09:17","新北市土城區中央路三段181號","121.431366666667","24.9653","6501300","土城區"
"236043","107-UM","2018/03/23 20:09:16","新北市土城區學成路22巷4號","121.453491666667","24.9873266666667","6501300","土城區"
"236079","166-UM","2018/03/23 20:09:11","新北市土城區福安街31號","121.419321666667","24.9647","6501300","土城區"
"236031","253-BX","2018/03/23 20:09:15","新北市土城區中央路一段116號","121.446451666667","24.9880966666667","6501300","土城區"
"236026","269-VK","2018/03/23 20:09:22","新北市土城區裕生路83巷21號","121.447751666667","24.9840266666667","6501300","土城區"
"236015","270-VK","2018/03/23 20:09:12","新北市土城區廣明街1號","121.456001666667","24.9917516666667","6501300","土城區"
"236039","271-VK","2018/03/23 20:09:23","新北市土城區延吉街351號","121.464611666667","24.9840433333333","6501300","土城區"
"236022","401-BY","2018/03/23 20:09:26","新北市土城區延吉街42號","121.47188","24.987135","6501300","土城區"
"236059","912-UM","2018/03/23 20:09:25","新北市土城區中央路二段143號","121.442073333333","24.9768233333333","6501300","土城區"
"236050","913-UM","2018/03/23 20:09:19","新北市土城區金城路三段103號","121.46746","24.9876833333333","6501300","土城區"
"236055","AAC-216","2018/03/23 20:09:18","新北市土城區中華路一段177號","121.443483333333","24.9858733333333","6501300","土城區"
"242034","AAC-296","2018/03/23 20:09:10","新北市新莊區華興街10號","121.44605","25.035275","6500500","新莊區"
"242058","986-R7","2018/03/23 20:09:17","新北市新莊區八德街169號","121.423365","25.01909","6500500","新莊區"
"242054","751-BX","2018/03/23 20:09:25","新北市新莊區西盛街383號","121.427988333333","25.0131766666667","6500500","新莊區"
"242029","705-TV","2018/03/23 20:09:28","新北市新莊區中原路303號","121.447408333333","25.0543633333333","6500500","新莊區"
"242025","613-BX","2018/03/23 20:09:19","新北市新莊區五權一路12巷25弄2號","121.458125","25.0640433333333","6500500","新莊區"
"242046","497-BY","2018/03/23 20:09:19","新北市新莊區裕民街85巷14號","121.41913","25.0234333333333","6500500","新莊區"
"242050","441-UM","2018/03/23 20:09:07","新北市新莊區民安西路172巷2弄2號","121.425846666667","25.0159916666667","6500500","新莊區"
"242056","440-UM","2018/03/23 20:09:26","新北市新莊區新莊路649巷15弄1號","121.445008333333","25.0314716666667","6500500","新莊區"
"242037","415-TV","2018/03/23 20:09:03","新北市新莊區建安街47號","121.42859","25.0254066666667","6500500","新莊區"
"242044","400-BY","2018/03/23 20:09:11","新北市新莊區中正路895-47號","121.412193333333","25.02147","6500500","新莊區"
"242023","362-BY","2018/03/23 20:09:15","新北市新莊區化成路652號","121.466045","25.0556616666667","6500500","新莊區"
"242060","353-BY","2018/03/23 20:09:20","新北市新莊區瓊林路100巷1號","121.44347","25.026445","6500500","新莊區"
"242009","132-UY","2018/03/23 20:09:24","新北市新莊區昌盛街35巷4弄1號","121.454118333333","25.0505916666667","6500500","新莊區"
"242039","133-UY","2018/03/23 20:09:20","新北市新莊區民安西路109號","121.426846666667","25.01836","6500500","新莊區"
"242032","135-UY","2018/03/23 20:09:23","新北市新莊區義豐街35-1號","121.441155","25.0353366666667","6500500","新莊區"
"242048","172-VK","2018/03/23 20:09:07","新北市新莊區四維路182巷6號","121.421946666667","25.0218083333333","6500500","新莊區"
"242017","175-VK","2018/03/23 20:09:26","新北市新莊區中港路360號","121.452058333333","25.0468833333333","6500500","新莊區"
"242005","176-VK","2018/03/23 20:09:23","新北市新莊區頭興街1-8號","121.463745","25.0535183333333","6500500","新莊區"
"242015","346-TH","2018/03/23 20:09:25","新北市新莊區中平路26巷64號","121.44773","25.0434716666667","6500500","新莊區"
"242007","347-TH","2018/03/23 20:09:15","新北市新莊區思源路419巷1弄13號","121.459256666667","25.0521383333333","6500500","新莊區"
"242021","348-TH","2018/03/23 20:09:25","新北市新莊區中興街11號","121.44919","25.036135","6500500","新莊區"
"242002","349-TH","2018/03/23 20:09:29","新北市新莊區中正路121-1號","121.46002","25.03869","6500500","新莊區"
"242019","350-TH","2018/03/23 20:09:19","新北市新莊區博愛路2巷2號","121.456546666667","25.0427583333333","6500500","新莊區"
"242013","351-TH","2018/03/23 20:09:07","新北市新莊區幸福路710巷1弄10號","121.449215","25.0496683333333","6500500","新莊區"
"221008","489-VK","2018/03/23 20:09:24","台北市內湖區康樂街163號","121.620038333333","25.074985","6501100","汐止區"
"221036","130-UY","2018/03/23 20:09:07","新北市汐止區新台五路二段102號","121.6625","25.0660516666667","6501100","汐止區"
"221025","131-UY","2018/03/23 20:09:21","新北市汐止區水源路二段34號","121.654881666667","25.0572566666667","6501100","汐止區"
"221010","269-BY","2018/03/23 20:09:15","新北市汐止區八連路一段121號","121.643035","25.0797116666667","6501100","汐止區"
"221012","278-VK","2018/03/23 20:09:27","新北市汐止區姜子寮路50號","121.69768","25.0613383333333","6501100","汐止區"
"221023","279-VK","2018/03/23 20:09:20","新北市汐止區明峰街298巷10弄1號","121.624943333333","25.0691416666667","6501100","汐止區"
"221032","280-BY","2018/03/23 20:09:14","新北市汐止區弘道街8巷1弄1號","121.616968333333","25.04849","6501100","汐止區"
"221027","281-BY","2018/03/23 20:09:28","新北市汐止區民生街4巷2號","121.660171666667","25.0687983333333","6501100","汐止區"
"221029","298-VK","2018/03/23 20:09:22","新北市汐止區樟樹一路119巷10弄1號","121.64123","25.06452","6501100","汐止區"
"221021","299-VK","2018/03/23 20:09:15","新北市汐止區水源路一段238巷1號","121.65417","25.060295","6501100","汐止區"
"221031","353-TW","2018/03/23 20:09:11","新北市汐止區福德二路94-1號","121.632543333333","25.0661916666667","6501100","汐止區"
"221035","622-UM","2018/03/23 20:09:19","新北市汐止區長江街79巷7號","121.65737","25.0727316666667","6501100","汐止區"
"221038","646-BX","2018/03/23 20:09:24","新北市汐止區大同路三段66號","121.667983333333","25.07721","6501100","汐止區"
"221033","647-BX","2018/03/23 20:09:19","新北市汐止區東勢街201巷104號","121.633513333333","25.0429","6501100","汐止區"
"221002","707-TV","2018/03/23 20:09:24","新北市汐止區大同路一段219巷26號","121.633133333333","25.0589183333333","6501100","汐止區"
"221018","753-BX","2018/03/23 20:09:29","新北市汐止區茄苳路306號","121.673348333333","25.0667683333333","6501100","汐止區"
"220101","245-BX","2018/03/23 20:09:24","新北市板橋區雙十路二段47巷4弄29號","121.474716666667","25.0265983333333","6500100","板橋區"
"220072","277-BY","2018/03/23 20:09:21","新北市板橋區金門街283號","121.431261666667","24.9880116666667","6500100","板橋區"
"220064","282-UM","2018/03/23 20:09:28","新北市板橋區館前東路132號","121.464005","25.0078216666667","6500100","板橋區"
"220071","283-VK","2018/03/23 20:09:23","新北市板橋區四川路一段387號","121.457803333333","24.9988733333333","6500100","板橋區"
"220053","285-VK","2018/03/23 20:09:25","新北市板橋區中山路二段291-14號","121.478445","25.01822","6500100","板橋區"
"220083","286-VK","2018/03/23 20:09:14","新北市板橋區僑中二街92巷1號","121.446288333333","25.008885","6500100","板橋區"
"220081","287-VK","2018/03/23 20:09:16","新北市板橋區僑中一街124巷18弄16號","121.446721666667","25.0136416666667","6500100","板橋區"
"220061","293-UM","2018/03/23 20:09:22","新北市板橋區中山路一段252號","121.471418333333","25.014575","6500100","板橋區"
"242011","281-VK","2018/03/23 20:09:24","新北市新莊區中信街37巷2弄12號","121.44976","25.050515","6500500","新莊區"
"220075","303-R5","2018/03/23 20:09:26","新北市板橋區金華街10巷98號","121.458566666667","25.0204516666667","6500100","板橋區"
"220092","307-R5","2018/03/23 20:09:18","新北市板橋區文化路一段52號","121.46038","25.012565","6500100","板橋區"
"242041","280-VK","2018/03/23 20:09:09","新北市新莊區壽山路164號","121.413258333333","25.03124","6500500","新莊區"
"220088","491-VK","2018/03/23 20:09:23","新北市板橋區萬板路810-1號","121.482858333333","25.0273566666667","6500100","板橋區"
"220103","561-BX","2018/03/23 20:09:15","新北市板橋區陽明街279巷35-1號","121.461041666667","25.0255883333333","6500100","板橋區"
"220057","686-BX","2018/03/23 20:09:14","新北市板橋區四川路二段130巷9號","121.449715","24.9938683333333","6500100","板橋區"
"220093","689-BX","2018/03/23 20:09:19","新北市板橋區長江路一段355號","121.461323333333","25.0304383333333","6500100","板橋區"
"220054","741-BX","2018/03/23 20:09:23","新北市板橋區忠孝路201巷74號","121.464776666667","25.0043116666667","6500100","板橋區"
"220102","KEA-2699","2018/03/23 20:09:18","新北市板橋區懷德街78巷22號","121.477676666667","25.03143","6500100","板橋區"
"220055","827-TW","2018/03/23 20:09:15","新北市板橋區仁愛路88號","121.461023333333","24.9996466666667","6500100","板橋區"
"220067","829-TW","2018/03/23 20:09:18","新北市板橋區中山路一段206巷22號","121.471036666667","25.0127483333333","6500100","板橋區"
"220068","830-TW","2018/03/23 20:09:22","新北市板橋區中山路二段443號","121.481431666667","25.0202016666667","6500100","板橋區"
"220089","833-TW","2018/03/23 20:09:19","新北市板橋區互助街32號","121.462148333333","25.02722","6500100","板橋區"
"220074","895-R6","2018/03/23 20:09:14","新北市板橋區館前西路105號","121.456975","25.0073783333333","6500100","板橋區"
"220073","985-R7","2018/03/23 20:09:06","新北市新莊區新莊路769號","121.44227","25.0326616666667","6500100","板橋區"
"220097","AAC-210","2018/03/23 20:09:25","新北市板橋區建國街132號","121.461483333333","25.017435","6500100","板橋區"
"220070","AAC-253","2018/03/23 20:09:24","新北市板橋區四川路二段245巷83號","121.45273","24.9929083333333","6500100","板橋區"
