"lineid","car","time","location","longitude","latitude","cityid","cityname"
"234081","298-R6","2018/03/23 20:29:28","新北市永和區永貞路29號","121.521075","25.0067466666667","6500400","永和區"
"234038","336-UY","2018/03/23 20:29:15","新北市永和區環河東路四段38號","121.528723333333","24.9989216666667","6500400","永和區"
"234064","337-UY","2018/03/23 20:29:25","新北市永和區中正路433號","121.517176666667","25.0050283333333","6500400","永和區"
"234086","338-UY","2018/03/23 20:29:29","新北市永和區光復街26-1號","121.516543333333","25.0173566666667","6500400","永和區"
"234070","552-UM","2018/03/23 20:29:23","新北市永和區永亨路7號","121.519398333333","25.00569","6500400","永和區"
"234030","746-BX","2018/03/23 20:29:13","新北市永和區民族街81巷60號","121.520146666667","24.99645","6500400","永和區"
"234054","KEA-2590","2018/03/23 20:29:23","新北市永和區環河東路一段80號","121.51955","25.016415","6500400","永和區"
"234013","KEA-2591","2018/03/23 20:29:14","新北市中和區環河西路三段123號","121.48919","25.0107633333333","6500400","永和區"
"234061","AAD-866","2018/03/23 20:29:24","新北市永和區安樂路208-1號","121.515091666667","25.0018833333333","6500400","永和區"
"234042","862-TW","2018/03/23 20:29:10","新北市永和區安樂路425號","121.514443333333","25.0041633333333","6500400","永和區"
"234050","863-TW","2018/03/23 20:29:17","新北市永和區新生路163號","121.507191666667","25.014635","6500400","永和區"
"249001","173-UM","2018/03/23 20:29:25","新北市八里區中山路三段195號","121.383491666667","25.140945","6502300","八里區"
"249004","303-UY","2018/03/23 20:29:11","新北市八里區中山路一段109號","121.414163333333","25.1598483333333","6502300","八里區"
"249002","305-UY","2018/03/23 20:29:27","新北市八里區龍米路二段125巷13號","121.445896666667","25.1455183333333","6502300","八里區"
"249003","593-UM","2018/03/23 20:29:24","新北市八里區舊城路21號","121.39978","25.1469583333333","6502300","八里區"
"248002","678-BX","2018/03/23 20:29:12","新北市五股區新五路二段367號","121.444005","25.08784","6501500","五股區"
"234023","9380-KE","2018/03/23 20:29:22","新北市永和區光復街2巷16弄50號","121.518361666667","25.0162816666667","6500400","永和區"
"234074","AAC-211","2018/03/23 20:29:15","新北市永和區福和路1號","121.525075","25.0089483333333","6500400","永和區"
"234067","AAC-212","2018/03/23 20:29:24","新北市永和區保平路292巷4號","121.507903333333","25.004815","6500400","永和區"
"243012","AAD-798","2018/03/23 20:29:08","新北市泰山區忠孝街17巷2號","121.427516666667","25.0653216666667","6501600","泰山區"
"243011","297-R6","2018/03/23 20:29:09","新北市泰山區新北大道六段330號","121.425351666667","25.0357183333333","6501600","泰山區"
"243015","380-SR","2018/03/23 20:29:26","新北市泰山區福興三街21號","121.434553333333","25.0575","6501600","泰山區"
"243014","421-VK","2018/03/23 20:29:24","新北市泰山區泰林路二段2-9號","121.41984","25.0650416666667","6501600","泰山區"
"243010","KEA-2215","2018/03/23 20:29:24","新北市泰山區明志路二段237巷21號","121.428113333333","25.0480966666667","6501600","泰山區"
"243009","KEA-2216","2018/03/23 20:29:27","新北市泰山區泰林路二段542巷1弄1號","121.423403333333","25.0641133333333","6501600","泰山區"
"243013","646-TV","2018/03/23 20:29:09","新北市泰山區明志路二段52號","121.429218333333","25.0528483333333","6501600","泰山區"
"243016","680-BX","2018/03/23 20:29:29","新北市泰山區明志路二段220號","121.427266666667","25.0485866666667","6501600","泰山區"
"222003","436-BY","2018/03/23 20:29:15","新北市深坑區深坑街47號","121.615355","25.0018183333333","6501800","深坑區"
"222002","659-BX","2018/03/23 20:28:11","新北市深坑區萬福路16巷16號","121.605396666667","25.0073666666667","6501800","深坑區"
"231060","001-UM","2018/03/23 20:29:28","新北市新店區錦秀路19號","121.479363333333","24.9444683333333","6500600","新店區"
"231041","002-UM","2018/03/23 20:29:22","新北市新店區中正路522號","121.533743333333","24.9837633333333","6500600","新店區"
"231059","046-UY","2018/03/23 20:29:24","新北市新店區安豐路49號","121.500015","24.9549083333333","6500600","新店區"
"231061","047-UY","2018/03/23 20:29:23","新北市新店區新和街38號","121.51931","24.9849433333333","6500600","新店區"
"231051","107-UY","2018/03/23 20:29:16","新北市新店區中央七街108號","121.525818333333","24.977535","6500600","新店區"
"231048","108-UY","2018/03/23 20:29:13","新北市新店區寶慶街58巷12號","121.542088333333","24.9873383333333","6500600","新店區"
"231053","187-VK","2018/03/23 20:29:10","新北市新店區松林路36號","121.546211666667","24.9102433333333","6500600","新店區"
"231050","KEA-2219","2018/03/23 20:29:16","新北市新店區建興街9巷11號","121.539891666667","24.97627","6500600","新店區"
"221015","KEA-2785","2018/03/23 20:29:16","新北市汐止區建成路142巷19弄13號","121.661943333333","25.0738633333333","6501100","汐止區"
"231057","256-BX","2018/03/23 20:29:20","新北市新店區花園五路二段3號","121.553648333333","24.934225","6500600","新店區"
"231054","AAD-862","2018/03/23 20:29:24","新北市新店區檳榔路109號","121.544566666667","24.9615916666667","6500600","新店區"
"231058","3712-VJ","2018/03/23 20:29:14","新北市新店區自由街37號","121.534676666667","24.9739783333333","6500600","新店區"
"231056","3713-VJ","2018/03/23 20:29:15","新北市新店區中正路336號","121.536816666667","24.97515","6500600","新店區"
"231065","512-UM","2018/03/23 20:29:28","新北市新店區安祥路102巷42弄113號","121.4873","24.963115","6500600","新店區"
"231064","513-UM","2018/03/23 20:29:23","新北市新店區安和路三段85號","121.517883333333","24.98392","6500600","新店區"
"231045","617-UM","2018/03/23 20:29:18","新北市新店區長春路21巷13號","121.548976666667","24.9590133333333","6500600","新店區"
"231040","619-UM","2018/03/23 20:29:12","新北市新店區中正路314號","121.537216666667","24.9747116666667","6500600","新店區"
"231042","641-BX","2018/03/23 20:29:17","新北市新店區寶高路120巷1-1號","121.554603333333","24.9759366666667","6500600","新店區"
"231063","645-TV","2018/03/23 20:29:19","新北市新店區安康路三段31巷2弄24號","121.492928333333","24.951865","6500600","新店區"
"231068","718-UY","2018/03/23 20:29:27","新北市新店區中興路三段240號","121.543223333333","24.98367","6500600","新店區"
"231049","719-UM","2018/03/23 20:29:24","新北市新店區永業路81巷5弄1號","121.530163333333","24.9490833333333","6500600","新店區"
"231062","720-UM","2018/03/23 20:29:27","新北市新店區安泰路60巷51號","121.483888333333","24.945845","6500600","新店區"
"231044","897-TW","2018/03/23 20:29:24","新北市新店區建國路189號","121.53802","24.97971","6500600","新店區"
"231043","899-TW","2018/03/23 20:29:20","新北市新店區建國路90號","121.5404","24.97725","6500600","新店區"
"231066","AKT-0513","2018/03/23 20:29:27","新北市新店區安民街341-1號","121.516825","24.9749016666667","6500600","新店區"
"241011","013-R5","2018/03/23 20:29:10","新北市三重區龍門路70號","121.496851666667","25.0726566666667","6500200","三重區"
"241028","022-UY","2018/03/23 20:29:13","新北市三重區光興街89號","121.49746","25.0599966666667","6500200","三重區"
"241008","059-VK","2018/03/23 20:29:09","新北市三重區下竹圍街91號","121.481126666667","25.07478","6500200","三重區"
"241009","060-VK","2018/03/23 20:29:22","新北市三重區三和路四段382巷92弄7號","121.479681666667","25.0779366666667","6500200","三重區"
"241031","061-VK","2018/03/23 20:29:15","新北市三重區三寧街25號","121.489571666667","25.0598716666667","6500200","三重區"
"241015","062-VK","2018/03/23 20:29:17","新北市三重區長元街2-2號","121.498731666667","25.0659233333333","6500200","三重區"
"241017","063-VK","2018/03/23 20:29:27","新北市三重區自強路一段207號","121.49152","25.0684333333333","6500200","三重區"
"241024","065-VK","2018/03/23 20:29:09","新北市三重區三民街257號","121.479593333333","25.0677266666667","6500200","三重區"
"241026","066-VK","2018/03/23 20:29:09","新北市三重區環河南路29號","121.503278333333","25.0621583333333","6500200","三重區"
"241002","090-VK","2018/03/23 20:29:25","新北市三重區仁義街211巷40號","121.497878333333","25.082515","6500200","三重區"
"241003","091-VK","2018/03/23 20:29:10","新北市三重區富華街234號","121.49384","25.0854833333333","6500200","三重區"
"241005","262-UM","2018/03/23 20:29:18","新北市三重區碧華街378號","121.490926666667","25.0843216666667","6500200","三重區"
"241016","265-UM","2018/03/23 20:29:26","新北市三重區正義北路110號","121.496988333333","25.0651166666667","6500200","三重區"
"241022","267-UM","2018/03/23 20:29:29","新北市三重區中正北路20巷2號","121.488153333333","25.062835","6500200","三重區"
"241018","268-UM","2018/03/23 20:29:26","新北市三重區正義北路222號","121.496235","25.0677483333333","6500200","三重區"
"241032","269-UM","2018/03/23 20:29:18","新北市三重區重陽路一段120巷35號","121.485078333333","25.060195","6500200","三重區"
"241007","398-BY","2018/03/23 20:29:27","新北市三重區三和路四段101巷26號","121.489226666667","25.0772016666667","6500200","三重區"
"241020","413-TH","2018/03/23 20:29:20","新北市三重區明德街7號","121.492995","25.0724766666667","6500200","三重區"
"241035","462-BY","2018/03/23 20:29:24","新北市三重區正義北路110號","121.496921666667","25.0651033333333","6500200","三重區"
"241004","475-VK","2018/03/23 20:29:17","新北市三重區溪尾街182號","121.488383333333","25.0808016666667","6500200","三重區"
"241013","478-VK","2018/03/23 20:29:21","新北市三重區溪尾街5巷19號","121.492465","25.0745666666667","6500200","三重區"
"241030","480-VK","2018/03/23 20:29:19","新北市三重區成功路62號","121.488538333333","25.0508883333333","6500200","三重區"
"241014","543-UM","2018/03/23 20:29:16","新北市三重區長興街93號","121.50171","25.0691316666667","6500200","三重區"
"241023","545-UM","2018/03/23 20:29:08","新北市三重區自由街17巷1號","121.479856666667","25.0665833333333","6500200","三重區"
"241001","547-UM","2018/03/23 20:29:14","新北市三重區福隆路12號","121.49033","25.0774183333333","6500200","三重區"
"241033","557-UM","2018/03/23 20:28:39","新北市三重區五谷王北街56號","121.475893333333","25.0518333333333","6500200","三重區"
"241025","887-TS","2018/03/23 20:29:15","新北市三重區頂崁街210巷23弄1號","121.475923333333","25.0681866666667","6500200","三重區"
"241012","941-UM","2018/03/23 20:22:12","新北市三重區河邊北街305號","121.502475","25.0746883333333","6500200","三重區"
"241029","942-UM","2018/03/23 20:29:24","新北市三重區集美街225號","121.492045","25.0550983333333","6500200","三重區"
"235050","4979-A6","2018/03/23 20:29:27","新北市中和區景平路385巷8號","121.502451666667","24.9941683333333","6500300","中和區"
"235069","4980-A6","2018/03/23 20:29:28","新北市中和區中正路432巷3號","121.49087","24.99548","6500300","中和區"
"235059","AAC-215","2018/03/23 20:29:16","新北市中和區員山路49-9號","121.480476666667","24.9912883333333","6500300","中和區"
"247024","893-R6","2018/03/23 20:29:26","新北市蘆洲區長興路50巷51號","121.465373333333","25.0852066666667","6501400","蘆洲區"
"247014","546-UM","2018/03/23 20:29:28","新北市蘆洲區中山二路105號","121.472608333333","25.0817933333333","6501400","蘆洲區"
"247022","500-BY","2018/03/23 20:29:14","新北市蘆洲區中正路240號","121.465816666667","25.0892466666667","6501400","蘆洲區"
"247010","341-TH","2018/03/23 20:29:26","新北市蘆洲區民族路69號","121.479185","25.0858366666667","6501400","蘆洲區"
"247012","339-TH","2018/03/23 20:29:15","新北市蘆洲區復興路294號","121.480988333333","25.0899216666667","6501400","蘆洲區"
"247006","336-TH","2018/03/23 20:29:24","新北市蘆洲區光華路173號","121.46478","25.08178","6501400","蘆洲區"
"247004","335-TH","2018/03/23 20:29:25","新北市蘆洲區長安街297號","121.458105","25.0848633333333","6501400","蘆洲區"
"247018","057-VK","2018/03/23 20:29:18","新北市蘆洲區民族路315號","121.474591666667","25.0913883333333","6501400","蘆洲區"
"247008","056-VK","2018/03/23 20:29:10","新北市蘆洲區重陽二街27號","121.482285","25.0849483333333","6501400","蘆洲區"
"247016","007-UY","2018/03/23 20:29:22","新北市蘆洲區光華路94號","121.467556666667","25.0826","6501400","蘆洲區"
"247002","002-UY","2018/03/23 20:29:14","新北市蘆洲區長安街361巷26號","121.456026666667","25.0875633333333","6501400","蘆洲區"
"224010","AGQ-8101","2018/03/23 20:29:20","新北市瑞芳區汽車路10號","121.8464","25.11055","6501200","瑞芳區"
"222001","KEA-2212","2018/03/23 20:29:12","新北市深坑區北深路三段329號","121.59731","25.0050283333333","6501800","深坑區"
"208002","KEA-2872","2018/03/23 20:29:12","新北市金山區磺清路121號","121.639761666667","25.2282483333333","6502700","金山區"
"251008","181-VK","2018/03/23 20:29:15","新北市淡水區淡海路200號","121.420551666667","25.1855816666667","6501000","淡水區"
"251010","413-VK","2018/03/23 20:29:12","新北市淡水區沙崙路181巷15號","121.423991666667","25.1843683333333","6501000","淡水區"
"251012","441-VK","2018/03/23 20:29:26","新北市淡水區興仁路100號","121.451846666667","25.2179533333333","6501000","淡水區"
"251001","559-UM","2018/03/23 20:29:18","新北市淡水區新市一路三段8號","121.445071666667","25.1828583333333","6501000","淡水區"
"251006","561-UM","2018/03/23 20:29:19","新北市淡水區商工路335號","121.466366666667","25.1855866666667","6501000","淡水區"
"251011","650-BX","2018/03/23 20:29:11","新北市淡水區崁頂三路113號","121.43381","25.19962","6501000","淡水區"
"251002","672-BX","2018/03/23 20:29:18","新北市淡水區中正路17號","121.442695","25.1695916666667","6501000","淡水區"
"251003","673-BX","2018/03/23 20:29:16","新北市淡水區新生街35號","121.44001","25.17489","6501000","淡水區"
"252002","178-VK","2018/03/23 20:29:20","新北市三芝區淡金路二段47-2號","121.503681666667","25.2605166666667","6502100","三芝區"
"252001","292-VK","2018/03/23 20:29:15","新北市三芝區中山路一段35號","121.500683333333","25.257975","6502100","三芝區"
"236072","105-UM","2018/03/23 20:29:17","新北市土城區中山路13號","121.415921666667","24.962775","6501300","土城區"
"236079","166-UM","2018/03/23 20:29:11","新北市樹林區中山路三段214號","121.379898333333","24.967585","6501300","土城區"
"236015","270-VK","2018/03/23 20:29:26","新北市土城區廣明街41巷2弄20號","121.454835","24.9935566666667","6501300","土城區"
"236022","401-BY","2018/03/23 20:29:26","新北市土城區金城路三段198號","121.468475","24.9880133333333","6501300","土城區"
"242034","AAC-296","2018/03/23 20:29:21","新北市新莊區中正路334巷4號","121.445781666667","25.035095","6500500","新莊區"
"242058","986-R7","2018/03/23 20:29:16","新北市新莊區四維路149號","121.422646666667","25.0221216666667","6500500","新莊區"
"242054","751-BX","2018/03/23 20:29:25","新北市新莊區西盛街344巷9號","121.427483333333","25.01401","6500500","新莊區"
"242029","705-TV","2018/03/23 20:29:18","新北市新莊區昌平街1號","121.454893333333","25.0513433333333","6500500","新莊區"
"242027","615-BX","2018/03/23 20:29:26","新北市新莊區幸福路9號","121.459126666667","25.0494433333333","6500500","新莊區"
"242025","613-BX","2018/03/23 20:29:29","新北市新莊區五工二路50巷15號","121.461318333333","25.0657816666667","6500500","新莊區"
"242046","497-BY","2018/03/23 20:29:22","新北市新莊區中正路新雅巷2弄3號","121.41792","25.0253133333333","6500500","新莊區"
"242050","441-UM","2018/03/23 20:29:27","新北市新莊區西盛街280巷1號","121.427853333333","25.0152433333333","6500500","新莊區"
"242056","440-UM","2018/03/23 20:29:26","新北市新莊區瓊泰路187號","121.44309","25.0317416666667","6500500","新莊區"
"242037","415-TV","2018/03/23 20:29:24","新北市新莊區後港一路83號","121.427406666667","25.0267016666667","6500500","新莊區"
"242044","400-BY","2018/03/23 20:29:15","新北市新莊區中正路新建巷10號","121.413946666667","25.0224683333333","6500500","新莊區"
"242023","362-BY","2018/03/23 20:29:15","新北市新莊區新北大道二段302號","121.464603333333","25.0612533333333","6500500","新莊區"
"242060","353-BY","2018/03/23 20:29:20","新北市新莊區民安路356-3號","121.430105","25.0227283333333","6500500","新莊區"
"242009","132-UY","2018/03/23 20:29:24","新北市新莊區昌盛街103巷6號","121.45618","25.050365","6500500","新莊區"
"242039","133-UY","2018/03/23 20:29:20","新北市新莊區民安路234號","121.426091666667","25.0221616666667","6500500","新莊區"
"242032","135-UY","2018/03/23 20:29:23","新北市新莊區中正路508巷18-6號","121.438058333333","25.0349166666667","6500500","新莊區"
"242048","172-VK","2018/03/23 20:29:27","新北市新莊區中正路877-5號","121.417908333333","25.0265616666667","6500500","新莊區"
"242017","175-VK","2018/03/23 20:29:26","新北市新莊區中港二街43號","121.450628333333","25.045915","6500500","新莊區"
"242005","176-VK","2018/03/23 20:29:21","新北市新莊區化成路373號","121.46522","25.05721","6500500","新莊區"
"242015","346-TH","2018/03/23 20:29:29","新北市新莊區中平路82巷22號","121.445741666667","25.0448566666667","6500500","新莊區"
"242007","347-TH","2018/03/23 20:29:21","新北市新莊區思源路287巷1弄2號","121.459305","25.0479266666667","6500500","新莊區"
"242021","348-TH","2018/03/23 20:29:24","新北市新莊區公園路52號","121.449116666667","25.0394916666667","6500500","新莊區"
"242002","349-TH","2018/03/23 20:29:12","新北市新莊區中正路74號","121.45878","25.03797","6500500","新莊區"
"242019","350-TH","2018/03/23 20:29:20","新北市新莊區銘德街99號","121.455895","25.043365","6500500","新莊區"
"242013","351-TH","2018/03/23 20:29:27","新北市新莊區中和街191巷1-1號","121.447781666667","25.0510933333333","6500500","新莊區"
"221008","489-VK","2018/03/23 20:29:24","新北市汐止區康寧街519-1號","121.633295","25.06864","6501100","汐止區"
"221036","130-UY","2018/03/23 20:29:26","新北市汐止區新台五路二段78-1號","121.662025","25.0658616666667","6501100","汐止區"
"221025","131-UY","2018/03/23 20:29:21","新北市汐止區水源路二段88巷1弄9號","121.65662","25.0554383333333","6501100","汐止區"
"221010","269-BY","2018/03/23 20:29:15","新北市汐止區八連路二段551巷2號","121.628453333333","25.1074233333333","6501100","汐止區"
"221012","278-VK","2018/03/23 20:29:26","新北市汐止區大同路三段279號","121.6742","25.075055","6501100","汐止區"
"221023","279-VK","2018/03/23 20:29:20","新北市汐止區湖東街76巷1號","121.635826666667","25.0734966666667","6501100","汐止區"
"221032","280-BY","2018/03/23 20:29:14","新北市汐止區弘道街53巷16號","121.618721666667","25.0491466666667","6501100","汐止區"
"221027","281-BY","2018/03/23 20:29:29","新北市汐止區中正路188號","121.658955","25.0690766666667","6501100","汐止區"
"221029","298-VK","2018/03/23 20:29:01","新北市汐止區樟樹一路135巷28號","121.640928333333","25.0656816666667","6501100","汐止區"
"221021","299-VK","2018/03/23 20:29:15","新北市汐止區水源路一段282巷2號","121.654005","25.0584433333333","6501100","汐止區"
"221031","353-TW","2018/03/23 20:29:26","新北市汐止區福德一路237號","121.634263333333","25.0647433333333","6501100","汐止區"
"221035","622-UM","2018/03/23 20:29:19","新北市汐止區長江街101-5號","121.658678333333","25.073175","6501100","汐止區"
"221038","646-BX","2018/03/23 20:29:24","新北市汐止區水源路一段56-1號","121.657188333333","25.0653833333333","6501100","汐止區"
"221033","647-BX","2018/03/23 20:29:19","新北市汐止區林森街73巷9號","121.623608333333","25.0410833333333","6501100","汐止區"
"221002","707-TV","2018/03/23 20:29:23","新北市汐止區福德三路63號","121.637045","25.0692533333333","6501100","汐止區"
"221018","753-BX","2018/03/23 20:29:09","新北市汐止區茄苳路225巷13號","121.671443333333","25.069315","6501100","汐止區"
"220083","286-VK","2018/03/23 20:29:14","新北市板橋區僑中二街108巷15號","121.445113333333","25.0073216666667","6500100","板橋區"
"242011","281-VK","2018/03/23 20:29:12","新北市新莊區中榮街102號","121.447265","25.0528833333333","6500500","新莊區"
"242041","280-VK","2018/03/23 20:29:28","新北市新莊區中正路694巷10號","121.418406666667","25.0284166666667","6500500","新莊區"
"220103","561-BX","2018/03/23 20:29:14","新北市板橋區漢生東路63巷28號","121.466986666667","25.0172033333333","6500100","板橋區"
"220102","KEA-2699","2018/03/23 20:29:27","新北市板橋區文化路一段322-1號","121.467821666667","25.0224716666667","6500100","板橋區"
"220089","833-TW","2018/03/23 20:29:19","新北市板橋區四維路341號","121.462435","25.0297283333333","6500100","板橋區"
"220070","AAC-253","2018/03/23 20:29:24","新北市泰山區楓江路112巷6號","121.43905","25.064","6500100","板橋區"
