"lineid","car","time","location","longitude","latitude","cityid","cityname"
"248005","653-BX","2018/02/23 09:19:30","新北市五股區水碓三路63號","121.430391666667","25.0715533333333","6501500","五股區"
"222005","289-BY","2018/02/23 09:19:07","新北市深坑區土庫尖路75-1號","121.631291666667","25.018165","6501800","深坑區"
"231007","189-VK","2018/02/23 09:19:37","新北市新店區新潭路三段220號","121.50328","24.9041616666667","6500600","新店區"
"231009","192-VK","2018/02/23 09:19:19","新北市新店區廣興路167號","121.537108333333","24.90814","6500600","新店區"
"235001","611-BX","2018/02/23 09:19:29","新北市中和區中山路三段63巷9號","121.477246666667","25.0042166666667","6500300","中和區"
"226001","7418-A5","2018/02/23 08:50:52","新北市平溪區東勢里番仔坑16號","121.75521","24.9913766666667","6502400","平溪區"
"223001","205-TH","2018/02/23 09:19:24","新北市石碇區北宜路四段10號","121.61518","24.9610216666667","6501900","石碇區"
"223008","406-TH","2018/02/23 09:12:43","新北市石碇區南勢坑2-3號","121.699323333333","24.9904433333333","6501900","石碇區"
"223004","660-BX","2018/02/23 09:19:36","新北市石碇區碇坪路二段19號","121.681956666667","24.9754916666667","6501900","石碇區"
"223007","661-BX","2018/02/23 09:15:33","新北市石碇區南勢坑4-1號","121.69798","24.9832366666667","6501900","石碇區"
"223005","677-TV","2018/02/23 09:19:30","新北市石碇區碇坪路二段35號","121.68483","24.9767033333333","6501900","石碇區"
"227005","282-VK","2018/02/23 09:19:23","新北市雙溪區泰平里溪尾寮3號","121.81883","24.9704166666667","6502500","雙溪區"
"237001","159-UY","2018/02/23 09:19:31","新北市三峽區大學路156號","121.373533333333","24.945565","6500900","三峽區"
"236010","165-UM","2018/02/23 09:19:32","新北市土城區大安路2號","121.432823333333","24.96555","6501300","土城區"
"236006","498-BY","2018/02/23 09:19:33","新北市土城區承天路37號","121.437773333333","24.964525","6501300","土城區"
