"lineid","car","time","location","longitude","latitude","cityid","cityname"
"248005","653-BX","2018/02/23 09:39:30","新北市五股區成泰路一段7巷38號","121.432676666667","25.0670366666667","6501500","五股區"
"222005","289-BY","2018/02/23 09:39:18","新北市深坑區昇高坑路15號","121.624228333333","25.00067","6501800","深坑區"
"231007","189-VK","2018/02/23 09:39:37","新北市新店區新潭路三段215巷25號","121.508178333333","24.9040533333333","6500600","新店區"
"231009","192-VK","2018/02/23 09:35:49","新北市新店區平廣路一段256號","121.507873333333","24.888275","6500600","新店區"
"227005","282-VK","2018/02/23 09:36:03","新北市雙溪區泰平里溪尾寮1號","121.820925","24.9604383333333","6502500","雙溪區"
"237001","159-UY","2018/02/23 09:39:31","新北市三峽區國學街12-1號","121.373405","24.9416716666667","6500900","三峽區"
"236010","165-UM","2018/02/23 09:39:32","新北市土城區中央路四段454號","121.410336666667","24.9510233333333","6501300","土城區"
"236006","498-BY","2018/02/23 09:39:33","新北市土城區千歲路9號","121.440855","24.9697933333333","6501300","土城區"
