"lineid","car","time","location","longitude","latitude","cityid","cityname"
"234044","148-BY","2018/02/23 12:59:39","新北市永和區得和路373巷31弄8號","121.524641666667","25.0007416666667","6500400","永和區"
"234066","149-BY","2018/02/23 12:59:28","新北市永和區永和路一段22號","121.513036666667","25.004815","6500400","永和區"
"234005","207-UY","2018/02/23 12:59:23","新北市永和區中山路一段36號","121.513413333333","25.0105316666667","6500400","永和區"
"234078","298-R6","2018/02/23 12:59:36","新北市永和區永貞路19號","121.520901666667","25.0070466666667","6500400","永和區"
"234036","336-UY","2018/02/23 12:59:24","新北市中和區秀朗路三段38號","121.526488333333","24.9959233333333","6500400","永和區"
"234062","337-UY","2018/02/23 12:59:29","新北市永和區秀朗路一段170號","121.51865","25.0033333333333","6500400","永和區"
"234084","338-UY","2018/02/23 12:59:42","新北市永和區永寧街131巷1號","121.518103333333","25.0052433333333","6500400","永和區"
"234068","552-UM","2018/02/23 12:59:39","新北市永和區中興街92號","121.518771666667","25.0119566666667","6500400","永和區"
"234015","745-BX","2018/02/23 12:59:26","新北市永和區永和路二段299號","121.516053333333","25.0161383333333","6500400","永和區"
"234028","746-BX","2018/02/23 12:59:37","新北市永和區四維街38號","121.525476666667","24.9981","6500400","永和區"
"234052","KEA-2590","2018/02/23 12:59:34","新北市永和區竹林路66巷2號","121.518165","25.0134383333333","6500400","永和區"
"234012","KEA-2591","2018/02/23 12:59:34","新北市永和區信義路17巷10號","121.51383","25.0116633333333","6500400","永和區"
"234060","AAD-866","2018/02/23 12:59:23","新北市永和區福和路303號","121.516361666667","25.0071116666667","6500400","永和區"
"234040","862-TW","2018/02/23 12:59:37","新北市永和區永貞路322號","121.511575","25.0051233333333","6500400","永和區"
"234048","863-TW","2018/02/23 12:59:37","新北市永和區文化路194號","121.510818333333","25.0162816666667","6500400","永和區"
"234025","9371-KE","2018/02/23 12:59:36","新北市永和區永和路一段41號","121.512733333333","25.0062","6500400","永和區"
"234010","9373-KE","2018/02/23 12:59:25","新北市永和區文化路9巷22弄60號","121.513828333333","25.0144766666667","6500400","永和區"
"248019","225-UY","2018/02/23 12:59:27","新北市五股區中興路二段83巷26-6號","121.460075","25.07525","6501500","五股區"
"234022","9380-KE","2018/02/23 12:59:26","新北市永和區竹林路91巷60弄70號","121.522996666667","25.0123366666667","6500400","永和區"
"234076","969-R7","2018/02/23 12:59:40","新北市永和區民享街21號","121.515618333333","24.995","6500400","永和區"
"234072","AAC-211","2018/02/23 12:59:38","新北市永和區福和路1號","121.526141666667","25.0097833333333","6500400","永和區"
"234001","AAC-295","2018/02/23 12:59:39","新北市永和區永平路28號","121.513211666667","25.0087883333333","6500400","永和區"
"244004","248-BX","2018/02/23 12:59:35","新北市林口區粉寮路一段77-2號","121.397056666667","25.079315","6501700","林口區"
"231002","002-UM","2018/02/23 12:59:24","新北市新店區安華路28-1號","121.519733333333","24.9608583333333","6500600","新店區"
"231028","046-UY","2018/02/23 12:59:37","新北市新店區安華路28-1號","121.519801666667","24.9610716666667","6500600","新店區"
"231030","047-UY","2018/02/23 12:59:33","新北市新店區安華路28-1號","121.519115","24.9609133333333","6500600","新店區"
"231029","106-UY","2018/02/23 12:59:37","新北市新店區安華路28-1號","121.519666666667","24.9609666666667","6500600","新店區"
"231018","107-UY","2018/02/23 12:59:35","新北市新店區安華路28-1號","121.51961","24.9615","6500600","新店區"
"231022","187-VK","2018/02/23 12:59:25","新北市新店區安華路28-1號","121.519781666667","24.9612816666667","6500600","新店區"
"231016","KEA-2219","2018/02/23 12:59:34","新北市新店區安華路28-1號","121.519753333333","24.9614316666667","6500600","新店區"
"231010","278-BY","2018/02/23 12:49:19","新北市新店區安華路28-1號","121.519665","24.9611616666667","6500600","新店區"
"231023","AAD-862","2018/02/23 12:59:37","新北市新店區安華路28-1號","121.519965","24.9608216666667","6500600","新店區"
"231024","4716-K9","2018/02/23 12:59:24","新北市新店區安華路28-1號","121.519656666667","24.9609983333333","6500600","新店區"
"231038","4715-K9","2018/02/23 12:59:34","新北市新店區安華路28-1號","121.519448333333","24.9605916666667","6500600","新店區"
"231036","512-UM","2018/02/23 12:59:34","新北市新店區安華路28-1號","121.519346666667","24.961315","6500600","新店區"
"231001","618-UM","2018/02/23 12:59:26","新北市新店區安華路28-1號","121.519485","24.961125","6500600","新店區"
"231034","645-TV","2018/02/23 12:59:35","新北市新店區安華路28-1號","121.51933","24.9606183333333","6500600","新店區"
"231013","719-UM","2018/02/23 12:52:57","新北市新店區安華路28-1號","121.519483333333","24.9609916666667","6500600","新店區"
"231032","720-UM","2018/02/23 12:59:23","新北市新店區安華路28-1號","121.51922","24.961185","6500600","新店區"
"231005","897-TW","2018/02/23 12:59:38","新北市新店區安華路28-1號","121.51972","24.96074","6500600","新店區"
"231004","899-TW","2018/02/23 12:59:43","新北市新店區安華路28-1號","121.519308333333","24.9609166666667","6500600","新店區"
"231037","AKT-0513","2018/02/23 12:59:23","新北市新店區安華路28-1號","121.519626666667","24.9606133333333","6500600","新店區"
"235027","006-UY","2018/02/23 12:59:29","新北市中和區員山路36巷16-3號","121.485093333333","24.9912733333333","6500300","中和區"
"235029","098-UM","2018/02/23 12:59:40","新北市中和區板南路399巷2號","121.493345","24.9990216666667","6500300","中和區"
"235022","151-BY","2018/02/23 12:59:27","新北市中和區中正路395號","121.489248333333","24.9935083333333","6500300","中和區"
"235002","185-VK","2018/02/23 12:59:26","新北市中和區自立路12號","121.5224","24.9963533333333","6500300","中和區"
"235031","255-BX","2018/02/23 12:59:29","新北市中和區中山路二段449號","121.483973333333","25.0049566666667","6500300","中和區"
"235036","301-VK","2018/02/23 12:59:31","新北市中和區員山路36巷12號","121.48394","24.9910683333333","6500300","中和區"
"235035","269-TV","2018/02/23 12:59:41","新北市中和區民樂路81號","121.485021666667","25.00128","6500300","中和區"
"235001","611-BX","2018/02/23 12:59:38","新北市中和區中山路三段120-15號","121.474638333333","25.0087533333333","6500300","中和區"
"235015","157-BY","2018/02/23 12:59:37","新北市中和區員山路36巷13號","121.484236666667","24.9908933333333","6500300","中和區"
"235001","AAC-213","2018/02/23 12:59:24","新北市中和區錦和路350-1號","121.490535","24.993595","6500300","中和區"
"235005","251-BX","2018/02/23 12:59:36","新北市中和區員山路36巷16-2號","121.485296666667","24.9916866666667","6500300","中和區"
"207002","749-BX","2018/02/23 12:59:41","新北市萬里區雙興里大坪路49號","121.622631666667","25.1737916666667","6502800","萬里區"
"207001","662-BX","2018/02/23 12:59:40","新北市萬里區萬里里獅頭路22-1號","121.692868333333","25.1782116666667","6502800","萬里區"
"236006","498-BY","2018/02/23 12:59:39","新北市土城區亞洲路32巷8號","121.435781666667","24.9745116666667","6501300","土城區"
"221032","280-BY","2018/02/23 12:59:27","新北市汐止區建成路57巷22號","121.662308333333","25.0726966666667","6501100","汐止區"
