"lineid","car","time","location","longitude","latitude","cityid","cityname"
"234044","148-BY","2018/02/23 13:29:39","新北市永和區秀朗路二段181巷8號","121.526286666667","25.0013383333333","6500400","永和區"
"234066","149-BY","2018/02/23 13:29:28","新北市永和區保平路190號","121.510476666667","25.0064566666667","6500400","永和區"
"234005","207-UY","2018/02/23 13:29:23","新北市永和區中山路一段149號","121.510003333333","25.009555","6500400","永和區"
"234078","298-R6","2018/02/23 13:29:36","新北市永和區國中路104巷6號","121.524725","25.0068933333333","6500400","永和區"
"234036","336-UY","2018/02/23 13:29:44","新北市永和區民樂街28號","121.527475","25.0014733333333","6500400","永和區"
"234062","337-UY","2018/02/23 13:29:34","新北市永和區中正路368巷1弄84號","121.520386666667","25.0007516666667","6500400","永和區"
"234084","338-UY","2018/02/23 13:29:40","新北市永和區成功路一段38巷11號","121.526378333333","25.0044983333333","6500400","永和區"
"234068","552-UM","2018/02/23 13:29:39","新北市永和區竹林路185號","121.520545","25.0096983333333","6500400","永和區"
"234015","745-BX","2018/02/23 13:29:27","新北市永和區永和路二段425巷5號","121.515251666667","25.01776","6500400","永和區"
"234028","746-BX","2018/02/23 13:29:31","新北市永和區民生路75號","121.522651666667","24.9970066666667","6500400","永和區"
"234052","KEA-2590","2018/02/23 13:29:33","新北市永和區復興街3號","121.515623333333","25.01292","6500400","永和區"
"234012","KEA-2591","2018/02/23 13:29:34","新北市永和區中山路一段184巷9弄19號","121.508143333333","25.00893","6500400","永和區"
"234060","AAD-866","2018/02/23 13:29:23","新北市永和區中正路532號","121.517276666667","25.0051766666667","6500400","永和區"
"234040","862-TW","2018/02/23 13:29:37","新北市永和區水源街39巷14號","121.510566666667","25.0036566666667","6500400","永和區"
"234048","863-TW","2018/02/23 13:29:37","新北市永和區仁愛路159號","121.510983333333","25.01287","6500400","永和區"
"234025","9371-KE","2018/02/23 13:29:36","新北市永和區永和路一段155-4號","121.51429","25.0094633333333","6500400","永和區"
"234010","9373-KE","2018/02/23 13:29:25","新北市永和區信義路25巷53號","121.512275","25.0115233333333","6500400","永和區"
"248019","225-UY","2018/02/23 13:29:27","新北市五股區天乙路116號","121.447515","25.1143233333333","6501500","五股區"
"234022","9380-KE","2018/02/23 13:29:26","新北市永和區竹林路91巷43弄2號","121.521325","25.01282","6500400","永和區"
"234076","969-R7","2018/02/23 13:29:36","新北市永和區智光街22號","121.517866666667","24.9992883333333","6500400","永和區"
"234072","AAC-211","2018/02/23 13:29:38","新北市永和區光復街60巷20弄2號","121.517738333333","25.0175583333333","6500400","永和區"
"234001","AAC-295","2018/02/23 13:29:39","新北市永和區自強街2號","121.514101666667","25.00798","6500400","永和區"
"244004","248-BX","2018/02/23 13:29:35","新北市林口區頂福里85-1號","121.351186666667","25.0801916666667","6501700","林口區"
"231002","002-UM","2018/02/23 13:29:44","新北市新店區環河路62號","121.537115","24.962685","6500600","新店區"
"231025","0293-UT","2018/02/23 13:29:36","新北市新店區中央七街61巷1號","121.528256666667","24.9765433333333","6500600","新店區"
"231028","046-UY","2018/02/23 13:29:37","新北市新店區安康路一段355-3號","121.519808333333","24.96235","6500600","新店區"
"231030","047-UY","2018/02/23 13:29:33","新北市新店區安康路一段355-1號","121.518985","24.9639233333333","6500600","新店區"
"231029","106-UY","2018/02/23 13:29:37","新北市新店區安豐路49號","121.5","24.9540316666667","6500600","新店區"
"231018","107-UY","2018/02/23 13:29:35","新北市新店區環河路113-1號","121.530993333333","24.9711116666667","6500600","新店區"
"231012","108-UY","2018/02/23 13:29:42","新北市新店區德正街11號","121.543645","24.9731","6500600","新店區"
"231022","187-VK","2018/02/23 13:29:25","新北市新店區新烏路一段130號","121.544071666667","24.9338383333333","6500600","新店區"
"231016","KEA-2219","2018/02/23 13:29:34","新北市新店區北宜路二段30巷5弄2號","121.547976666667","24.950825","6500600","新店區"
"231026","256-BX","2018/02/23 13:29:35","新北市新店區安康路一段35-5號","121.531918333333","24.960685","6500600","新店區"
"231010","278-BY","2018/02/23 13:29:39","新北市新店區自由街12號","121.535295","24.9748616666667","6500600","新店區"
"231023","AAD-862","2018/02/23 13:29:37","新北市新店區新店路13號","121.54034","24.9528916666667","6500600","新店區"
"231027","3712-VJ","2018/02/23 13:29:30","新北市新店區新店後街54號","121.537848333333","24.9539366666667","6500600","新店區"
"231024","4716-K9","2018/02/23 13:29:24","新北市新店區北新路二段59巷5號","121.542248333333","24.9730716666667","6500600","新店區"
"231038","4715-K9","2018/02/23 13:29:34","新北市新店區安華路30巷1號","121.519575","24.9592683333333","6500600","新店區"
"231036","512-UM","2018/02/23 13:29:33","新北市新店區安祥路190巷10號","121.479393333333","24.9570616666667","6500600","新店區"
"231035","515-UM","2018/02/23 13:29:34","新北市新店區安忠路16號","121.514616666667","24.96221","6500600","新店區"
"231001","618-UM","2018/02/23 13:29:26","新北市新店區安康路一段35號","121.531728333333","24.9606783333333","6500600","新店區"
"231003","641-BX","2018/02/23 13:29:30","新北市新店區光明街125號","121.539155","24.9618983333333","6500600","新店區"
"231034","645-TV","2018/02/23 13:29:35","新北市新店區車子路109號","121.505236666667","24.95212","6500600","新店區"
"231013","719-UM","2018/02/23 13:29:37","新北市新店區中正路454-5號","121.534463333333","24.9790416666667","6500600","新店區"
"231032","720-UM","2018/02/23 13:29:43","新北市新店區安華路30巷12-1號","121.518376666667","24.9575283333333","6500600","新店區"
"231005","897-TW","2018/02/23 13:29:38","新北市新店區中興路二段192號","121.548323333333","24.97354","6500600","新店區"
"231006","898-TW","2018/02/23 13:29:34","新北市新店區安康路一段35號","121.531598333333","24.9607933333333","6500600","新店區"
"231004","899-TW","2018/02/23 13:29:43","新北市新店區安康路一段70號","121.528368333333","24.96178","6500600","新店區"
"231037","AKT-0513","2018/02/23 13:29:23","新北市新店區薏仁坑路35號","121.493263333333","24.9628966666667","6500600","新店區"
"235030","003-UY","2018/02/23 13:29:36","新北市中和區中山路二段119號","121.502845","25.0035666666667","6500300","中和區"
"235028","005-UY","2018/02/23 13:29:28","新北市中和區圓通路141巷17號","121.49897","24.9952666666667","6500300","中和區"
"235027","006-UY","2018/02/23 13:29:29","新北市中和區連城路347巷6弄2號","121.488338333333","24.9953583333333","6500300","中和區"
"235020","096-UM","2018/02/23 13:29:31","新北市中和區中山路二段586-2號","121.482356666667","25.005455","6500300","中和區"
"235003","097-UM","2018/02/23 13:29:31","新北市中和區景新街293號","121.509986666667","24.9931683333333","6500300","中和區"
"235029","098-UM","2018/02/23 13:29:40","新北市中和區莊敬路49巷10弄28號","121.502745","25.0055433333333","6500300","中和區"
"235004","150-BY","2018/02/23 13:25:14","新北市中和區安平路59號","121.509551666667","24.9950816666667","6500300","中和區"
"235022","151-BY","2018/02/23 13:29:27","新北市中和區圓通路369巷193號","121.489121666667","24.9813983333333","6500300","中和區"
"235019","183-VK","2018/02/23 13:29:22","新北市中和區莒光路207號","121.470011666667","24.9956483333333","6500300","中和區"
"235002","185-VK","2018/02/23 13:29:26","新北市中和區立人街14巷40弄8號","121.519083333333","24.9957783333333","6500300","中和區"
"235013","186-VK","2018/02/23 13:29:39","新北市中和區景安路130號","121.505076666667","24.994435","6500300","中和區"
"235031","255-BX","2018/02/23 13:29:29","新北市中和區員山路148巷41號","121.482548333333","24.9971616666667","6500300","中和區"
"235008","293-VK","2018/02/23 13:29:31","新北市中和區復興路301巷15號","121.501525","24.9897766666667","6500300","中和區"
"235036","301-VK","2018/02/23 13:29:31","新北市中和區連城路265號","121.491318333333","24.9964066666667","6500300","中和區"
"235007","352-BY","2018/02/23 13:29:24","新北市中和區景平路321號","121.506103333333","24.9932483333333","6500300","中和區"
"235032","377-QA","2018/02/23 13:28:01","新北市中和區圓通路287號","121.4952","24.99278","6500300","中和區"
"235025","378-QA","2018/02/23 13:29:33","新北市中和區民享街93巷14號","121.475306666667","25.0009633333333","6500300","中和區"
"235035","269-TV","2018/02/23 13:29:21","新北市中和區光環路二段24號","121.483091666667","25.01447","6500300","中和區"
"235014","4979-A6","2018/02/23 13:29:31","新北市中和區景新街362巷5號","121.511996666667","24.990125","6500300","中和區"
"235033","4980-A6","2018/02/23 13:29:28","新北市中和區連城路127巷11號","121.496566666667","24.9985033333333","6500300","中和區"
"235006","551-UM","2018/02/23 13:29:42","新北市中和區自立路56巷11號","121.522998333333","24.9916583333333","6500300","中和區"
"235009","565-BX","2018/02/23 13:29:43","新北市中和區南山路236巷20弄5號","121.505663333333","24.9893783333333","6500300","中和區"
"235018","640-BX","2018/02/23 13:29:28","新北市中和區民享街82號","121.474343333333","25.0012916666667","6500300","中和區"
"235011","732-UM","2018/02/23 13:29:40","新北市中和區南山路300號","121.507788333333","24.9871416666667","6500300","中和區"
"235026","800-TS","2018/02/23 13:29:25","新北市中和區景平路728號","121.496635","25.0038033333333","6500300","中和區"
"235021","801-TS","2018/02/23 13:29:35","新北市中和區民享街97巷19號","121.475433333333","24.9995633333333","6500300","中和區"
"235016","805-TS","2018/02/23 13:29:31","新北市中和區興南路二段125號","121.505413333333","24.984205","6500300","中和區"
"235012","896-TW","2018/02/23 13:29:26","新北市中和區中正路748號","121.485531666667","24.9985366666667","6500300","中和區"
"235017","900-TW","2018/02/23 13:29:38","新北市中和區民享街457號","121.470438333333","24.993175","6500300","中和區"
"235034","911-UM","2018/02/23 13:29:33","新北市中和區景平路586號","121.501131666667","24.9958616666667","6500300","中和區"
"235015","157-BY","2018/02/23 13:29:37","新北市中和區興南路二段142巷35弄2號","121.50234","24.98467","6500300","中和區"
"235001","AAC-213","2018/02/23 13:29:24","新北市中和區景新街383巷50號","121.514491666667","24.9907733333333","6500300","中和區"
"247007","053-VK","2018/02/23 13:29:42","新北市五股區中興路三段198號","121.441291666667","25.081895","6501400","蘆洲區"
"235005","251-BX","2018/02/23 13:29:36","新北市中和區中和路318號","121.509668333333","25.0005166666667","6500300","中和區"
"207002","749-BX","2018/02/23 13:29:41","新北市萬里區崁腳里崁腳路166號","121.645063333333","25.1558366666667","6502800","萬里區"
"207001","662-BX","2018/02/23 13:29:40","新北市萬里區大鵬里萬里加投9號","121.652616666667","25.208855","6502800","萬里區"
"236006","498-BY","2018/02/23 13:29:39","新北市土城區慶祥街59巷5號","121.43599","24.9728066666667","6501300","土城區"
"221032","280-BY","2018/02/23 13:29:27","新北市汐止區水源路一段56號","121.657535","25.0656883333333","6501100","汐止區"
"220027","145-BY","2018/02/23 13:29:38","新北市板橋區大觀路二段111號","121.446211666667","25.0016233333333","6500100","板橋區"
"220028","200-UY","2018/02/23 13:29:44","新北市板橋區華東街1-9號","121.448168333333","24.9948083333333","6500100","板橋區"
"220030","610-BX","2018/02/23 13:29:32","新北市板橋區華東街1-10號","121.448288333333","24.99492","6500100","板橋區"
"220001","285-VK","2018/02/23 13:29:37","新北市板橋區民生路二段161巷3號","121.470243333333","25.0198516666667","6500100","板橋區"
"220029","287-VK","2018/02/23 13:29:26","新北市板橋區華東街1-10號","121.448348333333","24.9948633333333","6500100","板橋區"
"220032","296-UM","2018/02/23 13:29:39","新北市板橋區華東街1-9號","121.448083333333","24.9949833333333","6500100","板橋區"
"220023","303-R5","2018/02/23 13:29:33","新北市板橋區華東街1-9號","121.448228333333","24.994945","6500100","板橋區"
"220104","560-BX","2018/02/23 13:29:30","新北市板橋區南雅西路二段145巷10號","121.451575","25.011955","6500100","板橋區"
"220025","687-BX","2018/02/23 13:29:25","新北市板橋區大觀路二段265巷7-7號","121.443965","24.9946133333333","6500100","板橋區"
"220002","741-BX","2018/02/23 13:29:25","新北市板橋區華東街1-9號","121.448091666667","24.9948866666667","6500100","板橋區"
"220022","895-R6","2018/02/23 13:29:33","新北市板橋區華東街1-10號","121.448275","24.99495","6500100","板橋區"
"220021","985-R7","2018/02/23 13:29:28","新北市板橋區華東街1-10號","121.448335","24.99501","6500100","板橋區"
"220018","AAC-253","2018/02/23 13:29:38","新北市板橋區華東街1-9號","121.448276666667","24.9948866666667","6500100","板橋區"
