"lineid","car","time","location","longitude","latitude","cityid","cityname"
"234044","148-BY","2018/02/23 13:39:39","新北市永和區永亨路166號","121.526115","25.003505","6500400","永和區"
"234066","149-BY","2018/02/23 13:39:28","新北市永和區永平路173巷9號","121.510095","25.0082433333333","6500400","永和區"
"234005","207-UY","2018/02/23 13:39:43","新北市永和區永和路一段63號","121.513098333333","25.0069716666667","6500400","永和區"
"234078","298-R6","2018/02/23 13:39:36","新北市永和區永亨路98號","121.523023333333","25.00487","6500400","永和區"
"234036","336-UY","2018/02/23 13:39:44","新北市永和區環河東路四段22號","121.528665","24.999515","6500400","永和區"
"234062","337-UY","2018/02/23 13:39:29","新北市永和區秀朗路一段192巷6弄14號","121.519091666667","25.0023116666667","6500400","永和區"
"234084","338-UY","2018/02/23 13:39:36","新北市永和區永利路50號","121.518906666667","25.005325","6500400","永和區"
"234068","552-UM","2018/02/23 13:39:39","新北市永和區永和路二段215號","121.515475","25.0139333333333","6500400","永和區"
"234015","745-BX","2018/02/23 13:39:26","新北市永和區永和路二段299號","121.516101666667","25.0162733333333","6500400","永和區"
"234028","746-BX","2018/02/23 13:39:27","新北市永和區民權路1巷28號","121.521653333333","24.9982216666667","6500400","永和區"
"234052","KEA-2590","2018/02/23 13:39:33","新北市永和區竹林路39巷22號","121.518976666667","25.01473","6500400","永和區"
"234012","KEA-2591","2018/02/23 13:39:34","新北市永和區永平路258號","121.508261666667","25.0113833333333","6500400","永和區"
"234060","AAD-866","2018/02/23 13:39:43","新北市永和區中正路404號","121.517531666667","25.0019233333333","6500400","永和區"
"234040","862-TW","2018/02/23 13:39:44","新北市永和區中和路307號","121.506706666667","24.9998216666667","6500400","永和區"
"234048","863-TW","2018/02/23 13:39:35","新北市永和區保安路29號","121.510011666667","25.016375","6500400","永和區"
"234025","9371-KE","2018/02/23 13:39:36","新北市永和區自由街58號","121.513826666667","25.0059666666667","6500400","永和區"
"234010","9373-KE","2018/02/23 13:39:25","新北市永和區保福路二段70號","121.510575","25.0129283333333","6500400","永和區"
"248019","225-UY","2018/02/23 13:39:27","新北市五股區孝義路108-1號","121.442178333333","25.119875","6501500","五股區"
"234022","9380-KE","2018/02/23 13:39:26","新北市永和區中正路702巷18號","121.516433333333","25.01056","6500400","永和區"
"234076","969-R7","2018/02/23 13:39:39","新北市永和區民族街41巷2號","121.518481666667","24.99864","6500400","永和區"
"234072","AAC-211","2018/02/23 13:39:38","新北市永和區竹林路213巷30號","121.522431666667","25.008975","6500400","永和區"
"234001","AAC-295","2018/02/23 13:39:39","新北市永和區福和路362號","121.514548333333","25.0075583333333","6500400","永和區"
"244004","248-BX","2018/02/23 13:39:35","新北市林口區頂福里5號","121.362026666667","25.0818316666667","6501700","林口區"
"231002","002-UM","2018/02/23 13:39:24","新北市新店區溪園路403號","121.52397","24.9781016666667","6500600","新店區"
"231025","0293-UT","2018/02/23 13:39:36","新北市新店區中央六街58號","121.527843333333","24.9757566666667","6500600","新店區"
"231028","046-UY","2018/02/23 13:39:37","新北市新店區安和路二段120號","121.519026666667","24.9707083333333","6500600","新店區"
"231030","047-UY","2018/02/23 13:39:36","新北市新店區秀山路72號","121.531223333333","24.9609616666667","6500600","新店區"
"231029","106-UY","2018/02/23 13:39:40","新北市新店區安康路二段210-1號","121.509996666667","24.959455","6500600","新店區"
"231018","107-UY","2018/02/23 13:39:35","新北市新店區百忍街17巷2號","121.534168333333","24.9756866666667","6500600","新店區"
"231012","108-UY","2018/02/23 13:39:22","新北市新店區德正街27巷29弄28號","121.54579","24.97229","6500600","新店區"
"231022","187-VK","2018/02/23 13:39:25","新北市新店區新烏路一段231號","121.548838333333","24.9307583333333","6500600","新店區"
"231016","KEA-2219","2018/02/23 13:39:37","新北市新店區竹林路23號","121.551425","24.951545","6500600","新店區"
"231026","256-BX","2018/02/23 13:39:34","新北市新店區光明街115號","121.538925","24.961525","6500600","新店區"
"231010","278-BY","2018/02/23 13:39:39","新北市新店區平等街5號","121.537108333333","24.9741683333333","6500600","新店區"
"231023","AAD-862","2018/02/23 13:39:37","新北市新店區新店路191號","121.537146666667","24.9562166666667","6500600","新店區"
"231027","3712-VJ","2018/02/23 13:39:30","新北市新店區北宜路一段105巷44號","121.54061","24.95582","6500600","新店區"
"231024","4716-K9","2018/02/23 13:39:24","新北市新店區華興街42號","121.536901666667","24.9691066666667","6500600","新店區"
"231038","4715-K9","2018/02/23 13:39:34","新北市新店區安華路30巷1號","121.51957","24.959275","6500600","新店區"
"231036","512-UM","2018/02/23 13:39:33","新北市新店區安祥路111號","121.475626666667","24.9569633333333","6500600","新店區"
"231035","515-UM","2018/02/23 13:39:40","新北市新店區安忠路57巷1-5號","121.513448333333","24.959455","6500600","新店區"
"231001","618-UM","2018/02/23 13:39:38","新北市新店區中正路432號","121.5343","24.9782","6500600","新店區"
"231003","641-BX","2018/02/23 13:39:30","新北市新店區中興路一段290號","121.545853333333","24.969105","6500600","新店區"
"231034","645-TV","2018/02/23 13:39:35","新北市新店區車子路117號","121.505431666667","24.9514366666667","6500600","新店區"
"231013","719-UM","2018/02/23 13:39:37","新北市新店區中正路450號","121.534445","24.9789716666667","6500600","新店區"
"231032","720-UM","2018/02/23 13:39:43","新北市新店區莒光路44巷21弄11-6號","121.518508333333","24.9522183333333","6500600","新店區"
"231005","897-TW","2018/02/23 13:39:38","新北市新店區寶中路72號","121.548008333333","24.9806983333333","6500600","新店區"
"231006","898-TW","2018/02/23 13:39:34","新北市新店區北宜路一段83號","121.538638333333","24.9560333333333","6500600","新店區"
"231004","899-TW","2018/02/23 13:39:43","新北市新店區北新路二段1號","121.542748333333","24.971245","6500600","新店區"
"231037","AKT-0513","2018/02/23 13:39:43","新北市新店區安康路二段389號","121.494541666667","24.9543383333333","6500600","新店區"
"235030","003-UY","2018/02/23 13:39:36","新北市中和區水源路45號","121.504816666667","25.0035616666667","6500300","中和區"
"235028","005-UY","2018/02/23 13:39:28","新北市中和區連城路89巷6號","121.496953333333","24.9995533333333","6500300","中和區"
"235027","006-UY","2018/02/23 13:39:29","新北市中和區連城路389巷8號","121.486493333333","24.9956766666667","6500300","中和區"
"235020","096-UM","2018/02/23 13:39:30","新北市中和區員山路466巷21弄1號","121.48064","25.006975","6500300","中和區"
"235003","097-UM","2018/02/23 13:39:38","新北市中和區大勇街25巷40號","121.515538333333","24.9939216666667","6500300","中和區"
"235029","098-UM","2018/02/23 13:39:40","新北市中和區莊敬路49巷27號","121.501553333333","25.0061166666667","6500300","中和區"
"235004","150-BY","2018/02/23 13:39:34","新北市中和區安平路59號","121.509553333333","24.9951566666667","6500300","中和區"
"235022","151-BY","2018/02/23 13:39:27","新北市中和區員山路7-1號","121.483381666667","24.9854516666667","6500300","中和區"
"235019","183-VK","2018/02/23 13:39:42","新北市中和區國光街102巷40號","121.471246666667","25.0006333333333","6500300","中和區"
"235002","185-VK","2018/02/23 13:39:46","新北市中和區自強路66號","121.519838333333","24.99422","6500300","中和區"
"235013","186-VK","2018/02/23 13:39:39","新北市中和區景安路132巷38號","121.503778333333","24.99463","6500300","中和區"
"235031","255-BX","2018/02/23 13:39:29","新北市中和區新生街186巷1弄28號","121.483328333333","24.9984933333333","6500300","中和區"
"235008","293-VK","2018/02/23 13:39:31","新北市中和區復興路280巷15號","121.502315","24.9914133333333","6500300","中和區"
"235036","301-VK","2018/02/23 13:39:31","新北市中和區中山路二段191號","121.50008","25.00262","6500300","中和區"
"235007","352-BY","2018/02/23 13:39:44","新北市中和區景平路101號","121.51715","24.9917316666667","6500300","中和區"
"235032","377-QA","2018/02/23 13:39:41","新北市中和區中正路167巷15號","121.498448333333","24.9927116666667","6500300","中和區"
"235025","378-QA","2018/02/23 13:39:12","新北市中和區民享街82號","121.474291666667","25.0014166666667","6500300","中和區"
"235035","269-TV","2018/02/23 13:39:41","新北市中和區立德街28號","121.489493333333","25.0069583333333","6500300","中和區"
"235014","4979-A6","2018/02/23 13:39:31","新北市中和區忠孝街124巷10號","121.512846666667","24.985915","6500300","中和區"
"235033","4980-A6","2018/02/23 13:39:28","新北市中和區連城路89巷1號","121.496663333333","25.0000233333333","6500300","中和區"
"235006","551-UM","2018/02/23 13:39:41","新北市中和區成功路97巷5弄25號","121.526515","24.9925866666667","6500300","中和區"
"235009","565-BX","2018/02/23 13:39:43","新北市中和區南山路236巷30弄5號","121.505156666667","24.98843","6500300","中和區"
"235018","640-BX","2018/02/23 13:39:28","新北市中和區民享街32巷15號","121.47298","25.00315","6500300","中和區"
"235024","647-TV","2018/02/23 13:39:45","新北市中和區中山路二段598號","121.482008333333","25.00526","6500300","中和區"
"235011","732-UM","2018/02/23 13:39:40","新北市中和區南山路320巷10弄21號","121.506763333333","24.9866516666667","6500300","中和區"
"235026","800-TS","2018/02/23 13:39:25","新北市中和區中山路二段312巷33弄19號","121.494755","25.003895","6500300","中和區"
"235021","801-TS","2018/02/23 13:39:36","新北市中和區民安街41號","121.479918333333","25.000315","6500300","中和區"
"235016","805-TS","2018/02/23 13:39:31","新北市中和區興南路三段40號","121.496406666667","24.9776983333333","6500300","中和區"
"235012","896-TW","2018/02/23 13:39:26","新北市中和區中正路133號","121.499663333333","24.9934933333333","6500300","中和區"
"235017","900-TW","2018/02/23 13:39:38","新北市中和區民德路266號","121.468021666667","24.996635","6500300","中和區"
"235034","911-UM","2018/02/23 13:39:33","新北市中和區景新街133號","121.505936666667","24.99722","6500300","中和區"
"235015","157-BY","2018/02/23 13:39:37","新北市中和區華新街143巷106弄28號","121.506101666667","24.97881","6500300","中和區"
"235001","AAC-213","2018/02/23 13:39:24","新北市中和區景平路111巷63號","121.51519","24.9903333333333","6500300","中和區"
"220016","013-TV","2018/02/23 13:39:26","新北市板橋區民生路二段161巷9號","121.470305","25.019685","6500100","板橋區"
"220013","072-UY","2018/02/23 13:39:41","新北市板橋區漢生東路260號","121.46808","25.0136183333333","6500100","板橋區"
"220034","073-UY","2018/02/23 13:39:41","新北市板橋區南雅西路二段192巷1弄1號","121.452006666667","25.01445","6500100","板橋區"
"247005","056-VK","2018/02/23 13:39:26","新北市蘆洲區永安南路二段252-1號","121.459778333333","25.080215","6501400","蘆洲區"
"247007","053-VK","2018/02/23 13:39:43","新北市蘆洲區國道路二段88號","121.472063333333","25.07459","6501400","蘆洲區"
"235005","251-BX","2018/02/23 13:39:36","新北市中和區中安街78號","121.5121","25.0020416666667","6500300","中和區"
"207002","749-BX","2018/02/23 13:39:41","新北市萬里區崁腳里崁腳路166號","121.64508","25.155855","6502800","萬里區"
"207001","662-BX","2018/02/23 13:39:40","新北市萬里區磺潭里清水15號","121.637993333333","25.1981","6502800","萬里區"
"236067","105-UM","2018/02/23 13:39:33","新北市土城區城林路6巷80號","121.438591666667","24.97969","6501300","土城區"
"236041","107-UM","2018/02/23 13:39:41","新北市土城區城林路6巷80號","121.438353333333","24.9797866666667","6501300","土城區"
"236077","166-UM","2018/02/23 13:39:44","新北市土城區城林路6巷80號","121.438428333333","24.97982","6501300","土城區"
"236029","253-BX","2018/02/23 13:39:33","新北市土城區城林路6巷80號","121.438408333333","24.9798316666667","6501300","土城區"
"236013","270-VK","2018/02/23 13:39:36","新北市土城區城林路6巷80號","121.438518333333","24.9797133333333","6501300","土城區"
"236006","498-BY","2018/02/23 13:39:39","新北市土城區慶祥街1巷27號","121.437171666667","24.9737416666667","6501300","土城區"
"236046","752-BX","2018/02/23 13:39:39","新北市土城區城林路6巷80號","121.438823333333","24.97966","6501300","土城區"
"236057","912-UM","2018/02/23 13:39:27","新北市土城區城林路6巷80號","121.438375","24.9798583333333","6501300","土城區"
"236054","AAC-216","2018/02/23 13:39:23","新北市土城區城林路6巷80號","121.438711666667","24.9796316666667","6501300","土城區"
"221032","280-BY","2018/02/23 13:39:27","新北市汐止區新台五路一段207號","121.656825","25.0639566666667","6501100","汐止區"
"220027","145-BY","2018/02/23 13:39:45","新北市板橋區幸福路61號","121.460808333333","25.019765","6500100","板橋區"
"220028","200-UY","2018/02/23 13:39:44","新北市板橋區大觀路二段265巷76弄37號","121.44098","24.99674","6500100","板橋區"
"220030","610-BX","2018/02/23 13:39:31","新北市板橋區大觀路二段443-2號","121.438353333333","24.9953016666667","6500100","板橋區"
"220045","257-TC","2018/02/23 13:39:31","新北市板橋區民生路二段161巷3號","121.470213333333","25.01983","6500100","板橋區"
"220004","276-BY","2018/02/23 13:39:27","新北市板橋區四川路二段140巷18號","121.449358333333","24.99332","6500100","板橋區"
"220020","277-BY","2018/02/23 13:39:29","新北市板橋區大觀路三段59巷17弄6-1號","121.437318333333","24.9954033333333","6500100","板橋區"
"220019","283-VK","2018/02/23 13:39:40","新北市板橋區四川路二段140巷12號","121.449493333333","24.993305","6500100","板橋區"
"220043","285-UM","2018/02/23 13:39:37","新北市板橋區民生路二段161巷3號","121.470136666667","25.019815","6500100","板橋區"
"220001","285-VK","2018/02/23 13:39:37","新北市板橋區民生路二段161巷1號","121.470248333333","25.01989","6500100","板橋區"
"220031","286-VK","2018/02/23 13:39:38","新北市板橋區華東街1-10號","121.44806","24.9955916666667","6500100","板橋區"
"220029","287-VK","2018/02/23 13:39:26","新北市板橋區板城路421號","121.447866666667","24.9964433333333","6500100","板橋區"
"220009","293-UM","2018/02/23 13:39:45","新北市板橋區民生路二段120號","121.470383333333","25.0196833333333","6500100","板橋區"
"220032","296-UM","2018/02/23 13:39:19","新北市板橋區大觀路二段179巷34號","121.4463","24.99948","6500100","板橋區"
"220023","303-R5","2018/02/23 13:39:33","新北市板橋區華東街260號","121.452635","25.0016966666667","6500100","板橋區"
"220104","560-BX","2018/02/23 13:39:30","新北市板橋區南雅西路二段145巷10號","121.451548333333","25.01194","6500100","板橋區"
"220052","561-BX","2018/02/23 13:39:27","新北市板橋區民生路二段161巷5號","121.470146666667","25.01973","6500100","板橋區"
"220011","609-BX","2018/02/23 13:39:35","新北市板橋區民生路二段171號","121.4699","25.0201666666667","6500100","板橋區"
"220005","686-BX","2018/02/23 13:39:41","新北市板橋區華東街1-9號","121.448175","24.9949133333333","6500100","板橋區"
"220025","687-BX","2018/02/23 13:39:25","新北市板橋區大觀路三段212巷72號","121.429656666667","24.9934416666667","6500100","板橋區"
"220002","741-BX","2018/02/23 13:39:25","新北市板橋區華東街1-9號","121.448076666667","24.9948916666667","6500100","板橋區"
"220003","827-TW","2018/02/23 13:39:39","新北市板橋區華東街1-9號","121.448153333333","24.9949083333333","6500100","板橋區"
"220014","829-TW","2018/02/23 13:39:43","新北市板橋區民生路二段120號","121.470398333333","25.0196116666667","6500100","板橋區"
"220022","895-R6","2018/02/23 13:39:35","新北市板橋區南雅南路一段8號","121.45592","25.0063566666667","6500100","板橋區"
"220021","985-R7","2018/02/23 13:39:28","新北市板橋區南雅南路二段140號","121.45169","24.99623","6500100","板橋區"
"220018","AAC-253","2018/02/23 13:39:38","新北市板橋區華東街1-9號","121.448276666667","24.9948866666667","6500100","板橋區"
