"lineid","car","time","location","longitude","latitude","cityid","cityname"
"234044","148-BY","2018/02/23 14:09:38","新北市永和區永利路156號","121.522705","25.0027966666667","6500400","永和區"
"234066","149-BY","2018/02/23 14:09:17","新北市永和區保平路214巷1弄12號","121.50903","25.0058216666667","6500400","永和區"
"234005","207-UY","2018/02/23 14:09:43","新北市永和區永貞路317號","121.509941666667","25.0067016666667","6500400","永和區"
"234078","298-R6","2018/02/23 14:09:43","新北市永和區福和路19巷4號","121.524141666667","25.0077516666667","6500400","永和區"
"234036","336-UY","2018/02/23 14:09:44","新北市永和區環河東路三段96號","121.528206666667","25.0040633333333","6500400","永和區"
"234062","337-UY","2018/02/23 14:09:29","新北市永和區永利路150號","121.522386666667","25.00276","6500400","永和區"
"234084","338-UY","2018/02/23 14:09:36","新北市永和區中正路640號","121.516883333333","25.0082966666667","6500400","永和區"
"234068","552-UM","2018/02/23 14:09:43","新北市永和區永貞路10巷7號","121.520176666667","25.007225","6500400","永和區"
"234015","745-BX","2018/02/23 14:09:26","新北市永和區仁愛路93號","121.512953333333","25.01312","6500400","永和區"
"234028","746-BX","2018/02/23 14:09:28","新北市永和區民權路82號","121.519845","24.9972183333333","6500400","永和區"
"234052","KEA-2590","2018/02/23 14:09:39","新北市永和區博愛街24巷1號","121.518395","25.0158266666667","6500400","永和區"
"234012","KEA-2591","2018/02/23 14:09:34","新北市永和區中山路一段214號","121.508418333333","25.00851","6500400","永和區"
"234060","AAD-866","2018/02/23 14:09:23","新北市永和區得和路55號","121.517051666667","25.00018","6500400","永和區"
"234040","862-TW","2018/02/23 14:09:37","新北市永和區雙和街5號","121.509748333333","25.0017216666667","6500400","永和區"
"234048","863-TW","2018/02/23 14:09:37","新北市永和區新生路40巷3弄24號","121.50742","25.015495","6500400","永和區"
"234025","9371-KE","2018/02/23 14:09:36","新北市永和區安樂路270號","121.514506666667","25.0040533333333","6500400","永和區"
"234010","9373-KE","2018/02/23 14:09:25","新北市永和區仁愛路352巷124號","121.50015","25.0084866666667","6500400","永和區"
"248019","225-UY","2018/02/23 14:04:26","新北市五股區凌雲路三段57號","121.425258333333","25.1250133333333","6501500","五股區"
"234022","9380-KE","2018/02/23 14:09:46","新北市永和區博愛街32巷13號","121.518865","25.0153266666667","6500400","永和區"
"234076","969-R7","2018/02/23 14:09:32","新北市永和區民權路100號","121.519963333333","24.9966433333333","6500400","永和區"
"234072","AAC-211","2018/02/23 14:09:38","新北市永和區竹林路201巷22弄14號","121.52282","25.0093533333333","6500400","永和區"
"234001","AAC-295","2018/02/23 14:09:39","新北市永和區中正路696號","121.516545","25.009645","6500400","永和區"
"244004","248-BX","2018/02/23 14:09:35","新北市林口區林口路76號","121.389705","25.080685","6501700","林口區"
"231002","002-UM","2018/02/23 14:09:23","新北市新店區中正路487號","121.533763333333","24.9820966666667","6500600","新店區"
"231025","0293-UT","2018/02/23 14:09:36","新北市新店區中正路312巷16號","121.537916666667","24.9751533333333","6500600","新店區"
"231028","046-UY","2018/02/23 14:09:37","新北市新店區安和路二段233號","121.516975","24.9763","6500600","新店區"
"231030","047-UY","2018/02/23 14:09:33","新北市新店區安民街65巷21-2號","121.515266666667","24.9674533333333","6500600","新店區"
"231029","106-UY","2018/02/23 14:09:37","新北市新店區安康路二段159巷2號","121.510308333333","24.9593216666667","6500600","新店區"
"231018","107-UY","2018/02/23 14:09:35","新北市新店區中央五街8號","121.529875","24.974135","6500600","新店區"
"231012","108-UY","2018/02/23 14:09:42","新北市新店區五峰路63巷8弄1號","121.546888333333","24.9690316666667","6500600","新店區"
"231022","187-VK","2018/02/23 14:09:25","新北市新店區桂山路69號","121.56654","24.900655","6500600","新店區"
"231016","KEA-2219","2018/02/23 14:09:34","新北市新店區中生路22巷4弄1號","121.561513333333","24.9527166666667","6500600","新店區"
"231023","AAD-862","2018/02/23 14:09:37","新北市新店區文中路40號","121.539685","24.9566216666667","6500600","新店區"
"231027","3712-VJ","2018/02/23 14:09:30","新北市新店區光明街138巷13弄9號","121.540146666667","24.9615","6500600","新店區"
"231024","4716-K9","2018/02/23 14:09:24","新北市新店區新生街13巷42-1號","121.538881666667","24.96654","6500600","新店區"
"231038","4715-K9","2018/02/23 14:09:34","新北市新店區溪洲路121號","121.531303333333","24.9626616666667","6500600","新店區"
"231036","512-UM","2018/02/23 14:09:33","新北市新店區安祥路109巷85弄42號","121.478781666667","24.959665","6500600","新店區"
"231035","515-UM","2018/02/23 14:09:34","新北市新店區光華街8巷23號","121.518038333333","24.9698816666667","6500600","新店區"
"231001","618-UM","2018/02/23 14:09:26","新北市新店區中華路52號","121.539603333333","24.9685233333333","6500600","新店區"
"231003","641-BX","2018/02/23 14:09:30","新北市新店區中興路一段203號","121.543588333333","24.9654333333333","6500600","新店區"
"231034","645-TV","2018/02/23 14:09:35","新北市新店區黎明路3號","121.503521666667","24.9524316666667","6500600","新店區"
"231013","719-UM","2018/02/23 14:09:39","新北市新店區北新路三段65巷37號","121.5398","24.9809766666667","6500600","新店區"
"231032","720-UM","2018/02/23 14:09:43","新北市新店區碧潭路123號","121.534263333333","24.95917","6500600","新店區"
"231005","897-TW","2018/02/23 14:09:38","新北市新店區中興路三段295號","121.542266666667","24.9850716666667","6500600","新店區"
"231006","898-TW","2018/02/23 14:09:34","新北市新店區北宜路二段228號","121.559813333333","24.9544233333333","6500600","新店區"
"231004","899-TW","2018/02/23 14:09:43","新北市新店區北新路二段82號","121.543023333333","24.9727883333333","6500600","新店區"
"231037","AKT-0513","2018/02/23 14:09:43","新北市新店區安康路二段382號","121.500278333333","24.9569216666667","6500600","新店區"
"235030","003-UY","2018/02/23 14:09:36","新北市中和區廣福路12-5號","121.505386666667","25.002785","6500300","中和區"
"235028","005-UY","2018/02/23 14:09:28","新北市中和區泰和街36號","121.499268333333","25.000115","6500300","中和區"
"235027","006-UY","2018/02/23 14:09:29","新北市中和區連城路263巷11弄11號","121.49337","24.9955433333333","6500300","中和區"
"235020","096-UM","2018/02/23 14:09:30","新北市中和區員山路536號","121.478823333333","25.0099216666667","6500300","中和區"
"235003","097-UM","2018/02/23 14:09:31","新北市中和區景平路3號","121.523711666667","24.9902366666667","6500300","中和區"
"235029","098-UM","2018/02/23 14:09:40","新北市中和區中山路二段64巷7弄27號","121.502676666667","25.0045466666667","6500300","中和區"
"235004","150-BY","2018/02/23 14:09:34","新北市中和區保健路44巷31號","121.508773333333","24.996405","6500300","中和區"
"235022","151-BY","2018/02/23 14:09:27","新北市中和區連城路477巷6弄17-3號","121.4824","24.9950016666667","6500300","中和區"
"235019","183-VK","2018/02/23 14:09:42","新北市中和區德光路49號","121.470228333333","25.003985","6500300","中和區"
"235002","185-VK","2018/02/23 14:09:26","新北市中和區大仁街10巷27弄3號","121.519185","24.992725","6500300","中和區"
"235013","186-VK","2018/02/23 14:09:39","新北市中和區景新街224-2號","121.507356666667","24.994955","6500300","中和區"
"235031","255-BX","2018/02/23 14:09:29","新北市中和區新生街164號","121.483703333333","25.0002916666667","6500300","中和區"
"235008","293-VK","2018/02/23 14:09:31","新北市中和區中興街214號","121.499461666667","24.98995","6500300","中和區"
"235036","301-VK","2018/02/23 14:09:31","新北市中和區莊敬路33巷12號","121.500351666667","25.0052633333333","6500300","中和區"
"235007","352-BY","2018/02/23 14:09:44","新北市中和區景平路120號","121.519231666667","24.9917833333333","6500300","中和區"
"235032","377-QA","2018/02/23 14:09:41","新北市中和區景平路545巷1弄3號","121.498476666667","24.9991166666667","6500300","中和區"
"235025","378-QA","2018/02/23 14:09:32","新北市中和區員山路349號","121.481258333333","25.0017916666667","6500300","中和區"
"235035","269-TV","2018/02/23 14:09:41","新北市中和區建二路149號","121.487246666667","25.0036283333333","6500300","中和區"
"235014","4979-A6","2018/02/23 14:09:31","新北市中和區復興路249巷11弄3號","121.503516666667","24.9896616666667","6500300","中和區"
"235033","4980-A6","2018/02/23 14:09:28","新北市中和區中和路167號","121.50292","25.0001783333333","6500300","中和區"
"235006","551-UM","2018/02/23 14:09:42","新北市中和區自立路117巷2弄2號","121.52225","24.9944483333333","6500300","中和區"
"235009","565-BX","2018/02/23 14:09:43","新北市中和區景新街467巷35弄4號","121.514616666667","24.9891016666667","6500300","中和區"
"235018","640-BX","2018/02/23 14:09:27","新北市中和區國光街107巷2弄32號","121.469238333333","24.9989866666667","6500300","中和區"
"235024","647-TV","2018/02/23 14:09:40","新北市中和區民有街3號","121.475593333333","25.00571","6500300","中和區"
"235011","732-UM","2018/02/23 14:09:40","新北市中和區興南路一段70號","121.510573333333","24.990205","6500300","中和區"
"235010","733-UM","2018/02/23 14:09:31","新北市中和區忠孝街1號","121.508901666667","24.9831166666667","6500300","中和區"
"235026","800-TS","2018/02/23 14:09:45","新北市中和區中山路二段380巷18號","121.49082","25.0051666666667","6500300","中和區"
"235021","801-TS","2018/02/23 14:09:35","新北市中和區民利街48號","121.479388333333","24.9988133333333","6500300","中和區"
"235016","805-TS","2018/02/23 14:09:35","新北市中和區興南路二段114巷4號","121.504198333333","24.9842966666667","6500300","中和區"
"235012","896-TW","2018/02/23 14:09:26","新北市中和區工專路147號","121.508448333333","24.9787883333333","6500300","中和區"
"235017","900-TW","2018/02/23 14:09:38","新北市中和區華福街71巷32號","121.467695","24.996945","6500300","中和區"
"235034","911-UM","2018/02/23 14:09:33","新北市中和區中和路116號","121.503058333333","24.999715","6500300","中和區"
"235015","157-BY","2018/02/23 14:09:37","新北市中和區興南路一段23號","121.511333333333","24.9908366666667","6500300","中和區"
"235001","AAC-213","2018/02/23 14:09:44","新北市中和區秀朗路三段60巷42號","121.524933333333","24.99495","6500300","中和區"
"235023","AAC-215","2018/02/23 14:09:32","新北市中和區圓通路296巷31弄1號","121.48857","24.990435","6500300","中和區"
"220016","013-TV","2018/02/23 14:09:39","新北市板橋區三民路一段1巷49-1號","121.480831666667","25.0248133333333","6500100","板橋區"
"220013","072-UY","2018/02/23 14:09:41","新北市板橋區民族路219巷44號","121.469428333333","25.0087516666667","6500100","板橋區"
"220034","073-UY","2018/02/23 14:09:41","新北市板橋區中正路236巷78號","121.458196666667","25.019365","6500100","板橋區"
"220105","075-UY","2018/02/23 14:09:43","新北市板橋區雙十路三段9號","121.471663333333","25.03027","6500100","板橋區"
"220017","AAD-861","2018/02/23 14:09:34","新北市板橋區華興街18號","121.459363333333","25.00466","6500100","板橋區"
"247021","893-R6","2018/02/23 14:09:30","新北市蘆洲區三民路169號","121.471205","25.0872","6501400","蘆洲區"
"247019","500-BY","2018/02/23 14:09:35","新北市蘆洲區民族路426巷22號","121.47304","25.0927233333333","6501400","蘆洲區"
"247009","339-TH","2018/02/23 14:09:41","新北市蘆洲區信義路172號","121.479258333333","25.083945","6501400","蘆洲區"
"247001","337-TH","2018/02/23 14:09:27","新北市蘆洲區永平街16號","121.459181666667","25.0905783333333","6501400","蘆洲區"
"247003","336-TH","2018/02/23 14:09:33","新北市蘆洲區長安街110號","121.461031666667","25.0815316666667","6501400","蘆洲區"
"247011","335-TH","2018/02/23 14:09:34","新北市蘆洲區信義路343巷1號","121.477915","25.0870216666667","6501400","蘆洲區"
"247015","057-VK","2018/02/23 14:09:27","新北市蘆洲區中正路185巷44號","121.467343333333","25.0849433333333","6501400","蘆洲區"
"247005","056-VK","2018/02/23 14:09:46","新北市蘆洲區九芎街153巷14號","121.465658333333","25.0787166666667","6501400","蘆洲區"
"247007","053-VK","2018/02/23 14:09:42","新北市蘆洲區中山一路299號","121.47115","25.0787516666667","6501400","蘆洲區"
"247013","007-UY","2018/02/23 14:09:35","新北市蘆洲區忠孝路86號","121.471446666667","25.0858133333333","6501400","蘆洲區"
"247023","002-UY","2018/02/23 14:09:41","新北市蘆洲區光榮路120巷8弄53號","121.463993333333","25.0875233333333","6501400","蘆洲區"
"247017","001-UY","2018/02/23 14:09:33","新北市蘆洲區復興路105巷11號","121.476341666667","25.088335","6501400","蘆洲區"
"235005","251-BX","2018/02/23 14:09:36","新北市中和區中安街178巷3弄2號","121.510638333333","24.999135","6500300","中和區"
"207002","749-BX","2018/02/23 14:06:41","新北市萬里區溪底里瑞泉路21號","121.60465","25.1488633333333","6502800","萬里區"
"207001","662-BX","2018/02/23 14:09:40","新北市萬里區磺潭里清水18號","121.637935","25.1980733333333","6502800","萬里區"
"236067","105-UM","2018/02/23 14:09:32","新北市土城區明德路一段385-1號","121.452485","24.979645","6501300","土城區"
"236041","107-UM","2018/02/23 14:09:41","新北市土城區城林路6巷80號","121.438278333333","24.979855","6501300","土城區"
"236077","166-UM","2018/02/23 14:09:44","新北市土城區永寧路32巷42弄12號","121.428295","24.9617366666667","6501300","土城區"
"236029","253-BX","2018/02/23 14:09:33","新北市土城區城林路6巷80號","121.438405","24.97985","6501300","土城區"
"236024","269-VK","2018/02/23 14:09:31","新北市土城區承天路85號","121.44188","24.962775","6501300","土城區"
"236013","270-VK","2018/02/23 14:09:35","新北市土城區學府路一段124-4號","121.455318333333","24.98739","6501300","土城區"
"236035","271-VK","2018/02/23 14:09:26","新北市土城區明德路一段375-3號","121.454108333333","24.9785866666667","6501300","土城區"
"236019","401-BY","2018/02/23 14:09:25","新北市土城區城林路6巷80號","121.438535","24.9796616666667","6501300","土城區"
"236006","498-BY","2018/02/23 14:09:45","新北市土城區中央路一段29號","121.448251666667","24.9909016666667","6501300","土城區"
"236046","752-BX","2018/02/23 14:09:39","新北市土城區明德路一段365-1號","121.453571666667","24.979065","6501300","土城區"
"236057","912-UM","2018/02/23 14:09:27","新北市土城區中央路四段38號","121.420668333333","24.9607616666667","6501300","土城區"
"236061","915-UM","2018/02/23 14:09:34","新北市土城區金城路三段186號","121.468241666667","24.9879116666667","6501300","土城區"
"236054","AAC-216","2018/02/23 14:09:43","新北市土城區中華路二段100號","121.438055","24.9743983333333","6501300","土城區"
"220027","145-BY","2018/02/23 14:09:37","新北市板橋區民權路302巷1弄1號","121.457295","25.0163433333333","6500100","板橋區"
"220028","200-UY","2018/02/23 14:09:33","新北市板橋區大觀路二段3巷34號","121.44832","25.0035616666667","6500100","板橋區"
"220030","610-BX","2018/02/23 14:09:32","新北市板橋區溪北路49號","121.427741666667","24.9900683333333","6500100","板橋區"
"220050","245-BX","2018/02/23 14:09:34","新北市板橋區民生路二段181號","121.469663333333","25.020425","6500100","板橋區"
"220045","257-TC","2018/02/23 14:09:31","新北市板橋區大同街4號","121.476871666667","25.0267666666667","6500100","板橋區"
"220004","276-BY","2018/02/23 14:09:27","新北市板橋區信義路110巷2弄5號","121.45784","24.9924266666667","6500100","板橋區"
"220020","277-BY","2018/02/23 14:09:29","新北市板橋區金門街372巷33號","121.427305","24.984895","6500100","板橋區"
"220019","283-VK","2018/02/23 14:09:40","新北市板橋區大豐街31號","121.461946666667","25.00129","6500100","板橋區"
"220043","285-UM","2018/02/23 14:09:37","新北市板橋區光武街138號","121.465386666667","25.02995","6500100","板橋區"
"220001","285-VK","2018/02/23 14:09:38","新北市板橋區懷仁街34巷10號","121.47609","25.01921","6500100","板橋區"
"220031","286-VK","2018/02/23 14:09:38","新北市板橋區大觀路二段174巷173弄2號","121.44182","25.0037","6500100","板橋區"
"220029","287-VK","2018/02/23 14:09:26","新北市板橋區南雅西路二段203號","121.4517","25.0133616666667","6500100","板橋區"
"220009","293-UM","2018/02/23 14:09:25","新北市板橋區三民路二段21巷8號","121.479861666667","25.01815","6500100","板橋區"
"220046","295-UM","2018/02/23 14:09:28","新北市板橋區新海路135巷33號","121.460046666667","25.0228416666667","6500100","板橋區"
"220032","296-UM","2018/02/23 14:09:39","新北市板橋區溪崑二街22巷24號","121.428365","24.9919116666667","6500100","板橋區"
"220023","303-R5","2018/02/23 14:09:33","新北市板橋區中正路9號","121.456121666667","25.0121","6500100","板橋區"
"220010","305-R5","2018/02/23 14:09:29","新北市板橋區三民路二段居仁巷2弄17號","121.47976","25.01289","6500100","板橋區"
"220041","307-R5","2018/02/23 14:09:38","新北市板橋區文化路二段225巷62號","121.469245","25.028485","6500100","板橋區"
"220047","317-R6","2018/02/23 14:09:30","新北市板橋區自由路51巷7號","121.465135","25.0233766666667","6500100","板橋區"
"220012","486-VK","2018/02/23 14:09:30","新北市板橋區板新路78號","121.472848333333","25.0142866666667","6500100","板橋區"
"220038","487-VK","2018/02/23 14:09:40","新北市板橋區文化路二段389號","121.47356","25.0315116666667","6500100","板橋區"
"220037","491-VK","2018/02/23 14:09:44","新北市板橋區文化路二段182巷3弄74號","121.472901666667","25.0285733333333","6500100","板橋區"
"220104","560-BX","2018/02/23 14:09:30","新北市板橋區中正路360巷53號","121.456251666667","25.022855","6500100","板橋區"
"220052","561-BX","2018/02/23 14:09:38","新北市板橋區文化路一段188巷9弄124號","121.46908","25.0191683333333","6500100","板橋區"
"220011","609-BX","2018/02/23 14:09:35","新北市板橋區三民路二段202-6號","121.479013333333","25.0144533333333","6500100","板橋區"
"220040","637-BX","2018/02/23 14:09:33","新北市板橋區縣民大道247巷80號","121.482113333333","25.0269066666667","6500100","板橋區"
"220005","686-BX","2018/02/23 14:09:41","新北市板橋區重慶路265號","121.463418333333","24.999835","6500100","板橋區"
"220025","687-BX","2018/02/23 14:09:45","新北市板橋區龍興街24號","121.442975","25.000225","6500100","板橋區"
"220042","689-BX","2018/02/23 14:09:40","新北市板橋區民生路三段255號","121.464545","25.0293183333333","6500100","板橋區"
"220002","741-BX","2018/02/23 14:09:25","新北市板橋區重慶路89巷10號","121.462946666667","25.006485","6500100","板橋區"
"220051","KEA-2699","2018/02/23 14:09:36","新北市板橋區田單街47號","121.482666666667","25.0282666666667","6500100","板橋區"
"220003","827-TW","2018/02/23 14:09:39","新北市板橋區新民街7巷10號","121.463608333333","25.010265","6500100","板橋區"
"220014","829-TW","2018/02/23 14:09:43","新北市板橋區民享街116巷2弄9號","121.477495","25.0155316666667","6500100","板橋區"
"220039","830-TW","2018/02/23 14:09:28","新北市板橋區裕民街54號","121.461383333333","25.0286566666667","6500100","板橋區"
"220022","895-R6","2018/02/23 14:09:33","新北市板橋區後菜園街54號","121.456038333333","25.0100883333333","6500100","板橋區"
"220021","985-R7","2018/02/23 14:09:39","新北市板橋區民權路182號","121.459265","25.01347","6500100","板橋區"
"220018","AAC-253","2018/02/23 14:09:38","新北市板橋區忠孝路28號","121.460338333333","25.0018766666667","6500100","板橋區"
