"lineid","car","time","location","longitude","latitude","cityid","cityname"
"234013","KEA-2591","2018/02/23 16:29:27","新北市永和區福和路1號","121.526313333333","25.0094233333333","6500400","永和區"
"231046","278-BY","2018/02/23 16:29:49","新北市新店區灣潭路3-3號","121.538151666667","24.9506966666667","6500600","新店區"
"241011","013-R5","2018/02/23 16:29:38","新北市三重區秀江街59巷5號","121.500866666667","25.0727666666667","6500200","三重區"
"241028","022-UY","2018/02/23 16:29:37","新北市三重區中正南路157號","121.493848333333","25.0561383333333","6500200","三重區"
"241008","059-VK","2018/02/23 16:29:31","新北市三重區永福街122-2號","121.479041666667","25.0753416666667","6500200","三重區"
"241009","060-VK","2018/02/23 16:29:44","新北市三重區三和路四段191巷76號","121.48437","25.0797883333333","6500200","三重區"
"241031","061-VK","2018/02/23 16:29:43","新北市三重區重陽路一段68號","121.486618333333","25.0585516666667","6500200","三重區"
"241015","062-VK","2018/02/23 16:29:34","新北市三重區福德北路36-1號","121.501765","25.0651833333333","6500200","三重區"
"241017","063-VK","2018/02/23 16:29:47","新北市三重區大同北路65號","121.495045","25.0635733333333","6500200","三重區"
"241026","066-VK","2018/02/23 16:29:37","新北市三重區文化南路42號","121.50039","25.0603566666667","6500200","三重區"
"241002","090-VK","2018/02/23 16:29:40","新北市三重區五華街14號","121.494966666667","25.0801983333333","6500200","三重區"
"241003","156-TC","2018/02/23 16:29:42","新北市三重區仁義街230巷8號","121.494386666667","25.0848683333333","6500200","三重區"
"241005","262-UM","2018/02/23 16:29:35","新北市三重區溪尾街250號","121.487538333333","25.0826383333333","6500200","三重區"
"241016","265-UM","2018/02/23 16:29:38","新北市三重區大智街21號","121.494301666667","25.0657833333333","6500200","三重區"
"241022","267-UM","2018/02/23 16:29:31","新北市三重區新北大道一段86巷17號","121.48603","25.06214","6500200","三重區"
"241018","268-UM","2018/02/23 16:29:39","新北市三重區重陽路四段23號","121.491263333333","25.0694216666667","6500200","三重區"
"241032","269-UM","2018/02/23 16:29:44","新北市三重區三陽路100巷3弄13號","121.483065","25.058065","6500200","三重區"
"241013","270-UM","2018/02/23 16:29:42","新北市三重區三和路三段101巷6號","121.494545","25.072635","6500200","三重區"
"241025","271-UM","2018/02/23 16:29:44","新北市三重區中正北路560巷100弄2號","121.472568333333","25.06822","6500200","三重區"
"241007","398-BY","2018/02/23 16:29:32","新北市三重區三和路四段167巷143號","121.487995","25.0803066666667","6500200","三重區"
"241020","413-TH","2018/02/23 16:29:44","新北市三重區車路頭街37巷34號","121.484856666667","25.0719433333333","6500200","三重區"
"241004","475-VK","2018/02/23 16:29:34","新北市三重區仁愛街377巷2號","121.4916","25.0803933333333","6500200","三重區"
"241024","478-VK","2018/02/23 16:29:42","新北市三重區中正北路193巷27號","121.47618","25.0706116666667","6500200","三重區"
"241030","480-VK","2018/02/23 16:29:41","新北市三重區成功路106-1號","121.48757","25.0514333333333","6500200","三重區"
"241014","543-UM","2018/02/23 16:29:43","新北市三重區河邊北街70-3號","121.504341666667","25.0683933333333","6500200","三重區"
"241023","545-UM","2018/02/23 16:29:37","新北市三重區忠孝路三段50巷84號","121.483061666667","25.06446","6500200","三重區"
"241001","547-UM","2018/02/23 16:29:49","新北市三重區福隆路83號","121.491881666667","25.0781066666667","6500200","三重區"
"241019","KEA-2593","2018/02/23 16:29:32","新北市三重區重陽路三段97號","121.490311666667","25.0679166666667","6500200","三重區"
"241006","AAD-863","2018/02/23 16:29:43","新北市三重區力行路二段125號","121.483111666667","25.0767033333333","6500200","三重區"
"241012","941-UM","2018/02/23 16:29:38","新北市三重區河邊北街385號","121.501631666667","25.0766283333333","6500200","三重區"
"241029","942-UM","2018/02/23 16:29:27","新北市三重區集美街126巷36號","121.490366666667","25.0538883333333","6500200","三重區"
"241033","AAC-255","2018/02/23 16:29:35","新北市三重區重新路五段317巷1弄1號","121.477498333333","25.0491066666667","6500200","三重區"
"235064","005-UY","2018/02/23 16:14:33","新北市中和區員山路36巷16-3號","121.485056666667","24.9913966666667","6500300","中和區"
"235062","800-TS","2018/02/23 16:21:53","新北市中和區員山路36巷16-3號","121.484831666667","24.9915133333333","6500300","中和區"
"224006","676-BX","2018/02/23 16:29:42","新北市瑞芳區三爪子坑路242號","121.805535","25.1058366666667","6501200","瑞芳區"
"224007","273-VK","2018/02/23 16:29:29","新北市瑞芳區大埔路205號","121.762965","25.102145","6501200","瑞芳區"
"224005","271-BY","2018/02/23 16:29:26","新北市瑞芳區瑞芳街32-10號","121.82223","25.120835","6501200","瑞芳區"
"227003","642-TC","2018/02/23 16:29:29","新北市雙溪區上林里內平林129號","121.822951666667","25.0255783333333","6502500","雙溪區"
"227011","400-TW","2018/02/23 16:29:32","新北市雙溪區三港里雙澳路37-5號","121.872526666667","25.0505916666667","6502500","雙溪區"
"251008","181-VK","2018/02/23 16:29:40","新北市淡水區民生路169號","121.470083333333","25.1424566666667","6501000","淡水區"
