"lineid","car","time","location","longitude","latitude","cityid","cityname"
"249005","172-UM","2018/02/23 17:29:30","新北市八里區荖阡坑路69號","121.406291666667","25.1275666666667","6502300","八里區"
"249001","173-UM","2018/02/23 17:29:44","新北市八里區中華路一段272號","121.41603","25.1551916666667","6502300","八里區"
"249004","303-UY","2018/02/23 17:29:43","新北市八里區埤頭二街2-2號","121.414601666667","25.1552483333333","6502300","八里區"
"249002","305-UY","2018/02/23 17:29:31","新北市八里區龍形三街5號","121.451063333333","25.1318583333333","6502300","八里區"
"249003","593-UM","2018/02/23 17:29:37","新北市八里區中山路二段319號","121.40071","25.14759","6502300","八里區"
"244013","069-UM","2018/02/23 17:29:40","新北市林口區粉寮路一段55號","121.396923333333","25.0778383333333","6501700","林口區"
"244007","080-UY","2018/02/23 17:29:46","新北市林口區湖子27號","121.385936666667","25.093475","6501700","林口區"
"244019","402-UM","2018/02/23 17:29:47","新北市林口區文化二路一段378號","121.374075","25.0763116666667","6501700","林口區"
"244023","742-UY","2018/02/23 17:29:35","新北市林口區興林路46號","121.389518333333","25.074635","6501700","林口區"
"244017","485-VK","2018/02/23 17:29:47","新北市林口區忠孝路407號","121.370406666667","25.070595","6501700","林口區"
"244009","657-BX","2018/02/23 17:29:41","新北市林口區中華路325號","121.381961666667","25.0919866666667","6501700","林口區"
"244025","837-TS","2018/02/23 17:29:45","新北市林口區民族路67-1號","121.365528333333","25.0751316666667","6501700","林口區"
"244021","838-TS","2018/02/23 17:29:48","新北市林口區東林街14號","121.396286666667","25.0790083333333","6501700","林口區"
"231046","278-BY","2018/02/23 17:29:49","新北市新店區直潭路92號","121.530906666667","24.937575","6500600","新店區"
"241011","013-R5","2018/02/23 17:29:38","新北市三重區河邊北街122-1號","121.503648333333","25.0713683333333","6500200","三重區"
"241015","062-VK","2018/02/23 17:29:34","新北市三重區長元街65巷22弄20號","121.503591666667","25.066","6500200","三重區"
"241017","063-VK","2018/02/23 17:29:47","新北市三重區大同北路34巷52號","121.49362","25.0619383333333","6500200","三重區"
"241026","066-VK","2018/02/23 17:29:37","新北市三重區正義南路60-6號","121.498366666667","25.060095","6500200","三重區"
"241002","090-VK","2018/02/23 17:29:40","新北市三重區集賢路87-1號","121.493825","25.0869716666667","6500200","三重區"
"241003","156-TC","2018/02/23 17:29:42","新北市三重區富福街2號","121.489875","25.0830866666667","6500200","三重區"
"241005","262-UM","2018/02/23 17:29:51","新北市三重區碧華街1號","121.483445","25.0811216666667","6500200","三重區"
"241016","265-UM","2018/02/23 17:29:38","新北市三重區信義西街41號","121.495273333333","25.0639616666667","6500200","三重區"
"241022","267-UM","2018/02/23 17:29:31","新北市三重區新北大道一段40號","121.48802","25.0614766666667","6500200","三重區"
"241018","268-UM","2018/02/23 17:29:39","新北市三重區新北大道一段7號","121.489738333333","25.0614216666667","6500200","三重區"
"241032","269-UM","2018/02/23 17:29:44","新北市三重區名源街59號","121.482248333333","25.059325","6500200","三重區"
"241025","271-UM","2018/02/23 17:29:44","新北市三重區中正北路392-1號","121.476018333333","25.0702166666667","6500200","三重區"
"241007","398-BY","2018/02/23 17:29:32","新北市三重區三和路四段145巷189號","121.488233333333","25.07938","6500200","三重區"
"241020","413-TH","2018/02/23 17:29:44","新北市三重區忠孝路一段133號","121.488568333333","25.0719133333333","6500200","三重區"
"241024","478-VK","2018/02/23 17:29:42","新北市三重區大勇街82巷15弄24號","121.480785","25.0718833333333","6500200","三重區"
"241030","480-VK","2018/02/23 17:29:31","新北市三重區環河南路257-1號","121.490881666667","25.0502616666667","6500200","三重區"
"241014","543-UM","2018/02/23 17:29:43","新北市三重區安和路13號","121.501361666667","25.0683266666667","6500200","三重區"
"241023","545-UM","2018/02/23 17:29:37","新北市三重區三民街146巷14號","121.481695","25.064555","6500200","三重區"
"241019","KEA-2593","2018/02/23 17:29:32","新北市三重區自強路二段36號","121.489115","25.0693416666667","6500200","三重區"
"241006","AAD-863","2018/02/23 17:29:43","新北市三重區車路頭街139巷12號","121.48424","25.07628","6500200","三重區"
"241012","941-UM","2018/02/23 17:29:37","新北市三重區仁興街41號","121.499165","25.0758616666667","6500200","三重區"
"241033","AAC-255","2018/02/23 17:29:35","新北市三重區興德路133號","121.47004","25.0529183333333","6500200","三重區"
"247022","893-R6","2018/02/23 17:29:33","新北市蘆洲區三民路292號","121.467021666667","25.090425","6501400","蘆洲區"
"247020","500-BY","2018/02/23 17:29:48","新北市蘆洲區水湳街399-8號","121.470011666667","25.09461","6501400","蘆洲區"
"247010","339-TH","2018/02/23 17:29:40","新北市蘆洲區中山一路74巷55號","121.479941666667","25.0815983333333","6501400","蘆洲區"
"247002","337-TH","2018/02/23 17:29:47","新北市蘆洲區永樂街38巷67弄23號","121.457768333333","25.090855","6501400","蘆洲區"
"247004","336-TH","2018/02/23 17:29:39","新北市蘆洲區長安街233巷33號","121.458118333333","25.0822416666667","6501400","蘆洲區"
"247012","335-TH","2018/02/23 17:29:49","新北市蘆洲區民族路66號","121.477301666667","25.0848","6501400","蘆洲區"
"247016","057-VK","2018/02/23 17:29:23","新北市蘆洲區光華路22巷22號","121.468826666667","25.084215","6501400","蘆洲區"
"247006","056-VK","2018/02/23 17:29:34","新北市蘆洲區長安街22巷43號","121.465148333333","25.080795","6501400","蘆洲區"
"247008","053-VK","2018/02/23 17:29:38","新北市蘆洲區信義路34巷46號","121.47504","25.078185","6501400","蘆洲區"
"247014","007-UY","2018/02/23 17:29:32","新北市蘆洲區三民路33號","121.475406666667","25.0830233333333","6501400","蘆洲區"
"247024","002-UY","2018/02/23 17:29:31","新北市蘆洲區長興路331號","121.460753333333","25.0904733333333","6501400","蘆洲區"
"247018","001-UY","2018/02/23 17:29:46","新北市蘆洲區民義街22巷2號","121.47145","25.0884416666667","6501400","蘆洲區"
"228002","663-BX","2018/02/23 17:29:44","新北市貢寮區福隆里興隆街22號","121.944706666667","25.0166566666667","6502600","貢寮區"
"228001","670-TC","2018/02/23 17:29:32","新北市貢寮區仁理村仁愛路37號","121.92493","25.0533333333333","6502600","貢寮區"
"228003","828-UM","2018/02/23 17:29:32","新北市貢寮區仁理村仁和路2-1號","121.923161666667","25.04863","6502600","貢寮區"
"224010","AGQ-8101","2018/02/23 17:26:58","新北市瑞芳區岳王路5號","121.806891666667","25.11029","6501200","瑞芳區"
"224006","676-BX","2018/02/23 17:29:45","新北市瑞芳區傑魚坑路161號","121.789863333333","25.10952","6501200","瑞芳區"
"224009","285-BY","2018/02/23 17:29:45","新北市瑞芳區輕便路40號","121.846125","25.1112783333333","6501200","瑞芳區"
"224008","275-VK","2018/02/23 17:29:43","新北市瑞芳區瑞柑新村1-1號","121.830781666667","25.1058283333333","6501200","瑞芳區"
"224005","271-BY","2018/02/23 17:29:46","新北市瑞芳區海濱路8-6號","121.83174","25.1260416666667","6501200","瑞芳區"
"227003","642-TC","2018/02/23 17:29:49","新北市雙溪區平林里梅竹蹊61號","121.850163333333","25.0318716666667","6502500","雙溪區"
"251009","008-UM","2018/02/23 17:29:43","新北市淡水區新生街108巷12號","121.439658333333","25.1742066666667","6501000","淡水區"
"251004","009-UM","2018/02/23 17:29:48","新北市淡水區中正東路二段88巷15號","121.459045","25.150495","6501000","淡水區"
"251001","011-UM","2018/02/23 17:29:47","新北市淡水區民權路92巷35-1號","121.46219","25.1267366666667","6501000","淡水區"
"251008","181-VK","2018/02/23 17:29:40","新北市淡水區大同路100巷1號","121.46224","25.1396516666667","6501000","淡水區"
"251010","413-VK","2018/02/23 17:29:33","新北市淡水區中正路二段211號","121.426203333333","25.18913","6501000","淡水區"
"251012","441-VK","2018/02/23 17:29:36","新北市淡水區北新路111號","121.44801","25.1785333333333","6501000","淡水區"
"251005","443-VK","2018/02/23 17:29:47","新北市淡水區鄧公路31巷5號","121.451523333333","25.1708066666667","6501000","淡水區"
"251006","561-UM","2018/02/23 17:29:41","新北市淡水區大忠街5巷1號","121.443205","25.1765666666667","6501000","淡水區"
"251007","577-R6","2018/02/23 17:29:43","新北市淡水區民生路47-4號","121.46207","25.1379716666667","6501000","淡水區"
"251011","650-BX","2018/02/23 17:29:41","新北市淡水區坪頂路712號","121.482478333333","25.158415","6501000","淡水區"
"251002","672-BX","2018/02/23 17:29:40","新北市淡水區中正路261號","121.431616666667","25.1748666666667","6501000","淡水區"
"251003","673-BX","2018/02/23 17:29:45","新北市淡水區中正路257號","121.433258333333","25.1744416666667","6501000","淡水區"
"207003","550-UM","2018/02/23 17:29:40","新北市萬里區龜吼里翡翠路17號","121.683403333333","25.187055","6502800","萬里區"
"207004","225-TW","2018/02/23 17:29:38","新北市萬里區萬里里景美路9號","121.684498333333","25.1728966666667","6502800","萬里區"
"252002","178-VK","2018/02/23 17:29:35","新北市三芝區忠孝街1-14號","121.505565","25.25398","6502100","三芝區"
"252001","292-VK","2018/02/23 17:29:45","新北市三芝區淡金路一段3號","121.498095","25.2596233333333","6502100","三芝區"
"237011","KEA-2596","2018/02/23 17:29:33","新北市三峽區中山路459巷163-3號","121.3486","24.9330233333333","6500900","三峽區"
"242029","986-R7","2018/02/23 17:29:46","新北市新莊區復興路二段187號","121.459121666667","25.0444916666667","6500500","新莊區"
"242050","751-BX","2018/02/23 17:29:45","新北市新莊區新樹路443號","121.432608333333","25.0135666666667","6500500","新莊區"
"242025","615-BX","2018/02/23 17:29:37","新北市新莊區中港路281號","121.453158333333","25.0437783333333","6500500","新莊區"
"242023","613-BX","2018/02/23 17:29:40","新北市新莊區公園路27號","121.452798333333","25.0402366666667","6500500","新莊區"
"242027","612-BX","2018/02/23 17:29:45","新北市新莊區思源路32號","121.460211666667","25.0404716666667","6500500","新莊區"
"242039","566-BX","2018/02/23 17:29:46","新北市新莊區民安東路3號","121.427563333333","25.020995","6500500","新莊區"
"242044","497-BY","2018/02/23 17:29:47","新北市新莊區富國路69號","121.419863333333","25.0259966666667","6500500","新莊區"
"242009","441-UM","2018/02/23 17:29:45","新北市新莊區中原路232號","121.452838333333","25.0544266666667","6500500","新莊區"
"242054","440-UM","2018/02/23 17:29:47","新北市新莊區瓊林南路305巷1號","121.434626666667","25.0055283333333","6500500","新莊區"
"242034","415-TV","2018/02/23 17:29:45","新北市新莊區新莊路380號","121.449156666667","25.033455","6500500","新莊區"
"242005","413-TV","2018/02/23 17:29:37","新北市新莊區中港路297號","121.452761666667","25.044375","6500500","新莊區"
"242041","400-BY","2018/02/23 17:29:34","新北市新莊區福營路103號","121.433641666667","25.0320916666667","6500500","新莊區"
"242060","362-BY","2018/02/23 17:29:31","新北市新莊區瓊林路63-2號","121.438266666667","25.020585","6500500","新莊區"
"242058","353-BY","2018/02/23 17:29:32","新北市新莊區中正路615號","121.432363333333","25.0319916666667","6500500","新莊區"
"242007","132-UY","2018/02/23 17:29:50","新北市新莊區自強街30號","121.45475","25.0462116666667","6500500","新莊區"
"242037","133-UY","2018/02/23 17:29:41","新北市新莊區建國一路288巷60號","121.434055","25.0260866666667","6500500","新莊區"
"242021","135-UY","2018/02/23 17:29:41","新北市新莊區中華路一段2號","121.45204","25.0363733333333","6500500","新莊區"
"242046","172-VK","2018/02/23 17:29:40","新北市新莊區新樹路65-6號","121.439458333333","25.03075","6500500","新莊區"
"242015","175-VK","2018/02/23 17:29:41","新北市新莊區新泰路224號","121.446583333333","25.039025","6500500","新莊區"
"242002","176-VK","2018/02/23 17:29:31","新北市新莊區新莊路154號","121.455236666667","25.0354333333333","6500500","新莊區"
"242013","346-TH","2018/02/23 17:29:43","新北市新莊區中誠街14號","121.45202","25.0482033333333","6500500","新莊區"
"242019","348-TH","2018/02/23 17:29:40","新北市新莊區中港路76號","121.455466666667","25.03897","6500500","新莊區"
"242056","349-TH","2018/02/23 17:29:46","新北市新莊區新莊路457號","121.449518333333","25.03325","6500500","新莊區"
"242017","350-TH","2018/02/23 17:29:33","新北市新莊區復興路一段209號","121.452328333333","25.0436083333333","6500500","新莊區"
"242011","351-TH","2018/02/23 17:29:46","新北市新莊區中港路398號","121.452233333333","25.0497566666667","6500500","新莊區"
"238015","755-BX","2018/02/23 17:29:36","新北市樹林區大安路269號","121.418956666667","24.9936866666667","6500700","樹林區"
"238023","601-UM","2018/02/23 17:29:33","新北市樹林區中正路288-48號","121.414825","25.009955","6500700","樹林區"
"238019","599-UM","2018/02/23 17:29:32","新北市樹林區八德街37-3號","121.419168333333","24.9831683333333","6500700","樹林區"
"238018","571-TV","2018/02/23 17:29:42","新北市樹林區鎮前街267號","121.419973333333","24.9859033333333","6500700","樹林區"
"238024","5061-A6","2018/02/23 17:29:41","新北市樹林區鎮前街70-2號","121.425203333333","24.99217","6500700","樹林區"
"238021","KEA-2217","2018/02/23 17:29:32","新北市樹林區民權街36號","121.398591666667","24.9592283333333","6500700","樹林區"
"238022","KEA-2213","2018/02/23 17:29:46","新北市樹林區忠孝街20號","121.42339","24.9822533333333","6500700","樹林區"
"238025","303-VK","2018/02/23 17:29:48","新北市樹林區保安二街110號","121.422478333333","24.995655","6500700","樹林區"
"238017","283-BY","2018/02/23 17:29:37","新北市樹林區光武街32巷10號","121.41673","25.0055633333333","6500700","樹林區"
"238014","282-BY","2018/02/23 17:29:50","新北市樹林區長壽街29-2號","121.420371666667","24.9951683333333","6500700","樹林區"
"238020","268-VK","2018/02/23 17:29:47","新北市樹林區俊英街112號","121.427421666667","25.005485","6500700","樹林區"
"238026","172-UY","2018/02/23 17:29:30","新北市樹林區新興街3號","121.400246666667","24.9740016666667","6500700","樹林區"
"238016","169-UY","2018/02/23 17:29:33","新北市樹林區長壽街28巷4弄1-2號","121.423226666667","24.9944483333333","6500700","樹林區"
"239007","AAC-297","2018/02/23 17:29:46","新北市鶯歌區仁愛路69號","121.355098333333","24.956145","6500800","鶯歌區"
"239006","891-R6","2018/02/23 17:29:36","新北市鶯歌區鶯桃路472巷24號","121.333396666667","24.9657566666667","6500800","鶯歌區"
"239008","527-UM","2018/02/23 17:29:46","新北市鶯歌區大湖路584號","121.33613","24.97358","6500800","鶯歌區"
"239005","526-UM","2018/02/23 17:29:36","新北市鶯歌區鶯桃路二段11號","121.32571","24.9718483333333","6500800","鶯歌區"
"239001","417-VK","2018/02/23 17:29:46","新北市鶯歌區高職西街16號","121.33804","24.942405","6500800","鶯歌區"
"239003","360-BY","2018/02/23 17:29:31","新北市鶯歌區鶯桃路252號","121.335948333333","24.9596","6500800","鶯歌區"
"239004","193-VK","2018/02/23 17:29:34","新北市鶯歌區三鶯路19號","121.356001666667","24.9417","6500800","鶯歌區"
"221033","647-BX","2018/02/23 17:29:32","新北市汐止區汐萬路一段306號","121.650456666667","25.0745866666667","6501100","汐止區"
"242048","281-VK","2018/02/23 17:29:35","新北市新莊區四維路212巷2號","121.42127","25.0202066666667","6500500","新莊區"
"242032","280-VK","2018/02/23 17:29:39","新北市新莊區新泰路401巷28-1號","121.442455","25.04399","6500500","新莊區"
