"lineid","car","time","location","longitude","latitude","cityid","cityname"
"234026","9371-KE","2018/02/23 17:39:39","新北市永和區中正路736號","121.51521","25.0102433333333","6500400","永和區"
"249005","172-UM","2018/02/23 17:39:50","新北市八里區荖阡坑路34號","121.40269","25.1298233333333","6502300","八里區"
"249001","173-UM","2018/02/23 17:39:44","新北市八里區龍米路二段193號","121.433653333333","25.15831","6502300","八里區"
"249004","303-UY","2018/02/23 17:39:43","新北市八里區大崁二街26號","121.418021666667","25.1577366666667","6502300","八里區"
"249002","305-UY","2018/02/23 17:39:31","新北市八里區頂寮二街121巷20-2號","121.44637","25.1277316666667","6502300","八里區"
"249003","593-UM","2018/02/23 17:39:37","新北市八里區中山路二段233號","121.403235","25.14925","6502300","八里區"
"248006","077-UY","2018/02/23 17:39:46","新北市五股區中興路二段37巷28號","121.460105","25.0750166666667","6501500","五股區"
"232011","375-UM","2018/02/23 17:39:49","新北市坪林區北宜路八段347號","121.710851666667","24.93379","6502000","坪林區"
"244013","069-UM","2018/02/23 17:39:40","新北市林口區文化一路二段202號","121.383141666667","25.0808016666667","6501700","林口區"
"244007","080-UY","2018/02/23 17:39:46","新北市林口區林口路272巷2號","121.386378333333","25.0846533333333","6501700","林口區"
"244019","402-UM","2018/02/23 17:39:47","新北市林口區文化一路一段137號","121.373406666667","25.0721933333333","6501700","林口區"
"244023","742-UY","2018/02/23 17:39:42","新北市林口區東明一街108號","121.390656666667","25.07103","6501700","林口區"
"244017","485-VK","2018/02/23 17:39:47","新北市林口區忠孝路382號","121.369825","25.0710283333333","6501700","林口區"
"244009","657-BX","2018/02/23 17:39:41","新北市林口區中北三街178號","121.38309","25.0827066666667","6501700","林口區"
"244025","837-TS","2018/02/23 17:39:45","新北市林口區文化三路一段394巷2號","121.365973333333","25.0730866666667","6501700","林口區"
"244021","838-TS","2018/02/23 17:39:28","新北市林口區仁愛路一段223號","121.397928333333","25.074955","6501700","林口區"
"222002","659-BX","2018/02/23 17:39:37","新北市深坑區深坑街16號","121.615526666667","25.0022016666667","6501800","深坑區"
"231046","278-BY","2018/02/23 17:39:29","新北市新店區直潭路92號","121.530901666667","24.937585","6500600","新店區"
"241005","262-UM","2018/02/23 17:39:35","新北市三重區仁愛街510號","121.487425","25.0821066666667","6500200","三重區"
"241016","265-UM","2018/02/23 17:39:38","新北市三重區重新路二段21號","121.498008333333","25.062415","6500200","三重區"
"241007","398-BY","2018/02/23 17:39:32","新北市三重區永福街256號","121.484378333333","25.07479","6500200","三重區"
"241024","478-VK","2018/02/23 17:39:42","新北市三重區車路頭街52號","121.483883333333","25.0722716666667","6500200","三重區"
"241014","543-UM","2018/02/23 17:39:43","新北市三重區龍濱路19號","121.503078333333","25.0678666666667","6500200","三重區"
"241023","545-UM","2018/02/23 17:39:37","新北市三重區中華路107號","121.483573333333","25.06337","6500200","三重區"
"241019","KEA-2593","2018/02/23 17:39:32","新北市三重區六張街220號","121.487918333333","25.0683483333333","6500200","三重區"
"241006","AAD-863","2018/02/23 17:39:43","新北市三重區車路頭街139巷10號","121.484196666667","25.07631","6500200","三重區"
"241012","941-UM","2018/02/23 17:39:37","新北市三重區河邊北街377號","121.501798333333","25.076435","6500200","三重區"
"241033","AAC-255","2018/02/23 17:39:35","新北市三重區光復路一段37號","121.472325","25.0483416666667","6500200","三重區"
"235064","005-UY","2018/02/23 17:39:48","新北市中和區員山路36巷16-3號","121.484871666667","24.99139","6500300","中和區"
"247022","893-R6","2018/02/23 17:39:33","新北市蘆洲區三民路265號","121.468188333333","25.0895616666667","6501400","蘆洲區"
"247020","500-BY","2018/02/23 17:39:39","新北市蘆洲區民族路446號","121.472998333333","25.0919633333333","6501400","蘆洲區"
"247010","339-TH","2018/02/23 17:39:40","新北市蘆洲區三民路52號","121.47533","25.0835633333333","6501400","蘆洲區"
"247002","337-TH","2018/02/23 17:39:47","新北市蘆洲區永平街32巷11弄5號","121.458578333333","25.091455","6501400","蘆洲區"
"247004","336-TH","2018/02/23 17:39:46","新北市蘆洲區長安街172巷10號","121.459535","25.0834566666667","6501400","蘆洲區"
"247012","335-TH","2018/02/23 17:39:39","新北市蘆洲區民權路3巷2號","121.47632","25.085795","6501400","蘆洲區"
"247016","057-VK","2018/02/23 17:39:03","新北市蘆洲區光華路46巷30號","121.468096666667","25.0840166666667","6501400","蘆洲區"
"247006","056-VK","2018/02/23 17:39:38","新北市蘆洲區長安街23巷1號","121.463995","25.078795","6501400","蘆洲區"
"247008","053-VK","2018/02/23 17:39:49","新北市蘆洲區民生街133號","121.472573333333","25.0792016666667","6501400","蘆洲區"
"247014","007-UY","2018/02/23 17:39:31","新北市蘆洲區中正路33號","121.471188333333","25.08231","6501400","蘆洲區"
"247024","002-UY","2018/02/23 17:39:31","新北市蘆洲區長樂路125-1號","121.462118333333","25.0880533333333","6501400","蘆洲區"
"247018","001-UY","2018/02/23 17:39:41","新北市蘆洲區民權路61巷4弄2號","121.473453333333","25.0878466666667","6501400","蘆洲區"
"228002","663-BX","2018/02/23 17:39:44","新北市貢寮區福隆里龜壽谷街13號","121.95729","25.005385","6502600","貢寮區"
"228001","670-TC","2018/02/23 17:39:32","新北市貢寮區仁理村仁愛路95-1號","121.92772","25.0554566666667","6502600","貢寮區"
"228003","828-UM","2018/02/23 17:39:32","新北市貢寮區仁理村仁和路41號","121.924015","25.0540083333333","6502600","貢寮區"
"224010","AGQ-8101","2018/02/23 17:39:37","新北市瑞芳區逢甲路88號","121.809441666667","25.1087766666667","6501200","瑞芳區"
"224006","676-BX","2018/02/23 17:39:45","新北市瑞芳區中山路257號","121.797296666667","25.1098833333333","6501200","瑞芳區"
"224009","285-BY","2018/02/23 17:39:31","新北市瑞芳區烏勢巷131號","121.84659","25.1073233333333","6501200","瑞芳區"
"224008","275-VK","2018/02/23 17:39:43","新北市瑞芳區明燈路一段33號","121.822565","25.107335","6501200","瑞芳區"
"224005","271-BY","2018/02/23 17:39:46","新北市瑞芳區海濱路38-1號","121.831081666667","25.1235033333333","6501200","瑞芳區"
"251009","008-UM","2018/02/23 17:39:43","新北市淡水區中正路38-1號","121.443731666667","25.1692916666667","6501000","淡水區"
"251004","009-UM","2018/02/23 17:39:48","新北市淡水區中正東路二段179號","121.459978333333","25.1436933333333","6501000","淡水區"
"251001","011-UM","2018/02/23 17:39:47","新北市淡水區民權路92巷35-1號","121.462183333333","25.12671","6501000","淡水區"
"251008","181-VK","2018/02/23 17:39:40","新北市淡水區八勢路30巷19號","121.462531666667","25.153725","6501000","淡水區"
"251010","413-VK","2018/02/23 17:39:33","新北市淡水區淡海路276號","121.419985","25.1883666666667","6501000","淡水區"
"251012","441-VK","2018/02/23 17:39:35","新北市淡水區北新路200巷8號","121.45175","25.17969","6501000","淡水區"
"251016","442-VK","2018/02/23 17:39:46","新北市淡水區頂田寮路953號","121.486128333333","25.2136233333333","6501000","淡水區"
"251005","443-VK","2018/02/23 17:39:35","新北市淡水區鄧公路33巷10號","121.451693333333","25.1709616666667","6501000","淡水區"
"251006","561-UM","2018/02/23 17:39:41","新北市淡水區大信街1巷17號","121.440531666667","25.1767033333333","6501000","淡水區"
"251007","577-R6","2018/02/23 17:39:43","新北市淡水區民生路124巷4弄8號","121.463548333333","25.137975","6501000","淡水區"
"251011","650-BX","2018/02/23 17:39:41","新北市淡水區小坪頂13-3號","121.4866","25.1561733333333","6501000","淡水區"
"251002","672-BX","2018/02/23 17:39:38","新北市淡水區中山路143-5號","121.440553333333","25.1720666666667","6501000","淡水區"
"251003","673-BX","2018/02/23 17:39:45","新北市淡水區中山北路一段49號","121.441643333333","25.1755183333333","6501000","淡水區"
"207003","550-UM","2018/02/23 17:39:40","新北市萬里區龜吼里漁澳路61號","121.687218333333","25.1952183333333","6502800","萬里區"
"207004","225-TW","2018/02/23 17:39:38","新北市萬里區中幅里中福路7-1號","121.68598","25.164675","6502800","萬里區"
"252002","178-VK","2018/02/23 17:39:35","新北市三芝區中正路二段18號","121.504515","25.2552033333333","6502100","三芝區"
"252001","292-VK","2018/02/23 17:39:45","新北市三芝區淡金路二段2號","121.502213333333","25.2591033333333","6502100","三芝區"
"237013","252-BX","2018/02/23 17:39:48","新北市三峽區介壽路一段23號","121.375443333333","24.9332366666667","6500900","三峽區"
"237006","5529-G3","2018/02/23 17:39:32","新北市三峽區介壽路一段552巷17號","121.387748333333","24.9323483333333","6500900","三峽區"
"237011","KEA-2596","2018/02/23 17:39:33","新北市三峽區中山路299巷39號","121.361211666667","24.935725","6500900","三峽區"
"237010","706-TV","2018/02/23 17:39:44","新北市三峽區中山路110號","121.365808333333","24.93578","6500900","三峽區"
"236043","107-UM","2018/02/23 17:39:39","新北市土城區城林路6巷80號","121.438501666667","24.9797","6501300","土城區"
"236026","269-VK","2018/02/23 17:39:39","新北市土城區城林路6巷80號","121.438565","24.979525","6501300","土城區"
"236015","270-VK","2018/02/23 17:39:37","新北市土城區城林路6巷80號","121.438535","24.9795966666667","6501300","土城區"
"236059","912-UM","2018/02/23 17:39:34","新北市土城區城林路6巷80號","121.438496666667","24.979695","6501300","土城區"
"242029","986-R7","2018/02/23 17:39:46","新北市新莊區復興路二段6號","121.453685","25.043875","6500500","新莊區"
"242050","751-BX","2018/02/23 17:39:45","新北市新莊區西盛街216號","121.428036666667","25.017315","6500500","新莊區"
"242025","615-BX","2018/02/23 17:39:46","新北市新莊區思源路108號","121.460045","25.046535","6500500","新莊區"
"242023","613-BX","2018/02/23 17:39:40","新北市新莊區公園路129-3號","121.45729","25.04089","6500500","新莊區"
"242027","612-BX","2018/02/23 17:39:45","新北市新莊區福壽街114號","121.458","25.0507633333333","6500500","新莊區"
"242039","566-BX","2018/02/23 17:39:37","新北市新莊區民安路281-1號","121.428903333333","25.0221966666667","6500500","新莊區"
"242044","497-BY","2018/02/23 17:39:44","新北市新莊區富國路65巷7號","121.419888333333","25.02654","6500500","新莊區"
"242009","441-UM","2018/02/23 17:39:47","新北市新莊區昌明街14巷7弄6號","121.457178333333","25.05353","6500500","新莊區"
"242054","440-UM","2018/02/23 17:39:46","新北市新莊區新樹路699巷27號","121.432806666667","25.0015483333333","6500500","新莊區"
"242034","415-TV","2018/02/23 17:39:37","新北市新莊區景德路387號","121.445956666667","25.0333666666667","6500500","新莊區"
"242005","413-TV","2018/02/23 17:39:17","新北市新莊區自立街229號","121.45629","25.0456283333333","6500500","新莊區"
"242041","400-BY","2018/02/23 17:39:34","新北市泰山區漢口街32號","121.425885","25.0353916666667","6500500","新莊區"
"242060","362-BY","2018/02/23 17:39:31","新北市新莊區瓊林南路118-22號","121.433836666667","25.0108183333333","6500500","新莊區"
"242058","353-BY","2018/02/23 17:39:52","新北市新莊區中正路632號","121.422005","25.0287733333333","6500500","新莊區"
"242007","132-UY","2018/02/23 17:39:50","新北市新莊區福樂街124號","121.456936666667","25.04783","6500500","新莊區"
"242037","133-UY","2018/02/23 17:39:41","新北市新莊區後港一路138號","121.429713333333","25.0273583333333","6500500","新莊區"
"242021","135-UY","2018/02/23 17:39:44","新北市新莊區中華路一段65號","121.452108333333","25.03964","6500500","新莊區"
"242046","172-VK","2018/02/23 17:39:40","新北市新莊區建國一路15號","121.433946666667","25.0317183333333","6500500","新莊區"
"242015","175-VK","2018/02/23 17:39:41","新北市新莊區新泰路406巷1弄2號","121.444256666667","25.0439966666667","6500500","新莊區"
"242002","176-VK","2018/02/23 17:39:41","新北市新莊區新莊路286號","121.451438333333","25.0338133333333","6500500","新莊區"
"242013","346-TH","2018/02/23 17:39:43","新北市新莊區中誠街122號","121.44928","25.0476333333333","6500500","新莊區"
"242019","348-TH","2018/02/23 17:39:40","新北市新莊區中港路176號","121.454933333333","25.041845","6500500","新莊區"
"242056","349-TH","2018/02/23 17:39:47","新北市新莊區新莊路543巷9弄28號","121.448305","25.03195","6500500","新莊區"
"242017","350-TH","2018/02/23 17:39:39","新北市新莊區復興路一段149巷21弄1號","121.450058333333","25.044095","6500500","新莊區"
"242011","351-TH","2018/02/23 17:39:49","新北市新莊區中港路635號","121.450941666667","25.05441","6500500","新莊區"
"238015","755-BX","2018/02/23 17:39:36","新北市樹林區啟智街29號","121.42081","24.9931783333333","6500700","樹林區"
"238023","601-UM","2018/02/23 17:39:33","新北市樹林區三福街114號","121.40646","25.0163116666667","6500700","樹林區"
"238019","599-UM","2018/02/23 17:39:32","新北市樹林區太平路127巷10號","121.419675","24.98058","6500700","樹林區"
"238018","571-TV","2018/02/23 17:39:32","新北市樹林區鎮前街93號","121.424733333333","24.989685","6500700","樹林區"
"238024","5061-A6","2018/02/23 17:39:41","新北市樹林區忠孝街67巷36號","121.42512","24.981825","6500700","樹林區"
"238021","KEA-2217","2018/02/23 17:39:48","新北市樹林區柑園街一段295號","121.393085","24.956285","6500700","樹林區"
"238022","KEA-2213","2018/02/23 17:39:46","新北市樹林區中華路187巷21號","121.42095","24.98076","6500700","樹林區"
"238025","303-VK","2018/02/23 17:39:48","新北市樹林區保安街二段159號","121.415303333333","25.002745","6500700","樹林區"
"238017","283-BY","2018/02/23 17:39:37","新北市樹林區中正路232號","121.418361666667","25.0069716666667","6500700","樹林區"
"238014","282-BY","2018/02/23 17:39:30","新北市樹林區保安街一段294巷31號","121.420086666667","24.998485","6500700","樹林區"
"238020","268-VK","2018/02/23 17:39:47","新北市樹林區俊英街150號","121.426966666667","25.006205","6500700","樹林區"
"238026","172-UY","2018/02/23 17:39:50","新北市樹林區新興街19巷36弄7號","121.402563333333","24.9733433333333","6500700","樹林區"
"238016","169-UY","2018/02/23 17:39:33","新北市樹林區育英街119-1號","121.420095","24.98925","6500700","樹林區"
"239007","AAC-297","2018/02/23 17:39:26","新北市鶯歌區永明街121號","121.342035","24.9557733333333","6500800","鶯歌區"
"239006","891-R6","2018/02/23 17:39:36","新北市鶯歌區永和街34巷21號","121.333861666667","24.9672066666667","6500800","鶯歌區"
"239008","527-UM","2018/02/23 17:39:46","新北市鶯歌區大湖路363號","121.331096666667","24.978085","6500800","鶯歌區"
"239005","526-UM","2018/02/23 17:39:32","新北市鶯歌區鶯桃路二段21號","121.325771666667","24.9721766666667","6500800","鶯歌區"
"239001","417-VK","2018/02/23 17:39:46","新北市鶯歌區中正三路297號","121.329256666667","24.9360616666667","6500800","鶯歌區"
"239003","360-BY","2018/02/23 17:39:31","新北市鶯歌區鶯桃路206巷55號","121.33806","24.9602666666667","6500800","鶯歌區"
"239004","193-VK","2018/02/23 17:39:34","新北市鶯歌區三鶯路54號","121.356883333333","24.94215","6500800","鶯歌區"
"221008","489-VK","2018/02/23 17:39:42","新北市汐止區康寧街901號","121.651345","25.0750266666667","6501100","汐止區"
"221010","269-BY","2018/02/23 17:39:45","新北市汐止區汐萬路一段418巷46號","121.651125","25.0790466666667","6501100","汐止區"
"221023","279-VK","2018/02/23 17:39:43","新北市汐止區汐萬路一段301號","121.649681666667","25.0757716666667","6501100","汐止區"
"221032","280-BY","2018/02/23 17:39:44","新北市汐止區連峰街1巷1號","121.646773333333","25.0761133333333","6501100","汐止區"
"221029","298-VK","2018/02/23 17:39:48","新北市汐止區康寧街901號","121.651666666667","25.0749566666667","6501100","汐止區"
"221031","353-TW","2018/02/23 17:39:37","新北市汐止區康寧街901號","121.651706666667","25.0749083333333","6501100","汐止區"
"221033","647-BX","2018/02/23 17:39:32","新北市汐止區橫科路407巷25弄17-5號","121.627425","25.0501216666667","6501100","汐止區"
"242048","281-VK","2018/02/23 17:39:35","新北市新莊區萬安街155號","121.420326666667","25.0214166666667","6500500","新莊區"
"242032","280-VK","2018/02/23 17:39:40","新北市新莊區新泰路361巷23號","121.44244","25.0429883333333","6500500","新莊區"
