"lineid","car","time","location","longitude","latitude","cityid","cityname"
"234007","207-UY","2018/02/23 18:16:53","新北市永和區文化路187號","121.509523333333","25.0172033333333","6500400","永和區"
"234081","298-R6","2018/02/23 18:19:50","新北市永和區福和路1號","121.52655","25.0099066666667","6500400","永和區"
"234013","KEA-2591","2018/02/23 18:19:40","新北市永和區福和路1號","121.526368333333","25.009485","6500400","永和區"
"234042","862-TW","2018/02/23 18:19:34","新北市永和區福和路1號","121.525608333333","25.0094416666667","6500400","永和區"
"234026","9371-KE","2018/02/23 18:19:39","新北市永和區豫溪街28巷9號","121.515268333333","25.00945","6500400","永和區"
"249005","172-UM","2018/02/23 18:19:50","新北市八里區荖阡坑路15-30號","121.40031","25.1405333333333","6502300","八里區"
"249001","173-UM","2018/02/23 18:19:44","新北市八里區龍米路一段129號","121.452228333333","25.1267283333333","6502300","八里區"
"249004","303-UY","2018/02/23 18:19:48","新北市八里區龍米路二段200巷5號","121.433808333333","25.1591683333333","6502300","八里區"
"249002","305-UY","2018/02/23 18:19:31","新北市八里區龍形二街52號","121.450328333333","25.1329866666667","6502300","八里區"
"249003","593-UM","2018/02/23 18:19:36","新北市八里區中華路二段331號","121.401928333333","25.1456933333333","6502300","八里區"
"248016","026-BX","2018/02/23 18:19:31","新北市五股區西雲路293號","121.449531666667","25.099205","6501500","五股區"
"248006","077-UY","2018/02/23 18:19:47","新北市五股區中興路一段152號","121.464543333333","25.0739016666667","6501500","五股區"
"248008","095-VK","2018/02/23 18:19:37","新北市五股區更洲路32巷8弄14號","121.459238333333","25.0796466666667","6501500","五股區"
"248018","225-UY","2018/02/23 18:19:14","新北市五股區御史路205號","121.431535","25.100175","6501500","五股區"
"248012","247-BX","2018/02/23 18:19:41","新北市五股區御史路1巷101弄4號","121.440856666667","25.0912533333333","6501500","五股區"
"248014","261-SL","2018/02/23 18:19:44","新北市五股區自強路19巷5-1號","121.434681666667","25.0737416666667","6501500","五股區"
"248004","677-BX","2018/02/23 18:19:30","新北市五股區成泰路二段156號","121.438308333333","25.0841816666667","6501500","五股區"
"248002","678-BX","2018/02/23 18:12:09","新北市五股區西雲路18號","121.443228333333","25.090265","6501500","五股區"
"248010","682-TV","2018/02/23 18:19:35","新北市五股區成泰路一段139巷2弄2號","121.435078333333","25.07297","6501500","五股區"
"232011","375-UM","2018/02/23 18:19:50","新北市坪林區坪雙路一段43號","121.711678333333","24.9424716666667","6502000","坪林區"
"244013","069-UM","2018/02/23 18:19:40","新北市林口區中山路160巷15號","121.391521666667","25.0797016666667","6501700","林口區"
"244007","080-UY","2018/02/23 18:19:46","新北市林口區林口路124巷10弄1號","121.389066666667","25.0818133333333","6501700","林口區"
"244019","402-UM","2018/02/23 18:19:47","新北市林口區麗園路56號","121.373503333333","25.0695183333333","6501700","林口區"
"244023","742-UY","2018/02/23 18:19:34","新北市林口區東湖路153巷125號","121.382305","25.0733116666667","6501700","林口區"
"244017","485-VK","2018/02/23 18:19:47","新北市林口區八德路32號","121.36776","25.0667633333333","6501700","林口區"
"244009","657-BX","2018/02/23 18:19:41","新北市林口區民生路166號","121.380038333333","25.0881733333333","6501700","林口區"
"244011","701-TV","2018/02/23 18:19:42","新北市林口區中正路74巷5弄4號","121.394508333333","25.0780466666667","6501700","林口區"
"244025","837-TS","2018/02/23 18:19:41","新北市林口區南勢六街57號","121.355446666667","25.0719383333333","6501700","林口區"
"244021","838-TS","2018/02/23 18:19:48","新北市林口區自強一街27號","121.398461666667","25.078165","6501700","林口區"
"243013","646-TV","2018/02/23 18:19:48","新北市泰山區錢厝坑13號","121.416183333333","25.0361866666667","6501600","泰山區"
"222003","016-RS","2018/02/23 18:19:47","新北市深坑區旺耽路67號","121.62626","25.002995","6501800","深坑區"
"222002","659-BX","2018/02/23 18:19:37","新北市深坑區雲鄉路26號","121.62142","24.999645","6501800","深坑區"
"231059","046-UY","2018/02/23 18:19:41","新北市新店區安華路28-1號","121.519783333333","24.9607183333333","6500600","新店區"
"231060","106-UY","2018/02/23 18:19:39","新北市新店區安華路28-1號","121.519793333333","24.9607416666667","6500600","新店區"
"231051","107-UY","2018/02/23 18:19:34","新北市新店區安華路28-1號","121.519581666667","24.96125","6500600","新店區"
"231048","108-UY","2018/02/23 18:19:33","新北市新店區安華路28-1號","121.519313333333","24.96122","6500600","新店區"
"231053","187-VK","2018/02/23 18:19:38","新北市新店區安康路一段323-3號","121.521298333333","24.9638133333333","6500600","新店區"
"231050","KEA-2219","2018/02/23 18:19:41","新北市新店區安華路28-1號","121.519951666667","24.96116","6500600","新店區"
"231057","256-BX","2018/02/23 18:19:41","新北市新店區安華路28-1號","121.51979","24.9610816666667","6500600","新店區"
"231046","278-BY","2018/02/23 18:19:49","新北市新店區直潭七街60號","121.532233333333","24.9398766666667","6500600","新店區"
"231058","3712-VJ","2018/02/23 18:19:39","新北市新店區秀山路68號","121.530956666667","24.9609666666667","6500600","新店區"
"231056","3713-VJ","2018/02/23 18:19:34","新北市新店區中央路29號","121.533116666667","24.97788","6500600","新店區"
"231055","4716-K9","2018/02/23 18:19:37","新北市新店區秀山路66號","121.53083","24.9609983333333","6500600","新店區"
"231067","4772-VM","2018/02/23 18:19:36","新北市新店區安華路1-1號","121.519195","24.9605683333333","6500600","新店區"
"231065","512-UM","2018/02/23 18:19:45","新北市新店區安華路28-1號","121.51894","24.9611433333333","6500600","新店區"
"231042","641-BX","2018/02/23 18:19:42","新北市新店區安華路28-1號","121.519573333333","24.960575","6500600","新店區"
"231063","645-TV","2018/02/23 18:19:48","新北市新店區安華路28-1號","121.519326666667","24.960575","6500600","新店區"
"231049","719-UM","2018/02/23 18:19:44","新北市新店區安華路28-1號","121.519603333333","24.9614083333333","6500600","新店區"
"231062","720-UM","2018/02/23 18:19:45","新北市新店區安華路28-1號","121.519291666667","24.9611266666667","6500600","新店區"
"231044","897-TW","2018/02/23 18:19:33","新北市新店區安華路28-1號","121.51964","24.9608716666667","6500600","新店區"
"231045","898-TW","2018/02/23 18:12:12","新北市新店區安華路28-1號","121.519336666667","24.960965","6500600","新店區"
"231043","899-TW","2018/02/23 18:19:47","新北市新店區安華路28-1號","121.519183333333","24.9608466666667","6500600","新店區"
"231066","AKT-0513","2018/02/23 18:19:48","新北市新店區安華路28-1號","121.519488333333","24.9605266666667","6500600","新店區"
"241033","AAC-255","2018/02/23 18:19:35","新北市三重區光復路一段61巷12號","121.472571666667","25.0494083333333","6500200","三重區"
"235064","005-UY","2018/02/23 18:19:48","新北市中和區圓通路165-1號","121.497836666667","24.9953816666667","6500300","中和區"
"235063","006-UY","2018/02/23 18:19:46","新北市中和區中正路585號","121.486038333333","24.99455","6500300","中和區"
"235056","096-UM","2018/02/23 18:19:47","新北市中和區員山路568號","121.47867","25.0107166666667","6500300","中和區"
"235039","097-UM","2018/02/23 18:19:43","新北市中和區中正路271-1號","121.495746666667","24.9935716666667","6500300","中和區"
"235065","098-UM","2018/02/23 18:19:47","新北市中和區莊敬路49巷18號","121.501606666667","25.0061216666667","6500300","中和區"
"235058","151-BY","2018/02/23 18:19:36","新北市中和區圓通路385號","121.49016","24.9892733333333","6500300","中和區"
"235055","183-VK","2018/02/23 18:19:38","新北市中和區中正路637巷60弄61號","121.485458333333","24.99319","6500300","中和區"
"235038","185-VK","2018/02/23 18:19:34","新北市中和區大智街100號","121.523946666667","24.99249","6500300","中和區"
"235067","255-BX","2018/02/23 18:19:32","新北市中和區和城路一段271巷1號","121.485626666667","24.991865","6500300","中和區"
"235072","301-VK","2018/02/23 18:19:42","新北市中和區連城路237-1號","121.49375","24.997355","6500300","中和區"
"235043","352-BY","2018/02/23 18:19:41","新北市中和區景平路375號","121.504185","24.9934533333333","6500300","中和區"
"235068","377-QA","2018/02/23 18:19:32","新北市中和區員山路36巷16-3號","121.485221666667","24.9911116666667","6500300","中和區"
"235061","378-QA","2018/02/23 18:19:48","新北市中和區國光街215巷24弄10號","121.466633333333","25.000015","6500300","中和區"
"235050","4979-A6","2018/02/23 18:19:49","新北市中和區捷運路65號","121.50883","24.9897516666667","6500300","中和區"
"235069","4980-A6","2018/02/23 18:19:43","新北市中和區景平路630巷11號","121.500496666667","24.9984316666667","6500300","中和區"
"235042","551-UM","2018/02/23 18:19:32","新北市中和區大仁街20巷25弄2號","121.518698333333","24.9934416666667","6500300","中和區"
"235045","565-BX","2018/02/23 18:19:47","新北市中和區景安路200巷5號","121.503485","24.9915966666667","6500300","中和區"
"235054","640-BX","2018/02/23 18:19:43","新北市中和區莒光路181號","121.472708333333","24.9992016666667","6500300","中和區"
"235060","647-TV","2018/02/23 18:19:32","新北市中和區員山路291號","121.48128","24.99986","6500300","中和區"
"235047","732-UM","2018/02/23 18:19:41","新北市中和區復興路262-1號","121.503391666667","24.990375","6500300","中和區"
"235046","733-UM","2018/02/23 18:19:35","新北市中和區員山路36巷13號","121.484103333333","24.99088","6500300","中和區"
"235062","800-TS","2018/02/23 18:19:32","新北市中和區景平路999巷2號","121.495383333333","25.0060083333333","6500300","中和區"
"235057","801-TS","2018/02/23 18:19:47","新北市中和區員山路120號","121.481123333333","24.9958716666667","6500300","中和區"
"235052","805-TS","2018/02/23 18:19:42","新北市中和區興南路一段156號","121.508286666667","24.9867","6500300","中和區"
"235048","896-TW","2018/02/23 18:19:39","新北市中和區中正路589巷15號","121.485748333333","24.9934883333333","6500300","中和區"
"235053","900-TW","2018/02/23 18:19:41","新北市中和區中正路637巷52弄5號","121.48517","24.99379","6500300","中和區"
"235070","911-UM","2018/02/23 18:19:35","新北市中和區圓通路213號","121.496851666667","24.9942883333333","6500300","中和區"
"235051","157-BY","2018/02/23 18:19:45","新北市中和區興南路二段130號","121.504326666667","24.9833916666667","6500300","中和區"
"235037","AAC-213","2018/02/23 18:19:43","新北市中和區景德街3號","121.518998333333","24.991305","6500300","中和區"
"226004","205-ST","2018/02/23 18:19:34","新北市平溪區靜安路二段10號","121.706555","25.018635","6502400","平溪區"
"235041","251-BX","2018/02/23 18:19:51","新北市中和區錦和路350-1號","121.490546666667","24.993535","6500300","中和區"
"228002","663-BX","2018/02/23 18:19:44","新北市貢寮區福連里馬崗街2-2號","122.000966666667","25.0143416666667","6502600","貢寮區"
"228001","670-TC","2018/02/23 18:19:32","新北市貢寮區真理里新港街26巷55弄2-1號","121.92735","25.0529083333333","6502600","貢寮區"
"228003","828-UM","2018/02/23 18:19:32","新北市貢寮區真理里美艷山街64-1號","121.918935","25.0731816666667","6502600","貢寮區"
"224006","676-BX","2018/02/23 18:19:45","新北市瑞芳區民權街3-2號","121.808015","25.1074333333333","6501200","瑞芳區"
"224002","640-TC","2018/02/23 18:19:48","新北市瑞芳區三爪子坑路105號","121.810888333333","25.10723","6501200","瑞芳區"
"224009","285-BY","2018/02/23 18:19:51","新北市瑞芳區金光路127號","121.854103333333","25.10677","6501200","瑞芳區"
"224008","275-VK","2018/02/23 18:19:43","新北市瑞芳區逢甲路15號","121.809801666667","25.1086516666667","6501200","瑞芳區"
"224007","273-VK","2018/02/23 18:19:41","新北市瑞芳區頂埔巷1弄2號","121.766098333333","25.102465","6501200","瑞芳區"
"224005","271-BY","2018/02/23 18:19:46","新北市瑞芳區建基新村3-7號","121.811348333333","25.1313966666667","6501200","瑞芳區"
"227003","642-TC","2018/02/23 18:19:29","新北市雙溪區共和里中山路2號","121.863783333333","25.0337983333333","6502500","雙溪區"
"227011","400-TW","2018/02/23 18:19:50","新北市雙溪區牡丹里牡丹159號","121.852053333333","25.05886","6502500","雙溪區"
"253005","032-BX","2018/02/23 18:19:31","新北市石門區中央路9-4號","121.566693333333","25.2916533333333","6502200","石門區"
"253006","295-VK","2018/02/23 18:19:40","新北市石門區老梅路51號","121.545463333333","25.2892533333333","6502200","石門區"
"222001","KEA-2212","2018/02/23 18:19:42","新北市深坑區北深路二段51-1號","121.619108333333","25.0041166666667","6501800","深坑區"
"208003","665-BX","2018/02/23 18:19:37","新北市金山區中山路90-1號","121.641713333333","25.2186466666667","6502700","金山區"
"208001","761-BX","2018/02/23 18:19:33","新北市金山區環金路19號","121.640963333333","25.21769","6502700","金山區"
"251004","009-UM","2018/02/23 18:19:48","新北市淡水區民族路71號","121.46297","25.1344616666667","6501000","淡水區"
"251001","011-UM","2018/02/23 18:19:47","新北市淡水區自強路110-12號","121.462296666667","25.131765","6501000","淡水區"
"251008","181-VK","2018/02/23 18:19:40","新北市淡水區水源街二段240號","121.461268333333","25.1762716666667","6501000","淡水區"
"251010","413-VK","2018/02/23 18:19:33","新北市淡水區淡海路199號","121.420388333333","25.1848066666667","6501000","淡水區"
"251012","441-VK","2018/02/23 18:19:35","新北市淡水區北新路二段77-5號","121.48043","25.1855566666667","6501000","淡水區"
"251016","442-VK","2018/02/23 18:19:46","新北市淡水區安子內12號","121.481526666667","25.21906","6501000","淡水區"
"251005","443-VK","2018/02/23 18:19:35","新北市淡水區水源街一段122巷39號","121.447223333333","25.1703766666667","6501000","淡水區"
"251006","561-UM","2018/02/23 18:19:41","新北市淡水區新民街74號","121.43862","25.17628","6501000","淡水區"
"251011","650-BX","2018/02/23 18:19:40","新北市淡水區坪頂路39號","121.457188333333","25.1622233333333","6501000","淡水區"
"251002","672-BX","2018/02/23 18:19:33","新北市淡水區中正東路一段65號","121.452658333333","25.16236","6501000","淡水區"
"251003","673-BX","2018/02/23 18:19:45","新北市淡水區北新路180號","121.449461666667","25.1788","6501000","淡水區"
"207003","550-UM","2018/02/23 18:19:40","新北市萬里區野柳里港東路23號","121.687361666667","25.2036633333333","6502800","萬里區"
"207004","225-TW","2018/02/23 18:19:38","新北市萬里區中幅里中福路38-1號","121.678651666667","25.1670983333333","6502800","萬里區"
"252002","178-VK","2018/02/23 18:19:35","新北市三芝區中山路二段31號","121.502776666667","25.2552466666667","6502100","三芝區"
"252003","249-BX","2018/02/23 18:19:49","新北市三芝區錫板里海尾11-7號","121.478686666667","25.2611866666667","6502100","三芝區"
"252001","292-VK","2018/02/23 18:19:45","新北市三芝區中興街二段2號","121.49834","25.2567166666667","6502100","三芝區"
"237007","153-BY","2018/02/23 18:19:41","新北市三峽區中正路二段586號","121.359255","24.9059633333333","6500900","三峽區"
"237009","210-TH","2018/02/23 18:19:37","新北市三峽區中山路152巷24號","121.365346666667","24.9370266666667","6500900","三峽區"
"237013","252-BX","2018/02/23 18:19:48","新北市三峽區中正路一段19巷9號","121.376381666667","24.9304216666667","6500900","三峽區"
"237012","275-BY","2018/02/23 18:19:45","新北市三峽區民生街1巷1-46號","121.377576666667","24.93647","6500900","三峽區"
"237008","302-VK","2018/02/23 18:19:42","新北市三峽區白雞68-331號","121.391605","24.909685","6500900","三峽區"
"237014","433-BY","2018/02/23 18:19:46","新北市三峽區和平街36巷7弄4號","121.37089","24.937295","6500900","三峽區"
"237006","5529-G3","2018/02/23 18:19:32","新北市三峽區溪東路473巷55號","121.415186666667","24.9286266666667","6500900","三峽區"
"237011","KEA-2596","2018/02/23 18:19:32","新北市三峽區溪東路182號","121.40668","24.9325683333333","6500900","三峽區"
"237015","649-BX","2018/02/23 17:53:14","新北市三峽區白雞149-2號","121.400248333333","24.905425","6500900","三峽區"
"237010","706-TV","2018/02/23 18:19:44","新北市三峽區中山路81號","121.366685","24.9352466666667","6500900","三峽區"
"237005","AKY-6261","2018/02/23 18:19:45","新北市三峽區忠孝街26號","121.370803333333","24.9339716666667","6500900","三峽區"
"236072","105-UM","2018/02/23 18:19:36","新北市土城區永豐路153巷9號","121.467515","24.98241","6501300","土城區"
"236043","107-UM","2018/02/23 18:19:39","新北市土城區樂利街3巷20號","121.448628333333","24.9862566666667","6501300","土城區"
"236079","166-UM","2018/02/23 18:19:42","新北市土城區永安街13-1號","121.433891666667","24.9648433333333","6501300","土城區"
"236031","253-BX","2018/02/23 18:19:37","新北市土城區順風路63號","121.440123333333","24.9773516666667","6501300","土城區"
"236026","269-VK","2018/02/23 18:19:39","新北市土城區承天路20號","121.439536666667","24.9633916666667","6501300","土城區"
"236015","270-VK","2018/02/23 18:19:37","新北市土城區立清街69號","121.460336666667","24.9873416666667","6501300","土城區"
"236039","271-VK","2018/02/23 18:19:44","新北市土城區青雲路451巷8弄15號","121.459643333333","24.97416","6501300","土城區"
"236022","401-BY","2018/02/23 18:19:30","新北市土城區明德路一段385-1號","121.452336666667","24.9802333333333","6501300","土城區"
"236050","752-BX","2018/02/23 18:19:51","新北市土城區明德路一段398-1號","121.453968333333","24.9786666666667","6501300","土城區"
"236059","912-UM","2018/02/23 18:19:34","新北市土城區中央路四段440號","121.4107","24.9515266666667","6501300","土城區"
"236063","915-UM","2018/02/23 18:19:33","新北市土城區延壽路44巷1-1號","121.470363333333","24.9918933333333","6501300","土城區"
"236055","AAC-216","2018/02/23 18:19:25","新北市土城區中華路二段106號","121.43804","24.9741833333333","6501300","土城區"
"242029","986-R7","2018/02/23 18:19:46","新北市新莊區幸福路862號","121.44371","25.0490483333333","6500500","新莊區"
"242050","751-BX","2018/02/23 18:19:45","新北市新莊區民本街5巷7號","121.427898333333","25.020315","6500500","新莊區"
"242025","615-BX","2018/02/23 18:19:37","新北市新莊區五權一路12巷9弄14號","121.45776","25.0650233333333","6500500","新莊區"
"242023","613-BX","2018/02/23 18:19:40","新北市新莊區新泰路255巷83號","121.442146666667","25.03908","6500500","新莊區"
"242027","612-BX","2018/02/23 18:19:45","新北市新莊區幸福路823號","121.445215","25.049","6500500","新莊區"
"242039","566-BX","2018/02/23 18:19:37","新北市新莊區新樹路210號","121.433876666667","25.0203816666667","6500500","新莊區"
"242044","497-BY","2018/02/23 18:19:43","新北市新莊區鳳山街56巷35號","121.41367","25.0266966666667","6500500","新莊區"
"242054","440-UM","2018/02/23 18:19:42","新北市新莊區民安西路408號","121.428863333333","25.00988","6500500","新莊區"
"242041","400-BY","2018/02/23 18:19:41","新北市新莊區天祥街91巷23號","121.414841666667","25.028645","6500500","新莊區"
"242060","362-BY","2018/02/23 18:19:31","新北市新莊區後港一路42號","121.425895","25.0262183333333","6500500","新莊區"
"242058","353-BY","2018/02/23 18:19:32","新北市新莊區青山路一段8號","121.41206","25.0275316666667","6500500","新莊區"
"242007","132-UY","2018/02/23 18:19:30","新北市新莊區自強街23巷1號","121.454441666667","25.04631","6500500","新莊區"
"242037","133-UY","2018/02/23 18:19:46","新北市新莊區後港一路31巷3弄1號","121.425096666667","25.0265233333333","6500500","新莊區"
"242021","135-UY","2018/02/23 18:19:41","新北市新莊區新興街26號","121.450758333333","25.03677","6500500","新莊區"
"242046","172-VK","2018/02/23 18:19:40","新北市新莊區中正路829巷49號","121.421536666667","25.0274516666667","6500500","新莊區"
"242015","175-VK","2018/02/23 18:19:41","新北市新莊區中和街124號","121.44759","25.047855","6500500","新莊區"
"242056","349-TH","2018/02/23 18:19:46","新北市新莊區豐年街68號","121.44644","25.03147","6500500","新莊區"
"242011","351-TH","2018/02/23 18:19:37","新北市新莊區中港路615巷21弄1號","121.450083333333","25.05316","6500500","新莊區"
"238015","755-BX","2018/02/23 18:19:36","新北市樹林區啟智街86巷16號","121.418168333333","24.9909283333333","6500700","樹林區"
"238023","601-UM","2018/02/23 18:19:33","新北市樹林區福興街17號","121.404323333333","25.01624","6500700","樹林區"
"238019","599-UM","2018/02/23 18:19:32","新北市樹林區國凱街112號","121.42194","24.9796616666667","6500700","樹林區"
"238018","571-TV","2018/02/23 18:19:32","新北市樹林區博愛街123號","121.426125","24.9907833333333","6500700","樹林區"
"238021","KEA-2217","2018/02/23 18:19:32","新北市樹林區柑園街二段175號","121.380385","24.9529616666667","6500700","樹林區"
"238025","303-VK","2018/02/23 18:19:48","新北市樹林區保安街一段227號","121.420208333333","24.9964583333333","6500700","樹林區"
"238017","283-BY","2018/02/23 18:19:37","新北市樹林區中正路755號","121.410591666667","25.0152233333333","6500700","樹林區"
"238014","282-BY","2018/02/23 18:16:10","新北市樹林區大安路47號","121.423901666667","24.9990683333333","6500700","樹林區"
"238020","268-VK","2018/02/23 18:19:47","新北市樹林區三俊街65巷42號","121.413466666667","25.0178733333333","6500700","樹林區"
"238026","172-UY","2018/02/23 18:19:50","新北市樹林區佳園路一段75巷11弄53號","121.395175","24.9698916666667","6500700","樹林區"
"238016","169-UY","2018/02/23 18:19:33","新北市樹林區文化街23號","121.419336666667","24.98764","6500700","樹林區"
"239007","AAC-297","2018/02/23 18:19:46","新北市鶯歌區尖山埔路95號","121.347805","24.95103","6500800","鶯歌區"
"239006","891-R6","2018/02/23 18:19:36","新北市鶯歌區鶯桃路296巷42-3號","121.335563333333","24.9611783333333","6500800","鶯歌區"
"239008","527-UM","2018/02/23 18:19:46","新北市鶯歌區國際一路179號","121.33621","24.9765116666667","6500800","鶯歌區"
"239005","526-UM","2018/02/23 18:19:32","新北市鶯歌區鶯桃路668巷73號","121.329855","24.97175","6500800","鶯歌區"
"239001","417-VK","2018/02/23 18:19:45","新北市鶯歌區國中街195號","121.338283333333","24.9391366666667","6500800","鶯歌區"
"239003","360-BY","2018/02/23 18:19:51","新北市鶯歌區福安街13巷1號","121.335546666667","24.96528","6500800","鶯歌區"
"239004","193-VK","2018/02/23 18:19:33","新北市鶯歌區尖山路191巷49號","121.34448","24.94629","6500800","鶯歌區"
"221008","489-VK","2018/02/23 18:19:35","新北市汐止區康寧街706-2號","121.638471666667","25.0730783333333","6501100","汐止區"
"221036","130-UY","2018/02/23 18:19:40","新北市汐止區長安路42號","121.66847","25.0781566666667","6501100","汐止區"
"221015","131-UY","2018/02/23 18:19:51","新北市汐止區鄉長路二段23巷1號","121.667255","25.0825266666667","6501100","汐止區"
"221010","269-BY","2018/02/23 18:19:45","新北市汐止區祥雲街18巷12號","121.646711666667","25.0895266666667","6501100","汐止區"
"221012","278-VK","2018/02/23 18:19:33","新北市汐止區長興街二段4巷20號","121.673503333333","25.0804516666667","6501100","汐止區"
"221023","279-VK","2018/02/23 18:19:43","新北市汐止區康寧街430號","121.631215","25.0674966666667","6501100","汐止區"
"221032","280-BY","2018/02/23 18:19:44","新北市汐止區力行街54號","121.616516666667","25.0495366666667","6501100","汐止區"
"221027","281-BY","2018/02/23 18:19:30","新北市汐止區和平街6巷8-1號","121.663506666667","25.0715133333333","6501100","汐止區"
"221038","297-VK","2018/02/23 18:19:39","新北市汐止區忠孝東路303號","121.664283333333","25.0689066666667","6501100","汐止區"
"221029","298-VK","2018/02/23 18:19:48","新北市汐止區樟樹二路330巷72-1號","121.642928333333","25.0699316666667","6501100","汐止區"
"221021","299-VK","2018/02/23 18:19:44","新北市汐止區龍安路202巷52號","121.652971666667","25.0637833333333","6501100","汐止區"
"221031","353-TW","2018/02/23 18:19:37","新北市汐止區大同路一段160-6號","121.63535","25.0559883333333","6501100","汐止區"
"221035","622-UM","2018/02/23 18:19:40","新北市汐止區大同路二段175號","121.651443333333","25.0642833333333","6501100","汐止區"
"221025","623-UM","2018/02/23 18:19:47","新北市汐止區勤進路12巷49號","121.659048333333","25.06294","6501100","汐止區"
"221033","647-BX","2018/02/23 18:19:32","新北市汐止區宜興街55號","121.622976666667","25.04258","6501100","汐止區"
"221002","707-TV","2018/02/23 18:19:36","新北市汐止區福德一路201巷21號","121.636151666667","25.0647383333333","6501100","汐止區"
"221018","753-BX","2018/02/23 18:19:46","新北市汐止區茄苳路118號","121.668071666667","25.0705083333333","6501100","汐止區"
"242048","281-VK","2018/02/23 18:19:35","新北市新莊區萬安街67巷11號","121.421891666667","25.0238683333333","6500500","新莊區"
"220064","486-VK","2018/02/23 18:19:47","新北市板橋區華東街1-10號","121.44838","24.994915","6500100","板橋區"
"242032","280-VK","2018/02/23 18:19:39","新北市新莊區新泰路255巷2號","121.445793333333","25.0398733333333","6500500","新莊區"
