"lineid","car","time","location","longitude","latitude","cityid","cityname"
"234046","148-BY","2018/02/23 19:09:41","新北市永和區永元路18巷40弄2號","121.52412","25.00026","6500400","永和區"
"234067","149-BY","2018/02/23 19:09:48","新北市永和區保平路30巷2號","121.51204","25.00728","6500400","永和區"
"234081","298-R6","2018/02/23 19:09:50","新北市永和區永貞路39巷9弄13號","121.522183333333","25.0069233333333","6500400","永和區"
"234038","336-UY","2018/02/23 19:09:35","新北市永和區民樂街73巷2號","121.527421666667","24.9971716666667","6500400","永和區"
"234064","337-UY","2018/02/23 19:09:48","新北市永和區秀朗路二段46號","121.521543333333","25.002275","6500400","永和區"
"234086","338-UY","2018/02/23 19:09:45","新北市永和區永貞路49號","121.519415","25.004385","6500400","永和區"
"234070","552-UM","2018/02/23 19:09:49","新北市永和區豫溪街95巷10弄3號","121.51815","25.0108633333333","6500400","永和區"
"234017","745-BX","2018/02/23 19:09:37","新北市永和區文化路90巷17號","121.51362","25.01612","6500400","永和區"
"234030","746-BX","2018/02/23 19:09:48","新北市永和區民生路23號","121.522836666667","24.998845","6500400","永和區"
"234054","KEA-2590","2018/02/23 19:09:34","新北市永和區竹林路78號","121.519226666667","25.0128766666667","6500400","永和區"
"234013","KEA-2591","2018/02/23 19:09:40","新北市永和區保福路二段46號","121.51102","25.0120616666667","6500400","永和區"
"234061","AAD-866","2018/02/23 19:09:45","新北市永和區安樂路304巷2號","121.514468333333","25.0049316666667","6500400","永和區"
"234042","862-TW","2018/02/23 19:09:34","新北市永和區保平路222號","121.509628333333","25.00572","6500400","永和區"
"234050","863-TW","2018/02/23 19:09:41","新北市永和區文化路135巷26弄1號","121.51057","25.0143916666667","6500400","永和區"
"234026","9371-KE","2018/02/23 19:09:39","新北市永和區安樂路270號","121.514626666667","25.004025","6500400","永和區"
"234023","9381-KE","2018/02/23 19:09:38","新北市永和區竹林路75巷33弄47號","121.521103333333","25.01457","6500400","永和區"
"234011","9373-KE","2018/02/23 19:09:32","新北市永和區信義路25巷53號","121.512318333333","25.0115516666667","6500400","永和區"
"249005","172-UM","2018/02/23 19:09:50","新北市八里區中華路三段99巷2號","121.393768333333","25.1383966666667","6502300","八里區"
"249001","173-UM","2018/02/23 19:09:44","新北市八里區龍米路二段246-1號","121.429843333333","25.15893","6502300","八里區"
"248016","026-BX","2018/02/23 19:09:51","新北市五股區成泰路三段559巷36弄6號","121.450828333333","25.102785","6501500","五股區"
"248018","225-UY","2018/02/23 19:09:34","新北市五股區民義路一段240號","121.42698","25.0915816666667","6501500","五股區"
"248012","247-BX","2018/02/23 19:09:40","新北市五股區中興路四段48巷16號","121.438655","25.0834733333333","6501500","五股區"
"248004","677-BX","2018/02/23 19:09:50","新北市五股區六合街11號","121.431543333333","25.0885933333333","6501500","五股區"
"248002","678-BX","2018/02/23 18:52:29","新北市五股區成泰路三段436號","121.451296666667","25.09957","6501500","五股區"
"248010","682-TV","2018/02/23 19:09:35","新北市五股區水碓一路23號","121.430588333333","25.0712616666667","6501500","五股區"
"234077","969-R7","2018/02/23 19:09:49","新北市永和區民族街29號","121.518678333333","24.9995466666667","6500400","永和區"
"234074","AAC-211","2018/02/23 19:09:48","新北市永和區福和路50號","121.523478333333","25.0082033333333","6500400","永和區"
"234003","AAC-295","2018/02/23 19:09:46","新北市永和區保福路一段43號","121.512581666667","25.0092866666667","6500400","永和區"
"244013","069-UM","2018/02/23 19:09:40","新北市林口區麗園一街11巷7號","121.378193333333","25.0704833333333","6501700","林口區"
"244019","402-UM","2018/02/23 19:09:47","新北市林口區麗園二街1巷9-1號","121.378913333333","25.0701866666667","6501700","林口區"
"244023","742-UY","2018/02/23 19:09:34","新北市林口區仁愛路二段379號","121.370201666667","25.080085","6501700","林口區"
"244009","657-BX","2018/02/23 19:09:41","新北市林口區林口路66號","121.390271666667","25.0792183333333","6501700","林口區"
"244011","701-TV","2018/02/23 19:09:42","新北市林口區中正路264巷20號","121.388328333333","25.0785466666667","6501700","林口區"
"243011","297-R6","2018/02/23 19:09:35","新北市泰山區明志路二段334號","121.42609","25.0456316666667","6501600","泰山區"
"243015","380-SR","2018/02/23 19:09:37","新北市泰山區明志路一段360號","121.430685","25.05814","6501600","泰山區"
"243014","421-VK","2018/02/23 19:09:36","新北市泰山區泰林路二段478-1號","121.425141666667","25.064005","6501600","泰山區"
"243012","539-UM","2018/02/23 19:09:42","新北市泰山區吳厝窠1號","121.427951666667","25.05857","6501600","泰山區"
"243010","KEA-2215","2018/02/23 19:09:48","新北市泰山區明志路一段483巷1弄1號","121.431088333333","25.055425","6501600","泰山區"
"243009","KEA-2216","2018/02/23 19:09:45","新北市泰山區文化街29號","121.435133333333","25.0635833333333","6501600","泰山區"
"243013","646-TV","2018/02/23 19:09:44","新北市泰山區台麗街16巷12號","121.4243","25.0376166666667","6501600","泰山區"
"243016","680-BX","2018/02/23 19:09:35","新北市泰山區明志路二段364號","121.425683333333","25.0450616666667","6501600","泰山區"
"222003","016-RS","2018/02/23 19:09:47","新北市深坑區深南路162號","121.626093333333","25.0149733333333","6501800","深坑區"
"222002","659-BX","2018/02/23 19:09:36","新北市深坑區北深路一段177號","121.632225","25.010625","6501800","深坑區"
"231041","002-UM","2018/02/23 19:09:39","新北市新店區溪園路415號","121.524465","24.978665","6500600","新店區"
"231059","046-UY","2018/02/23 19:09:41","新北市新店區安和路二段120-6號","121.519193333333","24.971125","6500600","新店區"
"231061","047-UY","2018/02/23 19:09:37","新北市新店區安康路一段20號","121.53112","24.9610533333333","6500600","新店區"
"231060","106-UY","2018/02/23 19:09:39","新北市新店區安康路二段156號","121.512348333333","24.9608983333333","6500600","新店區"
"231051","107-UY","2018/02/23 19:09:34","新北市新店區中正路384號","121.534718333333","24.9769366666667","6500600","新店區"
"231048","108-UY","2018/02/23 19:09:52","新北市新店區中興路二段67巷5號","121.546321666667","24.9709533333333","6500600","新店區"
"231053","187-VK","2018/02/23 19:09:38","新北市新店區自強路115號","121.546141666667","24.923165","6500600","新店區"
"231050","KEA-2219","2018/02/23 19:09:41","新北市新店區竹林路2巷29弄7號","121.550396666667","24.9502883333333","6500600","新店區"
"231046","278-BY","2018/02/23 19:09:49","新北市新店區華潭街1巷49號","121.52651","24.9469233333333","6500600","新店區"
"231054","AAD-862","2018/02/23 19:09:34","新北市新店區新店路162-1號","121.537186666667","24.95563","6500600","新店區"
"231058","3712-VJ","2018/02/23 19:09:39","新北市新店區光明街140號","121.539375","24.9613233333333","6500600","新店區"
"231056","3713-VJ","2018/02/23 19:09:34","新北市新店區民權路105號","121.536453333333","24.9826083333333","6500600","新店區"
"231067","4772-VM","2018/02/23 19:09:36","新北市新店區安康路一段266巷4號","121.520055","24.964025","6500600","新店區"
"231065","512-UM","2018/02/23 19:09:45","新北市新店區安祥路140號","121.474408333333","24.9558283333333","6500600","新店區"
"231064","515-UM","2018/02/23 19:09:41","新北市新店區安忠路79號","121.511156666667","24.9571283333333","6500600","新店區"
"231040","618-UM","2018/02/23 19:09:34","新北市新店區三民路98-4號","121.533945","24.9733933333333","6500600","新店區"
"231042","641-BX","2018/02/23 19:09:42","新北市新店區中興路一段91號","121.540963333333","24.962115","6500600","新店區"
"231063","645-TV","2018/02/23 19:09:48","新北市新店區車子路140號","121.505238333333","24.9476666666667","6500600","新店區"
"231049","719-UM","2018/02/23 19:09:44","新北市新店區二十張路25巷18弄27號","121.539325","24.9812616666667","6500600","新店區"
"231062","720-UM","2018/02/23 19:09:45","新北市新店區安康路一段267號","121.524183333333","24.96339","6500600","新店區"
"231044","897-TW","2018/02/23 19:09:53","新北市新店區中興路三段206號","121.543715","24.9821933333333","6500600","新店區"
"231045","898-TW","2018/02/23 19:09:43","新北市新店區北宜路一段129號","121.54082","24.9531383333333","6500600","新店區"
"231043","899-TW","2018/02/23 19:09:47","新北市新店區寶橋路97號","121.547191666667","24.97626","6500600","新店區"
"231066","AKT-0513","2018/02/23 19:09:48","新北市新店區安康路三段355巷6號","121.484821666667","24.950425","6500600","新店區"
"241026","066-VK","2018/02/23 19:09:47","新北市三重區泉州街82-1號","121.494816666667","25.054335","6500200","三重區"
"241035","462-BY","2018/02/23 19:09:50","新北市三重區重陽路一段20巷4號","121.48631","25.0564266666667","6500200","三重區"
"241029","942-UM","2018/02/23 19:09:35","新北市三重區重安街83號","121.492578333333","25.0557916666667","6500200","三重區"
"235066","003-UY","2018/02/23 19:09:32","新北市中和區廣福路10號","121.505675","25.0029333333333","6500300","中和區"
"235064","005-UY","2018/02/23 19:09:48","新北市中和區泰和街38巷41號","121.49833","25.0015116666667","6500300","中和區"
"235063","006-UY","2018/02/23 19:09:46","新北市中和區中正路522號","121.48806","24.99448","6500300","中和區"
"235056","096-UM","2018/02/23 19:09:47","新北市板橋區三民路二段224號","121.478886666667","25.0115366666667","6500300","中和區"
"235039","097-UM","2018/02/23 19:09:43","新北市永和區中正路198號","121.515651666667","24.9973116666667","6500300","中和區"
"235065","098-UM","2018/02/23 19:09:47","新北市中和區中山路二段136巷64號","121.500895","25.004325","6500300","中和區"
"235058","151-BY","2018/02/23 19:09:36","新北市中和區員山路143巷21號","121.47988","24.9956116666667","6500300","中和區"
"235055","183-VK","2018/02/23 19:09:38","新北市中和區德光路58號","121.469735","25.0040616666667","6500300","中和區"
"235038","185-VK","2018/02/23 19:09:34","新北市中和區大仁街10巷27弄4號","121.51923","24.99272","6500300","中和區"
"235049","186-VK","2018/02/23 19:09:34","新北市中和區明禮街45號","121.504003333333","24.9964966666667","6500300","中和區"
"235067","255-BX","2018/02/23 19:09:52","新北市中和區新生街166巷8號","121.483196666667","25.0002133333333","6500300","中和區"
"235044","293-VK","2018/02/23 19:09:49","新北市中和區中興街235巷5號","121.50095","24.98962","6500300","中和區"
"235072","301-VK","2018/02/23 19:09:42","新北市中和區連城路72號","121.497465","25.0013116666667","6500300","中和區"
"235043","352-BY","2018/02/23 19:09:41","新北市中和區景平路150-1號","121.518035","24.992065","6500300","中和區"
"235068","377-QA","2018/02/23 19:09:32","新北市中和區圓通路162巷37弄3號","121.496493333333","24.9955566666667","6500300","中和區"
"235061","378-QA","2018/02/23 19:09:48","新北市中和區民有街13號","121.475675","25.0054233333333","6500300","中和區"
"235071","269-TV","2018/02/23 19:09:45","新北市中和區連城路338號","121.48298","24.9958366666667","6500300","中和區"
"235050","4979-A6","2018/02/23 19:09:47","新北市中和區復興路81號","121.503446666667","24.9899566666667","6500300","中和區"
"235069","4980-A6","2018/02/23 19:09:43","新北市中和區中和路143號","121.50214","24.9996583333333","6500300","中和區"
"235042","551-UM","2018/02/23 19:09:51","新北市中和區自立路125號","121.521915","24.9941466666667","6500300","中和區"
"235045","565-BX","2018/02/23 19:09:27","新北市中和區景新街467巷38弄2號","121.514611666667","24.9886083333333","6500300","中和區"
"235054","640-BX","2018/02/23 19:09:50","新北市中和區國光街108號","121.47007","25.0005716666667","6500300","中和區"
"235060","647-TV","2018/02/23 19:09:52","新北市中和區民享街1號","121.473848333333","25.005825","6500300","中和區"
"235047","732-UM","2018/02/23 19:09:41","新北市中和區興南路一段83號","121.509971666667","24.988935","6500300","中和區"
"235046","733-UM","2018/02/23 19:09:34","新北市中和區華新街122號","121.508358333333","24.9827466666667","6500300","中和區"
"235057","801-TS","2018/02/23 19:09:47","新北市中和區民利街80號","121.47812","24.998155","6500300","中和區"
"235052","805-TS","2018/02/23 19:09:42","新北市中和區興南路二段142巷31弄31號","121.501931666667","24.9834233333333","6500300","中和區"
"235048","896-TW","2018/02/23 19:09:39","新北市中和區忠孝街2-8號","121.509191666667","24.9829933333333","6500300","中和區"
"235053","900-TW","2018/02/23 19:09:41","新北市中和區民德路274號","121.467598333333","24.996465","6500300","中和區"
"235070","911-UM","2018/02/23 19:09:35","新北市中和區中和路212號","121.505946666667","24.999505","6500300","中和區"
"235051","157-BY","2018/02/23 19:09:45","新北市中和區興南路一段77號","121.510096666667","24.989195","6500300","中和區"
"235037","AAC-213","2018/02/23 19:09:43","新北市中和區秀朗路三段60巷43號","121.524931666667","24.9948733333333","6500300","中和區"
"235059","AAC-215","2018/02/23 19:09:52","新北市中和區圓通路296巷31弄1號","121.488581666667","24.990435","6500300","中和區"
"220068","013-TV","2018/02/23 19:09:36","新北市板橋區三民路一段29號","121.479485","25.0231183333333","6500100","板橋區"
"220065","072-UY","2018/02/23 19:09:48","新北市板橋區民族路219巷75號","121.468853333333","25.008915","6500100","板橋區"
"220086","073-UY","2018/02/23 19:09:44","新北市板橋區國光路67巷39號","121.460345","25.0191016666667","6500100","板橋區"
"220106","075-UY","2018/02/23 19:09:48","新北市板橋區雙十路三段10巷10號","121.472078333333","25.0307183333333","6500100","板橋區"
"220069","AAD-861","2018/02/23 19:09:40","新北市板橋區四川路一段104號","121.459553333333","25.0046666666667","6500100","板橋區"
"226004","205-ST","2018/02/23 19:09:34","新北市平溪區嶺腳里田子1-3號","121.750868333333","25.0240933333333","6502400","平溪區"
"235041","251-BX","2018/02/23 19:09:31","新北市中和區中和路232號","121.506678333333","24.9995566666667","6500300","中和區"
"228002","663-BX","2018/02/23 19:09:44","新北市貢寮區福隆里福隆街32-1號","121.945101666667","25.017415","6502600","貢寮區"
"228001","670-TC","2018/02/23 19:09:52","新北市貢寮區真理里新港街10號","121.925531666667","25.0543866666667","6502600","貢寮區"
"228003","828-UM","2018/02/23 19:09:32","新北市貢寮區和美里和美街32-7號","121.91315","25.0843816666667","6502600","貢寮區"
"224010","AGQ-8101","2018/02/23 19:08:37","新北市瑞芳區金光路334號","121.848256666667","25.1095533333333","6501200","瑞芳區"
"224006","676-BX","2018/02/23 19:09:45","新北市瑞芳區東和路9號","121.804616666667","25.1061233333333","6501200","瑞芳區"
"224009","285-BY","2018/02/23 19:09:51","新北市瑞芳區長仁路50-2號","121.866215","25.118375","6501200","瑞芳區"
"224008","275-VK","2018/02/23 19:09:43","新北市瑞芳區明燈路三段289號","121.79833","25.1123066666667","6501200","瑞芳區"
"224007","273-VK","2018/02/23 19:09:41","新北市瑞芳區瑞竹路46號","121.763545","25.1033583333333","6501200","瑞芳區"
"224005","271-BY","2018/02/23 19:09:46","新北市瑞芳區三爪子坑路41號","121.813158333333","25.1074283333333","6501200","瑞芳區"
"227003","642-TC","2018/02/23 19:09:49","新北市雙溪區平林里外平林9-25號","121.859898333333","25.0376633333333","6502500","雙溪區"
"227011","400-TW","2018/02/23 19:09:37","新北市雙溪區牡丹里中正路46號","121.864925","25.0388433333333","6502500","雙溪區"
"253005","032-BX","2018/02/23 19:09:31","新北市石門區阿里荖41號","121.60548","25.2805183333333","6502200","石門區"
"253006","295-VK","2018/02/23 19:09:40","新北市石門區崁子腳1-7號","121.532273333333","25.2876716666667","6502200","石門區"
"222001","KEA-2212","2018/02/23 19:09:42","新北市深坑區北深路一段300號","121.6242","25.0057633333333","6501800","深坑區"
"208003","665-BX","2018/02/23 19:09:45","新北市金山區中正路26號","121.635871666667","25.2222483333333","6502700","金山區"
"208001","761-BX","2018/02/23 19:09:46","新北市金山區福德街6號","121.639305","25.2218316666667","6502700","金山區"
"251009","008-UM","2018/02/23 19:09:43","新北市淡水區清水街87號","121.441106666667","25.170385","6501000","淡水區"
"251001","011-UM","2018/02/23 19:09:47","新北市淡水區自強路201巷43號","121.462058333333","25.126845","6501000","淡水區"
"251010","413-VK","2018/02/23 19:09:53","新北市淡水區中正路一段156巷3號","121.421121666667","25.180345","6501000","淡水區"
"251016","442-VK","2018/02/23 19:09:46","新北市淡水區安子內12號","121.481485","25.2190766666667","6501000","淡水區"
"251005","443-VK","2018/02/23 19:09:35","新北市淡水區中山路128號","121.441695","25.1709983333333","6501000","淡水區"
"251006","561-UM","2018/02/23 19:09:40","新北市淡水區中山北路一段265號","121.444713333333","25.1811033333333","6501000","淡水區"
"251007","577-R6","2018/02/23 19:09:43","新北市淡水區民生路145巷58號","121.468138333333","25.1388983333333","6501000","淡水區"
"251002","672-BX","2018/02/23 19:09:47","新北市淡水區中山路87巷1號","121.44253","25.1705133333333","6501000","淡水區"
"251003","673-BX","2018/02/23 19:09:45","新北市淡水區中山北路一段177號","121.443711666667","25.1778966666667","6501000","淡水區"
"207003","550-UM","2018/02/23 19:09:44","新北市萬里區大鵬里萬里加投14號","121.650328333333","25.2091033333333","6502800","萬里區"
"207004","225-TW","2018/02/23 19:09:40","新北市萬里區萬里里瑪鋉下街46-1號","121.691505","25.1793283333333","6502800","萬里區"
"252002","178-VK","2018/02/23 19:09:35","新北市三芝區埔坪里埔頭坑84號","121.50804","25.254315","6502100","三芝區"
"252003","249-BX","2018/02/23 19:09:49","新北市三芝區錫板里南勢崗6號","121.4795","25.261915","6502100","三芝區"
"252001","292-VK","2018/02/23 19:09:45","新北市三芝區長勤街45巷2號","121.500308333333","25.2550833333333","6502100","三芝區"
"237004","KEA-2597","2018/02/23 19:09:33","新北市三峽區有木206號","121.439093333333","24.8515066666667","6500900","三峽區"
"237007","153-BY","2018/02/23 19:09:41","新北市三峽區中正路二段42巷12-1號","121.364198333333","24.9206566666667","6500900","三峽區"
"237009","210-TH","2018/02/23 19:09:37","新北市三峽區民族街180號","121.368415","24.927965","6500900","三峽區"
"237013","252-BX","2018/02/23 19:09:48","新北市三峽區光明路69巷25號","121.376605","24.929145","6500900","三峽區"
"237012","275-BY","2018/02/23 19:09:45","新北市三峽區三樹路222巷192-1號","121.388511666667","24.94259","6500900","三峽區"
"237008","302-VK","2018/02/23 19:09:42","新北市三峽區大同路84號","121.375951666667","24.9278433333333","6500900","三峽區"
"237014","433-BY","2018/02/23 19:09:46","新北市三峽區隆恩街236號","121.357751666667","24.941165","6500900","三峽區"
"237006","5529-G3","2018/02/23 19:09:32","新北市三峽區橫溪路95號","121.398473333333","24.9354433333333","6500900","三峽區"
"237011","KEA-2596","2018/02/23 19:09:33","新北市三峽區介壽路一段383-1號","121.387496666667","24.9338266666667","6500900","三峽區"
"237010","706-TV","2018/02/23 19:09:44","新北市三峽區復興路45號","121.373486666667","24.9369716666667","6500900","三峽區"
"237005","AKY-6261","2018/02/23 19:09:45","新北市三峽區中山路459巷137號","121.350081666667","24.9337483333333","6500900","三峽區"
"236072","105-UM","2018/02/23 19:09:36","新北市土城區裕生路84巷2號","121.447281666667","24.9854133333333","6501300","土城區"
"236079","166-UM","2018/02/23 19:09:42","新北市土城區龍泉路10-1號","121.409536666667","24.9492883333333","6501300","土城區"
"236026","269-VK","2018/02/23 19:09:43","新北市土城區中正路11巷2號","121.442951666667","24.9754833333333","6501300","土城區"
"236015","270-VK","2018/02/23 19:09:37","新北市土城區學府路一段37巷26號","121.457471666667","24.9876383333333","6501300","土城區"
"236039","271-VK","2018/02/23 19:09:44","新北市土城區清水路100號","121.457531666667","24.98137","6501300","土城區"
"236022","401-BY","2018/02/23 19:09:50","新北市土城區延峰街22號","121.468886666667","24.9860233333333","6501300","土城區"
"236050","752-BX","2018/02/23 19:09:39","新北市土城區明德路一段398-1號","121.453646666667","24.979085","6501300","土城區"
"236059","912-UM","2018/02/23 19:09:33","新北市土城區學士路123號","121.44723","24.975995","6501300","土城區"
"238015","755-BX","2018/02/23 19:09:45","新北市樹林區備內街101號","121.407283333333","24.9894","6500700","樹林區"
"238023","601-UM","2018/02/23 19:09:45","新北市樹林區大慶街57號","121.396051666667","25.0138483333333","6500700","樹林區"
"238019","599-UM","2018/02/23 19:09:43","新北市樹林區東榮街76號","121.416385","24.9828383333333","6500700","樹林區"
"238018","571-TV","2018/02/23 19:09:51","新北市樹林區太平路59號","121.419016666667","24.9819616666667","6500700","樹林區"
"238024","5061-A6","2018/02/23 19:09:49","新北市樹林區味王街20號","121.403131666667","24.9755716666667","6500700","樹林區"
"238021","KEA-2217","2018/02/23 19:09:39","新北市樹林區柑園街二段328巷2弄1號","121.372861666667","24.951995","6500700","樹林區"
"238022","KEA-2213","2018/02/23 19:09:46","新北市樹林區中山路二段151巷8弄41號","121.405815","24.9774383333333","6500700","樹林區"
"238025","303-VK","2018/02/23 19:09:48","新北市樹林區中山路三段68號","121.393851666667","24.9723583333333","6500700","樹林區"
"238017","283-BY","2018/02/23 19:09:37","新北市樹林區光興街296號","121.407233333333","25.0053933333333","6500700","樹林區"
"238014","282-BY","2018/02/23 19:09:50","新北市樹林區千歲街61巷4號","121.426436666667","24.99797","6500700","樹林區"
"238020","268-VK","2018/02/23 19:09:47","新北市樹林區俊英街133巷1弄2-4號","121.42392","25.0112933333333","6500700","樹林區"
"238026","172-UY","2018/02/23 19:09:50","新北市樹林區佳園路一段39號","121.39321","24.9707633333333","6500700","樹林區"
"238016","169-UY","2018/02/23 19:09:33","新北市樹林區中山路一段306巷51弄3號","121.418423333333","24.9860866666667","6500700","樹林區"
"239007","AAC-297","2018/02/23 19:09:46","新北市鶯歌區中正一路226-1號","121.353843333333","24.9569283333333","6500800","鶯歌區"
"239006","891-R6","2018/02/23 19:09:36","新北市鶯歌區永昌街32巷2號","121.343045","24.9501633333333","6500800","鶯歌區"
"239008","527-UM","2018/02/23 19:09:46","新北市鶯歌區國際二路10巷1號","121.337908333333","24.9741633333333","6500800","鶯歌區"
"239005","526-UM","2018/02/23 19:09:32","新北市鶯歌區中湖街25號","121.347496666667","24.9727966666667","6500800","鶯歌區"
"239001","417-VK","2018/02/23 19:09:45","新北市鶯歌區鶯桃路95巷9號","121.338705","24.9536666666667","6500800","鶯歌區"
"239003","360-BY","2018/02/23 19:09:31","新北市鶯歌區德昌二街92-1號","121.332776666667","24.9553816666667","6500800","鶯歌區"
"239004","193-VK","2018/02/23 19:09:33","新北市鶯歌區中正三路291巷20弄2號","121.32973","24.9355866666667","6500800","鶯歌區"
"221008","489-VK","2018/02/23 19:09:42","新北市汐止區康寧街445號","121.631051666667","25.0681683333333","6501100","汐止區"
"221036","130-UY","2018/02/23 19:09:40","新北市汐止區信義路1號","121.662511666667","25.06934","6501100","汐止區"
"221015","131-UY","2018/02/23 19:09:51","新北市汐止區康寧街901號","121.651571666667","25.0749466666667","6501100","汐止區"
"221010","269-BY","2018/02/23 19:09:45","新北市汐止區康寧街901號","121.651463333333","25.0750283333333","6501100","汐止區"
"221012","278-VK","2018/02/23 19:09:33","新北市汐止區康寧街901號","121.65076","25.07529","6501100","汐止區"
"221023","279-VK","2018/02/23 19:09:43","新北市汐止區康寧街901號","121.650965","25.0752166666667","6501100","汐止區"
"221032","280-BY","2018/02/23 19:09:44","新北市汐止區橫科路385巷11號","121.624601666667","25.04772","6501100","汐止區"
"221027","281-BY","2018/02/23 19:09:50","新北市汐止區康寧街901號","121.65144","25.0749933333333","6501100","汐止區"
"221038","297-VK","2018/02/23 19:09:39","新北市汐止區汐萬路一段312號","121.650638333333","25.0753216666667","6501100","汐止區"
"221029","298-VK","2018/02/23 19:09:48","新北市汐止區汐萬路一段256巷3號","121.653298333333","25.0747033333333","6501100","汐止區"
"221031","353-TW","2018/02/23 19:09:37","新北市汐止區福德二路18號","121.635151666667","25.06833","6501100","汐止區"
"221025","623-UM","2018/02/23 19:09:47","新北市汐止區康寧街901號","121.651635","25.0749766666667","6501100","汐止區"
"221033","647-BX","2018/02/23 19:09:32","新北市汐止區南勢街1巷1號","121.627063333333","25.0374533333333","6501100","汐止區"
"221002","707-TV","2018/02/23 19:09:36","台北市南港區南港路一段4號","121.619936666667","25.0546866666667","6501100","汐止區"
"220079","145-BY","2018/02/23 19:09:41","新北市板橋區民權路260巷15號","121.458541666667","25.0153816666667","6500100","板橋區"
"220080","200-UY","2018/02/23 19:09:46","新北市板橋區大觀路二段7巷47號","121.448426666667","25.0033316666667","6500100","板橋區"
"220082","610-BX","2018/02/23 19:09:49","新北市板橋區滿平街64號","121.427168333333","24.98941","6500100","板橋區"
"220101","245-BX","2018/02/23 19:09:41","新北市板橋區萬板路15號","121.47058","25.0209833333333","6500100","板橋區"
"220097","255-TC","2018/02/23 19:09:35","新北市板橋區新海路135巷37號","121.45961","25.022725","6500100","板橋區"
"220096","257-TC","2018/02/23 19:09:45","新北市板橋區雙十路二段49號","121.47641","25.0261916666667","6500100","板橋區"
"220056","276-BY","2018/02/23 19:09:36","新北市板橋區信義路74巷1弄1號","121.457311666667","24.993235","6500100","板橋區"
"220072","277-BY","2018/02/23 19:09:45","新北市板橋區金門街369巷48號","121.428406666667","24.9826516666667","6500100","板橋區"
"220071","283-VK","2018/02/23 19:09:35","新北市板橋區重慶路327巷19弄3-2號","121.464753333333","24.9988466666667","6500100","板橋區"
"220094","285-UM","2018/02/23 19:09:51","新北市板橋區光武街108-5號","121.465666666667","25.0292066666667","6500100","板橋區"
"220053","285-VK","2018/02/23 19:09:47","新北市板橋區懷仁街23號","121.476356666667","25.01974","6500100","板橋區"
"220083","286-VK","2018/02/23 19:09:47","新北市板橋區大觀路二段174巷173弄9號","121.441361666667","25.00385","6500100","板橋區"
"220081","287-VK","2018/02/23 19:09:42","新北市板橋區南雅西路二段156巷55號","121.452505","25.0126866666667","6500100","板橋區"
"220061","293-UM","2018/02/23 19:09:40","新北市板橋區三民路二段2號","121.479223333333","25.0182016666667","6500100","板橋區"
"220084","296-UM","2018/02/23 19:09:45","新北市板橋區溪崑一街30巷6號","121.429786666667","24.9911583333333","6500100","板橋區"
"220075","303-R5","2018/02/23 19:09:40","新北市板橋區館前西路122號","121.456613333333","25.0077016666667","6500100","板橋區"
"220062","305-R5","2018/02/23 19:09:39","新北市板橋區三民路二段居仁巷1弄24號","121.480003333333","25.013575","6500100","板橋區"
"220092","307-R5","2018/02/23 19:09:36","新北市板橋區文化路一段341號","121.466633333333","25.02084","6500100","板橋區"
"220098","317-R6","2018/02/23 19:09:53","新北市板橋區自由路51巷14弄1號","121.464721666667","25.0235166666667","6500100","板橋區"
"220064","486-VK","2018/02/23 19:09:47","新北市板橋區板新路27號","121.474653333333","25.0129866666667","6500100","板橋區"
"220089","487-VK","2018/02/23 19:09:42","新北市板橋區文化路二段389號","121.473601666667","25.03152","6500100","板橋區"
"220088","491-VK","2018/02/23 19:09:47","新北市板橋區文化路二段182巷1弄12號","121.471415","25.02777","6500100","板橋區"
"220035","560-BX","2018/02/23 19:09:47","新北市板橋區瑞安街33號","121.455603333333","25.02283","6500100","板橋區"
"220103","561-BX","2018/02/23 19:09:51","新北市板橋區介壽街84巷56號","121.468673333333","25.0183633333333","6500100","板橋區"
"220063","609-BX","2018/02/23 19:09:42","新北市板橋區三民路二段253-1號","121.47899","25.0117966666667","6500100","板橋區"
"220091","637-BX","2018/02/23 19:09:49","新北市板橋區縣民大道247巷80號","121.48216","25.02694","6500100","板橋區"
"220057","686-BX","2018/02/23 19:09:39","新北市板橋區重慶路293-1號","121.463455","24.9990966666667","6500100","板橋區"
"220077","687-BX","2018/02/23 19:09:47","新北市板橋區大觀路二段121號","121.445985","25.0014116666667","6500100","板橋區"
"220093","689-BX","2018/02/23 19:09:33","新北市板橋區民生路三段203號","121.465326666667","25.0278983333333","6500100","板橋區"
"220054","741-BX","2018/02/23 19:09:17","新北市板橋區重慶路89巷12號","121.463041666667","25.0065","6500100","板橋區"
"220102","KEA-2699","2018/02/23 19:09:34","新北市板橋區田單街51號","121.482646666667","25.0279416666667","6500100","板橋區"
"220055","827-TW","2018/02/23 19:09:47","新北市板橋區新民街7巷14號","121.463661666667","25.0104266666667","6500100","板橋區"
"220067","829-TW","2018/02/23 19:09:35","新北市板橋區中山路二段90巷43弄9號","121.476738333333","25.015085","6500100","板橋區"
"220090","830-TW","2018/02/23 19:09:33","新北市板橋區裕民街43號","121.461526666667","25.02864","6500100","板橋區"
"220074","895-R6","2018/02/23 19:09:34","新北市板橋區中正路43號","121.45635","25.01333","6500100","板橋區"
"220073","985-R7","2018/02/23 19:09:47","新北市板橋區中正路280號","121.454991666667","25.02008","6500100","板橋區"
"220070","AAC-253","2018/02/23 19:09:47","新北市板橋區忠孝路86號","121.461641666667","25.0020416666667","6500100","板橋區"
