"lineid","car","time","location","longitude","latitude","cityid","cityname"
"234046","148-BY","2018/02/23 20:19:41","新北市永和區林森路65號","121.52407","25.0041383333333","6500400","永和區"
"234067","149-BY","2018/02/23 20:19:45","新北市永和區保平路236巷1弄16號","121.508388333333","25.00551","6500400","永和區"
"234081","298-R6","2018/02/23 20:19:50","新北市永和區福和路79號","121.522453333333","25.0079216666667","6500400","永和區"
"234038","336-UY","2018/02/23 20:19:37","新北市永和區成功路一段97號","121.526945","25.00265","6500400","永和區"
"234064","337-UY","2018/02/23 20:19:48","新北市永和區中正路338號","121.517655","25.0000583333333","6500400","永和區"
"234086","338-UY","2018/02/23 20:19:45","新北市永和區永和路二段190號","121.515468333333","25.01355","6500400","永和區"
"234070","552-UM","2018/02/23 20:19:49","新北市永和區永安街7巷5號","121.51854","25.0061133333333","6500400","永和區"
"234017","745-BX","2018/02/23 20:19:37","新北市永和區仁愛路35號","121.514166666667","25.0133266666667","6500400","永和區"
"234030","746-BX","2018/02/23 20:19:48","新北市永和區民有街69號","121.517873333333","24.99577","6500400","永和區"
"234054","KEA-2590","2018/02/23 20:19:34","新北市永和區光復街2巷1號","121.51662","25.0166566666667","6500400","永和區"
"234013","KEA-2591","2018/02/23 20:19:40","新北市永和區仁愛路295號","121.50507","25.00905","6500400","永和區"
"234061","AAD-866","2018/02/23 20:19:45","新北市永和區得和路46號","121.515855","25.0002283333333","6500400","永和區"
"234042","862-TW","2018/02/23 20:19:54","新北市中和區中和路350巷3弄2號","121.510343333333","25.0012433333333","6500400","永和區"
"234050","863-TW","2018/02/23 20:19:41","新北市永和區新生路28巷16號","121.508293333333","25.016375","6500400","永和區"
"234026","9371-KE","2018/02/23 20:19:39","新北市永和區保生路55號","121.504576666667","25.010785","6500400","永和區"
"234023","9381-KE","2018/02/23 20:19:45","新北市永和區勵行街39號","121.516618333333","25.0137666666667","6500400","永和區"
"249005","172-UM","2018/02/23 20:19:50","新北市八里區下罟子5-8號","121.387433333333","25.1424216666667","6502300","八里區"
"249001","173-UM","2018/02/23 20:19:51","新北市八里區中華路二段538號","121.399033333333","25.1451233333333","6502300","八里區"
"249004","303-UY","2018/02/23 20:19:40","新北市八里區中山路一段129巷29號","121.413986666667","25.1585466666667","6502300","八里區"
"249002","305-UY","2018/02/23 20:19:36","新北市八里區龍米路一段470號","121.450056666667","25.1358683333333","6502300","八里區"
"249003","593-UM","2018/02/23 20:19:49","新北市八里區中山路二段447巷2號","121.396971666667","25.1453383333333","6502300","八里區"
"248016","026-BX","2018/02/23 20:19:53","新北市五股區天乙路34號","121.448451666667","25.10345","6501500","五股區"
"248012","247-BX","2018/02/23 20:19:40","新北市五股區民義路一段212號","121.430513333333","25.0893733333333","6501500","五股區"
"248004","677-BX","2018/02/23 20:19:50","新北市五股區成泰路二段106號","121.437616666667","25.0830033333333","6501500","五股區"
"234077","969-R7","2018/02/23 20:19:49","新北市永和區民享街21號","121.515621666667","24.9949066666667","6500400","永和區"
"234074","AAC-211","2018/02/23 20:19:48","新北市永和區豫溪街197號","121.523175","25.009875","6500400","永和區"
"234003","AAC-295","2018/02/23 20:19:50","新北市永和區大新街31號","121.515168333333","25.0084916666667","6500400","永和區"
"243011","297-R6","2018/02/23 20:19:35","新北市新莊區壽山路160巷21號","121.417423333333","25.031945","6501600","泰山區"
"243015","380-SR","2018/02/23 20:19:37","新北市泰山區明志路一段334號","121.431098333333","25.0586933333333","6501600","泰山區"
"243014","421-VK","2018/02/23 20:19:36","新北市泰山區泰林路二段394號","121.427926666667","25.064025","6501600","泰山區"
"243012","539-UM","2018/02/23 20:19:42","新北市泰山區楓江路45號","121.435383333333","25.0625783333333","6501600","泰山區"
"243010","KEA-2215","2018/02/23 20:19:49","新北市泰山區明志路二段246巷9號","121.426473333333","25.0476566666667","6501600","泰山區"
"243009","KEA-2216","2018/02/23 20:19:45","新北市泰山區福泰街62巷2號","121.434178333333","25.0591083333333","6501600","泰山區"
"243013","646-TV","2018/02/23 20:19:44","新北市泰山區中央路5巷14號","121.427058333333","25.0434116666667","6501600","泰山區"
"243016","680-BX","2018/02/23 20:19:35","新北市泰山區明志路三段219號","121.423935","25.038145","6501600","泰山區"
"222003","016-RS","2018/02/23 20:19:37","新北市深坑區文化街43號","121.617443333333","25.00164","6501800","深坑區"
"222002","659-BX","2018/02/23 20:19:37","新北市深坑區萬福路75巷38號","121.59855","25.0096983333333","6501800","深坑區"
"231041","002-UM","2018/02/23 20:19:39","新北市新店區民權路44號","121.54018","24.9829916666667","6500600","新店區"
"231059","046-UY","2018/02/23 20:19:41","新北市新店區安德街153號","121.508313333333","24.959725","6500600","新店區"
"231061","047-UY","2018/02/23 20:19:37","新北市新店區安民街133巷26號","121.515316666667","24.9694966666667","6500600","新店區"
"231060","106-UY","2018/02/23 20:19:39","新北市新店區錦秀路11巷94弄2號","121.480236666667","24.94244","6500600","新店區"
"231051","107-UY","2018/02/23 20:19:54","新北市新店區中央六街57號","121.527868333333","24.9759566666667","6500600","新店區"
"231048","108-UY","2018/02/23 20:19:33","新北市新店區中興路三段221-1號","121.54343","24.982635","6500600","新店區"
"231053","187-VK","2018/02/23 20:19:38","新北市新店區新烏路三段3號","121.552346666667","24.9062283333333","6500600","新店區"
"231050","KEA-2219","2018/02/23 20:19:41","新北市新店區北新路二段2號","121.542801666667","24.9707883333333","6500600","新店區"
"231057","256-BX","2018/02/23 20:19:38","新北市新店區花園五路二段27號","121.554718333333","24.9347683333333","6500600","新店區"
"231054","AAD-862","2018/02/23 20:19:34","新北市新店區檳榔路105號","121.544496666667","24.9619166666667","6500600","新店區"
"231058","3712-VJ","2018/02/23 20:19:39","新北市新店區中正路347號","121.535515","24.975785","6500600","新店區"
"231056","3713-VJ","2018/02/23 20:19:43","新北市新店區中正路324號","121.536965","24.9747983333333","6500600","新店區"
"231055","4716-K9","2018/02/23 20:19:37","新北市新店區北新路一段303號","121.541201666667","24.96756","6500600","新店區"
"231067","4772-VM","2018/02/23 20:19:36","新北市新店區溪洲路101號","121.532586666667","24.961785","6500600","新店區"
"231065","512-UM","2018/02/23 20:19:45","新北市新店區安祥路104巷6弄36號","121.483086666667","24.9629683333333","6500600","新店區"
"231064","515-UM","2018/02/23 20:19:41","新北市新店區安和路三段101號","121.517975","24.9844783333333","6500600","新店區"
"231040","618-UM","2018/02/23 20:19:34","新北市新店區中華路74號","121.538675","24.9708116666667","6500600","新店區"
"231042","641-BX","2018/02/23 20:19:42","新北市新店區寶高路23號","121.553163333333","24.9774466666667","6500600","新店區"
"231063","645-TV","2018/02/23 20:18:48","新北市新店區薏仁坑路6號","121.50021","24.9581483333333","6500600","新店區"
"231068","718-UY","2018/02/23 20:19:33","新北市新店區民權路19號","121.542045","24.9828783333333","6500600","新店區"
"231049","719-UM","2018/02/23 20:19:44","新北市新店區安康路一段9-2號","121.533793333333","24.960655","6500600","新店區"
"231062","720-UM","2018/02/23 20:19:45","新北市新店區安泰路7巷16號","121.485678333333","24.9510083333333","6500600","新店區"
"231044","897-TW","2018/02/23 20:19:33","新北市新店區北新路三段147-1號","121.541293333333","24.9833966666667","6500600","新店區"
"231045","898-TW","2018/02/23 20:19:35","新北市新店區新坡一街85號","121.548965","24.9645333333333","6500600","新店區"
"231043","899-TW","2018/02/23 20:19:47","新北市新店區建國路133號","121.539326666667","24.9782266666667","6500600","新店區"
"231066","AKT-0513","2018/02/23 20:19:48","新北市新店區安興路112號","121.514591666667","24.9776633333333","6500600","新店區"
"241011","013-R5","2018/02/23 20:19:47","新北市三重區龍門路181號","121.499326666667","25.07328","6500200","三重區"
"241028","022-UY","2018/02/23 20:19:40","新北市三重區大同南路103-2號","121.496256666667","25.058595","6500200","三重區"
"241008","059-VK","2018/02/23 20:19:42","新北市三重區永福街211巷1-1號","121.479913333333","25.0743316666667","6500200","三重區"
"241009","060-VK","2018/02/23 20:19:44","新北市三重區三和路四段360-3號","121.483135","25.0784883333333","6500200","三重區"
"241031","061-VK","2018/02/23 20:19:43","新北市三重區三寧街15號","121.489428333333","25.0597766666667","6500200","三重區"
"241015","062-VK","2018/02/23 20:19:35","新北市三重區重新路一段126號","121.50027","25.0630083333333","6500200","三重區"
"241017","063-VK","2018/02/23 20:19:47","新北市三重區自強路一段306號","121.491281666667","25.0683933333333","6500200","三重區"
"241026","066-VK","2018/02/23 20:19:49","新北市三重區中央南路31號","121.50129","25.0621666666667","6500200","三重區"
"241002","090-VK","2018/02/23 20:19:40","新北市三重區五華街25號","121.49469","25.0806283333333","6500200","三重區"
"241003","156-TC","2018/02/23 20:19:40","新北市三重區富華街98號","121.491281666667","25.083615","6500200","三重區"
"241005","262-UM","2018/02/23 20:19:35","新北市三重區仁愛街510號","121.487456666667","25.0821083333333","6500200","三重區"
"241016","265-UM","2018/02/23 20:19:51","新北市三重區大同北路97-3號","121.494331666667","25.0636433333333","6500200","三重區"
"241022","267-UM","2018/02/23 20:19:44","新北市三重區市前街14號","121.489138333333","25.062285","6500200","三重區"
"241018","268-UM","2018/02/23 20:19:43","新北市三重區自強路一段155-1號","121.493665","25.06721","6500200","三重區"
"241032","269-UM","2018/02/23 20:19:40","新北市三重區捷運路19巷8弄19號","121.484138333333","25.0571683333333","6500200","三重區"
"241013","270-UM","2018/02/23 20:19:32","新北市三重區三和路三段167巷2號","121.491955","25.0741316666667","6500200","三重區"
"241025","271-UM","2018/02/23 20:19:48","新北市三重區自由街18巷15號","121.479153333333","25.0664333333333","6500200","三重區"
"241007","398-BY","2018/02/23 20:19:52","新北市三重區溪尾街108巷61號","121.487435","25.078235","6500200","三重區"
"241020","413-TH","2018/02/23 20:19:48","新北市三重區明德街41號","121.492375","25.072135","6500200","三重區"
"241035","462-BY","2018/02/23 20:19:50","新北市三重區正義北路33巷51號","121.499025","25.0638316666667","6500200","三重區"
"241004","475-VK","2018/02/23 20:19:44","新北市三重區仁愛街382號","121.491061666667","25.0808783333333","6500200","三重區"
"241024","478-VK","2018/02/23 20:19:42","新北市三重區忠孝路三段15巷9號","121.48127","25.0675366666667","6500200","三重區"
"241030","480-VK","2018/02/23 20:19:51","新北市三重區集美街75巷45號","121.487606666667","25.05246","6500200","三重區"
"241014","543-UM","2018/02/23 20:19:39","新北市三重區龍門路238號","121.500675","25.0737466666667","6500200","三重區"
"241023","545-UM","2018/02/23 20:19:37","新北市三重區忠孝路三段99巷4號","121.480208333333","25.064275","6500200","三重區"
"241001","547-UM","2018/02/23 20:19:48","新北市三重區自強路四段31巷18號","121.490005","25.0768933333333","6500200","三重區"
"241019","KEA-2593","2018/02/23 20:19:34","新北市三重區自強路二段33巷6號","121.489826666667","25.0696133333333","6500200","三重區"
"241012","941-UM","2018/02/23 20:19:37","新北市三重區河邊北街262號","121.501643333333","25.0764483333333","6500200","三重區"
"241029","942-UM","2018/02/23 20:19:35","新北市三重區集美街225號","121.491993333333","25.0552016666667","6500200","三重區"
"241033","AAC-255","2018/02/23 20:19:40","新北市三重區五谷王北街77號","121.475735","25.0503883333333","6500200","三重區"
"235066","003-UY","2018/02/23 20:19:51","新北市中和區中山路二段3巷22弄12號","121.505973333333","25.00496","6500300","中和區"
"235039","097-UM","2018/02/23 20:19:43","新北市中和區大勇街25巷1號","121.517186666667","24.993215","6500300","中和區"
"235065","098-UM","2018/02/23 20:19:47","新北市中和區福美路314號","121.4967","25.0048966666667","6500300","中和區"
"235068","377-QA","2018/02/23 20:19:52","新北市中和區勝利路35巷1弄36號","121.500406666667","25.0079566666667","6500300","中和區"
"235050","4979-A6","2018/02/23 20:19:47","新北市中和區景平路221巷10號","121.510111666667","24.9923066666667","6500300","中和區"
"235069","4980-A6","2018/02/23 20:19:39","新北市中和區中正路434號","121.491205","24.9941916666667","6500300","中和區"
"235026","800-TS","2018/02/23 20:19:32","新北市中和區員山路36巷13號","121.484381666667","24.990665","6500300","中和區"
"235070","911-UM","2018/02/23 20:19:35","新北市中和區中正路450號","121.490836666667","24.9942866666667","6500300","中和區"
"235059","AAC-215","2018/02/23 20:19:32","新北市中和區員山路30-1號","121.483531666667","24.9878633333333","6500300","中和區"
"220069","AAD-861","2018/02/23 20:19:40","新北市板橋區南雅南路二段114號","121.4527","25.000745","6500100","板橋區"
"247022","893-R6","2018/02/23 20:19:44","新北市蘆洲區三民路263號","121.468123333333","25.0892316666667","6501400","蘆洲區"
"247020","500-BY","2018/02/23 20:19:48","新北市蘆洲區仁愛街37號","121.472141666667","25.0927866666667","6501400","蘆洲區"
"247010","339-TH","2018/02/23 20:19:34","新北市蘆洲區信義路188巷25弄1號","121.480291666667","25.0846516666667","6501400","蘆洲區"
"247002","337-TH","2018/02/23 20:19:46","新北市蘆洲區長安街331巷38號","121.455733333333","25.0866216666667","6501400","蘆洲區"
"247004","336-TH","2018/02/23 20:19:32","新北市蘆洲區永康街1巷15號","121.459733333333","25.0854666666667","6501400","蘆洲區"
"247012","335-TH","2018/02/23 20:19:42","新北市蘆洲區中興街13號","121.480545","25.087035","6501400","蘆洲區"
"247016","057-VK","2018/02/23 20:19:44","新北市蘆洲區光華路132巷37號","121.46576","25.0837083333333","6501400","蘆洲區"
"247006","056-VK","2018/02/23 20:19:41","新北市蘆洲區九芎街167巷3號","121.465086666667","25.078515","6501400","蘆洲區"
"247008","053-VK","2018/02/23 20:19:37","新北市蘆洲區集賢路226號","121.482418333333","25.086475","6501400","蘆洲區"
"247014","007-UY","2018/02/23 20:19:43","新北市蘆洲區中山一路236號","121.472625","25.08023","6501400","蘆洲區"
"247024","002-UY","2018/02/23 20:19:39","新北市蘆洲區光榮路120巷8弄20號","121.464273333333","25.0879333333333","6501400","蘆洲區"
"247018","001-UY","2018/02/23 20:19:33","新北市蘆洲區民族路390號","121.475138333333","25.09126","6501400","蘆洲區"
"222001","KEA-2212","2018/02/23 20:19:42","新北市深坑區北深路三段227號","121.600015","25.0040883333333","6501800","深坑區"
"251009","008-UM","2018/02/23 20:19:23","新北市淡水區中正路38-1號","121.443731666667","25.1692533333333","6501000","淡水區"
"251004","009-UM","2018/02/23 20:19:48","新北市淡水區民權路39號","121.459748333333","25.14051","6501000","淡水區"
"251008","181-VK","2018/02/23 20:19:40","新北市淡水區淡海路180巷29號","121.421845","25.18457","6501000","淡水區"
"251010","413-VK","2018/02/23 20:19:43","新北市淡水區新民街一段134號","121.427608333333","25.1888616666667","6501000","淡水區"
"251012","441-VK","2018/02/23 20:19:35","新北市淡水區淡金路三段461巷11-3號","121.450681666667","25.2139533333333","6501000","淡水區"
"251016","442-VK","2018/02/23 20:19:46","新北市淡水區頂田寮路20號","121.453983333333","25.2166433333333","6501000","淡水區"
"251006","561-UM","2018/02/23 20:19:40","新北市淡水區淡金路一段575號","121.452438333333","25.180425","6501000","淡水區"
"251002","672-BX","2018/02/23 20:19:53","新北市淡水區中正路124號","121.441393333333","25.1695933333333","6501000","淡水區"
"251003","673-BX","2018/02/23 20:19:45","新北市淡水區中山北路一段156號","121.44401","25.1781816666667","6501000","淡水區"
"207004","225-TW","2018/02/23 20:19:38","新北市萬里區北基里仁二街2號","121.682595","25.17566","6502800","萬里區"
"252002","178-VK","2018/02/23 20:19:34","新北市三芝區中正路一段35號","121.503115","25.2583933333333","6502100","三芝區"
"252001","292-VK","2018/02/23 20:19:45","新北市三芝區中山路一段14號","121.500853333333","25.2579583333333","6502100","三芝區"
"237013","252-BX","2018/02/23 20:19:47","新北市樹林區柑園街二段330號","121.372936666667","24.951545","6500900","三峽區"
"237006","5529-G3","2018/02/23 20:19:52","新北市三峽區中正路二段60號","121.366685","24.9186683333333","6500900","三峽區"
"237005","AKY-6261","2018/02/23 20:19:45","新北市三峽區三樹路98巷175號","121.383813333333","24.9398533333333","6500900","三峽區"
"236072","105-UM","2018/02/23 20:19:36","新北市土城區福安街31號","121.419403333333","24.964705","6501300","土城區"
"236079","166-UM","2018/02/23 20:19:42","新北市土城區德安街4巷1號","121.422188333333","24.964855","6501300","土城區"
"236031","253-BX","2018/02/23 20:19:36","新北市土城區學成路128巷11號","121.449553333333","24.9900516666667","6501300","土城區"
"236026","269-VK","2018/02/23 20:19:39","新北市土城區裕生路86巷1號","121.446931666667","24.985095","6501300","土城區"
"236015","270-VK","2018/02/23 20:19:37","新北市土城區廣明街90巷21號","121.45533","24.9945433333333","6501300","土城區"
"236039","271-VK","2018/02/23 20:19:44","新北市土城區明德路一段130號","121.463766666667","24.9789533333333","6501300","土城區"
"236022","401-BY","2018/02/23 20:19:50","新北市土城區延吉街40號","121.471903333333","24.9871516666667","6501300","土城區"
"236059","912-UM","2018/02/23 20:19:53","新北市土城區中央路三段112號","121.43529","24.96624","6501300","土城區"
"242029","986-R7","2018/02/23 20:19:50","新北市新莊區中原路114號","121.450386666667","25.0544266666667","6500500","新莊區"
"242050","751-BX","2018/02/23 20:19:45","新北市新莊區民安西路212巷2弄2號","121.425623333333","25.0148616666667","6500500","新莊區"
"242025","615-BX","2018/02/23 20:19:51","新北市新莊區五工二路70巷28號","121.461165","25.0666816666667","6500500","新莊區"
"242023","613-BX","2018/02/23 20:19:45","新北市新莊區化成路786號","121.465065","25.059285","6500500","新莊區"
"242027","612-BX","2018/02/23 20:19:52","新北市新莊區幸福路602-1號","121.45218","25.049275","6500500","新莊區"
"242039","566-BX","2018/02/23 20:19:37","新北市新莊區龍安路457號","121.424593333333","25.01848","6500500","新莊區"
"242044","497-BY","2018/02/23 20:19:40","新北市新莊區中正路新建巷28弄67號","121.413786666667","25.0209716666667","6500500","新莊區"
"242009","441-UM","2018/02/23 20:19:44","新北市新莊區昌平街1號","121.454886666667","25.0513416666667","6500500","新莊區"
"242054","440-UM","2018/02/23 20:19:39","新北市新莊區民安西路261巷10號","121.42669","25.0129883333333","6500500","新莊區"
"242034","415-TV","2018/02/23 20:19:41","新北市新莊區建中街90巷3弄12號","121.446236666667","25.03715","6500500","新莊區"
"242005","413-TV","2018/02/23 20:19:39","新北市新莊區頭前路2巷19號","121.468261666667","25.0536066666667","6500500","新莊區"
"242041","400-BY","2018/02/23 20:19:41","新北市新莊區壽山路41號","121.414835","25.0305883333333","6500500","新莊區"
"242060","362-BY","2018/02/23 20:19:51","新北市新莊區新樹路172-13號","121.434528333333","25.0218083333333","6500500","新莊區"
"242058","353-BY","2018/02/23 20:19:48","新北市新莊區四維路205-1號","121.42177","25.0203783333333","6500500","新莊區"
"242007","132-UY","2018/02/23 20:19:44","新北市新莊區福壽街94巷19弄2號","121.459326666667","25.050145","6500500","新莊區"
"242037","133-UY","2018/02/23 20:19:54","新北市新莊區建安街62巷3弄9號","121.426408333333","25.0247833333333","6500500","新莊區"
"242021","135-UY","2018/02/23 20:19:45","新北市新莊區和興街35號","121.447131666667","25.0397533333333","6500500","新莊區"
"242046","172-VK","2018/02/23 20:19:43","新北市新莊區中正路新生巷46號","121.417205","25.0233483333333","6500500","新莊區"
"242015","175-VK","2018/02/23 20:19:53","新北市新莊區永樂街237巷1號","121.446521666667","25.0443383333333","6500500","新莊區"
"242002","176-VK","2018/02/23 20:19:51","新北市新莊區化成路5-12號","121.464675","25.0425316666667","6500500","新莊區"
"242013","346-TH","2018/02/23 20:19:41","新北市新莊區中和街186巷2弄2號","121.447675","25.049705","6500500","新莊區"
"242019","348-TH","2018/02/23 20:19:34","新北市新莊區復興路二段196巷1號","121.459486666667","25.0440616666667","6500500","新莊區"
"242056","349-TH","2018/02/23 20:19:46","新北市新莊區新莊路649巷7號","121.445046666667","25.0322333333333","6500500","新莊區"
"242017","350-TH","2018/02/23 20:19:38","新北市新莊區中港二街145號","121.448075","25.0455133333333","6500500","新莊區"
"242011","351-TH","2018/02/23 20:19:37","新北市新莊區中信街23巷1號","121.451015","25.0505516666667","6500500","新莊區"
"221008","489-VK","2018/02/23 20:19:42","新北市汐止區康寧街397號","121.629403333333","25.0678833333333","6501100","汐止區"
"221036","130-UY","2018/02/23 20:19:40","新北市汐止區仁愛路152巷31號","121.664993333333","25.0638366666667","6501100","汐止區"
"221015","131-UY","2018/02/23 20:19:51","新北市汐止區建成路142巷19弄11號","121.661965","25.0738466666667","6501100","汐止區"
"221010","269-BY","2018/02/23 20:19:45","新北市汐止區八連路二段428號","121.628828333333","25.1025233333333","6501100","汐止區"
"221012","278-VK","2018/02/23 20:19:33","新北市汐止區保新街149號","121.68818","25.0697766666667","6501100","汐止區"
"221023","279-VK","2018/02/23 20:19:42","新北市汐止區湖東街5巷12號","121.634038333333","25.0729983333333","6501100","汐止區"
"221032","280-BY","2018/02/23 20:19:44","新北市汐止區橫科路73巷2-2號","121.619578333333","25.05047","6501100","汐止區"
"221027","281-BY","2018/02/23 20:19:50","新北市汐止區禮門街7號","121.65668","25.067355","6501100","汐止區"
"221038","297-VK","2018/02/23 20:19:39","新北市汐止區忠孝東路470號","121.666218333333","25.07327","6501100","汐止區"
"221029","298-VK","2018/02/23 20:19:28","新北市汐止區工建路31號","121.639521666667","25.0634866666667","6501100","汐止區"
"221021","299-VK","2018/02/23 20:19:44","新北市汐止區水源路一段284號","121.654115","25.0582883333333","6501100","汐止區"
"221031","353-TW","2018/02/23 20:19:36","新北市汐止區中興路150巷8-1號","121.633086666667","25.0647883333333","6501100","汐止區"
"221035","622-UM","2018/02/23 20:19:49","新北市汐止區長江街101-5號","121.658701666667","25.0732333333333","6501100","汐止區"
"221025","623-UM","2018/02/23 20:19:34","新北市汐止區水源路二段72巷6弄5號","121.655548333333","25.055425","6501100","汐止區"
"221033","647-BX","2018/02/23 20:19:52","新北市汐止區東勢街96-1號","121.633463333333","25.0413333333333","6501100","汐止區"
"221002","707-TV","2018/02/23 20:19:40","新北市汐止區福德三路26號","121.636791666667","25.0694733333333","6501100","汐止區"
"221018","753-BX","2018/02/23 20:19:46","新北市汐止區茄苳路233號","121.671303333333","25.068495","6501100","汐止區"
"220101","245-BX","2018/02/23 20:19:40","新北市板橋區萬板路316號","121.477866666667","25.02499","6500100","板橋區"
"220097","255-TC","2018/02/23 20:19:45","新北市板橋區光正街43號","121.461791666667","25.0172116666667","6500100","板橋區"
"220083","286-VK","2018/02/23 20:19:46","新北市板橋區僑中二街104巷47號","121.444225","25.0081233333333","6500100","板橋區"
"220081","287-VK","2018/02/23 20:19:46","新北市板橋區僑中一街100號","121.446718333333","25.0117983333333","6500100","板橋區"
"220061","293-UM","2018/02/23 20:19:40","新北市板橋區四川路一段286巷17號","121.457955","25.001135","6500100","板橋區"
"242048","281-VK","2018/02/23 20:19:34","新北市新莊區四維路182巷8號","121.421936666667","25.0219016666667","6500500","新莊區"
"220092","307-R5","2018/02/23 20:19:49","新北市板橋區文化路一段81巷6號","121.460705","25.0141833333333","6500100","板橋區"
"220089","487-VK","2018/02/23 20:19:43","新北市板橋區四維路210號","121.463968333333","25.027355","6500100","板橋區"
"242032","280-VK","2018/02/23 20:19:47","新北市新莊區三泰路24號","121.440211666667","25.0342166666667","6500500","新莊區"
"220103","561-BX","2018/02/23 20:19:51","新北市板橋區新海路150號","121.460411666667","25.0237616666667","6500100","板橋區"
"220102","KEA-2699","2018/02/23 20:19:54","新北市板橋區文化路一段88號","121.464483333333","25.01756","6500100","板橋區"
"220070","AAC-253","2018/02/23 20:19:47","新北市板橋區南雅南路二段116號","121.453231666667","25.0003416666667","6500100","板橋區"
