"lineid","car","time","location","longitude","latitude","cityid","cityname"
"234067","149-BY","2018/02/23 20:29:40","新北市永和區保平路292巷4號","121.507951666667","25.0048633333333","6500400","永和區"
"234081","298-R6","2018/02/23 20:29:50","新北市永和區永貞路84號","121.52001","25.005035","6500400","永和區"
"234038","336-UY","2018/02/23 20:29:54","新北市永和區環河東路四段42號","121.528745","24.9987933333333","6500400","永和區"
"234064","337-UY","2018/02/23 20:29:48","新北市永和區中正路526號","121.517243333333","25.00506","6500400","永和區"
"234086","338-UY","2018/02/23 20:29:45","新北市永和區光復街21號","121.516543333333","25.017415","6500400","永和區"
"234070","552-UM","2018/02/23 20:29:49","新北市永和區永寧街4號","121.520475","25.00646","6500400","永和區"
"234030","746-BX","2018/02/23 20:29:48","新北市永和區民族街81巷58號","121.520058333333","24.996455","6500400","永和區"
"234054","KEA-2590","2018/02/23 20:29:34","新北市永和區環河東路一段80號","121.519505","25.0164533333333","6500400","永和區"
"234013","KEA-2591","2018/02/23 20:29:40","新北市中和區光環路二段27號","121.487858333333","25.0128633333333","6500400","永和區"
"234061","AAD-866","2018/02/23 20:29:45","新北市永和區安樂路194巷37號","121.516481666667","25.0012683333333","6500400","永和區"
"234042","862-TW","2018/02/23 20:29:54","新北市永和區安樂路320號","121.514411666667","25.0054966666667","6500400","永和區"
"234050","863-TW","2018/02/23 20:29:41","新北市永和區新生路28巷3號","121.508335","25.0160416666667","6500400","永和區"
"234023","9381-KE","2018/02/23 20:29:38","新北市永和區光復街2巷16弄34號","121.517988333333","25.0163016666667","6500400","永和區"
"249001","173-UM","2018/02/23 20:29:51","新北市八里區中山路三段227號","121.381836666667","25.1404916666667","6502300","八里區"
"249004","303-UY","2018/02/23 20:29:40","新北市八里區中山路一段115號","121.413783333333","25.159545","6502300","八里區"
"249002","305-UY","2018/02/23 20:29:35","新北市八里區龍米路二段123號","121.44654","25.1445066666667","6502300","八里區"
"249003","593-UM","2018/02/23 20:29:49","新北市八里區華峰一街28號","121.399003333333","25.1465933333333","6502300","八里區"
"234074","AAC-211","2018/02/23 20:29:48","新北市永和區豫溪街217巷29號","121.524316666667","25.0102583333333","6500400","永和區"
"234003","AAC-295","2018/02/23 20:29:46","新北市永和區中正路616巷1號","121.517176666667","25.007795","6500400","永和區"
"243011","297-R6","2018/02/23 20:29:35","新北市泰山區新北大道六段365號","121.422483333333","25.0329566666667","6501600","泰山區"
"243015","380-SR","2018/02/23 20:29:17","新北市泰山區明志路一段483巷3弄10號","121.431746666667","25.05569","6501600","泰山區"
"243014","421-VK","2018/02/23 20:29:47","新北市泰山區泰林路二段589號","121.42188","25.0633916666667","6501600","泰山區"
"243012","539-UM","2018/02/23 20:29:42","新北市泰山區忠孝街17巷2號","121.427515","25.0654166666667","6501600","泰山區"
"243010","KEA-2215","2018/02/23 20:29:48","新北市泰山區新生路33-11號","121.427771666667","25.0458416666667","6501600","泰山區"
"243009","KEA-2216","2018/02/23 20:29:45","新北市泰山區泰林路二段306巷10號","121.431105","25.0635016666667","6501600","泰山區"
"243016","680-BX","2018/02/23 20:29:52","新北市泰山區新生路23號","121.427206666667","25.0456066666667","6501600","泰山區"
"222003","016-RS","2018/02/23 20:29:37","新北市深坑區深坑街42號","121.614883333333","25.0017333333333","6501800","深坑區"
"222002","659-BX","2018/02/23 20:26:56","新北市深坑區萬福路16巷16號","121.605495","25.0074116666667","6501800","深坑區"
"231041","002-UM","2018/02/23 20:29:39","新北市新店區中正路501-4號","121.533646666667","24.9837966666667","6500600","新店區"
"231059","046-UY","2018/02/23 20:29:41","新北市新店區安豐路46號","121.500101666667","24.9549316666667","6500600","新店區"
"231061","047-UY","2018/02/23 20:29:37","新北市新店區新和街39號","121.51928","24.98508","6500600","新店區"
"231060","106-UY","2018/02/23 20:29:39","新北市新店區錦秀路33號","121.479273333333","24.9438966666667","6500600","新店區"
"231051","107-UY","2018/02/23 20:29:34","新北市新店區中央七街73號","121.527411666667","24.97667","6500600","新店區"
"231048","108-UY","2018/02/23 20:29:53","新北市新店區寶慶街58巷21-1號","121.542023333333","24.9872483333333","6500600","新店區"
"231053","187-VK","2018/02/23 20:29:38","新北市新店區松林路30-9號","121.545266666667","24.9104916666667","6500600","新店區"
"231050","KEA-2219","2018/02/23 20:29:41","新北市新店區建興街9巷2號","121.53977","24.976335","6500600","新店區"
"231057","256-BX","2018/02/23 20:29:38","新北市新店區花園五路二段1號","121.55354","24.9341966666667","6500600","新店區"
"231054","AAD-862","2018/02/23 20:29:34","新北市新店區檳榔路105號","121.544636666667","24.9617833333333","6500600","新店區"
"231058","3712-VJ","2018/02/23 20:29:39","新北市新店區三民路94巷3號","121.534308333333","24.97327","6500600","新店區"
"231056","3713-VJ","2018/02/23 20:29:34","新北市新店區中正路330號","121.536831666667","24.97491","6500600","新店區"
"231065","512-UM","2018/02/23 20:29:45","新北市新店區安祥路102巷46弄37號","121.485821666667","24.9636216666667","6500600","新店區"
"231064","515-UM","2018/02/23 20:29:40","新北市新店區新和街59巷17號","121.519218333333","24.9859683333333","6500600","新店區"
"231040","618-UM","2018/02/23 20:29:34","新北市新店區中正路265號","121.538166666667","24.9739866666667","6500600","新店區"
"231042","641-BX","2018/02/23 20:29:42","新北市新店區寶高路120巷1號","121.554611666667","24.9760316666667","6500600","新店區"
"231063","645-TV","2018/02/23 20:29:48","新北市新店區玫瑰路4-1號","121.493561666667","24.9513616666667","6500600","新店區"
"231068","718-UY","2018/02/23 20:29:53","新北市新店區民權路15號","121.542221666667","24.9828466666667","6500600","新店區"
"231049","719-UM","2018/02/23 20:29:44","新北市新店區永業路81巷3弄1號","121.529833333333","24.9492033333333","6500600","新店區"
"231062","720-UM","2018/02/23 20:29:45","新北市新店區安泰路60巷134弄114號","121.484066666667","24.9434283333333","6500600","新店區"
"231044","897-TW","2018/02/23 20:29:53","新北市新店區建國路132號","121.539021666667","24.978845","6500600","新店區"
"231045","898-TW","2018/02/23 20:29:35","新北市新店區長春路21巷1號","121.549355","24.958145","6500600","新店區"
"231043","899-TW","2018/02/23 20:29:47","新北市新店區建國路99巷1號","121.540396666667","24.9771233333333","6500600","新店區"
"231066","AKT-0513","2018/02/23 20:29:48","新北市新店區安興路112號","121.514603333333","24.9776566666667","6500600","新店區"
"241011","013-R5","2018/02/23 20:29:47","新北市三重區龍門路56號","121.496565","25.0726066666667","6500200","三重區"
"241028","022-UY","2018/02/23 20:29:41","新北市三重區光興街30號","121.497391666667","25.05984","6500200","三重區"
"241008","059-VK","2018/02/23 20:29:42","新北市三重區下竹圍街91號","121.481098333333","25.0748666666667","6500200","三重區"
"241009","060-VK","2018/02/23 20:29:44","新北市三重區三和路四段382巷92弄1號","121.479488333333","25.0780433333333","6500200","三重區"
"241031","061-VK","2018/02/23 20:29:43","新北市三重區三寧街18號","121.48933","25.0599066666667","6500200","三重區"
"241015","062-VK","2018/02/23 20:29:51","新北市三重區正義北路107巷68號","121.498693333333","25.0660716666667","6500200","三重區"
"241017","063-VK","2018/02/23 20:29:47","新北市三重區自強路一段215號","121.491393333333","25.0684433333333","6500200","三重區"
"241026","066-VK","2018/02/23 20:29:47","新北市三重區福德南路24巷11號","121.503326666667","25.06311","6500200","三重區"
"241002","090-VK","2018/02/23 20:29:40","新北市三重區仁義街211巷57號","121.498441666667","25.082855","6500200","三重區"
"241003","156-TC","2018/02/23 20:29:40","新北市三重區富華街157號","121.493166666667","25.08495","6500200","三重區"
"241005","262-UM","2018/02/23 20:29:35","新北市三重區碧華街400號","121.491756666667","25.0848616666667","6500200","三重區"
"241016","265-UM","2018/02/23 20:29:51","新北市三重區正義北路190巷12號","121.495966666667","25.0667433333333","6500200","三重區"
"241022","267-UM","2018/02/23 20:29:45","新北市三重區民生街61巷18弄7號","121.487588333333","25.0628666666667","6500200","三重區"
"241018","268-UM","2018/02/23 20:29:43","新北市三重區正義北路216巷5號","121.495911666667","25.067535","6500200","三重區"
"241032","269-UM","2018/02/23 20:29:40","新北市三重區重陽路一段120巷48號","121.485023333333","25.0602","6500200","三重區"
"241013","270-UM","2018/02/23 20:29:32","新北市三重區溪尾街8號","121.49151","25.0744733333333","6500200","三重區"
"241025","271-UM","2018/02/23 20:29:48","新北市三重區頂崁街210巷27號","121.475721666667","25.0681966666667","6500200","三重區"
"241007","398-BY","2018/02/23 20:29:52","新北市三重區自強路四段32號","121.488851666667","25.0768616666667","6500200","三重區"
"241020","413-TH","2018/02/23 20:29:48","新北市三重區忠孝路一段101號","121.489558333333","25.07217","6500200","三重區"
"241035","462-BY","2018/02/23 20:29:50","新北市三重區正義北路96號","121.497093333333","25.0648583333333","6500200","三重區"
"241004","475-VK","2018/02/23 20:29:44","新北市三重區溪尾街216號","121.488015","25.0814","6500200","三重區"
"241024","478-VK","2018/02/23 20:29:42","新北市三重區忠孝路三段15巷41號","121.480126666667","25.0681016666667","6500200","三重區"
"241030","480-VK","2018/02/23 20:29:51","新北市三重區成功路70號","121.488488333333","25.0510616666667","6500200","三重區"
"241014","543-UM","2018/02/23 20:29:39","新北市三重區長興街90號","121.50161","25.06916","6500200","三重區"
"241023","545-UM","2018/02/23 20:29:36","新北市三重區自由街20號","121.479771666667","25.0665533333333","6500200","三重區"
"241001","547-UM","2018/02/23 20:29:48","新北市三重區聯華街126號","121.485003333333","25.07482","6500200","三重區"
"241019","KEA-2593","2018/02/23 20:29:34","新北市三重區三張街111-1號","121.48893","25.0703733333333","6500200","三重區"
"241012","941-UM","2018/02/23 20:29:37","新北市三重區龍濱路269號","121.501415","25.0730833333333","6500200","三重區"
"241029","942-UM","2018/02/23 20:29:35","新北市三重區集美街116號","121.488765","25.0539783333333","6500200","三重區"
"241033","AAC-255","2018/02/23 20:29:40","新北市三重區五谷王北街80巷52號","121.474935","25.05262","6500200","三重區"
"235039","097-UM","2018/02/23 20:29:43","新北市中和區大勇街27巷10號","121.516991666667","24.9938733333333","6500300","中和區"
"235050","4979-A6","2018/02/23 20:29:47","新北市中和區景新街160巷12號","121.50508","24.996865","6500300","中和區"
"235069","4980-A6","2018/02/23 20:29:39","新北市中和區中正路544號","121.487301666667","24.99465","6500300","中和區"
"235026","800-TS","2018/02/23 20:26:03","新北市中和區員山路36巷16-3號","121.484743333333","24.9914483333333","6500300","中和區"
"235059","AAC-215","2018/02/23 20:29:32","新北市中和區員山路36巷13號","121.484345","24.991485","6500300","中和區"
"220069","AAD-861","2018/02/23 20:29:40","新北市五股區新五路二段550號","121.44259","25.0851833333333","6500100","板橋區"
"247022","893-R6","2018/02/23 20:29:44","新北市蘆洲區中正路321號","121.466183333333","25.0887533333333","6501400","蘆洲區"
"247020","500-BY","2018/02/23 20:29:48","新北市蘆洲區仁愛街25號","121.472388333333","25.0925766666667","6501400","蘆洲區"
"247010","339-TH","2018/02/23 20:29:34","新北市蘆洲區集賢路306號","121.481243333333","25.0852266666667","6501400","蘆洲區"
"247002","337-TH","2018/02/23 20:29:47","新北市蘆洲區長安街361巷39號","121.455453333333","25.0873916666667","6501400","蘆洲區"
"247004","336-TH","2018/02/23 20:29:52","新北市蘆洲區長安街222號","121.458245","25.084865","6501400","蘆洲區"
"247012","335-TH","2018/02/23 20:29:42","新北市蘆洲區復興路185號","121.47911","25.0893866666667","6501400","蘆洲區"
"247016","057-VK","2018/02/23 20:29:44","新北市蘆洲區光華路52號","121.468581666667","25.0830366666667","6501400","蘆洲區"
"247006","056-VK","2018/02/23 20:29:41","新北市蘆洲區光華路169號","121.464878333333","25.0819566666667","6501400","蘆洲區"
"247008","053-VK","2018/02/23 20:29:37","新北市蘆洲區永安北路二段70號","121.483243333333","25.0841166666667","6501400","蘆洲區"
"247024","002-UY","2018/02/23 20:29:39","新北市蘆洲區光復路78號","121.464413333333","25.08541","6501400","蘆洲區"
"247018","001-UY","2018/02/23 20:29:53","新北市蘆洲區民族路257巷2號","121.476545","25.0905183333333","6501400","蘆洲區"
"222001","KEA-2212","2018/02/23 20:29:42","新北市深坑區北深路三段329號","121.597285","25.00504","6501800","深坑區"
"251001","011-UM","2018/02/23 20:29:47","新北市淡水區新市一路三段2號","121.444831666667","25.1829566666667","6501000","淡水區"
"251008","181-VK","2018/02/23 20:29:49","新北市淡水區淡海路180巷12-3號","121.42043","25.184475","6501000","淡水區"
"251010","413-VK","2018/02/23 20:29:53","新北市淡水區沙崙路181巷1號","121.424006666667","25.184345","6501000","淡水區"
"251012","441-VK","2018/02/23 20:29:35","新北市淡水區興仁路108號","121.451696666667","25.21815","6501000","淡水區"
"251016","442-VK","2018/02/23 20:29:46","新北市淡水區興仁路46巷1號","121.453548333333","25.2166233333333","6501000","淡水區"
"251006","561-UM","2018/02/23 20:29:40","新北市淡水區商工路300號","121.461038333333","25.1858783333333","6501000","淡水區"
"251011","650-BX","2018/02/23 20:29:38","新北市淡水區崁頂里77號","121.430565","25.203085","6501000","淡水區"
"251002","672-BX","2018/02/23 20:29:53","新北市淡水區中正路11-3號","121.443153333333","25.1695616666667","6501000","淡水區"
"251003","673-BX","2018/02/23 20:29:45","新北市淡水區新生街108巷2號","121.440141666667","25.1747733333333","6501000","淡水區"
"252002","178-VK","2018/02/23 20:29:34","新北市三芝區淡金路二段26號","121.50275","25.259755","6502100","三芝區"
"252001","292-VK","2018/02/23 20:29:45","新北市三芝區中山路一段35號","121.500661666667","25.2578983333333","6502100","三芝區"
"236072","105-UM","2018/02/23 20:29:36","新北市樹林區環河路600號","121.404661666667","24.9690816666667","6501300","土城區"
"236015","270-VK","2018/02/23 20:29:37","新北市土城區廣明街84號","121.454836666667","24.9941066666667","6501300","土城區"
"242029","986-R7","2018/02/23 20:29:50","新北市新莊區中華路二段151號","121.4529","25.0514416666667","6500500","新莊區"
"242050","751-BX","2018/02/23 20:29:46","新北市新莊區民安西路260號","121.425958333333","25.01333","6500500","新莊區"
"242025","615-BX","2018/02/23 20:29:51","新北市新莊區五工二路51號","121.460826666667","25.0651733333333","6500500","新莊區"
"242023","613-BX","2018/02/23 20:29:54","新北市新莊區化成路445號","121.464576666667","25.0608483333333","6500500","新莊區"
"242027","612-BX","2018/02/23 20:29:52","新北市新莊區思源路317號","121.459758333333","25.0492383333333","6500500","新莊區"
"242039","566-BX","2018/02/23 20:29:52","新北市新莊區成功街29號","121.425541666667","25.0213033333333","6500500","新莊區"
"242044","497-BY","2018/02/23 20:29:40","新北市新莊區中正路891-45號","121.413883333333","25.02282","6500500","新莊區"
"242009","441-UM","2018/02/23 20:29:44","新北市新莊區昌隆街92號","121.45613","25.0509016666667","6500500","新莊區"
"242054","440-UM","2018/02/23 20:29:39","新北市新莊區民安西路229巷6號","121.426523333333","25.01418","6500500","新莊區"
"242034","415-TV","2018/02/23 20:29:42","新北市新莊區新泰路98號","121.44857","25.0359","6500500","新莊區"
"242005","413-TV","2018/02/23 20:29:39","新北市新莊區化成路746巷37號","121.466915","25.0579233333333","6500500","新莊區"
"242041","400-BY","2018/02/23 20:29:41","新北市新莊區中正路694巷22號","121.41819","25.0286966666667","6500500","新莊區"
"242060","362-BY","2018/02/23 20:29:53","新北市新莊區新樹路244巷74號","121.43106","25.020005","6500500","新莊區"
"242058","353-BY","2018/02/23 20:29:48","新北市新莊區四維路129號","121.422913333333","25.0227","6500500","新莊區"
"242007","132-UY","2018/02/23 20:29:44","新北市新莊區思源路239號","121.459531666667","25.0467883333333","6500500","新莊區"
"242037","133-UY","2018/02/23 20:29:41","新北市新莊區後港一路76巷12弄2號","121.427126666667","25.025915","6500500","新莊區"
"242021","135-UY","2018/02/23 20:29:45","新北市新莊區公園路82號","121.450181666667","25.039755","6500500","新莊區"
"242046","172-VK","2018/02/23 20:29:43","新北市新莊區中正路新雅巷4弄1號","121.418016666667","25.0249983333333","6500500","新莊區"
"242015","175-VK","2018/02/23 20:29:41","新北市新莊區中平路48號","121.444743333333","25.04392","6500500","新莊區"
"242002","176-VK","2018/02/23 20:29:51","新北市新莊區明中街43巷29號","121.45701","25.0384933333333","6500500","新莊區"
"242013","346-TH","2018/02/23 20:29:40","新北市新莊區中榮街81巷2號","121.445406666667","25.0525266666667","6500500","新莊區"
"242019","348-TH","2018/02/23 20:29:51","新北市新莊區銘德街49巷2弄1號","121.457205","25.0433283333333","6500500","新莊區"
"242056","349-TH","2018/02/23 20:29:46","新北市新莊區新莊路751巷49號","121.442881666667","25.0314983333333","6500500","新莊區"
"242017","350-TH","2018/02/23 20:29:38","新北市新莊區中港三街27號","121.450291666667","25.046255","6500500","新莊區"
"242011","351-TH","2018/02/23 20:29:37","新北市新莊區中信街72號","121.4481","25.0521916666667","6500500","新莊區"
"221008","489-VK","2018/02/23 20:29:42","新北市汐止區康寧街706-2號","121.638456666667","25.0730216666667","6501100","汐止區"
"221036","130-UY","2018/02/23 20:29:40","新北市汐止區新台五路二段126巷13弄1號","121.663728333333","25.06596","6501100","汐止區"
"221015","131-UY","2018/02/23 20:29:51","新北市汐止區建成路142巷19弄9號","121.661991666667","25.073835","6501100","汐止區"
"221010","269-BY","2018/02/23 20:29:45","新北市汐止區八連路二段162號","121.633105","25.0956166666667","6501100","汐止區"
"221012","278-VK","2018/02/23 20:29:33","新北市汐止區大同路三段279號","121.674183333333","25.0750633333333","6501100","汐止區"
"221023","279-VK","2018/02/23 20:29:42","新北市汐止區湖東街19號","121.635735","25.0724516666667","6501100","汐止區"
"221032","280-BY","2018/02/23 20:29:44","新北市汐止區弘道街53巷22號","121.618851666667","25.0494116666667","6501100","汐止區"
"221027","281-BY","2018/02/23 20:29:50","新北市汐止區中正路191號","121.658761666667","25.0689983333333","6501100","汐止區"
"221038","297-VK","2018/02/23 20:29:39","新北市汐止區水源路一段72號","121.656666666667","25.06523","6501100","汐止區"
"221029","298-VK","2018/02/23 20:29:48","新北市汐止區樟樹一路135巷28號","121.64097","25.06578","6501100","汐止區"
"221021","299-VK","2018/02/23 20:29:44","新北市汐止區水源路一段280號","121.654211666667","25.0584","6501100","汐止區"
"221031","353-TW","2018/02/23 20:29:36","新北市汐止區中興路110巷38號","121.634463333333","25.06468","6501100","汐止區"
"221035","622-UM","2018/02/23 20:29:49","新北市汐止區長江街101-5號","121.65877","25.073205","6501100","汐止區"
"221025","623-UM","2018/02/23 20:29:46","新北市汐止區水源路二段88巷1弄16號","121.656543333333","25.0553966666667","6501100","汐止區"
"221033","647-BX","2018/02/23 20:29:32","新北市汐止區林森街72號","121.623196666667","25.040845","6501100","汐止區"
"221002","707-TV","2018/02/23 20:29:36","新北市汐止區福德一路6號","121.639066666667","25.0698383333333","6501100","汐止區"
"221018","753-BX","2018/02/23 20:29:46","新北市汐止區茄苳路223號","121.67104","25.06885","6501100","汐止區"
"220083","286-VK","2018/02/23 20:29:46","新北市板橋區僑中二街108巷11號","121.445225","25.007235","6500100","板橋區"
"220081","287-VK","2018/02/23 20:29:41","新北市板橋區大觀路二段443-2號","121.44079","24.99531","6500100","板橋區"
"242048","281-VK","2018/02/23 20:29:34","新北市新莊區龍安路222號","121.42024","25.0198416666667","6500500","新莊區"
"220089","487-VK","2018/02/23 20:29:36","新北市板橋區漢生西路197-1號","121.463236666667","25.0243983333333","6500100","板橋區"
"242032","280-VK","2018/02/23 20:29:47","新北市新莊區三和路68號","121.436925","25.0386533333333","6500500","新莊區"
"220103","561-BX","2018/02/23 20:29:51","新北市板橋區漢生東路33巷7號","121.465611666667","25.0172433333333","6500100","板橋區"
"220070","AAC-253","2018/02/23 20:29:47","新北市五股區成泰路一段8巷24號","121.43778","25.0673116666667","6500100","板橋區"
