"lineid","car","time","location","longitude","latitude","cityid","cityname"
"234064","337-UY","2018/02/23 20:39:48","新北市中和區光環路二段27號","121.487706666667","25.0134833333333","6500400","永和區"
"234030","746-BX","2018/02/23 20:39:48","新北市中和區中正路1153號","121.482521666667","25.008485","6500400","永和區"
"234061","AAD-866","2018/02/23 20:39:45","新北市永和區秀朗路一段120號","121.516963333333","25.0036566666667","6500400","永和區"
"234050","863-TW","2018/02/23 20:39:41","新北市永和區保安路134號","121.50861","25.0154483333333","6500400","永和區"
"234023","9381-KE","2018/02/23 20:39:38","新北市永和區竹林路25巷21號","121.518203333333","25.0149833333333","6500400","永和區"
"249001","173-UM","2018/02/23 20:39:51","新北市八里區中山路三段275號","121.378823333333","25.13903","6502300","八里區"
"249004","303-UY","2018/02/23 20:39:40","新北市八里區中山路一段121號","121.413545","25.159445","6502300","八里區"
"234074","AAC-211","2018/02/23 20:39:51","新北市永和區竹林路119巷22弄4號","121.521315","25.0114683333333","6500400","永和區"
"243011","297-R6","2018/02/23 20:39:37","新北市泰山區明志路三段44號","121.42484","25.0425566666667","6501600","泰山區"
"243015","380-SR","2018/02/23 20:36:37","新北市泰山區明志路一段483巷3弄8號","121.43154","25.0555916666667","6501600","泰山區"
"243012","539-UM","2018/02/23 20:38:22","新北市泰山區泰林路三段778號","121.400783333333","25.0725166666667","6501600","泰山區"
"243009","KEA-2216","2018/02/23 20:39:45","新北市泰山區泰林路二段542巷1弄2號","121.422851666667","25.0641716666667","6501600","泰山區"
"243016","680-BX","2018/02/23 20:39:35","新北市泰山區文程路21號","121.428336666667","25.0492466666667","6501600","泰山區"
"222003","016-RS","2018/02/23 20:39:37","新北市深坑區阿柔洋25-1號","121.613113333333","24.9990683333333","6501800","深坑區"
"222002","659-BX","2018/02/23 20:39:36","新北市深坑區萬福路43號","121.599351666667","25.0068066666667","6501800","深坑區"
"231041","002-UM","2018/02/23 20:39:39","新北市新店區復興路127號","121.533808333333","24.9878616666667","6500600","新店區"
"231059","046-UY","2018/02/23 20:39:54","新北市新店區僑愛一路1號","121.49983","24.944955","6500600","新店區"
"231061","047-UY","2018/02/23 20:39:49","新北市新店區新和街54號","121.51979","24.9853133333333","6500600","新店區"
"231060","106-UY","2018/02/23 20:39:39","新北市新店區安康路三段738號","121.473833333333","24.9420933333333","6500600","新店區"
"231051","107-UY","2018/02/23 20:39:34","新北市新店區中央八街86號","121.527008333333","24.97737","6500600","新店區"
"231048","108-UY","2018/02/23 20:39:53","新北市新店區寶慶街74號","121.541621666667","24.98675","6500600","新店區"
"231053","187-VK","2018/02/23 20:39:38","新北市新店區廣興路7-10號","121.545685","24.9116983333333","6500600","新店區"
"231050","KEA-2219","2018/02/23 20:39:40","新北市新店區中正路265巷8號","121.537815","24.9734783333333","6500600","新店區"
"231057","256-BX","2018/02/23 20:39:39","新北市新店區花園六路二段18號","121.555233333333","24.9331966666667","6500600","新店區"
"231054","AAD-862","2018/02/23 20:39:54","新北市新店區行政街15-3號","121.542718333333","24.9668333333333","6500600","新店區"
"231058","3712-VJ","2018/02/23 20:39:39","新北市新店區平等街67號","121.535878333333","24.9724466666667","6500600","新店區"
"231056","3713-VJ","2018/02/23 20:39:34","新北市新店區中央路3號","121.533685","24.9788033333333","6500600","新店區"
"231065","512-UM","2018/02/23 20:39:45","新北市新店區安祥路104巷31號","121.482026666667","24.9633016666667","6500600","新店區"
"231064","515-UM","2018/02/23 20:39:40","新北市新店區安和路三段173號","121.51589","24.986115","6500600","新店區"
"231040","618-UM","2018/02/23 20:39:34","新北市新店區中正路255號","121.53891","24.97349","6500600","新店區"
"231042","641-BX","2018/02/23 20:39:42","新北市新店區寶高路116號","121.554531666667","24.9760433333333","6500600","新店區"
"231063","645-TV","2018/02/23 20:39:48","新北市新店區玫瑰路4-1號","121.493561666667","24.95137","6500600","新店區"
"231068","718-UY","2018/02/23 20:39:53","新北市新店區寶慶街35巷3弄1號","121.543118333333","24.986185","6500600","新店區"
"231049","719-UM","2018/02/23 20:39:44","新北市新店區永業路81巷1弄3號","121.529723333333","24.9496283333333","6500600","新店區"
"231062","720-UM","2018/02/23 20:39:45","新北市新店區裕合街1號","121.490265","24.9501","6500600","新店區"
"231044","897-TW","2018/02/23 20:39:33","新北市新店區建國路293巷1號","121.53672","24.986195","6500600","新店區"
"231045","898-TW","2018/02/23 20:39:55","新北市新店區長春路20-3號","121.549775","24.9574166666667","6500600","新店區"
"231043","899-TW","2018/02/23 20:39:47","新北市新店區建國路6-1號","121.539898333333","24.9734666666667","6500600","新店區"
"231066","AKT-0513","2018/02/23 20:39:48","新北市新店區安興路112號","121.514641666667","24.9776416666667","6500600","新店區"
"241011","013-R5","2018/02/23 20:39:47","新北市三重區龍濱路217號","121.501896666667","25.0719833333333","6500200","三重區"
"241028","022-UY","2018/02/23 20:39:41","新北市三重區光興街30號","121.497396666667","25.0597733333333","6500200","三重區"
"241008","059-VK","2018/02/23 20:39:42","新北市三重區下竹圍街42號","121.481075","25.0749283333333","6500200","三重區"
"241009","060-VK","2018/02/23 20:39:44","新北市三重區碧華街51號","121.484705","25.0812583333333","6500200","三重區"
"241031","061-VK","2018/02/23 20:39:43","新北市三重區重陽路一段43巷30號","121.488163333333","25.0585933333333","6500200","三重區"
"241015","062-VK","2018/02/23 20:39:35","新北市三重區文化北路103號","121.497851666667","25.0684016666667","6500200","三重區"
"241017","063-VK","2018/02/23 20:39:47","新北市三重區大同北路249號","121.491038333333","25.0669533333333","6500200","三重區"
"241026","066-VK","2018/02/23 20:39:47","新北市三重區文化南路7號","121.500028333333","25.0623666666667","6500200","三重區"
"241002","090-VK","2018/02/23 20:39:40","新北市三重區仁義街174號","121.496848333333","25.0813183333333","6500200","三重區"
"241003","156-TC","2018/02/23 20:39:40","新北市三重區集賢路87-1號","121.493676666667","25.0868166666667","6500200","三重區"
"241005","262-UM","2018/02/23 20:39:35","新北市三重區五華街141巷58號","121.49349","25.08676","6500200","三重區"
"241016","265-UM","2018/02/23 20:39:51","新北市三重區長壽西街87號","121.495075","25.0669666666667","6500200","三重區"
"241022","267-UM","2018/02/23 20:39:44","新北市三重區中山路33巷12號","121.487893333333","25.0620566666667","6500200","三重區"
"241018","268-UM","2018/02/23 20:39:43","新北市三重區重陽路四段7號","121.490985","25.0690866666667","6500200","三重區"
"241032","269-UM","2018/02/23 20:39:40","新北市三重區重陽路一段120巷48號","121.484976666667","25.060125","6500200","三重區"
"241013","270-UM","2018/02/23 20:39:32","新北市三重區仁愛街131號","121.495595","25.0749183333333","6500200","三重區"
"241025","271-UM","2018/02/23 20:39:48","新北市三重區頂崁街140號","121.477598333333","25.0650516666667","6500200","三重區"
"241007","398-BY","2018/02/23 20:39:52","新北市三重區仁美街2號","121.488638333333","25.077055","6500200","三重區"
"241020","413-TH","2018/02/23 20:39:47","新北市三重區忠孝路一段101號","121.489561666667","25.0721616666667","6500200","三重區"
"241035","462-BY","2018/02/23 20:39:50","新北市三重區正義北路366號","121.493868333333","25.07128","6500200","三重區"
"241004","475-VK","2018/02/23 20:39:44","新北市三重區仁愛街406巷3號","121.490706666667","25.081165","6500200","三重區"
"241024","478-VK","2018/02/23 20:39:42","新北市三重區大勇街82巷15弄30號","121.481188333333","25.0719733333333","6500200","三重區"
"241030","480-VK","2018/02/23 20:39:51","新北市三重區成功路73巷20號","121.489436666667","25.0519866666667","6500200","三重區"
"241014","543-UM","2018/02/23 20:39:39","新北市三重區萬壽街16號","121.499686666667","25.06946","6500200","三重區"
"241023","545-UM","2018/02/23 20:39:37","新北市三重區自由街37巷1號","121.478886666667","25.0669433333333","6500200","三重區"
"241001","547-UM","2018/02/23 20:39:48","新北市三重區自強路三段76巷27弄2號","121.485323333333","25.073945","6500200","三重區"
"241019","KEA-2593","2018/02/23 20:39:54","新北市三重區重陽路四段124號","121.492335","25.0711383333333","6500200","三重區"
"241012","941-UM","2018/02/23 20:39:37","新北市三重區龍濱路243巷12號","121.501988333333","25.072835","6500200","三重區"
"241029","942-UM","2018/02/23 20:39:35","新北市三重區集美街126巷27號","121.49004","25.0538283333333","6500200","三重區"
"241033","AAC-255","2018/02/23 20:39:45","新北市三重區光復路二段87巷37號","121.474453333333","25.0579183333333","6500200","三重區"
"235069","4980-A6","2018/02/23 20:39:39","新北市中和區員山路327巷1號","121.480813333333","25.0012333333333","6500300","中和區"
"235026","800-TS","2018/02/23 20:26:03","新北市中和區員山路36巷16-3號","121.484743333333","24.9914483333333","6500300","中和區"
"220069","AAD-861","2018/02/23 20:39:40","新北市八里區荖阡坑路34號","121.401885","25.12955","6500100","板橋區"
"247022","893-R6","2018/02/23 20:39:44","新北市蘆洲區中正路243巷7弄7號","121.4675","25.0861716666667","6501400","蘆洲區"
"247020","500-BY","2018/02/23 20:39:48","新北市蘆洲區民族路331號","121.47387","25.0917033333333","6501400","蘆洲區"
"247010","339-TH","2018/02/23 20:39:34","新北市蘆洲區中山一路74巷55號","121.479961666667","25.0816083333333","6501400","蘆洲區"
"247002","337-TH","2018/02/23 20:39:46","新北市蘆洲區長安街375巷35號","121.455763333333","25.087935","6501400","蘆洲區"
"247004","336-TH","2018/02/23 20:39:32","新北市蘆洲區長安街297號","121.45809","25.08482","6501400","蘆洲區"
"247012","335-TH","2018/02/23 20:39:42","新北市蘆洲區中興街117-1號","121.48221","25.0891716666667","6501400","蘆洲區"
"247016","057-VK","2018/02/23 20:39:44","新北市蘆洲區中山一路282號","121.471206666667","25.0790716666667","6501400","蘆洲區"
"247006","056-VK","2018/02/23 20:39:41","新北市蘆洲區和平路121巷4號","121.467075","25.0797866666667","6501400","蘆洲區"
"247008","053-VK","2018/02/23 20:39:37","新北市蘆洲區永安北路2段8巷1-1號","121.48052","25.0807916666667","6501400","蘆洲區"
"247014","007-UY","2018/02/23 20:39:43","新北市蘆洲區得勝街50號","121.473281666667","25.0836833333333","6501400","蘆洲區"
"247024","002-UY","2018/02/23 20:39:39","新北市蘆洲區長樂路65號","121.462793333333","25.0866133333333","6501400","蘆洲區"
"222001","KEA-2212","2018/02/23 20:39:42","新北市深坑區北深路三段238-6號","121.60084","25.0046633333333","6501800","深坑區"
"251001","011-UM","2018/02/23 20:39:47","新北市淡水區淡金路57號","121.456078333333","25.1613416666667","6501000","淡水區"
"251010","413-VK","2018/02/23 20:39:33","新北市淡水區沙崙路181巷1號","121.424015","25.1843866666667","6501000","淡水區"
"251012","441-VK","2018/02/23 20:39:55","新北市淡水區興仁路108號","121.451736666667","25.2181783333333","6501000","淡水區"
"251016","442-VK","2018/02/23 20:39:46","新北市淡水區興仁路1號","121.45064","25.2151116666667","6501000","淡水區"
"251006","561-UM","2018/02/23 20:39:40","新北市淡水區商工路196巷7號","121.451508333333","25.18678","6501000","淡水區"
"251011","650-BX","2018/02/23 20:39:38","新北市淡水區新市一路一段361號","121.436233333333","25.18615","6501000","淡水區"
"251002","672-BX","2018/02/23 20:39:32","新北市淡水區中正路32號","121.443795","25.16921","6501000","淡水區"
"251003","673-BX","2018/02/23 20:39:45","新北市淡水區新民街120巷21號","121.438288333333","25.1781233333333","6501000","淡水區"
"252002","178-VK","2018/02/23 20:39:34","新北市三芝區淡金路二段47-2號","121.503578333333","25.2606616666667","6502100","三芝區"
"242029","986-R7","2018/02/23 20:39:50","新北市新莊區昌隆街31號","121.454681666667","25.0511633333333","6500500","新莊區"
"242050","751-BX","2018/02/23 20:39:45","新北市新莊區西盛街259號","121.428121666667","25.01582","6500500","新莊區"
"242025","615-BX","2018/02/23 20:39:51","新北市三重區光復路二段178-1號","121.47178","25.06204","6500500","新莊區"
"242023","613-BX","2018/02/23 20:39:34","新北市新莊區復興路三段43號","121.461496666667","25.0445616666667","6500500","新莊區"
"242027","612-BX","2018/02/23 20:39:52","新北市新莊區思源路63號","121.459828333333","25.04043","6500500","新莊區"
"242039","566-BX","2018/02/23 20:39:37","新北市新莊區民安路294號","121.428106666667","25.0217533333333","6500500","新莊區"
"242044","497-BY","2018/02/23 20:39:40","新北市新莊區龍安路100號","121.418341666667","25.0205816666667","6500500","新莊區"
"242009","441-UM","2018/02/23 20:39:44","新北市新莊區福壽街99巷11弄1號","121.457473333333","25.05042","6500500","新莊區"
"242054","440-UM","2018/02/23 20:39:39","新北市新莊區西盛街324巷6號","121.42763","25.01475","6500500","新莊區"
"242034","415-TV","2018/02/23 20:39:48","新北市新莊區建中街131號","121.44535","25.0364183333333","6500500","新莊區"
"242005","413-TV","2018/02/23 20:39:39","新北市新莊區中原東路89巷2號","121.462411666667","25.05454","6500500","新莊區"
"242041","400-BY","2018/02/23 20:39:46","新北市新莊區天祥街47巷27號","121.416235","25.0279983333333","6500500","新莊區"
"242060","362-BY","2018/02/23 20:39:31","新北市新莊區新樹路443號","121.432606666667","25.01356","6500500","新莊區"
"242058","353-BY","2018/02/23 20:39:48","新北市新莊區民安路106號","121.424058333333","25.02545","6500500","新莊區"
"242007","132-UY","2018/02/23 20:39:44","新北市新莊區福壽街45號","121.45817","25.04872","6500500","新莊區"
"242037","133-UY","2018/02/23 20:39:41","新北市新莊區建安街10-1號","121.428463333333","25.0265033333333","6500500","新莊區"
"242046","172-VK","2018/02/23 20:39:52","新北市新莊區裕民街120號","121.418155","25.0227416666667","6500500","新莊區"
"242015","175-VK","2018/02/23 20:39:41","新北市新莊區中和街14號","121.44837","25.0432616666667","6500500","新莊區"
"242002","176-VK","2018/02/23 20:39:51","新北市新莊區中港路五守新村37巷1號","121.454626666667","25.0387383333333","6500500","新莊區"
"242013","346-TH","2018/02/23 20:39:40","新北市新莊區中和街175巷11號","121.447195","25.0506366666667","6500500","新莊區"
"242019","348-TH","2018/02/23 20:39:48","新北市新莊區中港路212號","121.454615","25.0426966666667","6500500","新莊區"
"242056","349-TH","2018/02/23 20:39:46","新北市新莊區瓊泰路2巷10號","121.445033333333","25.0292166666667","6500500","新莊區"
"242017","350-TH","2018/02/23 20:39:38","新北市新莊區中平路82巷2號","121.44482","25.044825","6500500","新莊區"
"242011","351-TH","2018/02/23 20:39:37","新北市新莊區中榮街120號","121.446618333333","25.052775","6500500","新莊區"
"221008","489-VK","2018/02/23 20:39:42","新北市汐止區康寧街706-2號","121.638478333333","25.0730016666667","6501100","汐止區"
"221036","130-UY","2018/02/23 20:39:40","新北市汐止區新昌路20號","121.661948333333","25.06745","6501100","汐止區"
"221015","131-UY","2018/02/23 20:39:51","新北市汐止區建成路50號","121.663791666667","25.07291","6501100","汐止區"
"221023","279-VK","2018/02/23 20:39:42","新北市汐止區康寧街629號","121.637216666667","25.0719216666667","6501100","汐止區"
"221032","280-BY","2018/02/23 20:39:44","新北市汐止區橫科路221巷19-1號","121.621515","25.049495","6501100","汐止區"
"221027","281-BY","2018/02/23 20:39:50","新北市汐止區中正路9號","121.662976666667","25.0700116666667","6501100","汐止區"
"221038","297-VK","2018/02/23 20:39:39","新北市汐止區汐萬路一段244-1號","121.651356666667","25.073375","6501100","汐止區"
"221029","298-VK","2018/02/23 20:39:48","新北市汐止區大同路一段415號","121.642243333333","25.0612216666667","6501100","汐止區"
"221021","299-VK","2018/02/23 20:39:44","新北市汐止區水源路一段280號","121.65417","25.058335","6501100","汐止區"
"221031","353-TW","2018/02/23 20:39:36","新北市汐止區中興路27巷21號","121.634086666667","25.06086","6501100","汐止區"
"221035","622-UM","2018/02/23 20:39:49","新北市汐止區長江街101-5號","121.65872","25.0732083333333","6501100","汐止區"
"221025","623-UM","2018/02/23 20:39:46","新北市汐止區水源路二段271-1號","121.65918","25.0504183333333","6501100","汐止區"
"221033","647-BX","2018/02/23 20:39:52","新北市汐止區合順街18巷8弄5號","121.620346666667","25.0418966666667","6501100","汐止區"
"221002","707-TV","2018/02/23 20:39:36","新北市汐止區福德二路128號","121.631171666667","25.0654516666667","6501100","汐止區"
"221018","753-BX","2018/02/23 20:39:46","新北市汐止區中華街67號","121.668025","25.0711216666667","6501100","汐止區"
"242048","281-VK","2018/02/23 20:39:54","新北市新莊區龍安路75號","121.41579","25.021415","6500500","新莊區"
"220089","487-VK","2018/02/23 20:39:16","新北市板橋區長江路一段188號","121.462113333333","25.0303933333333","6500100","板橋區"
"242032","280-VK","2018/02/23 20:39:50","新北市新莊區中正路486-1號","121.436535","25.03353","6500500","新莊區"
"220103","561-BX","2018/02/23 20:39:51","新北市板橋區漢生東路53巷5號","121.466113333333","25.0168933333333","6500100","板橋區"
"220070","AAC-253","2018/02/23 20:38:07","新北市五股區中直路21號","121.421515","25.111875","6500100","板橋區"
