"lineid","car","time","location","longitude","latitude","cityid","cityname"
"231059","046-UY","2018/02/23 21:19:41","新北市新店區薏仁坑路自強巷1號","121.496748333333","24.9579933333333","6500600","新店區"
"231051","107-UY","2018/02/23 21:19:54","新北市新店區中正路700巷82號","121.535925","24.9932883333333","6500600","新店區"
"231048","108-UY","2018/02/23 21:19:33","新北市新店區安業街2號","121.515178333333","24.9784166666667","6500600","新店區"
"231050","KEA-2219","2018/02/23 21:19:40","新北市新店區中正路187號","121.540563333333","24.97223","6500600","新店區"
"231040","618-UM","2018/02/23 21:19:54","新北市新店區北新路一段169號","121.539978333333","24.963895","6500600","新店區"
"231063","645-TV","2018/02/23 21:19:48","新北市新店區玫瑰路57巷35號","121.496926666667","24.9463966666667","6500600","新店區"
"241011","013-R5","2018/02/23 21:19:47","新北市三重區龍濱路197號","121.50192","25.0713633333333","6500200","三重區"
"241028","022-UY","2018/02/23 21:19:40","新北市三重區正義南路169號","121.49892","25.0574733333333","6500200","三重區"
"241008","059-VK","2018/02/23 21:19:42","新北市三重區自強路一段64號","121.497236666667","25.0665916666667","6500200","三重區"
"241009","060-VK","2018/02/23 21:19:44","新北市三重區三民街206號","121.480803333333","25.0660983333333","6500200","三重區"
"241031","061-VK","2018/02/23 21:19:43","新北市三重區五谷王南街46巷37號","121.475743333333","25.04549","6500200","三重區"
"241017","063-VK","2018/02/23 21:19:47","新北市三重區中正北路25巷25弄3號","121.493261666667","25.0626516666667","6500200","三重區"
"241026","066-VK","2018/02/23 21:19:47","新北市三重區大同南路232號","121.49681","25.05613","6500200","三重區"
"241002","090-VK","2018/02/23 21:19:40","新北市三重區自強路五段63號","121.49476","25.081885","6500200","三重區"
"241003","156-TC","2018/02/23 21:19:40","新北市三重區通華街1號","121.495501666667","25.0843016666667","6500200","三重區"
"241005","262-UM","2018/02/23 21:19:43","新北市三重區仁華街120號","121.48616","25.0832233333333","6500200","三重區"
"241016","265-UM","2018/02/23 21:19:51","新北市三重區自強路一段99號","121.495781666667","25.0662833333333","6500200","三重區"
"241018","268-UM","2018/02/23 21:19:42","新北市三重區忠孝路二段99號","121.48411","25.0699183333333","6500200","三重區"
"241032","269-UM","2018/02/23 21:19:40","新北市三重區光復路二段175號","121.472158333333","25.061775","6500200","三重區"
"241013","270-UM","2018/02/23 21:19:52","新北市三重區仁愛街81-1號","121.495865","25.0731483333333","6500200","三重區"
"241025","271-UM","2018/02/23 21:19:48","新北市三重區忠孝路三段40巷16弄10號","121.48236","25.0668483333333","6500200","三重區"
"241007","398-BY","2018/02/23 21:19:52","新北市三重區忠孝路一段6-3號","121.492151666667","25.07174","6500200","三重區"
"241004","475-VK","2018/02/23 21:19:44","新北市三重區仁愛街465號","121.489428333333","25.0819616666667","6500200","三重區"
"241024","478-VK","2018/02/23 21:19:42","新北市三重區中正北路145巷14號","121.48412","25.06778","6500200","三重區"
"241030","480-VK","2018/02/23 21:19:51","新北市三重區光復路二段87巷39弄26-1號","121.475748333333","25.0577383333333","6500200","三重區"
"241014","543-UM","2018/02/23 21:19:39","新北市三重區萬全街16號","121.499276666667","25.0697883333333","6500200","三重區"
"241023","545-UM","2018/02/23 21:19:36","新北市三重區中正北路176巷16號","121.482773333333","25.0658366666667","6500200","三重區"
"241001","547-UM","2018/02/23 21:19:48","新北市三重區碧華街402號","121.491811666667","25.0849233333333","6500200","三重區"
"241019","KEA-2593","2018/02/23 21:19:55","新北市三重區自強路二段36號","121.48924","25.0695316666667","6500200","三重區"
"241006","AAD-863","2018/02/23 21:19:42","新北市三重區重陽路二段67號","121.48774","25.063845","6500200","三重區"
"241012","941-UM","2018/02/23 21:19:37","新北市三重區龍門路284號","121.501983333333","25.0742066666667","6500200","三重區"
"241033","AAC-255","2018/02/23 21:19:46","新北市三重區光復路二段126巷6號","121.47073","25.0587633333333","6500200","三重區"
"247022","893-R6","2018/02/23 21:19:44","新北市蘆洲區三民路222號","121.468713333333","25.0892416666667","6501400","蘆洲區"
"247020","500-BY","2018/02/23 21:19:48","新北市蘆洲區民族路422巷130號","121.472365","25.0943616666667","6501400","蘆洲區"
"247010","339-TH","2018/02/23 21:19:54","新北市蘆洲區鷺江街23號","121.47885","25.082425","6501400","蘆洲區"
"247002","337-TH","2018/02/23 21:19:46","新北市蘆洲區永樂街80號","121.456763333333","25.0886216666667","6501400","蘆洲區"
"247004","336-TH","2018/02/23 21:19:52","新北市蘆洲區永安南路二段324號","121.456971666667","25.082775","6501400","蘆洲區"
"247012","335-TH","2018/02/23 21:19:42","新北市蘆洲區民族路236巷29號","121.480223333333","25.08864","6501400","蘆洲區"
"247006","056-VK","2018/02/23 21:19:41","新北市蘆洲區長安街59號","121.462945","25.0797816666667","6501400","蘆洲區"
"247008","053-VK","2018/02/23 21:19:40","新北市蘆洲區中山一路103巷20號","121.475815","25.0811116666667","6501400","蘆洲區"
"247014","007-UY","2018/02/23 21:19:43","新北市蘆洲區保和街50-5號","121.469761666667","25.08633","6501400","蘆洲區"
"247024","002-UY","2018/02/23 21:19:38","新北市蘆洲區光明路96號","121.463135","25.08795","6501400","蘆洲區"
"247018","001-UY","2018/02/23 21:19:33","新北市蘆洲區復興路105巷11號","121.476423333333","25.0883716666667","6501400","蘆洲區"
"251009","008-UM","2018/02/23 21:19:40","新北市淡水區民族路82號","121.462416666667","25.13559","6501000","淡水區"
"251004","009-UM","2018/02/23 21:19:48","新北市淡水區民族路33號","121.462331666667","25.1357916666667","6501000","淡水區"
"251001","011-UM","2018/02/23 21:19:46","新北市淡水區中山北路二段200號","121.444208333333","25.1864266666667","6501000","淡水區"
"251008","181-VK","2018/02/23 21:19:40","新北市淡水區水源街二段228號","121.460263333333","25.176415","6501000","淡水區"
"251010","413-VK","2018/02/23 21:19:53","新北市淡水區中正路一段156巷12號","121.421806666667","25.1808683333333","6501000","淡水區"
"251012","441-VK","2018/02/23 21:19:35","新北市淡水區石頭埔8號","121.452631666667","25.2345533333333","6501000","淡水區"
"251005","443-VK","2018/02/23 21:19:55","新北市淡水區仁愛街18巷4號","121.446881666667","25.1703266666667","6501000","淡水區"
"251006","561-UM","2018/02/23 21:19:40","新北市淡水區中正路一段8巷1弄11號","121.427943333333","25.17562","6501000","淡水區"
"251011","650-BX","2018/02/23 21:19:38","新北市淡水區新民街120巷29號","121.43886","25.178865","6501000","淡水區"
"251002","672-BX","2018/02/23 21:12:06","新北市淡水區學府路172巷21號","121.448268333333","25.174855","6501000","淡水區"
"251003","673-BX","2018/02/23 21:19:45","新北市淡水區新春街85巷25弄31號","121.438591666667","25.1841016666667","6501000","淡水區"
"242044","497-BY","2018/02/23 21:19:40","新北市板橋區大觀路三段59巷17弄5-1號","121.435213333333","24.9951383333333","6500500","新莊區"
"220070","AAC-253","2018/02/23 21:19:47","新北市五股區凌雲路二段18巷62-5號","121.440385","25.1061433333333","6500100","板橋區"
