"lineid","car","time","location","longitude","latitude","cityid","cityname"
"241028","022-UY","2018/02/23 22:09:40","新北市五股區更洲路47-1號","121.456703333333","25.0794083333333","6500200","三重區"
"235010","733-UM","2018/02/23 21:40:04","新北市中和區員山路36巷13號","121.484168333333","24.990785","6500300","中和區"
"247003","336-TH","2018/02/23 22:09:50","新北市五股區中興路三段163號","121.449146666667","25.080905","6501400","蘆洲區"
"247008","053-VK","2018/02/23 22:09:36","新北市五股區孝義路9-17號","121.448893333333","25.10686","6501400","蘆洲區"
"251004","009-UM","2018/02/23 22:09:48","新北市淡水區民族路33號","121.462305","25.1357983333333","6501000","淡水區"
"251008","181-VK","2018/02/23 22:09:40","新北市淡水區學府路104號","121.449885","25.1717716666667","6501000","淡水區"
"251010","413-VK","2018/02/23 22:09:53","新北市淡水區沙崙路200號","121.42469","25.1838683333333","6501000","淡水區"
"251007","577-R6","2018/02/23 22:09:43","新北市淡水區北新路186-3號","121.449575","25.17876","6501000","淡水區"
"251011","650-BX","2018/02/23 22:09:38","新北市淡水區水碓街5號","121.443165","25.17704","6501000","淡水區"
