"lineid","car","time","location","longitude","latitude","cityid","cityname"
"234084","338-UY","2018/02/24 07:19:16","新北市新店區安業街67巷32號","121.519845","24.9751116666667","6500400","永和區"
"248005","653-BX","2018/02/24 07:10:06","新北市五股區明德路12巷1號","121.433321666667","25.07173","6501500","五股區"
"232004","290-BY","2018/02/24 07:19:25","新北市坪林區坪雙路一段117號","121.73311","24.95123","6502000","坪林區"
"232016","291-BY","2018/02/24 07:19:14","新北市坪林區金瓜寮23-1號","121.679216666667","24.9111566666667","6502000","坪林區"
"232010","375-UM","2018/02/24 07:19:31","新北市坪林區水聳淒坑7-2號","121.724906666667","24.927245","6502000","坪林區"
"232009","758-BX","2018/02/24 07:19:28","新北市坪林區魚堀44-1號","121.701413333333","24.9330283333333","6502000","坪林區"
"244005","248-BX","2018/02/24 07:19:30","新北市林口區頂福里71-109號","121.349203333333","25.0830983333333","6501700","林口區"
"222004","289-BY","2018/02/24 07:06:47","新北市深坑區昇高坑路53號","121.631668333333","24.989025","6501800","深坑區"
"235001","611-BX","2018/02/24 07:19:25","新北市中和區圓通路367巷4號","121.49142","24.989335","6500300","中和區"
"220072","015-TV","2018/02/24 07:13:27","新北市板橋區國光路53號","121.458238333333","25.0180316666667","6500100","板橋區"
"226005","5620-A6","2018/02/24 07:18:23","新北市平溪區菁桐里二坑路27號","121.721125","25.0259266666667","6502400","平溪區"
"226002","7418-A5","2018/02/24 07:19:26","新北市平溪區南山里南山坪5號","121.762246666667","25.03303","6502400","平溪區"
"226003","AGD-0702","2018/02/24 07:19:23","新北市平溪區嶺腳里嶺腳寮73號","121.748086666667","25.0321033333333","6502400","平溪區"
"223006","022-BY","2018/02/24 07:19:31","新北市石碇區新興坑1號","121.65429","25.01567","6501900","石碇區"
"223001","205-TH","2018/02/24 07:19:23","新北市石碇區烏塗窟8-3號","121.655625","24.9754366666667","6501900","石碇區"
"223008","406-TH","2018/02/24 07:19:30","新北市石碇區番子坑25-1號","121.677726666667","25.0023983333333","6501900","石碇區"
"223001","592-UM","2018/02/24 07:19:14","新北市石碇區蓬菜寮5-1號","121.652075","24.9737816666667","6501900","石碇區"
"223004","660-BX","2018/02/24 07:19:17","新北市石碇區新興坑1號","121.654435","25.0158466666667","6501900","石碇區"
"223007","661-BX","2018/02/24 07:19:28","新北市石碇區番子坑14-2號","121.679393333333","25.0013383333333","6501900","石碇區"
"223005","677-TV","2018/02/24 07:19:22","新北市石碇區新興坑1號","121.654105","25.0156183333333","6501900","石碇區"
"227006","282-VK","2018/02/24 07:19:16","新北市雙溪區新基里自強路5號","121.866318333333","25.03907","6502500","雙溪區"
"252004","249-BX","2018/02/24 07:19:33","新北市三芝區福德里大湖8-2號","121.502505","25.2266666666667","6502100","三芝區"
"252007","AAC-283","2018/02/24 07:19:28","新北市三芝區錫板里小坑子1號","121.491998333333","25.2481466666667","6502100","三芝區"
"237001","159-UY","2018/02/24 07:19:29","新北市三峽區中山路459巷68號","121.355966666667","24.9365933333333","6500900","三峽區"
"236011","165-UM","2018/02/24 07:19:21","新北市板橋區四川路二段245巷66號","121.45303","24.991735","6501300","土城區"
"236002","339-SR","2018/02/24 07:19:29","新北市土城區南天母路135巷12號","121.447961666667","24.9544683333333","6501300","土城區"
