"lineid","car","time","location","longitude","latitude","cityid","cityname"
"248005","653-BX","2018/10/23 07:59:11","新北市五股區明德路12巷1號","121.433325","25.0717216666667","6501500","五股區"
"244002","248-BX","2018/10/23 07:59:24","新北市林口區下福12號","121.314721666667","25.1100583333333","6501700","林口區"
"222004","289-BY","2018/10/23 07:59:12","新北市深坑區文化街45號","121.616958333333","25.0017533333333","6501800","深坑區"
"231007","189-VK","2018/10/23 07:59:19","","121.520103333333","24.963695","6500600","新店區"
"231009","192-VK","2018/10/23 07:59:09","新北市新店區安康路一段226-2號","121.523305","24.963645","6500600","新店區"
"235011","031-BX","2018/10/23 07:59:22","","121.500835","25.0014533333333","6500300","中和區"
"235001","611-BX","2018/10/23 07:59:13","新北市中和區圓通路367巷6號","121.491401666667","24.9891916666667","6500300","中和區"
"235001","157-BY","2018/10/23 07:59:29","新北市中和區和平街29-1號","121.507448333333","24.991055","6500300","中和區"
"226005","5620-A6","2018/10/23 07:59:14","新北市平溪區石底里公園街18-3號","121.733516666667","25.0256283333333","6502400","平溪區"
"226002","7418-A5","2018/10/23 07:59:09","新北市平溪區南山里南山坪136號","121.782988333333","25.0464716666667","6502400","平溪區"
"226006","AGD-0702","2018/10/23 07:50:36","新北市平溪區嶺腳里嶺腳寮67號","121.748035","25.0316433333333","6502400","平溪區"
"223006","022-BY","2018/10/23 07:54:00","新北市坪林區北宜路八段558號","121.716971666667","24.9092666666667","6501900","石碇區"
"223002","KEA-2673","2018/10/23 07:59:11","新北市石碇區月扇湖3號","121.663756666667","24.9571566666667","6501900","石碇區"
"223003","205-TH","2018/10/23 07:55:45","新北市石碇區崩山36-1號","121.671395","24.9581033333333","6501900","石碇區"
"223004","437-BY","2018/10/23 07:59:25","","121.650471666667","25.0079816666667","6501900","石碇區"
"223001","592-UM","2018/10/23 07:59:25","新北市石碇區樟空子7-5號","121.667856666667","24.9643666666667","6501900","石碇區"
"223007","661-BX","2018/10/23 07:59:28","新北市石碇區靜安路一段337號","121.698806666667","25.014345","6501900","石碇區"
"223005","677-TV","2018/10/23 07:59:07","新北市石碇區外按18-2號","121.651261666667","24.9995533333333","6501900","石碇區"
"227006","282-VK","2018/10/23 07:59:13","新北市雙溪區平林里梅竹蹊16號","121.862016666667","25.0359566666667","6502500","雙溪區"
"252005","073-UM","2018/10/23 07:58:55","新北市三芝區中正路三段3號","121.503","25.2543016666667","6502100","三芝區"
"252004","249-BX","2018/10/23 07:59:13","新北市三芝區興華里車埕36-21號","121.505815","25.1930416666667","6502100","三芝區"
"252007","AAC-283","2018/10/23 07:59:17","新北市三芝區後厝里土地公坑61-1號","121.463958333333","25.2469883333333","6502100","三芝區"
"242001","233-RS","2018/10/23 07:59:14","新北市新莊區中華路二段2號","121.452968333333","25.0445183333333","6500500","新莊區"
