"lineid","car","time","location","longitude","latitude","cityid","cityname"
"248005","653-BX","2018/10/23 09:49:11","新北市五股區成泰路一段82號","121.435723333333","25.07068","6501500","五股區"
"244002","248-BX","2018/10/23 09:49:24","新北市林口區粉寮路二段160巷28號","121.405511666667","25.0907816666667","6501700","林口區"
"231007","189-VK","2018/10/23 09:49:19","新北市新店區新潭路三段215巷25號","121.508103333333","24.9040666666667","6500600","新店區"
"231009","192-VK","2018/10/23 09:49:29","新北市新店區小坑一路12號","121.53395","24.9128516666667","6500600","新店區"
"227006","282-VK","2018/10/23 09:43:33","新北市雙溪區長源里柑腳58-1號","121.794003333333","25.0064633333333","6502500","雙溪區"
"227012","030-BX","2018/10/23 09:49:03","新北市雙溪區泰平里烏山路13-1號","121.794531666667","24.9491216666667","6502500","雙溪區"
"252004","249-BX","2018/10/23 09:48:53","新北市三芝區圓山里石曹子坑64號","121.523916666667","25.21236","6502100","三芝區"
"252007","AAC-283","2018/10/23 09:49:17","新北市三芝區新庄里新庄子95-29號","121.512346666667","25.27294","6502100","三芝區"
"237001","159-UY","2018/10/23 09:49:14","新北市三峽區國學街12號","121.373451666667","24.9416483333333","6500900","三峽區"
