"lineid","car","time","location","longitude","latitude","cityid","cityname"
"234001","149-BY","2018/10/23 09:53:12","新北市永和區福和路1號","121.526201666667","25.0099016666667","6500400","永和區"
"248005","653-BX","2018/10/23 09:59:10","新北市五股區蓬萊路6巷15號","121.4357","25.0800933333333","6501500","五股區"
"231007","189-VK","2018/10/23 09:59:19","新北市新店區新潭路三段215巷25號","121.508103333333","24.9040666666667","6500600","新店區"
"231009","192-VK","2018/10/23 09:58:09","新北市新店區小坑一路35巷1號","121.52843","24.908345","6500600","新店區"
"227006","282-VK","2018/10/23 09:43:33","新北市雙溪區長源里柑腳58-1號","121.794003333333","25.0064633333333","6502500","雙溪區"
"227012","030-BX","2018/10/23 09:59:23","新北市坪林區鷺鶿岫4-2號","121.785745","24.9555533333333","6502500","雙溪區"
"252004","249-BX","2018/10/23 09:59:13","新北市三芝區福德里土地公埔46-6號","121.512283333333","25.230485","6502100","三芝區"
"252007","AAC-283","2018/10/23 09:59:17","新北市三芝區新庄里新庄子58-1號","121.5077","25.2760366666667","6502100","三芝區"
"237001","159-UY","2018/10/23 09:59:14","新北市三峽區大義路380號","121.376793333333","24.94831","6500900","三峽區"
