"lineid","car","time","location","longitude","latitude","cityid","cityname"
"234044","148-BY","2018/10/23 13:09:32","新北市永和區永元路18巷35號","121.523941666667","25.0002666666667","6500400","永和區"
"234005","207-UY","2018/10/23 13:09:20","新北市永和區中山路一段130號","121.51049","25.0099933333333","6500400","永和區"
"234078","298-R6","2018/10/23 13:09:26","新北市永和區國中路156號","121.522588333333","25.0065516666667","6500400","永和區"
"234036","336-UY","2018/10/23 13:09:24","新北市永和區民樂街69巷5號","121.52753","24.9978083333333","6500400","永和區"
"234062","337-UY","2018/10/23 13:09:17","新北市永和區秀朗路二段48號","121.521626666667","25.00221","6500400","永和區"
"234084","338-UY","2018/10/23 13:09:35","新北市永和區永貞路69號","121.519003333333","25.0044283333333","6500400","永和區"
"234068","552-UM","2018/10/23 13:09:27","新北市永和區豫溪街137巷1弄6號","121.519465","25.0105133333333","6500400","永和區"
"234015","745-BX","2018/10/23 13:09:28","新北市永和區文化路90巷34號","121.513545","25.01639","6500400","永和區"
"234028","746-BX","2018/10/23 13:09:28","新北市永和區民生路21號","121.522818333333","24.9989033333333","6500400","永和區"
"234052","KEA-2590","2018/10/23 13:09:29","新北市永和區中興街133巷12號","121.518493333333","25.01256","6500400","永和區"
"234012","KEA-2591","2018/10/23 13:09:30","新北市永和區仁愛路169號","121.510696666667","25.0127216666667","6500400","永和區"
"234060","AAD-866","2018/10/23 13:09:25","新北市永和區安樂路304巷7號","121.514378333333","25.0051966666667","6500400","永和區"
"234040","862-TW","2018/10/23 13:09:18","新北市永和區保平路111巷2弄12號","121.510591666667","25.0061083333333","6500400","永和區"
"234048","863-TW","2018/10/23 13:09:28","新北市永和區文化路135巷18號","121.510401666667","25.0153716666667","6500400","永和區"
"234025","9371-KE","2018/10/23 13:09:18","新北市永和區自由街58號","121.513883333333","25.0059566666667","6500400","永和區"
"234010","9373-KE","2018/10/23 13:09:31","新北市永和區仁愛路24號","121.514681666667","25.0135266666667","6500400","永和區"
"248017","225-UY","2018/10/23 13:09:28","新北市五股區新城一路12號","121.441468333333","25.083435","6501500","五股區"
"234022","9380-KE","2018/10/23 13:09:19","新北市永和區竹林路124巷41號","121.518203333333","25.0111983333333","6500400","永和區"
"234076","969-R7","2018/10/23 13:09:27","新北市永和區民光街2號","121.515226666667","24.9963833333333","6500400","永和區"
"234072","AAC-211","2018/10/23 13:09:26","新北市永和區竹林路217號","121.520671666667","25.0087383333333","6500400","永和區"
"234066","AAC-212","2018/10/23 13:09:24","新北市永和區保平路19號","121.512761666667","25.00753","6500400","永和區"
"234001","AAC-295","2018/10/23 13:09:35","新北市永和區和平街10號","121.514018333333","25.00997","6500400","永和區"
"244002","248-BX","2018/10/23 13:09:14","新北市林口區中山路572-1號","121.37702","25.084335","6501700","林口區"
"231027","0293-UT","2018/10/23 13:09:23","新北市新店區安華路1-1號","121.519561666667","24.9604583333333","6500600","新店區"
"231028","046-UY","2018/10/23 13:09:21","新北市新店區安華路28-1號","121.51951","24.9608966666667","6500600","新店區"
"231001","047-UY","2018/10/23 13:09:17","新北市新店區安華路28-1號","121.51917","24.9609383333333","6500600","新店區"
"231035","188-VK","2018/10/23 13:09:21","新北市新店區安一路一段1-1號","121.519485","24.9614783333333","6500600","新店區"
"231023","KEA-2219","2018/10/23 13:09:33","新北市新店區安一路一段1-1號","121.52009","24.9611733333333","6500600","新店區"
"231026","256-BX","2018/10/23 13:09:27","新北市新店區安華路3號","121.519305","24.959825","6500600","新店區"
"231003","268-BY","2018/10/23 13:09:28","新北市新店區安華路28-1號","121.519246666667","24.9605933333333","6500600","新店區"
"231018","278-BY","2018/10/23 13:09:12","新北市新店區安一路一段1-1號","121.519643333333","24.9610866666667","6500600","新店區"
"231015","AAD-862","2018/10/23 13:09:32","新北市新店區安一路一段1-1號","121.519808333333","24.96118","6500600","新店區"
"231038","3712-VJ","2018/10/23 13:09:31","新北市新店區安華路1-1號","121.519046666667","24.960585","6500600","新店區"
"231037","4716-K9","2018/10/23 13:09:21","新北市新店區安華路28-1號","121.519615","24.9610333333333","6500600","新店區"
"231025","4715-K9","2018/10/23 13:09:28","新北市新店區安華路8號","121.519808333333","24.9623633333333","6500600","新店區"
"231013","513-UM","2018/10/23 13:09:23","新北市新店區安一路一段1-1號","121.519651666667","24.961145","6500600","新店區"
"231030","619-UM","2018/10/23 13:09:29","新北市新店區安華路28-1號","121.519615","24.9609133333333","6500600","新店區"
"231034","641-BX","2018/10/23 13:09:26","新北市新店區安華路28-1號","121.519331666667","24.960885","6500600","新店區"
"231032","720-UM","2018/10/23 13:09:14","新北市新店區安一路一段1-1號","121.519211666667","24.9611766666667","6500600","新店區"
"231029","897-TW","2018/10/23 13:09:23","新北市新店區安華路28-1號","121.519725","24.96092","6500600","新店區"
"231006","898-TW","2018/10/23 13:09:29","新北市新店區安一路一段1-1號","121.51933","24.9612533333333","6500600","新店區"
"231024","AKT-0513","2018/10/23 13:09:29","新北市新店區安華路28-1號","121.519505","24.9606383333333","6500600","新店區"
"235028","005-UY","2018/10/23 13:09:23","新北市中和區中正路215號","121.496828333333","24.993615","6500300","中和區"
"235027","006-UY","2018/10/23 13:09:16","新北市中和區員山路36巷16-3號","121.48504","24.9912866666667","6500300","中和區"
"235003","097-UM","2018/10/23 13:09:18","新北市中和區中正路571巷2弄7號","121.486305","24.9935183333333","6500300","中和區"
"235029","098-UM","2018/10/23 13:09:19","新北市中和區莊敬路49巷20弄20號","121.502666666667","25.0057866666667","6500300","中和區"
"235004","150-BY","2018/10/23 13:08:35","新北市中和區中正路190號","121.497775","24.99408","6500300","中和區"
"235022","151-BY","2018/10/23 13:09:15","新北市中和區圓通路367巷61弄2號","121.491716666667","24.9834333333333","6500300","中和區"
"235002","185-VK","2018/10/23 13:09:23","新北市中和區景平路154號","121.517783333333","24.992305","6500300","中和區"
"235031","255-BX","2018/10/23 13:09:27","新北市中和區新生街13巷5-1號","121.48358","25.0043666666667","6500300","中和區"
"235006","551-UM","2018/10/23 13:09:32","新北市中和區中正路13號","121.503103333333","24.99349","6500300","中和區"
"235034","558-UM","2018/10/23 13:09:28","新北市中和區圓通路176-1號","121.49721","24.9945066666667","6500300","中和區"
"235018","640-BX","2018/10/23 13:09:33","新北市中和區連城路506號","121.477576666667","24.9926933333333","6500300","中和區"
"235026","800-TS","2018/10/23 13:09:23","新北市中和區橋和路90號","121.490168333333","25.004905","6500300","中和區"
"235021","801-TS","2018/10/23 13:09:25","新北市中和區員山路36巷16-3號","121.484861666667","24.9917766666667","6500300","中和區"
"235016","805-TS","2018/10/23 13:09:26","新北市中和區中正路13號","121.503038333333","24.9933883333333","6500300","中和區"
"235017","900-TW","2018/10/23 13:09:30","新北市中和區員山路36巷16-3號","121.484935","24.9917783333333","6500300","中和區"
"235035","911-UM","2018/10/23 13:09:16","新北市中和區板南路520巷1號","121.484088333333","25.0087716666667","6500300","中和區"
"235015","157-BY","2018/10/23 13:09:31","新北市中和區捷運路59號","121.509141666667","24.98972","6500300","中和區"
"235001","AAC-213","2018/10/23 13:09:18","新北市中和區景平路149號","121.513826666667","24.9921483333333","6500300","中和區"
"235005","251-BX","2018/10/23 13:09:18","新北市中和區和城路一段271巷1號","121.48538","24.99188","6500300","中和區"
"228004","212-TW","2018/10/23 13:09:26","新北市貢寮區吉林里內寮街71號","121.891385","24.9727066666667","6502600","貢寮區"
"228005","828-UM","2018/10/23 13:09:29","新北市貢寮區仁理村仁和路216號","121.923771666667","25.0532866666667","6502600","貢寮區"
"207002","749-BX","2018/10/23 13:09:31","新北市萬里區崁腳里崁腳路166號","121.645033333333","25.1558666666667","6502800","萬里區"
"207001","662-BX","2018/10/23 13:09:30","新北市萬里區萬里里瑪鋉路70號","121.689875","25.1781616666667","6502800","萬里區"
"252005","AAC-283","2018/10/23 13:09:17","新北市三芝區八賢里八連溪43-1號","121.513955","25.2359766666667","6502100","三芝區"
"242001","233-RS","2018/10/23 13:09:22","新北市新莊區環河路636-7號","121.437575","25.0116483333333","6500500","新莊區"
"239001","417-VK","2018/10/23 13:09:24","新北市鶯歌區鶯桃路182巷96弄13號","121.3404","24.9582833333333","6500800","鶯歌區"
"221010","269-BY","2018/10/23 13:09:30","新北市汐止區忠三街8號","121.624781666667","25.078465","6501100","汐止區"
"221032","280-BY","2018/10/23 13:09:35","新北市汐止區水源路一段3號","121.657286666667","25.0672466666667","6501100","汐止區"
"221025","623-UM","2018/10/23 13:09:26","新北市汐止區大同路一段335號","121.63836","25.0595383333333","6501100","汐止區"
"221033","647-BX","2018/10/23 13:09:16","新北市汐止區秀峰路137巷6號","121.66088","25.0623833333333","6501100","汐止區"
"220021","985-R7","2018/10/23 13:09:28","新北市板橋區華東街1-10號","121.448258333333","24.994975","6500100","板橋區"
"235032","KEA-2873","2018/10/23 13:09:33","新北市中和區員山路36巷16-3號","121.48497","24.9913","6500300","中和區"
"235025","KEA-2875","2018/10/23 13:09:20","新北市中和區連城路523巷13弄2號","121.481665","24.9936916666667","6500300","中和區"
