"lineid","car","time","location","longitude","latitude","cityid","cityname"
"234044","148-BY","2018/10/23 13:39:32","新北市永和區永元路118號","121.522688333333","25.0025383333333","6500400","永和區"
"234005","207-UY","2018/10/23 13:39:20","新北市永和區中山路一段10號","121.514155","25.0106","6500400","永和區"
"234078","298-R6","2018/10/23 13:39:23","新北市永和區國中路104巷8弄28號","121.525493333333","25.00614","6500400","永和區"
"234036","336-UY","2018/10/23 13:39:24","新北市永和區民樂街39巷18弄22號","121.528521666667","24.999335","6500400","永和區"
"234062","337-UY","2018/10/23 13:39:17","新北市永和區秀朗路一段192巷6弄14號","121.519136666667","25.0022616666667","6500400","永和區"
"234084","338-UY","2018/10/23 13:39:15","新北市永和區永亨路122號","121.524403333333","25.0041366666667","6500400","永和區"
"234068","552-UM","2018/10/23 13:39:20","新北市永和區永和路二段241號","121.515673333333","25.0145433333333","6500400","永和區"
"234015","745-BX","2018/10/23 13:39:28","新北市永和區永和路二段308號","121.516313333333","25.0160066666667","6500400","永和區"
"234028","746-BX","2018/10/23 13:39:27","新北市永和區民權路1巷42號","121.522356666667","24.9982233333333","6500400","永和區"
"234052","KEA-2590","2018/10/23 13:39:29","新北市永和區竹林路39巷22號","121.518978333333","25.0147733333333","6500400","永和區"
"234012","KEA-2591","2018/10/23 13:39:16","新北市永和區仁愛路176號","121.510066666667","25.0127916666667","6500400","永和區"
"234060","AAD-866","2018/10/23 13:39:25","新北市永和區中正路436號","121.517475","25.00254","6500400","永和區"
"234040","862-TW","2018/10/23 13:39:15","新北市永和區中和路603號","121.512408333333","25.0043883333333","6500400","永和區"
"234048","863-TW","2018/10/23 13:39:08","新北市永和區文化路137巷7弄2號","121.509988333333","25.0160083333333","6500400","永和區"
"234025","9371-KE","2018/10/23 13:39:17","新北市永和區自由街56號","121.513778333333","25.0060116666667","6500400","永和區"
"234010","9373-KE","2018/10/23 13:39:31","新北市永和區保福路二段15巷7號","121.51065","25.0109433333333","6500400","永和區"
"248017","225-UY","2018/10/23 13:39:28","新北市五股區民義路二段66-1號","121.406251666667","25.1083016666667","6501500","五股區"
"234022","9380-KE","2018/10/23 13:39:22","新北市永和區中正路702巷8號","121.516401666667","25.0103166666667","6500400","永和區"
"234076","969-R7","2018/10/23 13:39:26","新北市永和區民權路3號","121.520258333333","24.9985583333333","6500400","永和區"
"234072","AAC-211","2018/10/23 13:39:26","新北市永和區竹林路213巷19號","121.5221","25.0089966666667","6500400","永和區"
"234066","AAC-212","2018/10/23 13:39:36","新北市永和區永平路173巷7號","121.51023","25.0084583333333","6500400","永和區"
"234001","AAC-295","2018/10/23 13:39:35","新北市永和區自由街3號","121.515113333333","25.00718","6500400","永和區"
"244002","248-BX","2018/10/23 13:39:14","新北市林口區頂福里5-1號","121.360936666667","25.0817433333333","6501700","林口區"
"231002","002-UM","2018/10/23 13:39:19","新北市新店區溪園路403號","121.523985","24.9781783333333","6500600","新店區"
"231027","0293-UT","2018/10/23 13:39:23","新北市新店區國校路68號","121.538611666667","24.9531366666667","6500600","新店區"
"231028","046-UY","2018/10/23 13:39:21","新北市新店區安康路一段355號","121.519893333333","24.9638116666667","6500600","新店區"
"231001","047-UY","2018/10/23 13:39:17","新北市新店區中央路13號","121.533186666667","24.97854","6500600","新店區"
"231010","107-UY","2018/10/23 13:39:17","新北市新店區中正路307巷17號","121.535833333333","24.9736066666667","6500600","新店區"
"231020","108-UY","2018/10/23 13:39:22","新北市新店區永興路88-1號","121.543985","24.9336883333333","6500600","新店區"
"231012","187-VK","2018/10/23 13:39:24","新北市新店區德正街23巷12-1號","121.544645","24.9722066666667","6500600","新店區"
"231035","188-VK","2018/10/23 13:39:23","新北市新店區安康路二段85巷44號","121.51429","24.961185","6500600","新店區"
"231023","KEA-2219","2018/10/23 13:39:33","新北市新店區新店路144號","121.537241666667","24.9553133333333","6500600","新店區"
"231026","256-BX","2018/10/23 13:39:27","新北市新店區中正路122號","121.54223","24.9712366666667","6500600","新店區"
"231003","268-BY","2018/10/23 13:39:28","新北市新店區中正路84號","121.543626666667","24.9703133333333","6500600","新店區"
"231018","278-BY","2018/10/23 13:39:33","新北市新店區百忍街15號","121.534508333333","24.97558","6500600","新店區"
"231015","AAD-862","2018/10/23 13:39:32","新北市新店區竹林路25巷10號","121.55226","24.9513516666667","6500600","新店區"
"231038","3712-VJ","2018/10/23 13:39:31","新北市新店區安華路1-1號","121.519126666667","24.9605466666667","6500600","新店區"
"231037","4716-K9","2018/10/23 13:39:01","新北市新店區薏仁坑路45號","121.493246666667","24.9637633333333","6500600","新店區"
"231025","4715-K9","2018/10/23 13:39:28","新北市新店區中央六街61號","121.527765","24.9761316666667","6500600","新店區"
"231036","512-UM","2018/10/23 13:39:26","新北市新店區安祥路147巷55號","121.476076666667","24.9559966666667","6500600","新店區"
"231013","513-UM","2018/10/23 13:39:23","新北市新店區中正路454-5號","121.534441666667","24.9790766666667","6500600","新店區"
"231005","618-UM","2018/10/23 13:39:18","新北市新店區寶中路79號","121.547711666667","24.98078","6500600","新店區"
"231030","619-UM","2018/10/23 13:39:29","新北市新店區安康路一段230-3號","121.522285","24.96377","6500600","新店區"
"231034","641-BX","2018/10/23 13:39:26","新北市新店區車子路143號","121.504315","24.9476133333333","6500600","新店區"
"231032","720-UM","2018/10/23 13:39:14","新北市新店區安忠路205巷8號","121.50871","24.95458","6500600","新店區"
"231006","898-TW","2018/10/23 13:39:29","新北市新店區光明街1號","121.538086666667","24.9589233333333","6500600","新店區"
"231004","899-TW","2018/10/23 13:39:23","新北市新店區北新路二段9號","121.54272","24.971385","6500600","新店區"
"231024","AKT-0513","2018/10/23 13:39:29","新北市新店區華興街36號","121.537078333333","24.9691","6500600","新店區"
"235030","003-UY","2018/10/23 13:39:21","新北市中和區水源路34巷2號","121.504695","25.0035533333333","6500300","中和區"
"235028","005-UY","2018/10/23 13:39:23","新北市中和區連城路75巷1-2號","121.497573333333","24.99986","6500300","中和區"
"235027","006-UY","2018/10/23 13:39:16","新北市中和區連城路347巷4弄37號","121.48663","24.995495","6500300","中和區"
"235020","096-UM","2018/10/23 13:39:24","新北市中和區員山路466巷17弄8號","121.480566666667","25.00725","6500300","中和區"
"235003","097-UM","2018/10/23 13:39:22","新北市中和區景平路278巷16弄4號","121.514123333333","24.99352","6500300","中和區"
"235029","098-UM","2018/10/23 13:39:19","新北市永和區仁愛路352巷90號","121.501153333333","25.0077","6500300","中和區"
"235004","150-BY","2018/10/23 13:39:15","新北市中和區保健路50巷68號","121.509168333333","24.9951516666667","6500300","中和區"
"235022","151-BY","2018/10/23 13:39:15","新北市中和區圓通路369巷39-20號","121.490153333333","24.9851166666667","6500300","中和區"
"235019","183-VK","2018/10/23 13:39:23","新北市中和區民德路79號","121.468901666667","25.0012566666667","6500300","中和區"
"235002","185-VK","2018/10/23 13:39:23","新北市中和區立人街14巷50號","121.51855","24.995635","6500300","中和區"
"235013","186-VK","2018/10/23 13:39:16","新北市中和區景安路132巷38號","121.503858333333","24.9945733333333","6500300","中和區"
"235031","255-BX","2018/10/23 13:39:27","新北市中和區新生街220巷4號","121.482973333333","24.9985966666667","6500300","中和區"
"235008","293-VK","2018/10/23 13:39:20","新北市中和區復興路261號","121.50283","24.9903466666667","6500300","中和區"
"235036","301-VK","2018/10/23 13:39:22","新北市中和區連城路171巷41弄1號","121.49638","24.9965183333333","6500300","中和區"
"235007","352-BY","2018/10/23 13:39:22","新北市中和區景平路73-3號","121.518583333333","24.9916133333333","6500300","中和區"
"235014","4979-A6","2018/10/23 13:39:35","新北市中和區忠孝街154號","121.51269","24.9876","6500300","中和區"
"235033","4980-A6","2018/10/23 13:39:24","新北市中和區連城路89巷1號","121.496755","24.9999683333333","6500300","中和區"
"235006","551-UM","2018/10/23 13:39:32","新北市中和區成功路127巷12弄3號","121.527038333333","24.99058","6500300","中和區"
"235034","558-UM","2018/10/23 13:39:28","新北市中和區景平路598號","121.50093","24.9963733333333","6500300","中和區"
"235009","565-BX","2018/10/23 13:39:26","新北市中和區南山路236巷9號","121.505796666667","24.9889016666667","6500300","中和區"
"235018","640-BX","2018/10/23 13:39:33","新北市中和區民享街86巷30弄8號","121.473155","25.0010933333333","6500300","中和區"
"235024","647-TV","2018/10/23 13:39:34","新北市中和區中山路二段618號","121.48143","25.0054183333333","6500300","中和區"
"235011","732-UM","2018/10/23 13:39:25","新北市中和區興南路二段32巷21號","121.507025","24.9863016666667","6500300","中和區"
"235026","800-TS","2018/10/23 13:39:23","新北市中和區中山路二段312巷33弄10號","121.49489","25.0038316666667","6500300","中和區"
"235021","801-TS","2018/10/23 13:39:25","新北市中和區民安街38號","121.480041666667","25.0005716666667","6500300","中和區"
"235016","805-TS","2018/10/23 13:39:26","新北市中和區興南路三段52巷6-2號","121.493668333333","24.976215","6500300","中和區"
"235012","896-TW","2018/10/23 13:39:26","新北市中和區中正路133號","121.499558333333","24.9935216666667","6500300","中和區"
"235017","900-TW","2018/10/23 13:39:30","新北市土城區延壽路118-2號","121.46916","24.994045","6500300","中和區"
"235035","911-UM","2018/10/23 13:39:16","新北市中和區中原街92號","121.488233333333","25.010225","6500300","中和區"
"235015","157-BY","2018/10/23 13:39:31","新北市中和區華新街143巷106弄32號","121.506263333333","24.9787016666667","6500300","中和區"
"235001","AAC-213","2018/10/23 13:39:18","新北市中和區景德街70號","121.516843333333","24.9915583333333","6500300","中和區"
"235023","AAC-215","2018/10/23 13:39:29","新北市中和區錦和路201號","121.490808333333","24.9905083333333","6500300","中和區"
"220016","013-TV","2018/10/23 13:39:14","新北市板橋區民生路二段89-6號","121.470356666667","25.01944","6500100","板橋區"
"220013","072-UY","2018/10/23 13:39:27","新北市板橋區民族路151巷52號","121.470156666667","25.00843","6500100","板橋區"
"220034","073-UY","2018/10/23 13:39:31","新北市板橋區南雅西路二段226號","121.452166666667","25.015565","6500100","板橋區"
"247005","337-TH","2018/10/23 13:39:24","新北市蘆洲區永安南路二段16巷16-1號","121.468138333333","25.0776783333333","6501400","蘆洲區"
"247009","056-VK","2018/10/23 13:39:34","新北市五股區中興路三段2巷10號","121.449151666667","25.080935","6501400","蘆洲區"
"247021","001-UY","2018/10/23 13:39:33","新北市五股區中興路三段160-3號","121.448491666667","25.0809766666667","6501400","蘆洲區"
"235005","251-BX","2018/10/23 13:39:18","新北市中和區中安街76號","121.512311666667","25.0019116666667","6500300","中和區"
"228004","212-TW","2018/10/23 13:39:26","新北市貢寮區龍崗里嵩陽街17號","121.906826666667","25.0113516666667","6502600","貢寮區"
"228005","828-UM","2018/10/23 13:39:29","新北市貢寮區美豐里文秀坑5-3號","121.903341666667","25.0519083333333","6502600","貢寮區"
"207002","749-BX","2018/10/23 13:39:30","新北市萬里區崁腳里崁腳路166號","121.645073333333","25.1559016666667","6502800","萬里區"
"207001","662-BX","2018/10/23 13:39:23","新北市萬里區大鵬里萬里加投46-1號","121.641826666667","25.2111916666667","6502800","萬里區"
"252005","AAC-283","2018/10/23 13:39:17","新北市三芝區圓山里二坪頂79號","121.54057","25.2452466666667","6502100","三芝區"
"236074","166-UM","2018/10/23 13:39:31","新北市土城區城林路6巷80號","121.43861","24.9797266666667","6501300","土城區"
"236032","271-VK","2018/10/23 13:39:25","新北市土城區城林路6巷80號","121.438528333333","24.97974","6501300","土城區"
"236017","401-BY","2018/10/23 13:39:28","新北市土城區城林路6巷80號","121.438558333333","24.97982","6501300","土城區"
"236040","752-BX","2018/10/23 13:39:19","新北市土城區城林路6巷80號","121.438723333333","24.9797283333333","6501300","土城區"
"242001","233-RS","2018/10/23 13:39:22","新北市新莊區自信街22號","121.45397","25.0480966666667","6500500","新莊區"
"242004","349-TH","2018/10/23 13:39:17","新北市新莊區環河路636-7號","121.437143333333","25.0110083333333","6500500","新莊區"
"239001","417-VK","2018/10/23 13:39:24","桃園市龜山區宏德司法新村180號","121.334275","24.9806466666667","6500800","鶯歌區"
"221010","269-BY","2018/10/23 13:39:30","新北市汐止區長青路210巷1號","121.608986666667","25.1167966666667","6501100","汐止區"
"221032","280-BY","2018/10/23 13:39:35","新北市汐止區新台五路一段207號","121.656996666667","25.0637316666667","6501100","汐止區"
"221025","623-UM","2018/10/23 13:39:26","新北市汐止區大同路一段144號","121.631545","25.0554266666667","6501100","汐止區"
"221033","647-BX","2018/10/23 13:39:36","新北市新店區安康路二段269號","121.504573333333","24.9572583333333","6501100","汐止區"
"220027","145-BY","2018/10/23 13:39:36","新北市板橋區中正路1巷24-3號","121.454998333333","25.0113933333333","6500100","板橋區"
"220028","200-UY","2018/10/23 13:38:35","新北市板橋區大觀路二段265巷76弄36號","121.4404","24.9970066666667","6500100","板橋區"
"220030","610-BX","2018/10/23 13:39:25","新北市板橋區大觀路二段443-2號","121.439358333333","24.9951683333333","6500100","板橋區"
"220052","257-TC","2018/10/23 13:39:37","新北市板橋區民生路二段161巷5號","121.47015","25.0196866666667","6500100","板橋區"
"220020","277-BY","2018/10/23 13:39:28","新北市板橋區大觀路三段62巷2號","121.433261666667","24.995205","6500100","板橋區"
"220043","283-UM","2018/10/23 13:39:21","新北市板橋區民生路二段161巷1號","121.470015","25.0198466666667","6500100","板橋區"
"220019","283-VK","2018/10/23 13:39:35","新北市板橋區四川路二段14號","121.455978333333","24.9962666666667","6500100","板橋區"
"220031","286-VK","2018/10/23 13:39:13","新北市板橋區板城路271號","121.449963333333","24.9979366666667","6500100","板橋區"
"220029","287-VK","2018/10/23 13:39:31","新北市板橋區大觀路二段153巷39弄1號","121.447006666667","25.0005866666667","6500100","板橋區"
"220039","288-VK","2018/10/23 13:39:27","新北市板橋區民生路二段161巷9號","121.470191666667","25.0195416666667","6500100","板橋區"
"220009","293-UM","2018/10/23 13:39:33","新北市板橋區民生路二段120號","121.470355","25.01983","6500100","板橋區"
"220010","295-UM","2018/10/23 13:39:19","新北市板橋區民生路二段89-6號","121.470523333333","25.0193333333333","6500100","板橋區"
"220032","296-UM","2018/10/23 13:39:21","新北市板橋區大觀路二段179巷34號","121.446246666667","24.9994633333333","6500100","板橋區"
"220023","303-R5","2018/10/23 13:39:36","新北市板橋區大觀路一段79號","121.447016666667","25.0040983333333","6500100","板橋區"
"220047","317-R6","2018/10/23 13:39:32","新北市板橋區民生路二段161巷9號","121.470218333333","25.01963","6500100","板橋區"
"220012","486-VK","2018/10/23 13:39:27","新北市板橋區民生路二段36-1號","121.472126666667","25.0167583333333","6500100","板橋區"
"220104","560-BX","2018/10/23 13:39:34","新北市板橋區南雅西路二段179號","121.451803333333","25.0126166666667","6500100","板橋區"
"220005","686-BX","2018/10/23 13:39:16","新北市板橋區華東街1-9號","121.448245","24.9948866666667","6500100","板橋區"
"220025","687-BX","2018/10/23 13:39:30","新北市板橋區大觀路三段95號","121.433006666667","24.9946016666667","6500100","板橋區"
"220054","741-BX","2018/10/23 13:39:36","新北市板橋區大觀路2段435-7號","121.447783333333","24.995485","6500100","板橋區"
"220003","827-TW","2018/10/23 13:39:26","新北市板橋區板城路421號","121.448105","24.9956583333333","6500100","板橋區"
"220022","895-R6","2018/10/23 13:39:29","新北市板橋區南雅東路1號","121.455513333333","25.00571","6500100","板橋區"
"220021","985-R7","2018/10/23 13:39:28","新北市板橋區南雅南路二段114號","121.452753333333","25.000695","6500100","板橋區"
"220018","AAC-253","2018/10/23 13:39:24","新北市板橋區板城路407號","121.447736666667","24.9954166666667","6500100","板橋區"
"235032","KEA-2873","2018/10/23 13:39:33","新北市中和區中正路167巷13號","121.49824","24.9930766666667","6500300","中和區"
"235025","KEA-2875","2018/10/23 13:39:20","新北市中和區民享街91-12號","121.474645","25.0007266666667","6500300","中和區"
