"lineid","car","time","location","longitude","latitude","cityid","cityname"
"248017","225-UY","2018/10/23 15:19:14","新北市五股區成泰路一段122號","121.43564","25.0741216666667","6501500","五股區"
"244002","248-BX","2018/10/23 15:19:18","新北市林口區竹林路271號","121.389525","25.08106","6501700","林口區"
"231002","002-UM","2018/10/23 15:19:19","新北市新店區中正路700巷1號","121.533891666667","24.9911516666667","6500600","新店區"
"231028","046-UY","2018/10/23 15:19:24","新北市新店區僑信路126巷15號","121.499676666667","24.94561","6500600","新店區"
"231001","047-UY","2018/10/23 15:19:17","新北市新店區北新路一段303號","121.541376666667","24.9674633333333","6500600","新店區"
"231020","108-UY","2018/10/23 15:19:22","新北市新店區湖興路128-5號","121.56528","24.931085","6500600","新店區"
"231012","187-VK","2018/10/23 15:19:26","新北市新店區寶慶街76號","121.54157","24.986795","6500600","新店區"
"231035","188-VK","2018/10/23 15:19:21","新北市新店區永平街23巷7號","121.516776666667","24.9829766666667","6500600","新店區"
"231023","KEA-2219","2018/10/23 15:19:14","新北市新店區北新路一段64巷10號","121.541906666667","24.9657533333333","6500600","新店區"
"231026","256-BX","2018/10/23 15:19:07","新北市新店區中正路247巷3號","121.538875","24.9730033333333","6500600","新店區"
"231003","268-BY","2018/10/23 15:19:08","新北市新店區寶橋路238號","121.551546666667","24.9789266666667","6500600","新店區"
"231018","278-BY","2018/10/23 15:19:13","新北市新店區中央七街59號","121.528161666667","24.9762433333333","6500600","新店區"
"231015","AAD-862","2018/10/23 15:19:12","新北市新店區明山路45號","121.563705","24.95578","6500600","新店區"
"231038","3712-VJ","2018/10/23 15:19:12","新北市新店區安華路28-1號","121.519763333333","24.960925","6500600","新店區"
"231037","4716-K9","2018/10/23 15:19:21","新北市新店區安興路56號","121.51662","24.974915","6500600","新店區"
"231025","4715-K9","2018/10/23 15:19:09","新北市新店區安康路一段94-2號","121.527778333333","24.9621216666667","6500600","新店區"
"231036","512-UM","2018/10/23 15:19:25","新北市新店區安祥路69巷15號","121.482048333333","24.9614016666667","6500600","新店區"
"231005","618-UM","2018/10/23 15:19:19","新北市新店區建國路116號","121.539303333333","24.978535","6500600","新店區"
"231030","619-UM","2018/10/23 15:19:09","新北市新店區安民街341-1號","121.516751666667","24.9749483333333","6500600","新店區"
"231034","641-BX","2018/10/23 15:19:26","新北市新店區如意街4巷1號","121.495513333333","24.94919","6500600","新店區"
"231039","718-UY","2018/10/23 15:19:16","新北市新店區寶元路一段65號","121.542176666667","24.9857916666667","6500600","新店區"
"231032","720-UM","2018/10/23 15:19:14","新北市新店區安泰路157號","121.488413333333","24.9379016666667","6500600","新店區"
"231029","897-TW","2018/10/23 15:19:22","新北市新店區安康路三段738號","121.473868333333","24.9420733333333","6500600","新店區"
"231006","898-TW","2018/10/23 15:19:29","新北市新店區中興路一段203號","121.54362","24.965705","6500600","新店區"
"231004","899-TW","2018/10/23 15:19:23","新北市新店區建國路31號","121.54025","24.97414","6500600","新店區"
"231024","AKT-0513","2018/10/23 15:19:09","新北市新店區環河路18號","121.537075","24.96143","6500600","新店區"
"241011","013-R5","2018/10/23 15:19:10","新北市三重區重新路四段121號","121.484898333333","25.0522983333333","6500200","三重區"
"241013","270-UM","2018/10/23 15:19:23","新北市三重區重新路四段121號","121.484841666667","25.0525633333333","6500200","三重區"
"235030","003-UY","2018/10/23 15:19:21","新北市中和區光華街31巷22弄1號","121.505446666667","25.00474","6500300","中和區"
"235013","186-VK","2018/10/23 15:19:16","新北市中和區連城路297號","121.490011666667","24.996335","6500300","中和區"
"235014","4979-A6","2018/10/23 15:19:15","新北市中和區景平路466號","121.505703333333","24.9936583333333","6500300","中和區"
"235033","4980-A6","2018/10/23 15:19:23","新北市中和區圓通路198巷2弄2號","121.49634","24.9948083333333","6500300","中和區"
"235018","640-BX","2018/10/23 15:19:12","新北市中和區中正路673號","121.485168333333","24.99653","6500300","中和區"
"235012","896-TW","2018/10/23 15:19:26","新北市中和區景新街370號","121.512221666667","24.99035","6500300","中和區"
"235035","911-UM","2018/10/23 15:19:16","新北市中和區立德街23號","121.48851","25.0073783333333","6500300","中和區"
"235023","AAC-215","2018/10/23 15:19:29","新北市中和區員山路28-5號","121.482025","24.98674","6500300","中和區"
"207002","749-BX","2018/10/23 15:19:10","新北市萬里區崁腳里內中福路10-2號","121.663456666667","25.1641533333333","6502800","萬里區"
"207001","662-BX","2018/10/23 15:19:23","新北市萬里區大鵬里萬里加投14號","121.650378333333","25.2091733333333","6502800","萬里區"
"236065","105-UM","2018/10/23 15:19:27","新北市土城區裕民路185巷36弄10號","121.454433333333","24.9845116666667","6501300","土城區"
"236074","166-UM","2018/10/23 15:19:11","新北市土城區中央路四段410巷3號","121.411303333333","24.9536016666667","6501300","土城區"
"236029","253-BX","2018/10/23 15:19:28","新北市土城區中央路一段250巷1號","121.444131666667","24.9846933333333","6501300","土城區"
"236024","269-VK","2018/10/23 15:19:19","新北市土城區中央路二段61巷28號","121.443436666667","24.97867","6501300","土城區"
"236013","270-VK","2018/10/23 15:19:22","新北市土城區學府路一段50號","121.457598333333","24.988625","6501300","土城區"
"236032","271-VK","2018/10/23 15:19:24","新北市土城區國際路57號","121.466695","24.9769333333333","6501300","土城區"
"236017","401-BY","2018/10/23 15:19:08","新北市土城區峰廷街2號","121.468646666667","24.98778","6501300","土城區"
"236040","752-BX","2018/10/23 15:19:19","新北市土城區學府路一段146號","121.454856666667","24.987105","6501300","土城區"
"236057","912-UM","2018/10/23 15:19:30","新北市土城區中央路二段225號","121.440393333333","24.9727133333333","6501300","土城區"
"236045","913-UM","2018/10/23 15:19:22","新北市土城區明德路一段61號","121.46527","24.9844783333333","6501300","土城區"
"236060","915-UM","2018/10/23 15:19:14","新北市土城區延和路62巷7號","121.466035","24.9886883333333","6501300","土城區"
"236054","AAC-216","2018/10/23 15:19:11","新北市土城區學府路一段12號","121.459368333333","24.9884916666667","6501300","土城區"
"242001","233-RS","2018/10/23 15:19:22","新北市三重區五谷王北街181-2號","121.475823333333","25.053875","6500500","新莊區"
"239001","417-VK","2018/10/23 15:19:24","桃園市龜山區宏德司法新村180號","121.334248333333","24.980625","6500800","鶯歌區"
"221025","623-UM","2018/10/23 15:19:25","新北市汐止區連興街122號","121.65358","25.0621966666667","6501100","汐止區"
"220027","145-BY","2018/10/23 15:19:16","新北市五股區凌雲路二段18巷12號","121.444246666667","25.1069583333333","6500100","板橋區"
"220028","200-UY","2018/10/23 15:15:34","新北市樹林區中山路三段214號","121.378475","24.9687616666667","6500100","板橋區"
"220052","257-TC","2018/10/23 15:19:16","新北市板橋區漢生西路19號","121.463465","25.0182166666667","6500100","板橋區"
"220050","280-UM","2018/10/23 15:19:22","新北市板橋區縣民大道三段35號","121.473981666667","25.0207016666667","6500100","板橋區"
"220031","286-VK","2018/10/23 15:19:13","新北市板橋區僑中二街106巷7號","121.445465","25.00763","6500100","板橋區"
"220041","307-R5","2018/10/23 15:18:52","新北市板橋區民權路172巷7號","121.460053333333","25.0134083333333","6500100","板橋區"
"220038","487-VK","2018/10/23 15:19:20","新北市板橋區四維路179-1號","121.46433","25.0265933333333","6500100","板橋區"
"220042","689-BX","2018/10/23 15:19:26","新北市板橋區長江路一段6-3號","121.45776","25.0285816666667","6500100","板橋區"
"220051","KEA-2699","2018/10/23 15:19:18","新北市板橋區文化路一段98號","121.46452","25.0180533333333","6500100","板橋區"
