"lineid","car","time","location","longitude","latitude","cityid","cityname"
"234026","9371-KE","2018/10/23 17:58:01","新北市永和區永和路一段149-2號","121.514118333333","25.0092266666667","6500400","永和區"
"249005","172-UM","2018/10/23 17:57:49","新北市八里區荖阡坑路22號","121.399168333333","25.13576","6502300","八里區"
"249001","173-UM","2018/10/23 17:57:49","新北市八里區龍米路二段35號","121.448506666667","25.1400333333333","6502300","八里區"
"249004","303-UY","2018/10/23 17:57:52","新北市八里區龍米路三段15號","121.427988333333","25.1591","6502300","八里區"
"249002","305-UY","2018/10/23 17:57:48","新北市八里區龍米路一段259號","121.450641666667","25.1335866666667","6502300","八里區"
"249003","593-UM","2018/10/23 17:57:56","新北市八里區中華路二段205巷20弄20號","121.405835","25.148005","6502300","八里區"
"248002","678-BX","2018/10/23 17:57:55","新北市五股區中興路二段37巷28號","121.46011","25.07473","6501500","五股區"
"232011","375-UM","2018/10/23 17:57:50","新北市坪林區北宜路八段205號","121.708416666667","24.9348183333333","6502000","坪林區"
"244023","069-UM","2018/10/23 17:57:41","新北市林口區東湖一街71號","121.385373333333","25.072495","6501700","林口區"
"244007","080-UY","2018/10/23 17:57:59","新北市林口區林口路148號","121.38803","25.0822416666667","6501700","林口區"
"244019","403-UM","2018/10/23 17:57:56","新北市林口區文化一路一段40號","121.371018333333","25.069335","6501700","林口區"
"244013","KEA-2802","2018/10/23 17:57:59","新北市林口區中山路134-1號","121.391893333333","25.0785933333333","6501700","林口區"
"244017","485-VK","2018/10/23 17:57:51","新北市林口區文化二路一段309巷1號","121.369325","25.0730316666667","6501700","林口區"
"244009","656-BX","2018/10/23 17:57:53","新北市林口區佳林路56巷23號","121.385388333333","25.0812566666667","6501700","林口區"
"244011","701-TV","2018/10/23 17:57:46","新北市林口區中正路168號","121.392258333333","25.0775033333333","6501700","林口區"
"244025","837-TS","2018/10/23 17:57:40","新北市林口區文化三路一段39巷96號","121.359096666667","25.066835","6501700","林口區"
"244021","838-TS","2018/10/23 17:57:53","新北市林口區仁愛路一段2-1號","121.397316666667","25.0681566666667","6501700","林口區"
"222003","436-BY","2018/10/23 17:57:47","新北市深坑區炮子崙23號","121.607168333333","24.9909","6501800","深坑區"
"222002","659-BX","2018/10/23 17:58:01","新北市深坑區深坑街35號","121.615968333333","25.0018533333333","6501800","深坑區"
"231046","107-UY","2018/10/23 17:57:59","新北市新店區康雅崙路12號","121.536343333333","24.926545","6500600","新店區"
"231058","3713-VJ","2018/10/23 17:56:57","新北市新店區安華路28-1號","121.519198333333","24.9606483333333","6500600","新店區"
"231055","AKT-0513","2018/10/23 17:57:52","新北市新店區安華路28-1號","121.51949","24.9605483333333","6500600","新店區"
"241024","065-VK","2018/10/23 17:57:57","新北市三重區大勇街82巷21號","121.47959","25.072095","6500200","三重區"
"251014","742-BX","2018/10/23 17:57:57","新北市淡水區公埔子16-6號","121.481013333333","25.2245983333333","6501000","淡水區"
"241016","266-UM","2018/10/23 17:57:43","新北市三重區光復路二段178-1號","121.471953333333","25.0624366666667","6500200","三重區"
"241033","AAC-255","2018/10/23 17:57:52","新北市三重區重新路五段561號","121.47043","25.0459883333333","6500200","三重區"
"235064","005-UY","2018/10/23 17:57:42","新北市中和區員山路36巷16-3號","121.485131666667","24.99131","6500300","中和區"
"235063","006-UY","2018/10/23 17:57:41","新北市中和區員山路36巷16-3號","121.484968333333","24.9913433333333","6500300","中和區"
"235058","151-BY","2018/10/23 17:57:55","新北市中和區錦和路201號","121.49076","24.99029","6500300","中和區"
"235038","185-VK","2018/10/23 17:57:59","新北市中和區中正路637巷52弄1號","121.485425","24.9934616666667","6500300","中和區"
"235067","255-BX","2018/10/23 17:56:01","新北市中和區和城路一段271巷1號","121.485716666667","24.9917683333333","6500300","中和區"
"247012","KEA-2869","2018/10/23 17:57:50","新北市蘆洲區民族路171號","121.479156666667","25.0883466666667","6501400","蘆洲區"
"235054","640-BX","2018/10/23 17:57:46","新北市中和區員山路36巷16-3號","121.484965","24.9918466666667","6500300","中和區"
"235057","801-TS","2018/10/23 17:57:48","新北市中和區員山路36巷16-3號","121.485138333333","24.99145","6500300","中和區"
"235052","805-TS","2018/10/23 17:57:50","新北市中和區員山路36巷13號","121.484148333333","24.9913333333333","6500300","中和區"
"235037","AAC-213","2018/10/23 17:57:45","新北市中和區中正路395號","121.490035","24.9936033333333","6500300","中和區"
"247002","893-R6","2018/10/23 17:57:45","新北市蘆洲區永平街32巷57弄21號","121.459078333333","25.0931483333333","6501400","蘆洲區"
"247016","546-UM","2018/10/23 17:57:52","新北市蘆洲區長興路50巷34號","121.465525","25.0848716666667","6501400","蘆洲區"
"247024","500-BY","2018/10/23 17:57:58","新北市蘆洲區光復路30巷20號","121.463785","25.0841566666667","6501400","蘆洲區"
"247014","339-TH","2018/10/23 17:57:48","新北市蘆洲區忠孝路98號","121.471381666667","25.0860933333333","6501400","蘆洲區"
"247008","336-TH","2018/10/23 17:57:50","新北市蘆洲區中山二路300巷1號","121.468461666667","25.0766166666667","6501400","蘆洲區"
"226004","205-ST","2018/10/23 17:57:48","新北市平溪區石底里公園街18-3號","121.73326","25.025785","6502400","平溪區"
"228001","212-TW","2018/10/23 17:58:00","新北市貢寮區真理里新港街26巷31號","121.929545","25.0545766666667","6502600","貢寮區"
"228002","663-BX","2018/10/23 17:57:52","新北市貢寮區福隆里桂安街17號","121.964848333333","25.0214266666667","6502600","貢寮區"
"228003","828-UM","2018/10/23 17:58:00","新北市貢寮區真理里美艷山街6-2號","121.928845","25.06074","6502600","貢寮區"
"224006","676-BX","2018/10/23 17:57:45","新北市瑞芳區大寮路356-1號","121.784716666667","25.1032133333333","6501200","瑞芳區"
"224002","639-TC","2018/10/23 17:58:01","新北市瑞芳區三爪子坑路32巷76號","121.810106666667","25.1059766666667","6501200","瑞芳區"
"224008","285-BY","2018/10/23 17:58:00","新北市瑞芳區明燈路一段201巷97-1號","121.81873","25.1066583333333","6501200","瑞芳區"
"224009","273-VK","2018/10/23 17:57:53","新北市瑞芳區山尖路2號","121.854306666667","25.115875","6501200","瑞芳區"
"224005","271-BY","2018/10/23 17:57:56","新北市瑞芳區深澳路67號","121.818263333333","25.1297466666667","6501200","瑞芳區"
"227003","642-TC","2018/10/23 17:38:38","新北市雙溪區共和里東榮街52號","121.86628","25.0336966666667","6502500","雙溪區"
"253006","032-BX","2018/10/23 17:57:42","新北市石門區大丘田42-2號","121.549085","25.2801083333333","6502200","石門區"
"253005","741-TV","2018/10/23 17:57:49","新北市石門區中山路64-1號","121.567438333333","25.2904366666667","6502200","石門區"
"208002","KEA-2872","2018/10/23 17:57:50","新北市金山區三界壇路6號","121.62637","25.2282083333333","6502700","金山區"
"208003","665-BX","2018/10/23 17:57:55","新北市金山區磺港里磺港路308號","121.643943333333","25.227415","6502700","金山區"
"208001","761-BX","2018/10/23 17:57:47","新北市金山區磺港里社寮16-1號","121.638175","25.2264983333333","6502700","金山區"
"251009","008-UM","2018/10/23 17:57:48","新北市淡水區大仁街6巷1號","121.4424","25.1746116666667","6501000","淡水區"
"251005","010-UM","2018/10/23 17:57:59","新北市淡水區水源街一段139號","121.447081666667","25.17192","6501000","淡水區"
"251002","012-UM","2018/10/23 17:57:57","新北市淡水區鼻頭街18-5號","121.446808333333","25.1667483333333","6501000","淡水區"
"251013","KEA-2871","2018/10/23 17:57:54","新北市淡水區泉洲厝31號","121.479585","25.1910683333333","6501000","淡水區"
"251016","179-VK","2018/10/23 17:57:48","新北市淡水區埤島31號","121.448986666667","25.1976116666667","6501000","淡水區"
"251015","180-VK","2018/10/23 17:57:42","新北市淡水區興福寮88巷1號","121.48523","25.1649483333333","6501000","淡水區"
"251008","181-VK","2018/10/23 17:58:02","新北市淡水區八勢一街32巷4號","121.461881666667","25.1559083333333","6501000","淡水區"
"251010","413-VK","2018/10/23 17:57:42","新北市淡水區中正路一段130-7號","121.42233","25.179505","6501000","淡水區"
"251012","441-VK","2018/10/23 17:57:57","新北市淡水區北新路三段38巷7號","121.484536666667","25.1870133333333","6501000","淡水區"
"251007","442-VK","2018/10/23 17:57:42","新北市淡水區中正東路二段143巷1弄1號","121.460658333333","25.148135","6501000","淡水區"
"251004","443-VK","2018/10/23 17:57:45","新北市淡水區民權路84號","121.459181666667","25.13356","6501000","淡水區"
"251001","559-UM","2018/10/23 17:57:55","新北市淡水區民權路94巷1號","121.463138333333","25.1247933333333","6501000","淡水區"
"251006","561-UM","2018/10/23 17:57:45","新北市淡水區新生街19號","121.438881666667","25.1736533333333","6501000","淡水區"
"251011","650-BX","2018/10/23 17:57:47","新北市淡水區三空泉5號","121.476361666667","25.1612016666667","6501000","淡水區"
"251003","766-UM","2018/10/23 17:57:57","新北市淡水區大忠街47號","121.444671666667","25.1764833333333","6501000","淡水區"
"207003","550-UM","2018/10/23 17:57:57","新北市萬里區野柳里港東路162號","121.69016","25.2044833333333","6502800","萬里區"
"207004","225-TW","2018/10/23 17:57:57","新北市萬里區中幅里中福路48號","121.683471666667","25.1741483333333","6502800","萬里區"
"252002","178-VK","2018/10/23 17:57:42","新北市三芝區中山路二段45號","121.503006666667","25.2547983333333","6502100","三芝區"
"252001","292-VK","2018/10/23 17:57:48","新北市三芝區中興街二段2號","121.498396666667","25.2565866666667","6502100","三芝區"
"237007","153-BY","2018/10/23 17:57:55","新北市三峽區中園街108號","121.367191666667","24.922975","6500900","三峽區"
"237009","210-TH","2018/10/23 17:57:54","新北市三峽區中山路106巷2號","121.366105","24.9361","6500900","三峽區"
"237013","252-BX","2018/10/23 17:57:53","新北市三峽區介壽路一段197號","121.378175","24.9306216666667","6500900","三峽區"
"237012","275-BY","2018/10/23 17:57:47","新北市三峽區民生街27巷1號","121.3761","24.9362066666667","6500900","三峽區"
"237008","302-VK","2018/10/23 17:57:44","新北市三峽區正義街191號","121.36808","24.9144883333333","6500900","三峽區"
"237014","433-BY","2018/10/23 17:58:01","新北市三峽區和平街36巷7弄8號","121.37089","24.9375066666667","6500900","三峽區"
"237006","5529-G3","2018/10/23 17:57:43","新北市三峽區介壽路二段136巷120弄2-1號","121.392406666667","24.932235","6500900","三峽區"
"237011","KEA-2596","2018/10/23 17:57:52","新北市三峽區光明路69巷12號","121.376398333333","24.928605","6500900","三峽區"
"237016","649-BX","2018/10/23 17:57:59","新北市三峽區紫微路87號","121.40419","24.9087933333333","6500900","三峽區"
"237010","706-TV","2018/10/23 17:57:52","新北市三峽區仁愛街6號","121.368431666667","24.9339166666667","6500900","三峽區"
"237005","AKY-6261","2018/10/23 17:58:01","新北市三峽區復興路235號","121.36824","24.93877","6500900","三峽區"
"236070","105-UM","2018/10/23 17:57:50","新北市土城區青雲路474-2號","121.463731666667","24.96613","6501300","土城區"
"236079","166-UM","2018/10/23 17:57:41","新北市土城區永寧路35號","121.430103333333","24.9621466666667","6501300","土城區"
"236030","253-BX","2018/10/23 17:57:40","新北市土城區城林路6巷80號","121.438678333333","24.9796866666667","6501300","土城區"
"236026","269-VK","2018/10/23 17:57:48","新北市土城區承天路35-3號","121.437581666667","24.9647166666667","6501300","土城區"
"236014","270-VK","2018/10/23 17:57:48","新北市土城區城林路6巷80號","121.438516666667","24.9796366666667","6501300","土城區"
"236038","271-VK","2018/10/23 17:57:49","新北市土城區城林路6巷80號","121.438596666667","24.979615","6501300","土城區"
"236021","401-BY","2018/10/23 17:58:00","新北市土城區城林路6巷80號","121.43849","24.9797766666667","6501300","土城區"
"236042","752-BX","2018/10/23 17:57:56","新北市土城區城林路6巷80號","121.438418333333","24.9797266666667","6501300","土城區"
"236059","912-UM","2018/10/23 17:57:59","新北市土城區中央路三段234號","121.428638333333","24.9643466666667","6501300","土城區"
"236049","913-UM","2018/10/23 17:57:43","新北市土城區中華路二段2號","121.439403333333","24.9795916666667","6501300","土城區"
"236063","915-UM","2018/10/23 17:57:54","新北市土城區城林路6巷80號","121.438731666667","24.9796566666667","6501300","土城區"
"236055","AAC-216","2018/10/23 17:58:01","新北市土城區城林路6巷80號","121.438531666667","24.9796033333333","6501300","土城區"
"242037","AAC-296","2018/10/23 17:57:51","新北市新莊區建福路29號","121.42642","25.0287366666667","6500500","新莊區"
"242058","986-R7","2018/10/23 17:57:41","新北市新莊區新北大道七段353號","121.412395","25.02725","6500500","新莊區"
"242056","751-BX","2018/10/23 17:57:47","新北市新莊區豐年街124巷7號","121.445981666667","25.0297933333333","6500500","新莊區"
"242027","705-TV","2018/10/23 17:57:56","新北市新莊區中原路1號","121.459621666667","25.0544483333333","6500500","新莊區"
"242025","613-BX","2018/10/23 17:57:55","新北市新莊區五工路52號","121.459355","25.0626183333333","6500500","新莊區"
"242029","612-BX","2018/10/23 17:57:53","新北市新莊區中平路110巷11號","121.445685","25.04608","6500500","新莊區"
"242044","566-BX","2018/10/23 17:57:56","新北市新莊區雙鳳路56號","121.415785","25.0273766666667","6500500","新莊區"
"242048","497-BY","2018/10/23 17:57:36","新北市新莊區萬安街59號","121.421453333333","25.0243233333333","6500500","新莊區"
"242015","442-UM","2018/10/23 17:57:44","新北市新莊區中平路87巷4號","121.444531666667","25.04602","6500500","新莊區"
"242054","441-UM","2018/10/23 17:57:58","新北市新莊區民安西路398號","121.428696666667","25.0102133333333","6500500","新莊區"
"242039","415-TV","2018/10/23 17:57:45","新北市新莊區民安路202號","121.425595","25.02317","6500500","新莊區"
"242009","413-TV","2018/10/23 17:57:49","新北市新莊區中華路二段314號","121.452428333333","25.05392","6500500","新莊區"
"242046","400-BY","2018/10/23 17:58:02","新北市新莊區福營路167號","121.431775","25.031195","6500500","新莊區"
"242023","362-BY","2018/10/23 17:57:56","新北市新莊區福壽街74號","121.458265","25.049345","6500500","新莊區"
"242061","353-BY","2018/10/23 17:57:42","新北市新莊區新樹路457號","121.432675","25.0132183333333","6500500","新莊區"
"242011","132-UY","2018/10/23 17:57:45","新北市新莊區中港路中慶巷18號","121.450158333333","25.0538166666667","6500500","新莊區"
"242042","133-UY","2018/10/23 17:57:52","新北市新莊區中正路618號","121.423673333333","25.02933","6500500","新莊區"
"242034","135-UY","2018/10/23 17:57:57","新北市新莊區福海街20號","121.445363333333","25.0338916666667","6500500","新莊區"
"242051","172-VK","2018/10/23 17:57:53","新北市新莊區民本街53巷13號","121.428695","25.0181733333333","6500500","新莊區"
"242013","173-VK","2018/10/23 17:57:42","新北市新莊區中和街125巷1號","121.44717","25.048555","6500500","新莊區"
"242019","175-VK","2018/10/23 17:57:44","新北市新莊區明中街49巷14號","121.4567","25.03905","6500500","新莊區"
"242007","176-VK","2018/10/23 17:58:01","新北市新莊區自信街38號","121.454556666667","25.0483083333333","6500500","新莊區"
"242017","346-TH","2018/10/23 17:57:45","新北市新莊區永樂街182號","121.448338333333","25.0446466666667","6500500","新莊區"
"242032","348-TH","2018/10/23 17:57:55","新北市新莊區新泰路305巷8號","121.444818333333","25.0410116666667","6500500","新莊區"
"242005","349-TH","2018/10/23 17:57:54","新北市新莊區福樂街71巷25-1號","121.456973333333","25.04706","6500500","新莊區"
"242021","350-TH","2018/10/23 17:57:59","新北市新莊區建興街34號","121.450055","25.0372966666667","6500500","新莊區"
"238015","755-BX","2018/10/23 17:58:01","新北市樹林區啟智街79巷1號","121.419896666667","24.9918583333333","6500700","樹林區"
"238023","601-UM","2018/10/23 17:57:50","新北市樹林區龍興街59巷6號","121.403691666667","25.0152816666667","6500700","樹林區"
"238019","599-UM","2018/10/23 17:57:59","新北市樹林區太平路235-1號","121.41871","24.9743466666667","6500700","樹林區"
"238018","571-TV","2018/10/23 17:57:51","新北市樹林區樹新路106巷1號","121.42994","24.9978416666667","6500700","樹林區"
"238022","KEA-2213","2018/10/23 17:57:59","新北市樹林區太順街51巷1號","121.41762","24.9791183333333","6500700","樹林區"
"238021","KEA-2539","2018/10/23 17:57:44","新北市樹林區柑園街一段114號","121.40044","24.9585633333333","6500700","樹林區"
"238025","303-VK","2018/10/23 17:57:51","新北市樹林區三俊街81巷2號","121.415791666667","25.0154283333333","6500700","樹林區"
"238017","283-BY","2018/10/23 17:57:55","新北市樹林區中正路628號","121.410043333333","25.0159883333333","6500700","樹林區"
"238014","282-BY","2018/10/23 17:57:47","新北市樹林區中正路45巷4號","121.426735","24.9994316666667","6500700","樹林區"
"238020","268-VK","2018/10/23 17:58:03","新北市樹林區三俊街197號","121.420093333333","25.0158316666667","6500700","樹林區"
"238026","172-UY","2018/10/23 17:57:58","新北市樹林區中洲街30巷13弄25號","121.398153333333","24.972245","6500700","樹林區"
"238016","169-UY","2018/10/23 17:57:19","新北市樹林區啟智街151巷8號","121.416428333333","24.9878016666667","6500700","樹林區"
"239007","AAC-297","2018/10/23 17:57:53","新北市鶯歌區尖山埔路213號","121.345165","24.95047","6500800","鶯歌區"
"239006","891-R6","2018/10/23 17:57:47","新北市鶯歌區鳳鳴路99號","121.334321666667","24.9661983333333","6500800","鶯歌區"
"239008","527-UM","2018/10/23 17:57:58","新北市鶯歌區國際一路114巷2號","121.335905","24.9764983333333","6500800","鶯歌區"
"239005","526-UM","2018/10/23 17:57:59","新北市鶯歌區鳳吉四街47號","121.32745","24.973245","6500800","鶯歌區"
"239001","417-VK","2018/10/23 17:57:49","新北市鶯歌區中正二路192號","121.339613333333","24.943285","6500800","鶯歌區"
"239003","360-BY","2018/10/23 17:58:02","新北市鶯歌區永吉街9巷2號","121.3365","24.958285","6500800","鶯歌區"
"239002","359-BY","2018/10/23 17:57:46","新北市鶯歌區光明街46號","121.348108333333","24.9560333333333","6500800","鶯歌區"
"239004","193-VK","2018/10/23 17:57:46","新北市鶯歌區尖山路141號","121.346726666667","24.948655","6500800","鶯歌區"
"221008","489-VK","2018/10/23 17:57:59","新北市汐止區明峰街15-1號","121.634761666667","25.0714283333333","6501100","汐止區"
"221036","130-UY","2018/10/23 17:57:51","新北市汐止區大同路二段340號","121.656518333333","25.066985","6501100","汐止區"
"221015","131-UY","2018/10/23 17:57:42","新北市汐止區長江街286號","121.665201666667","25.0808716666667","6501100","汐止區"
"221010","269-BY","2018/10/23 17:58:02","新北市汐止區汐萬路二段245巷37號","121.643695","25.087795","6501100","汐止區"
"221012","278-VK","2018/10/23 17:57:56","新北市汐止區長興街二段28號","121.672991666667","25.0813566666667","6501100","汐止區"
"221023","279-VK","2018/10/23 17:57:50","新北市汐止區明峰街117號","121.6311","25.0711066666667","6501100","汐止區"
"221032","280-BY","2018/10/23 17:57:49","新北市汐止區橫科路73巷20弄8號","121.619733333333","25.0515533333333","6501100","汐止區"
"221027","281-BY","2018/10/23 17:58:00","新北市汐止區大同路二段374號","121.657815","25.06714","6501100","汐止區"
"221029","298-VK","2018/10/23 17:57:50","新北市汐止區樟樹二路339巷16-1號","121.641701666667","25.070995","6501100","汐止區"
"221021","299-VK","2018/10/23 17:57:53","新北市汐止區水源路一段84號","121.656915","25.0648433333333","6501100","汐止區"
"221031","353-TW","2018/10/23 17:57:57","新北市汐止區中興路173號","121.630573333333","25.066375","6501100","汐止區"
"221035","622-UM","2018/10/23 17:57:47","新北市汐止區汐萬路一段115巷2號","121.654286666667","25.070785","6501100","汐止區"
"221038","646-BX","2018/10/23 17:57:57","新北市汐止區連興街128巷5號","121.653456666667","25.0616066666667","6501100","汐止區"
"221033","647-BX","2018/10/23 17:57:42","新北市汐止區合順街39巷2號","121.620723333333","25.0432783333333","6501100","汐止區"
"221002","707-TV","2018/10/23 17:58:00","新北市汐止區工建路202號","121.636851666667","25.0626716666667","6501100","汐止區"
"221018","753-BX","2018/10/23 17:57:48","新北市汐止區忠孝東路348號","121.665585","25.0697933333333","6501100","汐止區"
"242002","281-VK","2018/10/23 17:57:51","新北市新莊區大觀街42巷31號","121.45455","25.0363983333333","6500500","新莊區"
"235061","KEA-2875","2018/10/23 17:57:35","新北市中和區員山路36巷16-2號","121.485228333333","24.9917833333333","6500300","中和區"
