"lineid","car","time","location","longitude","latitude","cityid","cityname"
"244018","403-UM","2018/10/23 20:55:50","新北市林口區粉寮路二段88巷100-12號","121.409588333333","25.0901783333333","6501700","林口區"
"243001","297-R6","2018/10/23 21:10:30","新北市泰山區黎明路31號","121.421763333333","25.0607183333333","6501600","泰山區"
"243006","680-BX","2018/10/23 20:58:29","新北市泰山區黎明路25號","121.422115","25.060635","6501600","泰山區"
"231059","046-UY","2018/10/23 21:18:04","新北市新店區僑信路4巷2號","121.499636666667","24.9529716666667","6500600","新店區"
"231040","047-UY","2018/10/23 21:17:57","新北市新店區北新路一段235號","121.540725","24.9656633333333","6500600","新店區"
"231048","187-VK","2018/10/23 21:18:02","新北市新店區中央路2號","121.533831666667","24.97887","6500600","新店區"
"231054","KEA-2219","2018/10/23 21:17:58","新北市新店區光明街284號","121.540425","24.9644783333333","6500600","新店區"
"231051","278-BY","2018/10/23 21:17:48","新北市新店區溪園路39號","121.530398333333","24.988385","6500600","新店區"
"231050","AAD-862","2018/10/23 21:17:50","新北市新店區中正路189巷14號","121.540133333333","24.9718266666667","6500600","新店區"
"231063","641-BX","2018/10/23 21:17:53","新北市新店區吉祥街15巷1號","121.497705","24.94558","6500600","新店區"
"241011","013-R5","2018/10/23 21:18:00","新北市三重區河邊北街110巷66號","121.502248333333","25.070245","6500200","三重區"
"241028","022-UY","2018/10/23 21:17:55","新北市三重區正義南路165-1號","121.498863333333","25.0575116666667","6500200","三重區"
"241008","059-VK","2018/10/23 21:17:52","新北市三重區自強路一段66號","121.497131666667","25.0666066666667","6500200","三重區"
"241031","061-VK","2018/10/23 21:17:57","新北市三重區五谷王南街46巷37號","121.475736666667","25.0455066666667","6500200","三重區"
"241015","062-VK","2018/10/23 21:17:53","新北市三重區龍濱路269號","121.50144","25.072895","6500200","三重區"
"241017","063-VK","2018/10/23 21:18:05","新北市三重區國隆路8巷1號","121.493326666667","25.0636833333333","6500200","三重區"
"241024","065-VK","2018/10/23 21:17:57","新北市三重區中正北路145巷14號","121.484191666667","25.0677616666667","6500200","三重區"
"241026","066-VK","2018/10/23 21:17:59","新北市三重區大同南路218號","121.496785","25.0563833333333","6500200","三重區"
"241002","090-VK","2018/10/23 21:17:51","新北市三重區五華街16號","121.494896666667","25.08034","6500200","三重區"
"241003","091-VK","2018/10/23 21:17:54","新北市三重區仁義街317號","121.495376666667","25.0841983333333","6500200","三重區"
"251014","742-BX","2018/10/23 21:17:57","新北市淡水區六塊厝2-1號","121.450155","25.2404433333333","6501000","淡水區"
"241005","262-UM","2018/10/23 21:18:00","新北市三重區三信路186號","121.487928333333","25.0860366666667","6500200","三重區"
"241009","265-UM","2018/10/23 21:18:06","新北市三重區忠孝路三段84巷16號","121.480301666667","25.0649333333333","6500200","三重區"
"241016","266-UM","2018/10/23 21:18:03","新北市三重區自強路一段125號","121.495316666667","25.0663733333333","6500200","三重區"
"241018","268-UM","2018/10/23 21:17:50","新北市三重區忠孝路三段1號","121.481966666667","25.0678133333333","6500200","三重區"
"241032","269-UM","2018/10/23 21:17:45","新北市三重區中興北街201號","121.469128333333","25.0575416666667","6500200","三重區"
"241013","270-UM","2018/10/23 21:18:05","新北市三重區仁愛街81-1號","121.495976666667","25.0731533333333","6500200","三重區"
"241025","271-UM","2018/10/23 21:17:58","新北市三重區忠孝路三段40巷6弄11號","121.482226666667","25.06686","6500200","三重區"
"241004","475-VK","2018/10/23 21:17:45","新北市三重區仁愛街455號","121.489958333333","25.08173","6500200","三重區"
"241030","480-VK","2018/10/23 21:17:52","新北市三重區五谷王北街83號","121.475843333333","25.0509783333333","6500200","三重區"
"241014","543-UM","2018/10/23 21:17:51","新北市三重區三和路二段103號","121.49951","25.0685","6500200","三重區"
"241023","545-UM","2018/10/23 21:18:05","新北市三重區中正北路176巷27號","121.482565","25.065965","6500200","三重區"
"241001","547-UM","2018/10/23 21:17:55","新北市三重區仁愛街347號","121.492171666667","25.0796333333333","6500200","三重區"
"241019","KEA-2593","2018/10/23 21:17:57","新北市三重區自強路二段7號","121.49016","25.0689283333333","6500200","三重區"
"241006","AAD-863","2018/10/23 21:18:04","新北市三重區重陽路二段26號","121.486935","25.062695","6500200","三重區"
"241007","743-BX","2018/10/23 21:15:08","新北市三重區車路頭街153號","121.483723333333","25.0769633333333","6500200","三重區"
"241012","941-UM","2018/10/23 21:17:57","新北市三重區龍門路243號","121.50202","25.074055","6500200","三重區"
"241029","942-UM","2018/10/23 21:17:58","新北市三重區仁化街122號","121.494511666667","25.0580516666667","6500200","三重區"
"241033","AAC-255","2018/10/23 21:17:56","新北市三重區光復路二段126巷27號","121.470781666667","25.0588033333333","6500200","三重區"
"247012","KEA-2869","2018/10/23 21:17:55","新北市蘆洲區民族路236巷8號","121.480391666667","25.0885266666667","6501400","蘆洲區"
"247002","893-R6","2018/10/23 21:17:49","新北市蘆洲區永樂街33-1號","121.45792","25.08828","6501400","蘆洲區"
"247024","500-BY","2018/10/23 21:17:50","新北市蘆洲區光明路98號","121.463138333333","25.087985","6501400","蘆洲區"
"247014","339-TH","2018/10/23 21:17:49","新北市蘆洲區保和街50-5號","121.469793333333","25.0862683333333","6501400","蘆洲區"
"247006","337-TH","2018/10/23 21:17:55","新北市蘆洲區長安街67號","121.462818333333","25.0799033333333","6501400","蘆洲區"
"247008","336-TH","2018/10/23 21:17:55","新北市蘆洲區信義路73巷13號","121.476003333333","25.08065","6501400","蘆洲區"
"247020","057-VK","2018/10/23 21:17:58","新北市蘆洲區民族路422巷94號","121.473151666667","25.094015","6501400","蘆洲區"
"247010","056-VK","2018/10/23 21:17:55","新北市蘆洲區鷺江街23號","121.478876666667","25.0824483333333","6501400","蘆洲區"
"247018","007-UY","2018/10/23 21:18:01","新北市蘆洲區復興路107號","121.476896666667","25.0877866666667","6501400","蘆洲區"
"247004","002-UY","2018/10/23 21:17:55","新北市蘆洲區永安南路二段322號","121.457083333333","25.0827083333333","6501400","蘆洲區"
"247022","001-UY","2018/10/23 21:17:53","新北市蘆洲區三民路204號","121.469081666667","25.088945","6501400","蘆洲區"
"251009","008-UM","2018/10/23 21:17:48","新北市淡水區民族路112巷5號","121.462446666667","25.13509","6501000","淡水區"
"251005","010-UM","2018/10/23 21:18:05","新北市淡水區水源街一段122巷39號","121.447075","25.1703333333333","6501000","淡水區"
"251013","KEA-2871","2018/10/23 21:17:54","新北市淡水區行忠路328號","121.460473333333","25.1995533333333","6501000","淡水區"
"251016","179-VK","2018/10/23 21:18:03","新北市淡水區前洲子11號","121.441001666667","25.21943","6501000","淡水區"
"251015","180-VK","2018/10/23 21:18:02","新北市淡水區淡金路四段542巷17號","121.452686666667","25.227075","6501000","淡水區"
"251008","181-VK","2018/10/23 21:18:01","新北市淡水區水源街二段240號","121.461186666667","25.17628","6501000","淡水區"
"251010","413-VK","2018/10/23 21:18:02","新北市淡水區中正路一段156巷12號","121.421823333333","25.1808066666667","6501000","淡水區"
"251012","441-VK","2018/10/23 21:17:57","新北市淡水區淡金路五段35巷46號","121.452493333333","25.2347333333333","6501000","淡水區"
"251001","559-UM","2018/10/23 21:17:55","新北市淡水區濱海路一段308號","121.441038333333","25.1893666666667","6501000","淡水區"
"251011","650-BX","2018/10/23 21:17:59","新北市淡水區新民街120巷29號","121.438855","25.1787883333333","6501000","淡水區"
"251003","766-UM","2018/10/23 21:17:57","新北市淡水區新春街94號","121.438993333333","25.1824483333333","6501000","淡水區"
"242054","441-UM","2018/10/23 21:17:58","新北市林口區後坑1-1號","121.357433333333","25.1324233333333","6500500","新莊區"
"242021","350-TH","2018/10/23 21:18:03","新北市林口區太平里180號","121.368736666667","25.1338883333333","6500500","新莊區"
"221008","489-VK","2018/10/23 21:02:32","新北市汐止區康寧街901號","121.651373333333","25.0750116666667","6501100","汐止區"
"220070","AAC-253","2018/10/23 21:17:58","新北市板橋區華東街1-9號","121.448235","24.9948433333333","6500100","板橋區"
