"lineid","car","time","location","longitude","latitude","cityid","cityname"
"243001","297-R6","2018/10/23 21:10:30","新北市泰山區黎明路31號","121.421763333333","25.0607183333333","6501600","泰山區"
"231048","187-VK","2018/10/23 21:30:02","新北市新店區薏仁坑路自強巷6號","121.496595","24.95842","6500600","新店區"
"231063","641-BX","2018/10/23 21:29:53","新北市新店區如意街34號","121.493443333333","24.9483716666667","6500600","新店區"
"241024","065-VK","2018/10/23 21:29:57","新北市三重區中正北路145巷14號","121.484173333333","25.0677516666667","6500200","三重區"
"241026","066-VK","2018/10/23 21:29:59","新北市三重區中正北路9號","121.492636666667","25.0613616666667","6500200","三重區"
"241003","091-VK","2018/10/23 21:29:54","新北市三重區碧華街286號","121.489445","25.0831833333333","6500200","三重區"
"251014","742-BX","2018/10/23 21:29:37","新北市淡水區六塊厝2-5號","121.447825","25.2398483333333","6501000","淡水區"
"241005","262-UM","2018/10/23 21:30:00","新北市三重區碧華街148巷41號","121.48502","25.082875","6500200","三重區"
"241016","266-UM","2018/10/23 21:30:03","新北市三重區正義北路61-1號","121.497206666667","25.0644983333333","6500200","三重區"
"241013","270-UM","2018/10/23 21:29:45","新北市三重區龍門路247號","121.50217","25.0741183333333","6500200","三重區"
"241007","743-BX","2018/10/23 21:29:48","新北市三重區正義北路110號","121.496945","25.0652","6500200","三重區"
"247012","KEA-2869","2018/10/23 21:29:55","新北市蘆洲區中正路520巷9號","121.463241666667","25.0998883333333","6501400","蘆洲區"
"247014","339-TH","2018/10/23 21:29:49","新北市五股區中興路三段2巷10號","121.44842","25.0832766666667","6501400","蘆洲區"
"251009","008-UM","2018/10/23 21:30:08","新北市淡水區民族路33巷16-3號","121.463383333333","25.1359816666667","6501000","淡水區"
"251005","010-UM","2018/10/23 21:30:05","新北市淡水區水源街一段34巷9號","121.443218333333","25.1718316666667","6501000","淡水區"
"251013","KEA-2871","2018/10/23 21:29:54","新北市淡水區埤島50-2號","121.461471666667","25.1978233333333","6501000","淡水區"
"251016","179-VK","2018/10/23 21:30:03","新北市淡水區前洲子11號","121.441013333333","25.2194466666667","6501000","淡水區"
"251015","180-VK","2018/10/23 21:30:02","新北市淡水區淡金路四段542巷17號","121.452691666667","25.2270866666667","6501000","淡水區"
"251008","181-VK","2018/10/23 21:30:01","新北市淡水區水源街二段116號","121.452646666667","25.1746016666667","6501000","淡水區"
"251010","413-VK","2018/10/23 21:30:02","新北市淡水區沙崙路25巷21號","121.420543333333","25.1824066666667","6501000","淡水區"
"251012","441-VK","2018/10/23 21:29:57","新北市淡水區淡金路五段36號","121.453656666667","25.2328466666667","6501000","淡水區"
"251004","443-VK","2018/10/23 21:29:44","新北市淡水區民族路2號","121.460285","25.1369233333333","6501000","淡水區"
"251001","559-UM","2018/10/23 21:29:55","新北市淡水區濱海路二段202巷65弄31號","121.434448333333","25.19248","6501000","淡水區"
"251006","561-UM","2018/10/23 21:30:05","新北市淡水區公明街75號","121.443906666667","25.16841","6501000","淡水區"
"251011","650-BX","2018/10/23 21:29:59","新北市淡水區新民街174號","121.43686","25.1787116666667","6501000","淡水區"
"251003","766-UM","2018/10/23 21:29:57","新北市淡水區崁頂15-5號","121.438995","25.1858983333333","6501000","淡水區"
"242054","441-UM","2018/10/23 21:29:58","新北市林口區太平里180號","121.368705","25.13398","6500500","新莊區"
"221008","489-VK","2018/10/23 21:02:32","新北市汐止區康寧街901號","121.651373333333","25.0750116666667","6501100","汐止區"
"220070","AAC-253","2018/10/23 21:29:58","新北市板橋區華東街1-9號","121.448235","24.9948483333333","6500100","板橋區"
