"lineid","car","time","location","longitude","latitude","cityid","cityname"
"234040","862-TW","2018/10/23 21:59:35","新北市永和區福和路1號","121.526328333333","25.0097816666667","6500400","永和區"
"247012","KEA-2869","2018/10/23 21:57:55","新北市林口區太平里180號","121.367231666667","25.133715","6501400","蘆洲區"
"235010","733-UM","2018/10/23 21:53:15","新北市中和區員山路36巷13號","121.484138333333","24.9908","6500300","中和區"
"251005","010-UM","2018/10/23 21:59:24","新北市淡水區鄧公路30巷2弄40號","121.454135","25.1692433333333","6501000","淡水區"
"251008","181-VK","2018/10/23 21:59:21","新北市淡水區學府路104號","121.4499","25.1717666666667","6501000","淡水區"
"251010","413-VK","2018/10/23 21:59:22","新北市淡水區中正路二段210號","121.426311666667","25.1894066666667","6501000","淡水區"
"251007","442-VK","2018/10/23 21:59:22","新北市淡水區北新路184巷59號","121.451181666667","25.1776766666667","6501000","淡水區"
"251004","443-VK","2018/10/23 21:59:24","新北市淡水區民權路131號","121.460131666667","25.1367416666667","6501000","淡水區"
"251006","561-UM","2018/10/23 21:59:25","新北市淡水區中正路11巷3號","121.437835","25.170765","6501000","淡水區"
"251011","650-BX","2018/10/23 21:59:19","新北市淡水區水碓街7號","121.44317","25.1770866666667","6501000","淡水區"
"251003","766-UM","2018/10/23 21:59:17","新北市淡水區新春街83號","121.438775","25.1824866666667","6501000","淡水區"
"220070","AAC-253","2018/10/23 21:51:59","新北市板橋區華東街1-9號","121.448243333333","24.9948483333333","6500100","板橋區"
