"lineid","car","time","location","longitude","latitude","cityid","cityname"
"234040","862-TW","2018/10/23 22:01:42","新北市永和區福和路1號","121.526338333333","25.0097866666667","6500400","永和區"
"251008","181-VK","2018/10/23 22:29:21","新北市淡水區學府路104號","121.449833333333","25.17179","6501000","淡水區"
"251010","413-VK","2018/10/23 22:29:22","新北市淡水區沙崙路200號","121.424705","25.1838966666667","6501000","淡水區"
"251007","442-VK","2018/10/23 22:29:21","新北市淡水區北新路186-3號","121.449548333333","25.1787316666667","6501000","淡水區"
"251004","443-VK","2018/10/23 22:29:24","新北市淡水區民族路33號","121.462338333333","25.1358183333333","6501000","淡水區"
"251011","650-BX","2018/10/23 22:29:19","新北市淡水區水碓街7號","121.443191666667","25.17711","6501000","淡水區"
