"lineid","car","time","location","longitude","latitude","cityid","cityname"
"248005","653-BX","2018/06/08 09:29:42","","121.430663333333","25.0693933333333","6501500","五股區"
"222005","289-BY","2018/06/08 09:29:51","","121.64045","25.0130783333333","6501800","深坑區"
"231007","189-VK","2018/06/08 09:29:48","","121.508038333333","24.904065","6500600","新店區"
"231009","192-VK","2018/06/08 09:28:43","","121.517918333333","24.8894566666667","6500600","新店區"
"223002","KEA-2673","2018/06/08 09:29:48","","121.67701","24.98447","6501900","石碇區"
"223008","406-TH","2018/06/08 09:29:42","","121.705065","25.0045566666667","6501900","石碇區"
"223007","661-BX","2018/06/08 09:29:19","","121.698096666667","24.983235","6501900","石碇區"
"223005","677-TV","2018/06/08 09:29:45","","121.675328333333","24.9781416666667","6501900","石碇區"
"227005","282-VK","2018/06/08 09:06:09","","121.812005","24.9727983333333","6502500","雙溪區"
"237001","159-UY","2018/06/08 09:29:37","","121.373106666667","24.9420483333333","6500900","三峽區"
"236010","165-UM","2018/06/08 09:29:52","","121.420911666667","24.965135","6501300","土城區"
"236006","498-BY","2018/06/08 09:29:52","","121.44371","24.96048","6501300","土城區"
