"lineid","car","time","location","longitude","latitude","cityid","cityname"
"234044","148-BY","2018/06/08 12:39:27","新北市永和區永元路94號","121.52252","25.001695","6500400","永和區"
"234078","298-R6","2018/06/08 12:39:14","新北市永和區林森路85號","121.523801666667","25.003795","6500400","永和區"
"234036","336-UY","2018/06/08 12:39:27","新北市永和區福和路1號","121.526641666667","25.0102666666667","6500400","永和區"
"234062","337-UY","2018/06/08 12:39:07","新北市永和區福和路1號","121.526631666667","25.010035","6500400","永和區"
"234084","338-UY","2018/06/08 12:39:26","新北市永和區安樂路218號","121.515006666667","25.002265","6500400","永和區"
"234015","745-BX","2018/06/08 12:39:22","新北市永和區福和路1號","121.52628","25.00968","6500400","永和區"
"234028","746-BX","2018/06/08 12:39:15","新北市永和區福和路7巷5弄7號","121.525686666667","25.008145","6500400","永和區"
"234040","862-TW","2018/06/08 12:39:25","新北市永和區福和路1號","121.52624","25.0095633333333","6500400","永和區"
"234010","9373-KE","2018/06/08 12:39:22","新北市永和區福和路1號","121.526743333333","25.0100616666667","6500400","永和區"
"234076","969-R7","2018/06/08 12:39:15","新北市永和區中正路284號","121.51706","24.9989816666667","6500400","永和區"
"231018","278-BY","2018/06/08 12:39:17","新北市新店區安一路一段1-1號","121.519906666667","24.9611116666667","6500600","新店區"
"231016","AAD-862","2018/06/08 12:39:11","新北市新店區安一路一段1-1號","121.51973","24.9612533333333","6500600","新店區"
"231037","4716-K9","2018/06/08 12:39:15","新北市新店區安一路一段1-1號","121.51937","24.9612766666667","6500600","新店區"
"231025","4715-K9","2018/06/08 12:39:08","新北市新店區安華路28-1號","121.51948","24.9605783333333","6500600","新店區"
"231036","512-UM","2018/06/08 12:39:22","新北市新店區安一路一段1-1號","121.519453333333","24.9613133333333","6500600","新店區"
"231034","616-UM","2018/06/08 12:39:19","新北市新店區安華路28-1號","121.519536666667","24.9606466666667","6500600","新店區"
"235029","098-UM","2018/06/08 12:39:08","新北市中和區員山路36巷16-3號","121.484966666667","24.991295","6500300","中和區"
"235031","255-BX","2018/06/08 12:39:16","新北市中和區新生街175號","121.483683333333","25.000705","6500300","中和區"
"207002","749-BX","2018/06/08 12:39:17","新北市萬里區雙興里太和路7-2號","121.6587","25.1740583333333","6502800","萬里區"
"221035","297-VK","2018/06/08 12:39:12","新北市汐止區康寧街901號","121.651666666667","25.0748833333333","6501100","汐止區"
