"lineid","car","time","location","longitude","latitude","cityid","cityname"
"234044","148-BY","2018/06/08 12:59:27","新北市永和區永元路52巷40號","121.523996666667","25.0008716666667","6500400","永和區"
"234005","207-UY","2018/06/08 12:59:29","新北市永和區復興街16巷6號","121.515355","25.012525","6500400","永和區"
"234078","298-R6","2018/06/08 12:58:54","新北市永和區福和路57巷14弄1號","121.522703333333","25.0069966666667","6500400","永和區"
"234036","336-UY","2018/06/08 12:59:27","新北市永和區成功路二段203號","121.526576666667","24.99601","6500400","永和區"
"234062","337-UY","2018/06/08 12:59:28","新北市永和區秀朗路一段138號","121.517925","25.00345","6500400","永和區"
"234084","338-UY","2018/06/08 12:59:26","新北市永和區永利路18號","121.518","25.0057666666667","6500400","永和區"
"234068","552-UM","2018/06/08 12:59:28","新北市永和區中興街92號","121.518775","25.01197","6500400","永和區"
"234015","745-BX","2018/06/08 12:59:22","新北市永和區永和路二段299號","121.516016666667","25.01617","6500400","永和區"
"234028","746-BX","2018/06/08 12:59:19","新北市永和區四維街38號","121.525478333333","24.9980616666667","6500400","永和區"
"234052","KEA-2590","2018/06/08 12:59:19","新北市永和區竹林路64號","121.518338333333","25.0134766666667","6500400","永和區"
"234012","KEA-2591","2018/06/08 12:59:13","新北市永和區信義路14-1號","121.514406666667","25.0121083333333","6500400","永和區"
"234060","AAD-866","2018/06/08 12:59:12","新北市永和區福和路309巷1號","121.516296666667","25.0070633333333","6500400","永和區"
"234040","862-TW","2018/06/08 12:59:26","新北市永和區永貞路324號","121.51149","25.0051816666667","6500400","永和區"
"234048","863-TW","2018/06/08 12:59:18","新北市永和區文化路165號","121.51016","25.01647","6500400","永和區"
"234025","9371-KE","2018/06/08 12:59:08","新北市永和區永和路一段36號","121.513063333333","25.005245","6500400","永和區"
"234010","9373-KE","2018/06/08 12:59:23","新北市永和區文化路113巷21弄20號","121.513731666667","25.0141966666667","6500400","永和區"
"248019","225-UY","2018/06/08 12:59:15","新北市五股區中興路二段83巷26-6號","121.460018333333","25.0751583333333","6501500","五股區"
"234022","9380-KE","2018/06/08 12:59:18","新北市永和區竹林路91巷62號","121.521693333333","25.013015","6500400","永和區"
"234076","969-R7","2018/06/08 12:59:15","新北市永和區民享街17號","121.515466666667","24.9951316666667","6500400","永和區"
"234072","AAC-211","2018/06/08 12:59:25","新北市永和區環河東路二段100號","121.524126666667","25.0103316666667","6500400","永和區"
"234066","AAC-212","2018/06/08 12:59:26","新北市永和區中和路625號","121.51305","25.00501","6500400","永和區"
"234001","AAC-295","2018/06/08 12:59:10","新北市永和區永和路一段182號","121.514325","25.0090266666667","6500400","永和區"
"244004","248-BX","2018/06/08 12:59:19","新北市林口區粉寮路一段137號","121.398985","25.08113","6501700","林口區"
"231002","002-UM","2018/06/08 12:59:21","新北市新店區安華路28-1號","121.519611666667","24.960815","6500600","新店區"
"231028","046-UY","2018/06/08 12:59:28","新北市新店區安華路28-1號","121.519616666667","24.9608633333333","6500600","新店區"
"231001","047-UY","2018/06/08 12:59:20","新北市新店區安華路28-1號","121.519363333333","24.9608416666667","6500600","新店區"
"231022","108-UY","2018/06/08 12:59:25","新北市新店區安一路一段1-1號","121.519766666667","24.9612483333333","6500600","新店區"
"231012","187-VK","2018/06/08 12:59:22","新北市新店區安一路一段1-1號","121.519593333333","24.9611416666667","6500600","新店區"
"231010","188-VK","2018/06/08 12:59:16","新北市新店區安一路一段1-1號","121.519505","24.9618683333333","6500600","新店區"
"231023","KEA-2219","2018/06/08 12:59:25","新北市新店區安一路一段1-1號","121.519771666667","24.961135","6500600","新店區"
"231003","268-BY","2018/06/08 12:59:11","新北市新店區安華路28-1號","121.519401666667","24.96069","6500600","新店區"
"231018","278-BY","2018/06/08 12:59:17","新北市新店區安一路一段1-1號","121.519681666667","24.9611716666667","6500600","新店區"
"231016","AAD-862","2018/06/08 12:59:11","新北市新店區安一路一段1-1號","121.519793333333","24.9611566666667","6500600","新店區"
"231037","4716-K9","2018/06/08 12:59:15","新北市新店區安一路一段1-1號","121.519351666667","24.9612766666667","6500600","新店區"
"231025","4715-K9","2018/06/08 12:59:08","新北市新店區安華路28-1號","121.519476666667","24.960595","6500600","新店區"
"231036","512-UM","2018/06/08 12:59:21","新北市新店區安一路一段1-1號","121.51942","24.961375","6500600","新店區"
"231013","513-UM","2018/06/08 12:59:16","新北市新店區安一路一段1-1號","121.519611666667","24.96115","6500600","新店區"
"231030","619-UM","2018/06/08 12:59:21","新北市新店區安華路28-1號","121.519636666667","24.9608533333333","6500600","新店區"
"231034","641-BX","2018/06/08 12:59:11","新北市新店區安華路28-1號","121.5196","24.960625","6500600","新店區"
"231035","719-UM","2018/06/08 12:59:21","新北市新店區安一路一段1-1號","121.51956","24.9612366666667","6500600","新店區"
"231032","720-UM","2018/06/08 12:59:29","新北市新店區安一路一段1-1號","121.519316666667","24.96119","6500600","新店區"
"231029","897-TW","2018/06/08 12:59:26","新北市新店區安華路28-1號","121.519636666667","24.9608283333333","6500600","新店區"
"231006","898-TW","2018/06/08 12:59:11","新北市新店區安華路28-1號","121.51946","24.960995","6500600","新店區"
"231024","AKT-0513","2018/06/08 12:59:19","新北市新店區安華路1-1號","121.519525","24.960515","6500600","新店區"
"235028","005-UY","2018/06/08 12:59:11","新北市中和區員山路36巷16-3號","121.485113333333","24.9912233333333","6500300","中和區"
"235027","006-UY","2018/06/08 12:59:24","新北市中和區員山路36巷16-3號","121.485033333333","24.9912733333333","6500300","中和區"
"235003","097-UM","2018/06/08 12:59:11","新北市中和區和城路一段271巷1號","121.485618333333","24.9916933333333","6500300","中和區"
"235029","098-UM","2018/06/08 12:59:26","新北市中和區福祥路126號","121.498821666667","25.0067166666667","6500300","中和區"
"235022","151-BY","2018/06/08 12:59:15","新北市中和區圓通路367巷2號","121.491278333333","24.9894116666667","6500300","中和區"
"235002","185-VK","2018/06/08 12:59:22","新北市中和區立人街29號","121.52111","24.9941166666667","6500300","中和區"
"235031","255-BX","2018/06/08 12:59:10","新北市中和區中正路893號","121.484203333333","25.0045833333333","6500300","中和區"
"235036","301-VK","2018/06/08 12:59:23","新北市中和區員山路36巷13號","121.483988333333","24.9910183333333","6500300","中和區"
"235011","732-UM","2018/06/08 12:59:15","新北市中和區員山路36巷16-2號","121.48535","24.9917483333333","6500300","中和區"
"235035","783-BX","2018/06/08 12:59:24","新北市中和區民樂路67號","121.483956666667","25.001305","6500300","中和區"
"235005","802-TS","2018/06/08 12:59:19","新北市中和區和城路一段271巷1號","121.485346666667","24.9918133333333","6500300","中和區"
"235016","805-TS","2018/06/08 12:59:25","新北市中和區員山路36巷16號","121.484428333333","24.9914116666667","6500300","中和區"
"235017","900-TW","2018/06/08 12:59:18","新北市中和區員山路36巷16-2號","121.485223333333","24.9918433333333","6500300","中和區"
"235015","157-BY","2018/06/08 12:59:28","新北市中和區員山路36巷16號","121.484533333333","24.991305","6500300","中和區"
"235001","AAC-213","2018/06/08 12:59:18","新北市中和區中正路273號","121.495618333333","24.9937966666667","6500300","中和區"
"207002","749-BX","2018/06/08 12:59:17","新北市萬里區雙興里大坪路39號","121.625071666667","25.1714316666667","6502800","萬里區"
"207001","662-BX","2018/06/08 12:59:21","新北市萬里區萬里里獅頭路22-1號","121.693011666667","25.1784033333333","6502800","萬里區"
"236006","498-BY","2018/06/08 12:59:12","新北市土城區亞洲路2號","121.43708","24.9753783333333","6501300","土城區"
"235032","KEA-2873","2018/06/08 12:59:07","新北市中和區員山路36巷16-3號","121.484961666667","24.9913016666667","6500300","中和區"
"235025","KEA-2875","2018/06/08 12:59:12","新北市中和區員山路36巷16號","121.484493333333","24.991735","6500300","中和區"
