"lineid","car","time","location","longitude","latitude","cityid","cityname"
"234044","148-BY","2018/06/08 13:09:07","新北市永和區得和路373巷31弄12號","121.524266666667","25.000415","6500400","永和區"
"234005","207-UY","2018/06/08 13:09:22","新北市永和區中山路一段125號","121.510725","25.010025","6500400","永和區"
"234078","298-R6","2018/06/08 13:09:14","新北市永和區國中路208號","121.522058333333","25.0058666666667","6500400","永和區"
"234036","336-UY","2018/06/08 13:09:27","新北市永和區民樂街69巷1號","121.52743","24.99779","6500400","永和區"
"234062","337-UY","2018/06/08 13:09:07","新北市永和區秀朗路二段31號","121.521215","25.0024283333333","6500400","永和區"
"234084","338-UY","2018/06/08 13:09:26","新北市永和區永利路4巷23號","121.517656666667","25.0049416666667","6500400","永和區"
"234068","552-UM","2018/06/08 13:09:28","新北市永和區豫溪街95巷4弄1號","121.518275","25.0105966666667","6500400","永和區"
"234015","745-BX","2018/06/08 13:09:22","新北市永和區文化路90巷17號","121.513686666667","25.0162116666667","6500400","永和區"
"234028","746-BX","2018/06/08 13:09:15","新北市永和區民生路21號","121.522831666667","24.99897","6500400","永和區"
"234052","KEA-2590","2018/06/08 13:09:19","新北市永和區竹林路78號","121.51926","25.0128783333333","6500400","永和區"
"234012","KEA-2591","2018/06/08 13:09:13","新北市永和區保福路二段85號","121.510631666667","25.012785","6500400","永和區"
"234060","AAD-866","2018/06/08 13:09:11","新北市永和區秀朗路一段81巷1號","121.515188333333","25.006555","6500400","永和區"
"234040","862-TW","2018/06/08 13:09:26","新北市永和區保平路111巷2弄12號","121.510565","25.00612","6500400","永和區"
"234048","863-TW","2018/06/08 13:09:18","新北市永和區仁愛路104巷7弄23號","121.510956666667","25.0141033333333","6500400","永和區"
"234025","9371-KE","2018/06/08 13:09:08","新北市永和區秀朗路一段10巷19號","121.513471666667","25.006215","6500400","永和區"
"234010","9373-KE","2018/06/08 13:09:22","新北市永和區文化路130號","121.512878333333","25.0152966666667","6500400","永和區"
"248019","225-UY","2018/06/08 13:09:15","新北市五股區凌雲路一段22巷11號","121.454233333333","25.1002383333333","6501500","五股區"
"234022","9380-KE","2018/06/08 13:09:17","新北市永和區中興街97號","121.517801666667","25.0120233333333","6500400","永和區"
"234076","969-R7","2018/06/08 13:09:24","新北市永和區民有街10巷1號","121.515953333333","24.997115","6500400","永和區"
"234072","AAC-211","2018/06/08 13:09:25","新北市永和區竹林路211號","121.520616666667","25.008865","6500400","永和區"
"234066","AAC-212","2018/06/08 13:09:26","新北市永和區保平路2-1號","121.513166666667","25.0076933333333","6500400","永和區"
"234001","AAC-295","2018/06/08 13:09:10","新北市永和區中山路一段147號","121.510155","25.0095033333333","6500400","永和區"
"244004","248-BX","2018/06/08 13:09:19","新北市林口區中山路576號","121.376725","25.0847516666667","6501700","林口區"
"231002","002-UM","2018/06/08 13:09:21","新北市新店區安華路28-1號","121.51977","24.9608783333333","6500600","新店區"
"231027","0293-UT","2018/06/08 13:09:23","新北市新店區安華路28-1號","121.519601666667","24.9605433333333","6500600","新店區"
"231028","046-UY","2018/06/08 13:09:08","新北市新店區安華路28-1號","121.519531666667","24.9608916666667","6500600","新店區"
"231001","047-UY","2018/06/08 13:09:20","新北市新店區安華路28-1號","121.519161666667","24.9609","6500600","新店區"
"231022","108-UY","2018/06/08 13:09:25","新北市新店區安一路一段1-1號","121.519538333333","24.96121","6500600","新店區"
"231012","187-VK","2018/06/08 13:09:22","新北市新店區安一路一段1-1號","121.519498333333","24.9610766666667","6500600","新店區"
"231010","188-VK","2018/06/08 13:09:16","新北市新店區安一路一段1-1號","121.51965","24.9618283333333","6500600","新店區"
"231023","KEA-2219","2018/06/08 13:09:25","新北市新店區安一路一段1-1號","121.519756666667","24.9612283333333","6500600","新店區"
"231026","256-BX","2018/06/08 13:09:17","新北市新店區安一路一段1-1號","121.519778333333","24.9611233333333","6500600","新店區"
"231003","268-BY","2018/06/08 13:09:11","新北市新店區安華路28-1號","121.519338333333","24.960605","6500600","新店區"
"231018","278-BY","2018/06/08 13:09:17","新北市新店區安一路一段1-1號","121.519435","24.961215","6500600","新店區"
"231016","AAD-862","2018/06/08 13:09:11","新北市新店區安一路一段1-1號","121.519756666667","24.961095","6500600","新店區"
"231005","355-BY","2018/06/08 13:09:21","新北市新店區安華路28-1號","121.51933","24.96095","6500600","新店區"
"231038","3712-VJ","2018/06/08 13:09:12","新北市新店區安華路28-1號","121.51916","24.9606333333333","6500600","新店區"
"231037","4716-K9","2018/06/08 13:09:15","新北市新店區安一路一段1-1號","121.519293333333","24.9611433333333","6500600","新店區"
"231025","4715-K9","2018/06/08 13:09:08","新北市新店區安華路28-1號","121.519438333333","24.9606083333333","6500600","新店區"
"231036","512-UM","2018/06/08 13:09:21","新北市新店區安一路一段1-1號","121.519666666667","24.9616","6500600","新店區"
"231013","513-UM","2018/06/08 13:09:16","新北市新店區安一路一段1-1號","121.519665","24.9611633333333","6500600","新店區"
"231030","619-UM","2018/06/08 13:09:21","新北市新店區安華路28-1號","121.519645","24.9608166666667","6500600","新店區"
"231034","641-BX","2018/06/08 13:09:11","新北市新店區安華路1-1號","121.519458333333","24.9605266666667","6500600","新店區"
"231035","719-UM","2018/06/08 13:09:21","新北市新店區安一路一段1-1號","121.519596666667","24.9613416666667","6500600","新店區"
"231032","720-UM","2018/06/08 13:09:09","新北市新店區安一路一段1-1號","121.51927","24.961195","6500600","新店區"
"231029","897-TW","2018/06/08 13:09:26","新北市新店區安華路28-1號","121.519625","24.9608133333333","6500600","新店區"
"231006","898-TW","2018/06/08 13:09:11","新北市新店區安一路一段1-1號","121.519451666667","24.96103","6500600","新店區"
"231004","899-TW","2018/06/08 13:09:20","新北市新店區安一路一段1-1號","121.51983","24.9614233333333","6500600","新店區"
"231024","AKT-0513","2018/06/08 13:09:19","新北市新店區安華路28-1號","121.519571666667","24.9605466666667","6500600","新店區"
"235028","005-UY","2018/06/08 13:09:11","新北市中和區中正路277號","121.495275","24.9937733333333","6500300","中和區"
"235027","006-UY","2018/06/08 13:09:24","新北市中和區員山路36巷16-3號","121.485045","24.9912366666667","6500300","中和區"
"235003","097-UM","2018/06/08 13:09:11","新北市中和區和城路一段271巷1號","121.485608333333","24.9916033333333","6500300","中和區"
"235029","098-UM","2018/06/08 13:09:28","新北市中和區莊敬路49巷20弄20號","121.50263","25.0058166666667","6500300","中和區"
"235004","150-BY","2018/06/08 13:08:59","新北市中和區和城路一段271巷1號","121.48548","24.991825","6500300","中和區"
"235022","151-BY","2018/06/08 13:09:15","新北市中和區圓通路367巷33弄33號","121.494685","24.985475","6500300","中和區"
"235019","183-VK","2018/06/08 13:09:25","新北市中和區員山路36巷16-3號","121.48505","24.9913983333333","6500300","中和區"
"235002","185-VK","2018/06/08 13:09:21","新北市中和區大仁街120號","121.520815","24.9920566666667","6500300","中和區"
"235031","255-BX","2018/06/08 13:09:19","新北市中和區新生街163號","121.48369","25.0012383333333","6500300","中和區"
"235036","301-VK","2018/06/08 13:09:23","新北市中和區員山路36巷13號","121.48402","24.991195","6500300","中和區"
"235014","4979-A6","2018/06/08 13:09:19","新北市中和區中正路472號","121.489833333333","24.994095","6500300","中和區"
"235033","4980-A6","2018/06/08 13:09:13","新北市中和區中正路571巷1弄4號","121.486785","24.993635","6500300","中和區"
"235006","551-UM","2018/06/08 13:09:17","新北市中和區中正路252號","121.495618333333","24.9939566666667","6500300","中和區"
"235034","558-UM","2018/06/08 13:09:22","新北市中和區中正路305號","121.49262","24.9938266666667","6500300","中和區"
"235009","565-BX","2018/06/08 13:09:23","新北市中和區員山路36巷13號","121.484166666667","24.9911633333333","6500300","中和區"
"235018","640-BX","2018/06/08 13:09:17","新北市中和區莒光路213號","121.46904","24.9946983333333","6500300","中和區"
"235011","732-UM","2018/06/08 13:09:15","新北市中和區南山路407號","121.506983333333","24.9898916666667","6500300","中和區"
"235035","783-BX","2018/06/08 13:09:24","新北市中和區板南路520巷15號","121.483683333333","25.009075","6500300","中和區"
"235026","800-TS","2018/06/08 13:09:09","新北市中和區建一路66號","121.488001666667","25.003615","6500300","中和區"
"235005","802-TS","2018/06/08 13:09:19","新北市中和區錦和路350-1號","121.490565","24.9936066666667","6500300","中和區"
"235016","805-TS","2018/06/08 13:09:25","新北市中和區中正路271號","121.495818333333","24.9936916666667","6500300","中和區"
"235017","900-TW","2018/06/08 13:09:18","新北市中和區員山路36巷16-2號","121.485093333333","24.99177","6500300","中和區"
"235030","911-UM","2018/06/08 13:09:18","新北市中和區南工路1號","121.50517","24.9997733333333","6500300","中和區"
"235015","157-BY","2018/06/08 13:09:07","新北市中和區捷運路59號","121.509295","24.9897066666667","6500300","中和區"
"235001","AAC-213","2018/06/08 13:09:18","新北市中和區景平路149號","121.513886666667","24.9922233333333","6500300","中和區"
"207002","749-BX","2018/06/08 13:09:17","新北市萬里區崁腳里崁腳路118-1號","121.64508","25.1584566666667","6502800","萬里區"
"207001","662-BX","2018/06/08 13:09:21","新北市萬里區萬里里瑪鋉頂街44號","121.689233333333","25.17903","6502800","萬里區"
"236006","498-BY","2018/06/08 13:09:12","新北市土城區亞洲路58巷5弄15號","121.43414","24.9735716666667","6501300","土城區"
"235032","KEA-2873","2018/06/08 13:09:07","新北市中和區錦和路142巷3號","121.489116666667","24.997475","6500300","中和區"
"235025","KEA-2875","2018/06/08 13:09:12","新北市中和區連城路523巷13弄28號","121.482293333333","24.99364","6500300","中和區"
