"lineid","car","time","location","longitude","latitude","cityid","cityname"
"234044","148-BY","2018/06/08 14:19:27","新北市永和區永利路133號","121.524148333333","25.00318","6500400","永和區"
"234005","207-UY","2018/06/08 14:19:29","新北市永和區中正路520號","121.517251666667","25.0048733333333","6500400","永和區"
"234078","298-R6","2018/06/08 14:19:18","新北市永和區國中路130號","121.523476666667","25.006845","6500400","永和區"
"234036","336-UY","2018/06/08 14:19:27","新北市永和區成功路一段1號","121.527345","25.0053916666667","6500400","永和區"
"234062","337-UY","2018/06/08 14:19:27","新北市永和區得和路120號","121.518596666667","25.0001083333333","6500400","永和區"
"234084","338-UY","2018/06/08 14:19:26","新北市永和區永和路二段105號","121.514978333333","25.0119716666667","6500400","永和區"
"234068","552-UM","2018/06/08 14:19:08","新北市永和區永利路25號","121.518086666667","25.0061083333333","6500400","永和區"
"234028","746-BX","2018/06/08 14:19:15","新北市永和區民權路49巷23號","121.521253333333","24.9974683333333","6500400","永和區"
"234052","KEA-2590","2018/06/08 14:19:19","新北市永和區光復街2巷18號","121.517191666667","25.0166333333333","6500400","永和區"
"234060","AAD-866","2018/06/08 14:19:12","新北市永和區安樂路194巷17弄7號","121.516001666667","25.001285","6500400","永和區"
"234040","862-TW","2018/06/08 14:19:25","新北市永和區安樂路218號","121.515005","25.0021566666667","6500400","永和區"
"234048","863-TW","2018/06/08 14:19:18","新北市永和區新生路24巷1號","121.508855","25.0163566666667","6500400","永和區"
"234025","9371-KE","2018/06/08 14:19:28","新北市永和區安樂路144巷21-1號","121.514806666667","25.0000483333333","6500400","永和區"
"248019","225-UY","2018/06/08 13:59:00","新北市五股區凌雲路三段57號","121.425215","25.1250333333333","6501500","五股區"
"234022","9380-KE","2018/06/08 14:19:17","新北市永和區竹林路41號","121.517975","25.014245","6500400","永和區"
"234076","969-R7","2018/06/08 14:19:14","新北市永和區民權路110號","121.519721666667","24.9965216666667","6500400","永和區"
"234072","AAC-211","2018/06/08 14:19:25","新北市永和區豫溪街191巷7弄24號","121.523223333333","25.0111166666667","6500400","永和區"
"234066","AAC-212","2018/06/08 14:19:25","新北市永和區保平路268巷51弄2號","121.507063333333","25.0063033333333","6500400","永和區"
"234001","AAC-295","2018/06/08 14:19:30","新北市永和區中正路626號","121.516985","25.007935","6500400","永和區"
"244004","248-BX","2018/06/08 14:18:59","新北市林口區竹林路266號","121.389648333333","25.0808183333333","6501700","林口區"
"231002","002-UM","2018/06/08 14:19:21","新北市新店區中央路145號","121.530205","24.9733966666667","6500600","新店區"
"231027","0293-UT","2018/06/08 14:19:23","新北市新店區北新路二段228巷13號","121.543453333333","24.9771333333333","6500600","新店區"
"231028","046-UY","2018/06/08 14:19:31","新北市新店區安和路二段163號","121.518866666667","24.974245","6500600","新店區"
"231001","047-UY","2018/06/08 14:19:20","新北市新店區中正路75巷71號","121.54309","24.9688633333333","6500600","新店區"
"231022","108-UY","2018/06/08 14:19:25","新北市新店區桂山路121號","121.569071666667","24.892235","6500600","新店區"
"231012","187-VK","2018/06/08 14:19:22","新北市新店區五峰路61巷6號","121.548025","24.9697966666667","6500600","新店區"
"231023","KEA-2219","2018/06/08 14:19:24","新北市新店區光明街138巷1號","121.539506666667","24.9612783333333","6500600","新店區"
"231003","268-BY","2018/06/08 14:19:11","新北市新店區中興路一段201號","121.543418333333","24.9654333333333","6500600","新店區"
"231018","278-BY","2018/06/08 14:19:17","新北市新店區中央路131號","121.530371666667","24.9739266666667","6500600","新店區"
"231016","AAD-862","2018/06/08 14:19:11","新北市新店區北宜路二段392巷6號","121.565911666667","24.9532416666667","6500600","新店區"
"231005","355-BY","2018/06/08 14:19:21","新北市新店區中興路三段175號","121.544108333333","24.9807266666667","6500600","新店區"
"231038","3712-VJ","2018/06/08 14:19:12","新北市新店區溪洲路6巷86號","121.533468333333","24.96334","6500600","新店區"
"231037","4716-K9","2018/06/08 14:19:15","新北市新店區車子路43號","121.504191666667","24.9520683333333","6500600","新店區"
"231036","512-UM","2018/06/08 14:19:13","新北市新店區安祥路109巷85弄7號","121.478015","24.960325","6500600","新店區"
"231013","513-UM","2018/06/08 14:19:16","新北市新店區大豐路80號","121.538763333333","24.9793133333333","6500600","新店區"
"231030","619-UM","2018/06/08 14:19:21","新北市新店區安民街3巷1號","121.514571666667","24.9641733333333","6500600","新店區"
"231034","641-BX","2018/06/08 14:19:11","新北市新店區車子路11號","121.503066666667","24.9520733333333","6500600","新店區"
"231035","719-UM","2018/06/08 14:19:21","新北市新店區安和路二段113巷3弄5號","121.517976666667","24.9699733333333","6500600","新店區"
"231032","720-UM","2018/06/08 14:19:09","新北市新店區溪洲路101-1號","121.531655","24.9624266666667","6500600","新店區"
"231029","897-TW","2018/06/08 14:19:26","新北市新店區安康路二段296-3號","121.506215","24.9581433333333","6500600","新店區"
"231006","898-TW","2018/06/08 14:19:11","新北市新店區北宜路二段599號","121.56815","24.9556266666667","6500600","新店區"
"231004","899-TW","2018/06/08 14:19:20","新北市新店區中正路137號","121.54171","24.9714683333333","6500600","新店區"
"231024","AKT-0513","2018/06/08 14:19:19","新北市新店區柴埕路59號","121.513986666667","24.965075","6500600","新店區"
"235028","005-UY","2018/06/08 14:19:31","新北市中和區連城路2號","121.499228333333","25.0024333333333","6500300","中和區"
"235027","006-UY","2018/06/08 14:19:24","新北市中和區連勝街117號","121.495048333333","24.9952916666667","6500300","中和區"
"235020","096-UM","2018/06/08 14:19:23","新北市中和區民富街36號","121.476681666667","25.006625","6500300","中和區"
"235003","097-UM","2018/06/08 14:19:11","新北市中和區秀峰街129號","121.518041666667","24.989935","6500300","中和區"
"235029","098-UM","2018/06/08 14:19:08","新北市中和區永和路9巷1號","121.499208333333","25.0040283333333","6500300","中和區"
"235004","150-BY","2018/06/08 14:19:18","新北市中和區安樂路65號","121.512166666667","24.9939333333333","6500300","中和區"
"235022","151-BY","2018/06/08 14:19:15","新北市中和區連城路469巷79弄2號","121.483485","24.9936666666667","6500300","中和區"
"235019","183-VK","2018/06/08 14:19:24","新北市中和區中山路三段181巷30號","121.473111666667","25.0049583333333","6500300","中和區"
"235002","185-VK","2018/06/08 14:19:21","新北市中和區大仁街10巷9弄27號","121.5192","24.9928666666667","6500300","中和區"
"235013","186-VK","2018/06/08 14:19:18","新北市中和區景新街228-6號","121.508146666667","24.9941533333333","6500300","中和區"
"235031","255-BX","2018/06/08 14:19:10","新北市中和區連城路467-3號","121.483916666667","24.99618","6500300","中和區"
"235008","293-VK","2018/06/08 14:19:28","新北市中和區中興街266巷2號","121.498526666667","24.9875233333333","6500300","中和區"
"235036","301-VK","2018/06/08 14:19:23","新北市中和區保平路362巷11號","121.505811666667","25.0040183333333","6500300","中和區"
"235007","352-BY","2018/06/08 14:19:26","新北市中和區景平路296號","121.51282","24.99266","6500300","中和區"
"235014","4979-A6","2018/06/08 14:19:19","新北市中和區景安路220巷16號","121.502903333333","24.9914616666667","6500300","中和區"
"235033","4980-A6","2018/06/08 14:19:13","新北市中和區景平路736巷3弄4號","121.497328333333","25.0036216666667","6500300","中和區"
"235006","551-UM","2018/06/08 14:19:17","新北市永和區民有街1號","121.515661666667","24.9974083333333","6500300","中和區"
"235034","558-UM","2018/06/08 14:19:22","新北市中和區景平路696號","121.496798333333","25.0018516666667","6500300","中和區"
"235009","565-BX","2018/06/08 14:19:23","新北市中和區景新街423巷35弄21號","121.513836666667","24.9905216666667","6500300","中和區"
"235018","640-BX","2018/06/08 14:19:17","新北市中和區國光街107巷2弄2-1號","121.470178333333","25.0001166666667","6500300","中和區"
"235024","647-TV","2018/06/08 14:19:26","新北市中和區員山路376號","121.48074","25.0042216666667","6500300","中和區"
"235011","732-UM","2018/06/08 14:19:14","新北市中和區景平路239巷73號","121.508111666667","24.9920916666667","6500300","中和區"
"235010","733-UM","2018/06/08 14:19:08","新北市中和區華新街150號","121.507826666667","24.98243","6500300","中和區"
"235035","783-BX","2018/06/08 14:19:24","新北市中和區連城路517號","121.482126666667","24.9953366666667","6500300","中和區"
"235026","800-TS","2018/06/08 14:19:09","新北市中和區中山路二段436號","121.489415","25.004105","6500300","中和區"
"235021","801-TS","2018/06/08 14:19:18","新北市中和區員山路423巷4號","121.480503333333","25.00323","6500300","中和區"
"235005","802-TS","2018/06/08 14:19:26","新北市中和區安平路155號","121.51229","24.99822","6500300","中和區"
"235016","805-TS","2018/06/08 14:19:24","新北市中和區興南路二段142巷19弄15號","121.502611666667","24.9833966666667","6500300","中和區"
"235012","896-TW","2018/06/08 14:19:23","新北市中和區華新街109巷1-3號","121.509081666667","24.982305","6500300","中和區"
"235017","900-TW","2018/06/08 14:19:18","新北市中和區華順街38號","121.466613333333","24.998575","6500300","中和區"
"235030","911-UM","2018/06/08 14:19:18","新北市中和區中和路102號","121.50268","24.9996533333333","6500300","中和區"
"235015","157-BY","2018/06/08 14:19:07","新北市中和區景平路239巷13號","121.509338333333","24.9924283333333","6500300","中和區"
"235001","AAC-213","2018/06/08 14:19:18","新北市中和區自立路15巷2號","121.522571666667","24.99603","6500300","中和區"
"235023","AAC-215","2018/06/08 14:19:28","新北市中和區圓通路252巷16號","121.492321666667","24.9922166666667","6500300","中和區"
"220016","013-TV","2018/06/08 14:19:30","新北市板橋區林森街1巷17號","121.482418333333","25.0242333333333","6500100","板橋區"
"220013","072-UY","2018/06/08 14:19:20","新北市板橋區國泰街39巷4弄31號","121.46777","25.0058333333333","6500100","板橋區"
"220105","075-UY","2018/06/08 14:19:18","新北市板橋區雙十路三段168號","121.470058333333","25.0327683333333","6500100","板橋區"
"220017","AAD-861","2018/06/08 14:19:19","新北市板橋區大明街20巷29弄10號","121.457793333333","25.003505","6500100","板橋區"
"220039","120-SR","2018/06/08 14:19:22","新北市板橋區長江路一段106巷13弄5號","121.460248333333","25.0292066666667","6500100","板橋區"
"247023","893-R6","2018/06/08 14:19:28","新北市蘆洲區長榮路703號","121.461025","25.0929066666667","6501400","蘆洲區"
"247013","546-UM","2018/06/08 14:19:17","新北市蘆洲區中山一路236號","121.472561666667","25.0802583333333","6501400","蘆洲區"
"247021","500-BY","2018/06/08 14:19:21","新北市蘆洲區三民路368-3號","121.465416666667","25.0923783333333","6501400","蘆洲區"
"247009","341-TH","2018/06/08 14:19:20","新北市蘆洲區三民路26巷26弄1號","121.477666666667","25.0829433333333","6501400","蘆洲區"
"247011","339-TH","2018/06/08 14:19:25","新北市蘆洲區民權路3巷26號","121.475195","25.0855633333333","6501400","蘆洲區"
"247003","337-TH","2018/06/08 14:19:14","新北市蘆洲區長安街172巷35弄9號","121.460368333333","25.084405","6501400","蘆洲區"
"247005","336-TH","2018/06/08 14:19:25","新北市蘆洲區長安街23巷5號","121.463803333333","25.0787716666667","6501400","蘆洲區"
"247017","057-VK","2018/06/08 14:19:26","新北市蘆洲區民權路94號","121.474156666667","25.0879183333333","6501400","蘆洲區"
"247015","007-UY","2018/06/08 14:19:28","新北市蘆洲區中正路185巷31弄1號","121.466376666667","25.084275","6501400","蘆洲區"
"247001","002-UY","2018/06/08 14:19:27","新北市蘆洲區永樂街94號","121.456538333333","25.088825","6501400","蘆洲區"
"247019","001-UY","2018/06/08 14:19:11","新北市蘆洲區仁愛街37號","121.472013333333","25.0928183333333","6501400","蘆洲區"
"207002","749-BX","2018/06/08 14:19:24","新北市萬里區溪底里溪底路23號","121.610286666667","25.14793","6502800","萬里區"
"207001","662-BX","2018/06/08 14:19:21","新北市萬里區磺潭里清水18號","121.637843333333","25.1977016666667","6502800","萬里區"
"236040","107-UM","2018/06/08 14:19:26","新北市土城區裕生路21巷6弄8號","121.448681666667","24.9868816666667","6501300","土城區"
"236077","166-UM","2018/06/08 14:19:20","新北市土城區中央路三段281巷21號","121.425841666667","24.9621283333333","6501300","土城區"
"236029","253-BX","2018/06/08 14:19:26","新北市土城區順風路58號","121.440711666667","24.9775133333333","6501300","土城區"
"236024","269-VK","2018/06/08 14:19:28","新北市土城區承天路47號","121.438826666667","24.963675","6501300","土城區"
"236013","270-VK","2018/06/08 14:19:22","新北市土城區學府路一段46號","121.457803333333","24.9885316666667","6501300","土城區"
"236032","271-VK","2018/06/08 14:19:24","新北市土城區青雲路451巷8弄2號","121.459566666667","24.9744483333333","6501300","土城區"
"236067","KEA-2877","2018/06/08 14:19:08","新北市土城區明德路一段128巷7號","121.46329","24.9790233333333","6501300","土城區"
"236016","401-BY","2018/06/08 14:19:12","新北市土城區清水路217號","121.460553333333","24.98216","6501300","土城區"
"236006","498-BY","2018/06/08 14:19:11","新北市土城區中華路一段56巷28-3號","121.444831666667","24.9906216666667","6501300","土城區"
"236057","912-UM","2018/06/08 14:19:22","新北市土城區中央路四段287號","121.411611666667","24.9526466666667","6501300","土城區"
"236045","913-UM","2018/06/08 14:19:29","新北市土城區明德路一段280-1號","121.457258333333","24.9774816666667","6501300","土城區"
"236060","915-UM","2018/06/08 14:19:27","新北市土城區延壽路44巷15號","121.471478333333","24.9930316666667","6501300","土城區"
"236054","AAC-216","2018/06/08 14:19:26","新北市土城區中華路二段102號","121.438055","24.974375","6501300","土城區"
"220027","145-BY","2018/06/08 14:19:22","新北市板橋區民權路202巷17弄7號","121.46044","25.01656","6500100","板橋區"
"220028","200-UY","2018/06/08 14:19:19","新北市板橋區大觀路二段3巷63號","121.449456666667","25.0033883333333","6500100","板橋區"
"220030","610-BX","2018/06/08 14:19:24","新北市板橋區金門街330號","121.42831","24.98473","6500100","板橋區"
"220050","245-BX","2018/06/08 14:19:26","新北市板橋區雙十路二段159號","121.474301666667","25.028245","6500100","板橋區"
"220004","276-BY","2018/06/08 14:19:19","新北市板橋區干城路20巷6號","121.459166666667","24.9935716666667","6500100","板橋區"
"220020","277-BY","2018/06/08 14:19:10","新北市板橋區金門街337巷12弄2號","121.430213333333","24.9848183333333","6500100","板橋區"
"220019","283-VK","2018/06/08 14:19:27","新北市板橋區忠孝路24巷6號","121.460081666667","25.0014783333333","6500100","板橋區"
"220043","285-UM","2018/06/08 14:19:18","新北市板橋區吳鳳路19巷18號","121.466831666667","25.03079","6500100","板橋區"
"220001","285-VK","2018/06/08 14:19:14","新北市板橋區富山街7巷4-2號","121.478516666667","25.0216116666667","6500100","板橋區"
"220031","286-VK","2018/06/08 14:19:17","新北市板橋區龍興街73巷34號","121.442665","25.002705","6500100","板橋區"
"220029","287-VK","2018/06/08 14:19:21","新北市板橋區南雅南路一段106號","121.454896666667","25.0043183333333","6500100","板橋區"
"220009","293-UM","2018/06/08 14:19:18","新北市板橋區中山路二段326-2號","121.481095","25.0194916666667","6500100","板橋區"
"220010","295-UM","2018/06/08 14:19:21","新北市板橋區三民路二段153巷5弄11號","121.48031","25.015035","6500100","板橋區"
"220032","296-UM","2018/06/08 14:19:27","新北市板橋區篤行路三段玉平巷76弄8號","121.427728333333","24.98571","6500100","板橋區"
"220023","303-R5","2018/06/08 14:19:19","新北市板橋區南雅西路一段10巷15號","121.454441666667","25.0049633333333","6500100","板橋區"
"220041","307-R5","2018/06/08 14:19:18","新北市板橋區光武街48巷49號","121.468378333333","25.0272016666667","6500100","板橋區"
"220047","317-R6","2018/06/08 14:19:23","新北市板橋區四維路266巷5弄1號","121.463566666667","25.028555","6500100","板橋區"
"220037","491-VK","2018/06/08 14:19:29","新北市板橋區文化路二段182巷1弄8號","121.471343333333","25.0276116666667","6500100","板橋區"
"220104","560-BX","2018/06/08 14:19:17","新北市板橋區中正路399巷13弄2號","121.453253333333","25.0225833333333","6500100","板橋區"
"220052","561-BX","2018/06/08 14:19:20","新北市板橋區介壽街22-1號","121.467696666667","25.0200466666667","6500100","板橋區"
"220011","609-BX","2018/06/08 14:19:20","新北市板橋區三民路二段251號","121.478945","25.0122","6500100","板橋區"
"220034","630-UY","2018/06/08 14:19:20","新北市板橋區中正路214號","121.456071666667","25.01841","6500100","板橋區"
"220040","637-BX","2018/06/08 14:19:11","新北市板橋區文聖街72-5號","121.477175","25.03047","6500100","板橋區"
"220005","686-BX","2018/06/08 14:19:29","新北市板橋區廣權路119號","121.465296666667","24.99309","6500100","板橋區"
"220025","687-BX","2018/06/08 14:19:13","新北市板橋區大觀路二段125-1號","121.445893333333","25.0013066666667","6500100","板橋區"
"220042","689-BX","2018/06/08 14:19:26","新北市板橋區文化路一段301號","121.465078333333","25.0188616666667","6500100","板橋區"
"220002","741-BX","2018/06/08 14:19:26","新北市板橋區重慶路155巷35號","121.46349","25.0040916666667","6500100","板橋區"
"220051","KEA-2699","2018/06/08 14:19:12","新北市板橋區文聖街207-1號","121.47987","25.0264833333333","6500100","板橋區"
"220012","806-UM","2018/06/08 14:19:27","新北市板橋區中山路一段23號","121.460306666667","25.0085366666667","6500100","板橋區"
"220003","827-TW","2018/06/08 14:19:29","新北市板橋區實踐路193號","121.464398333333","25.0031883333333","6500100","板橋區"
"220014","830-TW","2018/06/08 14:19:26","新北市板橋區長安街138巷1弄63號","121.474413333333","25.0106433333333","6500100","板橋區"
"220045","831-TW","2018/06/08 14:19:25","新北市板橋區大同街50巷32號","121.478691666667","25.0265016666667","6500100","板橋區"
"220038","833-TW","2018/06/08 14:19:13","新北市板橋區文化路一段379號","121.467046666667","25.021535","6500100","板橋區"
"220022","895-R6","2018/06/08 14:19:11","新北市板橋區北門街40號","121.457068333333","25.0109883333333","6500100","板橋區"
"220021","985-R7","2018/06/08 14:19:11","新北市板橋區中正路372巷2號","121.454755","25.024205","6500100","板橋區"
"220046","AAC-210","2018/06/08 14:19:19","新北市板橋區幸福路58號","121.461106666667","25.0201","6500100","板橋區"
"220018","AAC-253","2018/06/08 14:19:16","新北市板橋區忠孝路86號","121.461526666667","25.0019783333333","6500100","板橋區"
"235032","KEA-2873","2018/06/08 14:19:07","新北市中和區圓通路6號","121.501798333333","24.998065","6500300","中和區"
"235025","KEA-2875","2018/06/08 14:19:12","新北市中和區員山路143巷24號","121.479881666667","24.9958666666667","6500300","中和區"
