"lineid","car","time","location","longitude","latitude","cityid","cityname"
"234005","207-UY","2018/06/08 14:29:09","新北市永和區安樂路208-1號","121.515048333333","25.0020366666667","6500400","永和區"
"234078","298-R6","2018/06/08 14:29:14","新北市永和區福和路78號","121.522958333333","25.0080816666667","6500400","永和區"
"234036","336-UY","2018/06/08 14:29:27","新北市永和區環河東路四段38號","121.528781666667","24.998925","6500400","永和區"
"234062","337-UY","2018/06/08 14:29:27","新北市永和區中正路433號","121.517031666667","25.005045","6500400","永和區"
"234084","338-UY","2018/06/08 14:29:26","新北市永和區光復街21號","121.516503333333","25.0174216666667","6500400","永和區"
"234068","552-UM","2018/06/08 14:29:28","新北市永和區永亨路7號","121.519385","25.0057033333333","6500400","永和區"
"234028","746-BX","2018/06/08 14:29:15","新北市永和區民權路84號","121.519923333333","24.997015","6500400","永和區"
"234052","KEA-2590","2018/06/08 14:29:19","新北市永和區環河東路一段80號","121.519573333333","25.0165066666667","6500400","永和區"
"234060","AAD-866","2018/06/08 14:29:11","新北市永和區秀朗路一段175號","121.517103333333","25.003605","6500400","永和區"
"234040","862-TW","2018/06/08 14:29:25","新北市永和區自由街39-1號","121.514321666667","25.0060633333333","6500400","永和區"
"234048","863-TW","2018/06/08 14:29:18","新北市永和區新生路138巷1弄8號","121.506443333333","25.0143316666667","6500400","永和區"
"234025","9371-KE","2018/06/08 14:29:28","新北市永和區安樂路78號","121.514601666667","24.99848","6500400","永和區"
"234072","AAC-211","2018/06/08 14:29:24","新北市永和區竹林路39巷10號","121.518388333333","25.0144966666667","6500400","永和區"
"234001","AAC-295","2018/06/08 14:29:31","新北市永和區自強街19巷3號","121.514733333333","25.008495","6500400","永和區"
"244004","248-BX","2018/06/08 14:29:19","新北市林口區竹林路267號","121.38961","25.0808033333333","6501700","林口區"
"231002","002-UM","2018/06/08 14:29:23","新北市新店區中正路349-1號","121.53533","24.97595","6500600","新店區"
"231027","0293-UT","2018/06/08 14:29:23","新北市新店區中正路76巷11弄11號","121.54396","24.9713383333333","6500600","新店區"
"231028","046-UY","2018/06/08 14:29:28","新北市新店區安康路二段14號","121.516133333333","24.9637516666667","6500600","新店區"
"231001","047-UY","2018/06/08 14:29:20","新北市新店區中正路75巷71號","121.54309","24.9688583333333","6500600","新店區"
"231022","108-UY","2018/06/08 14:29:25","新北市新店區桂山路163號","121.569508333333","24.8857","6500600","新店區"
"231012","187-VK","2018/06/08 14:29:22","新北市新店區寶興路65巷2-1號","121.550908333333","24.971675","6500600","新店區"
"231023","KEA-2219","2018/06/08 14:29:25","新北市新店區光明街135號","121.539483333333","24.9619783333333","6500600","新店區"
"231003","268-BY","2018/06/08 14:29:11","新北市新店區中興路一段268-2號","121.545168333333","24.967805","6500600","新店區"
"231018","278-BY","2018/06/08 14:29:17","新北市新店區中央三街5號","121.52951","24.97342","6500600","新店區"
"231016","AAD-862","2018/06/08 14:29:11","新北市新店區北宜路三段66號","121.575711666667","24.9514316666667","6500600","新店區"
"231005","355-BY","2018/06/08 14:29:21","新北市新店區北新路三段148號","121.541488333333","24.9823583333333","6500600","新店區"
"231038","3712-VJ","2018/06/08 14:29:12","新北市新店區溪洲路192號","121.528691666667","24.9663266666667","6500600","新店區"
"231037","4716-K9","2018/06/08 14:29:15","新北市新店區安康路二段320巷1號","121.504641666667","24.95843","6500600","新店區"
"231036","512-UM","2018/06/08 14:29:13","新北市新店區安祥路109巷151弄12號","121.478118333333","24.9589033333333","6500600","新店區"
"231013","513-UM","2018/06/08 14:29:16","新北市新店區民權路88-5號","121.536258333333","24.983525","6500600","新店區"
"231030","619-UM","2018/06/08 14:29:21","新北市新店區安民街65巷15-3號","121.51601","24.9667766666667","6500600","新店區"
"231034","641-BX","2018/06/08 14:29:11","新北市新店區車子路11號","121.503011666667","24.95208","6500600","新店區"
"231035","719-UM","2018/06/08 14:29:21","新北市新店區安光路13號","121.513356666667","24.9638833333333","6500600","新店區"
"231032","720-UM","2018/06/08 14:29:09","新北市新店區安業街215巷9號","121.523093333333","24.972925","6500600","新店區"
"231029","897-TW","2018/06/08 14:29:26","新北市新店區安康路三段79號","121.491953333333","24.9519933333333","6500600","新店區"
"231006","898-TW","2018/06/08 14:29:11","新北市新店區北宜路二段228號","121.559785","24.954425","6500600","新店區"
"231004","899-TW","2018/06/08 14:29:20","新北市新店區中正路263-1號","121.538535","24.9737366666667","6500600","新店區"
"231024","AKT-0513","2018/06/08 14:29:19","新北市新店區中華路83巷49號","121.538506666667","24.9676133333333","6500600","新店區"
"235028","005-UY","2018/06/08 14:29:11","新北市中和區南山路68號","121.502291666667","24.9960816666667","6500300","中和區"
"235027","006-UY","2018/06/08 14:29:24","新北市中和區連城路145號","121.495776666667","24.9985083333333","6500300","中和區"
"235020","096-UM","2018/06/08 14:29:23","新北市中和區員山路514巷2號","121.479353333333","25.009645","6500300","中和區"
"235003","097-UM","2018/06/08 14:29:11","新北市中和區景平路316號","121.512333333333","24.992765","6500300","中和區"
"235029","098-UM","2018/06/08 14:29:28","新北市中和區福祥路90巷5號","121.499498333333","25.00597","6500300","中和區"
"235004","150-BY","2018/06/08 14:29:18","新北市中和區宜安路13號","121.51312","24.9954716666667","6500300","中和區"
"235022","151-BY","2018/06/08 14:29:15","新北市中和區員山路132巷11號","121.481953333333","24.9962716666667","6500300","中和區"
"235019","183-VK","2018/06/08 14:29:24","新北市中和區德光路27巷9號","121.471016666667","25.00359","6500300","中和區"
"235002","185-VK","2018/06/08 14:29:21","新北市中和區自立路29巷8號","121.522596666667","24.9957783333333","6500300","中和區"
"235013","186-VK","2018/06/08 14:29:18","新北市中和區安和路19號","121.511075","24.9939316666667","6500300","中和區"
"235031","255-BX","2018/06/08 14:29:31","新北市中和區新生街220巷1弄1號","121.483413333333","24.9985166666667","6500300","中和區"
"235008","293-VK","2018/06/08 14:29:28","新北市中和區景安路217號","121.504361666667","24.9915483333333","6500300","中和區"
"235036","301-VK","2018/06/08 14:29:23","新北市中和區保平路362巷11號","121.505796666667","25.00404","6500300","中和區"
"235007","352-BY","2018/06/08 14:29:26","新北市中和區景平路370號","121.511036666667","24.9927983333333","6500300","中和區"
"235033","4980-A6","2018/06/08 14:29:13","新北市中和區連城路134巷18號","121.495236666667","25.0001083333333","6500300","中和區"
"235006","551-UM","2018/06/08 14:29:17","新北市中和區安平路154號","121.51262","24.9982933333333","6500300","中和區"
"235034","558-UM","2018/06/08 14:29:22","新北市中和區景平路626巷1號","121.500361666667","24.99779","6500300","中和區"
"235009","565-BX","2018/06/08 14:29:23","新北市中和區景新街487號","121.513685","24.987295","6500300","中和區"
"235018","640-BX","2018/06/08 14:29:19","新北市中和區國光街112巷20弄2號","121.469718333333","25.0021216666667","6500300","中和區"
"235024","647-TV","2018/06/08 14:29:26","新北市中和區新生街114巷37弄5號","121.482456666667","25.0020366666667","6500300","中和區"
"235011","732-UM","2018/06/08 14:29:18","新北市中和區景平路329巷1弄2號","121.505848333333","24.9929433333333","6500300","中和區"
"235010","733-UM","2018/06/08 14:29:28","新北市中和區忠孝街37巷52號","121.511118333333","24.98491","6500300","中和區"
"235035","783-BX","2018/06/08 14:29:24","新北市中和區連城路469巷38號","121.483491666667","24.9947366666667","6500300","中和區"
"235026","800-TS","2018/06/08 14:29:12","新北市中和區中山路二段375號","121.487243333333","25.00477","6500300","中和區"
"235021","801-TS","2018/06/08 14:29:18","新北市中和區中山路三段37巷25號","121.479306666667","25.00486","6500300","中和區"
"235005","802-TS","2018/06/08 14:29:19","新北市中和區景安路50號","121.506576666667","24.9982866666667","6500300","中和區"
"235016","805-TS","2018/06/08 14:29:25","新北市中和區華新街143巷45弄26號","121.506573333333","24.9804083333333","6500300","中和區"
"235012","896-TW","2018/06/08 14:29:23","新北市中和區忠孝街37巷4號","121.51127","24.9835416666667","6500300","中和區"
"235017","900-TW","2018/06/08 14:29:18","新北市中和區民德路197號","121.469048333333","24.9982716666667","6500300","中和區"
"235030","911-UM","2018/06/08 14:29:18","新北市中和區景新街38號","121.50345","24.999295","6500300","中和區"
"235015","157-BY","2018/06/08 14:29:28","新北市中和區中興街130號","121.49983","24.9925466666667","6500300","中和區"
"235001","AAC-213","2018/06/08 14:29:18","新北市中和區秀朗路三段10巷12弄8號","121.525818333333","24.9966516666667","6500300","中和區"
"235023","AAC-215","2018/06/08 14:29:28","新北市中和區錦和路203巷7號","121.491243333333","24.9904133333333","6500300","中和區"
"220016","013-TV","2018/06/08 14:29:13","新北市板橋區中山路二段593號","121.48482","25.02214","6500100","板橋區"
"220013","072-UY","2018/06/08 14:29:24","新北市板橋區國泰街111巷1號","121.465813333333","25.006325","6500100","板橋區"
"220105","075-UY","2018/06/08 14:29:26","新北市板橋區江寧路三段57號","121.471893333333","25.0321533333333","6500100","板橋區"
"220017","AAD-861","2018/06/08 14:29:26","新北市板橋區貴興路88-3號","121.455955","25.0032666666667","6500100","板橋區"
"220039","120-SR","2018/06/08 14:29:22","新北市板橋區長江路一段48巷1弄1號","121.458965","25.028845","6500100","板橋區"
"247023","893-R6","2018/06/08 14:29:27","新北市蘆洲區中正路263巷2號","121.467365","25.0873866666667","6501400","蘆洲區"
"247013","546-UM","2018/06/08 14:29:17","新北市蘆洲區中正路16號","121.471541666667","25.0820566666667","6501400","蘆洲區"
"247021","500-BY","2018/06/08 14:29:21","新北市蘆洲區中正路454號","121.462505","25.0949516666667","6501400","蘆洲區"
"247009","341-TH","2018/06/08 14:28:59","新北市蘆洲區鷺江街23號","121.478843333333","25.0824683333333","6501400","蘆洲區"
"247011","339-TH","2018/06/08 14:29:25","新北市蘆洲區中興街132號","121.482198333333","25.089455","6501400","蘆洲區"
"247003","337-TH","2018/06/08 14:29:19","新北市蘆洲區長安街265號","121.45851","25.08378","6501400","蘆洲區"
"247005","336-TH","2018/06/08 14:29:22","新北市蘆洲區長安街46巷6號","121.463618333333","25.0798066666667","6501400","蘆洲區"
"247017","057-VK","2018/06/08 14:29:26","新北市蘆洲區復興路256號","121.479988333333","25.089585","6501400","蘆洲區"
"247007","056-VK","2018/06/08 14:29:29","新北市蘆洲區民生街38號","121.474078333333","25.0786533333333","6501400","蘆洲區"
"247015","007-UY","2018/06/08 14:29:28","新北市蘆洲區中正路185巷78弄50號","121.465608333333","25.0853766666667","6501400","蘆洲區"
"247001","002-UY","2018/06/08 14:29:27","新北市蘆洲區永樂街38巷24號","121.458313333333","25.0892866666667","6501400","蘆洲區"
"247019","001-UY","2018/06/08 14:29:11","新北市蘆洲區水湳街172-1號","121.470341666667","25.093855","6501400","蘆洲區"
"207002","749-BX","2018/06/08 14:28:17","新北市萬里區溪底里福德坑路2號","121.625798333333","25.1563383333333","6502800","萬里區"
"207001","662-BX","2018/06/08 14:29:21","新北市萬里區磺潭里清水4-3號","121.643685","25.2012","6502800","萬里區"
"236040","107-UM","2018/06/08 14:29:26","新北市土城區裕民路67巷4弄4號","121.449883333333","24.987865","6501300","土城區"
"236077","166-UM","2018/06/08 14:29:28","新北市土城區大暖路20巷2號","121.42355","24.9599333333333","6501300","土城區"
"236029","253-BX","2018/06/08 14:29:26","新北市土城區中央路二段254號","121.441511666667","24.974875","6501300","土城區"
"236024","269-VK","2018/06/08 14:29:28","新北市土城區承天路45號","121.438788333333","24.9640183333333","6501300","土城區"
"236013","270-VK","2018/06/08 14:29:22","新北市土城區青雲路39巷7號","121.460363333333","24.9875333333333","6501300","土城區"
"236032","271-VK","2018/06/08 14:29:23","新北市土城區青雲路453號","121.458855","24.9746116666667","6501300","土城區"
"236067","KEA-2877","2018/06/08 14:29:28","新北市土城區永豐路255巷21弄1號","121.475076666667","24.9738116666667","6501300","土城區"
"236016","401-BY","2018/06/08 14:29:32","新北市土城區永豐路202巷5-1號","121.466385","24.9832366666667","6501300","土城區"
"236006","498-BY","2018/06/08 14:29:31","新北市土城區日新街35-1號","121.443036666667","24.9882433333333","6501300","土城區"
"236057","912-UM","2018/06/08 14:29:22","新北市土城區中央路四段139-2號","121.415743333333","24.9572166666667","6501300","土城區"
"236045","913-UM","2018/06/08 14:29:29","新北市土城區明德路一段323號","121.459023333333","24.9770816666667","6501300","土城區"
"236060","915-UM","2018/06/08 14:29:27","新北市中和區莒光路213號","121.469008333333","24.9947283333333","6501300","土城區"
"236054","AAC-216","2018/06/08 14:29:27","新北市土城區中華路二段61號","121.43949","24.9787133333333","6501300","土城區"
"220027","145-BY","2018/06/08 14:29:24","新北市板橋區建國街5號","121.457455","25.0168716666667","6500100","板橋區"
"220028","200-UY","2018/06/08 14:29:17","新北市板橋區大觀路二段37巷276號","121.449713333333","25.0011366666667","6500100","板橋區"
"220030","610-BX","2018/06/08 14:29:13","新北市板橋區大觀路三段131號","121.432461666667","24.9940683333333","6500100","板橋區"
"220050","245-BX","2018/06/08 14:29:26","新北市板橋區縣民大道三段39號","121.474103333333","25.0208583333333","6500100","板橋區"
"220004","276-BY","2018/06/08 14:29:23","新北市板橋區國慶路49巷19弄6號","121.459141666667","24.9962183333333","6500100","板橋區"
"220020","277-BY","2018/06/08 14:29:29","新北市板橋區金門街253巷16弄8號","121.432681666667","24.98798","6500100","板橋區"
"220019","283-VK","2018/06/08 14:29:14","新北市板橋區信義路22號","121.457093333333","24.9952516666667","6500100","板橋區"
"220043","285-UM","2018/06/08 14:29:18","新北市板橋區吳鳳路50巷87號","121.470395","25.0304316666667","6500100","板橋區"
"220001","285-VK","2018/06/08 14:29:02","新北市板橋區富山街62巷7號","121.477113333333","25.0223","6500100","板橋區"
"220031","286-VK","2018/06/08 14:29:24","新北市板橋區龍興街65巷20號","121.443188333333","25.0015833333333","6500100","板橋區"
"220029","287-VK","2018/06/08 14:29:21","新北市板橋區大觀路一段29巷143號","121.449498333333","25.005495","6500100","板橋區"
"220009","293-UM","2018/06/08 14:29:18","新北市板橋區中山路一段265巷1-1號","121.468323333333","25.0141333333333","6500100","板橋區"
"220010","295-UM","2018/06/08 14:29:18","新北市板橋區三民路二段109巷29號","121.480568333333","25.016045","6500100","板橋區"
"220032","296-UM","2018/06/08 14:29:27","新北市板橋區滿平二街12號","121.42542","24.98681","6500100","板橋區"
"220023","303-R5","2018/06/08 14:29:19","新北市板橋區中正路289巷23號","121.454731666667","25.0190516666667","6500100","板橋區"
"220041","307-R5","2018/06/08 14:29:19","新北市板橋區光武街4巷13-1號","121.468246666667","25.025665","6500100","板橋區"
"220047","317-R6","2018/06/08 14:29:20","新北市板橋區民生路三段299巷18號","121.46272","25.030225","6500100","板橋區"
"220037","491-VK","2018/06/08 14:29:27","新北市板橋區雙十路二段4-2號","121.477155","25.025575","6500100","板橋區"
"220104","560-BX","2018/06/08 14:29:17","新北市板橋區金華街85巷42號","121.459131666667","25.0213233333333","6500100","板橋區"
"220052","561-BX","2018/06/08 14:29:20","新北市板橋區文化路一段216號","121.466531666667","25.0204633333333","6500100","板橋區"
"220011","609-BX","2018/06/08 14:29:24","新北市板橋區中山路二段323號","121.479225","25.0187333333333","6500100","板橋區"
"220034","630-UY","2018/06/08 14:29:00","新北市板橋區國光路173巷3弄2號","121.460416666667","25.0188716666667","6500100","板橋區"
"220040","637-BX","2018/06/08 14:29:11","新北市板橋區文聖街135巷2號","121.478485","25.028625","6500100","板橋區"
"220005","686-BX","2018/06/08 14:29:09","新北市板橋區和平路61號","121.461186666667","24.99462","6500100","板橋區"
"220025","687-BX","2018/06/08 14:29:22","新北市板橋區僑中二街10巷1號","121.446978333333","25.0108633333333","6500100","板橋區"
"220042","689-BX","2018/06/08 14:29:26","新北市板橋區雨農路50號","121.461088333333","25.0242933333333","6500100","板橋區"
"220002","741-BX","2018/06/08 14:29:22","新北市板橋區忠孝路203號","121.465166666667","25.0026816666667","6500100","板橋區"
"220051","KEA-2699","2018/06/08 14:29:12","新北市板橋區松柏街22巷43號","121.475096666667","25.0289366666667","6500100","板橋區"
"220012","806-UM","2018/06/08 14:29:25","新北市板橋區中山路一段50-5號","121.461066666667","25.00934","6500100","板橋區"
"220003","827-TW","2018/06/08 14:29:29","新北市板橋區國慶路167巷4號","121.462113333333","24.9965316666667","6500100","板橋區"
"220014","830-TW","2018/06/08 14:29:24","新北市板橋區漢生東路313巷24號","121.47286","25.0083666666667","6500100","板橋區"
"220045","831-TW","2018/06/08 14:29:25","新北市板橋區萬板路145號","121.47364","25.0234866666667","6500100","板橋區"
"220038","833-TW","2018/06/08 14:29:10","新北市板橋區文化路一段165號","121.462781666667","25.0160166666667","6500100","板橋區"
"220022","895-R6","2018/06/08 14:29:19","新北市板橋區大東街24號","121.456536666667","25.0088866666667","6500100","板橋區"
"220021","985-R7","2018/06/08 14:29:11","新北市板橋區瑞安街46巷1號","121.455351666667","25.0220683333333","6500100","板橋區"
"220046","AAC-210","2018/06/08 14:29:29","新北市板橋區漢生西路145號","121.462945","25.0218683333333","6500100","板橋區"
"220018","AAC-253","2018/06/08 14:29:16","新北市板橋區四川路一段10巷1號","121.459411666667","25.0066233333333","6500100","板橋區"
"235032","KEA-2873","2018/06/08 14:29:07","新北市中和區中山路二段136巷3弄8-2號","121.501413333333","25.0038233333333","6500300","中和區"
"235025","KEA-2875","2018/06/08 14:29:12","新北市中和區民利街71號","121.478641666667","24.9982066666667","6500300","中和區"
