"lineid","car","time","location","longitude","latitude","cityid","cityname"
"249005","172-UM","2018/06/08 17:09:15","新北市八里區華富山5-1號","121.41852","25.14388","6502300","八里區"
"249001","173-UM","2018/06/08 17:09:27","新北市八里區訊塘路2號","121.398371666667","25.1445233333333","6502300","八里區"
"249004","303-UY","2018/06/08 17:09:20","新北市八里區忠孝路201號","121.422113333333","25.16094","6502300","八里區"
"249002","305-UY","2018/06/08 17:09:16","新北市八里區龍米路二段147巷6-1號","121.441463333333","25.1493216666667","6502300","八里區"
"249003","593-UM","2018/06/08 17:09:31","新北市八里區中山路二段415號","121.397365","25.14618","6502300","八里區"
"244007","080-UY","2018/06/08 17:09:30","新北市林口區菁埔路25號","121.377113333333","25.0969483333333","6501700","林口區"
"244013","742-UY","2018/06/08 17:09:25","新北市林口區粉寮69號","121.404831666667","25.0908366666667","6501700","林口區"
"244025","837-TS","2018/06/08 17:09:15","新北市林口區粉寮路一段147號","121.399215","25.0812666666667","6501700","林口區"
"244021","838-TS","2018/06/08 17:09:31","新北市林口區粉寮路二段46號","121.403596666667","25.0868316666667","6501700","林口區"
"231046","188-VK","2018/06/08 17:09:29","新北市新店區直潭路92-1號","121.530923333333","24.93755","6500600","新店區"
"241011","013-R5","2018/06/08 17:09:31","新北市三重區河邊北街130號","121.503403333333","25.0717983333333","6500200","三重區"
"241028","022-UY","2018/06/08 17:09:13","新北市三重區仁化街40號","121.4935","25.059595","6500200","三重區"
"241008","059-VK","2018/06/08 17:09:28","新北市三重區力行路二段136巷13號","121.481843333333","25.0757133333333","6500200","三重區"
"241009","060-VK","2018/06/08 17:09:16","新北市三重區三和路四段215巷4號","121.48192","25.0798433333333","6500200","三重區"
"241031","061-VK","2018/06/08 17:09:30","新北市三重區重陽路一段113巷3號","121.487516666667","25.0597783333333","6500200","三重區"
"241017","063-VK","2018/06/08 17:09:12","新北市三重區中正北路25巷25弄5號","121.493386666667","25.0627216666667","6500200","三重區"
"241024","065-VK","2018/06/08 17:09:13","新北市三重區中正北路344號","121.478001666667","25.0692516666667","6500200","三重區"
"241026","066-VK","2018/06/08 17:09:24","新北市三重區重新路一段43號","121.502358333333","25.0639083333333","6500200","三重區"
"241002","090-VK","2018/06/08 17:09:30","新北市三重區五華街35巷6號","121.494786666667","25.08108","6500200","三重區"
"241003","091-VK","2018/06/08 17:09:19","新北市三重區富福街114號","121.493546666667","25.08571","6500200","三重區"
"241005","262-UM","2018/06/08 17:09:19","新北市三重區仁愛街687號","121.483346666667","25.0810966666667","6500200","三重區"
"241013","265-UM","2018/06/08 17:09:15","新北市三重區三和路三段107巷19號","121.494955","25.07309","6500200","三重區"
"241016","266-UM","2018/06/08 17:09:05","新北市三重區中正北路25巷22號","121.493686666667","25.0631666666667","6500200","三重區"
"241022","267-UM","2018/06/08 17:09:25","新北市三重區三民街90號","121.485428333333","25.0630883333333","6500200","三重區"
"241018","268-UM","2018/06/08 17:09:32","新北市三重區六張街89號","121.492686666667","25.0699033333333","6500200","三重區"
"241025","271-UM","2018/06/08 17:09:24","新北市三重區中正北路560巷47號","121.470895","25.07025","6500200","三重區"
"241007","398-BY","2018/06/08 17:09:29","新北市三重區三和路四段163巷28號","121.48515","25.07918","6500200","三重區"
"241015","413-TH","2018/06/08 17:09:20","新北市三重區長生街10號","121.499148333333","25.06633","6500200","三重區"
"241004","475-VK","2018/06/08 17:09:24","新北市三重區五華街100號","121.492561666667","25.0823733333333","6500200","三重區"
"241020","478-VK","2018/06/08 17:09:29","新北市三重區後竹圍街175巷3號","121.48591","25.0722616666667","6500200","三重區"
"241030","480-VK","2018/06/08 17:09:26","新北市三重區集美街168號","121.490108333333","25.052985","6500200","三重區"
"241014","543-UM","2018/06/08 17:09:22","新北市三重區龍濱路199號","121.501886666667","25.0715633333333","6500200","三重區"
"241023","545-UM","2018/06/08 17:09:21","新北市三重區忠孝路三段84巷5號","121.480201666667","25.0644166666667","6500200","三重區"
"241001","547-UM","2018/06/08 17:09:21","新北市三重區五華街9-2號","121.49533","25.0800733333333","6500200","三重區"
"241033","557-UM","2018/06/08 16:45:40","新北市三重區光華路63號","121.467015","25.0598833333333","6500200","三重區"
"241019","KEA-2593","2018/06/08 17:09:27","新北市三重區三張街149巷2號","121.486601666667","25.069625","6500200","三重區"
"241006","AAD-863","2018/06/08 17:09:31","新北市三重區三和路四段218巷11號","121.48563","25.0764766666667","6500200","三重區"
"241032","887-TS","2018/06/08 17:09:30","新北市三重區重陽路一段92號","121.486611666667","25.05924","6500200","三重區"
"241012","941-UM","2018/06/08 17:09:16","新北市三重區仁信街2號","121.501656666667","25.0756533333333","6500200","三重區"
"241029","942-UM","2018/06/08 17:09:24","新北市三重區重新路四段61-1號","121.487548333333","25.0571933333333","6500200","三重區"
"235062","800-TS","2018/06/08 17:02:24","新北市中和區建康路28號","121.486661666667","24.9995183333333","6500300","中和區"
"247024","893-R6","2018/06/08 17:09:15","新北市蘆洲區長興路35號","121.463361666667","25.0836416666667","6501400","蘆洲區"
"247014","546-UM","2018/06/08 17:09:15","新北市蘆洲區中央路2-1號","121.473241666667","25.0823766666667","6501400","蘆洲區"
"247022","500-BY","2018/06/08 17:09:19","新北市蘆洲區三民路222號","121.468906666667","25.089195","6501400","蘆洲區"
"247010","341-TH","2018/06/08 17:09:30","新北市蘆洲區民族路26號","121.476241666667","25.0843016666667","6501400","蘆洲區"
"247012","339-TH","2018/06/08 17:09:33","新北市蘆洲區信義路345號","121.477813333333","25.08719","6501400","蘆洲區"
"247004","337-TH","2018/06/08 17:09:33","新北市蘆洲區長安街136-1號","121.460393333333","25.0820933333333","6501400","蘆洲區"
"247006","336-TH","2018/06/08 17:09:32","新北市蘆洲區長安街108巷37號","121.462211666667","25.0826316666667","6501400","蘆洲區"
"247018","057-VK","2018/06/08 17:09:19","新北市蘆洲區信義路302巷12號","121.477861666667","25.0880183333333","6501400","蘆洲區"
"247008","056-VK","2018/06/08 17:09:14","新北市蘆洲區信義路30巷98號","121.474946666667","25.0773116666667","6501400","蘆洲區"
"247016","007-UY","2018/06/08 17:09:29","新北市蘆洲區光華路73巷3號","121.468243333333","25.082455","6501400","蘆洲區"
"247002","002-UY","2018/06/08 17:08:12","新北市蘆洲區永樂街36號","121.458128333333","25.0883866666667","6501400","蘆洲區"
"247020","001-UY","2018/06/08 17:09:31","新北市蘆洲區仁愛街36巷13號","121.472621666667","25.093565","6501400","蘆洲區"
"228001","212-TW","2018/06/08 17:09:24","新北市貢寮區仁理村研海街45號","121.925818333333","25.0426","6502600","貢寮區"
"228002","663-BX","2018/06/08 17:09:11","新北市貢寮區雙玉里下雙溪街2號","121.91239","25.016535","6502600","貢寮區"
"228003","828-UM","2018/06/08 17:09:30","新北市貢寮區福隆里東興街11號","121.950456666667","25.0182716666667","6502600","貢寮區"
"224006","676-BX","2018/06/08 17:09:21","新北市瑞芳區大寮路101-2號","121.778573333333","25.099295","6501200","瑞芳區"
"224008","285-BY","2018/06/08 17:09:29","新北市瑞芳區侯硐路119-1號","121.831273333333","25.0898983333333","6501200","瑞芳區"
"224007","275-VK","2018/06/08 17:09:15","新北市瑞芳區楓子瀨路11號","121.768146666667","25.1010266666667","6501200","瑞芳區"
"224009","273-VK","2018/06/08 17:09:19","新北市瑞芳區街頂巷36號","121.843585","25.1105583333333","6501200","瑞芳區"
"224005","271-BY","2018/06/08 17:09:25","新北市瑞芳區鼻頭路99號","121.916021666667","25.123925","6501200","瑞芳區"
"227003","642-TC","2018/06/08 17:09:22","新北市雙溪區外柑里外柑腳71號","121.807078333333","25.0175733333333","6502500","雙溪區"
"227011","400-TW","2018/06/08 17:09:19","新北市雙溪區牡丹里下坑30號","121.850086666667","25.0569483333333","6502500","雙溪區"
"251004","009-UM","2018/06/08 17:09:19","新北市淡水區中正路一段49號","121.424425","25.17751","6501000","淡水區"
"251005","010-UM","2018/06/08 17:09:31","新北市淡水區中正東路40號","121.45018","25.16513","6501000","淡水區"
"251010","413-VK","2018/06/08 17:09:26","新北市淡水區新市五路二段75號","121.431265","25.198295","6501000","淡水區"
"251012","441-VK","2018/06/08 17:09:19","新北市淡水區中山北路一段158號","121.444196666667","25.1779083333333","6501000","淡水區"
"251007","442-VK","2018/06/08 17:09:33","新北市淡水區民權路13-5號","121.459636666667","25.1413216666667","6501000","淡水區"
"251008","443-VK","2018/06/08 17:09:23","新北市淡水區民生路169號","121.469675","25.14215","6501000","淡水區"
"251006","561-UM","2018/06/08 17:09:15","新北市淡水區真理街6號","121.438425","25.1745116666667","6501000","淡水區"
"251009","575-R6","2018/06/08 17:09:32","新北市淡水區三民街24號","121.439078333333","25.1718283333333","6501000","淡水區"
"251011","650-BX","2018/06/08 17:09:12","新北市淡水區中正東路一段123-1號","121.454961666667","25.1594233333333","6501000","淡水區"
"252002","178-VK","2018/06/08 17:09:22","新北市三芝區埔坪里埔頭坑169-2號","121.505955","25.2529433333333","6502100","三芝區"
"252001","292-VK","2018/06/08 17:09:14","新北市三芝區淡金路一段4-5號","121.497958333333","25.2599533333333","6502100","三芝區"
"242058","986-R7","2018/06/08 17:09:16","新北市新莊區新泰路357巷3弄57號","121.442233333333","25.039545","6500500","新莊區"
"242054","751-BX","2018/06/08 17:09:31","新北市新莊區新泰路357巷3弄57號","121.442151666667","25.0392","6500500","新莊區"
"242025","613-BX","2018/06/08 17:09:06","新北市新莊區新泰路255巷83號","121.44204","25.038855","6500500","新莊區"
"242029","612-BX","2018/06/08 17:09:16","新北市新莊區新泰路357巷3弄57號","121.442178333333","25.0392066666667","6500500","新莊區"
"242042","566-BX","2018/06/08 17:09:22","新北市新莊區新泰路255巷83號","121.442121666667","25.039025","6500500","新莊區"
"242046","497-BY","2018/06/08 17:09:30","新北市新莊區新泰路357巷3弄57號","121.442105","25.03923","6500500","新莊區"
"242009","442-UM","2018/06/08 17:09:33","新北市新莊區三和路12-9號","121.442105","25.0366966666667","6500500","新莊區"
"242050","441-UM","2018/06/08 17:09:29","新北市新莊區新泰路255巷83號","121.44223","25.0390666666667","6500500","新莊區"
"242037","415-TV","2018/06/08 17:09:29","新北市新莊區新泰路255巷83號","121.44216","25.0390433333333","6500500","新莊區"
"242007","413-TV","2018/06/08 17:09:16","新北市新莊區新泰路357巷3弄57號","121.442041666667","25.0392716666667","6500500","新莊區"
"242044","400-BY","2018/06/08 17:09:34","新北市新莊區新泰路357巷3弄29號","121.442018333333","25.04056","6500500","新莊區"
"242023","362-BY","2018/06/08 17:09:20","新北市新莊區三和路12-21號","121.442196666667","25.0384433333333","6500500","新莊區"
"242060","353-BY","2018/06/08 17:09:17","新北市新莊區三和路12-21號","121.442178333333","25.0386383333333","6500500","新莊區"
"242039","133-UY","2018/06/08 17:09:31","新北市新莊區中正路400號","121.441605","25.0338566666667","6500500","新莊區"
"242032","135-UY","2018/06/08 17:09:02","新北市新莊區三和路12-21號","121.442118333333","25.0386816666667","6500500","新莊區"
"242048","172-VK","2018/06/08 17:09:15","新北市新莊區中正路400號","121.441481666667","25.0338633333333","6500500","新莊區"
"242017","175-VK","2018/06/08 17:09:20","新北市新莊區三和路12-21號","121.442071666667","25.0386233333333","6500500","新莊區"
"242005","176-VK","2018/06/08 17:09:26","新北市新莊區三和路12-21號","121.44203","25.038465","6500500","新莊區"
"242056","349-TH","2018/06/08 17:09:34","新北市新莊區三和路12-9號","121.441993333333","25.0367483333333","6500500","新莊區"
"242013","351-TH","2018/06/08 17:09:25","新北市新莊區新泰路357巷3弄57號","121.44201","25.03944","6500500","新莊區"
"238023","601-UM","2018/06/08 17:09:17","新北市樹林區大安路255號","121.419288333333","24.9940583333333","6500700","樹林區"
"238019","599-UM","2018/06/08 17:09:32","新北市樹林區八德街263-1號","121.419141666667","24.9738533333333","6500700","樹林區"
"238022","KEA-2213","2018/06/08 17:09:30","新北市樹林區忠孝街26號","121.423616666667","24.9821866666667","6500700","樹林區"
"238021","KEA-2539","2018/06/08 17:09:31","新北市樹林區西圳街一段165巷20弄11號","121.395618333333","24.9601566666667","6500700","樹林區"
"238025","303-VK","2018/06/08 17:09:24","新北市樹林區中山路二段142號","121.413143333333","24.9828633333333","6500700","樹林區"
"238017","283-BY","2018/06/08 17:09:20","新北市樹林區文化街91巷6號","121.415906666667","24.989655","6500700","樹林區"
"238014","282-BY","2018/06/08 17:09:22","新北市樹林區中山路二段222-2號","121.409771666667","24.9804616666667","6500700","樹林區"
"238020","268-VK","2018/06/08 17:09:12","新北市樹林區大安路293號","121.418208333333","24.9927866666667","6500700","樹林區"
"238016","169-UY","2018/06/08 17:09:17","新北市樹林區大安路616號","121.411421666667","24.982915","6500700","樹林區"
"239006","891-R6","2018/06/08 17:09:29","新北市鶯歌區八德路2巷37弄1號","121.336781666667","24.94684","6500800","鶯歌區"
"239008","527-UM","2018/06/08 17:09:00","新北市鶯歌區尖山路57-1號","121.350058333333","24.9497133333333","6500800","鶯歌區"
"239005","526-UM","2018/06/08 17:09:29","新北市鶯歌區德昌街11號","121.333546666667","24.9601816666667","6500800","鶯歌區"
"239001","417-VK","2018/06/08 17:09:21","新北市鶯歌區尖山路140巷12弄1號","121.346338333333","24.94944","6500800","鶯歌區"
"239002","359-BY","2018/06/08 17:09:16","新北市鶯歌區建國路234號","121.348278333333","24.9534716666667","6500800","鶯歌區"
"239004","193-VK","2018/06/08 17:09:18","新北市鶯歌區文化路324巷1-35號","121.352553333333","24.9456666666667","6500800","鶯歌區"
"242011","280-VK","2018/06/08 17:09:25","新北市新莊區三和路12-21號","121.442153333333","25.038125","6500500","新莊區"
