"lineid","car","time","location","longitude","latitude","cityid","cityname"
"249005","172-UM","2018/06/08 17:19:15","新北市八里區荖阡坑路50-1號","121.411421666667","25.1216866666667","6502300","八里區"
"249001","173-UM","2018/06/08 17:19:27","新北市八里區中華路二段165巷2-1號","121.40765","25.1507983333333","6502300","八里區"
"249004","303-UY","2018/06/08 17:19:20","新北市八里區文化街78號","121.42172","25.160055","6502300","八里區"
"249002","305-UY","2018/06/08 17:19:16","新北市八里區龍米路二段125巷1號","121.44636","25.1452416666667","6502300","八里區"
"249003","593-UM","2018/06/08 17:19:31","新北市八里區中山路二段343號","121.39947","25.1470083333333","6502300","八里區"
"244007","080-UY","2018/06/08 17:19:30","新北市林口區中湖40-9號","121.383303333333","25.091165","6501700","林口區"
"244019","403-UM","2018/06/08 17:19:24","新北市林口區公園路233-3號","121.375656666667","25.075345","6501700","林口區"
"244013","742-UY","2018/06/08 17:19:25","新北市林口區粉寮69號","121.40482","25.0908433333333","6501700","林口區"
"244009","410-SL","2018/06/08 17:19:27","新北市林口區文化北路二段550巷29弄37號","121.379153333333","25.0929566666667","6501700","林口區"
"244023","483-VK","2018/06/08 17:19:28","新北市林口區興林路2號","121.389388333333","25.07658","6501700","林口區"
"244011","657-BX","2018/06/08 17:19:21","新北市林口區粉寮路一段183號","121.4","25.082295","6501700","林口區"
"244025","837-TS","2018/06/08 17:19:35","新北市林口區中山路490號","121.38007","25.08248","6501700","林口區"
"244021","838-TS","2018/06/08 17:19:31","新北市林口區粉寮路二段457號","121.40452","25.0984433333333","6501700","林口區"
"231046","188-VK","2018/06/08 17:19:29","新北市新店區直潭路92號","121.530925","24.9375633333333","6500600","新店區"
"241011","013-R5","2018/06/08 17:19:31","新北市三重區秀江街26號","121.5024","25.0729816666667","6500200","三重區"
"241028","022-UY","2018/06/08 17:19:33","新北市三重區新北大道一段88號","121.4861","25.06158","6500200","三重區"
"241008","059-VK","2018/06/08 17:19:28","新北市三重區永福街72巷37-5號","121.480571666667","25.0763183333333","6500200","三重區"
"241009","060-VK","2018/06/08 17:19:18","新北市三重區碧華街33號","121.484305","25.0811733333333","6500200","三重區"
"241017","063-VK","2018/06/08 17:19:32","新北市三重區大同北路52號","121.495073333333","25.0630683333333","6500200","三重區"
"241024","065-VK","2018/06/08 17:19:33","新北市三重區中正北路193巷21弄8號","121.476586666667","25.07052","6500200","三重區"
"241026","066-VK","2018/06/08 17:19:24","新北市三重區福裕街49號","121.49879","25.0615833333333","6500200","三重區"
"241002","090-VK","2018/06/08 17:19:30","新北市三重區自強路五段65號","121.494773333333","25.08192","6500200","三重區"
"241003","091-VK","2018/06/08 17:19:18","新北市三重區五華街148號","121.491148333333","25.0839766666667","6500200","三重區"
"241005","262-UM","2018/06/08 17:19:19","新北市三重區永安北路二段25巷27號","121.482721666667","25.0818816666667","6500200","三重區"
"241013","265-UM","2018/06/08 17:19:15","新北市三重區仁愛街124號","121.494773333333","25.074735","6500200","三重區"
"241016","266-UM","2018/06/08 17:19:24","新北市三重區大同北路54巷1號","121.494256666667","25.0636016666667","6500200","三重區"
"241022","267-UM","2018/06/08 17:19:25","新北市三重區中正北路64巷8號","121.486515","25.0641316666667","6500200","三重區"
"241018","268-UM","2018/06/08 17:19:12","新北市三重區安慶街179號","121.493485","25.0684916666667","6500200","三重區"
"241025","271-UM","2018/06/08 17:19:24","新北市三重區中正北路378號","121.476715","25.06976","6500200","三重區"
"241007","398-BY","2018/06/08 17:19:29","新北市三重區慈愛街5號","121.484876666667","25.0784833333333","6500200","三重區"
"241015","413-TH","2018/06/08 17:19:20","新北市三重區福德北路89號","121.501868333333","25.0662266666667","6500200","三重區"
"241020","478-VK","2018/06/08 17:19:29","新北市三重區忠孝路一段145號","121.488163333333","25.0722266666667","6500200","三重區"
"241030","480-VK","2018/06/08 17:19:26","新北市三重區集美街159號","121.490783333333","25.0534216666667","6500200","三重區"
"241014","543-UM","2018/06/08 17:19:22","新北市三重區長榮路3號","121.500201666667","25.0684666666667","6500200","三重區"
"241023","545-UM","2018/06/08 17:19:21","新北市三重區三民街166號","121.482266666667","25.06551","6500200","三重區"
"241019","KEA-2593","2018/06/08 17:19:27","新北市三重區自強路二段50巷19-1號","121.488306666667","25.0694366666667","6500200","三重區"
"241006","AAD-863","2018/06/08 17:19:31","新北市三重區車路頭街135-1號","121.484228333333","25.0761616666667","6500200","三重區"
"241032","887-TS","2018/06/08 17:19:30","新北市三重區興華街125號","121.483333333333","25.059855","6500200","三重區"
"241012","941-UM","2018/06/08 17:19:16","新北市三重區仁昌街96號","121.499685","25.075085","6500200","三重區"
"235062","800-TS","2018/06/08 17:02:24","新北市中和區建康路28號","121.486661666667","24.9995183333333","6500300","中和區"
"247014","546-UM","2018/06/08 17:19:15","新北市蘆洲區中正路96號","121.470158333333","25.0839783333333","6501400","蘆洲區"
"247022","500-BY","2018/06/08 17:19:19","新北市蘆洲區三民路128巷13號","121.470526666667","25.0884516666667","6501400","蘆洲區"
"247010","341-TH","2018/06/08 17:19:30","新北市蘆洲區中山一路120巷7弄31號","121.476935","25.0824933333333","6501400","蘆洲區"
"247012","339-TH","2018/06/08 17:19:33","新北市蘆洲區信義路319巷10弄3號","121.477581666667","25.0863866666667","6501400","蘆洲區"
"247004","337-TH","2018/06/08 17:19:13","新北市蘆洲區中原路52號","121.459088333333","25.082265","6501400","蘆洲區"
"247006","336-TH","2018/06/08 17:19:32","新北市蘆洲區長安街73巷31號","121.46186","25.0790533333333","6501400","蘆洲區"
"247018","057-VK","2018/06/08 17:19:19","新北市蘆洲區民權路96巷1弄1號","121.474308333333","25.088205","6501400","蘆洲區"
"247008","056-VK","2018/06/08 17:19:14","新北市蘆洲區永安北路一段60巷1號","121.476731666667","25.076275","6501400","蘆洲區"
"247024","053-VK","2018/06/08 17:19:19","新北市蘆洲區長榮路237號","121.46027","25.0858916666667","6501400","蘆洲區"
"247016","007-UY","2018/06/08 17:19:29","新北市蘆洲區正和街96巷23號","121.46756","25.0812316666667","6501400","蘆洲區"
"247002","002-UY","2018/06/08 17:19:32","新北市蘆洲區永樂街38巷33弄14號","121.457461666667","25.08967","6501400","蘆洲區"
"247020","001-UY","2018/06/08 17:19:31","新北市蘆洲區仁愛街21號","121.472388333333","25.0923733333333","6501400","蘆洲區"
"228001","212-TW","2018/06/08 17:19:24","新北市貢寮區仁理村尖山腳街18-3號","121.925501666667","25.0483166666667","6502600","貢寮區"
"228002","663-BX","2018/06/08 17:19:31","新北市貢寮區雙玉里田寮洋街35號","121.928423333333","25.017195","6502600","貢寮區"
"228003","828-UM","2018/06/08 17:19:30","新北市貢寮區福隆里興隆街24號","121.944566666667","25.0167133333333","6502600","貢寮區"
"224006","676-BX","2018/06/08 17:19:31","新北市瑞芳區傑魚坑路263號","121.787203333333","25.1059933333333","6501200","瑞芳區"
"224008","285-BY","2018/06/08 17:19:29","新北市瑞芳區侯硐路160號","121.828146666667","25.0855316666667","6501200","瑞芳區"
"224009","273-VK","2018/06/08 17:19:29","新北市瑞芳區汽車路93-8號","121.84292","25.1095416666667","6501200","瑞芳區"
"224005","271-BY","2018/06/08 17:19:25","新北市瑞芳區鼻頭路247號","121.903043333333","25.1220016666667","6501200","瑞芳區"
"227003","642-TC","2018/06/08 17:19:22","新北市雙溪區上林里內平林90號","121.827578333333","25.02747","6502500","雙溪區"
"227011","400-TW","2018/06/08 17:19:19","新北市雙溪區牡丹里牡丹86號","121.850868333333","25.0609133333333","6502500","雙溪區"
"251004","009-UM","2018/06/08 17:19:19","新北市淡水區中正東路36-1號","121.44885","25.1657816666667","6501000","淡水區"
"251005","010-UM","2018/06/08 17:19:31","新北市淡水區鄧公路29巷2號","121.451613333333","25.1698633333333","6501000","淡水區"
"251010","413-VK","2018/06/08 17:19:26","新北市淡水區中正路二段214號","121.426413333333","25.18993","6501000","淡水區"
"251012","441-VK","2018/06/08 17:19:19","新北市淡水區中山北路一段156號","121.444171666667","25.1779083333333","6501000","淡水區"
"251007","442-VK","2018/06/08 17:19:13","新北市淡水區民生路47-4號","121.462116666667","25.138075","6501000","淡水區"
"251008","443-VK","2018/06/08 17:19:15","新北市淡水區大同路263號","121.46697","25.1421966666667","6501000","淡水區"
"251006","561-UM","2018/06/08 17:19:35","新北市淡水區中山路189號","121.44131","25.17447","6501000","淡水區"
"251009","575-R6","2018/06/08 17:19:12","新北市淡水區三民街19號","121.439035","25.1718483333333","6501000","淡水區"
"251011","650-BX","2018/06/08 17:19:33","新北市淡水區坪頂路128號","121.465161666667","25.1610933333333","6501000","淡水區"
"251003","673-BX","2018/06/08 17:19:31","新北市淡水區中正路二段31號","121.41952","25.1814933333333","6501000","淡水區"
"207003","550-UM","2018/06/08 17:19:22","新北市萬里區萬里里瑪鋉路314號","121.688195","25.18226","6502800","萬里區"
"252002","178-VK","2018/06/08 17:19:22","新北市三芝區忠孝街1-14號","121.505493333333","25.2539133333333","6502100","三芝區"
"252001","292-VK","2018/06/08 17:19:14","新北市三芝區淡金路一段3號","121.498085","25.2596783333333","6502100","三芝區"
"242058","986-R7","2018/06/08 17:19:16","新北市泰山區磚雅厝3號","121.442213333333","25.0415783333333","6500500","新莊區"
"242054","751-BX","2018/06/08 17:19:31","新北市新莊區中環路一段287號","121.442115","25.0320466666667","6500500","新莊區"
"242027","615-BX","2018/06/08 17:19:27","新北市新莊區中港路307號","121.452701666667","25.0446883333333","6500500","新莊區"
"242025","613-BX","2018/06/08 17:19:26","新北市新莊區復興路一段85號","121.448355","25.0428116666667","6500500","新莊區"
"242029","612-BX","2018/06/08 17:19:16","新北市新莊區中和街174號","121.447421666667","25.0492916666667","6500500","新莊區"
"242042","566-BX","2018/06/08 17:19:22","新北市新莊區新泰路357巷3弄45號","121.441968333333","25.04021","6500500","新莊區"
"242046","497-BY","2018/06/08 17:19:30","新北市新莊區新樹路65-7號","121.439406666667","25.0307216666667","6500500","新莊區"
"242009","442-UM","2018/06/08 17:19:13","新北市新莊區中華路二段141號","121.452951666667","25.0508783333333","6500500","新莊區"
"242050","441-UM","2018/06/08 17:19:29","新北市新莊區瓊林路59-88號","121.439621666667","25.0212433333333","6500500","新莊區"
"242037","415-TV","2018/06/08 17:19:29","新北市新莊區新樹路207-7號","121.435806666667","25.02383","6500500","新莊區"
"242007","413-TV","2018/06/08 17:19:16","新北市新莊區新泰路500號","121.44235","25.0459033333333","6500500","新莊區"
"242044","400-BY","2018/06/08 17:19:15","新北市新莊區民安路98巷3號","121.423676666667","25.0256733333333","6500500","新莊區"
"242023","362-BY","2018/06/08 17:19:20","新北市新莊區中平路82巷36-2號","121.446388333333","25.044945","6500500","新莊區"
"242060","353-BY","2018/06/08 17:19:17","新北市新莊區三和路12-21號","121.441966666667","25.038365","6500500","新莊區"
"242039","133-UY","2018/06/08 17:19:31","新北市新莊區民安路314號","121.428463333333","25.022045","6500500","新莊區"
"242032","135-UY","2018/06/08 17:19:22","新北市新莊區三和路12-21號","121.442013333333","25.0380583333333","6500500","新莊區"
"242048","172-VK","2018/06/08 17:19:15","新北市新莊區龍安路249-1號","121.419236666667","25.0214966666667","6500500","新莊區"
"242017","175-VK","2018/06/08 17:19:20","新北市新莊區中平路82巷28號","121.446081666667","25.0448533333333","6500500","新莊區"
"242005","176-VK","2018/06/08 17:19:26","新北市新莊區新泰路488號","121.442406666667","25.0457766666667","6500500","新莊區"
"242021","348-TH","2018/06/08 17:19:16","新北市新莊區新泰路486號","121.442478333333","25.04571","6500500","新莊區"
"242056","349-TH","2018/06/08 17:19:14","新北市新莊區中正路471號","121.442115","25.033615","6500500","新莊區"
"242013","351-TH","2018/06/08 17:19:25","新北市新莊區新泰路255巷83號","121.44231","25.0392433333333","6500500","新莊區"
"238023","601-UM","2018/06/08 17:19:17","新北市樹林區中正路433-1號","121.414956666667","25.0081283333333","6500700","樹林區"
"238019","599-UM","2018/06/08 17:19:33","新北市樹林區八德街148號","121.421453333333","24.978645","6500700","樹林區"
"238018","571-TV","2018/06/08 17:19:18","新北市樹林區鎮前街269巷4號","121.420105","24.9854433333333","6500700","樹林區"
"238024","5061-A6","2018/06/08 17:19:20","新北市樹林區保安街一段48巷36號","121.426716666667","24.9955966666667","6500700","樹林區"
"238022","KEA-2213","2018/06/08 17:19:30","新北市樹林區忠孝街26號","121.423628333333","24.982045","6500700","樹林區"
"238021","KEA-2539","2018/06/08 17:19:31","新北市樹林區西圳街一段165巷2號","121.395356666667","24.962045","6500700","樹林區"
"238025","303-VK","2018/06/08 17:19:24","新北市樹林區中山路一段296號","121.420365","24.98643","6500700","樹林區"
"238017","283-BY","2018/06/08 17:19:20","新北市樹林區光武街7-3號","121.41574","25.0052883333333","6500700","樹林區"
"238014","282-BY","2018/06/08 17:19:22","新北市樹林區長壽街70巷38號","121.421881666667","24.9949533333333","6500700","樹林區"
"238020","268-VK","2018/06/08 17:19:32","新北市樹林區俊英街21-7號","121.429083333333","25.002005","6500700","樹林區"
"238026","172-UY","2018/06/08 17:19:29","新北市樹林區味王街46巷7號","121.403843333333","24.9737033333333","6500700","樹林區"
"238016","169-UY","2018/06/08 17:19:17","新北市樹林區中山路一段354號","121.419166666667","24.9858016666667","6500700","樹林區"
"239006","891-R6","2018/06/08 17:19:32","新北市鶯歌區福昌街17號","121.33293","24.96087","6500800","鶯歌區"
"239008","527-UM","2018/06/08 17:19:19","新北市鶯歌區西湖街曾厝巷31號","121.339143333333","24.961635","6500800","鶯歌區"
"239005","526-UM","2018/06/08 17:19:29","新北市鶯歌區鶯桃路561號","121.33022","24.96831","6500800","鶯歌區"
"239001","417-VK","2018/06/08 17:19:21","新北市鶯歌區黃厝街35號","121.342741666667","24.94547","6500800","鶯歌區"
"239003","360-BY","2018/06/08 17:19:30","新北市鶯歌區德昌二街59號","121.333381666667","24.95836","6500800","鶯歌區"
"239002","359-BY","2018/06/08 17:19:16","新北市鶯歌區國慶街82號","121.350196666667","24.9545533333333","6500800","鶯歌區"
"239004","193-VK","2018/06/08 17:19:18","新北市鶯歌區文化路322號","121.352403333333","24.94668","6500800","鶯歌區"
"242011","280-VK","2018/06/08 17:19:25","新北市新莊區新泰路488號","121.442486666667","25.0457716666667","6500500","新莊區"
