"lineid","car","time","location","longitude","latitude","cityid","cityname"
"234026","9371-KE","2018/06/08 17:50:54","","121.513193333333","25.01027","6500400","永和區"
"249005","172-UM","2018/06/08 17:50:35","新北市八里區荖阡里41-1號","121.402418333333","25.134165","6502300","八里區"
"249001","173-UM","2018/06/08 17:50:47","新北市八里區龍米路二段119號","121.446961666667","25.1434916666667","6502300","八里區"
"249004","303-UY","2018/06/08 17:50:40","新北市八里區中華路一段81巷24號","121.419871666667","25.15289","6502300","八里區"
"249002","305-UY","2018/06/08 17:50:56","新北市八里區龍形二街6號","121.450723333333","25.131595","6502300","八里區"
"249003","593-UM","2018/06/08 17:50:51","新北市八里區中山路二段75號","121.406336666667","25.153195","6502300","八里區"
"248008","095-VK","2018/06/08 17:50:50","新北市五股區中興路二段63巷17號","121.460285","25.075235","6501500","五股區"
"232011","375-UM","2018/06/08 17:50:41","新北市坪林區水柳腳132號","121.70883","24.9348916666667","6502000","坪林區"
"244007","080-UY","2018/06/08 17:50:30","新北市林口區佳林路40號","121.386476666667","25.0819733333333","6501700","林口區"
"244019","403-UM","2018/06/08 17:51:02","新北市林口區忠孝路512-1號","121.371483333333","25.06897","6501700","林口區"
"244013","742-UY","2018/06/08 17:50:45","新北市林口區中正路451號","121.3846","25.077755","6501700","林口區"
"244009","410-SL","2018/06/08 17:50:47","新北市林口區寶林路3號","121.386603333333","25.0836933333333","6501700","林口區"
"244023","483-VK","2018/06/08 17:50:48","新北市林口區育林街30號","121.385808333333","25.0737016666667","6501700","林口區"
"244017","485-VK","2018/06/08 17:50:57","新北市林口區公園路185-2號","121.371318333333","25.0725016666667","6501700","林口區"
"244011","657-BX","2018/06/08 17:50:41","新北市林口區仁愛路一段681號","121.38671","25.076595","6501700","林口區"
"244025","837-TS","2018/06/08 17:50:55","新北市林口區忠孝三路42號","121.360238333333","25.0703083333333","6501700","林口區"
"244021","838-TS","2018/06/08 17:50:31","新北市林口區仁愛路一段61巷31號","121.396563333333","25.0697566666667","6501700","林口區"
"222002","659-BX","2018/06/08 17:50:45","新北市深坑區平埔街22巷17弄1號","121.614921666667","25.0008416666667","6501800","深坑區"
"231046","188-VK","2018/06/08 17:50:49","新北市新店區康雅崙路1號","121.540568333333","24.9262483333333","6500600","新店區"
"221035","KEA-2785","2018/06/08 17:50:51","新北市汐止區汐萬路一段208號","121.652096666667","25.072315","6501100","汐止區"
"231055","AKT-0513","2018/06/08 17:51:02","新北市新店區安華路28-1號","121.519555","24.9605533333333","6500600","新店區"
"241024","065-VK","2018/06/08 17:50:33","新北市三重區力行路二段28號","121.481711666667","25.0728366666667","6500200","三重區"
"241005","262-UM","2018/06/08 17:50:59","新北市三重區集賢路87-1號","121.493661666667","25.0868866666667","6500200","三重區"
"241016","266-UM","2018/06/08 17:50:44","新北市三重區新北大道一段7號","121.489648333333","25.061535","6500200","三重區"
"235064","005-UY","2018/06/08 17:50:52","新北市中和區員山路36巷16-3號","121.48507","24.9913516666667","6500300","中和區"
"235065","098-UM","2018/06/08 17:50:45","新北市中和區新生街178號","121.48372","24.9999183333333","6500300","中和區"
"235038","185-VK","2018/06/08 17:50:58","新北市中和區錦和路350-1號","121.490353333333","24.993585","6500300","中和區"
"235062","800-TS","2018/06/08 17:50:59","","121.486661666667","24.9995183333333","6500300","中和區"
"247014","546-UM","2018/06/08 17:50:55","新北市蘆洲區中正路134巷1號","121.469545","25.0852266666667","6501400","蘆洲區"
"247022","500-BY","2018/06/08 17:50:39","","121.464788333333","25.0906183333333","6501400","蘆洲區"
"247010","341-TH","2018/06/08 17:50:50","","121.478893333333","25.08468","6501400","蘆洲區"
"247012","339-TH","2018/06/08 17:50:53","新北市蘆洲區民族路242號","121.479291666667","25.0884616666667","6501400","蘆洲區"
"247004","337-TH","2018/06/08 17:50:53","新北市蘆洲區永康街75號","121.455791666667","25.08523","6501400","蘆洲區"
"247006","336-TH","2018/06/08 17:50:32","新北市蘆洲區九芎街111號","121.465633333333","25.0796516666667","6501400","蘆洲區"
"247018","057-VK","2018/06/08 17:48:19","新北市蘆洲區復興路235號","121.480243333333","25.0898733333333","6501400","蘆洲區"
"247008","056-VK","2018/06/08 17:50:54","","121.47411","25.0798766666667","6501400","蘆洲區"
"247024","053-VK","2018/06/08 17:50:59","新北市蘆洲區光榮路63號","121.46108","25.0885366666667","6501400","蘆洲區"
"247016","007-UY","2018/06/08 17:50:49","新北市蘆洲區中正路185巷23弄8號","121.467171666667","25.084415","6501400","蘆洲區"
"247002","002-UY","2018/06/08 17:50:33","新北市蘆洲區永平街32巷49號","121.45972","25.0924466666667","6501400","蘆洲區"
"247020","001-UY","2018/06/08 17:50:51","新北市蘆洲區民權路190-3號","121.472048333333","25.0908983333333","6501400","蘆洲區"
"228001","212-TW","2018/06/08 17:50:44","新北市貢寮區仁理村仁愛路95-1號","121.92768","25.055415","6502600","貢寮區"
"228002","663-BX","2018/06/08 17:50:31","新北市貢寮區福隆里龜壽谷街27號","121.952675","25.0120283333333","6502600","貢寮區"
"228003","828-UM","2018/06/08 17:50:50","新北市貢寮區真理里美艷山街6-2號","121.928831666667","25.0607366666667","6502600","貢寮區"
"224006","676-BX","2018/06/08 17:51:01","","121.788463333333","25.108275","6501200","瑞芳區"
"224008","285-BY","2018/06/08 17:50:29","新北市瑞芳區明燈路一段47號","121.82068","25.1067783333333","6501200","瑞芳區"
"224009","273-VK","2018/06/08 17:50:34","新北市瑞芳區新山路38號","121.852525","25.1087066666667","6501200","瑞芳區"
"224005","271-BY","2018/06/08 17:50:45","新北市瑞芳區建基路一段70號","121.816608333333","25.1279266666667","6501200","瑞芳區"
"227003","642-TC","2018/06/08 17:50:42","","121.86627","25.0336516666667","6502500","雙溪區"
"253006","295-VK","2018/06/08 17:50:32","新北市石門區中央路1-9號","121.563226666667","25.2909383333333","6502200","石門區"
"208003","665-BX","2018/06/08 17:50:44","新北市金山區磺清路135號","121.639325","25.2276983333333","6502700","金山區"
"251004","009-UM","2018/06/08 17:50:40","新北市淡水區民權一街17巷16號","121.459365","25.136565","6501000","淡水區"
"251005","010-UM","2018/06/08 17:50:51","","121.449946666667","25.1719116666667","6501000","淡水區"
"251002","012-UM","2018/06/08 17:50:56","新北市淡水區中山路42號","121.444243333333","25.1700466666667","6501000","淡水區"
"251010","413-VK","2018/06/08 17:50:46","新北市淡水區中正路二段96號","121.41761","25.18577","6501000","淡水區"
"251012","441-VK","2018/06/08 17:50:39","新北市淡水區水頭43-1號","121.476891666667","25.1857116666667","6501000","淡水區"
"251007","442-VK","2018/06/08 17:50:53","新北市淡水區民生路46號","121.461706666667","25.1378966666667","6501000","淡水區"
"251008","443-VK","2018/06/08 17:50:35","新北市淡水區八勢路一段118號","121.466961666667","25.1566616666667","6501000","淡水區"
"251001","559-UM","2018/06/08 17:50:54","","121.462106666667","25.12668","6501000","淡水區"
"251006","561-UM","2018/06/08 17:50:55","新北市淡水區中山北路一段47號","121.441476666667","25.17552","6501000","淡水區"
"251009","575-R6","2018/06/08 17:50:52","新北市淡水區原德路32號","121.442338333333","25.1719533333333","6501000","淡水區"
"251011","650-BX","2018/06/08 17:49:32","新北市淡水區吳(仔)厝32號","121.479455","25.149175","6501000","淡水區"
"251003","673-BX","2018/06/08 17:50:51","新北市淡水區大忠街8號","121.44306","25.17631","6501000","淡水區"
"207003","550-UM","2018/06/08 17:51:02","","121.692833333333","25.2009716666667","6502800","萬里區"
"207004","225-TW","2018/06/08 17:50:42","新北市萬里區萬里里瑪鋉頂街100-1號","121.687735","25.180455","6502800","萬里區"
"252002","178-VK","2018/06/08 17:50:42","新北市三芝區中山路一段88巷10號","121.502603333333","25.2567316666667","6502100","三芝區"
"252001","292-VK","2018/06/08 17:50:54","新北市三芝區中興街一段28號","121.497658333333","25.2578383333333","6502100","三芝區"
"237009","210-TH","2018/06/08 17:50:58","","121.368051666667","24.9368566666667","6500900","三峽區"
"237013","252-BX","2018/06/08 17:50:33","新北市三峽區介壽路一段172-1號","121.376946666667","24.9311016666667","6500900","三峽區"
"237012","275-BY","2018/06/08 17:50:43","","121.375091666667","24.9361033333333","6500900","三峽區"
"237014","433-BY","2018/06/08 17:50:51","新北市三峽區文化路94巷7號","121.371751666667","24.93673","6500900","三峽區"
"237006","5529-G3","2018/06/08 17:50:47","新北市三峽區介壽路二段38巷76-1號","121.391935","24.9338866666667","6500900","三峽區"
"237011","KEA-2596","2018/06/08 17:50:44","","121.368466666667","24.9273","6500900","三峽區"
"237015","649-BX","2018/06/08 17:50:42","","121.399625","24.9052133333333","6500900","三峽區"
"237010","706-TV","2018/06/08 17:50:50","新北市三峽區文化路256號","121.367035","24.9358066666667","6500900","三峽區"
"237005","AKY-6261","2018/06/08 17:50:56","新北市三峽區中山路459巷66號","121.355885","24.9365633333333","6500900","三峽區"
"236069","105-UM","2018/06/08 17:50:33","新北市土城區城林路6巷80號","121.43867","24.9796233333333","6501300","土城區"
"236042","107-UM","2018/06/08 17:50:53","新北市土城區城林路6巷80號","121.438615","24.979735","6501300","土城區"
"236079","166-UM","2018/06/08 17:50:57","新北市土城區中央路三段64號","121.436688333333","24.9673","6501300","土城區"
"236030","253-BX","2018/06/08 17:50:44","","121.438498333333","24.9795633333333","6501300","土城區"
"236026","269-VK","2018/06/08 17:50:59","新北市土城區城林路6巷80號","121.438475","24.979605","6501300","土城區"
"236014","270-VK","2018/06/08 17:50:56","新北市土城區城林路6巷80號","121.438495","24.97958","6501300","土城區"
"236039","271-VK","2018/06/08 17:50:47","","121.438536666667","24.9797516666667","6501300","土城區"
"236020","401-BY","2018/06/08 17:50:53","","121.43879","24.979655","6501300","土城區"
"236059","912-UM","2018/06/08 17:50:43","","121.437458333333","24.9679083333333","6501300","土城區"
"236048","913-UM","2018/06/08 17:50:52","新北市土城區城林路6巷80號","121.438571666667","24.979725","6501300","土城區"
"236063","915-UM","2018/06/08 17:50:51","","121.438433333333","24.979825","6501300","土城區"
"236055","AAC-216","2018/06/08 17:50:41","新北市土城區城林路6巷80號","121.438471666667","24.97977","6501300","土城區"
"242034","AAC-296","2018/06/08 17:50:38","新北市新莊區新莊路664-2號","121.442358333333","25.03291","6500500","新莊區"
"242058","986-R7","2018/06/08 17:50:56","","121.414828333333","25.0235833333333","6500500","新莊區"
"242054","751-BX","2018/06/08 17:50:51","新北市新莊區民安西路468-1號","121.431671666667","25.0078766666667","6500500","新莊區"
"242027","615-BX","2018/06/08 17:50:46","新北市新莊區福壽街175號","121.457885","25.05398","6500500","新莊區"
"242025","613-BX","2018/06/08 17:50:46","","121.46931","25.06174","6500500","新莊區"
"242029","612-BX","2018/06/08 17:50:16","新北市新莊區復興路一段11號","121.445796666667","25.0416116666667","6500500","新莊區"
"242041","566-BX","2018/06/08 17:50:42","新北市新莊區中正路679號","121.426163333333","25.030035","6500500","新莊區"
"242046","497-BY","2018/06/08 17:50:30","新北市新莊區福營路97巷24號","121.434938333333","25.031695","6500500","新莊區"
"242009","442-UM","2018/06/08 17:50:53","新北市新莊區昌明街32號","121.456688333333","25.05217","6500500","新莊區"
"242050","441-UM","2018/06/08 17:50:49","新北市新莊區西盛街269巷21號","121.428876666667","25.0156066666667","6500500","新莊區"
"242037","415-TV","2018/06/08 17:50:29","新北市新莊區建福路70號","121.426803333333","25.0268616666667","6500500","新莊區"
"242007","413-TV","2018/06/08 17:50:56","新北市新莊區福樂街156巷12弄20號","121.456886666667","25.048725","6500500","新莊區"
"242044","400-BY","2018/06/08 17:50:55","","121.416773333333","25.0268416666667","6500500","新莊區"
"242023","362-BY","2018/06/08 17:50:40","新北市新莊區福樂街37號","121.457613333333","25.047045","6500500","新莊區"
"242060","353-BY","2018/06/08 17:50:37","新北市新莊區新樹路601號","121.433131666667","25.00585","6500500","新莊區"
"242039","133-UY","2018/06/08 17:50:51","新北市新莊區富國路131號","121.424636666667","25.024545","6500500","新莊區"
"242032","135-UY","2018/06/08 17:50:22","新北市新莊區新泰路357巷3弄51號","121.442275","25.0400033333333","6500500","新莊區"
"242048","172-VK","2018/06/08 17:50:54","新北市新莊區萬安街102巷18號","121.420493333333","25.02292","6500500","新莊區"
"242017","175-VK","2018/06/08 17:51:00","新北市新莊區中港路316號","121.452376666667","25.0454783333333","6500500","新莊區"
"242005","176-VK","2018/06/08 17:50:46","新北市新莊區福樂街54號","121.457876666667","25.0460233333333","6500500","新莊區"
"242015","346-TH","2018/06/08 17:50:26","新北市新莊區新泰路502巷40號","121.443721666667","25.04628","6500500","新莊區"
"242021","348-TH","2018/06/08 17:50:36","新北市新莊區永寧街37巷1號","121.452846666667","25.0394816666667","6500500","新莊區"
"242056","349-TH","2018/06/08 17:50:34","新北市新莊區瓊林路40巷29號","121.446638333333","25.0301166666667","6500500","新莊區"
"242019","350-TH","2018/06/08 17:50:41","新北市新莊區復興路二段135號","121.457193333333","25.0444816666667","6500500","新莊區"
"242013","351-TH","2018/06/08 17:50:45","新北市新莊區中和街84號","121.44784","25.0463533333333","6500500","新莊區"
"238023","601-UM","2018/06/08 17:50:37","新北市樹林區龍興街32巷4號","121.402603333333","25.0158583333333","6500700","樹林區"
"238019","599-UM","2018/06/08 17:50:52","新北市樹林區太平路148號","121.418536666667","24.9780566666667","6500700","樹林區"
"238018","571-TV","2018/06/08 17:50:38","新北市樹林區博愛街163-3號","121.425165","24.9898416666667","6500700","樹林區"
"238022","KEA-2213","2018/06/08 17:50:30","新北市樹林區太順街86巷34號","121.416418333333","24.978555","6500700","樹林區"
"238021","KEA-2539","2018/06/08 17:50:51","新北市樹林區柑園街一段30-3號","121.405181666667","24.96124","6500700","樹林區"
"238025","303-VK","2018/06/08 17:50:44","新北市樹林區三俊街70號","121.41329","25.0156716666667","6500700","樹林區"
"238017","283-BY","2018/06/08 17:50:40","新北市樹林區三德街60號","121.416206666667","25.0141383333333","6500700","樹林區"
"238014","282-BY","2018/06/08 17:50:42","","121.423406666667","24.9963483333333","6500700","樹林區"
"238020","268-VK","2018/06/08 17:50:32","新北市樹林區三俊街250號","121.421251666667","25.0149583333333","6500700","樹林區"
"238026","172-UY","2018/06/08 17:50:29","新北市樹林區中洲街30巷6弄14號","121.397141666667","24.9710633333333","6500700","樹林區"
"238016","169-UY","2018/06/08 17:49:37","新北市樹林區復興路337號","121.41773","24.9877966666667","6500700","樹林區"
"239006","891-R6","2018/06/08 17:50:49","","121.330058333333","24.9630866666667","6500800","鶯歌區"
"239008","527-UM","2018/06/08 17:50:59","","121.337935","24.9795516666667","6500800","鶯歌區"
"239005","526-UM","2018/06/08 17:50:09","新北市鶯歌區鳳吉四街19號","121.326656666667","24.9727066666667","6500800","鶯歌區"
"239001","417-VK","2018/06/08 17:50:41","新北市鶯歌區中正三路280-3號","121.328901666667","24.9359716666667","6500800","鶯歌區"
"239003","360-BY","2018/06/08 17:50:50","新北市鶯歌區鶯桃路262號","121.335726666667","24.959825","6500800","鶯歌區"
"239002","359-BY","2018/06/08 17:50:36","新北市鶯歌區中山路329巷22弄17號","121.344608333333","24.9558283333333","6500800","鶯歌區"
"239004","193-VK","2018/06/08 17:50:58","新北市鶯歌區文化路503號","121.352816666667","24.948655","6500800","鶯歌區"
"221008","489-VK","2018/06/08 17:50:50","新北市汐止區汐萬路一段312號","121.650551666667","25.0753866666667","6501100","汐止區"
"221036","130-UY","2018/06/08 17:50:44","","121.652066666667","25.0724083333333","6501100","汐止區"
"221015","131-UY","2018/06/08 17:50:42","","121.657853333333","25.0724966666667","6501100","汐止區"
"221010","269-BY","2018/06/08 17:50:31","新北市汐止區汐萬路二段109號","121.648313333333","25.0836283333333","6501100","汐止區"
"221012","278-VK","2018/06/08 17:50:37","新北市汐止區汐萬路一段160號","121.652666666667","25.0714816666667","6501100","汐止區"
"221023","279-VK","2018/06/08 17:50:54","","121.634896666667","25.0706166666667","6501100","汐止區"
"221032","280-BY","2018/06/08 17:50:56","新北市汐止區中興路62號","121.635548333333","25.0615566666667","6501100","汐止區"
"221027","281-BY","2018/06/08 17:50:44","新北市汐止區汐萬路一段257號","121.65086","25.0739983333333","6501100","汐止區"
"221029","298-VK","2018/06/08 17:50:39","新北市汐止區康寧街901號","121.651288333333","25.07504","6501100","汐止區"
"221021","299-VK","2018/06/08 17:50:57","新北市汐止區中正路311號","121.655928333333","25.0676283333333","6501100","汐止區"
"221031","353-TW","2018/06/08 17:50:40","新北市汐止區中興路60號","121.635643333333","25.0615616666667","6501100","汐止區"
"221025","623-UM","2018/06/08 17:50:34","新北市汐止區汐萬路一段150號","121.652718333333","25.0712566666667","6501100","汐止區"
"221038","646-BX","2018/06/08 17:50:41","新北市汐止區汐萬路一段227號","121.651833333333","25.0726216666667","6501100","汐止區"
"221033","647-BX","2018/06/08 17:50:16","新北市汐止區林森街78號","121.623745","25.0407516666667","6501100","汐止區"
"221002","707-TV","2018/06/08 17:51:02","新北市汐止區康寧街901號","121.651433333333","25.0750133333333","6501100","汐止區"
"221018","753-BX","2018/06/08 17:50:43","新北市汐止區汐萬路一段81號","121.654588333333","25.07025","6501100","汐止區"
"242002","KEA-2550","2018/06/08 17:50:37","新北市新莊區景德路106號","121.451473333333","25.034345","6500500","新莊區"
"242011","280-VK","2018/06/08 17:50:45","新北市新莊區中港路679號","121.450623333333","25.05625","6500500","新莊區"
