"lineid","car","time","location","longitude","latitude","cityid","cityname"
"234026","9371-KE","2018/06/08 19:54:54","新北市永和區雙和街52巷2號","121.509023333333","25.0030966666667","6500400","永和區"
"234011","9373-KE","2018/06/08 19:54:14","新北市永和區仁愛路352巷94號","121.501168333333","25.00797","6500400","永和區"
"249005","172-UM","2018/06/08 19:54:15","新北市八里區長坑口38-1號","121.388938333333","25.1284033333333","6502300","八里區"
"249001","173-UM","2018/06/08 19:54:55","新北市八里區中華路二段288號","121.404408333333","25.1488783333333","6502300","八里區"
"249004","303-UY","2018/06/08 19:54:35","新北市八里區中山路一段217巷38號","121.411076666667","25.15623","6502300","八里區"
"249002","305-UY","2018/06/08 19:54:16","新北市八里區頂寮二街21號","121.450418333333","25.1247233333333","6502300","八里區"
"249003","593-UM","2018/06/08 19:54:44","新北市八里區中華路二段538-2號","121.398841666667","25.1452233333333","6502300","八里區"
"248016","026-BX","2018/06/08 19:54:09","新北市五股區成泰路三段577巷88號","121.44946","25.103875","6501500","五股區"
"248008","095-VK","2018/06/08 19:53:30","新北市五股區四維路55號","121.4672","25.0716166666667","6501500","五股區"
"248018","225-UY","2018/06/08 19:53:09","新北市五股區登林路106巷3號","121.42692","25.07093","6501500","五股區"
"248014","261-SL","2018/06/08 19:53:04","新北市五股區五福路70號","121.433133333333","25.0900833333333","6501500","五股區"
"248010","272-BY","2018/06/08 19:54:08","新北市五股區登林路79-4號","121.427621666667","25.0706033333333","6501500","五股區"
"248004","677-BX","2018/06/08 19:54:26","新北市五股區成泰路一段106-1號","121.435706666667","25.07198","6501500","五股區"
"248002","678-BX","2018/06/08 19:53:06","新北市五股區成泰路三段621號","121.452715","25.1038633333333","6501500","五股區"
"244007","080-UY","2018/06/08 19:55:09","新北市林口區粉寮69號","121.404976666667","25.0908833333333","6501700","林口區"
"244019","403-UM","2018/06/08 19:53:02","新北市林口區太平里180號","121.368471666667","25.1339833333333","6501700","林口區"
"244013","742-UY","2018/06/08 19:55:25","新北市林口區太平里180號","121.367898333333","25.1337683333333","6501700","林口區"
"244009","410-SL","2018/06/08 19:54:47","新北市林口區粉寮69號","121.405015","25.0908783333333","6501700","林口區"
"244023","483-VK","2018/06/08 19:54:48","新北市林口區文化北路二段300號","121.374496666667","25.0877266666667","6501700","林口區"
"244017","485-VK","2018/06/08 19:53:57","新北市林口區太平里180號","121.368438333333","25.1342883333333","6501700","林口區"
"244011","657-BX","2018/06/08 19:54:41","新北市林口區太平里180號","121.366636666667","25.1341566666667","6501700","林口區"
"244025","837-TS","2018/06/08 19:55:35","新北市八里區長道坑33號","121.398871666667","25.10056","6501700","林口區"
"244021","838-TS","2018/06/08 19:53:15","新北市林口區粉寮路二段160巷28號","121.405198333333","25.0907283333333","6501700","林口區"
"222003","436-BY","2018/06/08 19:55:30","新北市深坑區深南路31號","121.619548333333","25.0097016666667","6501800","深坑區"
"222002","659-BX","2018/06/08 19:55:25","新北市深坑區北深路二段55巷12弄2號","121.619016666667","25.0034233333333","6501800","深坑區"
"231041","002-UM","2018/06/08 19:53:16","新北市新店區中央路45號","121.53291","24.9775483333333","6500600","新店區"
"231059","046-UY","2018/06/08 19:54:04","新北市新店區安和路二段77號","121.51848","24.9688716666667","6500600","新店區"
"231040","047-UY","2018/06/08 19:55:17","新北市新店區中正路75巷71號","121.543238333333","24.9688316666667","6500600","新店區"
"231048","187-VK","2018/06/08 19:53:33","新北市新店區中興路二段226號","121.548018333333","24.9751816666667","6500600","新店區"
"231046","188-VK","2018/06/08 19:55:09","新北市新店區三民路159巷19弄34號","121.532368333333","24.9734183333333","6500600","新店區"
"221035","KEA-2785","2018/06/08 19:55:11","新北市汐止區長江街57巷1號","121.656336666667","25.0715533333333","6501100","汐止區"
"231042","268-BY","2018/06/08 19:54:31","新北市新店區中興路一段279號","121.545051666667","24.9683066666667","6500600","新店區"
"231051","278-BY","2018/06/08 19:53:55","新北市新店區中央三街28號","121.528408333333","24.9739383333333","6500600","新店區"
"231050","AAD-862","2018/06/08 19:55:21","新北市新店區北宜路二段205號","121.553055","24.95324","6500600","新店區"
"231066","4716-K9","2018/06/08 19:54:12","新北市新店區吉安街41號","121.515173333333","24.96618","6500600","新店區"
"231056","4715-K9","2018/06/08 19:54:27","新北市新店區民權路42巷6弄2號","121.540376666667","24.98323","6500600","新店區"
"231061","619-UM","2018/06/08 19:54:26","新北市新店區安民街325號","121.517435","24.97455","6500600","新店區"
"231064","719-UM","2018/06/08 19:53:12","新北市新店區光華街8巷14號","121.51803","24.9694366666667","6500600","新店區"
"231060","897-TW","2018/06/08 19:53:38","新北市新店區安康路二段360號","121.502081666667","24.9574366666667","6500600","新店區"
"231043","899-TW","2018/06/08 19:52:41","新北市新店區中正路263-2號","121.538436666667","24.9737383333333","6500600","新店區"
"231055","AKT-0513","2018/06/08 19:55:01","新北市新店區中華路83巷67號","121.538361666667","24.9672633333333","6500600","新店區"
"235064","005-UY","2018/06/08 19:55:31","新北市中和區橋和路270號","121.495823333333","25.00659","6500300","中和區"
"235063","006-UY","2018/06/08 19:54:24","新北市中和區橋和路148號","121.49383","25.00541","6500300","中和區"
"235065","098-UM","2018/06/08 19:52:45","新北市中和區永和路39巷2號","121.497983333333","25.0049766666667","6500300","中和區"
"235040","150-BY","2018/06/08 19:54:25","新北市中和區安平路30號","121.509608333333","24.9948366666667","6500300","中和區"
"235058","151-BY","2018/06/08 19:53:26","新北市中和區員山路152-1號","121.481383333333","24.9983966666667","6500300","中和區"
"235038","185-VK","2018/06/08 19:54:57","新北市中和區景新街264號","121.509928333333","24.9929083333333","6500300","中和區"
"235042","551-UM","2018/06/08 19:54:49","新北市中和區保健路11號","121.507986666667","24.9983683333333","6500300","中和區"
"235070","558-UM","2018/06/08 19:54:44","新北市中和區圓通路144號","121.498196666667","24.995725","6500300","中和區"
"235060","647-TV","2018/06/08 19:54:15","新北市中和區新生街114巷1號","121.483483333333","25.0023383333333","6500300","中和區"
"235046","733-UM","2018/06/08 19:53:44","新北市中和區興南路一段71號","121.5101","24.9893083333333","6500300","中和區"
"235062","800-TS","2018/06/08 19:32:22","新北市中和區員山路36巷16-2號","121.485168333333","24.9914733333333","6500300","中和區"
"235057","801-TS","2018/06/08 19:54:23","新北市中和區中正路830號","121.484853333333","25.00407","6500300","中和區"
"235041","802-TS","2018/06/08 19:53:07","新北市中和區中安街8號","121.513546666667","25.00325","6500300","中和區"
"235051","157-BY","2018/06/08 19:54:47","新北市中和區中興街233巷10號","121.501461666667","24.989495","6500300","中和區"
"247014","546-UM","2018/06/08 19:52:50","","121.47102","25.0840366666667","6501400","蘆洲區"
"247012","339-TH","2018/06/08 19:54:10","新北市蘆洲區中興街179號","121.481891666667","25.089985","6501400","蘆洲區"
"247016","007-UY","2018/06/08 19:54:49","新北市蘆洲區中正路261號","121.467443333333","25.087285","6501400","蘆洲區"
"247002","002-UY","2018/06/08 19:55:31","新北市蘆洲區永樂街33號","121.458036666667","25.0880933333333","6501400","蘆洲區"
"228001","212-TW","2018/06/08 19:53:24","新北市貢寮區真理里新港街26巷22-11號","121.926355","25.0548616666667","6502600","貢寮區"
"228002","663-BX","2018/06/08 19:55:31","新北市貢寮區貢寮里朝陽街1-2號","121.912061666667","25.02128","6502600","貢寮區"
"228003","828-UM","2018/06/08 19:54:50","新北市貢寮區真理里延平街37號","121.924645","25.0553733333333","6502600","貢寮區"
"224006","676-BX","2018/06/08 19:54:20","新北市瑞芳區傑魚坑路73號","121.79321","25.110485","6501200","瑞芳區"
"224002","639-TC","2018/06/08 19:55:31","新北市瑞芳區員山子路員山巷3-1號","121.81723","25.1035966666667","6501200","瑞芳區"
"224008","285-BY","2018/06/08 19:36:44","新北市瑞芳區大寮路356-1號","121.784895","25.1032183333333","6501200","瑞芳區"
"224009","273-VK","2018/06/08 19:55:34","新北市瑞芳區靜安路四段5號","121.796081666667","25.0785966666667","6501200","瑞芳區"
"227003","642-TC","2018/06/08 19:53:02","新北市雙溪區雙溪里太平路54號","121.864815","25.035525","6502500","雙溪區"
"253006","295-VK","2018/06/08 19:49:47","新北市石門區中山路64-1號","121.56764","25.2903316666667","6502200","石門區"
"222001","KEA-2212","2018/06/08 19:54:38","新北市深坑區北深路三段69號","121.60655","25.00134","6501800","深坑區"
"208002","KEA-2872","2018/06/08 19:54:23","新北市金山區中華路366-1號","121.633266666667","25.2245083333333","6502700","金山區"
"208003","665-BX","2018/06/08 19:54:04","新北市金山區永興里忠義路27號","121.631806666667","25.2612483333333","6502700","金山區"
"208001","761-BX","2018/06/08 19:54:45","新北市金山區南勢湖36-1號","121.61429","25.2179916666667","6502700","金山區"
"251004","009-UM","2018/06/08 19:54:35","新北市淡水區民權路187巷79弄1號","121.460666666667","25.1344433333333","6501000","淡水區"
"251005","010-UM","2018/06/08 19:55:31","新北市淡水區學府路108號","121.450056666667","25.17209","6501000","淡水區"
"251002","012-UM","2018/06/08 19:54:56","新北市淡水區新市一路一段6號","121.428863333333","25.1872","6501000","淡水區"
"251010","413-VK","2018/06/08 19:55:26","新北市淡水區下圭柔山91-3號","121.430913333333","25.2111933333333","6501000","淡水區"
"251012","441-VK","2018/06/08 19:54:19","新北市淡水區下圭柔山70-4號","121.446525","25.207445","6501000","淡水區"
"251007","442-VK","2018/06/08 19:53:52","新北市淡水區竿蓁二街68號","121.455361666667","25.163655","6501000","淡水區"
"251008","443-VK","2018/06/08 19:54:19","新北市淡水區中正路一段24巷11號","121.426711666667","25.177065","6501000","淡水區"
"251001","559-UM","2018/06/08 19:53:14","新北市淡水區淡金路一段20號","121.460265","25.1707416666667","6501000","淡水區"
"251006","561-UM","2018/06/08 19:55:15","新北市淡水區水碓街15號","121.443505","25.17695","6501000","淡水區"
"251009","575-R6","2018/06/08 19:54:32","新北市淡水區中山路30號","121.444353333333","25.16981","6501000","淡水區"
"251011","650-BX","2018/06/08 19:54:55","新北市淡水區崁頂55-3號","121.442308333333","25.196615","6501000","淡水區"
"251003","673-BX","2018/06/08 19:53:51","新北市淡水區中山北路三段79號","121.444523333333","25.1921","6501000","淡水區"
"207003","550-UM","2018/06/08 19:55:22","新北市萬里區磺潭里公館崙5號","121.641898333333","25.2142266666667","6502800","萬里區"
"207004","225-TW","2018/06/08 19:55:22","新北市萬里區北基里忠二街35號","121.685638333333","25.1757516666667","6502800","萬里區"
"252002","178-VK","2018/06/08 19:55:21","新北市三芝區忠孝街116-3號","121.505455","25.2575883333333","6502100","三芝區"
"252001","292-VK","2018/06/08 19:55:14","新北市三芝區公正街66號","121.49979","25.257445","6502100","三芝區"
"237007","153-BY","2018/06/08 19:53:50","新北市三峽區麻園36-6號","121.363776666667","24.920725","6500900","三峽區"
"237009","210-TH","2018/06/08 19:54:58","新北市三峽區民族街54號","121.369531666667","24.9304766666667","6500900","三峽區"
"237013","252-BX","2018/06/08 19:54:32","新北市三峽區三樹路98巷175號","121.384295","24.939875","6500900","三峽區"
"237012","275-BY","2018/06/08 19:55:22","新北市三峽區中華路127號","121.37128","24.927745","6500900","三峽區"
"237008","302-VK","2018/06/08 19:53:54","新北市三峽區中華路63巷5號","121.372563333333","24.9303033333333","6500900","三峽區"
"237014","433-BY","2018/06/08 19:55:30","新北市三峽區添福59-13號","121.374086666667","24.9033116666667","6500900","三峽區"
"237006","5529-G3","2018/06/08 19:53:47","新北市三峽區中正路二段125-3號","121.366226666667","24.9164466666667","6500900","三峽區"
"237011","KEA-2596","2018/06/08 19:55:24","新北市三峽區中山路321-2號","121.360885","24.9380266666667","6500900","三峽區"
"237015","649-BX","2018/06/08 19:55:21","新北市三峽區介壽路二段138巷1弄164號","121.403163333333","24.9277466666667","6500900","三峽區"
"237010","706-TV","2018/06/08 19:54:50","新北市三峽區中山路459巷137號","121.349673333333","24.933695","6500900","三峽區"
"237005","AKY-6261","2018/06/08 19:54:36","新北市三峽區民生街71號","121.37506","24.93608","6500900","三峽區"
"236069","105-UM","2018/06/08 19:53:33","新北市土城區慶和街13號","121.439385","24.9718533333333","6501300","土城區"
"236042","107-UM","2018/06/08 19:52:53","新北市土城區裕民路185巷7號","121.453923333333","24.984815","6501300","土城區"
"236079","166-UM","2018/06/08 19:55:37","新北市土城區中山路10號","121.41614","24.9618866666667","6501300","土城區"
"236030","253-BX","2018/06/08 19:52:44","新北市土城區中央路一段280號","121.443656666667","24.9827666666667","6501300","土城區"
"236026","269-VK","2018/06/08 19:53:19","新北市土城區員林街61巷2弄7號","121.444365","24.9776366666667","6501300","土城區"
"236014","270-VK","2018/06/08 19:54:36","新北市土城區廣福街121號","121.456276666667","24.99281","6501300","土城區"
"236039","271-VK","2018/06/08 19:54:06","新北市土城區國際路139巷54號","121.46848","24.977555","6501300","土城區"
"236020","401-BY","2018/06/08 19:52:53","新北市土城區延吉街137巷3號","121.47079","24.9860483333333","6501300","土城區"
"236059","912-UM","2018/06/08 19:55:23","新北市土城區中央路一段191號","121.446061666667","24.98713","6501300","土城區"
"236048","913-UM","2018/06/08 19:53:12","新北市土城區金城路二段360-2號","121.462006666667","24.9851833333333","6501300","土城區"
"236063","915-UM","2018/06/08 19:53:31","新北市土城區延和路89號","121.467066666667","24.9898966666667","6501300","土城區"
"236055","AAC-216","2018/06/08 19:53:41","新北市土城區延和路248-1號","121.469806666667","24.9897616666667","6501300","土城區"
"242034","AAC-296","2018/06/08 19:53:02","新北市新莊區建中街90巷5弄20號","121.445726666667","25.0373283333333","6500500","新莊區"
"242058","986-R7","2018/06/08 19:55:30","新北市新莊區民安路426號","121.432363333333","25.0229083333333","6500500","新莊區"
"242054","751-BX","2018/06/08 19:55:11","新北市新莊區民安西路303號","121.426905","25.0117416666667","6500500","新莊區"
"242027","615-BX","2018/06/08 19:55:25","新北市新莊區立信三街25-2號","121.44293","25.050375","6500500","新莊區"
"242025","613-BX","2018/06/08 19:53:40","新北市新莊區五工三路86巷30號","121.459616666667","25.0661416666667","6500500","新莊區"
"242029","612-BX","2018/06/08 19:53:35","新北市新莊區中平路308號","121.444771666667","25.051945","6500500","新莊區"
"242041","566-BX","2018/06/08 19:54:49","新北市新莊區新北大道七段510號","121.412336666667","25.0290683333333","6500500","新莊區"
"242046","497-BY","2018/06/08 19:55:10","新北市新莊區新樹路239-1號","121.435103333333","25.0222933333333","6500500","新莊區"
"242009","442-UM","2018/06/08 19:55:20","新北市新莊區中和街61號","121.447493333333","25.0469433333333","6500500","新莊區"
"242050","441-UM","2018/06/08 19:55:36","新北市新莊區民本街27巷1號","121.428306666667","25.0193333333333","6500500","新莊區"
"242037","415-TV","2018/06/08 19:53:24","新北市新莊區民安路207巷32弄4號","121.428236666667","25.0242083333333","6500500","新莊區"
"242007","413-TV","2018/06/08 19:53:39","新北市新莊區思源路593巷6弄10號","121.45922","25.0599083333333","6500500","新莊區"
"242044","400-BY","2018/06/08 19:53:35","新北市新莊區新北大道七段367號","121.412381666667","25.0266283333333","6500500","新莊區"
"242023","362-BY","2018/06/08 19:53:14","新北市新莊區化成路324號","121.465753333333","25.04858","6500500","新莊區"
"242060","353-BY","2018/06/08 19:52:54","新北市新莊區瓊林路96-4號","121.44404","25.0272866666667","6500500","新莊區"
"242039","133-UY","2018/06/08 19:53:29","新北市新莊區民安路299巷25弄14號","121.428948333333","25.023435","6500500","新莊區"
"242032","135-UY","2018/06/08 19:53:30","新北市新莊區忠孝街26號","121.443961666667","25.035495","6500500","新莊區"
"242048","172-VK","2018/06/08 19:52:54","新北市新莊區建安街121巷7號","121.426525","25.0235066666667","6500500","新莊區"
"242017","175-VK","2018/06/08 19:53:51","新北市新莊區中安街6號","121.452931666667","25.0452566666667","6500500","新莊區"
"242005","176-VK","2018/06/08 19:53:26","新北市新莊區化成路63巷24弄49號","121.461943333333","25.0460033333333","6500500","新莊區"
"242015","346-TH","2018/06/08 19:54:00","新北市新莊區泰順街53號","121.447631666667","25.0431233333333","6500500","新莊區"
"242021","348-TH","2018/06/08 19:53:30","新北市新莊區建中街16巷18號","121.449421666667","25.038425","6500500","新莊區"
"242056","349-TH","2018/06/08 19:52:58","新北市新莊區新豐街36號","121.447823333333","25.0340633333333","6500500","新莊區"
"242019","350-TH","2018/06/08 19:53:14","新北市新莊區明智街17號","121.454285","25.0413166666667","6500500","新莊區"
"242013","351-TH","2018/06/08 19:54:17","新北市新莊區中港路417巷9號","121.451621666667","25.04751","6500500","新莊區"
"238015","755-BX","2018/06/08 19:55:00","新北市樹林區中山路三段341號","121.390358333333","24.9710016666667","6500700","樹林區"
"238023","601-UM","2018/06/08 19:54:57","新北市樹林區大安路161號","121.421438333333","24.9967483333333","6500700","樹林區"
"238019","599-UM","2018/06/08 19:54:57","新北市樹林區中山路三段204號","121.387251666667","24.968325","6500700","樹林區"
"238018","571-TV","2018/06/08 19:54:37","新北市樹林區育德街78-1號","121.387301666667","24.9681316666667","6500700","樹林區"
"238024","5061-A6","2018/06/08 19:55:00","新北市樹林區中山路三段204號","121.387133333333","24.968345","6500700","樹林區"
"238022","KEA-2213","2018/06/08 19:54:50","新北市樹林區中山路三段107號","121.39972","24.9746383333333","6500700","樹林區"
"238021","KEA-2539","2018/06/08 19:52:43","新北市樹林區佳園路三段99巷31號","121.390655","24.9522133333333","6500700","樹林區"
"238025","303-VK","2018/06/08 19:55:24","新北市樹林區中山路三段210-2號","121.380781666667","24.9661783333333","6500700","樹林區"
"238017","283-BY","2018/06/08 19:54:20","新北市樹林區中山路三段214號","121.380005","24.967905","6500700","樹林區"
"238014","282-BY","2018/06/08 19:54:22","新北市樹林區中洲街30巷13弄35號","121.398235","24.9723483333333","6500700","樹林區"
"238020","268-VK","2018/06/08 19:54:52","新北市樹林區中山路三段214號","121.38017","24.9678766666667","6500700","樹林區"
"238026","172-UY","2018/06/08 19:55:29","新北市樹林區育德街78號","121.387541666667","24.9684016666667","6500700","樹林區"
"238016","169-UY","2018/06/08 19:51:22","新北市樹林區中山路三段204號","121.386845","24.9682833333333","6500700","樹林區"
"239007","AAC-297","2018/06/08 19:55:12","新北市樹林區中山路三段214號","121.380431666667","24.96787","6500800","鶯歌區"
"239006","891-R6","2018/06/08 19:54:09","新北市鶯歌區文化路9號","121.360805","24.95663","6500800","鶯歌區"
"239008","527-UM","2018/06/08 19:54:19","新北市鶯歌區二甲路13-16號","121.344916666667","24.9351716666667","6500800","鶯歌區"
"239005","526-UM","2018/06/08 19:54:09","新北市鶯歌區環河路177-3號","121.34615","24.93508","6500800","鶯歌區"
"239001","417-VK","2018/06/08 19:54:21","新北市鶯歌區文化路501-31號","121.354408333333","24.94753","6500800","鶯歌區"
"239003","360-BY","2018/06/08 19:54:50","新北市鶯歌區二甲路12-2號","121.345775","24.93487","6500800","鶯歌區"
"239002","359-BY","2018/06/08 19:55:16","新北市鶯歌區二甲路13-16號","121.345441666667","24.9351933333333","6500800","鶯歌區"
"239004","193-VK","2018/06/08 19:52:58","新北市鶯歌區環河路85號","121.34735","24.939595","6500800","鶯歌區"
"221008","489-VK","2018/06/08 19:54:51","台北市內湖區康樂街20巷2號","121.618146666667","25.068195","6501100","汐止區"
"221036","130-UY","2018/06/08 19:55:24","新北市汐止區信義路7號","121.662138333333","25.0692183333333","6501100","汐止區"
"221015","131-UY","2018/06/08 19:53:42","新北市汐止區橋東街41巷5號","121.666383333333","25.07508","6501100","汐止區"
"221010","269-BY","2018/06/08 19:54:11","新北市汐止區連峰街234號","121.645421666667","25.0807716666667","6501100","汐止區"
"221012","278-VK","2018/06/08 19:55:17","新北市汐止區大同路三段457號","121.678698333333","25.0712383333333","6501100","汐止區"
"221023","279-VK","2018/06/08 19:52:43","新北市汐止區民族六街6巷1號","121.629833333333","25.0697933333333","6501100","汐止區"
"221032","280-BY","2018/06/08 19:54:36","新北市汐止區橫科路119號","121.619986666667","25.05042","6501100","汐止區"
"221027","281-BY","2018/06/08 19:53:24","新北市汐止區中正路42號","121.662116666667","25.0703316666667","6501100","汐止區"
"221029","298-VK","2018/06/08 19:54:39","新北市汐止區樟樹一路141巷29號","121.641111666667","25.0664866666667","6501100","汐止區"
"221021","299-VK","2018/06/08 19:54:36","新北市汐止區水源路一段143號","121.655946666667","25.0623183333333","6501100","汐止區"
"221031","353-TW","2018/06/08 19:54:20","新北市汐止區福德一路176巷7弄7號","121.634871666667","25.06636","6501100","汐止區"
"221025","623-UM","2018/06/08 19:54:33","新北市汐止區仁愛路113巷11號","121.662058333333","25.0638383333333","6501100","汐止區"
"221038","646-BX","2018/06/08 19:55:21","新北市汐止區忠孝東路428號","121.665963333333","25.07198","6501100","汐止區"
"221033","647-BX","2018/06/08 19:53:36","新北市汐止區東勢街216巷22弄23號","121.634568333333","25.0387816666667","6501100","汐止區"
"221002","707-TV","2018/06/08 19:55:22","新北市汐止區工建路504號","121.633218333333","25.05835","6501100","汐止區"
"221018","753-BX","2018/06/08 19:55:23","新北市汐止區大同路二段613號","121.664125","25.0708683333333","6501100","汐止區"
"242002","KEA-2550","2018/06/08 19:54:17","新北市新莊區新泰路42號","121.449493333333","25.0343116666667","6500500","新莊區"
"220031","286-VK","2018/06/08 19:53:52","新北市板橋區僑中二街12巷4號","121.446671666667","25.0106633333333","6500100","板橋區"
"242011","280-VK","2018/06/08 19:54:45","新北市新莊區中信街36號","121.450016666667","25.0509083333333","6500500","新莊區"
"235068","KEA-2873","2018/06/08 19:55:19","新北市中和區福美路269號","121.498115","25.0050716666667","6500300","中和區"
"235025","KEA-2875","2018/06/08 19:53:48","新北市中和區民安街25巷4號","121.480468333333","25.0000966666667","6500300","中和區"
