"lineid","car","time","location","longitude","latitude","cityid","cityname"
"234026","9371-KE","2018/06/08 20:02:14","新北市永和區水源街21巷14弄3號","121.511471666667","25.0037716666667","6500400","永和區"
"234011","9373-KE","2018/06/08 20:05:14","新北市永和區仁愛路352巷122弄33號","121.500805","25.0092883333333","6500400","永和區"
"249005","172-UM","2018/06/08 19:59:55","新北市八里區楓林路3-1號","121.382426666667","25.1304383333333","6502300","八里區"
"249001","173-UM","2018/06/08 20:10:55","新北市八里區中華路二段326號","121.403251666667","25.148005","6502300","八里區"
"249004","303-UY","2018/06/08 20:10:55","新北市八里區中山路一段418-7號","121.410701666667","25.1583966666667","6502300","八里區"
"249002","305-UY","2018/06/08 20:06:56","新北市八里區龍米路一段25號","121.457013333333","25.1162733333333","6502300","八里區"
"249003","593-UM","2018/06/08 20:06:44","新北市八里區中山路二段540巷26號","121.397196666667","25.1468666666667","6502300","八里區"
"248016","026-BX","2018/06/08 20:04:29","新北市五股區成泰路三段577巷80弄72號","121.448931666667","25.1047583333333","6501500","五股區"
"248006","077-UY","2018/06/08 20:15:51","新北市五股區中興路二段37巷28號","121.459926666667","25.0745616666667","6501500","五股區"
"248008","095-VK","2018/06/08 20:05:50","新北市五股區中興路一段1巷12弄23號","121.46936","25.0705883333333","6501500","五股區"
"248018","225-UY","2018/06/08 20:09:28","新北市五股區自強路137號","121.432211666667","25.069665","6501500","五股區"
"248014","261-SL","2018/06/08 20:01:23","新北市五股區五福路14巷24號","121.435453333333","25.0888033333333","6501500","五股區"
"248010","272-BY","2018/06/08 20:02:27","新北市五股區成泰路一段7巷14弄3號","121.43328","25.06713","6501500","五股區"
"248004","677-BX","2018/06/08 20:05:27","新北市五股區成泰路一段28-1號","121.434885","25.06788","6501500","五股區"
"248002","678-BX","2018/06/08 20:01:46","新北市五股區成泰路三段475號","121.450521666667","25.0985233333333","6501500","五股區"
"244007","080-UY","2018/06/08 19:58:18","新北市林口區粉寮69號","121.404981666667","25.0908766666667","6501700","林口區"
"244019","403-UM","2018/06/08 20:09:02","新北市林口區粉寮路37-1號","121.401038333333","25.084765","6501700","林口區"
"244013","742-UY","2018/06/08 20:15:25","新北市林口區粉寮路二段160巷28號","121.405131666667","25.09076","6501700","林口區"
"244009","410-SL","2018/06/08 19:58:27","新北市林口區粉寮69號","121.405023333333","25.090875","6501700","林口區"
"244023","483-VK","2018/06/08 20:13:28","新北市八里區中山路三段390號","121.36821","25.1357216666667","6501700","林口區"
"244017","485-VK","2018/06/08 20:14:17","新北市八里區長道坑34-2號","121.39902","25.0894916666667","6501700","林口區"
"244011","657-BX","2018/06/08 20:15:01","新北市林口區粉寮路60-17號","121.404328333333","25.0901533333333","6501700","林口區"
"244025","837-TS","2018/06/08 20:12:35","新北市林口區粉寮69號","121.405038333333","25.0908283333333","6501700","林口區"
"244021","838-TS","2018/06/08 19:53:15","新北市林口區粉寮路二段160巷28號","121.405198333333","25.0907283333333","6501700","林口區"
"222003","436-BY","2018/06/08 20:10:10","新北市深坑區埔新街62號","121.620135","25.0024583333333","6501800","深坑區"
"222002","659-BX","2018/06/08 20:11:25","新北市深坑區北深路三段158巷32弄1號","121.601611666667","25.0044516666667","6501800","深坑區"
"231041","002-UM","2018/06/08 20:04:56","新北市新店區中正路441號","121.53403","24.9785483333333","6500600","新店區"
"231059","046-UY","2018/06/08 20:06:24","新北市新店區安康路二段186號","121.511328333333","24.96024","6500600","新店區"
"231040","047-UY","2018/06/08 20:15:17","新北市新店區中正路108號","121.543103333333","24.9706966666667","6500600","新店區"
"231048","187-VK","2018/06/08 20:08:33","新北市新店區寶橋路75號","121.545548333333","24.9751416666667","6500600","新店區"
"231046","188-VK","2018/06/08 20:08:49","新北市新店區安民街65巷15-2號","121.515456666667","24.9667133333333","6500600","新店區"
"221035","KEA-2785","2018/06/08 20:15:11","新北市汐止區長江街101-5號","121.658696666667","25.073185","6501100","汐止區"
"231042","268-BY","2018/06/08 20:02:11","新北市新店區中興路二段89號","121.547146666667","24.9715166666667","6500600","新店區"
"231051","278-BY","2018/06/08 20:12:16","新北市新店區中央六街23號","121.529531666667","24.974935","6500600","新店區"
"231050","AAD-862","2018/06/08 20:16:01","新北市新店區北新路一段130號","121.542558333333","24.9703866666667","6500600","新店區"
"231066","4716-K9","2018/06/08 20:06:12","新北市新店區柴埕路60巷15-3號","121.508118333333","24.9654583333333","6500600","新店區"
"231056","4715-K9","2018/06/08 20:07:07","新北市新店區中正路188號","121.5408","24.9722416666667","6500600","新店區"
"231061","619-UM","2018/06/08 20:12:06","新北市新店區安興路33-1號","121.515811666667","24.9703783333333","6500600","新店區"
"231064","719-UM","2018/06/08 20:06:52","新北市新店區安康路二段58巷9號","121.513366666667","24.9639633333333","6500600","新店區"
"231060","897-TW","2018/06/08 20:09:58","新北市新店區安康路三段456號","121.484325","24.9511983333333","6500600","新店區"
"231043","899-TW","2018/06/08 20:09:01","新北市新店區中正路326號","121.536856666667","24.9748233333333","6500600","新店區"
"231055","AKT-0513","2018/06/08 20:08:22","新北市新店區中華路42巷13號","121.540521666667","24.9687166666667","6500600","新店區"
"235064","005-UY","2018/06/08 20:15:31","新北市八里區下罟子23號","121.375621666667","25.1391916666667","6500300","中和區"
"235063","006-UY","2018/06/08 20:15:24","新北市八里區下罟子23號","121.37633","25.1397983333333","6500300","中和區"
"235065","098-UM","2018/06/08 20:05:25","新北市中和區永和路67-2號","121.496625","25.0055166666667","6500300","中和區"
"235040","150-BY","2018/06/08 20:07:05","新北市中和區保健路27號","121.508493333333","24.9979466666667","6500300","中和區"
"235058","151-BY","2018/06/08 20:03:06","新北市中和區員山路102號","121.481078333333","24.995425","6500300","中和區"
"235038","185-VK","2018/06/08 20:13:18","新北市五股區中直路15-2號","121.423265","25.1110933333333","6500300","中和區"
"235042","551-UM","2018/06/08 20:12:09","新北市新店區安德街116巷28-1號","121.50849","24.96181","6500300","中和區"
"235070","558-UM","2018/06/08 20:08:44","新北市中和區連城路246-2號","121.488393333333","24.9962633333333","6500300","中和區"
"235060","647-TV","2018/06/08 20:07:55","新北市五股區五工一路103號","121.458595","25.0693966666667","6500300","中和區"
"235046","733-UM","2018/06/08 20:07:04","新北市中和區忠孝街33號","121.51045","24.9832516666667","6500300","中和區"
"235057","801-TS","2018/06/08 20:14:24","新北市八里區下罟子5-6號","121.3868","25.1458866666667","6500300","中和區"
"235041","802-TS","2018/06/08 20:12:07","新北市板橋區文化路二段656號","121.480463333333","25.03831","6500300","中和區"
"235051","157-BY","2018/06/08 20:03:27","新北市中和區景安路249號","121.503975","24.9906216666667","6500300","中和區"
"247014","546-UM","2018/06/08 20:07:50","新北市蘆洲區中山二路269號","121.469963333333","25.07952","6501400","蘆洲區"
"247012","339-TH","2018/06/08 20:07:50","新北市蘆洲區民族路185號","121.478766666667","25.0888816666667","6501400","蘆洲區"
"247016","007-UY","2018/06/08 20:09:29","新北市蘆洲區光華路142號","121.466136666667","25.08236","6501400","蘆洲區"
"247002","002-UY","2018/06/08 20:08:11","新北市蘆洲區永康街2巷6號","121.459428333333","25.086145","6501400","蘆洲區"
"228001","212-TW","2018/06/08 20:11:44","新北市貢寮區貢寮里朝陽街1-2號","121.91203","25.0212966666667","6502600","貢寮區"
"228002","663-BX","2018/06/08 20:13:07","新北市貢寮區貢寮里朝陽街1-2號","121.912243333333","25.0212333333333","6502600","貢寮區"
"228003","828-UM","2018/06/08 20:06:10","新北市貢寮區仁理村研海街20號","121.929468333333","25.03709","6502600","貢寮區"
"224006","676-BX","2018/06/08 20:02:25","新北市瑞芳區大寮路356-1號","121.784676666667","25.1032433333333","6501200","瑞芳區"
"224002","639-TC","2018/06/08 20:06:11","新北市瑞芳區逢甲路2-6號","121.812553333333","25.10795","6501200","瑞芳區"
"224009","273-VK","2018/06/08 20:15:01","新北市瑞芳區大寮路356-1號","121.784643333333","25.1032766666667","6501200","瑞芳區"
"227003","642-TC","2018/06/08 20:06:42","新北市雙溪區魚行里新店21號","121.869963333333","25.0322166666667","6502500","雙溪區"
"222001","KEA-2212","2018/06/08 20:05:37","新北市深坑區北深路三段204號","121.601345","25.0037233333333","6501800","深坑區"
"208002","KEA-2872","2018/06/08 20:07:03","新北市金山區環金路69號","121.637763333333","25.2174","6502700","金山區"
"208003","665-BX","2018/06/08 20:00:04","新北市金山區香園9號","121.6345","25.249225","6502700","金山區"
"208001","761-BX","2018/06/08 19:58:05","新北市金山區南勢湖41-6號","121.629441666667","25.2205083333333","6502700","金山區"
"251004","009-UM","2018/06/08 20:03:55","新北市淡水區民族路29巷62號","121.462031666667","25.1369066666667","6501000","淡水區"
"251005","010-UM","2018/06/08 20:08:11","新北市淡水區學府路100巷7號","121.450416666667","25.1716166666667","6501000","淡水區"
"251002","012-UM","2018/06/08 20:06:36","新北市淡水區中正路312號","121.437156666667","25.1723916666667","6501000","淡水區"
"251010","413-VK","2018/06/08 20:14:26","新北市淡水區中正路二段301號","121.426035","25.190495","6501000","淡水區"
"251012","441-VK","2018/06/08 20:05:38","新北市淡水區下圭柔山56-20號","121.44783","25.2043983333333","6501000","淡水區"
"251007","442-VK","2018/06/08 20:12:09","新北市淡水區淡金路一段69號","121.45821","25.17344","6501000","淡水區"
"251008","443-VK","2018/06/08 20:02:59","新北市淡水區淡海路72巷28弄1號","121.424293333333","25.1822","6501000","淡水區"
"251001","559-UM","2018/06/08 20:10:54","新北市淡水區新市二路四段265號","121.445808333333","25.192485","6501000","淡水區"
"251006","561-UM","2018/06/08 20:05:15","新北市淡水區北新路141巷2弄1號","121.449286666667","25.17921","6501000","淡水區"
"251009","575-R6","2018/06/08 20:07:52","新北市淡水區博愛街14號","121.446066666667","25.1698766666667","6501000","淡水區"
"251011","650-BX","2018/06/08 20:11:35","新北市淡水區下圭柔山90-8號","121.431741666667","25.2118383333333","6501000","淡水區"
"251003","673-BX","2018/06/08 20:12:51","新北市淡水區中山北路一段305號","121.444523333333","25.1828783333333","6501000","淡水區"
"207003","550-UM","2018/06/08 20:10:02","新北市萬里區大鵬里萬里加投205-1號","121.643685","25.2152366666667","6502800","萬里區"
"207004","225-TW","2018/06/08 20:06:42","新北市萬里區北基里孝四街24號","121.683348333333","25.1770683333333","6502800","萬里區"
"252002","178-VK","2018/06/08 20:10:21","新北市三芝區三民街8巷14號","121.503773333333","25.25844","6502100","三芝區"
"252001","292-VK","2018/06/08 20:14:14","新北市三芝區中山路一段3號","121.500431666667","25.2585233333333","6502100","三芝區"
"237007","153-BY","2018/06/08 20:10:30","新北市三峽區大智路59號","121.360466666667","24.9361583333333","6500900","三峽區"
"237009","210-TH","2018/06/08 20:11:18","新北市樹林區柑園街二段237號","121.37473","24.9523216666667","6500900","三峽區"
"237013","252-BX","2018/06/08 20:15:53","新北市鶯歌區三鶯路96號","121.358961666667","24.9437783333333","6500900","三峽區"
"237012","275-BY","2018/06/08 20:13:02","新北市鶯歌區中正一路113-1號","121.370381666667","24.9585616666667","6500900","三峽區"
"237008","302-VK","2018/06/08 20:05:34","新北市三峽區中華路8-1號","121.375008333333","24.9328816666667","6500900","三峽區"
"237014","433-BY","2018/06/08 20:14:30","新北市三峽區三樹路192號","121.378928333333","24.9415516666667","6500900","三峽區"
"237006","5529-G3","2018/06/08 20:07:47","新北市三峽區嘉添181號","121.369995","24.911445","6500900","三峽區"
"237011","KEA-2596","2018/06/08 20:16:04","新北市樹林區柑園街二段334號","121.372268333333","24.951325","6500900","三峽區"
"237015","649-BX","2018/06/08 20:09:21","新北市三峽區介壽路二段106號","121.393126666667","24.9357383333333","6500900","三峽區"
"237010","706-TV","2018/06/08 19:59:41","新北市三峽區中山路459巷137號","121.349681666667","24.9336966666667","6500900","三峽區"
"237005","AKY-6261","2018/06/08 20:09:36","新北市三峽區三樹路60號","121.377901666667","24.9381483333333","6500900","三峽區"
"236069","105-UM","2018/06/08 20:04:53","新北市土城區承天路7號","121.436118333333","24.9659666666667","6501300","土城區"
"236042","107-UM","2018/06/08 20:00:13","新北市土城區學府路一段98巷15號","121.455643333333","24.988645","6501300","土城區"
"236079","166-UM","2018/06/08 20:04:17","新北市土城區福安街33號","121.419193333333","24.9647533333333","6501300","土城區"
"236030","253-BX","2018/06/08 20:00:04","新北市土城區中央路一段242巷8弄3號","121.443861666667","24.985515","6501300","土城區"
"236026","269-VK","2018/06/08 20:01:39","新北市土城區中央路一段325號","121.44379","24.983135","6501300","土城區"
"236014","270-VK","2018/06/08 20:06:16","新北市土城區廣明街29號","121.455456666667","24.9928283333333","6501300","土城區"
"236039","271-VK","2018/06/08 20:01:46","新北市土城區國際路36巷2號","121.46588","24.9793316666667","6501300","土城區"
"236020","401-BY","2018/06/08 19:57:53","新北市土城區延吉街26號","121.472101666667","24.9874016666667","6501300","土城區"
"236059","912-UM","2018/06/08 20:07:23","新北市土城區中央路二段187號","121.442106666667","24.9756133333333","6501300","土城區"
"236048","913-UM","2018/06/08 20:00:12","新北市土城區金城路三段315號","121.47512","24.991245","6501300","土城區"
"236063","915-UM","2018/06/08 19:59:31","新北市土城區金城路三段33巷10號","121.46542","24.9872683333333","6501300","土城區"
"236055","AAC-216","2018/06/08 20:03:01","新北市土城區學府路一段45號","121.457658333333","24.9883666666667","6501300","土城區"
"242034","AAC-296","2018/06/08 20:00:42","新北市新莊區建中街83號","121.447251666667","25.03668","6500500","新莊區"
"242058","986-R7","2018/06/08 20:03:50","新北市新莊區八德街57號","121.424853333333","25.0221266666667","6500500","新莊區"
"242054","751-BX","2018/06/08 20:00:51","新北市新莊區西盛街395巷22弄4號","121.42839","25.0127083333333","6500500","新莊區"
"242027","615-BX","2018/06/08 20:13:45","新北市新莊區幸福路700號","121.449971666667","25.04933","6500500","新莊區"
"242025","613-BX","2018/06/08 19:59:20","新北市新莊區五工一路88號","121.461288333333","25.0674433333333","6500500","新莊區"
"242029","612-BX","2018/06/08 20:01:35","新北市新莊區中榮街152巷18號","121.445956666667","25.0533616666667","6500500","新莊區"
"242041","566-BX","2018/06/08 20:04:29","新北市新莊區青山路一段8號","121.4119","25.0275833333333","6500500","新莊區"
"242046","497-BY","2018/06/08 20:07:50","新北市新莊區裕民街55巷7號","121.419213333333","25.0238166666667","6500500","新莊區"
"242009","442-UM","2018/06/08 20:07:00","新北市新莊區昌盛街37號","121.454126666667","25.0500716666667","6500500","新莊區"
"242050","441-UM","2018/06/08 20:02:16","新北市新莊區民安西路152號","121.426026666667","25.01646","6500500","新莊區"
"242037","415-TV","2018/06/08 20:00:04","新北市新莊區建安街37號","121.428908333333","25.0255516666667","6500500","新莊區"
"242007","413-TV","2018/06/08 19:58:39","新北市新莊區思源路593巷6弄5號","121.458811666667","25.0597683333333","6500500","新莊區"
"242044","400-BY","2018/06/08 20:00:55","新北市新莊區萬壽路一段21巷17弄1號","121.410876666667","25.0205016666667","6500500","新莊區"
"242023","362-BY","2018/06/08 19:58:54","新北市新莊區化成路428號","121.466003333333","25.0511383333333","6500500","新莊區"
"242060","353-BY","2018/06/08 19:59:34","新北市新莊區瓊泰路32號","121.444196666667","25.02864","6500500","新莊區"
"242039","133-UY","2018/06/08 20:01:29","新北市新莊區民安西路59號","121.427405","25.0203566666667","6500500","新莊區"
"242032","135-UY","2018/06/08 20:00:10","新北市新莊區公園一路48號","121.443308333333","25.0357683333333","6500500","新莊區"
"242048","172-VK","2018/06/08 20:02:14","新北市新莊區萬安街57巷23號","121.422536666667","25.02403","6500500","新莊區"
"242017","175-VK","2018/06/08 20:00:51","新北市新莊區中安街33號","121.452468333333","25.0459816666667","6500500","新莊區"
"242005","176-VK","2018/06/08 20:00:26","新北市新莊區化成路354號","121.465923333333","25.0492966666667","6500500","新莊區"
"242015","346-TH","2018/06/08 20:03:20","新北市新莊區泰順街33巷4號","121.44615","25.0425866666667","6500500","新莊區"
"242021","348-TH","2018/06/08 20:01:30","新北市新莊區建中街26號","121.449101666667","25.0374816666667","6500500","新莊區"
"242056","349-TH","2018/06/08 20:00:38","新北市新莊區新豐街64號","121.446706666667","25.033765","6500500","新莊區"
"242019","350-TH","2018/06/08 20:00:34","新北市新莊區民生街22號","121.45603","25.04216","6500500","新莊區"
"242013","351-TH","2018/06/08 20:05:17","新北市新莊區幸福路670巷2弄1號","121.450983333333","25.049625","6500500","新莊區"
"238015","755-BX","2018/06/08 20:13:40","新北市樹林區中山路三段204號","121.387321666667","24.968285","6500700","樹林區"
"238023","601-UM","2018/06/08 20:15:57","新北市樹林區中山路三段204號","121.387223333333","24.9681433333333","6500700","樹林區"
"238019","599-UM","2018/06/08 20:14:27","新北市樹林區育德街78號","121.387541666667","24.9684","6500700","樹林區"
"238018","571-TV","2018/06/08 19:59:36","新北市樹林區育德街78-1號","121.38804","24.9680216666667","6500700","樹林區"
"238024","5061-A6","2018/06/08 19:58:53","新北市樹林區育德街78-1號","121.387846666667","24.968075","6500700","樹林區"
"238022","KEA-2213","2018/06/08 20:15:10","新北市樹林區育德街78號","121.387473333333","24.96833","6500700","樹林區"
"238021","KEA-2539","2018/06/08 20:10:22","新北市樹林區育德街78-1號","121.387683333333","24.9682816666667","6500700","樹林區"
"238025","303-VK","2018/06/08 20:15:44","新北市樹林區中山路三段204號","121.38721","24.968355","6500700","樹林區"
"238017","283-BY","2018/06/08 20:11:40","新北市樹林區中山路三段204號","121.387193333333","24.96829","6500700","樹林區"
"238014","282-BY","2018/06/08 20:10:42","新北市樹林區育德街78-1號","121.387433333333","24.968285","6500700","樹林區"
"238020","268-VK","2018/06/08 20:12:25","新北市樹林區中山路三段204號","121.386776666667","24.968225","6500700","樹林區"
"238026","172-UY","2018/06/08 19:57:40","新北市樹林區育德街78號","121.387533333333","24.9684266666667","6500700","樹林區"
"238016","169-UY","2018/06/08 19:51:22","新北市樹林區中山路三段204號","121.386845","24.9682833333333","6500700","樹林區"
"239007","AAC-297","2018/06/08 20:10:53","新北市鶯歌區環河路177-3號","121.346181666667","24.9350166666667","6500800","鶯歌區"
"239006","891-R6","2018/06/08 20:14:09","新北市鶯歌區環河路75號","121.350543333333","24.9435333333333","6500800","鶯歌區"
"239008","527-UM","2018/06/08 19:55:54","新北市鶯歌區二甲路13-16號","121.34514","24.93528","6500800","鶯歌區"
"239005","526-UM","2018/06/08 20:14:53","新北市鶯歌區二甲路13-16號","121.345075","24.9351533333333","6500800","鶯歌區"
"239001","417-VK","2018/06/08 20:15:41","新北市鶯歌區二甲路12-2號","121.34578","24.934975","6500800","鶯歌區"
"239003","360-BY","2018/06/08 20:01:51","新北市鶯歌區二甲路13號","121.343953333333","24.9354183333333","6500800","鶯歌區"
"239002","359-BY","2018/06/08 20:07:12","新北市鶯歌區二甲路13號","121.343983333333","24.9354716666667","6500800","鶯歌區"
"239004","193-VK","2018/06/08 20:09:58","新北市鶯歌區二甲路12-2號","121.346188333333","24.9343733333333","6500800","鶯歌區"
"221008","489-VK","2018/06/08 20:15:51","台北市內湖區康樂街12號","121.617758333333","25.06795","6501100","汐止區"
"221036","130-UY","2018/06/08 20:03:44","新北市汐止區忠孝東路258巷10號","121.663413333333","25.0673316666667","6501100","汐止區"
"221015","131-UY","2018/06/08 20:08:22","新北市汐止區建成路17號","121.664493333333","25.0726016666667","6501100","汐止區"
"221010","269-BY","2018/06/08 20:04:51","新北市汐止區八連路一段134號","121.641765","25.0801616666667","6501100","汐止區"
"221012","278-VK","2018/06/08 20:06:37","新北市汐止區汐平路一段178號","121.690478333333","25.06636","6501100","汐止區"
"221023","279-VK","2018/06/08 19:56:42","新北市汐止區明峰街206號","121.627555","25.0691633333333","6501100","汐止區"
"221032","280-BY","2018/06/08 20:07:56","新北市汐止區弘道街9巷3弄2號","121.61697","25.049105","6501100","汐止區"
"221027","281-BY","2018/06/08 20:06:04","新北市汐止區中正路112號","121.660791666667","25.0694866666667","6501100","汐止區"
"221029","298-VK","2018/06/08 20:08:59","新北市汐止區樟樹一路119巷10弄1號","121.641241666667","25.0645366666667","6501100","汐止區"
"221021","299-VK","2018/06/08 20:05:36","新北市汐止區連興街145號","121.654096666667","25.0614533333333","6501100","汐止區"
"221031","353-TW","2018/06/08 20:08:00","新北市汐止區原興路73巷2號","121.63196","25.0662716666667","6501100","汐止區"
"221025","623-UM","2018/06/08 20:10:53","新北市汐止區水源路二段30號","121.654726666667","25.0572716666667","6501100","汐止區"
"221038","646-BX","2018/06/08 20:04:41","新北市汐止區大同路三段66號","121.668028333333","25.0771783333333","6501100","汐止區"
"221033","647-BX","2018/06/08 20:08:36","新北市汐止區東勢街201巷104號","121.633466666667","25.043035","6501100","汐止區"
"221002","707-TV","2018/06/08 20:13:22","新北市汐止區福德一路216號","121.634401666667","25.0650866666667","6501100","汐止區"
"221018","753-BX","2018/06/08 20:13:23","新北市汐止區茄興街7號","121.673461666667","25.0674816666667","6501100","汐止區"
"242002","KEA-2550","2018/06/08 20:03:17","新北市新莊區中正路110-5號","121.453268333333","25.0363216666667","6500500","新莊區"
"220031","286-VK","2018/06/08 20:00:52","新北市板橋區僑中二街88巷7號","121.446036666667","25.0093833333333","6500100","板橋區"
"242011","280-VK","2018/06/08 20:04:05","新北市新莊區中信街66-18號","121.44931","25.0514166666667","6500500","新莊區"
"235068","KEA-2873","2018/06/08 20:09:49","新北市中和區福祥路72號","121.499305","25.0055233333333","6500300","中和區"
"235025","KEA-2875","2018/06/08 20:07:18","新北市中和區員山路323號","121.481233333333","25.0005666666667","6500300","中和區"
