"lineid","car","time","location","longitude","latitude","cityid","cityname"
"248005","653-BX","2018/02/06 08:01:50","新北市五股區明德路12巷6號","121.433491666667","25.07188","6501500","五股區"
"244002","248-BX","2018/02/06 08:09:52","新北市林口區下福里86-1號","121.308458333333","25.1157166666667","6501700","林口區"
"222004","289-BY","2018/02/06 08:09:43","新北市深坑區昇高坑路60號","121.629673333333","24.9937133333333","6501800","深坑區"
"231007","189-VK","2018/02/06 08:09:34","新北市新店區新潭路一段1-1號","121.523133333333","24.943655","6500600","新店區"
"231009","192-VK","2018/02/06 08:09:52","新北市新店區北新路一段193號","121.540381666667","24.9647133333333","6500600","新店區"
"235001","611-BX","2018/02/06 08:09:35","新北市中和區圓通路367巷33弄87號","121.496211666667","24.9848383333333","6500300","中和區"
"226005","5620-A6","2018/02/06 08:09:48","新北市平溪區南山里乾坑10號","121.78873","25.0479983333333","6502400","平溪區"
"226002","7418-A5","2018/02/06 08:09:37","新北市平溪區望古里石灼坑2-3號","121.768701666667","25.0356033333333","6502400","平溪區"
"226003","AGD-0702","2018/02/06 08:09:49","新北市平溪區新寮里頂寮子40號","121.774781666667","25.051405","6502400","平溪區"
"223006","022-BY","2018/02/06 08:07:08","新北市坪林區上坑子口21號","121.703423333333","24.948795","6501900","石碇區"
"223001","205-TH","2018/02/06 08:09:52","新北市石碇區小粗坑(格頭里)1號","121.652331666667","24.95291","6501900","石碇區"
"223008","406-TH","2018/02/06 08:09:48","新北市石碇區靜安路一段216號","121.67265","25.0074216666667","6501900","石碇區"
"223001","437-BY","2018/02/06 08:09:36","新北市石碇區小粗坑(格頭里)1號","121.652633333333","24.9536633333333","6501900","石碇區"
"223007","592-UM","2018/02/06 08:09:43","新北市石碇區靜安路一段208號","121.672476666667","25.007195","6501900","石碇區"
"223004","660-BX","2018/02/06 08:09:36","新北市石碇區外按16-1號","121.65077","24.997525","6501900","石碇區"
"223005","677-TV","2018/02/06 08:09:40","新北市石碇區外按16-1號","121.650783333333","24.9974166666667","6501900","石碇區"
"227006","282-VK","2018/02/06 08:09:52","新北市雙溪區牡丹里聖南30號","121.856405","25.0513766666667","6502500","雙溪區"
"252004","249-BX","2018/02/06 08:09:37","新北市三芝區興華里車埕62-1號","121.49981","25.196785","6502100","三芝區"
"252007","AAC-283","2018/02/06 08:09:47","新北市三芝區後厝里大片頭101-3號","121.46272","25.2401133333333","6502100","三芝區"
"237001","159-UY","2018/02/06 08:09:54","新北市三峽區大學路82號","121.375935","24.9420333333333","6500900","三峽區"
"236008","165-UM","2018/02/06 08:09:53","新北市土城區青雲路475號","121.458746666667","24.9738966666667","6501300","土城區"
"236002","339-SR","2018/02/06 08:09:36","新北市土城區龍泉路66-2號","121.414738333333","24.94148","6501300","土城區"
"236006","498-BY","2018/02/06 08:09:52","新北市土城區永平街51號","121.4276","24.95917","6501300","土城區"
"220029","461-BY","2018/02/06 08:09:46","新北市板橋區大觀路三段32號","121.433955","24.9957","6500100","板橋區"
