"lineid","car","time","location","longitude","latitude","cityid","cityname"
"248005","653-BX","2018/02/06 08:23:00","新北市五股區明德路12巷8號","121.43346","25.07194","6501500","五股區"
"244002","248-BX","2018/02/06 08:29:52","新北市林口區下福87號","121.289585","25.1118683333333","6501700","林口區"
"222004","289-BY","2018/02/06 08:29:43","新北市深坑區王軍寮3號","121.616298333333","24.985095","6501800","深坑區"
"231007","189-VK","2018/02/06 08:29:54","新北市新店區小坑二路2巷11號","121.531136666667","24.9161516666667","6500600","新店區"
"231009","192-VK","2018/02/06 08:29:52","新北市新店區新烏路二段50巷5號","121.548446666667","24.9268033333333","6500600","新店區"
"235001","611-BX","2018/02/06 08:29:55","新北市中和區中山路二段523巷32弄3號","121.481746666667","25.0034866666667","6500300","中和區"
"226005","5620-A6","2018/02/06 08:29:48","新北市平溪區十分里十分街80號","121.77671","25.0419283333333","6502400","平溪區"
"226002","7418-A5","2018/02/06 08:29:37","新北市平溪區東勢里芊蓁林52號","121.75531","25.009225","6502400","平溪區"
"226003","AGD-0702","2018/02/06 08:29:49","新北市平溪區靜安路三段400號","121.784363333333","25.050815","6502400","平溪區"
"223006","022-BY","2018/02/06 08:29:49","新北市石碇區碇坪路一段49號","121.659145","24.99141","6501900","石碇區"
"223001","205-TH","2018/02/06 08:29:52","新北市石碇區北宜路六段直潭巷6號","121.659331666667","24.9362916666667","6501900","石碇區"
"223008","406-TH","2018/02/06 08:29:48","新北市石碇區碇南路二段松柏崎巷8號","121.674711666667","25.0196966666667","6501900","石碇區"
"223001","437-BY","2018/02/06 08:29:36","新北市石碇區北宜路六段直潭巷6號","121.659806666667","24.9360266666667","6501900","石碇區"
"223007","592-UM","2018/02/06 08:29:42","新北市石碇區碇南路二段1-1號","121.67137","25.0225","6501900","石碇區"
"223004","660-BX","2018/02/06 08:29:36","新北市石碇區碇坪路一段282號","121.676536666667","24.9765383333333","6501900","石碇區"
"223005","677-TV","2018/02/06 08:29:40","新北市石碇區碇坪路一段282號","121.676301666667","24.9768566666667","6501900","石碇區"
"227006","282-VK","2018/02/06 08:29:52","新北市雙溪區平林里竹寮坑10號","121.843298333333","25.0437466666667","6502500","雙溪區"
"252004","249-BX","2018/02/06 08:29:37","新北市三芝區興華里楓子林45-4號","121.50138","25.2045683333333","6502100","三芝區"
"252007","AAC-283","2018/02/06 08:29:47","新北市三芝區蘭陽街13-1號","121.473546666667","25.2424666666667","6502100","三芝區"
"237001","159-UY","2018/02/06 08:29:54","新北市三峽區大義路189號","121.378073333333","24.9451733333333","6500900","三峽區"
"236008","165-UM","2018/02/06 08:29:53","新北市土城區金城路二段46巷3-10號","121.45551","24.9758883333333","6501300","土城區"
"236002","339-SR","2018/02/06 08:29:36","新北市土城區中山路4巷2號","121.411845","24.959515","6501300","土城區"
"236006","498-BY","2018/02/06 08:29:52","新北市土城區大暖路17號","121.422796666667","24.9610983333333","6501300","土城區"
"220029","461-BY","2018/02/06 08:29:46","新北市樹林區八德街828-2號","121.394138333333","24.9687266666667","6500100","板橋區"
