"lineid","car","time","location","longitude","latitude","cityid","cityname"
"248005","653-BX","2018/02/06 08:34:45","新北市五股區明德路12巷3號","121.433203333333","25.0718316666667","6501500","五股區"
"244002","248-BX","2018/02/06 08:49:52","新北市林口區瑞平里10鄰44號","121.335658333333","25.123165","6501700","林口區"
"222004","289-BY","2018/02/06 08:35:03","新北市深坑區大崙尾11號","121.614485","24.9791866666667","6501800","深坑區"
"231007","189-VK","2018/02/06 08:49:34","新北市新店區新潭路二段30號","121.526058333333","24.926075","6500600","新店區"
"231009","192-VK","2018/02/06 08:49:12","新北市新店區新烏路三段286號","121.549951666667","24.898355","6500600","新店區"
"235013","031-BX","2018/02/06 08:49:36","新北市中和區景新街410巷11號","121.512151666667","24.98897","6500300","中和區"
"235001","611-BX","2018/02/06 08:49:55","新北市中和區民德路39號","121.46907","25.002285","6500300","中和區"
"226005","5620-A6","2018/02/06 08:49:48","新北市平溪區十分里十分街214-6號","121.77926","25.0438483333333","6502400","平溪區"
"226002","7418-A5","2018/02/06 08:42:37","新北市平溪區東勢里東勢格12號","121.733046666667","25.001225","6502400","平溪區"
"226003","AGD-0702","2018/02/06 08:49:49","新北市平溪區十分里十分街180號","121.778613333333","25.0439133333333","6502400","平溪區"
"223001","205-TH","2018/02/06 08:49:52","新北市石碇區北宜路五段74號","121.643968333333","24.952695","6501900","石碇區"
"223008","406-TH","2018/02/06 08:49:28","新北市石碇區光明路耳空龜巷12-1號","121.692498333333","25.0328566666667","6501900","石碇區"
"223001","437-BY","2018/02/06 08:49:36","新北市石碇區北宜路五段59號","121.635538333333","24.954135","6501900","石碇區"
"223007","592-UM","2018/02/06 08:43:42","新北市石碇區光明路17-2號","121.684998333333","25.0318983333333","6501900","石碇區"
"223004","660-BX","2018/02/06 08:49:36","新北市石碇區崩山24-2號","121.679456666667","24.96802","6501900","石碇區"
"223005","677-TV","2018/02/06 08:49:39","新北市石碇區崩山24-2號","121.679781666667","24.967505","6501900","石碇區"
"227006","282-VK","2018/02/06 08:49:52","新北市雙溪區上林里大瀨1號","121.830026666667","25.0250683333333","6502500","雙溪區"
"252004","249-BX","2018/02/06 08:49:37","新北市三芝區興華里田心子15-13號","121.492931666667","25.20415","6502100","三芝區"
"252007","AAC-283","2018/02/06 08:49:46","新北市三芝區錫板里番婆林44號","121.493515","25.2371583333333","6502100","三芝區"
"237001","159-UY","2018/02/06 08:49:34","新北市三峽區大觀路113號","121.374526666667","24.9453666666667","6500900","三峽區"
"236008","165-UM","2018/02/06 08:49:53","新北市土城區金城路一段120號","121.445998333333","24.9745366666667","6501300","土城區"
"236002","339-SR","2018/02/06 08:49:36","新北市土城區中央路三段171號","121.431735","24.9653716666667","6501300","土城區"
"236006","498-BY","2018/02/06 08:49:52","新北市土城區永和街120-16號","121.435876666667","24.9566433333333","6501300","土城區"
"220029","461-BY","2018/02/06 08:49:46","新北市土城區自強街11巷3號","121.429313333333","24.9706883333333","6500100","板橋區"
