"lineid","car","time","location","longitude","latitude","cityid","cityname"
"248005","653-BX","2018/02/06 08:52:11","新北市五股區明德路12巷16號","121.43329","25.07191","6501500","五股區"
"222004","289-BY","2018/02/06 08:35:03","新北市深坑區大崙尾11號","121.614485","24.9791866666667","6501800","深坑區"
"231007","189-VK","2018/02/06 08:59:34","新北市新店區新潭路三段76號","121.505416666667","24.9111533333333","6500600","新店區"
"231009","192-VK","2018/02/06 08:59:52","新北市新店區廣興路5巷19號","121.545611666667","24.91396","6500600","新店區"
"235013","031-BX","2018/02/06 08:59:36","新北市中和區捷運路16-1號","121.508786666667","24.990005","6500300","中和區"
"235001","611-BX","2018/02/06 08:59:35","新北市中和區華安街32巷10號","121.467505","24.9971483333333","6500300","中和區"
"226005","5620-A6","2018/02/06 08:59:48","新北市平溪區望古里灰3號","121.758135","25.030645","6502400","平溪區"
"226002","7418-A5","2018/02/06 08:42:37","新北市平溪區東勢里東勢格12號","121.733046666667","25.001225","6502400","平溪區"
"226003","AGD-0702","2018/02/06 08:59:49","新北市平溪區靜安路二段561號","121.748605","25.0248016666667","6502400","平溪區"
"223001","205-TH","2018/02/06 08:59:32","新北市石碇區北宜路四段18-1號","121.619478333333","24.9592016666667","6501900","石碇區"
"223001","437-BY","2018/02/06 08:59:56","新北市石碇區北宜路四段16號","121.616415","24.9592866666667","6501900","石碇區"
"223004","660-BX","2018/02/06 08:59:36","新北市石碇區碇坪路二段55號","121.683973333333","24.9713883333333","6501900","石碇區"
"223005","677-TV","2018/02/06 08:59:40","新北市石碇區碇坪路二段65號","121.684776666667","24.9662266666667","6501900","石碇區"
"227006","282-VK","2018/02/06 08:59:52","新北市雙溪區上林里內平林120-2號","121.824603333333","25.0266283333333","6502500","雙溪區"
"227012","030-BX","2018/02/06 08:56:13","新北市雙溪區泰平里料角坑32號","121.795415","24.97615","6502500","雙溪區"
"252004","249-BX","2018/02/06 08:59:37","新北市三芝區興華里田心子31號","121.488826666667","25.2003916666667","6502100","三芝區"
"252007","AAC-283","2018/02/06 08:59:46","新北市三芝區後厝里北勢子42-8號","121.47414","25.2522933333333","6502100","三芝區"
"237001","159-UY","2018/02/06 08:59:54","新北市三峽區學勤路113號","121.3752","24.94643","6500900","三峽區"
"236008","165-UM","2018/02/06 08:59:53","新北市土城區忠義路47-1號","121.440703333333","24.9694983333333","6501300","土城區"
"236002","339-SR","2018/02/06 08:59:56","新北市土城區中央路二段219-6號","121.440891666667","24.9739183333333","6501300","土城區"
"236006","498-BY","2018/02/06 08:59:52","新北市土城區承天路4巷2-1號","121.436313333333","24.9636133333333","6501300","土城區"
"220029","461-BY","2018/02/06 08:59:46","新北市板橋區華東街1-9號","121.448165","24.9948266666667","6500100","板橋區"
