"lineid","car","time","location","longitude","latitude","cityid","cityname"
"248005","653-BX","2018/02/06 09:39:45","新北市五股區成泰路一段7巷13號","121.432583333333","25.0668983333333","6501500","五股區"
"222004","289-BY","2018/02/06 09:39:43","新北市深坑區阿柔洋60號","121.607513333333","24.9963166666667","6501800","深坑區"
"231007","189-VK","2018/02/06 09:39:54","新北市新店區新潭路三段215巷25號","121.508116666667","24.90408","6500600","新店區"
"231009","192-VK","2018/02/06 09:39:52","新北市新店區平廣路一段247號","121.508981666667","24.8891283333333","6500600","新店區"
"235013","031-BX","2018/02/06 09:39:56","新北市中和區南山路229巷2號","121.503748333333","24.9931566666667","6500300","中和區"
"235001","611-BX","2018/02/06 09:39:35","新北市中和區連城路322號","121.48335","24.996025","6500300","中和區"
"223001","205-TH","2018/02/06 09:39:52","新北市石碇區內楒仔腳1號","121.632585","24.9700633333333","6501900","石碇區"
"227006","282-VK","2018/02/06 09:39:12","新北市雙溪區長源里柑腳55-1號","121.793791666667","25.0069516666667","6502500","雙溪區"
"227012","030-BX","2018/02/06 09:35:53","新北市坪林區中心崙5號","121.783583333333","24.9494283333333","6502500","雙溪區"
"252004","249-BX","2018/02/06 09:39:17","新北市三芝區圓山里石曹子坑44號","121.518738333333","25.2160483333333","6502100","三芝區"
"252007","AAC-283","2018/02/06 09:39:46","新北市三芝區埔坪里埔頭坑44號","121.5052","25.2618816666667","6502100","三芝區"
"237001","159-UY","2018/02/06 09:39:54","新北市鶯歌區文化路322號","121.352498333333","24.946435","6500900","三峽區"
"236006","498-BY","2018/02/06 09:39:52","新北市土城區忠承路16號","121.44151","24.9677216666667","6501300","土城區"
"239006","661-UM","2018/02/06 09:39:38","新北市鶯歌區文化路419號","121.355465","24.9502","6500800","鶯歌區"
