"lineid","car","time","location","longitude","latitude","cityid","cityname"
"231007","189-VK","2018/02/06 10:29:54","新北市新店區新潭路三段131號","121.510788333333","24.9114533333333","6500600","新店區"
"231009","192-VK","2018/02/06 10:28:12","新北市新店區小坑一路71號","121.531293333333","24.9084566666667","6500600","新店區"
"227006","282-VK","2018/02/06 10:29:31","新北市雙溪區長源里柑腳18號","121.80469","25.014155","6502500","雙溪區"
"252007","AAC-283","2018/02/06 10:29:46","新北市三芝區埔頭里埔頭48號","121.501258333333","25.2624783333333","6502100","三芝區"
"237001","159-UY","2018/02/06 10:29:54","新北市樹林區學勤路216號","121.377566666667","24.9465116666667","6500900","三峽區"
