"lineid","car","time","location","longitude","latitude","cityid","cityname"
"234044","148-BY","2018/02/06 12:59:19","新北市永和區得和路373巷31弄3號","121.524853333333","25.0005583333333","6500400","永和區"
"234005","207-UY","2018/02/06 12:59:18","新北市永和區中山路一段51號","121.512938333333","25.0105816666667","6500400","永和區"
"234078","298-R6","2018/02/06 12:59:28","新北市永和區永貞路29號","121.520931666667","25.0066866666667","6500400","永和區"
"234036","336-UY","2018/02/06 12:59:11","新北市中和區秀朗路三段38號","121.526485","24.9959983333333","6500400","永和區"
"234062","337-UY","2018/02/06 12:59:30","新北市永和區秀朗路一段154號","121.518311666667","25.00332","6500400","永和區"
"234084","338-UY","2018/02/06 12:59:27","新北市永和區永利路10巷11號","121.517968333333","25.0054466666667","6500400","永和區"
"234068","552-UM","2018/02/06 12:59:22","新北市永和區中興街84巷8號","121.518465","25.0117066666667","6500400","永和區"
"234015","745-BX","2018/02/06 12:59:27","新北市永和區永和路二段299號","121.516015","25.0162933333333","6500400","永和區"
"234028","746-BX","2018/02/06 12:59:13","新北市永和區四維街69號","121.525598333333","24.9979733333333","6500400","永和區"
"234052","KEA-2590","2018/02/06 12:59:25","新北市永和區竹林路66巷15-7號","121.518373333333","25.0132883333333","6500400","永和區"
"234012","KEA-2591","2018/02/06 12:59:18","新北市永和區信義路17巷5號","121.514083333333","25.0116733333333","6500400","永和區"
"234060","AAD-866","2018/02/06 12:59:28","新北市永和區福和路311號","121.51617","25.00708","6500400","永和區"
"234040","862-TW","2018/02/06 12:59:16","新北市永和區永貞路267號","121.511795","25.004755","6500400","永和區"
"234048","863-TW","2018/02/06 12:59:27","新北市永和區文化路151號","121.510655","25.0162166666667","6500400","永和區"
"234025","9371-KE","2018/02/06 12:59:17","新北市永和區中和路625號","121.512921666667","25.0050583333333","6500400","永和區"
"234010","9373-KE","2018/02/06 12:59:23","新北市永和區文化路113巷30號","121.512953333333","25.0140733333333","6500400","永和區"
"248017","225-UY","2018/02/06 12:59:16","新北市五股區中興路二段83巷26-6號","121.459956666667","25.0752233333333","6501500","五股區"
"234022","9380-KE","2018/02/06 12:59:27","新北市永和區竹林路75巷33弄3號","121.520516666667","25.0142883333333","6500400","永和區"
"234076","969-R7","2018/02/06 12:59:17","新北市永和區智光街126號","121.515055","24.9956916666667","6500400","永和區"
"234072","AAC-211","2018/02/06 12:59:21","新北市永和區環河東路二段98號","121.524096666667","25.0103533333333","6500400","永和區"
"234001","AAC-295","2018/02/06 12:59:20","新北市永和區永和路一段139號","121.514093333333","25.0087383333333","6500400","永和區"
"244002","248-BX","2018/02/06 12:59:24","新北市林口區中山路146號","121.391395","25.0787083333333","6501700","林口區"
"231002","002-UM","2018/02/06 12:59:21","新北市新店區安華路28-1號","121.51979","24.9609966666667","6500600","新店區"
"231025","0293-UT","2018/02/06 12:59:29","新北市新店區安華路28-1號","121.519581666667","24.9606416666667","6500600","新店區"
"231028","046-UY","2018/02/06 12:59:11","新北市新店區安華路28-1號","121.519661666667","24.9610466666667","6500600","新店區"
"231030","047-UY","2018/02/06 12:59:19","新北市新店區安華路28-1號","121.51933","24.9608233333333","6500600","新店區"
"231029","106-UY","2018/02/06 12:59:21","新北市新店區安華路28-1號","121.519746666667","24.960905","6500600","新店區"
"231018","107-UY","2018/02/06 12:59:16","新北市新店區安華路28-1號","121.51939","24.9614116666667","6500600","新店區"
"231013","110-UY","2018/02/06 12:59:20","新北市新店區安華路28-1號","121.519306666667","24.9612566666667","6500600","新店區"
"231020","187-VK","2018/02/06 12:59:14","新北市新店區安華路28-1號","121.519676666667","24.9611866666667","6500600","新店區"
"231010","278-BY","2018/02/06 12:47:21","新北市新店區安華路28-1號","121.5201","24.9612783333333","6500600","新店區"
"231023","AAD-862","2018/02/06 12:59:20","新北市新店區安華路28-1號","121.519708333333","24.9611233333333","6500600","新店區"
"231038","4715-K9","2018/02/06 12:59:10","新北市新店區安華路3號","121.519041666667","24.9604566666667","6500600","新店區"
"231003","616-UM","2018/02/06 12:59:15","新北市新店區安華路28-1號","121.519513333333","24.96067","6500600","新店區"
"231006","617-UM","2018/02/06 12:58:55","新北市新店區安華路28-1號","121.519753333333","24.9609966666667","6500600","新店區"
"231001","619-UM","2018/02/06 12:59:13","新北市新店區安華路28-1號","121.519576666667","24.96081","6500600","新店區"
"231034","645-TV","2018/02/06 12:59:09","新北市新店區安華路28-1號","121.519181666667","24.960725","6500600","新店區"
"231036","719-UY","2018/02/06 12:59:14","新北市新店區安華路28-1號","121.519308333333","24.9611","6500600","新店區"
"231032","720-UM","2018/02/06 12:59:12","新北市新店區安康路一段359-27號","121.518691666667","24.9612466666667","6500600","新店區"
"231005","897-TW","2018/02/06 12:59:08","新北市新店區安華路28-1號","121.519478333333","24.9606833333333","6500600","新店區"
"235029","098-UM","2018/02/06 12:59:11","新北市中和區錦和路174號","121.489943333333","24.9956633333333","6500300","中和區"
"235004","150-BY","2018/02/06 12:59:22","新北市中和區和城路一段271巷1號","121.485653333333","24.9915733333333","6500300","中和區"
"235022","151-BY","2018/02/06 12:59:11","新北市中和區錦和路350-1號","121.49049","24.99355","6500300","中和區"
"235002","185-VK","2018/02/06 12:59:08","新北市中和區自立路31號","121.522091666667","24.99577","6500300","中和區"
"235031","255-BX","2018/02/06 12:59:17","新北市中和區中山路二段552號","121.48381","25.00511","6500300","中和區"
"235025","378-QA","2018/02/06 12:58:54","新北市中和區員山路36巷16-2號","121.485333333333","24.991585","6500300","中和區"
"235035","269-TV","2018/02/06 12:59:24","新北市中和區新生街280號","121.483635","24.996805","6500300","中和區"
"235006","551-UM","2018/02/06 12:59:28","新北市中和區和城路一段271巷1號","121.485593333333","24.9917766666667","6500300","中和區"
"235026","800-TS","2018/02/06 12:59:14","新北市中和區錦和路69號","121.489506666667","24.9982183333333","6500300","中和區"
"235021","801-TS","2018/02/06 12:59:12","新北市中和區員山路36巷16-3號","121.48482","24.9917333333333","6500300","中和區"
"235016","805-TS","2018/02/06 12:59:12","新北市中和區員山路36巷16號","121.484386666667","24.9915816666667","6500300","中和區"
"235015","157-BY","2018/02/06 12:59:11","新北市中和區員山路36巷16-2號","121.485216666667","24.9916233333333","6500300","中和區"
"235001","AAC-213","2018/02/06 12:59:15","新北市中和區中正路545巷1號","121.487591666667","24.9935666666667","6500300","中和區"
"223001","205-TH","2018/02/06 12:59:12","新北市石碇區番子坑56號","121.676363333333","25.0105083333333","6501900","石碇區"
"228004","212-TW","2018/02/06 12:59:19","新北市貢寮區吉林里內寮街19號","121.887256666667","24.9888083333333","6502600","貢寮區"
"228005","828-UM","2018/02/06 12:59:25","新北市貢寮區福隆里東興街18-1號","121.950066666667","25.01824","6502600","貢寮區"
"207002","749-BX","2018/02/06 12:59:15","新北市萬里區雙興里大坪路38號","121.626321666667","25.1714683333333","6502800","萬里區"
"207001","662-BX","2018/02/06 12:59:11","新北市萬里區萬里里獅頭路22-1號","121.693068333333","25.1782416666667","6502800","萬里區"
"252005","AAC-283","2018/02/06 12:59:22","新北市三芝區智成街120號","121.506036666667","25.2553116666667","6502100","三芝區"
"208004","170-UY","2018/02/06 12:59:17","新北市金山區磺港里磺港路328號","121.647663333333","25.22963","6502700","金山區"
"236006","498-BY","2018/02/06 12:59:11","新北市土城區亞洲路34號","121.435871666667","24.9743483333333","6501300","土城區"
