"lineid","car","time","location","longitude","latitude","cityid","cityname"
"234044","148-BY","2018/02/06 13:59:19","新北市永和區成功路一段20號","121.527018333333","25.005075","6500400","永和區"
"234005","207-UY","2018/02/06 13:59:18","新北市中和區中和路294號","121.508666666667","24.999715","6500400","永和區"
"234078","298-R6","2018/02/06 13:59:29","新北市永和區國中路23號","121.524503333333","25.0052033333333","6500400","永和區"
"234036","336-UY","2018/02/06 13:59:31","新北市永和區成功路二段122號","121.526491666667","24.99771","6500400","永和區"
"234062","337-UY","2018/02/06 13:59:30","新北市永和區中正路412巷20弄10號","121.518745","25.0016333333333","6500400","永和區"
"234084","338-UY","2018/02/06 13:59:27","新北市永和區福和路160號","121.521315","25.0079","6500400","永和區"
"234068","552-UM","2018/02/06 13:59:22","新北市永和區國光路6號","121.519808333333","25.008595","6500400","永和區"
"234015","745-BX","2018/02/06 13:59:27","新北市永和區文化路102號","121.513576666667","25.0152216666667","6500400","永和區"
"234028","746-BX","2018/02/06 13:59:25","新北市永和區四維街75號","121.525265","24.9978733333333","6500400","永和區"
"234052","KEA-2590","2018/02/06 13:59:25","新北市永和區竹林路39巷46號","121.520223333333","25.0152333333333","6500400","永和區"
"234012","KEA-2591","2018/02/06 13:59:18","新北市永和區仁愛路295號","121.505226666667","25.0091966666667","6500400","永和區"
"234060","AAD-866","2018/02/06 13:59:08","新北市永和區中正路151巷8弄2號","121.515961666667","24.9986866666667","6500400","永和區"
"234040","862-TW","2018/02/06 13:59:16","新北市永和區雙和街7巷20號","121.509175","25.0013483333333","6500400","永和區"
"234048","863-TW","2018/02/06 13:59:27","新北市永和區保安路232號","121.507011666667","25.013205","6500400","永和區"
"234025","9371-KE","2018/02/06 13:59:17","新北市永和區自由街58號","121.513806666667","25.0058833333333","6500400","永和區"
"234010","9373-KE","2018/02/06 13:59:23","新北市永和區仁愛路352巷112弄6號","121.500885","25.0084566666667","6500400","永和區"
"248017","225-UY","2018/02/06 13:59:16","新北市五股區民義路一段287巷9-1號","121.424648333333","25.0917966666667","6501500","五股區"
"234022","9380-KE","2018/02/06 13:59:24","新北市永和區復興街15號","121.516016666667","25.01296","6500400","永和區"
"234076","969-R7","2018/02/06 13:59:25","新北市永和區民權路60號","121.519796666667","24.9981883333333","6500400","永和區"
"234072","AAC-211","2018/02/06 13:59:21","新北市永和區豫溪街185號","121.522456666667","25.0103466666667","6500400","永和區"
"234066","AAC-212","2018/02/06 13:59:31","新北市永和區永貞路315號","121.509963333333","25.0067016666667","6500400","永和區"
"234001","AAC-295","2018/02/06 13:59:21","新北市永和區福和路326號","121.515566666667","25.0072416666667","6500400","永和區"
"231002","002-UM","2018/02/06 13:59:21","新北市新店區中正路606號","121.533948333333","24.988305","6500600","新店區"
"231028","046-UY","2018/02/06 13:59:26","新北市新店區安和路三段116號","121.517023333333","24.98551","6500600","新店區"
"231030","047-UY","2018/02/06 13:59:19","新北市新店區安興路7-1號","121.514965","24.9685083333333","6500600","新店區"
"231029","106-UY","2018/02/06 13:59:21","新北市新店區安康路二段51號","121.514406666667","24.9634383333333","6500600","新店區"
"231018","107-UY","2018/02/06 13:59:16","新北市新店區中央路99號","121.531075","24.97508","6500600","新店區"
"231012","108-UY","2018/02/06 13:59:28","新北市新店區五峰路97號","121.545823333333","24.9672233333333","6500600","新店區"
"231013","110-UY","2018/02/06 13:59:20","新北市新店區明德路111號","121.541463333333","24.9794533333333","6500600","新店區"
"231020","187-VK","2018/02/06 13:59:14","新北市新店區頂石厝路26號","121.538371666667","24.91897","6500600","新店區"
"231035","189-VK","2018/02/06 13:59:15","新北市新店區安忠路57巷1-5號","121.513318333333","24.9595966666667","6500600","新店區"
"231015","KEA-2219","2018/02/06 13:59:22","新北市新店區北宜路二段295號","121.556223333333","24.9540366666667","6500600","新店區"
"231026","256-BX","2018/02/06 13:59:26","新北市新店區中央路183-1號","121.53607","24.968725","6500600","新店區"
"231023","AAD-862","2018/02/06 13:59:19","新北市新店區文中路40號","121.539781666667","24.9565666666667","6500600","新店區"
"231027","3712-VJ","2018/02/06 13:59:14","新北市新店區中興路一段24-2號","121.538558333333","24.9583416666667","6500600","新店區"
"231025","3713-VJ","2018/02/06 13:59:15","新北市新店區中正路275巷40號","121.536598333333","24.9726533333333","6500600","新店區"
"231024","4716-K9","2018/02/06 13:59:16","新北市新店區北新路一段271巷8號","121.540501666667","24.9667783333333","6500600","新店區"
"231038","4715-K9","2018/02/06 13:59:31","新北市新店區溪洲路121號","121.531135","24.9627933333333","6500600","新店區"
"231003","616-UM","2018/02/06 13:59:15","新北市新店區北宜路一段3號","121.53858","24.9586033333333","6500600","新店區"
"231006","617-UM","2018/02/06 13:59:15","新北市新店區北宜路二段167巷4弄22號","121.553055","24.9535883333333","6500600","新店區"
"231001","619-UM","2018/02/06 13:59:12","新北市新店區三民路24號","121.537135","24.9709766666667","6500600","新店區"
"231034","645-TV","2018/02/06 13:59:29","新北市新店區達觀路16號","121.503378333333","24.9400483333333","6500600","新店區"
"231036","719-UY","2018/02/06 13:59:14","新北市新店區安祥路140號","121.474201666667","24.9558466666667","6500600","新店區"
"231032","720-UM","2018/02/06 13:59:12","新北市新店區秀山路72號","121.53133","24.9608983333333","6500600","新店區"
"231005","897-TW","2018/02/06 13:59:11","新北市新店區中興路三段182號","121.544115","24.9813333333333","6500600","新店區"
"231004","899-TW","2018/02/06 13:59:18","新北市新店區北新路二段156號","121.542936666667","24.97545","6500600","新店區"
"231037","AKT-0513","2018/02/06 13:59:11","新北市新店區安康路三段207巷7號","121.488068333333","24.9509433333333","6500600","新店區"
"235030","003-UY","2018/02/06 13:59:21","新北市中和區中山路二段131巷5弄8號","121.503096666667","25.0029866666667","6500300","中和區"
"235028","005-UY","2018/02/06 13:59:29","新北市中和區泰和街25號","121.4994","25.00013","6500300","中和區"
"235011","031-BX","2018/02/06 13:59:22","新北市中和區興南路二段34巷75號","121.505103333333","24.9849766666667","6500300","中和區"
"235020","096-UM","2018/02/06 13:59:18","新北市中和區中正路1224號","121.479563333333","25.010845","6500300","中和區"
"235003","097-UM","2018/02/06 13:59:18","新北市中和區景平路64巷15號","121.522125","24.99133","6500300","中和區"
"235029","098-UM","2018/02/06 13:59:30","新北市中和區勝利路13號","121.49958","25.0081616666667","6500300","中和區"
"235004","150-BY","2018/02/06 13:59:22","新北市中和區保健路50巷66號","121.509293333333","24.9952066666667","6500300","中和區"
"235022","151-BY","2018/02/06 13:59:10","新北市中和區連城路532巷3-6號","121.475266666667","24.992045","6500300","中和區"
"235019","183-VK","2018/02/06 13:59:13","新北市中和區中山路三段227號","121.470905","25.0065333333333","6500300","中和區"
"235002","185-VK","2018/02/06 13:59:28","新北市中和區自強路58號","121.520031666667","24.99455","6500300","中和區"
"235013","186-VK","2018/02/06 13:59:14","新北市中和區景安路167巷5號","121.505803333333","24.9946766666667","6500300","中和區"
"235031","255-BX","2018/02/06 13:59:16","新北市中和區新生街242巷1弄2-1號","121.483333333333","24.997595","6500300","中和區"
"235008","293-VK","2018/02/06 13:59:24","新北市中和區中興街161巷8弄1號","121.501005","24.99086","6500300","中和區"
"235036","301-VK","2018/02/06 13:59:16","新北市中和區中山路二段165號","121.501448333333","25.0025866666667","6500300","中和區"
"235007","352-BY","2018/02/06 13:59:20","新北市中和區秀朗路三段105號","121.52655","24.99467","6500300","中和區"
"235032","377-QA","2018/02/06 13:59:27","新北市中和區圓通路162巷37弄1號","121.496235","24.9953483333333","6500300","中和區"
"235035","269-TV","2018/02/06 13:59:24","新北市中和區中山路二段482巷19號","121.489455","25.006845","6500300","中和區"
"235014","4979-A6","2018/02/06 13:59:26","新北市中和區華新街50巷10號","121.50763","24.9839516666667","6500300","中和區"
"235033","4980-A6","2018/02/06 13:59:19","新北市中和區景平路459巷2弄2號","121.500348333333","24.9964066666667","6500300","中和區"
"235006","551-UM","2018/02/06 13:59:28","新北市中和區秀朗路三段22巷16號","121.52566","24.9962183333333","6500300","中和區"
"235009","565-BX","2018/02/06 13:59:23","新北市中和區景新街467巷22號","121.514251666667","24.988315","6500300","中和區"
"235018","640-BX","2018/02/06 13:59:26","新北市中和區民享街2號","121.473931666667","25.0055066666667","6500300","中和區"
"235024","647-TV","2018/02/06 13:59:13","新北市中和區中山路三段149號","121.47362","25.006175","6500300","中和區"
"235010","733-UM","2018/02/06 13:59:16","新北市中和區興南路一段135巷20號","121.509346666667","24.986905","6500300","中和區"
"235026","800-TS","2018/02/06 13:59:14","新北市中和區橋安街18號","121.492578333333","25.0049233333333","6500300","中和區"
"235021","801-TS","2018/02/06 13:59:12","新北市中和區民安街53-5號","121.479488333333","24.99964","6500300","中和區"
"235005","802-TS","2018/02/06 13:59:13","新北市中和區永貞路280號","121.51323","25.0040833333333","6500300","中和區"
"235016","805-TS","2018/02/06 13:59:19","新北市中和區興南路二段399巷132-1號","121.501066666667","24.9747233333333","6500300","中和區"
"235012","896-TW","2018/02/06 13:59:26","新北市中和區華新街38號","121.5078","24.984315","6500300","中和區"
"235017","900-TW","2018/02/06 13:59:26","新北市板橋區和平路174巷41-2號","121.465295","24.993985","6500300","中和區"
"235027","911-UM","2018/02/06 13:59:25","新北市中和區中正路550號","121.487095","24.9945966666667","6500300","中和區"
"235015","157-BY","2018/02/06 13:59:11","新北市中和區忠孝街11巷5號","121.50982","24.983225","6500300","中和區"
"235001","AAC-213","2018/02/06 13:59:15","新北市中和區自立路99巷1號","121.522146666667","24.994835","6500300","中和區"
"235023","AAC-215","2018/02/06 13:59:26","新北市中和區圓通路367巷2號","121.491185","24.9892933333333","6500300","中和區"
"220016","013-TV","2018/02/06 13:59:13","新北市板橋區三民路一段120號","121.479301666667","25.02074","6500100","板橋區"
"220013","072-UY","2018/02/06 13:59:24","新北市板橋區漢生東路340巷13號","121.471393333333","25.0072916666667","6500100","板橋區"
"220034","073-UY","2018/02/06 13:59:31","新北市板橋區中正路245號","121.455821666667","25.0182166666667","6500100","板橋區"
"220017","AAD-861","2018/02/06 13:59:32","新北市板橋區華興街66號","121.457525","25.0049483333333","6500100","板橋區"
"220039","120-SR","2018/02/06 13:59:18","新北市板橋區四維路177巷1弄2號","121.464045","25.026215","6500100","板橋區"
"247019","500-BY","2018/02/06 13:59:25","新北市蘆洲區民族路422巷35號","121.473408333333","25.093515","6501400","蘆洲區"
"247007","341-TH","2018/02/06 13:59:18","新北市蘆洲區重陽一街1號","121.481821666667","25.0814333333333","6501400","蘆洲區"
"247009","339-TH","2018/02/06 13:59:20","新北市蘆洲區集賢路400號","121.480183333333","25.0820316666667","6501400","蘆洲區"
"247001","337-TH","2018/02/06 13:59:25","新北市蘆洲區永平街32巷74號","121.460433333333","25.0936566666667","6501400","蘆洲區"
"247003","336-TH","2018/02/06 13:59:29","新北市蘆洲區長榮路38-8號","121.463196666667","25.08291","6501400","蘆洲區"
"247015","057-VK","2018/02/06 13:59:23","新北市蘆洲區光華路40號","121.468945","25.0832483333333","6501400","蘆洲區"
"247005","056-VK","2018/02/06 13:59:24","新北市蘆洲區九芎街136號","121.465061666667","25.079145","6501400","蘆洲區"
"247013","007-UY","2018/02/06 13:59:17","新北市蘆洲區中正路102號","121.46975","25.0843733333333","6501400","蘆洲區"
"247017","001-UY","2018/02/06 13:59:31","新北市蘆洲區仁愛街35巷26號","121.475585","25.0889633333333","6501400","蘆洲區"
"223001","205-TH","2018/02/06 13:59:17","新北市石碇區小粗坑(潭邊里)3-6號","121.67434","24.9832383333333","6501900","石碇區"
"228004","212-TW","2018/02/06 13:59:19","新北市貢寮區龍崗里嵩陽街35-1號","121.906665","25.0175166666667","6502600","貢寮區"
"228005","828-UM","2018/02/06 13:55:05","新北市貢寮區美豐里雞母嶺街53-1號","121.888458333333","25.0687783333333","6502600","貢寮區"
"227009","400-TW","2018/02/06 13:59:11","新北市雙溪區三貂里政光路3-1號","121.850816666667","25.0629883333333","6502500","雙溪區"
"207002","749-BX","2018/02/06 13:59:15","新北市萬里區溪底里溪底路10號","121.616498333333","25.1482316666667","6502800","萬里區"
"207001","662-BX","2018/02/06 13:59:11","新北市萬里區磺潭里清水18號","121.637873333333","25.1976616666667","6502800","萬里區"
"252005","AAC-283","2018/02/06 13:59:22","新北市三芝區橫山里橫山52號","121.533503333333","25.2561716666667","6502100","三芝區"
"208004","170-UY","2018/02/06 13:59:17","新北市金山區重和里三重橋18號","121.589428333333","25.1883833333333","6502700","金山區"
"236065","105-UM","2018/02/06 13:59:16","新北市土城區和平路28號","121.44342","24.9726166666667","6501300","土城區"
"236041","107-UM","2018/02/06 13:56:43","新北市土城區中央路二段280號","121.44064","24.9740266666667","6501300","土城區"
"236075","166-UM","2018/02/06 13:59:28","新北市土城區中央路三段140號","121.433095","24.9655066666667","6501300","土城區"
"236029","253-BX","2018/02/06 13:59:09","新北市土城區城林路6巷80號","121.438356666667","24.9797566666667","6501300","土城區"
"236024","269-VK","2018/02/06 13:59:16","新北市土城區承天路18號","121.439466666667","24.9634116666667","6501300","土城區"
"236013","270-VK","2018/02/06 13:59:19","新北市土城區城林路6巷80號","121.438566666667","24.9798083333333","6501300","土城區"
"236034","271-VK","2018/02/06 13:59:18","新北市土城區城林路6巷80號","121.438408333333","24.97977","6501300","土城區"
"236017","401-BY","2018/02/06 13:59:17","新北市土城區城林路6巷80號","121.438513333333","24.9798083333333","6501300","土城區"
"236006","498-BY","2018/02/06 13:59:12","新北市土城區中央路一段195-1號","121.445985","24.98691","6501300","土城區"
"236057","912-UM","2018/02/06 13:59:15","新北市土城區永寧路1號","121.430406666667","24.9647983333333","6501300","土城區"
"236045","913-UM","2018/02/06 13:59:10","新北市土城區城林路6巷80號","121.438321666667","24.9797266666667","6501300","土城區"
"236061","915-UM","2018/02/06 13:59:13","新北市土城區城林路6巷80號","121.438455","24.9797583333333","6501300","土城區"
"236054","AAC-216","2018/02/06 13:59:28","新北市土城區城林路6巷80號","121.438401666667","24.9796866666667","6501300","土城區"
"220027","145-BY","2018/02/06 13:59:26","新北市板橋區民權路202巷9弄16號","121.459773333333","25.0156033333333","6500100","板橋區"
"220028","200-UY","2018/02/06 13:59:23","新北市板橋區大觀路二段265巷1弄12號","121.443488333333","24.99851","6500100","板橋區"
"220030","610-BX","2018/02/06 13:59:28","新北市板橋區滿平街76號","121.427471666667","24.9892466666667","6500100","板橋區"
"220052","257-TC","2018/02/06 13:59:31","新北市板橋區縣民大道二段279號","121.470075","25.017785","6500100","板橋區"
"220040","267-BY","2018/02/06 13:59:12","新北市板橋區莒光路165巷8號","121.474008333333","25.0241333333333","6500100","板橋區"
"220004","276-BY","2018/02/06 13:59:22","新北市板橋區信義路165號","121.458748333333","24.992405","6500100","板橋區"
"220020","277-BY","2018/02/06 13:59:17","新北市樹林區樹新路207號","121.429696666667","24.9979866666667","6500100","板橋區"
"220050","280-UM","2018/02/06 13:59:29","新北市板橋區文化路二段182巷3弄1號","121.471368333333","25.0272666666667","6500100","板橋區"
"220019","283-VK","2018/02/06 13:59:13","新北市板橋區忠孝路132巷1號","121.463453333333","25.0022516666667","6500100","板橋區"
"220043","285-UM","2018/02/06 13:59:21","新北市板橋區文化路二段76號","121.469561666667","25.0250283333333","6500100","板橋區"
"220001","285-VK","2018/02/06 13:59:21","新北市板橋區中山路二段89巷29號","121.473715","25.0168133333333","6500100","板橋區"
"220031","286-VK","2018/02/06 13:59:20","新北市板橋區大觀路一段38巷170弄1號","121.44194","25.00458","6500100","板橋區"
"220029","287-VK","2018/02/06 13:59:30","新北市板橋區光華街19巷7號","121.45344","25.0120166666667","6500100","板橋區"
"220009","293-UM","2018/02/06 13:59:14","新北市板橋區富山街87號","121.476705","25.0218266666667","6500100","板橋區"
"220105","295-UM","2018/02/06 13:59:26","新北市板橋區文化路二段124巷28-2號","121.47126","25.02563","6500100","板橋區"
"220032","296-UM","2018/02/06 13:59:26","新北市板橋區大觀路三段36巷5-3號","121.43299","24.9958416666667","6500100","板橋區"
"220023","303-R5","2018/02/06 13:59:15","新北市板橋區館前西路211號","121.454633333333","25.00837","6500100","板橋區"
"220010","305-R5","2018/02/06 13:59:30","新北市板橋區三民路二段245巷47號","121.480603333333","25.0125966666667","6500100","板橋區"
"220041","307-R5","2018/02/06 13:59:21","新北市板橋區漢生東路21號","121.464798333333","25.0169633333333","6500100","板橋區"
"220047","317-R6","2018/02/06 13:59:13","新北市板橋區民有街17號","121.466153333333","25.024975","6500100","板橋區"
"220012","486-VK","2018/02/06 13:59:19","新北市板橋區漢生東路178號","121.467058333333","25.0144883333333","6500100","板橋區"
"220038","487-VK","2018/02/06 13:59:15","新北市板橋區文化路二段294號","121.472025","25.029495","6500100","板橋區"
"220037","491-VK","2018/02/06 13:59:24","新北市板橋區文化路二段10號","121.468733333333","25.024165","6500100","板橋區"
"220104","560-BX","2018/02/06 13:59:20","新北市板橋區中正路375巷30號","121.453448333333","25.0207016666667","6500100","板橋區"
"220011","609-BX","2018/02/06 13:59:23","新北市板橋區中山路二段165號","121.475905","25.0167633333333","6500100","板橋區"
"220005","686-BX","2018/02/06 13:59:26","新北市板橋區館前東路60號","121.461078333333","25.007315","6500100","板橋區"
"220025","687-BX","2018/02/06 13:59:26","新北市板橋區大觀路二段156巷33號","121.44105","24.9996616666667","6500100","板橋區"
"220002","741-BX","2018/02/06 13:59:28","新北市板橋區後埔街32號","121.460478333333","25.0061466666667","6500100","板橋區"
"220003","827-TW","2018/02/06 13:59:21","新北市板橋區中山路1段158巷22-1號","121.466435","25.011075","6500100","板橋區"
"220014","829-TW","2018/02/06 13:59:24","新北市板橋區三民路二段正隆巷24-1號","121.477543333333","25.0132","6500100","板橋區"
"220045","830-TW","2018/02/06 13:59:20","新北市板橋區莒光路40巷7弄12號","121.470941666667","25.0237516666667","6500100","板橋區"
"220042","833-TW","2018/02/06 13:59:31","新北市板橋區民生路三段30-5號","121.467533333333","25.0246733333333","6500100","板橋區"
"220022","895-R6","2018/02/06 13:59:26","新北市板橋區南雅南路一段102號","121.454975","25.0045033333333","6500100","板橋區"
"220021","985-R7","2018/02/06 13:59:25","新北市板橋區西門街14號","121.455436666667","25.0115116666667","6500100","板橋區"
"220046","AAC-210","2018/02/06 13:59:21","新北市板橋區陽明街166號","121.463563333333","25.024505","6500100","板橋區"
"220018","AAC-253","2018/02/06 13:59:15","新北市板橋區四川路一段329號","121.458553333333","25.0003483333333","6500100","板橋區"
