"lineid","car","time","location","longitude","latitude","cityid","cityname"
"234005","207-UY","2018/02/06 14:29:18","新北市永和區中正路456號","121.517481666667","25.00294","6500400","永和區"
"234078","298-R6","2018/02/06 14:29:28","新北市永和區永亨路70號","121.520908333333","25.005775","6500400","永和區"
"234036","336-UY","2018/02/06 14:29:11","新北市永和區環河東路四段40號","121.528726666667","24.9988916666667","6500400","永和區"
"234062","337-UY","2018/02/06 14:29:11","新北市永和區中正路433號","121.51711","25.00504","6500400","永和區"
"234084","338-UY","2018/02/06 14:29:27","新北市永和區光復街13號","121.516488333333","25.01735","6500400","永和區"
"234068","552-UM","2018/02/06 14:29:25","新北市永和區永寧街2號","121.520335","25.0065133333333","6500400","永和區"
"234028","746-BX","2018/02/06 14:29:13","新北市永和區民族街67巷12號","121.51911","24.9971783333333","6500400","永和區"
"234052","KEA-2590","2018/02/06 14:29:25","新北市永和區環河東路一段42號","121.51882","25.0169966666667","6500400","永和區"
"234012","KEA-2591","2018/02/06 14:29:18","新北市五股區中興路三段2巷10號","121.448243333333","25.0829316666667","6500400","永和區"
"234060","AAD-866","2018/02/06 14:29:28","新北市永和區秀朗路一段175號","121.517078333333","25.0036816666667","6500400","永和區"
"234040","862-TW","2018/02/06 14:29:16","新北市永和區安樂路348號","121.514505","25.0064166666667","6500400","永和區"
"234048","863-TW","2018/02/06 14:29:07","新北市永和區環河西路二段117號","121.506186666667","25.0145083333333","6500400","永和區"
"234025","9371-KE","2018/02/06 14:29:16","新北市中和區安樂路161-1號","121.514728333333","24.99734","6500400","永和區"
"248017","225-UY","2018/02/06 14:21:16","新北市五股區壟路16-1號","121.414863333333","25.0854033333333","6501500","五股區"
"234076","969-R7","2018/02/06 14:29:17","新北市永和區民族街81巷58號","121.520085","24.9964483333333","6500400","永和區"
"234072","AAC-211","2018/02/06 14:29:21","新北市永和區竹林路39巷3號","121.518153333333","25.0143966666667","6500400","永和區"
"234001","AAC-295","2018/02/06 14:29:20","新北市永和區永和路一段168號","121.51429","25.008625","6500400","永和區"
"231002","002-UM","2018/02/06 14:29:21","新北市新店區中央路21號","121.533225","24.9781516666667","6500600","新店區"
"231028","046-UY","2018/02/06 14:29:11","新北市新店區安康路二段147號","121.51129","24.9599933333333","6500600","新店區"
"231030","047-UY","2018/02/06 14:29:19","新北市新店區碧安街9巷13號","121.516386666667","24.9682766666667","6500600","新店區"
"231029","106-UY","2018/02/06 14:29:21","新北市新店區安康路二段373號","121.495293333333","24.9547016666667","6500600","新店區"
"231018","107-UY","2018/02/06 14:29:16","新北市新店區中央二街69號","121.526341666667","24.974825","6500600","新店區"
"231012","108-UY","2018/02/06 14:29:18","新北市新店區寶興路65巷2號","121.550828333333","24.9716016666667","6500600","新店區"
"231013","110-UY","2018/02/06 14:29:20","新北市新店區民權路108-2號","121.536083333333","24.9834283333333","6500600","新店區"
"231020","187-VK","2018/02/06 14:29:14","新北市新店區新烏路三段49號","121.555541666667","24.9051666666667","6500600","新店區"
"231035","189-VK","2018/02/06 14:29:15","新北市新店區安光路10-1號","121.513868333333","24.9641166666667","6500600","新店區"
"231015","KEA-2219","2018/02/06 14:29:22","新北市新店區北宜路二段384號","121.564991666667","24.9532666666667","6500600","新店區"
"231023","AAD-862","2018/02/06 14:29:19","新北市新店區中興路一段57-1號","121.539951666667","24.9606183333333","6500600","新店區"
"231027","3712-VJ","2018/02/06 14:29:14","新北市新店區寶橋路85巷5弄3號","121.545901666667","24.9757516666667","6500600","新店區"
"231025","3713-VJ","2018/02/06 14:29:15","新北市新店區自立街5號","121.538703333333","24.978245","6500600","新店區"
"231038","4715-K9","2018/02/06 14:29:10","新北市新店區溪洲路160號","121.530281666667","24.964645","6500600","新店區"
"231003","616-UM","2018/02/06 14:29:15","新北市新店區中興路一段268-2號","121.545221666667","24.96777","6500600","新店區"
"231006","617-UM","2018/02/06 14:29:19","新北市新店區北宜路二段427號","121.560568333333","24.9543566666667","6500600","新店區"
"231001","619-UM","2018/02/06 14:29:13","新北市新店區中正路75巷71號","121.543083333333","24.96877","6500600","新店區"
"231034","645-TV","2018/02/06 14:29:29","新北市新店區黎明路53巷2號","121.502371666667","24.9484616666667","6500600","新店區"
"231036","719-UY","2018/02/06 14:29:13","新北市新店區安祥路109巷151弄5號","121.478343333333","24.958795","6500600","新店區"
"231032","720-UM","2018/02/06 14:29:12","新北市新店區安業街215巷9號","121.523081666667","24.9729466666667","6500600","新店區"
"231005","897-TW","2018/02/06 14:29:11","新北市新店區北新路三段55-1號","121.54166","24.9807916666667","6500600","新店區"
"231004","899-TW","2018/02/06 14:29:18","新北市新店區中正路282-1號","121.53833","24.97397","6500600","新店區"
"231037","AKT-0513","2018/02/06 14:29:31","新北市新店區安康路二段320巷6號","121.50455","24.9595916666667","6500600","新店區"
"235030","003-UY","2018/02/06 14:29:21","新北市中和區景新街49號","121.504331666667","24.999015","6500300","中和區"
"235028","005-UY","2018/02/06 14:29:29","新北市中和區中和路42號","121.500181666667","25.0012133333333","6500300","中和區"
"235011","031-BX","2018/02/06 14:29:15","新北市中和區景平路259巷18號","121.507786666667","24.9926733333333","6500300","中和區"
"235020","096-UM","2018/02/06 14:29:18","新北市中和區民富街1號","121.476583333333","25.00688","6500300","中和區"
"235003","097-UM","2018/02/06 14:29:18","新北市中和區秀峰街103巷7弄4號","121.519453333333","24.98896","6500300","中和區"
"235029","098-UM","2018/02/06 14:29:30","新北市中和區永和路9巷1號","121.499253333333","25.00399","6500300","中和區"
"235004","150-BY","2018/02/06 14:29:22","新北市中和區保健路106巷85號","121.51119","24.9944366666667","6500300","中和區"
"235022","151-BY","2018/02/06 14:29:30","新北市中和區員山路36巷16-2號","121.485221666667","24.9916233333333","6500300","中和區"
"235019","183-VK","2018/02/06 14:29:27","新北市中和區德光路24號","121.470903333333","25.0043433333333","6500300","中和區"
"235002","185-VK","2018/02/06 14:29:28","新北市中和區自立路99巷1號","121.522001666667","24.9948183333333","6500300","中和區"
"235013","186-VK","2018/02/06 14:29:14","新北市中和區景新街295巷4號","121.51075","24.9932683333333","6500300","中和區"
"235031","255-BX","2018/02/06 14:29:16","新北市中和區連城路332號","121.483186666667","24.9958416666667","6500300","中和區"
"235008","293-VK","2018/02/06 14:29:24","新北市中和區景安路194號","121.504298333333","24.991615","6500300","中和區"
"235036","301-VK","2018/02/06 14:29:16","新北市中和區光華街31巷22弄28號","121.505885","25.0042883333333","6500300","中和區"
"235007","352-BY","2018/02/06 14:29:20","新北市中和區景平路334號","121.511996666667","24.9926866666667","6500300","中和區"
"235032","377-QA","2018/02/06 14:29:27","新北市中和區廟美街8號","121.500941666667","25.0014833333333","6500300","中和區"
"235025","378-QA","2018/02/06 14:29:21","新北市中和區民利街9巷2弄4號","121.480558333333","24.9987166666667","6500300","中和區"
"235035","269-TV","2018/02/06 14:29:24","新北市中和區中正路637巷48號","121.485535","24.994165","6500300","中和區"
"235014","4979-A6","2018/02/06 14:29:26","新北市中和區中正路545巷1號","121.487395","24.9938466666667","6500300","中和區"
"235033","4980-A6","2018/02/06 14:29:19","新北市中和區連城路134巷15號","121.495168333333","25.0000983333333","6500300","中和區"
"235006","551-UM","2018/02/06 14:29:28","新北市中和區中和路350巷4號","121.510523333333","25.0007516666667","6500300","中和區"
"235009","565-BX","2018/02/06 14:29:23","新北市中和區景新街399巷8號","121.512996666667","24.98985","6500300","中和區"
"235018","640-BX","2018/02/06 14:29:26","新北市中和區國光街112巷16弄2號","121.469761666667","25.0013766666667","6500300","中和區"
"235024","647-TV","2018/02/06 14:29:13","新北市中和區員山路290號","121.481548333333","25.002395","6500300","中和區"
"235010","733-UM","2018/02/06 14:29:32","新北市中和區忠孝街37巷52號","121.511108333333","24.9849216666667","6500300","中和區"
"235026","800-TS","2018/02/06 14:29:21","新北市中和區中山路二段403號","121.486308333333","25.004675","6500300","中和區"
"235021","801-TS","2018/02/06 14:29:12","新北市中和區台新街37號","121.479578333333","25.0051216666667","6500300","中和區"
"235005","802-TS","2018/02/06 14:29:24","新北市中和區安平路148號","121.512375","24.9982483333333","6500300","中和區"
"235016","805-TS","2018/02/06 14:29:29","新北市中和區興南路二段159巷31號","121.505581666667","24.9827066666667","6500300","中和區"
"235012","896-TW","2018/02/06 14:29:26","新北市中和區忠孝街68號","121.511931666667","24.9840216666667","6500300","中和區"
"235017","900-TW","2018/02/06 14:29:26","新北市中和區民德路189巷7號","121.468981666667","24.9986216666667","6500300","中和區"
"235027","911-UM","2018/02/06 14:29:25","新北市中和區連勝街148號","121.494053333333","24.9971716666667","6500300","中和區"
"235015","157-BY","2018/02/06 14:29:31","新北市中和區捷運路3號","121.509658333333","24.98944","6500300","中和區"
"235001","AAC-213","2018/02/06 14:29:14","新北市中和區秀朗路三段10巷14弄16號","121.524986666667","24.9965816666667","6500300","中和區"
"235023","AAC-215","2018/02/06 14:29:26","新北市中和區圓通路252巷4號","121.493155","24.9916633333333","6500300","中和區"
"220016","013-TV","2018/02/06 14:29:27","新北市板橋區萬安街118號","121.483715","25.024505","6500100","板橋區"
"220013","072-UY","2018/02/06 14:29:24","新北市板橋區國泰街75巷28弄52號","121.467696666667","25.00489","6500100","板橋區"
"220034","073-UY","2018/02/06 14:29:32","新北市板橋區中正路250巷50號","121.457415","25.0195583333333","6500100","板橋區"
"220017","AAD-861","2018/02/06 14:29:12","新北市板橋區大明街20巷29弄11號","121.458126666667","25.0034416666667","6500100","板橋區"
"220039","120-SR","2018/02/06 14:29:18","新北市板橋區裕民街74號","121.460901666667","25.02838","6500100","板橋區"
"247021","893-R6","2018/02/06 14:29:11","新北市蘆洲區中正路424-1號","121.462826666667","25.094065","6501400","蘆洲區"
"247011","546-UM","2018/02/06 14:29:15","新北市蘆洲區復興路252號","121.479855","25.0896166666667","6501400","蘆洲區"
"247019","500-BY","2018/02/06 14:29:25","新北市蘆洲區水湳街102號","121.469558333333","25.0926733333333","6501400","蘆洲區"
"247007","341-TH","2018/02/06 14:29:18","新北市蘆洲區民生街6號","121.475838333333","25.0791283333333","6501400","蘆洲區"
"247009","339-TH","2018/02/06 14:29:20","新北市蘆洲區信義路215號","121.47921","25.0835016666667","6501400","蘆洲區"
"247001","337-TH","2018/02/06 14:29:25","新北市蘆洲區永樂街38巷33弄6號","121.45793","25.0896333333333","6501400","蘆洲區"
"247003","336-TH","2018/02/06 14:29:29","新北市蘆洲區長安街223號","121.459723333333","25.0825416666667","6501400","蘆洲區"
"247015","057-VK","2018/02/06 14:27:04","新北市蘆洲區中正路185巷56號","121.466891666667","25.0847883333333","6501400","蘆洲區"
"247005","056-VK","2018/02/06 14:29:24","新北市蘆洲區長安街22巷31弄17號","121.464056666667","25.08036","6501400","蘆洲區"
"247013","007-UY","2018/02/06 14:29:17","新北市蘆洲區中山二路170號","121.470741666667","25.0807383333333","6501400","蘆洲區"
"247023","002-UY","2018/02/06 14:29:14","新北市蘆洲區中正路263巷2號","121.467375","25.0874333333333","6501400","蘆洲區"
"247017","001-UY","2018/02/06 14:29:11","新北市蘆洲區復興路231號","121.480028333333","25.0897233333333","6501400","蘆洲區"
"228004","212-TW","2018/02/06 14:29:19","新北市貢寮區雙玉里田寮洋街33-1號","121.932178333333","25.0135966666667","6502600","貢寮區"
"228005","828-UM","2018/02/06 14:29:25","新北市貢寮區美豐里巫里岸9-1號","121.901938333333","25.0701","6502600","貢寮區"
"227009","400-TW","2018/02/06 14:29:31","新北市雙溪區三貂里政光路3-1號","121.850803333333","25.0630083333333","6502500","雙溪區"
"207002","749-BX","2018/02/06 14:29:26","新北市萬里區崁腳里內崁路10號","121.641331666667","25.1594716666667","6502800","萬里區"
"207001","662-BX","2018/02/06 14:29:32","新北市萬里區磺潭里清水5-1號","121.64106","25.2004116666667","6502800","萬里區"
"252005","AAC-283","2018/02/06 14:29:22","新北市三芝區茂長里陳厝坑15號","121.516853333333","25.2553816666667","6502100","三芝區"
"208004","170-UY","2018/02/06 14:29:17","新北市金山區六股里下六股65號","121.614426666667","25.2236333333333","6502700","金山區"
"236065","105-UM","2018/02/06 14:29:16","新北市土城區永豐路308號","121.472441666667","24.977565","6501300","土城區"
"236041","107-UM","2018/02/06 14:29:22","新北市土城區裕民路67巷13號","121.449868333333","24.988265","6501300","土城區"
"236075","166-UM","2018/02/06 14:29:28","新北市土城區中央路四段27巷10弄2號","121.424716666667","24.9619016666667","6501300","土城區"
"236029","253-BX","2018/02/06 14:29:29","新北市土城區水源街28號","121.440943333333","24.9755033333333","6501300","土城區"
"236024","269-VK","2018/02/06 14:29:16","新北市土城區承天路73號","121.44007","24.9630733333333","6501300","土城區"
"236013","270-VK","2018/02/06 14:29:19","新北市土城區青雲路39巷7號","121.460335","24.9875533333333","6501300","土城區"
"236034","271-VK","2018/02/06 14:29:18","新北市土城區青雲路451巷2弄2號","121.459041666667","24.9746183333333","6501300","土城區"
"236017","401-BY","2018/02/06 14:29:17","新北市土城區永豐路202巷7-1號","121.46627","24.9832416666667","6501300","土城區"
"236006","498-BY","2018/02/06 14:29:11","新北市土城區中華路一段228號","121.44","24.9801983333333","6501300","土城區"
"236057","912-UM","2018/02/06 14:29:15","新北市土城區中央路四段464號","121.409933333333","24.9505766666667","6501300","土城區"
"236045","913-UM","2018/02/06 14:29:10","新北市土城區青雲路457號","121.458688333333","24.9744666666667","6501300","土城區"
"236061","915-UM","2018/02/06 14:29:17","新北市中和區莒光路213號","121.469001666667","24.9946183333333","6501300","土城區"
"236054","AAC-216","2018/02/06 14:29:28","新北市土城區中華路二段61號","121.43948","24.9786066666667","6501300","土城區"
"220027","145-BY","2018/02/06 14:29:26","新北市板橋區建國街8號","121.457105","25.01689","6500100","板橋區"
"220028","200-UY","2018/02/06 14:29:23","新北市板橋區大觀路二段37巷208號","121.449296666667","25.001045","6500100","板橋區"
"220030","610-BX","2018/02/06 14:29:28","新北市板橋區金門街265號","121.431608333333","24.9886083333333","6500100","板橋區"
"220052","257-TC","2018/02/06 14:29:23","新北市板橋區介壽街3號","121.467153333333","25.020315","6500100","板橋區"
"220040","267-BY","2018/02/06 14:29:12","新北市板橋區文聖街149巷22號","121.479503333333","25.0285466666667","6500100","板橋區"
"220004","276-BY","2018/02/06 14:29:22","新北市板橋區國慶路27號","121.458791666667","24.9956666666667","6500100","板橋區"
"220020","277-BY","2018/02/06 14:29:30","新北市板橋區篤行路二段161巷25號","121.430303333333","24.9872716666667","6500100","板橋區"
"220050","280-UM","2018/02/06 14:29:24","新北市板橋區縣民大道三段135號","121.477736666667","25.0233366666667","6500100","板橋區"
"220019","283-VK","2018/02/06 14:29:13","新北市板橋區忠孝路3號","121.459791666667","25.0018383333333","6500100","板橋區"
"220043","285-UM","2018/02/06 14:29:29","新北市板橋區吳鳳路15-2號","121.467671666667","25.0303766666667","6500100","板橋區"
"220001","285-VK","2018/02/06 14:29:23","新北市板橋區永豐街114號","121.476221666667","25.0207133333333","6500100","板橋區"
"220031","286-VK","2018/02/06 14:29:20","新北市板橋區龍興街71巷48號","121.441795","25.002715","6500100","板橋區"
"220029","287-VK","2018/02/06 14:29:25","新北市板橋區大觀路一段75巷32號","121.448391666667","25.0042466666667","6500100","板橋區"
"220009","293-UM","2018/02/06 14:29:14","新北市板橋區中山路一段272巷18-1號","121.469373333333","25.0136766666667","6500100","板橋區"
"220105","295-UM","2018/02/06 14:29:25","新北市板橋區文化路二段417巷1號","121.473795","25.0334233333333","6500100","板橋區"
"220032","296-UM","2018/02/06 14:29:26","新北市板橋區滿平街84巷110弄26號","121.42588","24.985775","6500100","板橋區"
"220023","303-R5","2018/02/06 14:29:15","新北市板橋區南雅西路一段116號","121.452468333333","25.006425","6500100","板橋區"
"220010","305-R5","2018/02/06 14:29:30","新北市板橋區三民路二段181巷4弄1號","121.480003333333","25.0142716666667","6500100","板橋區"
"220041","307-R5","2018/02/06 14:29:21","新北市板橋區松江街14號","121.469211666667","25.026285","6500100","板橋區"
"220047","317-R6","2018/02/06 14:29:32","新北市板橋區民生路三段281巷2弄3號","121.463588333333","25.0300466666667","6500100","板橋區"
"220012","486-VK","2018/02/06 14:29:19","新北市板橋區中山路一段94號","121.462056666667","25.0102516666667","6500100","板橋區"
"220038","487-VK","2018/02/06 14:29:15","新北市板橋區文化路一段247號","121.464275","25.0179933333333","6500100","板橋區"
"220037","491-VK","2018/02/06 14:29:24","新北市板橋區雙十路二段44號","121.475801666667","25.0275533333333","6500100","板橋區"
"220104","560-BX","2018/02/06 14:29:20","新北市板橋區金華街85巷29號","121.458665","25.021305","6500100","板橋區"
"220011","609-BX","2018/02/06 14:29:23","新北市板橋區三民路二段243號","121.479008333333","25.012455","6500100","板橋區"
"220005","686-BX","2018/02/06 14:29:29","新北市板橋區五權街20號","121.464486666667","24.993885","6500100","板橋區"
"220025","687-BX","2018/02/06 14:29:26","新北市板橋區大觀路一段28巷20號","121.449893333333","25.00915","6500100","板橋區"
"220002","741-BX","2018/02/06 14:29:28","新北市板橋區光明街116號","121.463205","25.0030183333333","6500100","板橋區"
"220003","827-TW","2018/02/06 14:29:21","新北市板橋區實踐路159號","121.464253333333","25.0039933333333","6500100","板橋區"
"220014","829-TW","2018/02/06 14:29:24","新北市板橋區漢生東路313巷2弄38-8號","121.472428333333","25.007815","6500100","板橋區"
"220045","830-TW","2018/02/06 14:29:20","新北市板橋區雙十路二段6-12號","121.476771666667","25.02672","6500100","板橋區"
"220042","833-TW","2018/02/06 14:29:16","新北市板橋區漢生西路79巷2號","121.462695","25.019395","6500100","板橋區"
"220022","895-R6","2018/02/06 14:29:27","新北市板橋區大東街48號","121.45645","25.008365","6500100","板橋區"
"220021","985-R7","2018/02/06 14:29:18","新北市板橋區新生街70號","121.457806666667","25.0210966666667","6500100","板橋區"
"220046","AAC-210","2018/02/06 14:29:21","新北市板橋區漢生西路145號","121.462918333333","25.02188","6500100","板橋區"
"220018","AAC-253","2018/02/06 14:29:30","新北市板橋區四川路一段107號","121.459756666667","25.0052416666667","6500100","板橋區"
