"lineid","car","time","location","longitude","latitude","cityid","cityname"
"234025","9371-KE","2018/02/06 14:49:16","新北市永和區雙和街25巷6號","121.508806666667","25.00194","6500400","永和區"
"248017","225-UY","2018/02/06 14:31:35","新北市五股區外寮路6-1號","121.425151666667","25.075135","6501500","五股區"
"231002","002-UM","2018/02/06 14:49:21","新北市新店區民權路79號","121.53834","24.982845","6500600","新店區"
"231028","046-UY","2018/02/06 14:49:31","新北市新店區安德街134號","121.508516666667","24.9602166666667","6500600","新店區"
"231030","047-UY","2018/02/06 14:49:19","新北市新店區安民街378號","121.516405","24.97648","6500600","新店區"
"231029","106-UY","2018/02/06 14:49:21","新北市新店區錦秀路11巷94弄2號","121.480191666667","24.9424033333333","6500600","新店區"
"231018","107-UY","2018/02/06 14:49:16","新北市新店區中央路196號","121.53073","24.97451","6500600","新店區"
"231012","108-UY","2018/02/06 14:49:18","新北市新店區寶橋路80號","121.5463","24.9753716666667","6500600","新店區"
"231013","110-UY","2018/02/06 14:49:20","新北市新店區北新路一段349號","121.54197","24.9691883333333","6500600","新店區"
"231020","187-VK","2018/02/06 14:49:14","新北市新店區永福路42號","121.555453333333","24.9290083333333","6500600","新店區"
"231039","188-VK","2018/02/06 14:49:29","新北市新店區安華路28-1號","121.519731666667","24.9611133333333","6500600","新店區"
"231035","189-VK","2018/02/06 14:49:17","新北市新店區安利街18號","121.519391666667","24.9742816666667","6500600","新店區"
"231015","KEA-2219","2018/02/06 14:49:22","新北市新店區北宜路三段183號","121.586685","24.952755","6500600","新店區"
"231023","AAD-862","2018/02/06 14:49:19","新北市新店區檳榔路109號","121.544525","24.9615533333333","6500600","新店區"
"231027","3712-VJ","2018/02/06 14:49:14","新北市新店區安民街189-4號","121.51656","24.971185","6500600","新店區"
"231025","3713-VJ","2018/02/06 14:49:15","新北市新店區民族路163號","121.537598333333","24.9767333333333","6500600","新店區"
"231003","616-UM","2018/02/06 14:49:15","新北市新店區中興路二段121巷1號","121.547506666667","24.972065","6500600","新店區"
"231006","617-UM","2018/02/06 14:49:15","新北市新店區北宜路一段121-1號","121.540366666667","24.9538016666667","6500600","新店區"
"231001","619-UM","2018/02/06 14:49:32","新北市新店區三民路127號","121.534635","24.9724283333333","6500600","新店區"
"231034","645-TV","2018/02/06 14:49:29","新北市新店區玫瑰路4-1號","121.49358","24.9513866666667","6500600","新店區"
"231036","719-UY","2018/02/06 14:49:13","新北市新店區安祥路106巷2號","121.478986666667","24.9622066666667","6500600","新店區"
"231005","897-TW","2018/02/06 14:49:11","新北市新店區復興路2號","121.532331666667","24.9882816666667","6500600","新店區"
"231004","899-TW","2018/02/06 14:49:18","新北市新店區民族路85號","121.538883333333","24.9778383333333","6500600","新店區"
"231037","AKT-0513","2018/02/06 14:49:31","新北市新店區柴埕路60巷34號","121.505698333333","24.969625","6500600","新店區"
"235030","003-UY","2018/02/06 14:49:21","新北市中和區南工路50號","121.505808333333","25.001455","6500300","中和區"
"235028","005-UY","2018/02/06 14:49:29","新北市中和區圓通路39號","121.500858333333","24.997605","6500300","中和區"
"235011","031-BX","2018/02/06 14:49:15","新北市中和區和平街74號","121.5077","24.9911083333333","6500300","中和區"
"235020","096-UM","2018/02/06 14:49:18","新北市中和區中山路三段114巷35號","121.475416666667","25.008425","6500300","中和區"
"235003","097-UM","2018/02/06 14:49:18","新北市永和區安樂路92號","121.51426","24.9990333333333","6500300","中和區"
"235029","098-UM","2018/02/06 14:49:30","新北市中和區福美路253號","121.498806666667","25.0051266666667","6500300","中和區"
"235004","150-BY","2018/02/06 14:49:22","新北市中和區宜安路11巷19號","121.512663333333","24.9949833333333","6500300","中和區"
"235022","151-BY","2018/02/06 14:49:30","新北市中和區員山路146巷22號","121.482355","24.9967733333333","6500300","中和區"
"235019","183-VK","2018/02/06 14:49:13","新北市中和區德光路70號","121.469365","25.0037883333333","6500300","中和區"
"235002","185-VK","2018/02/06 14:49:27","新北市中和區自立路17號","121.52222","24.9961083333333","6500300","中和區"
"235013","186-VK","2018/02/06 14:49:14","新北市中和區景平路514號","121.503503333333","24.9937516666667","6500300","中和區"
"235031","255-BX","2018/02/06 14:49:16","新北市中和區員山路148巷23弄21號","121.482188333333","24.99812","6500300","中和區"
"235008","293-VK","2018/02/06 14:49:24","新北市中和區南山路198號","121.506043333333","24.9905516666667","6500300","中和區"
"235036","301-VK","2018/02/06 14:49:16","新北市中和區連城路110號","121.496238333333","24.9995566666667","6500300","中和區"
"235007","352-BY","2018/02/06 14:49:20","新北市中和區安和路5-1號","121.511716666667","24.9935883333333","6500300","中和區"
"235032","377-QA","2018/02/06 14:49:27","新北市中和區中山路二段250巷8號","121.49755","25.00293","6500300","中和區"
"235025","378-QA","2018/02/06 14:49:21","新北市中和區員山路127-3號","121.480971666667","24.99579","6500300","中和區"
"235035","269-TV","2018/02/06 14:49:23","新北市中和區建六路76號","121.486741666667","25.0018","6500300","中和區"
"235014","4979-A6","2018/02/06 14:49:25","新北市中和區景平路241巷84弄54號","121.50611","24.9923966666667","6500300","中和區"
"235018","640-BX","2018/02/06 14:49:26","新北市中和區莒光路153號","121.472673333333","25.000915","6500300","中和區"
"235024","647-TV","2018/02/06 14:49:25","新北市中和區新生街16巷18號","121.48248","25.004365","6500300","中和區"
"235010","733-UM","2018/02/06 14:49:12","新北市中和區四維街38號","121.512446666667","24.98703","6500300","中和區"
"235026","800-TS","2018/02/06 14:49:25","新北市中和區中山路二段321-1號","121.493531666667","25.002","6500300","中和區"
"235021","801-TS","2018/02/06 14:49:12","新北市中和區員山路150-29號","121.481371666667","24.9982233333333","6500300","中和區"
"235005","802-TS","2018/02/06 14:49:13","新北市中和區宜安路118巷20號","121.510883333333","24.9985783333333","6500300","中和區"
"235016","805-TS","2018/02/06 14:49:12","新北市中和區興南路二段117巷17號","121.505898333333","24.98397","6500300","中和區"
"235012","896-TW","2018/02/06 14:49:26","新北市中和區忠孝街103號","121.511983333333","24.9862133333333","6500300","中和區"
"235017","900-TW","2018/02/06 14:49:26","新北市中和區國光街215巷7-3號","121.46658","25.0014733333333","6500300","中和區"
"235027","911-UM","2018/02/06 14:49:25","新北市中和區連城路174巷21-1號","121.4924","24.9985033333333","6500300","中和區"
"235015","157-BY","2018/02/06 14:49:31","新北市中和區中興街180巷52弄3號","121.498485","24.9883533333333","6500300","中和區"
"235001","AAC-213","2018/02/06 14:49:14","新北市中和區秀朗路三段163號","121.524606666667","24.991935","6500300","中和區"
"235023","AAC-215","2018/02/06 14:49:26","新北市中和區圓通路305巷5弄52號","121.494888333333","24.9900883333333","6500300","中和區"
"220016","013-TV","2018/02/06 14:49:21","新北市板橋區中山路二段412巷29弄22號","121.48447","25.020205","6500100","板橋區"
"220013","072-UY","2018/02/06 14:49:24","新北市板橋區民族路270巷37號","121.469203333333","25.0060833333333","6500100","板橋區"
"220034","073-UY","2018/02/06 14:49:20","新北市板橋區中正路23號","121.45621","25.012595","6500100","板橋區"
"220017","AAD-861","2018/02/06 14:49:32","新北市板橋區南雅南路二段100號","121.453601666667","25.0011716666667","6500100","板橋區"
"220039","120-SR","2018/02/06 14:49:19","新北市板橋區龍泉街72巷21號","121.456346666667","25.02636","6500100","板橋區"
"247007","341-TH","2018/02/06 14:49:18","新北市蘆洲區中山一路131號","121.475781666667","25.0812366666667","6501400","蘆洲區"
"247001","337-TH","2018/02/06 14:49:25","新北市蘆洲區永康街2巷2號","121.459413333333","25.08612","6501400","蘆洲區"
"247003","336-TH","2018/02/06 14:49:29","新北市蘆洲區長安街305號","121.457958333333","25.0850833333333","6501400","蘆洲區"
"247015","057-VK","2018/02/06 14:49:23","新北市蘆洲區正和街96巷43號","121.467238333333","25.0816033333333","6501400","蘆洲區"
"247013","007-UY","2018/02/06 14:49:17","新北市蘆洲區成功路132號","121.472171666667","25.08266","6501400","蘆洲區"
"247023","002-UY","2018/02/06 14:49:14","新北市蘆洲區和平路79號","121.46897","25.079265","6501400","蘆洲區"
"228004","212-TW","2018/02/06 14:49:19","新北市貢寮區福隆里裕隆街3號","121.946286666667","25.015785","6502600","貢寮區"
"228005","828-UM","2018/02/06 14:49:25","新北市貢寮區美豐里丹裡街59-2號","121.91002","25.0589766666667","6502600","貢寮區"
"227009","400-TW","2018/02/06 14:49:31","新北市雙溪區三貂里政光路3-1號","121.850783333333","25.0630466666667","6502500","雙溪區"
"207002","749-BX","2018/02/06 14:49:15","新北市萬里區崁腳里崁腳路73號","121.64762","25.15956","6502800","萬里區"
"207001","662-BX","2018/02/06 14:49:31","新北市萬里區雙興里二坪路11號","121.646171666667","25.1750166666667","6502800","萬里區"
"252005","AAC-283","2018/02/06 14:49:22","新北市三芝區埔坪里埔頭坑114號","121.515498333333","25.24649","6502100","三芝區"
"208004","170-UY","2018/02/06 14:49:17","新北市金山區兩湖里倒照湖22號","121.589051666667","25.2342966666667","6502700","金山區"
"236065","105-UM","2018/02/06 14:49:16","新北市土城區明德路一段231號","121.4629","24.9783716666667","6501300","土城區"
"236041","107-UM","2018/02/06 14:49:23","新北市土城區裕民路136巷4弄2號","121.451145","24.98581","6501300","土城區"
"236075","166-UM","2018/02/06 14:49:28","新北市土城區中央路四段185巷44號","121.416205","24.955835","6501300","土城區"
"236029","253-BX","2018/02/06 14:49:29","新北市土城區忠義路26巷19號","121.439788333333","24.969865","6501300","土城區"
"236024","269-VK","2018/02/06 14:49:16","新北市土城區慶安街33號","121.44142","24.9732816666667","6501300","土城區"
"236013","270-VK","2018/02/06 14:49:19","新北市土城區金城路二段356號","121.461455","24.9850133333333","6501300","土城區"
"236034","271-VK","2018/02/06 14:49:18","新北市土城區明德路一段195巷2弄30號","121.463328333333","24.9783583333333","6501300","土城區"
"236017","401-BY","2018/02/06 14:49:17","新北市土城區延安街37巷1號","121.468058333333","24.9841883333333","6501300","土城區"
"236057","912-UM","2018/02/06 14:49:15","新北市土城區中央路三段155號","121.432035","24.9653383333333","6501300","土城區"
"236045","913-UM","2018/02/06 14:49:30","新北市板橋區信義路170巷10號","121.459911666667","24.9906583333333","6501300","土城區"
"236061","915-UM","2018/02/06 14:49:13","新北市土城區金城路三段207巷6弄1號","121.470268333333","24.9899983333333","6501300","土城區"
"236054","AAC-216","2018/02/06 14:49:28","新北市土城區裕民路179號","121.453365","24.9846916666667","6501300","土城區"
"220027","145-BY","2018/02/06 14:49:26","新北市板橋區中正路189號","121.456451666667","25.01692","6500100","板橋區"
"220028","200-UY","2018/02/06 14:49:31","新北市板橋區大觀路二段163巷23號","121.446768333333","25.000115","6500100","板橋區"
"220030","610-BX","2018/02/06 14:49:28","新北市板橋區溪北路89號","121.428526666667","24.9894066666667","6500100","板橋區"
"220052","257-TC","2018/02/06 14:49:23","新北市板橋區陽明街27巷12號","121.465436666667","25.0212333333333","6500100","板橋區"
"220040","267-BY","2018/02/06 14:49:12","新北市板橋區民治街81巷15號","121.480366666667","25.032205","6500100","板橋區"
"220004","276-BY","2018/02/06 14:49:22","新北市板橋區四川路二段99巷4弄2號","121.452863333333","24.9942","6500100","板橋區"
"220020","277-BY","2018/02/06 14:49:18","新北市板橋區金門街215巷85弄5號","121.433926666667","24.9890266666667","6500100","板橋區"
"220050","280-UM","2018/02/06 14:49:24","新北市板橋區縣民大道三段93巷34號","121.474771666667","25.022535","6500100","板橋區"
"220019","283-VK","2018/02/06 14:49:33","新北市板橋區五權街30巷37弄7號","121.463528333333","24.9925116666667","6500100","板橋區"
"220043","285-UM","2018/02/06 14:49:20","新北市板橋區民生路三段309號","121.463391666667","25.03105","6500100","板橋區"
"220001","285-VK","2018/02/06 14:49:29","新北市板橋區中山路二段60巷1弄21號","121.474988333333","25.015705","6500100","板橋區"
"220031","286-VK","2018/02/06 14:49:26","新北市板橋區僑中二街10巷39-1號","121.44539","25.0111433333333","6500100","板橋區"
"220029","287-VK","2018/02/06 14:49:24","新北市板橋區僑中一街70號","121.447951666667","25.011445","6500100","板橋區"
"220009","293-UM","2018/02/06 14:49:14","新北市板橋區觀光街1巷9號","121.471926666667","25.0153766666667","6500100","板橋區"
"220105","295-UM","2018/02/06 14:49:27","新北市板橋區文化路608巷50-1號","121.479341666667","25.03453","6500100","板橋區"
"220032","296-UM","2018/02/06 14:49:26","新北市板橋區溪崑二街92號","121.426785","24.9892316666667","6500100","板橋區"
"220023","303-R5","2018/02/06 14:49:15","新北市板橋區大勇街1巷2號","121.455133333333","25.01747","6500100","板橋區"
"220010","305-R5","2018/02/06 14:49:10","新北市板橋區光復街52巷1號","121.482118333333","25.0179483333333","6500100","板橋區"
"220041","307-R5","2018/02/06 14:49:23","新北市板橋區自由路51巷22號","121.464603333333","25.0233733333333","6500100","板橋區"
"220047","317-R6","2018/02/06 14:49:13","新北市板橋區四維路269巷81-2號","121.460045","25.0268016666667","6500100","板橋區"
"220012","486-VK","2018/02/06 14:49:19","新北市板橋區中山路一段139-5號","121.462513333333","25.0112183333333","6500100","板橋區"
"220038","487-VK","2018/02/06 14:49:24","新北市板橋區英士路199號","121.458831666667","25.0235183333333","6500100","板橋區"
"220037","491-VK","2018/02/06 14:49:30","新北市板橋區文聖街79號","121.477373333333","25.0303166666667","6500100","板橋區"
"220011","609-BX","2018/02/06 14:49:23","新北市板橋區萬安街67號","121.483801666667","25.02396","6500100","板橋區"
"220005","686-BX","2018/02/06 14:49:26","新北市板橋區廣和街65號","121.46257","24.9928716666667","6500100","板橋區"
"220025","687-BX","2018/02/06 14:49:25","新北市板橋區僑中三街21號","121.445925","25.0042233333333","6500100","板橋區"
"220002","741-BX","2018/02/06 14:49:28","新北市板橋區實踐路65巷1號","121.46397","25.0065183333333","6500100","板橋區"
"220003","827-TW","2018/02/06 14:49:21","新北市板橋區仁愛路62巷14弄1-3號","121.459951666667","24.9984583333333","6500100","板橋區"
"220014","829-TW","2018/02/06 14:49:24","新北市板橋區長安街331巷17號","121.47381","25.01255","6500100","板橋區"
"220045","830-TW","2018/02/06 14:49:23","新北市板橋區民生路二段226巷19號","121.470593333333","25.0219883333333","6500100","板橋區"
"220042","833-TW","2018/02/06 14:49:16","新北市板橋區新海路390號","121.458911666667","25.0263883333333","6500100","板橋區"
"220022","895-R6","2018/02/06 14:49:18","新北市板橋區府中路7號","121.459838333333","25.009595","6500100","板橋區"
"220021","985-R7","2018/02/06 14:49:27","新北市板橋區南雅西路二段210號","121.452008333333","25.0150416666667","6500100","板橋區"
"220046","AAC-210","2018/02/06 14:49:21","新北市板橋區漢生西路58巷1弄1號","121.463361666667","25.01892","6500100","板橋區"
"220018","AAC-253","2018/02/06 14:49:30","新北市板橋區民族路153號","121.468155","25.007755","6500100","板橋區"
