"lineid","car","time","location","longitude","latitude","cityid","cityname"
"234026","9371-KE","2018/02/06 17:59:14","新北市永和區永和路一段41號","121.512785","25.0062216666667","6500400","永和區"
"249005","172-UM","2018/02/06 17:59:24","新北市八里區荖阡坑路18號","121.397843333333","25.1382616666667","6502300","八里區"
"249001","173-UM","2018/02/06 17:59:17","新北市八里區龍米路二段30號","121.448665","25.14004","6502300","八里區"
"249004","303-UY","2018/02/06 17:59:23","新北市八里區大崁腳41-6號","121.423693333333","25.1589066666667","6502300","八里區"
"249002","305-UY","2018/02/06 17:59:32","新北市八里區龍形五街15號","121.450035","25.1334666666667","6502300","八里區"
"249003","593-UM","2018/02/06 17:59:15","新北市八里區中山路二段181號","121.40474","25.150115","6502300","八里區"
"248006","077-UY","2018/02/06 17:59:21","新北市五股區中興路二段37巷28號","121.460063333333","25.074975","6501500","五股區"
"248008","095-VK","2018/02/06 17:59:34","新北市五股區更洲路40號","121.457721666667","25.079335","6501500","五股區"
"248020","225-UY","2018/02/06 17:59:31","新北市五股區中興路二段83巷26-6號","121.459971666667","25.0752533333333","6501500","五股區"
"248004","677-BX","2018/02/06 17:59:35","新北市五股區中興路二段163號","121.457621666667","25.0776283333333","6501500","五股區"
"248002","678-BX","2018/02/06 17:54:15","新北市五股區中興路二段37巷28號","121.460328333333","25.0749","6501500","五股區"
"232011","375-UM","2018/02/06 17:59:29","新北市坪林區北宜路八段229號","121.709071666667","24.9349983333333","6502000","坪林區"
"244013","069-UM","2018/02/06 17:59:31","新北市林口區中山路67號","121.393675","25.0784583333333","6501700","林口區"
"244007","080-UY","2018/02/06 17:59:19","新北市林口區林口路222號","121.386948333333","25.083595","6501700","林口區"
"244019","402-UM","2018/02/06 17:59:21","新北市林口區忠孝路542巷5號","121.373018333333","25.0675916666667","6501700","林口區"
"244009","410-SL","2018/02/06 17:59:23","新北市林口區竹林路582巷11號","121.38603","25.0832833333333","6501700","林口區"
"244023","483-VK","2018/02/06 17:59:21","新北市林口區東湖路93巷74號","121.385555","25.0707366666667","6501700","林口區"
"244017","485-VK","2018/02/06 17:59:28","新北市林口區文化二路一段232號","121.369795","25.0725083333333","6501700","林口區"
"244011","701-TV","2018/02/06 17:59:32","新北市林口區中正路268號","121.389291666667","25.0777266666667","6501700","林口區"
"244025","837-TS","2018/02/06 17:59:34","新北市林口區文化三路一段39巷128-1號","121.359531666667","25.0686216666667","6501700","林口區"
"244021","838-TS","2018/02/06 17:59:28","新北市林口區新寮27-1號","121.397308333333","25.0681533333333","6501700","林口區"
"243013","646-TV","2018/02/06 17:59:04","新北市泰山區大科一路139號","121.412185","25.0586883333333","6501600","泰山區"
"222003","436-BY","2018/02/06 17:59:28","新北市深坑區炮子崙23號","121.607181666667","24.9909283333333","6501800","深坑區"
"222002","659-BX","2018/02/06 17:59:29","新北市深坑區深坑街35號","121.616031666667","25.0018466666667","6501800","深坑區"
"221015","KEA-2785","2018/02/06 17:59:19","新北市汐止區長江街255巷6號","121.663616666667","25.0798","6501100","汐止區"
"231046","278-BY","2018/02/06 17:59:27","新北市新店區康雅崙路31號","121.537373333333","24.9263083333333","6500600","新店區"
"231054","AAD-862","2018/02/06 17:59:20","新北市新店區安華路28-1號","121.519796666667","24.96095","6500600","新店區"
"241024","065-VK","2018/02/06 17:59:17","新北市三重區國道路一段42號","121.483185","25.0729366666667","6500200","三重區"
"241016","266-UM","2018/02/06 17:59:25","新北市新莊區五工一路91號","121.461195","25.0679466666667","6500200","三重區"
"241033","AAC-255","2018/02/06 17:59:25","新北市三重區重新路五段561號","121.470415","25.0459616666667","6500200","三重區"
"235064","005-UY","2018/02/06 17:59:25","新北市中和區員山路36巷16-2號","121.485265","24.9913783333333","6500300","中和區"
"235065","098-UM","2018/02/06 17:59:32","新北市中和區民樂路78號","121.48445","25.0011983333333","6500300","中和區"
"235058","151-BY","2018/02/06 17:59:33","新北市中和區錦和路350-1號","121.490038333333","24.9935083333333","6500300","中和區"
"235038","185-VK","2018/02/06 17:59:26","新北市中和區景平路279-5號","121.507641666667","24.993065","6500300","中和區"
"235042","551-UM","2018/02/06 17:59:23","新北市中和區錦和路350-1號","121.489956666667","24.9934466666667","6500300","中和區"
"235046","733-UM","2018/02/06 17:59:27","新北市中和區員山路36巷13號","121.484095","24.99086","6500300","中和區"
"235062","800-TS","2018/02/06 17:59:17","新北市中和區連城路469巷40號","121.483528333333","24.9946066666667","6500300","中和區"
"235057","801-TS","2018/02/06 17:59:28","新北市中和區員山路36巷16-3號","121.485068333333","24.9914166666667","6500300","中和區"
"235051","157-BY","2018/02/06 17:59:25","新北市中和區員山路36巷13號","121.484096666667","24.9908833333333","6500300","中和區"
"235037","AAC-213","2018/02/06 17:59:20","新北市中和區錦和路350-1號","121.490243333333","24.9935216666667","6500300","中和區"
"247012","546-UM","2018/02/06 17:59:32","新北市蘆洲區民族路252號","121.479026666667","25.0886816666667","6501400","蘆洲區"
"247020","500-BY","2018/02/06 17:59:30","新北市蘆洲區民義街35巷16號","121.471461666667","25.0898983333333","6501400","蘆洲區"
"247008","341-TH","2018/02/06 17:59:31","新北市蘆洲區中山一路286號","121.470955","25.078515","6501400","蘆洲區"
"247002","337-TH","2018/02/06 17:59:24","新北市蘆洲區永平街32巷57弄10號","121.459473333333","25.093005","6501400","蘆洲區"
"247016","057-VK","2018/02/06 17:58:46","新北市蘆洲區保和街50-33號","121.469316666667","25.0867916666667","6501400","蘆洲區"
"247006","056-VK","2018/02/06 17:59:34","新北市蘆洲區中華街31號","121.463255","25.0814383333333","6501400","蘆洲區"
"247014","007-UY","2018/02/06 17:59:20","新北市蘆洲區忠孝路100號","121.471396666667","25.086145","6501400","蘆洲區"
"247024","002-UY","2018/02/06 17:59:30","新北市蘆洲區光復路41巷17號","121.462743333333","25.0852316666667","6501400","蘆洲區"
"247018","001-UY","2018/02/06 17:59:22","新北市蘆洲區復興路302號","121.48132","25.0900766666667","6501400","蘆洲區"
"228001","212-TW","2018/02/06 17:59:20","新北市貢寮區真理里新港街26巷53號","121.928036666667","25.053575","6502600","貢寮區"
"228002","585-TW","2018/02/06 17:59:25","新北市貢寮區福隆里桂安街15號","121.963188333333","25.021045","6502600","貢寮區"
"228003","828-UM","2018/02/06 17:59:21","新北市貢寮區真理里美艷山街6-2號","121.928815","25.0607683333333","6502600","貢寮區"
"224010","AGQ-8101","2018/02/06 17:59:21","新北市瑞芳區金光路372號","121.849055","25.1110083333333","6501200","瑞芳區"
"224006","676-BX","2018/02/06 17:59:33","新北市瑞芳區傑魚坑路183號","121.78848","25.108315","6501200","瑞芳區"
"224002","639-TC","2018/02/06 17:59:29","新北市瑞芳區三爪子坑路34號","121.810533333333","25.1061783333333","6501200","瑞芳區"
"224009","285-BY","2018/02/06 17:59:32","新北市瑞芳區山尖路187號","121.851513333333","25.1117016666667","6501200","瑞芳區"
"224008","275-VK","2018/02/06 17:59:29","新北市瑞芳區明燈路一段45巷87號","121.821971666667","25.1045166666667","6501200","瑞芳區"
"224005","271-BY","2018/02/06 17:59:30","新北市瑞芳區深澳路18-1號","121.820245","25.1330683333333","6501200","瑞芳區"
"253005","032-BX","2018/02/06 17:59:20","新北市石門區中山路62-11號","121.56753","25.2896816666667","6502200","石門區"
"253006","741-TV","2018/02/06 17:59:22","新北市石門區大丘田45-2號","121.549823333333","25.2748233333333","6502200","石門區"
"222001","KEA-2212","2018/02/06 17:59:23","新北市深坑區北深路二段193號","121.611986666667","25.00118","6501800","深坑區"
"208002","742-BX","2018/02/06 17:59:19","新北市金山區清泉里清水路5號","121.630155","25.2275533333333","6502700","金山區"
"208003","665-BX","2018/02/06 17:59:17","新北市金山區磺港里磺港路202-1號","121.645136666667","25.2274716666667","6502700","金山區"
"208001","761-BX","2018/02/06 17:59:19","新北市金山區磺港里磺港路169號","121.64255","25.22461","6502700","金山區"
"251004","009-UM","2018/02/06 17:59:07","新北市淡水區民權路187號","121.45959","25.1335883333333","6501000","淡水區"
"251001","011-UM","2018/02/06 17:59:21","新北市淡水區民權路94巷1號","121.463103333333","25.124855","6501000","淡水區"
"251013","179-VK","2018/02/06 17:59:23","新北市淡水區泉洲厝31號","121.479576666667","25.19107","6501000","淡水區"
"251014","180-VK","2018/02/06 17:59:25","新北市淡水區公埔子16-6號","121.481008333333","25.22458","6501000","淡水區"
"251008","181-VK","2018/02/06 17:59:33","新北市淡水區八勢一街43-8號","121.46192","25.155755","6501000","淡水區"
"251015","182-VK","2018/02/06 17:59:19","新北市淡水區興福寮88巷1號","121.485608333333","25.165015","6501000","淡水區"
"251010","413-VK","2018/02/06 17:59:21","新北市淡水區中正路一段132巷22號","121.422978333333","25.1799266666667","6501000","淡水區"
"251012","441-VK","2018/02/06 17:59:16","新北市淡水區北新路三段38巷7號","121.484496666667","25.1869833333333","6501000","淡水區"
"251016","442-VK","2018/02/06 17:59:23","新北市淡水區埤島30-12號","121.44782","25.1982566666667","6501000","淡水區"
"251005","443-VK","2018/02/06 17:59:34","新北市淡水區英專路134號","121.446845","25.1727783333333","6501000","淡水區"
"251006","561-UM","2018/02/06 17:59:21","新北市淡水區真理街1-1號","121.438086666667","25.1730116666667","6501000","淡水區"
"251009","575-R6","2018/02/06 17:59:28","新北市淡水區大仁街6巷1號","121.442441666667","25.1746466666667","6501000","淡水區"
"251007","577-R6","2018/02/06 17:59:16","新北市淡水區中正東路二段145號","121.459803333333","25.1476433333333","6501000","淡水區"
"251011","650-BX","2018/02/06 17:59:34","新北市淡水區三空泉6-3號","121.476851666667","25.1624183333333","6501000","淡水區"
"251002","672-BX","2018/02/06 17:59:18","新北市淡水區鼻頭街18-5號","121.446806666667","25.16674","6501000","淡水區"
"251003","673-BX","2018/02/06 17:59:27","新北市淡水區大忠街47號","121.444728333333","25.176405","6501000","淡水區"
"207003","550-UM","2018/02/06 17:59:34","新北市萬里區港東路野柳風景區攤販66號","121.691305","25.20585","6502800","萬里區"
"207004","225-TW","2018/02/06 17:59:29","新北市萬里區中幅里中福路48號","121.683298333333","25.1740333333333","6502800","萬里區"
"252001","292-VK","2018/02/06 17:59:32","新北市三芝區中興街二段2號","121.498416666667","25.256635","6502100","三芝區"
"252002","AAC-283","2018/02/06 17:59:25","新北市三芝區中山路二段43號","121.503005","25.255025","6502100","三芝區"
"237004","KEA-2597","2018/02/06 17:59:18","新北市三峽區中園街122號","121.367193333333","24.92238","6500900","三峽區"
"237007","153-BY","2018/02/06 17:59:22","新北市三峽區中園街108-1號","121.366995","24.9229766666667","6500900","三峽區"
"237009","210-TH","2018/02/06 17:59:34","新北市三峽區大勇路3巷7號","121.368066666667","24.93704","6500900","三峽區"
"237013","252-BX","2018/02/06 17:59:17","新北市三峽區介壽路一段71-1號","121.375778333333","24.93237","6500900","三峽區"
"237012","275-BY","2018/02/06 17:59:20","新北市三峽區民生街75號","121.374908333333","24.93595","6500900","三峽區"
"237008","302-VK","2018/02/06 17:59:15","新北市三峽區白雞28號","121.368926666667","24.912415","6500900","三峽區"
"237014","433-BY","2018/02/06 17:59:26","新北市三峽區復興路101巷1弄73-2號","121.371268333333","24.93746","6500900","三峽區"
"237006","5529-G3","2018/02/06 17:59:28","新北市三峽區介壽路二段138巷1弄88號","121.397975","24.932225","6500900","三峽區"
"237011","KEA-2596","2018/02/06 17:59:21","新北市三峽區大同路25號","121.376993333333","24.9284433333333","6500900","三峽區"
"237016","649-BX","2018/02/06 17:59:28","新北市三峽區紫微路87號","121.404128333333","24.9083633333333","6500900","三峽區"
"237010","706-TV","2018/02/06 17:59:35","新北市三峽區仁愛街2號","121.368423333333","24.9340633333333","6500900","三峽區"
"237005","AKY-6261","2018/02/06 17:59:24","新北市三峽區復興路239-2號","121.368188333333","24.9384416666667","6500900","三峽區"
"236070","105-UM","2018/02/06 17:59:30","新北市土城區青雲路665-2號","121.466375","24.9646866666667","6501300","土城區"
"236043","107-UM","2018/02/06 17:59:35","新北市土城區城林路6巷80號","121.438511666667","24.97975","6501300","土城區"
"236079","166-UM","2018/02/06 17:59:24","新北市土城區永寧路32巷10弄23號","121.428865","24.9610583333333","6501300","土城區"
"236031","253-BX","2018/02/06 17:59:32","新北市土城區城林路6巷80號","121.438571666667","24.9795866666667","6501300","土城區"
"236026","269-VK","2018/02/06 17:59:18","新北市土城區承天路67號","121.43953","24.9635116666667","6501300","土城區"
"236015","270-VK","2018/02/06 17:59:32","新北市土城區城林路6巷80號","121.438473333333","24.9795916666667","6501300","土城區"
"236038","271-VK","2018/02/06 17:59:34","新北市土城區中正路1號","121.442115","24.9751233333333","6501300","土城區"
"236023","401-BY","2018/02/06 17:59:26","新北市土城區城林路6巷80號","121.43867","24.9796583333333","6501300","土城區"
"236059","912-UM","2018/02/06 17:59:27","新北市土城區中央路三段193號","121.430318333333","24.96474","6501300","土城區"
"236049","913-UM","2018/02/06 17:59:23","新北市土城區中華路二段1號","121.439555","24.9791566666667","6501300","土城區"
"236063","915-UM","2018/02/06 17:59:32","新北市土城區城林路6巷80號","121.438603333333","24.9797266666667","6501300","土城區"
"236055","AAC-216","2018/02/06 17:59:35","新北市土城區城林路6巷80號","121.438535","24.9796083333333","6501300","土城區"
"242032","AAC-296","2018/02/06 17:59:28","新北市新莊區新泰路340號","121.444695","25.042365","6500500","新莊區"
"242029","986-R7","2018/02/06 17:59:31","新北市新莊區中平路39號","121.444726666667","25.0440016666667","6500500","新莊區"
"242025","615-BX","2018/02/06 17:59:17","新北市新莊區新北大道二段370號","121.462096666667","25.0609216666667","6500500","新莊區"
"242023","613-BX","2018/02/06 17:59:31","新北市新莊區福壽街69號","121.458201666667","25.0495183333333","6500500","新莊區"
"242027","612-BX","2018/02/06 17:59:23","新北市新莊區思源路455號","121.459883333333","25.0534466666667","6500500","新莊區"
"242039","566-BX","2018/02/06 17:59:15","新北市新莊區民安西路22號","121.426681666667","25.0213416666667","6500500","新莊區"
"242044","442-UM","2018/02/06 17:59:20","新北市新莊區雙鳳路163巷2號","121.412796666667","25.0267916666667","6500500","新莊區"
"242054","440-UM","2018/02/06 17:59:18","新北市新莊區光華街4號","121.428681666667","25.0106","6500500","新莊區"
"242034","415-TV","2018/02/06 17:59:22","新北市新莊區中正路421巷9號","121.444693333333","25.0338683333333","6500500","新莊區"
"242005","413-TV","2018/02/06 17:59:34","新北市新莊區思源路177巷35號","121.459211666667","25.046775","6500500","新莊區"
"242042","400-BY","2018/02/06 17:59:29","新北市泰山區壽山路52號","121.420216666667","25.0291366666667","6500500","新莊區"
"242061","362-BY","2018/02/06 17:59:27","新北市新莊區新樹路525-3號","121.432728333333","25.0100833333333","6500500","新莊區"
"242058","353-BY","2018/02/06 17:59:26","新北市新莊區雙鳳路134巷8號","121.412796666667","25.028195","6500500","新莊區"
"242007","132-UY","2018/02/06 17:59:30","新北市新莊區自信街75巷13號","121.455696666667","25.0488566666667","6500500","新莊區"
"242037","133-UY","2018/02/06 17:59:25","新北市新莊區建福路51號","121.426783333333","25.0277283333333","6500500","新莊區"
"242021","135-UY","2018/02/06 17:59:34","新北市新莊區中正路160號","121.451498333333","25.035995","6500500","新莊區"
"242046","172-VK","2018/02/06 17:59:21","新北市新莊區福營路141號","121.432598333333","25.031615","6500500","新莊區"
"242015","175-VK","2018/02/06 17:59:35","新北市新莊區中平路87巷8號","121.444288333333","25.0459133333333","6500500","新莊區"
"242002","176-VK","2018/02/06 17:59:24","新北市新莊區中正路157號","121.455766666667","25.0366716666667","6500500","新莊區"
"242013","346-TH","2018/02/06 17:59:18","新北市新莊區中和街118號","121.447528333333","25.0477316666667","6500500","新莊區"
"242051","347-TH","2018/02/06 17:59:28","新北市新莊區民安西路155巷7弄13號","121.426836666667","25.016635","6500500","新莊區"
"242019","348-TH","2018/02/06 17:59:20","新北市新莊區明中街51巷1號","121.456798333333","25.0396983333333","6500500","新莊區"
"242056","349-TH","2018/02/06 17:59:34","新北市新莊區豐年街124巷22號","121.445468333333","25.02993","6500500","新莊區"
"242017","350-TH","2018/02/06 17:59:29","新北市新莊區中和街60巷47號","121.449911666667","25.045035","6500500","新莊區"
"242011","351-TH","2018/02/06 17:59:21","新北市新莊區中榮街56巷12號","121.449215","25.0536416666667","6500500","新莊區"
"238015","755-BX","2018/02/06 17:59:18","新北市樹林區復興路223號","121.420121666667","24.9910633333333","6500700","樹林區"
"238023","601-UM","2018/02/06 17:59:23","新北市樹林區龍興街30號","121.402755","25.0158583333333","6500700","樹林區"
"238019","599-UM","2018/02/06 17:59:19","新北市樹林區水源街12號","121.425386666667","24.9822216666667","6500700","樹林區"
"238018","571-TV","2018/02/06 17:59:28","新北市樹林區博愛街194號","121.424858333333","24.989565","6500700","樹林區"
"238021","KEA-2217","2018/02/06 17:59:25","新北市樹林區田尾街82號","121.4091","24.9580433333333","6500700","樹林區"
"238022","KEA-2213","2018/02/06 17:59:35","新北市樹林區福順街69號","121.416338333333","24.9781616666667","6500700","樹林區"
"238025","303-VK","2018/02/06 17:59:19","新北市樹林區俊興街228號","121.417816666667","25.0151433333333","6500700","樹林區"
"238017","283-BY","2018/02/06 17:59:35","新北市樹林區俊德街36號","121.4152","25.0141133333333","6500700","樹林區"
"238014","282-BY","2018/02/06 17:59:24","新北市樹林區大安路65號","121.423631666667","24.998945","6500700","樹林區"
"238020","268-VK","2018/02/06 17:59:26","新北市樹林區三俊街199巷10-4號","121.420141666667","25.0161833333333","6500700","樹林區"
"238026","172-UY","2018/02/06 17:59:19","新北市樹林區中洲街30巷13弄35號","121.398183333333","24.9722733333333","6500700","樹林區"
"238016","169-UY","2018/02/06 17:59:21","新北市樹林區復興路372巷10號","121.415265","24.9861516666667","6500700","樹林區"
"239007","AAC-297","2018/02/06 17:59:27","新北市鶯歌區鶯桃路94巷33-1號","121.342141666667","24.9546266666667","6500800","鶯歌區"
"239006","891-R6","2018/02/06 17:59:22","新北市鶯歌區鶯桃路413巷40號","121.330818333333","24.9634933333333","6500800","鶯歌區"
"239008","527-UM","2018/02/06 17:59:30","新北市鶯歌區國際一路167號","121.33581","24.978045","6500800","鶯歌區"
"239005","526-UM","2018/02/06 17:59:17","新北市鶯歌區鳳吉五街7號","121.326576666667","24.9722433333333","6500800","鶯歌區"
"239001","417-VK","2018/02/06 17:59:23","新北市鶯歌區中正三路215號","121.335195","24.9392366666667","6500800","鶯歌區"
"239003","360-BY","2018/02/06 17:59:31","新北市鶯歌區永吉街57號","121.335393333333","24.95685","6500800","鶯歌區"
"221008","489-VK","2018/02/06 17:59:17","新北市汐止區明峰街15-1號","121.634785","25.0714533333333","6501100","汐止區"
"221036","130-UY","2018/02/06 17:59:27","新北市汐止區大同路三段34號","121.667088333333","25.0765933333333","6501100","汐止區"
"221010","269-BY","2018/02/06 17:59:26","新北市汐止區汐萬路二段249號","121.646355","25.0883083333333","6501100","汐止區"
"221012","278-VK","2018/02/06 17:59:21","新北市汐止區長興街二段14號","121.672625","25.0810783333333","6501100","汐止區"
"221023","279-VK","2018/02/06 17:59:31","新北市汐止區明峰街149號","121.629383333333","25.0704033333333","6501100","汐止區"
"221032","280-BY","2018/02/06 17:59:15","新北市汐止區民權街一段211巷5號","121.620108333333","25.0519783333333","6501100","汐止區"
"221027","281-BY","2018/02/06 17:59:31","新北市汐止區大同路二段370號","121.657633333333","25.0672183333333","6501100","汐止區"
"221002","297-VK","2018/02/06 17:59:25","新北市汐止區工建路161-5號","121.637263333333","25.0630116666667","6501100","汐止區"
"221029","298-VK","2018/02/06 17:59:19","新北市汐止區樟樹二路330巷4號","121.641736666667","25.07018","6501100","汐止區"
"221021","299-VK","2018/02/06 17:59:17","新北市汐止區水源路一段71號","121.657055","25.06473","6501100","汐止區"
"221035","622-UM","2018/02/06 17:59:31","新北市汐止區汐萬路一段115巷48號","121.65312","25.0702366666667","6501100","汐止區"
"221025","623-UM","2018/02/06 17:59:33","新北市汐止區仁愛路49號","121.659778333333","25.0631383333333","6501100","汐止區"
"221038","646-BX","2018/02/06 17:59:33","新北市汐止區連興街123號","121.65386","25.0620333333333","6501100","汐止區"
"221033","647-BX","2018/02/06 17:59:10","新北市汐止區合順街35號","121.620563333333","25.043235","6501100","汐止區"
"221018","753-BX","2018/02/06 17:59:35","新北市汐止區招商街11巷1號","121.666565","25.0688766666667","6501100","汐止區"
"242048","281-VK","2018/02/06 17:59:30","新北市新莊區萬安街146巷24號","121.42002","25.02198","6500500","新莊區"
