"lineid","car","time","location","longitude","latitude","cityid","cityname"
"234046","148-BY","2018/02/06 18:39:36","新北市永和區永元路68號","121.522615","25.0014766666667","6500400","永和區"
"234007","207-UY","2018/02/06 18:39:15","新北市永和區文化路176號","121.511483333333","25.0157616666667","6500400","永和區"
"234081","298-R6","2018/02/06 18:39:21","新北市永和區林森路81號","121.523963333333","25.003775","6500400","永和區"
"234064","337-UY","2018/02/06 18:39:32","新北市永和區福和路1號","121.526475","25.0101483333333","6500400","永和區"
"234086","338-UY","2018/02/06 18:39:21","新北市中和區景新街273巷32號","121.510735","24.9941433333333","6500400","永和區"
"234070","552-UM","2018/02/06 18:39:20","新北市永和區豫溪街217巷1號","121.525221666667","25.0096833333333","6500400","永和區"
"234017","745-BX","2018/02/06 18:39:21","新北市永和區福和路1號","121.526301666667","25.0096516666667","6500400","永和區"
"234030","746-BX","2018/02/06 18:39:26","新北市永和區成功路一段89號","121.526965","25.00283","6500400","永和區"
"234013","KEA-2591","2018/02/06 18:39:38","新北市永和區保福路二段109巷2號","121.510116666667","25.013445","6500400","永和區"
"234042","862-TW","2018/02/06 18:39:29","新北市永和區永貞路312-1號","121.511753333333","25.0049866666667","6500400","永和區"
"234050","863-TW","2018/02/06 18:39:21","新北市永和區福和路1號","121.526495","25.0098766666667","6500400","永和區"
"234026","9371-KE","2018/02/06 18:39:34","新北市永和區自由街58號","121.513811666667","25.0059083333333","6500400","永和區"
"234011","9373-KE","2018/02/06 18:39:34","新北市永和區文化路9巷22弄38號","121.514353333333","25.01459","6500400","永和區"
"249005","172-UM","2018/02/06 18:39:35","新北市八里區中華路三段34-2號","121.388768333333","25.1254666666667","6502300","八里區"
"249001","173-UM","2018/02/06 18:39:17","新北市八里區龍米路一段360號","121.45159","25.1313333333333","6502300","八里區"
"249004","303-UY","2018/02/06 18:39:23","新北市八里區中山路一段58號","121.421851666667","25.1591233333333","6502300","八里區"
"249002","305-UY","2018/02/06 18:39:32","新北市八里區龍形一街33巷6-2號","121.449295","25.1294766666667","6502300","八里區"
"248016","026-BX","2018/02/06 18:39:34","新北市五股區凌雲路一段133巷18號","121.44909","25.1017383333333","6501500","五股區"
"248008","095-VK","2018/02/06 18:39:34","新北市五股區中興路一段149號","121.465103333333","25.0735333333333","6501500","五股區"
"248020","225-UY","2018/02/06 18:36:51","新北市五股區孝義路108號","121.44376","25.1195916666667","6501500","五股區"
"248012","247-BX","2018/02/06 18:39:23","新北市五股區御史路6號","121.44223","25.0903233333333","6501500","五股區"
"248014","261-SL","2018/02/06 18:39:36","新北市五股區明德路7巷22號","121.434598333333","25.0708666666667","6501500","五股區"
"248004","677-BX","2018/02/06 18:39:35","新北市五股區民義路一段310-1號","121.424463333333","25.093825","6501500","五股區"
"248002","678-BX","2018/02/06 18:39:35","新北市五股區西雲路189號","121.4477","25.0956016666667","6501500","五股區"
"248010","682-TV","2018/02/06 18:39:34","新北市五股區明德路12巷20號","121.4331","25.0721366666667","6501500","五股區"
"234023","9380-KE","2018/02/06 18:39:21","新北市永和區福和路8巷3號","121.524863333333","25.0091266666667","6500400","永和區"
"234077","969-R7","2018/02/06 18:39:20","新北市永和區中正路416號","121.517426666667","25.0020566666667","6500400","永和區"
"234074","AAC-211","2018/02/06 18:39:28","新北市永和區福和路1號","121.526583333333","25.00998","6500400","永和區"
"234067","AAC-212","2018/02/06 18:39:34","新北市永和區福和路247號","121.518136666667","25.0074633333333","6500400","永和區"
"234003","AAC-295","2018/02/06 18:39:31","新北市永和區福和路1號","121.526635","25.0099","6500400","永和區"
"232011","375-UM","2018/02/06 18:39:29","新北市坪林區坪雙路一段43號","121.711685","24.9424566666667","6502000","坪林區"
"244013","069-UM","2018/02/06 18:39:31","新北市林口區中正路503號","121.383336666667","25.0776916666667","6501700","林口區"
"244007","080-UY","2018/02/06 18:39:19","新北市林口區瑞樹坑22號","121.380916666667","25.1099766666667","6501700","林口區"
"244019","402-UM","2018/02/06 18:39:21","新北市林口區忠孝路577號","121.375088333333","25.0682216666667","6501700","林口區"
"244009","410-SL","2018/02/06 18:39:23","新北市林口區民生路146號","121.379166666667","25.0880383333333","6501700","林口區"
"244023","483-VK","2018/02/06 18:39:21","新北市林口區信義路128號","121.380365","25.0794816666667","6501700","林口區"
"244017","485-VK","2018/02/06 18:39:28","新北市林口區文化二路一段60-2號","121.365285","25.0683633333333","6501700","林口區"
"244011","701-TV","2018/02/06 18:39:32","新北市林口區興林路17巷5弄1號","121.390515","25.0770216666667","6501700","林口區"
"244025","837-TS","2018/02/06 18:39:34","新北市林口區南勢四街323號","121.356588333333","25.0747733333333","6501700","林口區"
"244021","838-TS","2018/02/06 18:39:28","新北市林口區工六路10號","121.39794","25.0790633333333","6501700","林口區"
"243012","AAD-798","2018/02/06 18:39:24","新北市泰山區福興三街13號","121.434453333333","25.0577816666667","6501600","泰山區"
"243013","646-TV","2018/02/06 18:34:01","新北市泰山區明志路三段206巷3號","121.423238333333","25.0379366666667","6501600","泰山區"
"222003","436-BY","2018/02/06 18:39:29","新北市深坑區翠谷街15號","121.62659","25.0084466666667","6501800","深坑區"
"222002","659-BX","2018/02/06 18:39:29","新北市深坑區雲鄉路2號","121.620915","24.9998966666667","6501800","深坑區"
"231041","002-UM","2018/02/06 18:39:19","新北市新店區安華路28-1號","121.519781666667","24.96087","6500600","新店區"
"231059","046-UY","2018/02/06 18:39:19","新北市新店區安華路28-1號","121.519528333333","24.96082","6500600","新店區"
"231061","047-UY","2018/02/06 18:39:28","新北市新店區安華路28-1號","121.519098333333","24.9608783333333","6500600","新店區"
"231060","106-UY","2018/02/06 18:39:31","新北市新店區安華路28-1號","121.519656666667","24.9608166666667","6500600","新店區"
"231051","107-UY","2018/02/06 18:39:31","新北市新店區溪洲路55號","121.533531666667","24.9605133333333","6500600","新店區"
"231048","108-UY","2018/02/06 18:39:18","新北市新店區安康路一段79巷1號","121.52985","24.9612533333333","6500600","新店區"
"231049","110-UY","2018/02/06 18:39:25","新北市新店區安康路一段50號","121.53019","24.9611283333333","6500600","新店區"
"231053","187-VK","2018/02/06 18:39:28","新北市新店區永興路17號","121.544168333333","24.9392816666667","6500600","新店區"
"231064","189-VK","2018/02/06 18:39:29","新北市新店區安華路28-1號","121.519413333333","24.960865","6500600","新店區"
"231050","KEA-2219","2018/02/06 18:39:29","新北市新店區安華路28-1號","121.51988","24.9612066666667","6500600","新店區"
"221015","KEA-2785","2018/02/06 18:39:22","新北市汐止區鄉長路二段10-1號","121.668886666667","25.080915","6501100","汐止區"
"231057","256-BX","2018/02/06 18:39:24","新北市新店區新烏路一段179-1號","121.545371666667","24.9338983333333","6500600","新店區"
"231046","278-BY","2018/02/06 18:39:27","新北市新店區直潭二街1號","121.535548333333","24.94321","6500600","新店區"
"231054","AAD-862","2018/02/06 18:39:20","新北市新店區安華路28-1號","121.519628333333","24.9611283333333","6500600","新店區"
"231058","3712-VJ","2018/02/06 18:39:28","新北市新店區新店後街20-9號","121.538263333333","24.95325","6500600","新店區"
"231056","3713-VJ","2018/02/06 18:39:15","新北市新店區大豐路95號","121.538165","24.9789166666667","6500600","新店區"
"231055","4716-K9","2018/02/06 18:37:39","新北市新店區華興街21號","121.537651666667","24.96925","6500600","新店區"
"231067","4772-VM","2018/02/06 18:39:24","新北市新店區安康路一段293號","121.522668333333","24.9637083333333","6500600","新店區"
"231042","616-UM","2018/02/06 18:39:26","新北市新店區安華路28-1號","121.519451666667","24.96056","6500600","新店區"
"231045","617-UM","2018/02/06 18:39:19","新北市新店區安華路28-1號","121.519436666667","24.960885","6500600","新店區"
"231040","619-UM","2018/02/06 18:39:22","新北市新店區安華路28-1號","121.519458333333","24.9606583333333","6500600","新店區"
"231063","645-TV","2018/02/06 18:39:29","新北市新店區安華路1-1號","121.519338333333","24.9605083333333","6500600","新店區"
"231065","719-UY","2018/02/06 18:39:21","新北市新店區安華路28-1號","121.51931","24.96142","6500600","新店區"
"231062","720-UM","2018/02/06 18:39:33","新北市新店區安華路28-1號","121.519183333333","24.9610816666667","6500600","新店區"
"231044","897-TW","2018/02/06 18:39:24","新北市新店區環河路8號","121.538103333333","24.9617766666667","6500600","新店區"
"231043","899-TW","2018/02/06 18:39:38","新北市新店區安華路28-1號","121.519128333333","24.9606816666667","6500600","新店區"
"231066","AKT-0513","2018/02/06 18:39:23","新北市新店區安華路28-1號","121.519603333333","24.9605316666667","6500600","新店區"
"235066","003-UY","2018/02/06 18:39:30","新北市中和區水源路28號","121.504466666667","25.003525","6500300","中和區"
"235064","005-UY","2018/02/06 18:39:24","新北市中和區連城路89巷1-1號","121.496813333333","24.9998916666667","6500300","中和區"
"235047","031-BX","2018/02/06 18:39:22","新北市中和區南山路543號","121.507958333333","24.98669","6500300","中和區"
"235056","096-UM","2018/02/06 18:39:19","新北市中和區員山路611巷1號","121.477916666667","25.0112133333333","6500300","中和區"
"235039","097-UM","2018/02/06 18:39:33","新北市中和區安樂路245號","121.514158333333","24.99958","6500300","中和區"
"235065","098-UM","2018/02/06 18:39:32","新北市中和區莊敬路33巷36弄4號","121.500183333333","25.006435","6500300","中和區"
"235040","150-BY","2018/02/06 18:39:27","新北市中和區宜安路54號","121.511923333333","24.996745","6500300","中和區"
"235058","151-BY","2018/02/06 18:39:33","新北市中和區圓通路369巷39-28號","121.489678333333","24.98537","6500300","中和區"
"235055","183-VK","2018/02/06 18:39:27","新北市板橋區民族路276巷48號","121.469053333333","25.005485","6500300","中和區"
"235038","185-VK","2018/02/06 18:39:27","新北市中和區大勇街60巷9號","121.518421666667","24.9948283333333","6500300","中和區"
"235049","186-VK","2018/02/06 18:39:31","新北市中和區明義街11巷10弄1號","121.503853333333","24.9949033333333","6500300","中和區"
"235067","255-BX","2018/02/06 18:39:25","新北市中和區新生街22號","121.48308","25.004115","6500300","中和區"
"235044","293-VK","2018/02/06 18:39:32","新北市中和區復興路280巷6號","121.502331666667","24.991005","6500300","中和區"
"235072","301-VK","2018/02/06 18:39:32","新北市中和區中山路二段191號","121.500025","25.002705","6500300","中和區"
"235043","352-BY","2018/02/06 18:39:26","新北市中和區景平路103號","121.517095","24.991865","6500300","中和區"
"235068","377-QA","2018/02/06 18:39:16","新北市中和區中正路131號","121.499816666667","24.9934916666667","6500300","中和區"
"235061","378-QA","2018/02/06 18:38:41","新北市中和區民享街86巷34號","121.472945","25.0006733333333","6500300","中和區"
"235050","4979-A6","2018/02/06 18:39:18","新北市中和區忠孝街124巷12號","121.51284","24.9861433333333","6500300","中和區"
"235069","4980-A6","2018/02/06 18:39:32","新北市中和區連城路99巷59號","121.49732","24.998535","6500300","中和區"
"235042","551-UM","2018/02/06 18:39:23","新北市中和區成功路97巷18弄1號","121.526765","24.991785","6500300","中和區"
"235045","565-BX","2018/02/06 18:39:27","新北市中和區南山路236巷51號","121.504901666667","24.988315","6500300","中和區"
"235054","640-BX","2018/02/06 18:39:34","新北市中和區民享街86巷30弄8號","121.473156666667","25.001125","6500300","中和區"
"235060","647-TV","2018/02/06 18:39:30","新北市中和區中山路三段8號","121.479558333333","25.0061016666667","6500300","中和區"
"235046","733-UM","2018/02/06 18:39:27","新北市中和區仁愛街50號","121.511165","24.9881016666667","6500300","中和區"
"235062","800-TS","2018/02/06 18:39:17","新北市中和區中山路二段312巷33弄23號","121.49467","25.0040966666667","6500300","中和區"
"235057","801-TS","2018/02/06 18:39:28","新北市中和區員山路327巷66號","121.479858333333","25.002035","6500300","中和區"
"235041","802-TS","2018/02/06 18:39:33","新北市中和區宜安路150號","121.509353333333","24.9986566666667","6500300","中和區"
"235052","805-TS","2018/02/06 18:39:33","新北市中和區興南路三段26號","121.496841666667","24.9786116666667","6500300","中和區"
"235048","896-TW","2018/02/06 18:39:35","新北市中和區南山路395號","121.506653333333","24.990175","6500300","中和區"
"235053","900-TW","2018/02/06 18:39:17","新北市中和區民德路268號","121.468066666667","24.9965466666667","6500300","中和區"
"235063","911-UM","2018/02/06 18:39:27","新北市中和區連城路268-6號","121.486485","24.9965116666667","6500300","中和區"
"235051","157-BY","2018/02/06 18:39:25","新北市中和區興南路二段114巷6號","121.504038333333","24.9844","6500300","中和區"
"235037","AAC-213","2018/02/06 18:39:20","新北市中和區景平路111巷66號","121.515085","24.99039","6500300","中和區"
"235059","AAC-215","2018/02/06 18:39:17","新北市中和區錦和路350-1號","121.490521666667","24.99354","6500300","中和區"
"220068","013-TV","2018/02/06 18:39:29","新北市板橋區民生路二段120號","121.470373333333","25.0196066666667","6500100","板橋區"
"220065","072-UY","2018/02/06 18:39:25","新北市板橋區民族路166號","121.464858333333","25.008575","6500100","板橋區"
"220086","073-UY","2018/02/06 18:39:36","新北市板橋區南雅西路二段249號","121.451615","25.0145833333333","6500100","板橋區"
"220069","AAD-861","2018/02/06 18:39:35","新北市板橋區華東街1-10號","121.448216666667","24.99513","6500100","板橋區"
"226004","312-R5","2018/02/06 18:39:28","新北市平溪區靜安路二段348號","121.737468333333","25.024365","6502400","平溪區"
"228001","212-TW","2018/02/06 18:39:36","新北市貢寮區仁理村研海街12-1號","121.923761666667","25.0516733333333","6502600","貢寮區"
"228002","585-TW","2018/02/06 18:39:25","新北市貢寮區福隆里東興街31-1號","121.953215","25.0210433333333","6502600","貢寮區"
"228003","828-UM","2018/02/06 18:39:21","新北市貢寮區和美里龍洞街5-1號","121.918388333333","25.1118333333333","6502600","貢寮區"
"224006","676-BX","2018/02/06 18:39:32","新北市瑞芳區明燈路三段90號","121.805508333333","25.1082266666667","6501200","瑞芳區"
"224002","639-TC","2018/02/06 18:39:29","新北市瑞芳區中山路307-2號","121.794013333333","25.109655","6501200","瑞芳區"
"224009","285-BY","2018/02/06 18:39:24","新北市瑞芳區五號路306-4號","121.85739","25.11161","6501200","瑞芳區"
"224008","275-VK","2018/02/06 18:39:29","新北市瑞芳區瑞芳街24號","121.806511666667","25.1096466666667","6501200","瑞芳區"
"224007","273-VK","2018/02/06 18:39:29","新北市瑞芳區大埔路161號","121.763725","25.1016183333333","6501200","瑞芳區"
"224005","271-BY","2018/02/06 18:39:30","新北市瑞芳區永龍新村34號","121.818925","25.1193116666667","6501200","瑞芳區"
"227003","642-TC","2018/02/06 18:39:36","新北市雙溪區魚行里坤溪3-5號","121.875893333333","25.02111","6502500","雙溪區"
"227009","400-TW","2018/02/06 18:39:33","新北市雙溪區牡丹里下坑11號","121.850948333333","25.056225","6502500","雙溪區"
"253005","032-BX","2018/02/06 18:39:20","新北市石門區石門街47號","121.566505","25.29038","6502200","石門區"
"253006","741-TV","2018/02/06 18:39:22","新北市石門區崁子腳46-1號","121.534663333333","25.28915","6502200","石門區"
"222001","KEA-2212","2018/02/06 18:39:36","新北市深坑區北深路一段84號","121.636283333333","25.01068","6501800","深坑區"
"208002","742-BX","2018/02/06 18:39:19","新北市金山區民生路45號","121.642003333333","25.2210283333333","6502700","金山區"
"208003","665-BX","2018/02/06 18:39:17","新北市金山區中山路354號","121.633233333333","25.2254433333333","6502700","金山區"
"208001","761-BX","2018/02/06 18:39:19","新北市金山區文化三路46號","121.63505","25.225055","6502700","金山區"
"251001","011-UM","2018/02/06 18:39:20","新北市淡水區自強路415巷2號","121.465443333333","25.134315","6501000","淡水區"
"251013","179-VK","2018/02/06 18:39:23","新北市淡水區雲廣坑5號","121.47314","25.2130133333333","6501000","淡水區"
"251014","180-VK","2018/02/06 18:39:25","新北市淡水區崙頂12-8號","121.495595","25.2172266666667","6501000","淡水區"
"251008","181-VK","2018/02/06 18:39:33","新北市淡水區北新路一段28號","121.455035","25.18068","6501000","淡水區"
"251015","182-VK","2018/02/06 18:39:18","新北市淡水區興福寮77巷113號","121.4856","25.162645","6501000","淡水區"
"251010","413-VK","2018/02/06 18:39:21","新北市淡水區沙崙路124號","121.423443333333","25.1827466666667","6501000","淡水區"
"251012","441-VK","2018/02/06 18:39:36","新北市淡水區北新路121號","121.449005","25.1786","6501000","淡水區"
"251016","442-VK","2018/02/06 18:39:23","新北市淡水區下圭柔山84-1號","121.440183333333","25.2050916666667","6501000","淡水區"
"251006","561-UM","2018/02/06 18:39:21","新北市淡水區崁頂36-6號","121.439296666667","25.1939033333333","6501000","淡水區"
"251011","650-BX","2018/02/06 18:39:34","新北市淡水區平遠街8號","121.448145","25.1678233333333","6501000","淡水區"
"251002","672-BX","2018/02/06 18:39:18","新北市淡水區中正東路一段3巷14弄3號","121.450998333333","25.16427","6501000","淡水區"
"251003","673-BX","2018/02/06 18:39:27","新北市淡水區北新路69巷26號","121.446615","25.18018","6501000","淡水區"
"207003","550-UM","2018/02/06 18:39:34","新北市萬里區野柳里八斗60-1號","121.675216666667","25.2014416666667","6502800","萬里區"
"207004","225-TW","2018/02/06 18:39:29","新北市萬里區萬里里獅頭路12號","121.692193333333","25.1789933333333","6502800","萬里區"
"252003","249-BX","2018/02/06 18:39:38","新北市三芝區後厝里土地公坑55號","121.462671666667","25.2483783333333","6502100","三芝區"
"252001","292-VK","2018/02/06 18:39:32","新北市三芝區中興街二段260號","121.501026666667","25.25363","6502100","三芝區"
"252002","AAC-283","2018/02/06 18:39:38","新北市三芝區中正路二段37號","121.50396","25.25486","6502100","三芝區"
"237004","KEA-2597","2018/02/06 18:39:38","新北市三峽區插角123號","121.410418333333","24.8706666666667","6500900","三峽區"
"237007","153-BY","2018/02/06 18:39:22","新北市三峽區中正路三段68號","121.356918333333","24.9041566666667","6500900","三峽區"
"237009","210-TH","2018/02/06 18:39:34","新北市三峽區大同路240巷43號","121.365365","24.9257033333333","6500900","三峽區"
"237013","252-BX","2018/02/06 18:39:17","新北市三峽區大同路48巷17弄8-1號","121.37678","24.9290883333333","6500900","三峽區"
"237012","275-BY","2018/02/06 18:39:20","新北市三峽區三樹路300號","121.3808","24.9438783333333","6500900","三峽區"
"237008","302-VK","2018/02/06 18:39:35","新北市三峽區白雞115-8號","121.4008","24.9066883333333","6500900","三峽區"
"237014","433-BY","2018/02/06 18:39:26","新北市三峽區復興路159號","121.370456666667","24.9382983333333","6500900","三峽區"
"237006","5529-G3","2018/02/06 18:39:28","新北市三峽區溪東路215號","121.40595","24.9328816666667","6500900","三峽區"
"237011","KEA-2596","2018/02/06 18:39:21","新北市三峽區溪東路209號","121.404656666667","24.93342","6500900","三峽區"
"237016","649-BX","2018/02/06 18:39:28","新北市三峽區竹崙路157號","121.436145","24.9060633333333","6500900","三峽區"
"237010","706-TV","2018/02/06 18:39:23","新北市三峽區復興路325號","121.364701666667","24.938775","6500900","三峽區"
"237005","AKY-6261","2018/02/06 18:39:26","新北市三峽區文化路33號","121.372883333333","24.9360966666667","6500900","三峽區"
"236070","105-UM","2018/02/06 18:39:30","新北市土城區永豐路157巷29弄1號","121.4687","24.9815833333333","6501300","土城區"
"236043","107-UM","2018/02/06 18:39:35","新北市土城區學成路108巷11號","121.450155","24.989655","6501300","土城區"
"236079","166-UM","2018/02/06 18:39:25","新北市土城區中央路四段52巷42弄2號","121.418951666667","24.9604516666667","6501300","土城區"
"236031","253-BX","2018/02/06 18:39:32","新北市土城區福仁街77號","121.439331666667","24.9741383333333","6501300","土城區"
"236026","269-VK","2018/02/06 18:39:18","新北市土城區金城路一段55號","121.441278333333","24.9697966666667","6501300","土城區"
"236015","270-VK","2018/02/06 18:39:11","新北市土城區青雲路183巷12號","121.459503333333","24.9828266666667","6501300","土城區"
"236038","271-VK","2018/02/06 18:39:34","新北市土城區明德路一段313巷11弄10號","121.46039","24.975945","6501300","土城區"
"236023","401-BY","2018/02/06 18:39:26","新北市土城區明德路一段67號","121.465445","24.984275","6501300","土城區"
"236059","912-UM","2018/02/06 18:39:27","新北市土城區中央路四段53-1號","121.417545","24.95849","6501300","土城區"
"236049","913-UM","2018/02/06 18:39:29","新北市土城區明德路一段46號","121.465371666667","24.9838933333333","6501300","土城區"
"236063","915-UM","2018/02/06 18:39:32","新北市土城區延壽路55巷9弄5號","121.469875","24.9914183333333","6501300","土城區"
"236055","AAC-216","2018/02/06 18:39:35","新北市土城區裕民路40號","121.44809","24.98834","6501300","土城區"
"242061","362-BY","2018/02/06 18:39:24","新北市新莊區新樹路206巷3號","121.433506666667","25.020425","6500500","新莊區"
"242058","353-BY","2018/02/06 18:39:26","桃園市龜山區萬壽路一段36號","121.40929","25.0197683333333","6500500","新莊區"
"242056","349-TH","2018/02/06 18:37:14","新北市新莊區瓊林路59-38號","121.441173333333","25.02345","6500500","新莊區"
"238015","755-BX","2018/02/06 18:39:30","新北市樹林區大安路530號","121.413811666667","24.9861316666667","6500700","樹林區"
"238023","601-UM","2018/02/06 18:39:17","新北市樹林區三福街114號","121.406491666667","25.0163133333333","6500700","樹林區"
"238018","571-TV","2018/02/06 18:39:28","新北市樹林區樹新路50巷5弄7號","121.429598333333","24.9970016666667","6500700","樹林區"
"238024","5061-A6","2018/02/06 18:39:38","新北市樹林區太順街49巷20弄14號","121.41779","24.9784283333333","6500700","樹林區"
"238025","303-VK","2018/02/06 18:39:19","新北市樹林區中山路三段22號","121.395633333333","24.9730033333333","6500700","樹林區"
"238017","283-BY","2018/02/06 18:39:35","新北市樹林區光興街28-2號","121.411876666667","25.0030966666667","6500700","樹林區"
"238014","282-BY","2018/02/06 18:39:36","新北市樹林區大安路111巷25號","121.423141666667","24.9975183333333","6500700","樹林區"
"238020","268-VK","2018/02/06 18:39:26","新北市樹林區三龍街26號","121.411586666667","25.0176983333333","6500700","樹林區"
"238026","172-UY","2018/02/06 18:39:18","新北市樹林區八德街828-18號","121.392451666667","24.9693216666667","6500700","樹林區"
"238016","169-UY","2018/02/06 18:39:21","新北市樹林區中山路三段160-1號","121.389381666667","24.97029","6500700","樹林區"
"239007","AAC-297","2018/02/06 18:39:27","新北市鶯歌區中正一路221號","121.354036666667","24.9570416666667","6500800","鶯歌區"
"239008","527-UM","2018/02/06 18:39:30","新北市鶯歌區國際一路179號","121.336243333333","24.976465","6500800","鶯歌區"
"239005","526-UM","2018/02/06 18:39:17","新北市鶯歌區鳳吉三街31巷7號","121.327665","24.97413","6500800","鶯歌區"
"239001","417-VK","2018/02/06 18:39:23","新北市鶯歌區中正三路147巷6號","121.33713","24.939685","6500800","鶯歌區"
"239003","360-BY","2018/02/06 18:39:31","新北市鶯歌區永和街69號","121.333048333333","24.96786","6500800","鶯歌區"
"239004","193-VK","2018/02/06 18:39:20","新北市鶯歌區尖山路263號","121.340991666667","24.94364","6500800","鶯歌區"
"221008","489-VK","2018/02/06 18:39:17","新北市汐止區康寧街901號","121.65143","25.0749816666667","6501100","汐止區"
"221036","130-UY","2018/02/06 18:39:27","新北市汐止區南昌街13號","121.663425","25.0695466666667","6501100","汐止區"
"221010","269-BY","2018/02/06 18:39:23","新北市汐止區汐萬路三段256號","121.644016666667","25.1045366666667","6501100","汐止區"
"221012","278-VK","2018/02/06 18:39:21","新北市汐止區長興街一段26號","121.669935","25.079005","6501100","汐止區"
"221023","279-VK","2018/02/06 18:39:31","新北市汐止區明峰街5-1號","121.6356","25.0711066666667","6501100","汐止區"
"221032","280-BY","2018/02/06 18:39:34","新北市汐止區民權街二段93號","121.618983333333","25.047515","6501100","汐止區"
"221027","281-BY","2018/02/06 18:39:31","新北市汐止區大同路二段595號","121.663571666667","25.0705883333333","6501100","汐止區"
"221002","297-VK","2018/02/06 18:39:25","新北市汐止區中興路23號","121.636913333333","25.05957","6501100","汐止區"
"221029","298-VK","2018/02/06 18:39:19","新北市汐止區樟樹一路146號","121.64231","25.0650716666667","6501100","汐止區"
"221021","299-VK","2018/02/06 18:39:18","新北市汐止區復興路71號","121.657383333333","25.0620266666667","6501100","汐止區"
"221035","622-UM","2018/02/06 18:39:31","新北市汐止區大同路二段175號","121.651431666667","25.0640783333333","6501100","汐止區"
"221025","623-UM","2018/02/06 18:39:33","新北市汐止區仁愛路119巷19號","121.662153333333","25.064245","6501100","汐止區"
"221038","646-BX","2018/02/06 18:39:29","新北市汐止區大同路二段373號","121.657308333333","25.0672966666667","6501100","汐止區"
"221033","647-BX","2018/02/06 18:39:30","新北市汐止區南勢街1巷1號","121.62705","25.0374483333333","6501100","汐止區"
"221018","753-BX","2018/02/06 18:39:35","新北市汐止區茄苳路262號","121.671836666667","25.0681066666667","6501100","汐止區"
"220079","145-BY","2018/02/06 18:39:30","新北市板橋區館前西路162號","121.452836666667","25.00866","6500100","板橋區"
"220080","200-UY","2018/02/06 18:39:19","新北市板橋區大觀路二段265巷76弄37號","121.441021666667","24.996675","6500100","板橋區"
"220082","610-BX","2018/02/06 18:39:26","新北市板橋區大觀路三段36巷5-2號","121.433466666667","24.995805","6500100","板橋區"
"220056","276-BY","2018/02/06 18:39:26","新北市板橋區四川路二段121號","121.451218333333","24.9941216666667","6500100","板橋區"
"220072","277-BY","2018/02/06 18:39:29","新北市板橋區板城路421號","121.448045","24.996295","6500100","板橋區"
"220071","283-VK","2018/02/06 18:39:25","新北市板橋區華東街1號","121.448566666667","24.99438","6500100","板橋區"
"220053","285-VK","2018/02/06 18:39:22","新北市板橋區民生路二段161巷1號","121.470273333333","25.0199883333333","6500100","板橋區"
"220083","286-VK","2018/02/06 18:39:26","新北市板橋區大觀路二段169巷24號","121.446561666667","24.9995666666667","6500100","板橋區"
"220081","287-VK","2018/02/06 18:39:27","新北市板橋區華東街1-10號","121.448355","24.9949483333333","6500100","板橋區"
"220061","293-UM","2018/02/06 18:39:19","新北市板橋區民生路二段120號","121.470463333333","25.0197316666667","6500100","板橋區"
"220084","296-UM","2018/02/06 18:39:33","新北市板橋區大觀路二段力行1巷3弄2號","121.445683333333","24.9990683333333","6500100","板橋區"
"220075","303-R5","2018/02/06 18:39:22","新北市板橋區南雅南路二段120-12號","121.45215","24.999455","6500100","板橋區"
"220062","305-R5","2018/02/06 18:39:19","新北市板橋區民生路二段120號","121.470518333333","25.019695","6500100","板橋區"
"220064","486-VK","2018/02/06 18:39:30","新北市板橋區縣民大道一段271號","121.460496666667","25.0097533333333","6500100","板橋區"
"220035","560-BX","2018/02/06 18:39:35","新北市板橋區南雅西路二段175巷2號","121.451475","25.0124983333333","6500100","板橋區"
"220063","609-BX","2018/02/06 18:39:35","新北市板橋區民生路二段177號","121.469861666667","25.0202916666667","6500100","板橋區"
"220057","686-BX","2018/02/06 18:39:24","新北市板橋區華東街1-9號","121.448241666667","24.9948833333333","6500100","板橋區"
"220077","687-BX","2018/02/06 18:39:14","新北市板橋區大觀路二段431-1號","121.441506666667","24.995095","6500100","板橋區"
"220054","741-BX","2018/02/06 18:39:20","新北市板橋區華東街1-9號","121.448098333333","24.99494","6500100","板橋區"
"220074","895-R6","2018/02/06 18:39:34","新北市板橋區南雅南路二段140號","121.451791666667","24.996205","6500100","板橋區"
"220073","985-R7","2018/02/06 18:39:27","新北市板橋區南雅南路二段11-14號","121.454995","25.0018466666667","6500100","板橋區"
"220097","AAC-210","2018/02/06 18:39:20","新北市板橋區民生路二段161巷9號","121.470305","25.01964","6500100","板橋區"
"220070","AAC-253","2018/02/06 18:39:34","新北市板橋區華東街1-9號","121.448173333333","24.9949633333333","6500100","板橋區"
