"lineid","car","time","location","longitude","latitude","cityid","cityname"
"234046","148-BY","2018/02/06 19:39:36","新北市永和區永元路95巷1號","121.522426666667","25.0017733333333","6500400","永和區"
"234007","207-UY","2018/02/06 19:39:35","新北市永和區永和路一段2號","121.512735","25.0044","6500400","永和區"
"234081","298-R6","2018/02/06 19:39:34","新北市永和區國中路104巷8弄19號","121.52533","25.0063716666667","6500400","永和區"
"234038","336-UY","2018/02/06 19:39:38","新北市永和區民樂街20號","121.52759","25.0019583333333","6500400","永和區"
"234064","337-UY","2018/02/06 19:39:32","新北市永和區秀朗路一段192巷6弄12號","121.519028333333","25.0023183333333","6500400","永和區"
"234086","338-UY","2018/02/06 19:39:36","新北市永和區永亨路127號","121.524593333333","25.00407","6500400","永和區"
"234070","552-UM","2018/02/06 19:39:20","新北市永和區永和路二段208號","121.515838333333","25.01388","6500400","永和區"
"234017","745-BX","2018/02/06 19:39:21","新北市永和區永和路二段425巷57弄7號","121.513608333333","25.0171066666667","6500400","永和區"
"234030","746-BX","2018/02/06 19:39:26","新北市永和區民生路37巷5號","121.523625","24.99803","6500400","永和區"
"234054","KEA-2590","2018/02/06 19:39:21","新北市永和區竹林路54號","121.517895","25.01409","6500400","永和區"
"234013","KEA-2591","2018/02/06 19:39:38","新北市永和區永平路246號","121.508641666667","25.0110933333333","6500400","永和區"
"234061","AAD-866","2018/02/06 19:39:21","新北市永和區中正路446號","121.51743","25.002895","6500400","永和區"
"234042","862-TW","2018/02/06 19:39:38","新北市永和區水源街17巷1號","121.511685","25.0047083333333","6500400","永和區"
"234050","863-TW","2018/02/06 19:39:21","新北市永和區保安路132號","121.508955","25.015315","6500400","永和區"
"234026","9371-KE","2018/02/06 19:39:35","新北市永和區中和路501巷2號","121.510513333333","25.0025066666667","6500400","永和區"
"249004","303-UY","2018/02/06 19:39:21","新北市八里區中山路一段268巷2號","121.41437","25.1602816666667","6502300","八里區"
"249002","305-UY","2018/02/06 19:39:32","新北市八里區頂寮二街85號","121.450038333333","25.1255966666667","6502300","八里區"
"249003","593-UM","2018/02/06 19:39:27","新北市八里區中華路二段341-10號","121.399368333333","25.1448883333333","6502300","八里區"
"248016","026-BX","2018/02/06 19:39:25","新北市五股區成泰路三段476號","121.451853333333","25.1014816666667","6501500","五股區"
"248008","095-VK","2018/02/06 19:39:34","新北市五股區四維路118巷11號","121.469063333333","25.07436","6501500","五股區"
"248012","247-BX","2018/02/06 19:39:26","新北市五股區工商路99巷15號","121.43716","25.0847633333333","6501500","五股區"
"248014","261-SL","2018/02/06 19:39:30","新北市五股區五福路52巷3弄10號","121.433386666667","25.0902466666667","6501500","五股區"
"248004","677-BX","2018/02/06 19:39:35","新北市五股區工商路112號","121.437135","25.0855683333333","6501500","五股區"
"248002","678-BX","2018/02/06 19:39:35","新北市五股區成泰路三段577巷49號","121.450715","25.1031966666667","6501500","五股區"
"248010","682-TV","2018/02/06 19:39:34","新北市五股區水碓一路23號","121.430623333333","25.0713333333333","6501500","五股區"
"234077","969-R7","2018/02/06 19:39:40","新北市永和區民權路1巷8號","121.520718333333","24.9983533333333","6500400","永和區"
"234074","AAC-211","2018/02/06 19:39:28","新北市永和區竹林路225巷17號","121.521736666667","25.008705","6500400","永和區"
"234067","AAC-212","2018/02/06 19:39:34","新北市永和區中山路一段207號","121.508835","25.0084816666667","6500400","永和區"
"234003","AAC-295","2018/02/06 19:39:31","新北市永和區福和路352號","121.514686666667","25.0074616666667","6500400","永和區"
"244019","402-UM","2018/02/06 19:39:21","新北市林口區四維路114號","121.377291666667","25.0781633333333","6501700","林口區"
"244023","483-VK","2018/02/06 19:39:21","新北市林口區文化北路二段499號","121.372048333333","25.0845083333333","6501700","林口區"
"244011","701-TV","2018/02/06 19:39:32","新北市林口區嘉溪雅坑5-4號","121.346448333333","25.0997933333333","6501700","林口區"
"243012","AAD-798","2018/02/06 19:39:24","新北市泰山區全興路199-1號","121.43493","25.0550383333333","6501600","泰山區"
"243011","297-R6","2018/02/06 19:39:23","新北市泰山區中山路二段661號","121.429641666667","25.039945","6501600","泰山區"
"243015","380-SR","2018/02/06 19:39:28","新北市泰山區文程路9號","121.427868333333","25.0496883333333","6501600","泰山區"
"243014","421-VK","2018/02/06 19:39:18","新北市泰山區中港西路498巷36號","121.431803333333","25.0528616666667","6501600","泰山區"
"243010","KEA-2215","2018/02/06 19:39:33","新北市泰山區明志路二段7巷4號","121.430466666667","25.0534416666667","6501600","泰山區"
"243009","KEA-2216","2018/02/06 19:39:32","新北市泰山區美寧街58號","121.43085","25.0647483333333","6501600","泰山區"
"243013","646-TV","2018/02/06 19:39:21","新北市泰山區應化街13號","121.423866666667","25.0436933333333","6501600","泰山區"
"243016","680-BX","2018/02/06 19:39:38","新北市泰山區新北大道七段30號","121.4199","25.0322266666667","6501600","泰山區"
"222003","436-BY","2018/02/06 19:33:18","新北市深坑區深南路51-1號","121.621235","25.0098416666667","6501800","深坑區"
"222002","659-BX","2018/02/06 19:39:29","新北市深坑區北深路一段177號","121.632505","25.010885","6501800","深坑區"
"231041","002-UM","2018/02/06 19:39:19","新北市新店區中正路500-1號","121.534335","24.9819216666667","6500600","新店區"
"231059","046-UY","2018/02/06 19:39:19","新北市新店區安和路三段37號","121.517755","24.9817366666667","6500600","新店區"
"231061","047-UY","2018/02/06 19:39:28","新北市新店區安民街156巷1號","121.516883333333","24.9701833333333","6500600","新店區"
"231060","106-UY","2018/02/06 19:39:31","新北市新店區安康路二段157號","121.51034","24.9594","6500600","新店區"
"231051","107-UY","2018/02/06 19:39:31","新北市新店區中央四街24號","121.529033333333","24.9741733333333","6500600","新店區"
"231048","108-UY","2018/02/06 19:39:38","新北市新店區五峰路61巷2-1號","121.547181666667","24.970285","6500600","新店區"
"231049","110-UY","2018/02/06 19:39:25","新北市新店區大豐路32號","121.540448333333","24.980025","6500600","新店區"
"231053","187-VK","2018/02/06 19:39:28","新北市新店區廣興路60巷8弄2-1號","121.542821666667","24.9128416666667","6500600","新店區"
"231064","189-VK","2018/02/06 19:39:29","新北市新店區安康路二段60號","121.514963333333","24.963685","6500600","新店區"
"231050","KEA-2219","2018/02/06 19:39:29","新北市新店區北宜路二段210號","121.559371666667","24.9543966666667","6500600","新店區"
"221015","KEA-2785","2018/02/06 19:39:19","新北市汐止區康寧街901號","121.651566666667","25.0749666666667","6501100","汐止區"
"231057","256-BX","2018/02/06 19:39:21","新北市新店區橘園一路11號","121.547961666667","24.9340183333333","6500600","新店區"
"231046","278-BY","2018/02/06 19:39:27","新北市新店區中正路329巷7弄2號","121.535151666667","24.97412","6500600","新店區"
"231054","AAD-862","2018/02/06 19:39:20","新北市新店區文中路40號","121.539685","24.9566383333333","6500600","新店區"
"231058","3712-VJ","2018/02/06 19:39:27","新北市新店區北新路一段311號","121.541553333333","24.9679566666667","6500600","新店區"
"231067","4772-VM","2018/02/06 19:39:24","新北市新店區秀山路55-1號","121.53073","24.960275","6500600","新店區"
"231042","616-UM","2018/02/06 19:39:26","新北市新店區中興路一段216號","121.543815","24.9657066666667","6500600","新店區"
"231045","617-UM","2018/02/06 19:39:39","新北市新店區北宜路二段419-2號","121.56034","24.9545066666667","6500600","新店區"
"231040","619-UM","2018/02/06 19:39:22","新北市新店區北新路一段96巷23號","121.542931666667","24.96889","6500600","新店區"
"231063","645-TV","2018/02/06 19:39:28","新北市新店區達觀路41號","121.502805","24.9382333333333","6500600","新店區"
"231065","719-UY","2018/02/06 19:39:35","新北市新店區安祥路109巷51號","121.476876666667","24.9596583333333","6500600","新店區"
"231062","720-UM","2018/02/06 19:39:33","新北市新店區碧潭路2號","121.534926666667","24.95638","6500600","新店區"
"231044","897-TW","2018/02/06 19:39:30","新北市新店區北新路三段179號","121.541081666667","24.984215","6500600","新店區"
"231043","899-TW","2018/02/06 19:39:38","新北市新店區北新路二段18號","121.542946666667","24.9712916666667","6500600","新店區"
"231066","AKT-0513","2018/02/06 19:39:23","新北市新店區安康路二段341巷21號","121.497128333333","24.95459","6500600","新店區"
"241011","013-R5","2018/02/06 19:39:33","新北市三重區秀江街211號","121.4975","25.071625","6500200","三重區"
"241028","022-UY","2018/02/06 19:39:31","新北市三重區中正南路200號","121.493856666667","25.0559016666667","6500200","三重區"
"241008","059-VK","2018/02/06 19:39:21","新北市三重區永福街135巷2號","121.47853","25.07677","6500200","三重區"
"241009","060-VK","2018/02/06 19:39:20","新北市三重區三和路四段420-1號","121.480525","25.079925","6500200","三重區"
"241031","061-VK","2018/02/06 19:39:25","新北市三重區重新路四段242-2號","121.485991666667","25.0535966666667","6500200","三重區"
"241015","062-VK","2018/02/06 19:39:27","新北市三重區福德北路34號","121.50212","25.06513","6500200","三重區"
"241017","063-VK","2018/02/06 19:39:23","新北市三重區重陽路三段5巷30號","121.49132","25.0654466666667","6500200","三重區"
"241026","066-VK","2018/02/06 19:39:26","新北市三重區文化南路65巷25號","121.499228333333","25.060855","6500200","三重區"
"241032","269-UM","2018/02/06 19:39:36","新北市三重區重陽路一段60巷41號","121.484978333333","25.058265","6500200","三重區"
"241013","270-UM","2018/02/06 19:39:39","新北市三重區仁賢街9號","121.495966666667","25.0745733333333","6500200","三重區"
"241025","271-UM","2018/02/06 19:39:38","新北市三重區忠孝路三段99巷11號","121.480085","25.064585","6500200","三重區"
"241007","398-BY","2018/02/06 19:39:23","新北市三重區三和路四段125巷78號","121.487351666667","25.0786016666667","6500200","三重區"
"241020","413-TH","2018/02/06 19:39:25","新北市三重區三和路四段44巷2號","121.490255","25.0744","6500200","三重區"
"241035","462-BY","2018/02/06 19:39:36","新北市三重區正義北路63號","121.497466666667","25.0645533333333","6500200","三重區"
"241019","478-VK","2018/02/06 19:39:30","新北市三重區六張街194巷1弄17號","121.48802","25.0681166666667","6500200","三重區"
"241030","480-VK","2018/02/06 19:39:24","新北市三重區新興路20號","121.492091666667","25.053055","6500200","三重區"
"241014","543-UM","2018/02/06 19:39:40","新北市三重區河邊北街84號","121.504341666667","25.0692166666667","6500200","三重區"
"241023","545-UM","2018/02/06 19:39:29","新北市三重區忠孝路三段99巷20號","121.479516666667","25.0642133333333","6500200","三重區"
"241001","547-UM","2018/02/06 19:39:32","新北市三重區仁愛街315巷25號","121.493795","25.0797983333333","6500200","三重區"
"241006","AAD-863","2018/02/06 19:39:23","新北市三重區聯華街77號","121.485973333333","25.0754033333333","6500200","三重區"
"241012","941-UM","2018/02/06 19:39:39","新北市三重區河邊北街256巷31號","121.500585","25.07597","6500200","三重區"
"241029","942-UM","2018/02/06 19:39:33","新北市三重區同安街139號","121.493218333333","25.0560833333333","6500200","三重區"
"235066","003-UY","2018/02/06 19:39:29","新北市中和區中和路196巷12號","121.505003333333","24.9989283333333","6500300","中和區"
"235064","005-UY","2018/02/06 19:39:28","新北市中和區南山路127巷4號","121.502375","24.9971416666667","6500300","中和區"
"235047","031-BX","2018/02/06 19:39:22","新北市中和區景平路329巷2弄10號","121.505411666667","24.99299","6500300","中和區"
"235056","096-UM","2018/02/06 19:39:40","新北市中和區員山路581巷2-10號","121.477485","25.009005","6500300","中和區"
"235039","097-UM","2018/02/06 19:39:33","新北市中和區秀峰街103巷4弄11號","121.519843333333","24.99015","6500300","中和區"
"235065","098-UM","2018/02/06 19:39:32","新北市中和區福美路245號","121.499216666667","25.005065","6500300","中和區"
"235040","150-BY","2018/02/06 19:39:27","新北市中和區保健路67巷3弄3號","121.509776666667","24.99744","6500300","中和區"
"235058","151-BY","2018/02/06 19:39:33","新北市中和區連城路322號","121.483383333333","24.99599","6500300","中和區"
"235055","183-VK","2018/02/06 19:39:36","新北市中和區中山路三段185-1號","121.472516666667","25.0060933333333","6500300","中和區"
"235038","185-VK","2018/02/06 19:39:26","新北市中和區自立路99巷16號","121.522835","24.9946383333333","6500300","中和區"
"235049","186-VK","2018/02/06 19:39:31","新北市中和區景新街212號","121.507053333333","24.9952416666667","6500300","中和區"
"235067","255-BX","2018/02/06 19:39:25","新北市中和區新生街288號","121.483571666667","24.9965616666667","6500300","中和區"
"235044","293-VK","2018/02/06 19:39:31","新北市中和區興南路一段103號","121.509556666667","24.9882333333333","6500300","中和區"
"235072","301-VK","2018/02/06 19:39:32","新北市中和區連城路281巷1弄6號","121.490648333333","24.9958283333333","6500300","中和區"
"235043","352-BY","2018/02/06 19:39:32","新北市中和區景平路334號","121.511975","24.9928883333333","6500300","中和區"
"235068","377-QA","2018/02/06 19:39:36","新北市中和區景平路493巷12弄3號","121.499045","24.9970516666667","6500300","中和區"
"235061","378-QA","2018/02/06 19:39:21","新北市中和區民利街44號","121.479478333333","24.99883","6500300","中和區"
"235071","269-TV","2018/02/06 19:39:25","新北市中和區中正路839巷29號","121.483588333333","25.0023566666667","6500300","中和區"
"235050","4979-A6","2018/02/06 19:39:38","新北市中和區員山路36巷13號","121.484481666667","24.99109","6500300","中和區"
"235042","551-UM","2018/02/06 19:39:23","新北市中和區中和路262巷35-4號","121.509663333333","24.9993883333333","6500300","中和區"
"235045","565-BX","2018/02/06 19:39:27","新北市中和區景新街508號","121.514055","24.9868883333333","6500300","中和區"
"235054","640-BX","2018/02/06 19:39:34","新北市中和區國光街102巷20號","121.470695","25.00067","6500300","中和區"
"235060","647-TV","2018/02/06 19:39:30","新北市中和區新生街1號","121.48317","25.0047683333333","6500300","中和區"
"235046","733-UM","2018/02/06 19:39:27","新北市中和區四維街13號","121.513166666667","24.9871916666667","6500300","中和區"
"235057","801-TS","2018/02/06 19:39:28","新北市中和區中山路三段19號","121.479408333333","25.005945","6500300","中和區"
"235041","802-TS","2018/02/06 19:39:33","新北市中和區中和路458巷1號","121.512403333333","25.0037666666667","6500300","中和區"
"235052","805-TS","2018/02/06 19:39:33","新北市中和區華新街206巷10號","121.506371666667","24.9824233333333","6500300","中和區"
"235048","896-TW","2018/02/06 19:39:35","新北市中和區忠孝街1巷2-1號","121.509141666667","24.9830766666667","6500300","中和區"
"235053","900-TW","2018/02/06 19:39:17","新北市中和區國光街142巷10號","121.468241666667","25.001845","6500300","中和區"
"235063","911-UM","2018/02/06 19:39:29","新北市中和區連勝街181號","121.494035","24.9971466666667","6500300","中和區"
"235051","157-BY","2018/02/06 19:39:25","新北市中和區景平路385-2號","121.50296","24.9942216666667","6500300","中和區"
"235037","AAC-213","2018/02/06 19:39:39","新北市中和區秀朗路三段10巷29弄5號","121.525058333333","24.9960416666667","6500300","中和區"
"235059","AAC-215","2018/02/06 19:39:37","新北市中和區圓通路276-9號","121.49186","24.9907983333333","6500300","中和區"
"220068","013-TV","2018/02/06 19:39:29","新北市板橋區中山路二段555號","121.483961666667","25.02175","6500100","板橋區"
"220065","072-UY","2018/02/06 19:39:24","新北市板橋區國泰街28號","121.468625","25.0067633333333","6500100","板橋區"
"220086","073-UY","2018/02/06 19:39:37","新北市板橋區中正路236巷30號","121.456913333333","25.0191116666667","6500100","板橋區"
"220069","AAD-861","2018/02/06 19:39:35","新北市板橋區縣民大道一段64巷2號","121.455173333333","25.0039683333333","6500100","板橋區"
"220090","120-SR","2018/02/06 19:39:33","新北市板橋區長江路一段94號","121.459206666667","25.0293333333333","6500100","板橋區"
"247008","341-TH","2018/02/06 19:39:36","新北市蘆洲區中山一路138號","121.476185","25.0816666666667","6501400","蘆洲區"
"247004","335-TH","2018/02/06 19:39:21","新北市蘆洲區長安街98巷10號","121.462596666667","25.0814016666667","6501400","蘆洲區"
"226004","312-R5","2018/02/06 19:37:37","新北市平溪區十分里十分街173號","121.777493333333","25.04436","6502400","平溪區"
"228001","212-TW","2018/02/06 19:39:36","新北市貢寮區真理里大澳街5號","121.924745","25.055745","6502600","貢寮區"
"228003","828-UM","2018/02/06 19:39:21","新北市貢寮區真理里美艷山街15-3號","121.92372","25.0679783333333","6502600","貢寮區"
"224010","AGQ-8101","2018/02/06 19:38:21","新北市瑞芳區基山街131號","121.844071666667","25.1084166666667","6501200","瑞芳區"
"224002","639-TC","2018/02/06 19:39:29","新北市瑞芳區民享新村2號","121.817398333333","25.1055","6501200","瑞芳區"
"227003","642-TC","2018/02/06 19:39:28","新北市雙溪區雙溪里太平路50號","121.864555","25.035315","6502500","雙溪區"
"227009","400-TW","2018/02/06 19:39:36","新北市雙溪區新基里新基北街18號","121.867176666667","25.0386583333333","6502500","雙溪區"
"222001","KEA-2212","2018/02/06 19:39:35","新北市深坑區深坑街150號","121.613005","25.001425","6501800","深坑區"
"208002","742-BX","2018/02/06 19:39:39","新北市金山區四維路25號","121.635036666667","25.2228433333333","6502700","金山區"
"208003","665-BX","2018/02/06 19:39:37","新北市金山區仁愛路1巷1號","121.63857","25.220085","6502700","金山區"
"208001","761-BX","2018/02/06 19:39:39","新北市金山區六股里頂六股13-1號","121.613083333333","25.222845","6502700","金山區"
"251004","009-UM","2018/02/06 19:39:21","新北市淡水區民權路3號","121.459686666667","25.1422666666667","6501000","淡水區"
"251001","011-UM","2018/02/06 19:39:20","新北市淡水區民權路49號","121.45979","25.13966","6501000","淡水區"
"251013","179-VK","2018/02/06 19:39:23","新北市淡水區頂田寮10-4號","121.462546666667","25.2146116666667","6501000","淡水區"
"251014","180-VK","2018/02/06 19:39:25","新北市淡水區桂竹圍4-2號","121.474441666667","25.2317266666667","6501000","淡水區"
"251015","182-VK","2018/02/06 19:39:39","新北市三芝區興華里車埕69-6號","121.493315","25.1938883333333","6501000","淡水區"
"251010","413-VK","2018/02/06 19:39:20","新北市淡水區崁頂三路135號","121.431453333333","25.200955","6501000","淡水區"
"251012","441-VK","2018/02/06 19:39:35","新北市淡水區中山北路三段156號","121.445566666667","25.19553","6501000","淡水區"
"251016","442-VK","2018/02/06 19:39:23","新北市淡水區淡金路三段350巷18號","121.450775","25.2083716666667","6501000","淡水區"
"251005","443-VK","2018/02/06 19:39:34","新北市淡水區原德路108巷2號","121.443471666667","25.1734933333333","6501000","淡水區"
"251006","561-UM","2018/02/06 19:39:21","新北市淡水區中山北路一段247巷102號","121.44219","25.17957","6501000","淡水區"
"251009","575-R6","2018/02/06 19:39:40","新北市淡水區中山北路一段217號","121.444418333333","25.179205","6501000","淡水區"
"251007","577-R6","2018/02/06 19:39:36","新北市淡水區中正東路一段111巷27號","121.455513333333","25.1606116666667","6501000","淡水區"
"251011","650-BX","2018/02/06 19:39:22","新北市淡水區八勢一街26號","121.460941666667","25.1557516666667","6501000","淡水區"
"207003","550-UM","2018/02/06 19:39:34","新北市萬里區大鵬里下社35號","121.6494","25.2167983333333","6502800","萬里區"
"207004","225-TW","2018/02/06 19:39:29","新北市萬里區萬里里瑪鋉路21號","121.6874","25.17541","6502800","萬里區"
"252001","292-VK","2018/02/06 19:39:32","新北市三芝區公正街9號","121.499788333333","25.2574983333333","6502100","三芝區"
"252002","AAC-283","2018/02/06 19:39:24","新北市三芝區中正路一段18巷54號","121.504255","25.2587516666667","6502100","三芝區"
"237004","KEA-2597","2018/02/06 19:39:37","新北市三峽區插角24號","121.402531666667","24.8728966666667","6500900","三峽區"
"237007","153-BY","2018/02/06 19:39:22","新北市三峽區二鬮路136巷24弄57號","121.357185","24.910595","6500900","三峽區"
"237009","210-TH","2018/02/06 19:39:33","新北市三峽區民權街145號","121.368795","24.9318216666667","6500900","三峽區"
"237013","252-BX","2018/02/06 19:39:37","新北市三峽區介壽路二段2-2號","121.389883333333","24.93475","6500900","三峽區"
"237012","275-BY","2018/02/06 19:39:20","新北市三峽區民生街3號","121.37465","24.9354216666667","6500900","三峽區"
"237008","302-VK","2018/02/06 19:39:35","新北市三峽區永安街113巷4號","121.374256666667","24.9285083333333","6500900","三峽區"
"237014","433-BY","2018/02/06 19:39:25","新北市三峽區大利路20號","121.366936666667","24.9116983333333","6500900","三峽區"
"237006","5529-G3","2018/02/06 19:39:28","新北市三峽區中正路一段336巷15弄2號","121.369948333333","24.92498","6500900","三峽區"
"237011","KEA-2596","2018/02/06 19:39:21","新北市三峽區隆恩街551號","121.357611666667","24.94002","6500900","三峽區"
"237016","649-BX","2018/02/06 19:39:28","新北市三峽區成福路181號","121.42131","24.9300583333333","6500900","三峽區"
"237005","AKY-6261","2018/02/06 19:39:39","新北市三峽區文化路101-1號","121.371033333333","24.9361316666667","6500900","三峽區"
"236070","105-UM","2018/02/06 19:39:30","新北市土城區金城路二段151-1號","121.453778333333","24.9813516666667","6501300","土城區"
"236043","107-UM","2018/02/06 19:39:35","新北市土城區學士路11號","121.453676666667","24.9829633333333","6501300","土城區"
"236079","166-UM","2018/02/06 19:39:23","新北市土城區溪頭路20巷2弄2號","121.412876666667","24.955515","6501300","土城區"
"236031","253-BX","2018/02/06 19:39:32","新北市土城區福祥街64號","121.441588333333","24.9815716666667","6501300","土城區"
"236026","269-VK","2018/02/06 19:39:38","新北市土城區中央路二段57巷13號","121.443358333333","24.9789966666667","6501300","土城區"
"236038","271-VK","2018/02/06 19:39:34","新北市土城區青雲路257巷1號","121.45935","24.9809366666667","6501300","土城區"
"236023","401-BY","2018/02/06 19:39:26","新北市土城區峰廷街3號","121.469085","24.9873633333333","6501300","土城區"
"236059","912-UM","2018/02/06 19:39:27","新北市土城區中央路二段69號","121.442456666667","24.97868","6501300","土城區"
"236049","913-UM","2018/02/06 19:39:33","新北市土城區明德路一段57號","121.465391666667","24.98459","6501300","土城區"
"236063","915-UM","2018/02/06 19:39:32","新北市土城區延平街56號","121.467926666667","24.9924216666667","6501300","土城區"
"236055","AAC-216","2018/02/06 19:39:35","新北市土城區學府路一段121號","121.455223333333","24.987245","6501300","土城區"
"242032","AAC-296","2018/02/06 19:39:32","新北市新莊區新泰路213巷66號","121.444378333333","25.03841","6500500","新莊區"
"242027","612-BX","2018/02/06 19:39:33","新北市新莊區新泰路357巷3弄57號","121.44209","25.0392133333333","6500500","新莊區"
"242044","442-UM","2018/02/06 19:39:20","新北市新莊區新北大道七段365號","121.412276666667","25.026785","6500500","新莊區"
"242005","413-TV","2018/02/06 19:39:34","新北市新莊區化成路11巷58弄8號","121.462843333333","25.0438916666667","6500500","新莊區"
"242009","173-VK","2018/02/06 19:39:34","新北市新莊區新泰路255巷83號","121.442516666667","25.0388133333333","6500500","新莊區"
"242013","346-TH","2018/02/06 19:39:37","新北市新莊區中誠街119號","121.449486666667","25.0475083333333","6500500","新莊區"
"242019","348-TH","2018/02/06 19:39:20","新北市新莊區新泰路357巷3弄51號","121.442423333333","25.0399683333333","6500500","新莊區"
"242017","350-TH","2018/02/06 19:39:27","新北市新莊區新泰路277巷69號","121.443073333333","25.0400033333333","6500500","新莊區"
"242011","351-TH","2018/02/06 19:39:20","新北市新莊區中榮街124號","121.446593333333","25.0527333333333","6500500","新莊區"
"238023","601-UM","2018/02/06 19:39:37","新北市樹林區三福街114號","121.406435","25.016315","6500700","樹林區"
"238018","571-TV","2018/02/06 19:39:33","新北市樹林區中華路121號","121.422143333333","24.9825733333333","6500700","樹林區"
"238024","5061-A6","2018/02/06 19:39:38","新北市樹林區佳園路一段80巷52號","121.391565","24.9694966666667","6500700","樹林區"
"238021","KEA-2217","2018/02/06 19:39:37","新北市樹林區大雅路7號","121.38057","24.94449","6500700","樹林區"
"238022","KEA-2213","2018/02/06 19:39:35","新北市樹林區名園街65號","121.42016","24.977855","6500700","樹林區"
"238025","303-VK","2018/02/06 19:39:19","新北市樹林區中山路一段372-3號","121.419018333333","24.9858","6500700","樹林區"
"238017","283-BY","2018/02/06 19:39:35","新北市樹林區光興街11巷2號","121.412226666667","25.0029066666667","6500700","樹林區"
"238014","282-BY","2018/02/06 19:39:36","新北市樹林區千歲街30巷23號","121.426416666667","24.9961316666667","6500700","樹林區"
"238020","268-VK","2018/02/06 19:39:30","新北市樹林區千歲街111-1號","121.429185","25.00149","6500700","樹林區"
"238026","172-UY","2018/02/06 19:39:18","新北市樹林區佳園路二段155號","121.390033333333","24.9573066666667","6500700","樹林區"
"239007","AAC-297","2018/02/06 19:39:27","新北市鶯歌區大湖路326巷7號","121.345783333333","24.9703416666667","6500800","鶯歌區"
"239006","891-R6","2018/02/06 19:39:22","新北市鶯歌區建國路512巷52號","121.339346666667","24.9512466666667","6500800","鶯歌區"
"239003","360-BY","2018/02/06 19:39:31","新北市樹林區中山路三段210-2號","121.381578333333","24.9655666666667","6500800","鶯歌區"
"239004","193-VK","2018/02/06 19:39:20","新北市鶯歌區二甲路43-29號","121.336541666667","24.9342283333333","6500800","鶯歌區"
"221008","489-VK","2018/02/06 19:39:37","新北市汐止區康寧街61巷46號","121.62028","25.06777","6501100","汐止區"
"221036","130-UY","2018/02/06 19:39:27","新北市汐止區康寧街901號","121.651665","25.0748633333333","6501100","汐止區"
"221010","269-BY","2018/02/06 19:39:23","新北市汐止區汐萬路二段40-1號","121.649621666667","25.0811583333333","6501100","汐止區"
"221012","278-VK","2018/02/06 19:39:21","新北市汐止區汐平路一段5號","121.680736666667","25.0712383333333","6501100","汐止區"
"221023","279-VK","2018/02/06 19:39:31","新北市汐止區明峰街185號","121.628203333333","25.0696483333333","6501100","汐止區"
"221032","280-BY","2018/02/06 19:39:34","新北市汐止區大同路二段273號","121.652333333333","25.0675433333333","6501100","汐止區"
"221027","281-BY","2018/02/06 19:39:31","新北市汐止區忠孝東路9號","121.658321666667","25.0658866666667","6501100","汐止區"
"221002","297-VK","2018/02/06 19:39:25","新北市汐止區工建路216號","121.63634","25.062125","6501100","汐止區"
"221029","298-VK","2018/02/06 19:39:39","新北市汐止區康寧街901號","121.651645","25.074875","6501100","汐止區"
"221021","299-VK","2018/02/06 19:39:37","新北市汐止區新台五路一段131號","121.65223","25.0621333333333","6501100","汐止區"
"221031","353-TW","2018/02/06 19:24:16","新北市汐止區康寧街901號","121.650841666667","25.0752633333333","6501100","汐止區"
"221025","623-UM","2018/02/06 19:39:32","新北市汐止區新台五路二段36號","121.660853333333","25.0653","6501100","汐止區"
"221038","646-BX","2018/02/06 19:39:29","新北市汐止區忠孝東路246號","121.662836666667","25.0673116666667","6501100","汐止區"
"221033","647-BX","2018/02/06 19:39:29","台北市南港區舊莊街二段17號","121.625381666667","25.0374716666667","6501100","汐止區"
"220079","145-BY","2018/02/06 19:39:30","新北市板橋區建國街93號","121.459706666667","25.0174233333333","6500100","板橋區"
"220080","200-UY","2018/02/06 19:39:32","新北市板橋區大觀路二段37巷232號","121.449576666667","25.0012583333333","6500100","板橋區"
"220082","610-BX","2018/02/06 19:39:26","新北市板橋區大觀路三段231號","121.430616666667","24.992285","6500100","板橋區"
"220103","257-TC","2018/02/06 19:39:40","新北市板橋區文化路一段286巷11號","121.467958333333","25.021455","6500100","板橋區"
"220091","267-BY","2018/02/06 19:39:34","新北市板橋區懷德街139巷20弄2號","121.48","25.0307666666667","6500100","板橋區"
"220056","276-BY","2018/02/06 19:39:27","新北市板橋區四川路二段47巷3弄2號","121.454275","24.9945683333333","6500100","板橋區"
"220072","277-BY","2018/02/06 19:39:29","新北市板橋區金門街287巷37號","121.432306666667","24.987495","6500100","板橋區"
"220101","280-UM","2018/02/06 19:39:37","新北市板橋區縣民大道三段33巷1弄13號","121.473486666667","25.0204316666667","6500100","板橋區"
"220071","283-VK","2018/02/06 19:39:24","新北市板橋區四川路一段325巷3弄5號","121.459501666667","25.0004883333333","6500100","板橋區"
"220094","285-UM","2018/02/06 19:39:29","新北市板橋區銘傳街96號","121.46971","25.0315616666667","6500100","板橋區"
"220053","285-VK","2018/02/06 19:39:22","新北市板橋區中山路二段253號","121.477355","25.01744","6500100","板橋區"
"220083","286-VK","2018/02/06 19:39:26","新北市板橋區龍興街71巷27號","121.44266","25.0022733333333","6500100","板橋區"
"220081","287-VK","2018/02/06 19:39:27","新北市板橋區大觀路一段29巷131弄33-16號","121.450665","25.0039833333333","6500100","板橋區"
"220061","293-UM","2018/02/06 19:39:39","新北市板橋區中山路一段279號","121.46975","25.0138816666667","6500100","板橋區"
"220106","295-UM","2018/02/06 19:39:22","新北市板橋區文化路二段382號","121.473405","25.0311233333333","6500100","板橋區"
"220084","296-UM","2018/02/06 19:39:33","新北市板橋區滿平街84巷102號","121.426568333333","24.9866766666667","6500100","板橋區"
"220075","303-R5","2018/02/06 19:39:22","新北市板橋區中正路253巷56號","121.453698333333","25.0176033333333","6500100","板橋區"
"220062","305-R5","2018/02/06 19:39:19","新北市板橋區三民路二段35巷6-2號","121.48025","25.0169683333333","6500100","板橋區"
"220092","307-R5","2018/02/06 19:39:26","新北市板橋區松江街16號","121.469208333333","25.0263783333333","6500100","板橋區"
"220098","317-R6","2018/02/06 19:39:30","新北市板橋區四維路269巷57號","121.460856666667","25.0271916666667","6500100","板橋區"
"220064","486-VK","2018/02/06 19:39:30","新北市板橋區中山路一段67號","121.461168333333","25.0097666666667","6500100","板橋區"
"220089","487-VK","2018/02/06 19:39:27","新北市板橋區國光路192巷2號","121.46143","25.0182433333333","6500100","板橋區"
"220088","491-VK","2018/02/06 19:39:36","新北市板橋區民治街12號","121.477541666667","25.0343933333333","6500100","板橋區"
"220035","560-BX","2018/02/06 19:37:55","新北市板橋區金華街85巷27號","121.458646666667","25.0213333333333","6500100","板橋區"
"220063","609-BX","2018/02/06 19:39:35","新北市板橋區中山路二段531巷28號","121.482928333333","25.0222883333333","6500100","板橋區"
"220057","686-BX","2018/02/06 19:39:23","新北市板橋區和平路61號","121.461151666667","24.9946","6500100","板橋區"
"220077","687-BX","2018/02/06 19:39:34","新北市板橋區僑中三街1號","121.446816666667","25.0042316666667","6500100","板橋區"
"220054","741-BX","2018/02/06 19:39:20","新北市板橋區忠孝路239巷16號","121.46679","25.0032183333333","6500100","板橋區"
"220055","827-TW","2018/02/06 19:39:28","新北市板橋區國慶路149巷4弄2-1號","121.461241666667","24.9968433333333","6500100","板橋區"
"220067","829-TW","2018/02/06 19:39:17","新北市板橋區長安街138巷1弄22號","121.473298333333","25.0096666666667","6500100","板橋區"
"220096","830-TW","2018/02/06 19:39:37","新北市板橋區民生路二段226巷8弄8號","121.470133333333","25.0215966666667","6500100","板橋區"
"220093","833-TW","2018/02/06 19:39:37","新北市板橋區新海路396號","121.458836666667","25.026535","6500100","板橋區"
"220074","895-R6","2018/02/06 19:39:35","新北市板橋區福德街17號","121.456145","25.0091533333333","6500100","板橋區"
"220073","985-R7","2018/02/06 19:39:27","新北市板橋區國光路67巷14號","121.458965","25.0187016666667","6500100","板橋區"
"220097","AAC-210","2018/02/06 19:39:20","新北市板橋區幸福路32巷6號","121.4616","25.020605","6500100","板橋區"
"220070","AAC-253","2018/02/06 19:39:34","新北市板橋區民族路169號","121.468408333333","25.0075733333333","6500100","板橋區"
