"lineid","car","time","location","longitude","latitude","cityid","cityname"
"234046","148-BY","2018/02/06 19:59:36","新北市永和區成功路一段77號","121.526865","25.0031716666667","6500400","永和區"
"234007","207-UY","2018/02/06 19:59:35","新北市永和區保生路22巷8號","121.507308333333","25.0080316666667","6500400","永和區"
"234081","298-R6","2018/02/06 19:59:34","新北市永和區永亨路100號","121.523208333333","25.004815","6500400","永和區"
"234038","336-UY","2018/02/06 19:59:37","新北市永和區成功路二段175號","121.526768333333","24.99679","6500400","永和區"
"234064","337-UY","2018/02/06 19:59:32","新北市永和區中正路412巷20弄10號","121.518725","25.0016283333333","6500400","永和區"
"234086","338-UY","2018/02/06 19:59:21","新北市永和區福和路152號","121.521788333333","25.0078566666667","6500400","永和區"
"234070","552-UM","2018/02/06 19:59:39","新北市永和區國光路14號","121.519106666667","25.0083383333333","6500400","永和區"
"234017","745-BX","2018/02/06 19:59:21","新北市永和區文化路69號","121.513913333333","25.01511","6500400","永和區"
"234030","746-BX","2018/02/06 19:59:26","新北市永和區民生路22巷7號","121.52203","24.997235","6500400","永和區"
"234054","KEA-2590","2018/02/06 19:59:34","新北市永和區竹林路39巷33弄1號","121.519996666667","25.0152266666667","6500400","永和區"
"234013","KEA-2591","2018/02/06 19:59:18","新北市永和區保生路55號","121.504678333333","25.0105666666667","6500400","永和區"
"234061","AAD-866","2018/02/06 19:59:29","新北市永和區中正路283巷9號","121.517031666667","25.000565","6500400","永和區"
"234042","862-TW","2018/02/06 19:59:29","新北市永和區中和路389巷8號","121.508125","25.00094","6500400","永和區"
"234050","863-TW","2018/02/06 19:59:21","新北市永和區永平路302巷32弄25號","121.507788333333","25.0136","6500400","永和區"
"234026","9371-KE","2018/02/06 19:59:34","新北市永和區水源街21巷14弄3號","121.511471666667","25.003715","6500400","永和區"
"234011","9373-KE","2018/02/06 19:59:34","新北市永和區仁愛路352巷112弄4號","121.500826666667","25.00838","6500400","永和區"
"249005","172-UM","2018/02/06 19:59:24","新北市八里區楓林路4號","121.381593333333","25.1295816666667","6502300","八里區"
"249001","173-UM","2018/02/06 19:59:30","新北市八里區中華路二段312號","121.40379","25.1483666666667","6502300","八里區"
"249004","303-UY","2018/02/06 19:59:21","新北市八里區中華路一段333-1號","121.413241666667","25.1538866666667","6502300","八里區"
"249002","305-UY","2018/02/06 19:59:32","新北市八里區頂寮二街3號","121.450958333333","25.1238866666667","6502300","八里區"
"249003","593-UM","2018/02/06 19:59:26","新北市八里區中華路二段560巷3號","121.398631666667","25.1451166666667","6502300","八里區"
"248016","026-BX","2018/02/06 19:59:29","新北市五股區成泰路三段577巷80弄24號","121.449548333333","25.10452","6501500","五股區"
"248008","095-VK","2018/02/06 19:59:34","新北市五股區四維路30巷17號","121.467973333333","25.071545","6501500","五股區"
"248012","247-BX","2018/02/06 19:59:37","新北市五股區民義路一段101-1號","121.434398333333","25.08609","6501500","五股區"
"248014","261-SL","2018/02/06 19:59:35","新北市五股區五福路11-6號","121.434238333333","25.088665","6501500","五股區"
"248004","677-BX","2018/02/06 19:59:35","新北市五股區成泰路一段10號","121.434541666667","25.0673883333333","6501500","五股區"
"248002","678-BX","2018/02/06 19:59:35","新北市五股區成泰路三段487號","121.450801666667","25.099275","6501500","五股區"
"248010","682-TV","2018/02/06 19:59:34","新北市五股區登林路貿商巷1弄2號","121.42962","25.0698816666667","6501500","五股區"
"234077","969-R7","2018/02/06 19:59:20","新北市永和區民有街18號","121.516461666667","24.996575","6500400","永和區"
"234074","AAC-211","2018/02/06 19:59:32","新北市永和區豫溪街215巷1號","121.524055","25.0095166666667","6500400","永和區"
"234067","AAC-212","2018/02/06 19:59:34","新北市永和區保平路236巷44號","121.507363333333","25.0068633333333","6500400","永和區"
"234003","AAC-295","2018/02/06 19:59:31","新北市永和區永和路二段2號","121.514461666667","25.0099533333333","6500400","永和區"
"243012","AAD-798","2018/02/06 19:59:24","新北市泰山區全興路109號","121.43379","25.0566733333333","6501600","泰山區"
"243011","297-R6","2018/02/06 19:59:23","新北市泰山區明志路三段196巷39號","121.421801666667","25.0398566666667","6501600","泰山區"
"243015","380-SR","2018/02/06 19:59:28","新北市泰山區明志路二段214巷9號","121.42676","25.0486666666667","6501600","泰山區"
"243014","421-VK","2018/02/06 19:59:20","新北市泰山區泰林路二段119號","121.4343","25.059625","6501600","泰山區"
"243010","KEA-2215","2018/02/06 19:59:33","新北市泰山區明志路二段93號","121.42852","25.0520666666667","6501600","泰山區"
"243009","KEA-2216","2018/02/06 19:59:32","新北市泰山區泰林路二段164巷31號","121.434346666667","25.0612016666667","6501600","泰山區"
"243013","646-TV","2018/02/06 19:44:37","新北市泰山區應化街13號","121.42386","25.0436916666667","6501600","泰山區"
"243016","680-BX","2018/02/06 19:59:18","新北市泰山區貴鳳街1號","121.42153","25.0316616666667","6501600","泰山區"
"222003","436-BY","2018/02/06 19:59:28","新北市深坑區埔新街14號","121.620738333333","25.00395","6501800","深坑區"
"222002","659-BX","2018/02/06 19:59:29","新北市深坑區北深路二段81巷8弄2號","121.618283333333","25.00311","6501800","深坑區"
"231041","002-UM","2018/02/06 19:59:39","新北市新店區民族路192號","121.53608","24.97534","6500600","新店區"
"231059","046-UY","2018/02/06 19:59:39","新北市新店區安康路二段147-1號","121.511328333333","24.9598133333333","6500600","新店區"
"231061","047-UY","2018/02/06 19:59:28","新北市新店區安民街228號","121.517456666667","24.9724516666667","6500600","新店區"
"231060","106-UY","2018/02/06 19:59:31","新北市新店區安康路二段448號","121.495491666667","24.9548066666667","6500600","新店區"
"231051","107-UY","2018/02/06 19:59:31","新北市新店區中央一街33號","121.527723333333","24.9734983333333","6500600","新店區"
"231048","108-UY","2018/02/06 19:59:38","新北市新店區寶宏路3號","121.549148333333","24.9768633333333","6500600","新店區"
"231049","110-UY","2018/02/06 19:59:25","新北市新店區明德路42號","121.541448333333","24.9780966666667","6500600","新店區"
"231053","187-VK","2018/02/06 19:59:28","新北市新店區新烏路三段206號","121.55086","24.90159","6500600","新店區"
"231068","188-VK","2018/02/06 19:59:21","新北市新店區安華路28-1號","121.519406666667","24.960985","6500600","新店區"
"231064","189-VK","2018/02/06 19:59:29","新北市新店區安民街134號","121.516568333333","24.9693766666667","6500600","新店區"
"231050","KEA-2219","2018/02/06 19:59:29","新北市新店區北新路一段98號","121.54202","24.9688066666667","6500600","新店區"
"221015","KEA-2785","2018/02/06 19:59:39","新北市汐止區橋東街1號","121.666806666667","25.07631","6501100","汐止區"
"231057","256-BX","2018/02/06 19:59:21","新北市新店區花園二路一段11號","121.555525","24.9324733333333","6500600","新店區"
"231054","AAD-862","2018/02/06 19:59:20","新北市新店區光明街129號","121.539446666667","24.9618466666667","6500600","新店區"
"231056","3713-VJ","2018/02/06 19:59:35","新北市新店區北新路三段141號","121.541105","24.983205","6500600","新店區"
"231055","4716-K9","2018/02/06 19:59:19","新北市新店區力行路54號","121.538673333333","24.965615","6500600","新店區"
"231067","4772-VM","2018/02/06 19:59:24","新北市新店區秀山路11巷12弄2號","121.531538333333","24.9594916666667","6500600","新店區"
"231042","616-UM","2018/02/06 19:59:26","新北市新店區中興路二段89號","121.547118333333","24.9714933333333","6500600","新店區"
"231045","617-UM","2018/02/06 19:59:39","新北市新店區北宜路二段279號","121.555153333333","24.9536266666667","6500600","新店區"
"231040","619-UM","2018/02/06 19:59:22","新北市新店區中正路62號","121.544273333333","24.9701566666667","6500600","新店區"
"231063","645-TV","2018/02/06 19:59:34","新北市新店區黎明路9號","121.502478333333","24.9502983333333","6500600","新店區"
"231065","719-UY","2018/02/06 19:59:21","新北市新店區安祥路108巷3號","121.475186666667","24.9587083333333","6500600","新店區"
"231062","720-UM","2018/02/06 19:59:37","新北市新店區華城路36巷1-1號","121.528186666667","24.9554916666667","6500600","新店區"
"231044","897-TW","2018/02/06 19:59:24","新北市新店區復興路44-1號","121.538591666667","24.9866916666667","6500600","新店區"
"231043","899-TW","2018/02/06 19:59:38","新北市新店區中正路263-4號","121.53828","24.97384","6500600","新店區"
"231066","AKT-0513","2018/02/06 19:59:23","新北市新店區安德街60巷35號","121.510963333333","24.9637516666667","6500600","新店區"
"241011","013-R5","2018/02/06 19:59:33","新北市三重區三和路二段224號","121.49776","25.0696733333333","6500200","三重區"
"241028","022-UY","2018/02/06 19:59:31","新北市三重區中正南路40號","121.493763333333","25.0601216666667","6500200","三重區"
"241008","059-VK","2018/02/06 19:59:21","新北市三重區力行路二段136巷49弄2號","121.47924","25.07507","6500200","三重區"
"241009","060-VK","2018/02/06 19:59:20","新北市三重區三和路四段390巷36號","121.480641666667","25.0785783333333","6500200","三重區"
"241031","061-VK","2018/02/06 19:59:25","新北市三重區重新路四段184巷15號","121.487155","25.0548766666667","6500200","三重區"
"241015","062-VK","2018/02/06 19:59:27","新北市三重區三和路二段29號","121.500983333333","25.0670433333333","6500200","三重區"
"241017","063-VK","2018/02/06 19:59:23","新北市三重區自強路一段223號","121.491188333333","25.0686216666667","6500200","三重區"
"241024","065-VK","2018/02/06 19:59:37","新北市三重區力行路一段180號","121.481951666667","25.07152","6500200","三重區"
"241026","066-VK","2018/02/06 19:59:26","新北市三重區仁慈街2-1號","121.501566666667","25.0630916666667","6500200","三重區"
"241005","262-UM","2018/02/06 19:59:36","新北市三重區溪尾街392號","121.489053333333","25.08586","6500200","三重區"
"241018","265-UM","2018/02/06 19:59:36","新北市三重區正義北路244巷56號","121.494325","25.0677333333333","6500200","三重區"
"241016","266-UM","2018/02/06 19:59:27","新北市三重區正義北路36巷23號","121.496566666667","25.0633766666667","6500200","三重區"
"241032","269-UM","2018/02/06 19:59:36","新北市三重區朝陽街23號","121.483613333333","25.0565166666667","6500200","三重區"
"241013","270-UM","2018/02/06 19:59:19","新北市三重區三和路三段125巷42號","121.494095","25.07377","6500200","三重區"
"241025","271-UM","2018/02/06 19:59:38","新北市三重區頂崁街210巷16號","121.476493333333","25.0677633333333","6500200","三重區"
"241007","398-BY","2018/02/06 19:59:23","新北市三重區溪尾街162號","121.488638333333","25.08009","6500200","三重區"
"241020","413-TH","2018/02/06 19:59:25","新北市三重區三和路四段2號","121.491718333333","25.0736533333333","6500200","三重區"
"241035","462-BY","2018/02/06 19:59:22","新北市三重區大榮街7號","121.498171666667","25.0631166666667","6500200","三重區"
"241004","475-VK","2018/02/06 19:59:24","新北市三重區五華街74號","121.493521666667","25.081995","6500200","三重區"
"241019","478-VK","2018/02/06 19:59:29","新北市三重區重陽路四段18號","121.490861666667","25.0691383333333","6500200","三重區"
"241030","480-VK","2018/02/06 19:59:24","新北市三重區重新路四段244巷8號","121.486226666667","25.053615","6500200","三重區"
"241014","543-UM","2018/02/06 19:59:40","新北市三重區長安街86號","121.50166","25.06759","6500200","三重區"
"241023","545-UM","2018/02/06 19:59:29","新北市三重區頂崁街172號","121.477623333333","25.06598","6500200","三重區"
"241001","547-UM","2018/02/06 19:59:32","新北市三重區福隆路47號","121.490866666667","25.0775783333333","6500200","三重區"
"241006","AAD-863","2018/02/06 19:59:23","新北市三重區力行路二段93號","121.48257","25.075795","6500200","三重區"
"241003","887-TS","2018/02/06 19:59:28","新北市三重區仁愛街445巷57號","121.491416666667","25.0831816666667","6500200","三重區"
"241012","941-UM","2018/02/06 19:59:19","新北市三重區仁厚街41號","121.500203333333","25.0764433333333","6500200","三重區"
"241029","942-UM","2018/02/06 19:59:33","新北市三重區重安街1號","121.490011666667","25.0583066666667","6500200","三重區"
"241033","AAC-255","2018/02/06 19:59:35","新北市三重區中興北街73號","121.469446666667","25.047665","6500200","三重區"
"235066","003-UY","2018/02/06 19:59:29","新北市中和區光華街13號","121.504518333333","25.0042616666667","6500300","中和區"
"235047","031-BX","2018/02/06 19:59:22","新北市中和區和平街78號","121.50781","24.9912433333333","6500300","中和區"
"235056","096-UM","2018/02/06 19:59:33","新北市中和區中山路三段170巷8弄24號","121.473086666667","25.0076366666667","6500300","中和區"
"235039","097-UM","2018/02/06 19:59:33","新北市中和區大勇街27巷4號","121.517193333333","24.9936033333333","6500300","中和區"
"235065","098-UM","2018/02/06 19:59:32","新北市中和區福祥路90巷5號","121.49952","25.0058833333333","6500300","中和區"
"235040","150-BY","2018/02/06 19:59:27","新北市中和區保健路14號","121.508148333333","24.9979583333333","6500300","中和區"
"235058","151-BY","2018/02/06 19:59:33","新北市中和區員山路146巷3-1號","121.481683333333","24.99685","6500300","中和區"
"235055","183-VK","2018/02/06 19:59:27","新北市中和區德光路15巷6號","121.471245","25.0040083333333","6500300","中和區"
"235038","185-VK","2018/02/06 19:59:26","新北市中和區自強路54號","121.520218333333","24.9946983333333","6500300","中和區"
"235049","186-VK","2018/02/06 19:59:31","新北市中和區景平路520號","121.503403333333","24.99399","6500300","中和區"
"235067","255-BX","2018/02/06 19:59:25","新北市中和區新生街184號","121.483631666667","24.9996633333333","6500300","中和區"
"235044","293-VK","2018/02/06 19:59:31","新北市中和區中正路69號","121.501141666667","24.9935333333333","6500300","中和區"
"235043","352-BY","2018/02/06 19:59:26","新北市中和區興南路二段159巷7號","121.505256666667","24.9831866666667","6500300","中和區"
"235068","377-QA","2018/02/06 19:59:16","新北市中和區福祥路28巷16號","121.499803333333","25.0040966666667","6500300","中和區"
"235061","378-QA","2018/02/06 19:59:20","新北市中和區新生街176巷22號","121.482595","24.9999233333333","6500300","中和區"
"235050","4979-A6","2018/02/06 19:59:38","新北市中和區景平路235號","121.510116666667","24.9927233333333","6500300","中和區"
"235069","4980-A6","2018/02/06 19:59:32","新北市中和區景平路477號","121.500113333333","24.9970883333333","6500300","中和區"
"235042","551-UM","2018/02/06 19:59:23","新北市中和區宜安路102號","121.510423333333","24.9978016666667","6500300","中和區"
"235054","640-BX","2018/02/06 19:59:36","新北市中和區莒光路132號","121.472428333333","25.0014333333333","6500300","中和區"
"235046","733-UM","2018/02/06 19:59:26","新北市中和區興南路一段93巷79號","121.51056","24.986485","6500300","中和區"
"235041","802-TS","2018/02/06 19:59:32","新北市中和區中安街166號","121.510855","25.0000816666667","6500300","中和區"
"235052","805-TS","2018/02/06 19:59:33","新北市中和區華新街30巷18-3號","121.506901666667","24.9842283333333","6500300","中和區"
"235048","896-TW","2018/02/06 19:59:35","新北市中和區景新街416號","121.512938333333","24.989025","6500300","中和區"
"235053","900-TW","2018/02/06 19:59:37","新北市中和區民德路258號","121.4681","24.9971033333333","6500300","中和區"
"235063","911-UM","2018/02/06 19:59:29","新北市中和區連城路263巷25號","121.49283","24.994835","6500300","中和區"
"235051","157-BY","2018/02/06 19:59:25","新北市中和區中興街233巷10號","121.501445","24.98948","6500300","中和區"
"235037","AAC-213","2018/02/06 19:59:20","新北市中和區自立路22號","121.52236","24.9932083333333","6500300","中和區"
"235059","AAC-215","2018/02/06 19:59:17","新北市中和區圓通路305巷5弄30號","121.494166666667","24.9902033333333","6500300","中和區"
"220068","013-TV","2018/02/06 19:59:30","新北市板橋區光復街192巷16弄26號","121.486288333333","25.0192433333333","6500100","板橋區"
"220065","072-UY","2018/02/06 19:59:25","新北市板橋區海山路29號","121.467613333333","25.0091433333333","6500100","板橋區"
"220086","073-UY","2018/02/06 19:59:36","新北市板橋區南雅西路二段40號","121.452973333333","25.01003","6500100","板橋區"
"220069","AAD-861","2018/02/06 19:59:35","新北市板橋區貴興路60號","121.456716666667","25.0030316666667","6500100","板橋區"
"220090","120-SR","2018/02/06 19:59:33","新北市板橋區綠堤街29號","121.455761666667","25.0264483333333","6500100","板橋區"
"247020","500-BY","2018/02/06 19:59:32","新北市蘆洲區民義街66號","121.472951666667","25.0897816666667","6501400","蘆洲區"
"247008","341-TH","2018/02/06 19:59:36","新北市蘆洲區中山一路95巷22弄2號","121.47745","25.0803783333333","6501400","蘆洲區"
"247010","339-TH","2018/02/06 19:59:35","新北市三重區集賢路188號","121.483891666667","25.0880133333333","6501400","蘆洲區"
"247002","337-TH","2018/02/06 19:59:24","新北市蘆洲區長安街248-5號","121.457826666667","25.0865783333333","6501400","蘆洲區"
"247004","336-TH","2018/02/06 19:59:36","新北市蘆洲區永安南路二段356號","121.45615","25.0829166666667","6501400","蘆洲區"
"247002","335-TH","2018/02/06 19:59:21","新北市蘆洲區永安南路二段322號","121.456993333333","25.0827433333333","6501400","蘆洲區"
"247016","057-VK","2018/02/06 19:59:26","新北市蘆洲區中正路79-2號","121.470105","25.0834383333333","6501400","蘆洲區"
"247006","056-VK","2018/02/06 19:59:29","新北市蘆洲區和平路121巷14弄3號","121.466433333333","25.0796566666667","6501400","蘆洲區"
"247018","053-VK","2018/02/06 19:59:37","新北市蘆洲區民族路278號","121.478245","25.0893966666667","6501400","蘆洲區"
"247014","007-UY","2018/02/06 19:59:24","新北市蘆洲區成功路114號","121.472401666667","25.0824566666667","6501400","蘆洲區"
"247024","002-UY","2018/02/06 19:59:22","新北市蘆洲區光榮路120巷8弄33號","121.464803333333","25.08813","6501400","蘆洲區"
"226004","312-R5","2018/02/06 19:59:37","新北市平溪區靜安路二段548號","121.746531666667","25.02582","6502400","平溪區"
"228003","828-UM","2018/02/06 19:59:21","新北市貢寮區仁理村仁和路78號","121.922695","25.05024","6502600","貢寮區"
"224010","AGQ-8101","2018/02/06 19:59:33","新北市瑞芳區輕便路55號","121.845086666667","25.1102783333333","6501200","瑞芳區"
"227003","642-TC","2018/02/06 19:59:28","新北市雙溪區雙溪里長安街16號","121.865098333333","25.034555","6502500","雙溪區"
"227009","400-TW","2018/02/06 19:59:33","新北市雙溪區新基里朝陽街18號","121.865935","25.0386533333333","6502500","雙溪區"
"222001","KEA-2212","2018/02/06 19:59:35","新北市深坑區北深路三段157-1號","121.601883333333","25.0032416666667","6501800","深坑區"
"208002","742-BX","2018/02/06 19:59:25","新北市金山區環金路91號","121.636525","25.2172133333333","6502700","金山區"
"208003","665-BX","2018/02/06 19:59:17","新北市金山區永興里跳石4號","121.63355","25.2559066666667","6502700","金山區"
"208001","761-BX","2018/02/06 19:59:39","新北市金山區南勢湖1-2號","121.622755","25.2194933333333","6502700","金山區"
"251004","009-UM","2018/02/06 19:46:21","新北市淡水區民權路185巷22號","121.460311666667","25.1336916666667","6501000","淡水區"
"251001","011-UM","2018/02/06 19:59:20","新北市淡水區淡金路一段166-5號","121.453991666667","25.18002","6501000","淡水區"
"251013","179-VK","2018/02/06 19:59:23","新北市淡水區奎柔山路63號","121.45175","25.206215","6501000","淡水區"
"251014","180-VK","2018/02/06 19:59:25","新北市淡水區石頭厝2號","121.458313333333","25.23562","6501000","淡水區"
"251008","181-VK","2018/02/06 19:59:33","新北市淡水區淡海路61號","121.422938333333","25.1808816666667","6501000","淡水區"
"251015","182-VK","2018/02/06 19:59:18","新北市淡水區商工路147號","121.447293333333","25.188595","6501000","淡水區"
"251010","413-VK","2018/02/06 19:59:20","新北市淡水區崁頂128號","121.432053333333","25.204325","6501000","淡水區"
"251012","441-VK","2018/02/06 19:59:35","新北市淡水區下圭柔山100-2號","121.440986666667","25.211495","6501000","淡水區"
"251016","442-VK","2018/02/06 19:59:23","新北市淡水區淡金路四段618號","121.45159","25.2295566666667","6501000","淡水區"
"251005","443-VK","2018/02/06 19:59:34","新北市淡水區學府路136巷48號","121.452283333333","25.172625","6501000","淡水區"
"251006","561-UM","2018/02/06 19:59:21","新北市淡水區水碓街34號","121.444278333333","25.1773633333333","6501000","淡水區"
"251009","575-R6","2018/02/06 19:59:28","新北市淡水區英專路28巷2弄18號","121.445845","25.16944","6501000","淡水區"
"251011","650-BX","2018/02/06 19:59:22","新北市淡水區崁頂55-1號","121.442306666667","25.1969483333333","6501000","淡水區"
"251002","672-BX","2018/02/06 19:59:18","新北市淡水區中正路二段12號","121.420483333333","25.1807816666667","6501000","淡水區"
"207003","550-UM","2018/02/06 19:59:34","新北市萬里區磺潭里公館崙5號","121.641865","25.2142783333333","6502800","萬里區"
"207004","225-TW","2018/02/06 19:59:29","新北市萬里區北基里忠二街35號","121.685653333333","25.175755","6502800","萬里區"
"252001","292-VK","2018/02/06 19:59:32","新北市三芝區公正街66號","121.499778333333","25.2574716666667","6502100","三芝區"
"252002","AAC-283","2018/02/06 19:59:24","新北市三芝區三民街39巷14號","121.505265","25.257615","6502100","三芝區"
"237004","KEA-2597","2018/02/06 19:59:37","新北市三峽區添福2-5號","121.370753333333","24.9087133333333","6500900","三峽區"
"237007","153-BY","2018/02/06 19:59:22","新北市三峽區麻園8號","121.362525","24.918955","6500900","三峽區"
"237009","210-TH","2018/02/06 19:59:33","新北市三峽區民族街78巷2弄6號","121.368515","24.9299133333333","6500900","三峽區"
"237012","275-BY","2018/02/06 19:59:40","新北市三峽區中華路3巷2-10號","121.375038333333","24.9313983333333","6500900","三峽區"
"237008","302-VK","2018/02/06 19:59:35","新北市三峽區大同路197號","121.370966666667","24.927045","6500900","三峽區"
"237014","433-BY","2018/02/06 19:59:25","新北市三峽區添福11-4號","121.373228333333","24.9071066666667","6500900","三峽區"
"237006","5529-G3","2018/02/06 19:59:28","新北市三峽區中園街237-1號","121.367058333333","24.9193683333333","6500900","三峽區"
"237016","649-BX","2018/02/06 19:58:57","新北市三峽區介壽路二段138巷1弄5號","121.396218333333","24.93405","6500900","三峽區"
"237005","AKY-6261","2018/02/06 19:59:24","新北市三峽區三樹路42號","121.377845","24.937695","6500900","三峽區"
"236070","105-UM","2018/02/06 19:59:30","新北市土城區忠義路77號","121.442961666667","24.9651483333333","6501300","土城區"
"236043","107-UM","2018/02/06 19:59:35","新北市土城區學府路一段96號","121.456141666667","24.9879333333333","6501300","土城區"
"236079","166-UM","2018/02/06 19:59:23","新北市土城區福安街64號","121.418451666667","24.964525","6501300","土城區"
"236031","253-BX","2018/02/06 19:59:32","新北市土城區中央路一段248-3號","121.444366666667","24.9846816666667","6501300","土城區"
"236026","269-VK","2018/02/06 19:59:38","新北市土城區中央路二段98號","121.442211666667","24.9785333333333","6501300","土城區"
"236015","270-VK","2018/02/06 19:59:31","新北市土城區廣福街123號","121.456238333333","24.9928783333333","6501300","土城區"
"236038","271-VK","2018/02/06 19:59:33","新北市土城區國際路60號","121.466518333333","24.9775883333333","6501300","土城區"
"236023","401-BY","2018/02/06 19:59:26","新北市土城區峰廷街14號","121.468793333333","24.98755","6501300","土城區"
"236059","912-UM","2018/02/06 19:59:27","新北市土城區中央路一段205號","121.445848333333","24.98669","6501300","土城區"
"236049","913-UM","2018/02/06 19:59:28","新北市土城區金城路三段137號","121.468245","24.9880683333333","6501300","土城區"
"236063","915-UM","2018/02/06 19:59:32","新北市土城區金城路三段73巷4弄32號","121.466236666667","24.9883433333333","6501300","土城區"
"236055","AAC-216","2018/02/06 19:59:35","新北市土城區延和路15號","121.464036666667","24.9880383333333","6501300","土城區"
"242032","AAC-296","2018/02/06 19:59:24","新北市新莊區忠孝街16號","121.443995","25.0349433333333","6500500","新莊區"
"242029","986-R7","2018/02/06 19:59:34","新北市新莊區中平路314號","121.444778333333","25.0523033333333","6500500","新莊區"
"242025","615-BX","2018/02/06 19:59:30","新北市新莊區五工二路86巷52號","121.460945","25.067535","6500500","新莊區"
"242023","613-BX","2018/02/06 19:59:34","新北市新莊區化成路386號","121.465903333333","25.050245","6500500","新莊區"
"242027","612-BX","2018/02/06 19:59:33","新北市新莊區立信三街25-2號","121.442858333333","25.0503966666667","6500500","新莊區"
"242039","566-BX","2018/02/06 19:59:35","新北市新莊區民安路299巷12號","121.429411666667","25.022855","6500500","新莊區"
"242044","442-UM","2018/02/06 19:59:40","新北市新莊區中正路923號","121.410578333333","25.0211933333333","6500500","新莊區"
"242054","440-UM","2018/02/06 19:59:22","新北市新莊區民安西路336號","121.42688","25.0115316666667","6500500","新莊區"
"242034","415-TV","2018/02/06 19:59:22","新北市新莊區建中街91號","121.446673333333","25.03654","6500500","新莊區"
"242005","413-TV","2018/02/06 19:59:34","新北市新莊區化成路352巷29號","121.467126666667","25.0491466666667","6500500","新莊區"
"242042","400-BY","2018/02/06 19:59:29","新北市新莊區青山路一段200-4號","121.397763333333","25.0317483333333","6500500","新莊區"
"242061","362-BY","2018/02/06 19:59:28","新北市新莊區瓊泰路1號","121.445116666667","25.0285983333333","6500500","新莊區"
"242058","353-BY","2018/02/06 19:59:26","新北市新莊區八德街105號","121.424305","25.0210966666667","6500500","新莊區"
"242007","132-UY","2018/02/06 19:59:30","新北市新莊區思源路710號","121.459775","25.058345","6500500","新莊區"
"242037","133-UY","2018/02/06 19:59:25","新北市新莊區建安街41巷3號","121.429108333333","25.0253","6500500","新莊區"
"242021","135-UY","2018/02/06 19:59:28","新北市新莊區建中街16巷36號","121.44889","25.038675","6500500","新莊區"
"242009","173-VK","2018/02/06 19:59:34","新北市新莊區新泰路255巷83號","121.442423333333","25.038695","6500500","新莊區"
"242015","175-VK","2018/02/06 19:59:35","新北市新莊區中平路6巷32號","121.445446666667","25.0426566666667","6500500","新莊區"
"242002","176-VK","2018/02/06 19:59:35","新北市新莊區新泰路97號","121.44901","25.0348216666667","6500500","新莊區"
"242013","346-TH","2018/02/06 19:59:37","新北市新莊區幸福路672號","121.450936666667","25.04943","6500500","新莊區"
"242051","347-TH","2018/02/06 19:59:28","新北市新莊區西盛街137號","121.428356666667","25.01847","6500500","新莊區"
"242019","348-TH","2018/02/06 19:59:40","新北市新莊區民樂街65巷22號","121.45694","25.0418466666667","6500500","新莊區"
"242056","349-TH","2018/02/06 19:59:34","新北市新莊區新豐街20巷28號","121.447553333333","25.0344216666667","6500500","新莊區"
"242017","350-TH","2018/02/06 19:59:27","新北市新莊區中港路409號","121.452208333333","25.0472733333333","6500500","新莊區"
"242011","351-TH","2018/02/06 19:59:30","新北市新莊區中港路531巷60號","121.45017","25.0516033333333","6500500","新莊區"
"238015","755-BX","2018/02/06 19:59:18","新北市樹林區中山路三段78號","121.393506666667","24.97233","6500700","樹林區"
"238023","601-UM","2018/02/06 19:59:37","新北市樹林區中正路347-1號","121.419755","25.005955","6500700","樹林區"
"238021","KEA-2217","2018/02/06 19:59:37","新北市樹林區佳園路三段181巷99號","121.391483333333","24.9483833333333","6500700","樹林區"
"238017","283-BY","2018/02/06 19:59:35","新北市樹林區保安街二段45巷26-5號","121.414608333333","25.0001416666667","6500700","樹林區"
"239006","891-R6","2018/02/06 19:59:36","新北市鶯歌區文化路223號","121.354218333333","24.9533633333333","6500800","鶯歌區"
"221008","489-VK","2018/02/06 19:59:37","台北市內湖區康樂街120號","121.619183333333","25.0714833333333","6501100","汐止區"
"221036","130-UY","2018/02/06 19:59:27","新北市汐止區忠孝東路258巷9號","121.663641666667","25.067305","6501100","汐止區"
"221010","269-BY","2018/02/06 19:59:23","新北市汐止區連峰街270號","121.644351666667","25.0815933333333","6501100","汐止區"
"221012","278-VK","2018/02/06 19:59:21","新北市汐止區大同路三段290號","121.678061666667","25.0712583333333","6501100","汐止區"
"221023","279-VK","2018/02/06 19:59:31","新北市汐止區明峰街190號","121.628111666667","25.0697316666667","6501100","汐止區"
"221032","280-BY","2018/02/06 19:59:34","新北市汐止區橫科路52巷28號","121.617916666667","25.05016","6501100","汐止區"
"221027","281-BY","2018/02/06 19:59:31","新北市汐止區中正路68號","121.661763333333","25.069985","6501100","汐止區"
"221029","298-VK","2018/02/06 19:59:19","新北市汐止區樟樹一路137巷26號","121.641016666667","25.0659766666667","6501100","汐止區"
"221021","299-VK","2018/02/06 19:59:37","新北市汐止區青山路8號","121.655758333333","25.0625466666667","6501100","汐止區"
"221031","353-TW","2018/02/06 19:59:36","新北市汐止區福德一路255號","121.63339","25.064515","6501100","汐止區"
"221035","622-UM","2018/02/06 19:59:31","新北市汐止區長江街57巷5號","121.656166666667","25.0718066666667","6501100","汐止區"
"221025","623-UM","2018/02/06 19:59:32","新北市汐止區秀峰路109巷26弄8號","121.661055","25.0634733333333","6501100","汐止區"
"221038","646-BX","2018/02/06 19:59:29","新北市汐止區忠孝東路462巷48號","121.66645","25.0743733333333","6501100","汐止區"
"221033","647-BX","2018/02/06 19:59:29","新北市汐止區東勢街201巷104號","121.633506666667","25.04297","6501100","汐止區"
"221018","753-BX","2018/02/06 19:59:34","新北市汐止區茄苳路290號","121.672925","25.06723","6501100","汐止區"
"220079","145-BY","2018/02/06 19:59:30","新北市板橋區南雅西路二段175巷2號","121.451603333333","25.0124933333333","6500100","板橋區"
"220080","200-UY","2018/02/06 19:59:19","新北市板橋區大觀路二段153巷39弄1號","121.446991666667","25.0004816666667","6500100","板橋區"
"220082","610-BX","2018/02/06 19:59:35","新北市板橋區篤行路二段131巷19號","121.431706666667","24.9903266666667","6500100","板橋區"
"220103","257-TC","2018/02/06 19:59:34","新北市板橋區陽明街27巷6號","121.465458333333","25.02166","6500100","板橋區"
"220091","267-BY","2018/02/06 19:59:34","新北市板橋區文聖街89巷26號","121.478211666667","25.03029","6500100","板橋區"
"220072","277-BY","2018/02/06 19:59:29","新北市板橋區金門街151巷19號","121.433695","24.9903266666667","6500100","板橋區"
"220101","280-UM","2018/02/06 19:59:36","新北市板橋區縣民大道三段103巷8號","121.476031666667","25.02276","6500100","板橋區"
"220071","283-VK","2018/02/06 19:59:05","新北市板橋區五權街30巷13號","121.46431","24.9931916666667","6500100","板橋區"
"220094","285-UM","2018/02/06 19:59:29","新北市板橋區文德路11號","121.462641666667","25.024415","6500100","板橋區"
"220053","285-VK","2018/02/06 19:59:22","新北市板橋區永豐街53號","121.474026666667","25.0181","6500100","板橋區"
"220083","286-VK","2018/02/06 19:59:26","新北市板橋區僑中二街10巷35號","121.445518333333","25.0111116666667","6500100","板橋區"
"220081","287-VK","2018/02/06 19:59:27","新北市板橋區大觀路一段28巷6號","121.449946666667","25.0088216666667","6500100","板橋區"
"220061","293-UM","2018/02/06 19:59:39","新北市板橋區觀光街21號","121.47132","25.0160733333333","6500100","板橋區"
"220106","295-UM","2018/02/06 19:59:22","新北市板橋區民治街52巷42號","121.478298333333","25.03239","6500100","板橋區"
"220084","296-UM","2018/02/06 19:59:33","新北市板橋區溪崑二街103巷11號","121.42713","24.9887483333333","6500100","板橋區"
"242048","281-VK","2018/02/06 19:59:36","新北市新莊區民安路209號","121.426303333333","25.0222983333333","6500500","新莊區"
"220075","303-R5","2018/02/06 19:59:22","新北市板橋區金華街10巷48弄10號","121.45732","25.019795","6500100","板橋區"
"220062","305-R5","2018/02/06 19:59:19","新北市板橋區光復街82號","121.48318","25.018515","6500100","板橋區"
"220092","307-R5","2018/02/06 19:59:29","新北市板橋區四維路103巷33號","121.464256666667","25.0238216666667","6500100","板橋區"
"220098","317-R6","2018/02/06 19:59:30","新北市板橋區漢生西路159號","121.462988333333","25.02349","6500100","板橋區"
"220064","486-VK","2018/02/06 19:59:30","新北市板橋區實踐路159號","121.464291666667","25.004065","6500100","板橋區"
"220089","487-VK","2018/02/06 19:59:27","新北市板橋區龍泉街81號","121.45666","25.0251183333333","6500100","板橋區"
"220088","491-VK","2018/02/06 19:59:24","新北市板橋區懷德街174巷2-4號","121.479456666667","25.0299283333333","6500100","板橋區"
"220035","560-BX","2018/02/06 19:59:38","新北市板橋區新生街53巷4號","121.457435","25.0212133333333","6500100","板橋區"
"220063","609-BX","2018/02/06 19:59:35","新北市板橋區中山路二段91號","121.474226666667","25.01599","6500100","板橋區"
"220057","686-BX","2018/02/06 19:59:23","新北市板橋區四川路二段2號","121.4566","24.9966416666667","6500100","板橋區"
"220077","687-BX","2018/02/06 19:59:34","新北市板橋區僑中一街124巷86號","121.446861666667","25.0178266666667","6500100","板橋區"
"220054","741-BX","2018/02/06 19:59:26","新北市板橋區實踐路93巷52號","121.46603","25.0050333333333","6500100","板橋區"
"220055","827-TW","2018/02/06 19:59:28","新北市板橋區仁愛路62巷17弄1號","121.460058333333","24.998205","6500100","板橋區"
"220067","829-TW","2018/02/06 19:59:37","新北市板橋區漢生東路193巷45弄15號","121.472008333333","25.0124466666667","6500100","板橋區"
"220096","830-TW","2018/02/06 19:59:40","新北市板橋區莒光路39巷13號","121.470821666667","25.0251333333333","6500100","板橋區"
"220093","833-TW","2018/02/06 19:59:20","新北市板橋區長江路三段128號","121.475496666667","25.034475","6500100","板橋區"
"220074","895-R6","2018/02/06 19:59:34","新北市板橋區縣民大道一段285號","121.460555","25.0101083333333","6500100","板橋區"
"220073","985-R7","2018/02/06 19:59:27","新北市板橋區南雅西路二段130-1號","121.451978333333","25.0127283333333","6500100","板橋區"
"220097","AAC-210","2018/02/06 19:59:20","新北市板橋區光正街43號","121.461821666667","25.0172283333333","6500100","板橋區"
"220070","AAC-253","2018/02/06 19:59:34","新北市板橋區成都街16-1號","121.46042","25.00451","6500100","板橋區"
