"lineid","car","time","location","longitude","latitude","cityid","cityname"
"234007","207-UY","2018/02/06 20:19:35","新北市永和區仁愛路295號","121.504923333333","25.0092566666667","6500400","永和區"
"234081","298-R6","2018/02/06 20:19:40","新北市永和區國中路132巷5號","121.523635","25.00709","6500400","永和區"
"234038","336-UY","2018/02/06 20:19:22","新北市永和區成功路一段93巷11-1號","121.527695","25.0027233333333","6500400","永和區"
"234064","337-UY","2018/02/06 20:19:32","新北市永和區得和路124號","121.51876","25.00021","6500400","永和區"
"234086","338-UY","2018/02/06 20:19:35","新北市永和區永和路二段93號","121.514851666667","25.0114916666667","6500400","永和區"
"234070","552-UM","2018/02/06 20:19:39","新北市永和區福和路263巷11號","121.51798","25.0067166666667","6500400","永和區"
"234017","745-BX","2018/02/06 20:19:26","新北市永和區仁愛路23號","121.514363333333","25.0133983333333","6500400","永和區"
"234030","746-BX","2018/02/06 20:19:25","新北市永和區民有街25巷12號","121.517528333333","24.9965016666667","6500400","永和區"
"234054","KEA-2590","2018/02/06 20:19:21","新北市永和區光復街2巷16弄1號","121.517141666667","25.01635","6500400","永和區"
"234013","KEA-2591","2018/02/06 20:19:38","新北市永和區仁愛路282巷6號","121.503475","25.00854","6500400","永和區"
"234061","AAD-866","2018/02/06 20:19:21","新北市中和區安平路222號","121.51404","25.0000983333333","6500400","永和區"
"234042","862-TW","2018/02/06 20:19:29","新北市永和區雙和街19號","121.5093","25.0020216666667","6500400","永和區"
"234050","863-TW","2018/02/06 20:19:21","新北市永和區新生路28巷9號","121.508193333333","25.0163283333333","6500400","永和區"
"234011","9373-KE","2018/02/06 20:19:34","新北市永和區保生路55-1號","121.504488333333","25.0108866666667","6500400","永和區"
"249005","172-UM","2018/02/06 20:19:24","新北市八里區下罟子1-16號","121.389811666667","25.14203","6502300","八里區"
"249001","173-UM","2018/02/06 20:19:30","新北市八里區中華路二段538號","121.399036666667","25.1450866666667","6502300","八里區"
"249004","303-UY","2018/02/06 20:19:21","新北市八里區中山路一段129巷1號","121.413571666667","25.1590083333333","6502300","八里區"
"249002","305-UY","2018/02/06 20:19:32","新北市八里區龍米路一段172-1號","121.452425","25.1264566666667","6502300","八里區"
"249003","593-UM","2018/02/06 20:19:27","新北市八里區訊塘路27號","121.397846666667","25.1454216666667","6502300","八里區"
"248016","026-BX","2018/02/06 20:19:25","新北市五股區天乙路16號","121.448468333333","25.10344","6501500","五股區"
"248012","247-BX","2018/02/06 20:19:23","新北市五股區民義路一段212號","121.430556666667","25.0893716666667","6501500","五股區"
"248004","677-BX","2018/02/06 20:19:35","新北市五股區成泰路二段102號","121.437621666667","25.0828916666667","6501500","五股區"
"248002","678-BX","2018/02/06 20:19:35","新北市五股區成泰路三段101-1號","121.44393","25.0903016666667","6501500","五股區"
"248010","682-TV","2018/02/06 20:19:34","新北市五股區成泰路一段7巷60號","121.432328333333","25.0675566666667","6501500","五股區"
"234023","9380-KE","2018/02/06 20:19:21","新北市永和區復興街14號","121.515785","25.0128366666667","6500400","永和區"
"234077","969-R7","2018/02/06 20:19:20","新北市永和區民享街13號","121.515383333333","24.995265","6500400","永和區"
"234074","AAC-211","2018/02/06 20:19:27","新北市永和區豫溪街160巷4號","121.523266666667","25.0095283333333","6500400","永和區"
"234067","AAC-212","2018/02/06 20:19:34","新北市永和區保平路264號","121.508803333333","25.0051383333333","6500400","永和區"
"234003","AAC-295","2018/02/06 20:19:31","新北市永和區自強街20號","121.515235","25.0080533333333","6500400","永和區"
"243012","AAD-798","2018/02/06 20:19:24","新北市泰山區楓江路57號","121.435878333333","25.062695","6501600","泰山區"
"243011","297-R6","2018/02/06 20:19:35","新北市泰山區德安街26-1號","121.418415","25.0313483333333","6501600","泰山區"
"243015","380-SR","2018/02/06 20:19:28","新北市泰山區泰林路二段83號","121.434941666667","25.0586833333333","6501600","泰山區"
"243014","421-VK","2018/02/06 20:19:35","新北市泰山區泰林路二段330號","121.429775","25.063225","6501600","泰山區"
"243010","KEA-2215","2018/02/06 20:19:33","新北市泰山區明志路二段254巷16弄4號","121.426396666667","25.0480666666667","6501600","泰山區"
"243009","KEA-2216","2018/02/06 20:19:32","新北市泰山區泰林路二段292巷10號","121.431355","25.063055","6501600","泰山區"
"243013","646-TV","2018/02/06 20:19:22","新北市泰山區中央路5巷46號","121.428485","25.0426316666667","6501600","泰山區"
"243016","680-BX","2018/02/06 20:19:28","新北市泰山區明志路三段241號","121.423566666667","25.0376883333333","6501600","泰山區"
"222003","436-BY","2018/02/06 20:19:28","新北市深坑區文化街78號","121.618083333333","25.0019216666667","6501800","深坑區"
"222002","659-BX","2018/02/06 20:19:29","新北市深坑區萬福路75巷48號","121.598286666667","25.0099266666667","6501800","深坑區"
"231041","002-UM","2018/02/06 20:19:19","新北市新店區二十張路3號","121.540323333333","24.9828233333333","6500600","新店區"
"231059","046-UY","2018/02/06 20:19:39","新北市新店區安德街161號","121.508415","24.9594166666667","6500600","新店區"
"231061","047-UY","2018/02/06 20:19:28","新北市新店區安民街133巷26號","121.51529","24.9695116666667","6500600","新店區"
"231060","106-UY","2018/02/06 20:19:31","新北市新店區錦秀路11巷33號","121.480011666667","24.9445516666667","6500600","新店區"
"231051","107-UY","2018/02/06 20:19:31","新北市新店區中央六街55號","121.527995","24.97589","6500600","新店區"
"231048","108-UY","2018/02/06 20:19:18","新北市新店區寶橋路132號","121.54739","24.97604","6500600","新店區"
"231049","110-UY","2018/02/06 20:19:25","新北市新店區光明街159號","121.5395","24.962455","6500600","新店區"
"231053","187-VK","2018/02/06 20:19:28","新北市新店區新烏路三段51號","121.554163333333","24.9042983333333","6500600","新店區"
"231068","188-VK","2018/02/06 20:19:21","新北市新店區寶安街30號","121.542115","24.9823083333333","6500600","新店區"
"231064","189-VK","2018/02/06 20:19:29","新北市新店區安和路二段156號","121.519765","24.9733033333333","6500600","新店區"
"231050","KEA-2219","2018/02/06 20:19:34","新北市新店區博愛街9巷2號","121.540798333333","24.9729383333333","6500600","新店區"
"221015","KEA-2785","2018/02/06 20:19:39","新北市汐止區建成路142巷11號","121.662261666667","25.0736766666667","6501100","汐止區"
"231057","256-BX","2018/02/06 20:19:41","新北市新店區花園十二路1號","121.55477","24.934745","6500600","新店區"
"231054","AAD-862","2018/02/06 20:19:20","新北市新店區檳榔路109號","121.544408333333","24.96159","6500600","新店區"
"231058","3712-VJ","2018/02/06 20:19:27","新北市新店區中正路347號","121.535365","24.9758683333333","6500600","新店區"
"231056","3713-VJ","2018/02/06 20:19:35","新北市新店區中正路275巷7號","121.537471666667","24.97388","6500600","新店區"
"231055","4716-K9","2018/02/06 20:19:39","新北市新店區北新路一段297巷15號","121.540888333333","24.96776","6500600","新店區"
"231067","4772-VM","2018/02/06 20:19:24","新北市新店區溪洲路8巷1號","121.533528333333","24.9612116666667","6500600","新店區"
"231042","616-UM","2018/02/06 20:19:26","新北市新店區寶橋路230號","121.551476666667","24.9788183333333","6500600","新店區"
"231045","617-UM","2018/02/06 20:19:19","新北市新店區新坡一街16號","121.548475","24.962","6500600","新店區"
"231040","619-UM","2018/02/06 20:19:31","新北市新店區三民路14號","121.539605","24.972205","6500600","新店區"
"231063","645-TV","2018/02/06 20:19:28","新北市新店區薏仁坑路自強巷6號","121.496713333333","24.95833","6500600","新店區"
"231065","719-UY","2018/02/06 20:19:21","新北市新店區安祥路104-10號","121.479145","24.9620533333333","6500600","新店區"
"231062","720-UM","2018/02/06 20:19:33","新北市新店區安康路二段454號","121.494463333333","24.9543566666667","6500600","新店區"
"231044","897-TW","2018/02/06 20:19:31","新北市新店區北新路三段115號","121.541395","24.9824066666667","6500600","新店區"
"231043","899-TW","2018/02/06 20:19:38","新北市新店區建國路131號","121.53935","24.9781466666667","6500600","新店區"
"231066","AKT-0513","2018/02/06 20:19:23","新北市新店區安興路105-1號","121.514585","24.9777233333333","6500600","新店區"
"241011","013-R5","2018/02/06 20:19:33","新北市三重區龍門路181號","121.499348333333","25.0731766666667","6500200","三重區"
"241028","022-UY","2018/02/06 20:19:30","新北市三重區大同南路127號","121.496361666667","25.0580533333333","6500200","三重區"
"241008","059-VK","2018/02/06 20:19:21","新北市三重區永福街211巷19號","121.479166666667","25.0740433333333","6500200","三重區"
"241009","060-VK","2018/02/06 20:19:20","新北市三重區三和路四段382巷48號","121.481028333333","25.0784233333333","6500200","三重區"
"241031","061-VK","2018/02/06 20:19:25","新北市三重區三寧街18號","121.489383333333","25.0599116666667","6500200","三重區"
"241015","062-VK","2018/02/06 20:19:27","新北市三重區重新路一段130號","121.500126666667","25.062845","6500200","三重區"
"241017","063-VK","2018/02/06 20:19:23","新北市三重區自強路一段157號","121.493346666667","25.0671966666667","6500200","三重區"
"241024","065-VK","2018/02/06 20:19:37","新北市三重區忠孝路三段15巷20號","121.48085","25.0676683333333","6500200","三重區"
"241026","066-VK","2018/02/06 20:19:27","新北市三重區和平街45號","121.501675","25.0625566666667","6500200","三重區"
"241002","090-VK","2018/02/06 20:19:28","新北市三重區仁義街126號","121.497495","25.0802716666667","6500200","三重區"
"241014","156-TC","2018/02/06 20:19:32","新北市三重區過圳街7巷36號","121.490426666667","25.059755","6500200","三重區"
"241005","262-UM","2018/02/06 20:19:36","新北市三重區分子尾街45號","121.489283333333","25.08212","6500200","三重區"
"241018","265-UM","2018/02/06 20:19:36","新北市三重區自強路一段79號","121.496285","25.0663633333333","6500200","三重區"
"241016","266-UM","2018/02/06 20:19:27","新北市三重區重新路三段94號","121.492605","25.0610183333333","6500200","三重區"
"241032","269-UM","2018/02/06 20:19:36","新北市三重區捷運路19巷8弄19號","121.484183333333","25.0571933333333","6500200","三重區"
"241013","270-UM","2018/02/06 20:19:39","新北市三重區三和路三段167巷2號","121.492028333333","25.0741133333333","6500200","三重區"
"241025","271-UM","2018/02/06 20:19:38","新北市三重區自由街17巷5號","121.480048333333","25.0668466666667","6500200","三重區"
"241007","398-BY","2018/02/06 20:19:33","新北市三重區仁美街55號","121.486901666667","25.0780366666667","6500200","三重區"
"241020","413-TH","2018/02/06 20:19:25","新北市三重區忠孝路一段101號","121.4893","25.07216","6500200","三重區"
"241035","462-BY","2018/02/06 20:19:22","新北市三重區正義北路33巷52號","121.499116666667","25.0639633333333","6500200","三重區"
"241004","475-VK","2018/02/06 20:19:24","新北市三重區溪尾街165巷45號","121.490506666667","25.08042","6500200","三重區"
"241019","478-VK","2018/02/06 20:19:32","新北市三重區忠孝路一段75號","121.49045","25.072055","6500200","三重區"
"241030","480-VK","2018/02/06 20:19:24","新北市三重區集美街89巷34號","121.488206666667","25.0524266666667","6500200","三重區"
"241023","545-UM","2018/02/06 20:19:28","新北市三重區頂崁街140號","121.477708333333","25.0651183333333","6500200","三重區"
"241001","547-UM","2018/02/06 20:19:32","新北市三重區自強路四段3巷37號","121.490191666667","25.0765083333333","6500200","三重區"
"241003","887-TS","2018/02/06 20:19:28","新北市三重區富華街55號","121.490986666667","25.0833766666667","6500200","三重區"
"241012","941-UM","2018/02/06 20:19:39","新北市三重區河邊北街377號","121.501818333333","25.07644","6500200","三重區"
"241029","942-UM","2018/02/06 20:19:33","新北市三重區重安街98號","121.492661666667","25.056095","6500200","三重區"
"241033","AAC-255","2018/02/06 20:19:35","新北市三重區五谷王北街50巷18號","121.475545","25.05141","6500200","三重區"
"235066","003-UY","2018/02/06 20:19:29","新北市中和區水源路118號","121.506943333333","25.0035083333333","6500300","中和區"
"235039","097-UM","2018/02/06 20:19:33","新北市中和區大勇街25巷13弄1號","121.51617","24.9934916666667","6500300","中和區"
"235065","098-UM","2018/02/06 20:19:32","新北市中和區福美路258號","121.498306666667","25.005335","6500300","中和區"
"235058","151-BY","2018/02/06 20:19:33","新北市中和區員山路146-4號","121.481325","24.99704","6500300","中和區"
"235068","377-QA","2018/02/06 20:19:36","新北市中和區福祥路85巷3號","121.498798333333","25.0056866666667","6500300","中和區"
"235050","4979-A6","2018/02/06 20:19:38","新北市中和區景新街274巷12號","121.510363333333","24.9920916666667","6500300","中和區"
"235069","4980-A6","2018/02/06 20:19:32","新北市中和區圓通路215號","121.496801666667","24.9942416666667","6500300","中和區"
"235059","AAC-215","2018/02/06 20:19:37","新北市中和區圓通路403-1號","121.489165","24.9892083333333","6500300","中和區"
"220069","AAD-861","2018/02/06 20:19:34","新北市板橋區南雅南路二段18號","121.454595","25.0036616666667","6500100","板橋區"
"247022","893-R6","2018/02/06 20:19:34","新北市蘆洲區民族路455號","121.467378333333","25.0885533333333","6501400","蘆洲區"
"247012","546-UM","2018/02/06 20:19:27","新北市蘆洲區中興街15巷6號","121.480576666667","25.08724","6501400","蘆洲區"
"247020","500-BY","2018/02/06 20:19:32","新北市蘆洲區民族路446-4號","121.47264","25.0921033333333","6501400","蘆洲區"
"247008","341-TH","2018/02/06 20:19:36","新北市蘆洲區集賢路227號","121.482405","25.0861816666667","6501400","蘆洲區"
"247010","339-TH","2018/02/06 20:19:35","新北市蘆洲區信義路188巷25弄1號","121.480405","25.08459","6501400","蘆洲區"
"247002","337-TH","2018/02/06 20:19:24","新北市蘆洲區長安街331巷30號","121.456061666667","25.0866816666667","6501400","蘆洲區"
"247004","336-TH","2018/02/06 20:19:36","新北市蘆洲區長安街220巷10號","121.458803333333","25.08476","6501400","蘆洲區"
"247002","335-TH","2018/02/06 20:19:41","新北市蘆洲區環堤大道168號","121.456201666667","25.089645","6501400","蘆洲區"
"247016","057-VK","2018/02/06 20:19:26","新北市蘆洲區中正路185巷45弄1號","121.465958333333","25.083755","6501400","蘆洲區"
"247006","056-VK","2018/02/06 20:19:38","新北市蘆洲區九芎街167巷6號","121.464988333333","25.0785566666667","6501400","蘆洲區"
"247018","053-VK","2018/02/06 20:19:37","新北市蘆洲區民族路408巷4號","121.47473","25.091665","6501400","蘆洲區"
"247024","002-UY","2018/02/06 20:19:21","新北市蘆洲區光榮路120巷8弄39號","121.464583333333","25.0879533333333","6501400","蘆洲區"
"222001","KEA-2212","2018/02/06 20:19:35","新北市深坑區北深路三段209號","121.600573333333","25.0038166666667","6501800","深坑區"
"251013","179-VK","2018/02/06 20:19:23","新北市淡水區奎柔山路752巷1號","121.472865","25.2054566666667","6501000","淡水區"
"251014","180-VK","2018/02/06 20:19:25","新北市淡水區石頭厝3號","121.458703333333","25.23554","6501000","淡水區"
"251008","181-VK","2018/02/06 20:19:33","新北市淡水區淡海路180巷27號","121.421698333333","25.1845783333333","6501000","淡水區"
"251015","182-VK","2018/02/06 20:19:38","新北市淡水區淡金路三段446號","121.450758333333","25.21438","6501000","淡水區"
"251010","413-VK","2018/02/06 20:19:20","新北市淡水區新民街一段155號","121.427458333333","25.1889266666667","6501000","淡水區"
"251012","441-VK","2018/02/06 20:19:35","新北市淡水區淡金路三段436號","121.450606666667","25.21306","6501000","淡水區"
"251016","442-VK","2018/02/06 20:19:23","新北市淡水區新埔子8號","121.449816666667","25.2282066666667","6501000","淡水區"
"251006","561-UM","2018/02/06 20:19:21","新北市淡水區淡金路一段575號","121.452436666667","25.1803983333333","6501000","淡水區"
"251009","575-R6","2018/02/06 20:19:28","新北市淡水區中正路28號","121.444386666667","25.169055","6501000","淡水區"
"251002","672-BX","2018/02/06 20:19:38","新北市淡水區中正路63號","121.441503333333","25.169495","6501000","淡水區"
"251003","673-BX","2018/02/06 20:19:27","新北市淡水區中山北路一段229號","121.444485","25.1795266666667","6501000","淡水區"
"207004","225-TW","2018/02/06 20:19:29","新北市萬里區北基里仁二街2號","121.68259","25.1755583333333","6502800","萬里區"
"252001","292-VK","2018/02/06 20:19:32","新北市三芝區中山路一段14號","121.500671666667","25.2580016666667","6502100","三芝區"
"252002","AAC-283","2018/02/06 20:19:24","新北市三芝區中正路一段16-1號","121.502886666667","25.2587416666667","6502100","三芝區"
"237012","275-BY","2018/02/06 20:19:19","新北市三峽區中華路31號","121.372886666667","24.9312316666667","6500900","三峽區"
"237006","5529-G3","2018/02/06 20:19:28","新北市三峽區中正路二段269號","121.366106666667","24.9116316666667","6500900","三峽區"
"236070","105-UM","2018/02/06 20:19:30","新北市土城區中山路34號","121.424915","24.9639033333333","6501300","土城區"
"236079","166-UM","2018/02/06 20:19:23","新北市土城區民權街8號","121.415878333333","24.962795","6501300","土城區"
"236031","253-BX","2018/02/06 20:19:32","新北市土城區學成路128巷11號","121.449521666667","24.9900716666667","6501300","土城區"
"236026","269-VK","2018/02/06 20:19:38","新北市土城區裕生路86巷2號","121.447211666667","24.985145","6501300","土城區"
"236015","270-VK","2018/02/06 20:19:31","新北市土城區廣明街90巷21號","121.455346666667","24.9945","6501300","土城區"
"236038","271-VK","2018/02/06 20:19:33","新北市土城區明德路一段184號","121.462266666667","24.97808","6501300","土城區"
"236023","401-BY","2018/02/06 20:19:26","新北市土城區延吉街65號","121.472188333333","24.9874216666667","6501300","土城區"
"236059","912-UM","2018/02/06 20:19:27","新北市土城區中央路三段38號","121.438433333333","24.9688483333333","6501300","土城區"
"242032","AAC-296","2018/02/06 20:19:24","新北市新莊區三和路2號","121.440423333333","25.0342633333333","6500500","新莊區"
"242029","986-R7","2018/02/06 20:19:34","新北市新莊區中原路261號","121.448515","25.054575","6500500","新莊區"
"242025","615-BX","2018/02/06 20:19:30","新北市新莊區五工二路70巷6號","121.460621666667","25.0661016666667","6500500","新莊區"
"242023","613-BX","2018/02/06 20:19:34","新北市新莊區化成路776號","121.465183333333","25.0590216666667","6500500","新莊區"
"242027","612-BX","2018/02/06 20:19:33","新北市新莊區幸福路672號","121.45091","25.0492516666667","6500500","新莊區"
"242039","566-BX","2018/02/06 20:19:35","新北市新莊區龍安路438號","121.424458333333","25.0184633333333","6500500","新莊區"
"242044","442-UM","2018/02/06 20:19:20","新北市新莊區中正路新建巷28弄1號","121.414245","25.02172","6500500","新莊區"
"242054","440-UM","2018/02/06 20:19:22","新北市新莊區民安西路261巷10號","121.426651666667","25.0130166666667","6500500","新莊區"
"242034","415-TV","2018/02/06 20:19:22","新北市新莊區仁愛街54巷6號","121.44458","25.0370133333333","6500500","新莊區"
"242005","413-TV","2018/02/06 20:19:37","新北市新莊區頭前路14號","121.468181666667","25.0524783333333","6500500","新莊區"
"242042","400-BY","2018/02/06 20:19:36","新北市新莊區天祥街54巷2弄3號","121.416726666667","25.0290966666667","6500500","新莊區"
"242061","362-BY","2018/02/06 20:19:28","新北市新莊區新樹路172-13號","121.434503333333","25.0216666666667","6500500","新莊區"
"242058","353-BY","2018/02/06 20:19:26","新北市新莊區龍安路278巷17號","121.421983333333","25.0185633333333","6500500","新莊區"
"242007","132-UY","2018/02/06 20:19:30","新北市新莊區福壽街94巷19弄2號","121.459341666667","25.0501566666667","6500500","新莊區"
"242037","133-UY","2018/02/06 20:19:25","新北市新莊區建安街62巷1弄12號","121.426421666667","25.0246366666667","6500500","新莊區"
"242021","135-UY","2018/02/06 20:19:23","新北市新莊區新泰路293號","121.445488333333","25.0407666666667","6500500","新莊區"
"242046","172-VK","2018/02/06 20:19:21","新北市新莊區中正路新生巷54號","121.4175","25.0232316666667","6500500","新莊區"
"242009","173-VK","2018/02/06 20:14:44","新北市新莊區昌平街26號","121.455051666667","25.0528533333333","6500500","新莊區"
"242015","175-VK","2018/02/06 20:19:35","新北市新莊區永樂街225號","121.447106666667","25.0443916666667","6500500","新莊區"
"242002","176-VK","2018/02/06 20:19:35","新北市新莊區中正路34號","121.464998333333","25.0416516666667","6500500","新莊區"
"242013","346-TH","2018/02/06 20:19:28","新北市新莊區中和街186巷5號","121.447706666667","25.049965","6500500","新莊區"
"242051","347-TH","2018/02/06 20:19:28","新北市新莊區民安西路212巷6號","121.425395","25.0148966666667","6500500","新莊區"
"242019","348-TH","2018/02/06 20:19:40","新北市新莊區復興路二段196巷1號","121.45942","25.044055","6500500","新莊區"
"242056","349-TH","2018/02/06 20:19:34","新北市新莊區豐年街39號","121.446441666667","25.0321333333333","6500500","新莊區"
"242017","350-TH","2018/02/06 20:19:27","新北市新莊區中港二街93號","121.449386666667","25.0457466666667","6500500","新莊區"
"242011","351-TH","2018/02/06 20:19:21","新北市新莊區中信街27號","121.450776666667","25.050785","6500500","新莊區"
"221008","489-VK","2018/02/06 20:19:37","新北市汐止區康寧街119號","121.620983333333","25.0666466666667","6501100","汐止區"
"221036","130-UY","2018/02/06 20:19:27","新北市汐止區福安街57巷2號","121.663868333333","25.0637533333333","6501100","汐止區"
"221010","269-BY","2018/02/06 20:19:23","新北市汐止區八連路二段280號","121.630738333333","25.0980066666667","6501100","汐止區"
"221012","278-VK","2018/02/06 20:19:21","新北市汐止區保新街283號","121.692713333333","25.0683233333333","6501100","汐止區"
"221023","279-VK","2018/02/06 20:19:31","新北市汐止區湖前街110巷2弄18號","121.632186666667","25.0718516666667","6501100","汐止區"
"221032","280-BY","2018/02/06 20:19:34","新北市汐止區橫科路73巷2-2號","121.619648333333","25.0504133333333","6501100","汐止區"
"221027","281-BY","2018/02/06 20:19:31","新北市汐止區大同路二段501號","121.66121","25.0685566666667","6501100","汐止區"
"221002","297-VK","2018/02/06 20:19:25","新北市汐止區福德三路26號","121.637036666667","25.0693183333333","6501100","汐止區"
"221029","298-VK","2018/02/06 20:19:39","新北市汐止區工建路98號","121.639511666667","25.0637133333333","6501100","汐止區"
"221021","299-VK","2018/02/06 20:19:37","新北市汐止區水源路一段249號","121.654193333333","25.0597566666667","6501100","汐止區"
"221031","353-TW","2018/02/06 20:19:36","新北市汐止區原興路51號","121.632908333333","25.065095","6501100","汐止區"
"221035","622-UM","2018/02/06 20:19:31","新北市汐止區長江街101-5號","121.658651666667","25.073235","6501100","汐止區"
"221025","623-UM","2018/02/06 20:19:32","新北市汐止區水源路二段72巷6弄5號","121.655648333333","25.0557016666667","6501100","汐止區"
"221038","646-BX","2018/02/06 20:19:29","新北市汐止區忠孝東路478號","121.666408333333","25.0736966666667","6501100","汐止區"
"221033","647-BX","2018/02/06 20:19:30","新北市汐止區東勢街201巷23號","121.634435","25.0434433333333","6501100","汐止區"
"221018","753-BX","2018/02/06 20:19:34","新北市汐止區茄苳路226號","121.671005","25.06865","6501100","汐止區"
"220103","257-TC","2018/02/06 20:19:28","新北市板橋區陽明街279巷15號","121.461561666667","25.0258866666667","6500100","板橋區"
"220101","280-UM","2018/02/06 20:19:37","新北市板橋區雙十路二段47巷4號","121.476171666667","25.0262216666667","6500100","板橋區"
"220083","286-VK","2018/02/06 20:19:26","新北市板橋區僑中二街92巷25號","121.444925","25.009005","6500100","板橋區"
"220081","287-VK","2018/02/06 20:19:27","新北市板橋區僑中一街124巷18弄39號","121.447681666667","25.013605","6500100","板橋區"
"220061","293-UM","2018/02/06 20:19:19","新北市板橋區中山路一段158號","121.465678333333","25.0119516666667","6500100","板橋區"
"242048","281-VK","2018/02/06 20:19:36","新北市新莊區四維路186巷9號","121.421418333333","25.02113","6500500","新莊區"
"220092","307-R5","2018/02/06 20:19:26","新北市板橋區光正街45巷2弄17號","121.461108333333","25.0172466666667","6500100","板橋區"
"220064","486-VK","2018/02/06 20:19:10","新北市中和區員山路611巷1號","121.47787","25.0113233333333","6500100","板橋區"
"220089","487-VK","2018/02/06 20:19:27","新北市板橋區互助街47號","121.461038333333","25.026505","6500100","板橋區"
"220055","827-TW","2018/02/06 20:19:28","新北市板橋區仁愛路62巷15弄4號","121.460201666667","24.9984916666667","6500100","板橋區"
"220097","AAC-210","2018/02/06 20:19:40","新北市板橋區公館街94-1號","121.461295","25.0166133333333","6500100","板橋區"
"220070","AAC-253","2018/02/06 20:19:34","新北市板橋區四川路二段134號","121.45029","24.9935066666667","6500100","板橋區"
