"lineid","car","time","location","longitude","latitude","cityid","cityname"
"234007","207-UY","2018/02/06 20:29:35","新北市永和區環河西路二段223號","121.501023333333","25.0102816666667","6500400","永和區"
"234081","298-R6","2018/02/06 20:29:21","新北市永和區永貞路29號","121.521023333333","25.006715","6500400","永和區"
"234038","336-UY","2018/02/06 20:29:37","新北市永和區民樂街31巷8弄12號","121.52891","25.00121","6500400","永和區"
"234064","337-UY","2018/02/06 20:29:32","新北市永和區中正路516號","121.517293333333","25.0047733333333","6500400","永和區"
"234086","338-UY","2018/02/06 20:29:21","新北市永和區光復街21號","121.516511666667","25.01742","6500400","永和區"
"234070","552-UM","2018/02/06 20:29:39","新北市永和區永亨路7號","121.519346666667","25.00573","6500400","永和區"
"234030","746-BX","2018/02/06 20:29:26","新北市永和區民族街81巷34號","121.519286666667","24.9965616666667","6500400","永和區"
"234054","KEA-2590","2018/02/06 20:29:21","新北市永和區光復街60巷25號","121.517765","25.017525","6500400","永和區"
"234061","AAD-866","2018/02/06 20:29:41","新北市永和區安樂路194巷19號","121.515891666667","25.0010433333333","6500400","永和區"
"234042","862-TW","2018/02/06 20:29:29","新北市永和區安樂路248號","121.514755","25.003265","6500400","永和區"
"234050","863-TW","2018/02/06 20:29:21","新北市永和區新生路47號","121.509028333333","25.0163883333333","6500400","永和區"
"249001","173-UM","2018/02/06 20:29:30","新北市八里區下罟子5-11號","121.386815","25.14228","6502300","八里區"
"249004","303-UY","2018/02/06 20:29:21","新北市八里區中山路一段129巷19-1號","121.41396","25.1586033333333","6502300","八里區"
"249002","305-UY","2018/02/06 20:29:32","新北市八里區龍米路二段58-1號","121.448148333333","25.1410166666667","6502300","八里區"
"249003","593-UM","2018/02/06 20:29:27","新北市八里區舊城路21號","121.399761666667","25.1470933333333","6502300","八里區"
"248002","678-BX","2018/02/06 20:29:35","新北市五股區新五路二段367號","121.443953333333","25.087865","6501500","五股區"
"248010","682-TV","2018/02/06 20:29:34","新北市五股區新五路二段2巷26-1號","121.439883333333","25.0678933333333","6501500","五股區"
"234023","9380-KE","2018/02/06 20:29:41","新北市永和區光復街2巷16弄27號","121.518065","25.0163066666667","6500400","永和區"
"234074","AAC-211","2018/02/06 20:29:27","新北市永和區豫溪街191巷7弄17號","121.523313333333","25.010875","6500400","永和區"
"234067","AAC-212","2018/02/06 20:29:34","新北市永和區保平路292巷13弄16號","121.506663333333","25.0054666666667","6500400","永和區"
"234003","AAC-295","2018/02/06 20:29:32","新北市永和區大新街64號","121.516376666667","25.008285","6500400","永和區"
"243012","AAD-798","2018/02/06 20:29:24","新北市泰山區泰林路二段343號","121.429131666667","25.0634916666667","6501600","泰山區"
"243011","297-R6","2018/02/06 20:29:23","新北市泰山區中山路二段757號","121.428851666667","25.0392733333333","6501600","泰山區"
"243015","380-SR","2018/02/06 20:29:28","新北市泰山區仁德路107號","121.43299","25.05624","6501600","泰山區"
"243014","421-VK","2018/02/06 20:29:39","新北市泰山區泰林路二段535號","121.4234","25.0636933333333","6501600","泰山區"
"243010","KEA-2215","2018/02/06 20:29:33","新北市泰山區新生路33-11號","121.427706666667","25.045895","6501600","泰山區"
"243009","KEA-2216","2018/02/06 20:29:32","新北市泰山區泰林路二段542巷3弄1號","121.423386666667","25.0641916666667","6501600","泰山區"
"243016","680-BX","2018/02/06 20:29:38","新北市泰山區新生路22巷1號","121.428565","25.0448616666667","6501600","泰山區"
"222003","436-BY","2018/02/06 20:29:28","新北市深坑區深坑街37號","121.615775","25.002245","6501800","深坑區"
"222002","659-BX","2018/02/06 20:29:29","新北市深坑區萬福路18號","121.602293333333","25.0083933333333","6501800","深坑區"
"231041","002-UM","2018/02/06 20:29:19","新北市新店區中正路522號","121.533718333333","24.9837616666667","6500600","新店區"
"231059","046-UY","2018/02/06 20:29:39","新北市新店區安豐路49號","121.499915","24.9547983333333","6500600","新店區"
"231061","047-UY","2018/02/06 20:29:28","新北市新店區新和街46號","121.519396666667","24.9849666666667","6500600","新店區"
"231060","106-UY","2018/02/06 20:29:31","新北市新店區錦秀路66號","121.478925","24.942755","6500600","新店區"
"231051","107-UY","2018/02/06 20:29:31","新北市新店區中央七街74號","121.527403333333","24.9766083333333","6500600","新店區"
"231048","108-UY","2018/02/06 20:29:38","新北市新店區寶慶街58巷21-1號","121.542021666667","24.9872666666667","6500600","新店區"
"231049","110-UY","2018/02/06 20:29:25","新北市新店區永業路81巷34號","121.530168333333","24.94837","6500600","新店區"
"231053","187-VK","2018/02/06 20:29:28","新北市新店區松林路30-1號","121.54483","24.911205","6500600","新店區"
"231068","188-VK","2018/02/06 20:29:41","新北市新店區民權路7號","121.5426","24.98285","6500600","新店區"
"231064","189-VK","2018/02/06 20:29:29","新北市新店區新和街54號","121.519766666667","24.9853183333333","6500600","新店區"
"231050","KEA-2219","2018/02/06 20:29:29","新北市新店區建國路64號","121.54057","24.9758516666667","6500600","新店區"
"221015","KEA-2785","2018/02/06 20:29:39","新北市汐止區建成路142巷19弄1號","121.662236666667","25.07382","6501100","汐止區"
"231057","256-BX","2018/02/06 20:29:41","新北市新店區花園五路二段3號","121.55359","24.934245","6500600","新店區"
"231054","AAD-862","2018/02/06 20:29:40","新北市新店區檳榔路92號","121.543133333333","24.9628433333333","6500600","新店區"
"231058","3712-VJ","2018/02/06 20:29:27","新北市新店區自由街41號","121.534681666667","24.9739316666667","6500600","新店區"
"231056","3713-VJ","2018/02/06 20:29:35","新北市新店區中正路328巷42弄2號","121.538255","24.9762483333333","6500600","新店區"
"231042","616-UM","2018/02/06 20:29:26","新北市新店區寶高路120巷1-1號","121.55459","24.975955","6500600","新店區"
"231045","617-UM","2018/02/06 20:29:37","新北市新店區新坡一街2號","121.548253333333","24.9606383333333","6500600","新店區"
"231040","619-UM","2018/02/06 20:29:38","新北市新店區中正路304號","121.537451666667","24.9745833333333","6500600","新店區"
"231063","645-TV","2018/02/06 20:29:28","新北市新店區玫瑰路4-1號","121.493566666667","24.951385","6500600","新店區"
"231065","719-UY","2018/02/06 20:29:21","新北市新店區安祥路102巷42弄47號","121.485635","24.963345","6500600","新店區"
"231062","720-UM","2018/02/06 20:29:33","新北市新店區安泰路60巷94號","121.484018333333","24.9453766666667","6500600","新店區"
"231044","897-TW","2018/02/06 20:29:38","新北市新店區建國路131號","121.539451666667","24.9782166666667","6500600","新店區"
"231043","899-TW","2018/02/06 20:29:36","新北市新店區建國路129號","121.539598333333","24.978095","6500600","新店區"
"231066","AKT-0513","2018/02/06 20:29:23","新北市新店區安興路112號","121.514601666667","24.977655","6500600","新店區"
"241011","013-R5","2018/02/06 20:29:32","新北市三重區龍門路54號","121.496518333333","25.0724733333333","6500200","三重區"
"241028","022-UY","2018/02/06 20:29:31","新北市三重區光興街28號","121.497436666667","25.0598633333333","6500200","三重區"
"241008","059-VK","2018/02/06 20:29:21","新北市三重區下竹圍街91號","121.481108333333","25.07488","6500200","三重區"
"241009","060-VK","2018/02/06 20:29:20","新北市三重區永福街39號","121.481373333333","25.0780183333333","6500200","三重區"
"241031","061-VK","2018/02/06 20:29:25","新北市三重區三寧街22號","121.48955","25.0598966666667","6500200","三重區"
"241015","062-VK","2018/02/06 20:29:27","新北市三重區文化北路41號","121.498935","25.06521","6500200","三重區"
"241017","063-VK","2018/02/06 20:29:23","新北市三重區自強路一段211號","121.491445","25.0684883333333","6500200","三重區"
"241024","065-VK","2018/02/06 20:29:37","新北市三重區忠孝路三段15巷47號","121.479945","25.0681916666667","6500200","三重區"
"241026","066-VK","2018/02/06 20:29:26","新北市三重區環河南路9號","121.50374","25.063115","6500200","三重區"
"241002","090-VK","2018/02/06 20:29:28","新北市三重區仁義街211巷33號","121.497688333333","25.082395","6500200","三重區"
"241014","156-TC","2018/02/06 20:29:32","新北市三重區三和路二段146號","121.499561666667","25.0683566666667","6500200","三重區"
"241005","262-UM","2018/02/06 20:29:36","新北市三重區碧華街317號","121.491035","25.0843233333333","6500200","三重區"
"241018","265-UM","2018/02/06 20:29:36","新北市三重區雙園街64號","121.495735","25.06775","6500200","三重區"
"241016","266-UM","2018/02/06 20:29:07","新北市三重區正義北路104號","121.497016666667","25.06499","6500200","三重區"
"241032","269-UM","2018/02/06 20:29:36","新北市三重區重陽路一段120巷35號","121.485121666667","25.0602083333333","6500200","三重區"
"241013","270-UM","2018/02/06 20:29:19","新北市三重區溪尾街5巷19號","121.492483333333","25.074495","6500200","三重區"
"241025","271-UM","2018/02/06 20:29:38","新北市三重區頂崁街210巷27號","121.475726666667","25.0682216666667","6500200","三重區"
"241007","398-BY","2018/02/06 20:29:29","新北市三重區三和路四段101巷26號","121.489231666667","25.0772583333333","6500200","三重區"
"241020","413-TH","2018/02/06 20:29:25","新北市三重區忠孝路一段101號","121.489295","25.0721533333333","6500200","三重區"
"241035","462-BY","2018/02/06 20:29:22","新北市三重區正義北路68號","121.49716","25.06455","6500200","三重區"
"241004","475-VK","2018/02/06 20:29:39","新北市三重區溪尾街162號","121.488695","25.0801516666667","6500200","三重區"
"241019","478-VK","2018/02/06 20:29:29","新北市三重區重陽路四段77號","121.492485","25.0709783333333","6500200","三重區"
"241030","480-VK","2018/02/06 20:29:24","新北市三重區成功路62號","121.48858","25.050995","6500200","三重區"
"241023","545-UM","2018/02/06 20:29:28","新北市三重區自由街17巷2號","121.479821666667","25.066645","6500200","三重區"
"241001","547-UM","2018/02/06 20:29:32","新北市三重區福隆路12號","121.49032","25.0773866666667","6500200","三重區"
"241003","887-TS","2018/02/06 20:29:28","新北市三重區富華街143號","121.492925","25.084785","6500200","三重區"
"241012","941-UM","2018/02/06 20:29:39","新北市三重區龍濱路269號","121.501426666667","25.073005","6500200","三重區"
"241029","942-UM","2018/02/06 20:29:33","新北市三重區集美街225號","121.492058333333","25.0550733333333","6500200","三重區"
"241033","AAC-255","2018/02/06 20:29:36","新北市三重區五谷王北街80巷27號","121.475421666667","25.0531816666667","6500200","三重區"
"235066","003-UY","2018/02/06 20:29:29","新北市中和區中山路二段3巷22弄10號","121.506106666667","25.0049516666667","6500300","中和區"
"235039","097-UM","2018/02/06 20:29:33","新北市中和區大勇街27巷8號","121.517053333333","24.9938516666667","6500300","中和區"
"235065","098-UM","2018/02/06 20:29:32","新北市中和區永和路128巷47號","121.49768","25.0068983333333","6500300","中和區"
"235068","377-QA","2018/02/06 20:29:35","新北市中和區福祥路77號","121.499178333333","25.0055616666667","6500300","中和區"
"235050","4979-A6","2018/02/06 20:29:38","新北市中和區景安路82巷6弄1號","121.505143333333","24.9962733333333","6500300","中和區"
"235069","4980-A6","2018/02/06 20:29:32","新北市中和區中正路432巷34號","121.49086","24.99584","6500300","中和區"
"235026","800-TS","2018/02/06 20:29:17","新北市中和區員山路36巷13號","121.484313333333","24.99072","6500300","中和區"
"235059","AAC-215","2018/02/06 20:29:36","新北市中和區員山路7-3號","121.48268","24.9852683333333","6500300","中和區"
"247022","893-R6","2018/02/06 20:29:35","新北市蘆洲區中正路301號","121.466568333333","25.0883233333333","6501400","蘆洲區"
"247012","546-UM","2018/02/06 20:29:27","新北市蘆洲區民族路193號","121.478475","25.088985","6501400","蘆洲區"
"247020","500-BY","2018/02/06 20:29:32","新北市蘆洲區仁愛街136號","121.468906666667","25.0943966666667","6501400","蘆洲區"
"247008","341-TH","2018/02/06 20:29:36","新北市蘆洲區重陽二街23號","121.482363333333","25.084775","6501400","蘆洲區"
"247010","339-TH","2018/02/06 20:29:35","新北市蘆洲區信義路220號","121.479158333333","25.0851616666667","6501400","蘆洲區"
"247002","337-TH","2018/02/06 20:29:24","新北市蘆洲區長安街347巷32號","121.455498333333","25.0870216666667","6501400","蘆洲區"
"247004","336-TH","2018/02/06 20:29:36","新北市蘆洲區永康街63巷1弄1號","121.456425","25.0848566666667","6501400","蘆洲區"
"247002","335-TH","2018/02/06 20:29:21","新北市蘆洲區環堤大道166號","121.456171666667","25.089635","6501400","蘆洲區"
"247016","057-VK","2018/02/06 20:29:06","新北市蘆洲區光華路80-1號","121.467805","25.0827116666667","6501400","蘆洲區"
"247006","056-VK","2018/02/06 20:29:29","新北市蘆洲區和平路121巷8弄43號","121.46574","25.0807966666667","6501400","蘆洲區"
"247018","053-VK","2018/02/06 20:29:37","新北市蘆洲區民族路327巷52號","121.474505","25.09083","6501400","蘆洲區"
"247024","002-UY","2018/02/06 20:29:21","新北市蘆洲區長興路50巷16號","121.46501","25.0846816666667","6501400","蘆洲區"
"222001","KEA-2212","2018/02/06 20:29:35","新北市深坑區北深路三段345號","121.597178333333","25.0050316666667","6501800","深坑區"
"251001","011-UM","2018/02/06 20:29:40","新北市淡水區新市一路三段16號","121.445201666667","25.1829283333333","6501000","淡水區"
"251013","179-VK","2018/02/06 20:29:23","新北市淡水區奎柔山路307號","121.460646666667","25.20481","6501000","淡水區"
"251014","180-VK","2018/02/06 20:29:25","新北市淡水區石頭厝8-2號","121.459783333333","25.2372766666667","6501000","淡水區"
"251008","181-VK","2018/02/06 20:29:33","新北市淡水區淡海路204號","121.420356666667","25.1856133333333","6501000","淡水區"
"251015","182-VK","2018/02/06 20:29:38","新北市淡水區興仁路162號","121.451573333333","25.220735","6501000","淡水區"
"251010","413-VK","2018/02/06 20:29:20","新北市淡水區沙崙路181巷15號","121.423901666667","25.1842933333333","6501000","淡水區"
"251012","441-VK","2018/02/06 20:29:35","新北市淡水區興仁路108號","121.451675","25.218165","6501000","淡水區"
"251016","442-VK","2018/02/06 20:29:23","新北市淡水區後洲子8-2號","121.449555","25.2240216666667","6501000","淡水區"
"251006","561-UM","2018/02/06 20:29:41","新北市淡水區商工路302號","121.462023333333","25.1861016666667","6501000","淡水區"
"251009","575-R6","2018/02/06 20:29:28","新北市淡水區民權路13-5號","121.459651666667","25.1419733333333","6501000","淡水區"
"251011","650-BX","2018/02/06 20:26:42","新北市淡水區崁頂75-2號","121.435228333333","25.2037833333333","6501000","淡水區"
"251002","672-BX","2018/02/06 20:29:18","新北市淡水區中正路15號","121.442841666667","25.1696316666667","6501000","淡水區"
"251003","673-BX","2018/02/06 20:29:27","新北市淡水區新生街108巷2號","121.440091666667","25.17476","6501000","淡水區"
"252001","292-VK","2018/02/06 20:29:32","新北市三芝區中山路一段35號","121.500696666667","25.2579683333333","6502100","三芝區"
"252002","AAC-283","2018/02/06 20:29:24","新北市三芝區淡金路二段17號","121.502633333333","25.259405","6502100","三芝區"
"237006","5529-G3","2018/02/06 20:29:28","新北市三峽區中園街86巷22號","121.367198333333","24.9251166666667","6500900","三峽區"
"236023","401-BY","2018/02/06 20:29:26","新北市土城區延吉街47巷10號","121.472888333333","24.9875616666667","6501300","土城區"
"242032","AAC-296","2018/02/06 20:29:30","新北市新莊區三和路17-4號","121.438825","25.037765","6500500","新莊區"
"242029","986-R7","2018/02/06 20:29:34","新北市新莊區中華路二段159號","121.452815","25.0517466666667","6500500","新莊區"
"242025","615-BX","2018/02/06 20:29:30","新北市新莊區五工三路62巷13號","121.459963333333","25.0649066666667","6500500","新莊區"
"242023","613-BX","2018/02/06 20:29:33","新北市新莊區化成路932號","121.464803333333","25.06219","6500500","新莊區"
"242027","612-BX","2018/02/06 20:29:33","新北市新莊區幸福路83號","121.456393333333","25.04934","6500500","新莊區"
"242039","566-BX","2018/02/06 20:29:35","新北市新莊區成功街6巷2號","121.425743333333","25.0218033333333","6500500","新莊區"
"242044","442-UM","2018/02/06 20:29:40","新北市新莊區中正路891-46號","121.413691666667","25.0228033333333","6500500","新莊區"
"242054","440-UM","2018/02/06 20:29:22","新北市新莊區民安西路229巷8弄9號","121.426733333333","25.0136833333333","6500500","新莊區"
"242034","415-TV","2018/02/06 20:29:33","新北市新莊區新泰路198號","121.447103333333","25.0383533333333","6500500","新莊區"
"242005","413-TV","2018/02/06 20:29:34","新北市新莊區化成路746巷50號","121.466966666667","25.05817","6500500","新莊區"
"242042","400-BY","2018/02/06 20:29:29","新北市新莊區中正路694巷3弄2號","121.418356666667","25.0283783333333","6500500","新莊區"
"242061","362-BY","2018/02/06 20:29:28","新北市新莊區民安東路132號","121.431033333333","25.0204616666667","6500500","新莊區"
"242058","353-BY","2018/02/06 20:29:26","新北市新莊區四維路177號","121.422256666667","25.02132","6500500","新莊區"
"242007","132-UY","2018/02/06 20:29:30","新北市新莊區思源路287巷1弄25號","121.459511666667","25.04726","6500500","新莊區"
"242037","133-UY","2018/02/06 20:29:25","新北市新莊區後港一路76巷12弄2號","121.427223333333","25.0258666666667","6500500","新莊區"
"242021","135-UY","2018/02/06 20:29:23","新北市新莊區和興街1號","121.447591666667","25.0389283333333","6500500","新莊區"
"242046","172-VK","2018/02/06 20:29:21","新北市新莊區裕民街54巷27號","121.41755","25.0245283333333","6500500","新莊區"
"242009","173-VK","2018/02/06 20:14:44","新北市新莊區昌平街26號","121.455051666667","25.0528533333333","6500500","新莊區"
"242015","175-VK","2018/02/06 20:29:35","新北市新莊區永樂街239巷15號","121.446113333333","25.0438433333333","6500500","新莊區"
"242002","176-VK","2018/02/06 20:29:35","新北市新莊區中正路78-1號","121.458555","25.0378616666667","6500500","新莊區"
"242013","346-TH","2018/02/06 20:29:37","新北市新莊區中榮街75-3號","121.445786666667","25.052505","6500500","新莊區"
"242051","347-TH","2018/02/06 20:29:28","新北市新莊區民安西路252巷31號","121.425206666667","25.0137216666667","6500500","新莊區"
"242019","348-TH","2018/02/06 20:29:39","新北市新莊區民樂街87巷9號","121.457343333333","25.0433566666667","6500500","新莊區"
"242056","349-TH","2018/02/06 20:29:34","新北市新莊區新莊路713巷5弄1號","121.443748333333","25.0320783333333","6500500","新莊區"
"242017","350-TH","2018/02/06 20:29:27","新北市新莊區中港三街81號","121.449543333333","25.046215","6500500","新莊區"
"242011","351-TH","2018/02/06 20:29:20","新北市新莊區中義街35號","121.450053333333","25.0511566666667","6500500","新莊區"
"221008","489-VK","2018/02/06 20:29:37","新北市汐止區康寧街456號","121.631593333333","25.0682616666667","6501100","汐止區"
"221036","130-UY","2018/02/06 20:29:27","新北市汐止區新台五路二段69號","121.663888333333","25.0666116666667","6501100","汐止區"
"221010","269-BY","2018/02/06 20:29:23","新北市汐止區八連路二段616號","121.623971666667","25.1113","6501100","汐止區"
"221012","278-VK","2018/02/06 20:29:21","新北市汐止區大同路三段279號","121.674158333333","25.0751016666667","6501100","汐止區"
"221023","279-VK","2018/02/06 20:29:31","新北市汐止區湖東街49號","121.635776666667","25.0734116666667","6501100","汐止區"
"221032","280-BY","2018/02/06 20:29:34","新北市汐止區弘道街53巷22號","121.618786666667","25.0495016666667","6501100","汐止區"
"221027","281-BY","2018/02/06 20:29:31","新北市汐止區中正路246號","121.6576","25.06865","6501100","汐止區"
"221002","297-VK","2018/02/06 20:29:36","新北市汐止區福德二路18號","121.635151666667","25.0682883333333","6501100","汐止區"
"221029","298-VK","2018/02/06 20:28:59","新北市汐止區樟樹一路135巷35號","121.640728333333","25.0656883333333","6501100","汐止區"
"221021","299-VK","2018/02/06 20:29:37","新北市汐止區水源路一段284號","121.654116666667","25.05825","6501100","汐止區"
"221031","353-TW","2018/02/06 20:29:36","新北市汐止區中興路110巷10號","121.633821666667","25.0641566666667","6501100","汐止區"
"221035","622-UM","2018/02/06 20:29:31","新北市汐止區長江街101-5號","121.658673333333","25.07321","6501100","汐止區"
"221025","623-UM","2018/02/06 20:29:32","新北市汐止區水源路二段110巷1號","121.656673333333","25.0553766666667","6501100","汐止區"
"221038","646-BX","2018/02/06 20:29:29","新北市汐止區水源路一段56號","121.657583333333","25.065575","6501100","汐止區"
"221033","647-BX","2018/02/06 20:29:29","新北市汐止區林森街73巷15號","121.623846666667","25.0414166666667","6501100","汐止區"
"221018","753-BX","2018/02/06 20:29:34","新北市汐止區茄苳路204號","121.670445","25.068965","6501100","汐止區"
"220103","257-TC","2018/02/06 20:29:28","新北市板橋區漢生東路23巷54號","121.466066666667","25.0181133333333","6500100","板橋區"
"220083","286-VK","2018/02/06 20:29:26","新北市板橋區僑中二街104巷47號","121.444208333333","25.008165","6500100","板橋區"
"220081","287-VK","2018/02/06 20:29:27","新北市板橋區僑中一街80巷1弄17號","121.446753333333","25.0119833333333","6500100","板橋區"
"220061","293-UM","2018/02/06 20:29:19","新北市板橋區四川路一段286巷26號","121.457845","25.0012766666667","6500100","板橋區"
"242048","281-VK","2018/02/06 20:29:36","新北市樹林區三俊街199巷20弄37號","121.422315","25.0171333333333","6500500","新莊區"
"220092","307-R5","2018/02/06 20:29:26","新北市板橋區民權路99號","121.459458333333","25.01315","6500100","板橋區"
"220089","487-VK","2018/02/06 20:29:27","新北市板橋區四維路156號","121.464838333333","25.025825","6500100","板橋區"
"220070","AAC-253","2018/02/06 20:29:34","新北市五股區成泰路一段8巷9-9號","121.437755","25.06747","6500100","板橋區"
