"lineid","car","time","location","longitude","latitude","cityid","cityname"
"235010","733-UM","2018/02/06 21:51:45","新北市中和區員山路36巷13號","121.484155","24.990785","6500300","中和區"
"247008","341-TH","2018/02/06 22:07:56","新北市八里區荖阡坑路34-2號","121.401338333333","25.1299066666667","6501400","蘆洲區"
"247003","336-TH","2018/02/06 22:09:30","新北市五股區中興路三段163號","121.449193333333","25.0809533333333","6501400","蘆洲區"
"251004","009-UM","2018/02/06 22:09:31","新北市淡水區民族路33號","121.462315","25.13575","6501000","淡水區"
"251014","180-VK","2018/02/06 22:09:25","新北市淡水區下圭柔山90-8號","121.431243333333","25.2104183333333","6501000","淡水區"
"251008","181-VK","2018/02/06 22:09:32","新北市淡水區學府路104號","121.449808333333","25.1717433333333","6501000","淡水區"
"251010","413-VK","2018/02/06 22:09:40","新北市淡水區沙崙路200號","121.424686666667","25.1838883333333","6501000","淡水區"
"251007","577-R6","2018/02/06 22:09:30","新北市淡水區北新路135號","121.449365","25.1788333333333","6501000","淡水區"
"251011","650-BX","2018/02/06 22:09:22","新北市淡水區水碓街7號","121.443151666667","25.177125","6501000","淡水區"
