"lineid","car","time","location","longitude","latitude","cityid","cityname"
"248005","653-BX","2018/09/06 07:39:12","新北市五股區明德路12巷6號","121.433333333333","25.0718166666667","6501500","五股區"
"232001","290-BY","2018/09/06 07:39:17","新北市坪林區上坑子口2號","121.698981666667","24.95751","6502000","坪林區"
"232014","291-BY","2018/09/06 07:39:17","新北市坪林區九芎根1號","121.673083333333","24.8939566666667","6502000","坪林區"
"232010","375-UM","2018/09/06 07:38:27","新北市坪林區磨壁潭12-2號","121.725086666667","24.9384383333333","6502000","坪林區"
"232007","758-BX","2018/09/06 07:39:11","新北市坪林區魚堀33-7號","121.696808333333","24.9248633333333","6502000","坪林區"
"244003","248-BX","2018/09/06 07:39:08","新北市林口區頂福里79號","121.33509","25.0958983333333","6501700","林口區"
"222006","289-BY","2018/09/06 07:39:20","新北市深坑區文化街39巷1號","121.618898333333","25.00134","6501800","深坑區"
"231050","AAD-862","2018/09/06 07:39:10","新北市新店區新和街33號","121.519008333333","24.9847866666667","6500600","新店區"
"226005","4501-MT","2018/09/06 07:39:16","新北市平溪區靜安路二段336號","121.737086666667","25.0243233333333","6502400","平溪區"
"226007","7418-A5","2018/09/06 07:39:03","新北市平溪區平湖里大厝1號","121.780053333333","25.03877","6502400","平溪區"
"226003","AGD-0702","2018/09/06 07:37:15","新北市平溪區嶺腳里嶺腳寮83-2號","121.75","25.0352083333333","6502400","平溪區"
"223006","022-BY","2018/09/06 07:37:44","新北市石碇區碇坪路一段12號","121.651618333333","25.0059566666667","6501900","石碇區"
"223002","KEA-2673","2018/09/06 07:37:23","新北市石碇區北宜路五段竹坑巷17號","121.62476","24.9405966666667","6501900","石碇區"
"223001","592-UM","2018/09/06 07:39:10","新北市石碇區烏塗窟1-1號","121.655038333333","24.9762166666667","6501900","石碇區"
"223004","660-BX","2018/09/06 07:39:13","新北市石碇區八分寮47-1號","121.642058333333","25.0135433333333","6501900","石碇區"
"223007","661-BX","2018/09/06 07:34:49","新北市石碇區靜安路一段337號","121.698885","25.014535","6501900","石碇區"
"223005","677-TV","2018/09/06 07:39:05","新北市石碇區八分寮47-1號","121.642461666667","25.0138666666667","6501900","石碇區"
"227007","282-VK","2018/09/06 07:39:06","新北市雙溪區雙溪里太平路54號","121.864816666667","25.0355283333333","6502500","雙溪區"
"252004","249-BX","2018/09/06 07:39:16","新北市三芝區店子里菜公坑99-4號","121.51388","25.20646","6502100","三芝區"
"252007","AAC-283","2018/09/06 07:39:04","新北市三芝區古庄里古庄81-3號","121.488948333333","25.269065","6502100","三芝區"
"236009","165-UM","2018/09/06 07:39:17","新北市板橋區廣權路127號","121.465525","24.99326","6501300","土城區"
"236003","339-SR","2018/09/06 07:39:16","新北市土城區南天母路143號","121.447751666667","24.9533266666667","6501300","土城區"
"242057","986-R7","2018/09/06 07:39:21","新北市新莊區新泰路357巷3弄57號","121.442043333333","25.0390983333333","6500500","新莊區"
"242055","751-BX","2018/09/06 07:39:05","新北市新莊區三和路12-17號","121.44228","25.0375","6500500","新莊區"
"242026","615-BX","2018/09/06 07:39:24","新北市新莊區新泰路255巷83號","121.442306666667","25.0390733333333","6500500","新莊區"
"242043","566-BX","2018/09/06 07:39:07","新北市新莊區三和路18-23號","121.441896666667","25.0389583333333","6500500","新莊區"
"242047","497-BY","2018/09/06 07:39:19","新北市新莊區新泰路357巷2-2號","121.441836666667","25.041335","6500500","新莊區"
"242052","441-UM","2018/09/06 07:39:20","新北市新莊區瓊泰路77巷15號","121.442151666667","25.0288533333333","6500500","新莊區"
"242001","440-UM","2018/09/06 07:39:16","新北市新莊區新泰路357巷3弄57號","121.442393333333","25.0394083333333","6500500","新莊區"
"242038","415-TV","2018/09/06 07:39:20","新北市新莊區三和路12-21號","121.441865","25.0379483333333","6500500","新莊區"
"242008","413-TV","2018/09/06 07:39:19","新北市新莊區新泰路357巷3弄57號","121.44203","25.0394333333333","6500500","新莊區"
"242022","362-BY","2018/09/06 07:39:06","新北市新莊區新泰路255巷83號","121.442246666667","25.03886","6500500","新莊區"
"242059","353-BY","2018/09/06 07:39:21","新北市新莊區中正路400號","121.44193","25.034475","6500500","新莊區"
"242010","132-UY","2018/09/06 07:39:07","新北市新莊區三和路12-21號","121.442118333333","25.0386566666667","6500500","新莊區"
"242040","133-UY","2018/09/06 07:39:24","新北市新莊區新泰路255巷83號","121.442101666667","25.0388733333333","6500500","新莊區"
"242033","135-UY","2018/09/06 07:39:04","新北市新莊區三和路12-21號","121.44196","25.0388283333333","6500500","新莊區"
"242049","172-VK","2018/09/06 07:39:17","新北市新莊區新樹路19號","121.440491666667","25.03255","6500500","新莊區"
"242018","175-VK","2018/09/06 07:39:20","新北市新莊區三和路12-21號","121.441928333333","25.0386283333333","6500500","新莊區"
"242006","176-VK","2018/09/06 07:39:11","新北市新莊區三和路12-21號","121.441988333333","25.0385416666667","6500500","新莊區"
"242045","347-TH","2018/09/06 07:39:07","新北市新莊區三和路12-15號","121.441941666667","25.0373116666667","6500500","新莊區"
"242030","348-TH","2018/09/06 07:39:22","新北市新莊區新泰路357巷3弄57號","121.442065","25.0395533333333","6500500","新莊區"
"242003","349-TH","2018/09/06 07:39:13","新北市新莊區三和路12-15號","121.441938333333","25.0373533333333","6500500","新莊區"
"242020","350-TH","2018/09/06 07:39:21","新北市新莊區新泰路255巷83號","121.442021666667","25.0388583333333","6500500","新莊區"
"242014","351-TH","2018/09/06 07:39:19","新北市新莊區新泰路357巷3弄57號","121.442033333333","25.0395433333333","6500500","新莊區"
"242012","281-VK","2018/09/06 07:39:05","新北市新莊區三和路12-18號","121.442095","25.0376766666667","6500500","新莊區"
