"lineid","car","time","location","longitude","latitude","cityid","cityname"
"248005","653-BX","2018/05/28 06:59:04","新北市五股區中興路二段83巷26-6號","121.459926666667","25.0751966666667","6501500","五股區"
"232001","290-BY","2018/05/28 06:59:13","新北市坪林區大粗坑17-4號","121.713241666667","24.95246","6502000","坪林區"
"232012","291-BY","2018/05/28 06:59:07","新北市坪林區黃舉皮寮2-2號","121.687965","24.9414833333333","6502000","坪林區"
"232010","375-UM","2018/05/28 06:59:16","新北市坪林區水聳淒坑7-1號","121.724711666667","24.92687","6502000","坪林區"
"232017","705-BZ","2018/05/28 06:59:13","新北市坪林區坪雙路一段117號","121.732468333333","24.9512266666667","6502000","坪林區"
"232005","758-BX","2018/05/28 06:59:03","新北市坪林區魚堀17-8號","121.70302","24.91828","6502000","坪林區"
"244001","248-BX","2018/05/28 06:59:16","新北市林口區頭湖70號","121.37496","25.0887783333333","6501700","林口區"
"223006","022-BY","2018/05/28 06:59:07","新北市石碇區新興坑16號","121.654475","25.0199066666667","6501900","石碇區"
"223002","KEA-2673","2018/05/28 06:59:07","新北市石碇區四分子路小粗坑巷5-1號","121.65294","24.9601333333333","6501900","石碇區"
"223001","205-TH","2018/05/28 06:59:14","新北市石碇區石碇東街143號","121.658953333333","24.98914","6501900","石碇區"
"223008","406-TH","2018/05/28 06:59:19","新北市石碇區十八重溪84-2號","121.672185","25.0106383333333","6501900","石碇區"
"223001","592-UM","2018/05/28 06:59:15","新北市石碇區石碇西街9號","121.659","24.990625","6501900","石碇區"
"223004","660-BX","2018/05/28 06:59:06","新北市石碇區碇坪路一段60號","121.657115","24.9915833333333","6501900","石碇區"
"223007","661-BX","2018/05/28 06:59:23","新北市石碇區十八重溪81-1號","121.672455","25.0109133333333","6501900","石碇區"
"223005","677-TV","2018/05/28 06:59:11","新北市石碇區碇坪路一段60號","121.657103333333","24.9914333333333","6501900","石碇區"
"227005","282-VK","2018/05/28 06:59:10","新北市雙溪區新基里自強路7號","121.866283333333","25.0390616666667","6502500","雙溪區"
"252006","073-UM","2018/05/28 06:59:13","新北市三芝區中興街一段12號","121.497491666667","25.2592383333333","6502100","三芝區"
"252004","249-BX","2018/05/28 06:59:07","新北市三芝區埔坪里埔頭坑41號","121.504765","25.2643183333333","6502100","三芝區"
"252001","292-VK","2018/05/28 06:59:04","新北市三芝區中山路二段50號","121.503155","25.254305","6502100","三芝區"
"236007","165-UM","2018/05/28 06:59:04","新北市土城區永寧路36-1號","121.428028333333","24.959115","6501300","土城區"
"220018","282-UM","2018/05/28 06:59:11","新北市板橋區國光路49巷17號","121.458928333333","25.0188466666667","6500100","板橋區"
