"lineid","car","time","location","longitude","latitude","cityid","cityname"
"248005","653-BX","2018/05/28 07:19:04","新北市五股區明德路12巷6號","121.433391666667","25.0718","6501500","五股區"
"232001","290-BY","2018/05/28 07:19:13","新北市坪林區桶盤嶼8-2號","121.707143333333","24.957235","6502000","坪林區"
"232012","291-BY","2018/05/28 07:15:06","新北市坪林區仁里10-2號","121.691935","24.9316466666667","6502000","坪林區"
"232010","375-UM","2018/05/28 07:19:12","新北市坪林區水聳淒坑14號","121.723108333333","24.9272","6502000","坪林區"
"232017","705-BZ","2018/05/28 07:19:13","新北市坪林區九芎坑2-2號","121.722665","24.9656333333333","6502000","坪林區"
"232005","758-BX","2018/05/28 07:19:23","新北市坪林區魚堀39-2號","121.699746666667","24.93197","6502000","坪林區"
"244001","248-BX","2018/05/28 07:19:16","新北市林口區頂福里53-18號","121.347613333333","25.0859033333333","6501700","林口區"
"222005","289-BY","2018/05/28 07:19:08","新北市深坑區文化街110號","121.6163","25.0018283333333","6501800","深坑區"
"226005","5620-A6","2018/05/28 07:18:59","新北市平溪區靜安路二段119號","121.721355","25.0239066666667","6502400","平溪區"
"226007","7418-A5","2018/05/28 07:19:03","新北市平溪區南山里南山坪7號","121.763721666667","25.03193","6502400","平溪區"
"226003","AGD-0702","2018/05/28 07:19:11","新北市平溪區嶺腳里嶺腳寮62號","121.747828333333","25.0313716666667","6502400","平溪區"
"223006","022-BY","2018/05/28 07:19:07","新北市石碇區靜安路一段61號","121.648001666667","25.0102333333333","6501900","石碇區"
"223002","KEA-2673","2018/05/28 07:19:07","新北市石碇區碇格路二段31號","121.638938333333","24.9574433333333","6501900","石碇區"
"223001","205-TH","2018/05/28 07:19:14","新北市石碇區蓬菜寮4號","121.6525","24.9740566666667","6501900","石碇區"
"223008","406-TH","2018/05/28 07:19:19","新北市石碇區番子坑22-5號","121.676973333333","24.999925","6501900","石碇區"
"223001","592-UM","2018/05/28 07:19:15","新北市石碇區蓬菜寮4號","121.65231","24.973895","6501900","石碇區"
"223004","660-BX","2018/05/28 07:19:06","新北市石碇區新興坑4號","121.653588333333","25.01683","6501900","石碇區"
"223007","661-BX","2018/05/28 07:19:23","新北市石碇區蚯蚓坑19-2號","121.687655","25.00279","6501900","石碇區"
"223005","677-TV","2018/05/28 07:19:11","新北市石碇區新興坑3號","121.654828333333","25.0165133333333","6501900","石碇區"
"227005","282-VK","2018/05/28 07:19:10","新北市雙溪區新基里自強路7號","121.866246666667","25.03911","6502500","雙溪區"
"252006","073-UM","2018/05/28 07:19:13","新北市三芝區錫板里海尾25號","121.484298333333","25.2556","6502100","三芝區"
"252004","249-BX","2018/05/28 07:19:07","新北市三芝區福德里大湖10號","121.504636666667","25.223165","6502100","三芝區"
"252001","292-VK","2018/05/28 07:19:04","新北市三芝區中山路二段50號","121.503136666667","25.2543333333333","6502100","三芝區"
"236007","165-UM","2018/05/28 07:19:24","新北市土城區中央路一段47號","121.448083333333","24.9905666666667","6501300","土城區"
"236001","339-SR","2018/05/28 07:19:04","新北市土城區和平路38-13號","121.44755","24.9693583333333","6501300","土城區"
"242022","362-BY","2018/05/28 07:19:21","新北市新莊區新泰路255巷83號","121.442278333333","25.0388583333333","6500500","新莊區"
"242016","175-VK","2018/05/28 07:19:07","新北市新莊區三和路12-21號","121.441865","25.03859","6500500","新莊區"
"242012","351-TH","2018/05/28 07:19:17","新北市新莊區新泰路357巷3弄57號","121.441956666667","25.039445","6500500","新莊區"
"220018","282-UM","2018/05/28 07:12:55","新北市板橋區國光路31巷16號","121.457958333333","25.0180383333333","6500100","板橋區"
