"lineid","car","time","location","longitude","latitude","cityid","cityname"
"248005","653-BX","2018/05/28 07:29:24","新北市五股區明德路12巷6號","121.433406666667","25.0718","6501500","五股區"
"232001","290-BY","2018/05/28 07:29:13","新北市坪林區上坑子口9號","121.700983333333","24.962145","6502000","坪林區"
"232012","291-BY","2018/05/28 07:29:07","新北市坪林區金瓜寮10-2號","121.681408333333","24.91703","6502000","坪林區"
"232010","375-UM","2018/05/28 07:29:12","新北市坪林區苦苓腳1號","121.713086666667","24.9354216666667","6502000","坪林區"
"232017","705-BZ","2018/05/28 07:29:13","新北市坪林區樟空子6-1號","121.725925","24.970295","6502000","坪林區"
"232005","758-BX","2018/05/28 07:29:23","新北市坪林區魚堀34-1號","121.698895","24.9261583333333","6502000","坪林區"
"244001","248-BX","2018/05/28 07:29:16","新北市林口區頂福里16鄰79號","121.33584","25.0929716666667","6501700","林口區"
"222005","289-BY","2018/05/28 07:20:59","新北市深坑區文化街39巷13號","121.61889","25.0010616666667","6501800","深坑區"
"226005","5620-A6","2018/05/28 07:29:12","新北市平溪區靜安路二段119號","121.72114","25.023775","6502400","平溪區"
"226007","7418-A5","2018/05/28 07:19:44","新北市平溪區望古里灰4號","121.76277","25.03014","6502400","平溪區"
"226003","AGD-0702","2018/05/28 07:29:11","新北市平溪區嶺腳里嶺腳寮94號","121.746145","25.0374716666667","6502400","平溪區"
"223006","022-BY","2018/05/28 07:29:07","新北市石碇區番子坑58號","121.676301666667","25.0108216666667","6501900","石碇區"
"223002","KEA-2673","2018/05/28 07:26:07","新北市石碇區北宜路五段土巷10號","121.62754","24.9444766666667","6501900","石碇區"
"223001","205-TH","2018/05/28 07:29:14","新北市石碇區中楒子腳2-5號","121.63755","24.9725516666667","6501900","石碇區"
"223008","406-TH","2018/05/28 07:29:19","新北市石碇區靜安路一段318號","121.693813333333","25.0068866666667","6501900","石碇區"
"223001","592-UM","2018/05/28 07:29:15","新北市石碇區中楒子腳3號","121.638236666667","24.9719383333333","6501900","石碇區"
"223004","660-BX","2018/05/28 07:29:06","新北市石碇區八分寮55-5號","121.645446666667","25.0167383333333","6501900","石碇區"
"223007","661-BX","2018/05/28 07:29:23","新北市石碇區大溪墘11號","121.694821666667","25.0082633333333","6501900","石碇區"
"223005","677-TV","2018/05/28 07:29:11","新北市石碇區新興坑29-3號","121.646088333333","25.0160916666667","6501900","石碇區"
"227005","282-VK","2018/05/28 07:29:10","新北市雙溪區新基里自強路7號","121.866235","25.0390866666667","6502500","雙溪區"
"252006","073-UM","2018/05/28 07:29:14","新北市三芝區淡金路一段2號","121.497421666667","25.25979","6502100","三芝區"
"252004","249-BX","2018/05/28 07:29:07","新北市三芝區興華里楓子林50-2號","121.50212","25.2112816666667","6502100","三芝區"
"252001","292-VK","2018/05/28 07:29:04","新北市三芝區中正路二段48-1號","121.503183333333","25.2544083333333","6502100","三芝區"
"236007","165-UM","2018/05/28 07:29:24","新北市板橋區五權街34-1號","121.464248333333","24.99229","6501300","土城區"
"236001","339-SR","2018/05/28 07:29:04","新北市土城區忠義路102號","121.444238333333","24.95902","6501300","土城區"
"242057","986-R7","2018/05/28 07:29:15","新北市新莊區新泰路255巷83號","121.442356666667","25.0388083333333","6500500","新莊區"
"242026","615-BX","2018/05/28 07:29:06","新北市新莊區新泰路255巷83號","121.442173333333","25.03903","6500500","新莊區"
"242040","566-BX","2018/05/28 07:29:26","新北市新莊區新泰路357巷3弄57號","121.44208","25.039575","6500500","新莊區"
"242035","415-TV","2018/05/28 07:29:18","新北市新莊區新泰路255巷83號","121.442331666667","25.03912","6500500","新莊區"
"242006","413-TV","2018/05/28 07:29:09","新北市新莊區新泰路357巷3弄57號","121.441993333333","25.039545","6500500","新莊區"
"242022","362-BY","2018/05/28 07:29:21","新北市新莊區三和路12-21號","121.442213333333","25.0385733333333","6500500","新莊區"
"242038","133-UY","2018/05/28 07:29:25","新北市新莊區新泰路357巷3弄57號","121.441955","25.0389716666667","6500500","新莊區"
"242016","175-VK","2018/05/28 07:29:07","新北市新莊區三和路12-21號","121.442","25.0385316666667","6500500","新莊區"
"242012","351-TH","2018/05/28 07:29:17","新北市新莊區新泰路357巷3弄57號","121.442061666667","25.0394366666667","6500500","新莊區"
"242001","KEA-2550","2018/05/28 07:29:18","新北市新莊區三和路12-18號","121.442245","25.0376466666667","6500500","新莊區"
"220018","282-UM","2018/05/28 07:29:07","新北市板橋區國光路51號","121.458045","25.0180233333333","6500100","板橋區"
