"lineid","car","time","location","longitude","latitude","cityid","cityname"
"248005","653-BX","2018/07/16 07:59:20","新北市五股區明德路12巷6號","121.433351666667","25.07179","6501500","五股區"
"232001","290-BY","2018/07/16 07:59:17","新北市坪林區下坑子口6-15號","121.711435","24.9434066666667","6502000","坪林區"
"232012","291-BY","2018/07/16 07:59:23","新北市坪林區金瓜寮28號","121.677036666667","24.9081966666667","6502000","坪林區"
"232010","375-UM","2018/07/16 07:59:21","新北市坪林區厚德岡坑8-5號","121.733141666667","24.9409616666667","6502000","坪林區"
"232017","705-BZ","2018/07/16 07:59:20","新北市坪林區乾溪6號","121.745556666667","24.9687633333333","6502000","坪林區"
"232005","758-BX","2018/07/16 07:59:30","新北市坪林區九芎林23-4號","121.706285","24.9263","6502000","坪林區"
"244006","080-UY","2018/07/16 07:59:20","新北市林口區粉寮路二段128號","121.404561666667","25.0906466666667","6501700","林口區"
"244001","248-BX","2018/07/16 07:58:53","新北市林口區嘉寶里67-1號","121.337021666667","25.1102266666667","6501700","林口區"
"244012","742-UY","2018/07/16 07:59:13","新北市林口區粉寮69號","121.40482","25.09077","6501700","林口區"
"244022","483-VK","2018/07/16 07:59:14","新北市林口區粉寮69號","121.405105","25.0907666666667","6501700","林口區"
"244024","837-TS","2018/07/16 07:59:20","新北市林口區粉寮69號","121.404756666667","25.0907316666667","6501700","林口區"
"231007","189-VK","2018/07/16 07:59:16","新北市新店區華城路12-1號","121.529173333333","24.9579083333333","6500600","新店區"
"231008","192-VK","2018/07/16 07:59:15","新北市新店區安一路一段1-1號","121.519305","24.9612466666667","6500600","新店區"
"235001","611-BX","2018/07/16 07:59:28","新北市中和區圓通路367巷8號","121.491585","24.989165","6500300","中和區"
"226005","5620-A6","2018/07/16 07:59:25","新北市平溪區石底里公園街18-3號","121.733473333333","25.0255783333333","6502400","平溪區"
"226001","7418-A5","2018/07/16 07:59:12","新北市平溪區南山里南山坪136號","121.782988333333","25.0464683333333","6502400","平溪區"
"226003","AGD-0702","2018/07/16 07:59:21","新北市平溪區新寮里頂寮子4號","121.773796666667","25.0517466666667","6502400","平溪區"
"223006","022-BY","2018/07/16 07:59:21","新北市石碇區番子坑24號","121.678378333333","25.0014683333333","6501900","石碇區"
"223002","KEA-2673","2018/07/16 07:59:22","新北市石碇區北宜路五段濕水子巷11號","121.636903333333","24.9456066666667","6501900","石碇區"
"223003","205-TH","2018/07/16 07:59:22","新北市石碇區四分子8-1號","121.663893333333","24.9638","6501900","石碇區"
"223008","406-TH","2018/07/16 07:59:15","新北市石碇區靜安路一段342號","121.698936666667","25.0089166666667","6501900","石碇區"
"223001","592-UM","2018/07/16 07:59:08","新北市石碇區四分子3號","121.664061666667","24.9641066666667","6501900","石碇區"
"223004","660-BX","2018/07/16 07:59:18","新北市石碇區碇坪路一段2號","121.651555","25.0062566666667","6501900","石碇區"
"223007","661-BX","2018/07/16 07:59:27","新北市石碇區大溪墘6號","121.698208333333","25.0075083333333","6501900","石碇區"
"223005","677-TV","2018/07/16 07:59:24","新北市石碇區外按8-1號","121.651276666667","24.9955","6501900","石碇區"
"227005","282-VK","2018/07/16 07:59:22","新北市雙溪區平林里外平林59號","121.846358333333","25.0348683333333","6502500","雙溪區"
"252006","073-UM","2018/07/16 07:59:21","新北市三芝區海景一街44號","121.475435","25.2466733333333","6502100","三芝區"
"252004","249-BX","2018/07/16 07:59:22","新北市三芝區店子里店子72-6號","121.509383333333","25.2020633333333","6502100","三芝區"
"237001","159-UY","2018/07/16 07:59:28","新北市三峽區大學路77號","121.376176666667","24.9415766666667","6500900","三峽區"
"236007","165-UM","2018/07/16 07:59:09","新北市土城區永豐路202巷14號","121.46633","24.9837566666667","6501300","土城區"
"236001","339-SR","2018/07/16 07:59:11","新北市土城區龍泉路87號","121.44571","24.9443316666667","6501300","土城區"
"242033","AAC-296","2018/07/16 07:59:23","新北市新莊區新泰路5號","121.449731666667","25.0322766666667","6500500","新莊區"
"242057","986-R7","2018/07/16 07:59:13","新北市新莊區中正路552號","121.429695","25.0312516666667","6500500","新莊區"
"242052","751-BX","2018/07/16 07:59:27","新北市新莊區瓊林南路305巷10號","121.434798333333","25.00538","6500500","新莊區"
"242026","705-TV","2018/07/16 07:59:27","新北市新莊區思源路32號","121.460195","25.0410333333333","6500500","新莊區"
"242024","613-BX","2018/07/16 07:59:26","新北市新莊區復興路二段39號","121.454521666667","25.04407","6500500","新莊區"
"242028","612-BX","2018/07/16 07:59:27","新北市新莊區復興路二段174號","121.458595","25.0443833333333","6500500","新莊區"
"242040","566-BX","2018/07/16 07:59:19","新北市新莊區新樹路111號","121.437873333333","25.0266966666667","6500500","新莊區"
"242045","497-BY","2018/07/16 07:59:18","新北市新莊區新樹路12-1號","121.439828333333","25.03148","6500500","新莊區"
"242049","442-UM","2018/07/16 07:59:11","新北市新莊區瓊林南路48號","121.435846666667","25.0174883333333","6500500","新莊區"
"242055","440-UM","2018/07/16 07:59:13","新北市新莊區新泰路14號","121.44972","25.0330083333333","6500500","新莊區"
"242035","415-TV","2018/07/16 07:58:57","新北市新莊區建國二路1號","121.434865","25.0236","6500500","新莊區"
"242006","413-TV","2018/07/16 07:59:18","新北市新莊區福樂街118巷17號","121.457445","25.0483783333333","6500500","新莊區"
"242043","400-BY","2018/07/16 07:59:21","新北市新莊區富國路32號","121.41896","25.0261683333333","6500500","新莊區"
"242022","362-BY","2018/07/16 07:59:23","新北市新莊區公園路150號","121.453141666667","25.040115","6500500","新莊區"
"242059","353-BY","2018/07/16 07:59:22","新北市新莊區瓊林路192號","121.439146666667","25.020795","6500500","新莊區"
"242008","132-UY","2018/07/16 07:59:22","新北市新莊區中華路二段258巷25號","121.45314","25.0543016666667","6500500","新莊區"
"242038","133-UY","2018/07/16 07:59:24","新北市新莊區民安路272號","121.427643333333","25.0213183333333","6500500","新莊區"
"242030","135-UY","2018/07/16 07:59:17","新北市新莊區新泰路381巷38號","121.442515","25.0435833333333","6500500","新莊區"
"242047","172-VK","2018/07/16 07:59:14","新北市新莊區龍安路256號","121.421343333333","25.01956","6500500","新莊區"
"242016","175-VK","2018/07/16 07:59:10","新北市新莊區中華路一段101號","121.452613333333","25.0437083333333","6500500","新莊區"
"242003","176-VK","2018/07/16 07:59:28","新北市新莊區中港路288巷12號","121.453436666667","25.0445116666667","6500500","新莊區"
"242014","346-TH","2018/07/16 07:59:26","新北市新莊區新泰路207號","121.446896666667","25.0384133333333","6500500","新莊區"
"242010","347-TH","2018/07/16 07:59:20","新北市新莊區中港路495號","121.452083333333","25.050185","6500500","新莊區"
"242020","348-TH","2018/07/16 07:59:23","新北市新莊區中華路一段18號","121.45199","25.0370866666667","6500500","新莊區"
"242001","349-TH","2018/07/16 07:59:23","新北市新莊區新莊路154號","121.455265","25.0354433333333","6500500","新莊區"
"242012","351-TH","2018/07/16 07:59:28","新北市新莊區中誠街18號","121.45193","25.0482783333333","6500500","新莊區"
"242018","281-VK","2018/07/16 07:59:18","新北市新莊區中港路61號","121.455333333333","25.0384683333333","6500500","新莊區"
