"lineid","car","time","location","longitude","latitude","cityid","cityname"
"248005","653-BX","2018/07/16 08:29:20","新北市五股區明德路12巷3號","121.433291666667","25.0717983333333","6501500","五股區"
"232001","290-BY","2018/07/16 08:29:17","新北市坪林區大粗坑6-1號","121.732205","24.9482516666667","6502000","坪林區"
"232012","291-BY","2018/07/16 08:29:23","新北市坪林區金瓜寮35號","121.672911666667","24.8989883333333","6502000","坪林區"
"232017","705-BZ","2018/07/16 08:29:20","新北市坪林區柑腳坑14號","121.773486666667","24.947895","6502000","坪林區"
"232005","758-BX","2018/07/16 08:29:10","新北市坪林區鶯子瀨3-7號","121.705935","24.9141216666667","6502000","坪林區"
"244006","080-UY","2018/07/16 08:29:20","新北市林口區湖子11號","121.387018333333","25.08953","6501700","林口區"
"244001","248-BX","2018/07/16 08:29:13","新北市林口區寶斗厝坑52號","121.323736666667","25.1211966666667","6501700","林口區"
"244018","403-UM","2018/07/16 08:29:10","新北市林口區公園路231-3號","121.375481666667","25.0752683333333","6501700","林口區"
"244012","742-UY","2018/07/16 08:29:13","新北市林口區中山路73號","121.393185","25.0784566666667","6501700","林口區"
"244008","410-SL","2018/07/16 08:29:24","新北市林口區中北三街61號","121.384756666667","25.0855166666667","6501700","林口區"
"244022","483-VK","2018/07/16 08:29:14","新北市林口區東明一街36號","121.392763333333","25.072485","6501700","林口區"
"244016","485-VK","2018/07/16 08:29:09","新北市林口區公園路201-1號","121.372266666667","25.0727883333333","6501700","林口區"
"244010","657-BX","2018/07/16 08:29:23","新北市林口區中正路160號","121.392408333333","25.0774066666667","6501700","林口區"
"244024","837-TS","2018/07/16 08:29:20","新北市林口區文化三路一段225巷13號","121.361821666667","25.0713583333333","6501700","林口區"
"244020","838-TS","2018/07/16 08:29:15","新北市林口區自強四街1號","121.398716666667","25.0769233333333","6501700","林口區"
"222006","289-BY","2018/07/16 08:29:19","新北市深坑區萬福路102號","121.612576666667","25.0147983333333","6501800","深坑區"
"231007","189-VK","2018/07/16 08:29:16","新北市新店區新潭路二段66號","121.521181666667","24.92624","6500600","新店區"
"231008","192-VK","2018/07/16 08:29:15","新北市新店區桂山路51巷6-1號","121.561998333333","24.90154","6500600","新店區"
"235001","611-BX","2018/07/16 08:29:28","新北市中和區員山路314巷7弄10號","121.482026666667","25.003335","6500300","中和區"
"226005","5620-A6","2018/07/16 08:29:25","新北市平溪區南山里六分11號","121.797588333333","25.0498466666667","6502400","平溪區"
"226001","7418-A5","2018/07/16 08:29:12","新北市平溪區東勢里芊蓁林48-1號","121.751663333333","25.0102966666667","6502400","平溪區"
"226003","AGD-0702","2018/07/16 08:29:21","新北市平溪區新寮里月桃寮路3-7號","121.78511","25.0519016666667","6502400","平溪區"
"223006","022-BY","2018/07/16 08:29:31","新北市石碇區碇坪路一段2號","121.651585","25.00629","6501900","石碇區"
"223002","KEA-2673","2018/07/16 08:29:22","新北市石碇區月扇湖1號","121.657573333333","24.9550233333333","6501900","石碇區"
"223003","205-TH","2018/07/16 08:29:21","新北市石碇區北宜路五段80號","121.646318333333","24.9517133333333","6501900","石碇區"
"223008","406-TH","2018/07/16 08:29:12","新北市石碇區靜安路一段194號","121.672203333333","25.00643","6501900","石碇區"
"223001","592-UM","2018/07/16 08:29:28","新北市石碇區北宜路六段塗潭巷7號","121.64643","24.933825","6501900","石碇區"
"223004","660-BX","2018/07/16 08:29:18","新北市石碇區碇坪路一段160號","121.665571666667","24.98712","6501900","石碇區"
"223007","661-BX","2018/07/16 08:29:27","新北市石碇區番子坑84-1號","121.675448333333","25.0108766666667","6501900","石碇區"
"223005","677-TV","2018/07/16 08:29:10","新北市石碇區碇坪路一段115號","121.664548333333","24.9879883333333","6501900","石碇區"
"227005","282-VK","2018/07/16 08:29:22","新北市雙溪區外柑里三叉坑8號","121.827633333333","25.0083666666667","6502500","雙溪區"
"252006","073-UM","2018/07/16 08:29:21","新北市三芝區蘭陽街13-1號","121.47354","25.2424716666667","6502100","三芝區"
"252004","249-BX","2018/07/16 08:29:21","新北市三芝區興華里楓子林45-3號","121.50147","25.2045983333333","6502100","三芝區"
"237001","159-UY","2018/07/16 08:29:28","新北市三峽區三樹路199號","121.378078333333","24.9422033333333","6500900","三峽區"
"236007","165-UM","2018/07/16 08:29:29","新北市土城區石門路95號","121.469238333333","24.9591516666667","6501300","土城區"
"236001","339-SR","2018/07/16 08:29:11","新北市土城區中央路四段260號","121.414973333333","24.9568016666667","6501300","土城區"
"236005","498-BY","2018/07/16 08:29:14","新北市土城區中央路四段47號","121.422423333333","24.9615166666667","6501300","土城區"
"242033","AAC-296","2018/07/16 08:29:23","新北市新莊區景德路402號","121.4454","25.033375","6500500","新莊區"
"242057","986-R7","2018/07/16 08:29:13","新北市新莊區壽山路160巷21號","121.417433333333","25.03194","6500500","新莊區"
"242052","751-BX","2018/07/16 08:29:27","新北市新莊區民安西路468-1號","121.431651666667","25.0079216666667","6500500","新莊區"
"242026","705-TV","2018/07/16 08:29:27","新北市新莊區思源路349號","121.460088333333","25.0503133333333","6500500","新莊區"
"242024","613-BX","2018/07/16 08:29:26","新北市新莊區五工路88號","121.45714","25.0641816666667","6500500","新莊區"
"242028","612-BX","2018/07/16 08:29:17","新北市新莊區中平路202-1號","121.444836666667","25.048825","6500500","新莊區"
"242040","566-BX","2018/07/16 08:29:19","新北市新莊區壽山路31號","121.42001","25.0286983333333","6500500","新莊區"
"242045","497-BY","2018/07/16 08:29:18","新北市新莊區福營路184號","121.431316666667","25.03079","6500500","新莊區"
"242049","442-UM","2018/07/16 08:29:31","新北市新莊區民本街29巷21號","121.429153333333","25.018935","6500500","新莊區"
"242055","440-UM","2018/07/16 08:28:53","新北市新莊區瓊林路42巷26號","121.446528333333","25.030005","6500500","新莊區"
"242035","415-TV","2018/07/16 08:29:16","新北市新莊區後港一路65巷11弄2號","121.426181666667","25.0273333333333","6500500","新莊區"
"242006","413-TV","2018/07/16 08:29:26","新北市新莊區新北大道三段7號","121.458056666667","25.0600566666667","6500500","新莊區"
"242043","400-BY","2018/07/16 08:29:21","新北市新莊區中正路730-2號","121.414816666667","25.0239866666667","6500500","新莊區"
"242022","362-BY","2018/07/16 08:29:23","新北市新莊區復興路三段117號","121.46468","25.0445433333333","6500500","新莊區"
"242059","353-BY","2018/07/16 08:29:25","新北市新莊區新樹路223號","121.435335","25.0229033333333","6500500","新莊區"
"242008","132-UY","2018/07/16 08:29:22","新北市新莊區中華路二段294號","121.452453333333","25.05384","6500500","新莊區"
"242038","133-UY","2018/07/16 08:29:24","新北市新莊區民安西路24巷14號","121.426381666667","25.02097","6500500","新莊區"
"242030","135-UY","2018/07/16 08:29:18","新北市新莊區新泰路277巷71號","121.442931666667","25.0400366666667","6500500","新莊區"
"242047","172-VK","2018/07/16 08:29:14","新北市新莊區後港二路14號","121.422733333333","25.0238066666667","6500500","新莊區"
"242016","175-VK","2018/07/16 08:29:31","新北市新莊區永樂街49號","121.45135","25.044985","6500500","新莊區"
"242003","176-VK","2018/07/16 08:29:28","新北市新莊區自由街36號","121.455955","25.0464333333333","6500500","新莊區"
"242014","346-TH","2018/07/16 08:29:22","新北市新莊區中和街59巷8號","121.446961666667","25.046985","6500500","新莊區"
"242010","347-TH","2018/07/16 08:29:20","新北市新莊區中信街86號","121.447925","25.0532916666667","6500500","新莊區"
"242020","348-TH","2018/07/16 08:29:23","新北市新莊區建興街52-1號","121.450028333333","25.03799","6500500","新莊區"
"242001","349-TH","2018/07/16 08:29:23","新北市新莊區新莊路80號","121.457198333333","25.0365166666667","6500500","新莊區"
"242012","351-TH","2018/07/16 08:29:08","新北市新莊區中和街82巷1號","121.447901666667","25.0464366666667","6500500","新莊區"
"242018","281-VK","2018/07/16 08:29:22","新北市新莊區民樂街20巷2號","121.457776666667","25.0402316666667","6500500","新莊區"
