"lineid","car","time","location","longitude","latitude","cityid","cityname"
"248005","653-BX","2018/07/16 08:39:20","新北市五股區明德路12巷3號","121.433296666667","25.0718","6501500","五股區"
"232001","290-BY","2018/07/16 08:39:17","新北市坪林區九芎坑13號","121.736036666667","24.9506983333333","6502000","坪林區"
"232012","291-BY","2018/07/16 08:39:23","新北市坪林區金瓜寮24-2號","121.680238333333","24.9080216666667","6502000","坪林區"
"232017","705-BZ","2018/07/16 08:30:20","新北市坪林區中心崙14號","121.772963333333","24.9446566666667","6502000","坪林區"
"232005","758-BX","2018/07/16 08:39:10","新北市坪林區鶯子瀨3-7號","121.705931666667","24.9141283333333","6502000","坪林區"
"244006","080-UY","2018/07/16 08:39:20","新北市林口區林口路206號","121.387136666667","25.083335","6501700","林口區"
"244001","248-BX","2018/07/16 08:39:13","新北市林口區嘉溪雅坑18號","121.340108333333","25.1076816666667","6501700","林口區"
"244018","403-UM","2018/07/16 08:39:28","新北市林口區公園路203號","121.372688333333","25.0728233333333","6501700","林口區"
"244012","742-UY","2018/07/16 08:39:13","新北市林口區中山路156-1號","121.390826666667","25.0787983333333","6501700","林口區"
"244008","410-SL","2018/07/16 08:39:24","新北市林口區寶林路11號","121.386416666667","25.0838","6501700","林口區"
"244022","483-VK","2018/07/16 08:39:14","新北市林口區東明一街142巷16號","121.389875","25.0712816666667","6501700","林口區"
"244016","485-VK","2018/07/16 08:39:09","新北市林口區文化二路一段256號","121.370643333333","25.073435","6501700","林口區"
"244010","657-BX","2018/07/16 08:39:23","新北市林口區中正路43號","121.395695","25.07748","6501700","林口區"
"244024","837-TS","2018/07/16 08:39:20","新北市林口區文化三路一段39巷96號","121.359033333333","25.066965","6501700","林口區"
"244020","838-TS","2018/07/16 08:39:25","新北市林口區自強一街38號","121.399065","25.077685","6501700","林口區"
"222006","289-BY","2018/07/16 08:39:19","新北市深坑區深南路220號","121.624245","25.0170216666667","6501800","深坑區"
"231007","189-VK","2018/07/16 08:39:16","新北市新店區新潭路三段112巷11號","121.50931","24.9089666666667","6500600","新店區"
"231008","192-VK","2018/07/16 08:39:15","新北市新店區新烏路三段165巷22號","121.552826666667","24.9012166666667","6500600","新店區"
"235001","611-BX","2018/07/16 08:39:08","新北市中和區民安街53號","121.479475","24.9998866666667","6500300","中和區"
"226005","5620-A6","2018/07/16 08:39:25","新北市平溪區南山里南山坪126號","121.785383333333","25.0464883333333","6502400","平溪區"
"226001","7418-A5","2018/07/16 08:39:12","新北市平溪區東勢里番仔坑16號","121.755908333333","24.9916333333333","6502400","平溪區"
"226003","AGD-0702","2018/07/16 08:39:21","新北市平溪區新寮里石碣11號","121.787915","25.05739","6502400","平溪區"
"223006","022-BY","2018/07/16 08:39:10","新北市深坑區昇高坑路34號","121.6279","24.999525","6501900","石碇區"
"223002","KEA-2673","2018/07/16 08:39:22","新北市石碇區蛇舌子3號","121.665138333333","24.9675433333333","6501900","石碇區"
"223003","205-TH","2018/07/16 08:39:21","新北市石碇區北宜路六段塗潭巷27號","121.648975","24.9326566666667","6501900","石碇區"
"223008","406-TH","2018/07/16 08:39:18","新北市石碇區碇南路二段松柏崎巷33-1號","121.67705","25.021945","6501900","石碇區"
"223001","592-UM","2018/07/16 08:39:08","新北市石碇區北宜路六段小金瓜寮巷2-1號","121.656301666667","24.9356866666667","6501900","石碇區"
"223004","660-BX","2018/07/16 08:39:18","新北市石碇區崩山14號","121.67379","24.9729583333333","6501900","石碇區"
"223007","661-BX","2018/07/16 08:39:27","新北市石碇區碇南路二段松柏崎巷12-1號","121.676078333333","25.0180383333333","6501900","石碇區"
"223005","677-TV","2018/07/16 08:39:29","新北市石碇區崩山33-1號","121.67711","24.9655516666667","6501900","石碇區"
"227005","282-VK","2018/07/16 08:39:22","新北市雙溪區外柑里三叉坑12號","121.830746666667","25.0008833333333","6502500","雙溪區"
"252006","073-UM","2018/07/16 08:39:21","新北市三芝區後厝里北勢子7-10號","121.477445","25.2542933333333","6502100","三芝區"
"252004","249-BX","2018/07/16 08:39:01","新北市三芝區興華里楓子林38號","121.490731666667","25.2079","6502100","三芝區"
"237001","159-UY","2018/07/16 08:39:09","新北市樹林區學勤路200號","121.377363333333","24.94694","6500900","三峽區"
"236007","165-UM","2018/07/16 08:39:09","新北市土城區石門路67-9號","121.458895","24.95898","6501300","土城區"
"236001","339-SR","2018/07/16 08:39:31","新北市土城區中山路19號","121.418076666667","24.9623083333333","6501300","土城區"
"236005","498-BY","2018/07/16 08:39:14","新北市土城區永和街42巷9號","121.434433333333","24.960045","6501300","土城區"
"242033","AAC-296","2018/07/16 08:39:23","新北市新莊區景德路233號","121.448833333333","25.033565","6500500","新莊區"
"242057","986-R7","2018/07/16 08:39:13","新北市新莊區中正路742-2號","121.41353","25.0229133333333","6500500","新莊區"
"242052","751-BX","2018/07/16 08:39:27","新北市新莊區光華街4號","121.428673333333","25.0106016666667","6500500","新莊區"
"242026","705-TV","2018/07/16 08:39:27","新北市新莊區中華路二段126號","121.452995","25.0492383333333","6500500","新莊區"
"242024","613-BX","2018/07/16 08:39:26","新北市新莊區五工三路94巷32號","121.459206666667","25.0664933333333","6500500","新莊區"
"242028","612-BX","2018/07/16 08:39:17","新北市新莊區中平路298號","121.444833333333","25.05167","6500500","新莊區"
"242040","566-BX","2018/07/16 08:39:19","新北市新莊區天祥街121巷19號","121.414263333333","25.028945","6500500","新莊區"
"242045","497-BY","2018/07/16 08:39:18","新北市新莊區民安路31號","121.423291666667","25.0275483333333","6500500","新莊區"
"242049","442-UM","2018/07/16 08:39:28","新北市新莊區民本街13號","121.427955","25.0199116666667","6500500","新莊區"
"242055","440-UM","2018/07/16 08:39:15","新北市新莊區豐年街豐2巷17號","121.447293333333","25.0308583333333","6500500","新莊區"
"242035","415-TV","2018/07/16 08:39:16","新北市新莊區後港一路18號","121.42487","25.0259016666667","6500500","新莊區"
"242006","413-TV","2018/07/16 08:39:18","新北市新莊區中原路2號","121.458423333333","25.0563066666667","6500500","新莊區"
"242043","400-BY","2018/07/16 08:39:21","新北市新莊區鳳山街52號","121.414255","25.0257366666667","6500500","新莊區"
"242022","362-BY","2018/07/16 08:39:23","新北市新莊區化成路386號","121.4659","25.05026","6500500","新莊區"
"242059","353-BY","2018/07/16 08:39:10","新北市新莊區後港一路160號","121.430756666667","25.027565","6500500","新莊區"
"242008","132-UY","2018/07/16 08:39:22","新北市新莊區中華路二段258巷1號","121.453143333333","25.0532066666667","6500500","新莊區"
"242038","133-UY","2018/07/16 08:39:24","新北市新莊區民安西路38巷21號","121.426653333333","25.02061","6500500","新莊區"
"242030","135-UY","2018/07/16 08:39:17","新北市新莊區新泰路255巷42號","121.444433333333","25.0397366666667","6500500","新莊區"
"242047","172-VK","2018/07/16 08:38:54","新北市新莊區民安路47號","121.42379","25.0263266666667","6500500","新莊區"
"242016","175-VK","2018/07/16 08:39:17","新北市新莊區中港路366號","121.452068333333","25.04709","6500500","新莊區"
"242003","176-VK","2018/07/16 08:39:28","新北市新莊區思源路50號","121.460575","25.04399","6500500","新莊區"
"242014","346-TH","2018/07/16 08:39:22","新北市新莊區中和街125巷5號","121.447045","25.0485716666667","6500500","新莊區"
"242010","347-TH","2018/07/16 08:39:20","新北市新莊區中港路591巷36號","121.449565","25.0523383333333","6500500","新莊區"
"242020","348-TH","2018/07/16 08:39:23","新北市新莊區新興街42號","121.450783333333","25.0372583333333","6500500","新莊區"
"242001","349-TH","2018/07/16 08:39:20","新北市新莊區碧江街27-7號","121.452701666667","25.033325","6500500","新莊區"
"242012","351-TH","2018/07/16 08:39:08","新北市新莊區中誠街69巷3號","121.450788333333","25.0475816666667","6500500","新莊區"
"242018","281-VK","2018/07/16 08:39:18","新北市新莊區中華路一段136巷26號","121.453486666667","25.0412783333333","6500500","新莊區"
