"lineid","car","time","location","longitude","latitude","cityid","cityname"
"248005","653-BX","2018/07/16 08:59:20","新北市五股區明德路12巷3號","121.433305","25.0718083333333","6501500","五股區"
"232012","291-BY","2018/07/16 08:59:23","新北市坪林區北宜路七段338號","121.696868333333","24.9348966666667","6502000","坪林區"
"232017","705-BZ","2018/07/16 08:59:20","新北市坪林區鷺鶿岫4-1號","121.787176666667","24.9566283333333","6502000","坪林區"
"232005","758-BX","2018/07/16 08:59:30","新北市坪林區石9-2號","121.708688333333","24.9080316666667","6502000","坪林區"
"244006","080-UY","2018/07/16 08:59:20","新北市林口區林口路188號","121.387485","25.0828383333333","6501700","林口區"
"244018","403-UM","2018/07/16 08:59:28","新北市林口區麗園路167號","121.371563333333","25.0669216666667","6501700","林口區"
"244012","742-UY","2018/07/16 08:59:13","新北市林口區中山路303號","121.383873333333","25.080295","6501700","林口區"
"244008","410-SL","2018/07/16 08:59:24","新北市林口區文化二路二段126號","121.379988333333","25.082825","6501700","林口區"
"244022","483-VK","2018/07/16 08:59:14","新北市林口區東湖路93巷75號","121.385191666667","25.0715","6501700","林口區"
"244016","485-VK","2018/07/16 08:59:29","新北市林口區八德路48巷17號","121.366868333333","25.066885","6501700","林口區"
"244010","657-BX","2018/07/16 08:59:23","新北市林口區興林路17巷5弄2號","121.390616666667","25.0769833333333","6501700","林口區"
"244024","837-TS","2018/07/16 08:59:20","新北市林口區南勢四街328號","121.357488333333","25.0761583333333","6501700","林口區"
"244020","838-TS","2018/07/16 08:59:15","新北市林口區工六路17號","121.400145","25.07755","6501700","林口區"
"222006","289-BY","2018/07/16 08:59:19","新北市深坑區大坪街19號","121.630721666667","25.02085","6501800","深坑區"
"231007","189-VK","2018/07/16 08:59:16","新北市新店區新潭路三段215巷25號","121.508116666667","24.9040616666667","6500600","新店區"
"231008","192-VK","2018/07/16 08:59:15","新北市新店區廣興路25號","121.540416666667","24.9116316666667","6500600","新店區"
"235001","611-BX","2018/07/16 08:59:08","新北市中和區華福街2巷1號","121.465255","24.99683","6500300","中和區"
"226001","7418-A5","2018/07/16 08:51:12","新北市平溪區東勢里番仔坑16號","121.754471666667","24.991105","6502400","平溪區"
"226003","AGD-0702","2018/07/16 08:59:21","新北市平溪區十分里十分街236號","121.778166666667","25.0440933333333","6502400","平溪區"
"223006","022-BY","2018/07/16 08:59:21","新北市深坑區昇高坑路15號","121.624178333333","25.00071","6501900","石碇區"
"223002","KEA-2673","2018/07/16 08:59:22","新北市石碇區員潭子坑14號","121.645571666667","24.9897333333333","6501900","石碇區"
"223003","205-TH","2018/07/16 08:59:21","新北市石碇區北宜路六段水底寮巷18號","121.662625","24.9419316666667","6501900","石碇區"
"223008","406-TH","2018/07/16 08:59:12","新北市石碇區光明路13號","121.680053333333","25.0336083333333","6501900","石碇區"
"223001","592-UM","2018/07/16 08:59:28","新北市石碇區北宜路六段水底寮巷9號","121.664741666667","24.9477","6501900","石碇區"
"223004","660-BX","2018/07/16 08:59:18","新北市石碇區崩山46號","121.68034","24.968535","6501900","石碇區"
"223007","661-BX","2018/07/16 08:59:27","新北市石碇區碇南路二段鹿窟巷2號","121.674191666667","25.0306366666667","6501900","石碇區"
"223005","677-TV","2018/07/16 08:59:09","新北市石碇區崩山57-3號","121.682851666667","24.9668","6501900","石碇區"
"227005","282-VK","2018/07/16 08:59:22","新北市雙溪區泰平里料角坑3號","121.822935","24.9702033333333","6502500","雙溪區"
"252006","073-UM","2018/07/16 08:59:21","新北市三芝區古庄里四棧橋18-3號","121.490091666667","25.2607483333333","6502100","三芝區"
"252004","249-BX","2018/07/16 08:59:21","新北市三芝區興華里田心子31號","121.488816666667","25.200475","6502100","三芝區"
"237001","159-UY","2018/07/16 08:59:28","新北市三峽區大義路398號","121.376083333333","24.949435","6500900","三峽區"
"236007","165-UM","2018/07/16 08:59:28","新北市土城區金城路二段58號","121.452018333333","24.9796516666667","6501300","土城區"
"236001","339-SR","2018/07/16 08:59:11","新北市土城區中央路三段185號","121.431065","24.965075","6501300","土城區"
"236005","498-BY","2018/07/16 08:59:14","新北市土城區承天路15號","121.436305","24.9658366666667","6501300","土城區"
"242033","AAC-296","2018/07/16 08:59:23","新北市新莊區建中街90巷1弄19號","121.445991666667","25.03678","6500500","新莊區"
"242057","986-R7","2018/07/16 08:59:13","新北市新莊區富國路115號","121.423656666667","25.0248216666667","6500500","新莊區"
"242052","751-BX","2018/07/16 08:59:27","新北市新莊區西盛街436號","121.426853333333","25.01179","6500500","新莊區"
"242026","705-TV","2018/07/16 08:59:27","新北市新莊區立信三街73號","121.444066666667","25.0510566666667","6500500","新莊區"
"242024","613-BX","2018/07/16 08:59:26","新北市新莊區五工三路78巷1號","121.459025","25.0652466666667","6500500","新莊區"
"242028","612-BX","2018/07/16 08:59:17","新北市新莊區中原路112號","121.450463333333","25.0543983333333","6500500","新莊區"
"242040","566-BX","2018/07/16 08:59:19","新北市新莊區青山路一段26號","121.410931666667","25.0275816666667","6500500","新莊區"
"242045","497-BY","2018/07/16 08:59:18","新北市新莊區富國路80號","121.420103333333","25.0258766666667","6500500","新莊區"
"242049","442-UM","2018/07/16 08:59:31","新北市新莊區民安西路214號","121.425843333333","25.0148066666667","6500500","新莊區"
"242055","440-UM","2018/07/16 08:59:13","新北市新莊區瓊林路13-8號","121.44823","25.0302766666667","6500500","新莊區"
"242035","415-TV","2018/07/16 08:59:16","新北市新莊區建安街23號","121.42904","25.026045","6500500","新莊區"
"242006","413-TV","2018/07/16 08:59:22","新北市新莊區思源路287巷1弄21號","121.459355","25.0474766666667","6500500","新莊區"
"242043","400-BY","2018/07/16 08:59:21","新北市新莊區新北大道七段776巷10號","121.412038333333","25.0252283333333","6500500","新莊區"
"242022","362-BY","2018/07/16 08:59:23","新北市新莊區化成路934號","121.464748333333","25.0623383333333","6500500","新莊區"
"242059","353-BY","2018/07/16 08:59:29","新北市新莊區民安路357號","121.431276666667","25.023015","6500500","新莊區"
"242008","132-UY","2018/07/16 08:59:22","新北市新莊區昌隆街76號","121.455513333333","25.0508633333333","6500500","新莊區"
"242038","133-UY","2018/07/16 08:59:24","新北市新莊區民安路274號","121.42767","25.0213833333333","6500500","新莊區"
"242030","135-UY","2018/07/16 08:59:18","新北市新莊區公園一路139號","121.446343333333","25.0382416666667","6500500","新莊區"
"242047","172-VK","2018/07/16 08:59:14","新北市新莊區富國路109巷2號","121.423718333333","25.025105","6500500","新莊區"
"242016","175-VK","2018/07/16 08:59:30","新北市新莊區中港三街46號","121.44982","25.046345","6500500","新莊區"
"242003","176-VK","2018/07/16 08:59:28","新北市新莊區化成路63巷24弄23號","121.462508333333","25.0458866666667","6500500","新莊區"
"242014","346-TH","2018/07/16 08:59:26","新北市新莊區中和街31巷30號","121.447018333333","25.0438433333333","6500500","新莊區"
"242010","347-TH","2018/07/16 08:59:22","新北市新莊區中和街204巷3號","121.447976666667","25.05033","6500500","新莊區"
"242020","348-TH","2018/07/16 08:59:23","新北市新莊區建中街48巷6弄1號","121.448328333333","25.0378033333333","6500500","新莊區"
"242001","349-TH","2018/07/16 08:59:23","新北市新莊區中正路143號","121.459755","25.0384083333333","6500500","新莊區"
"242012","351-TH","2018/07/16 08:59:31","新北市新莊區中和街186巷9號","121.447943333333","25.0498233333333","6500500","新莊區"
"242018","281-VK","2018/07/16 08:59:18","新北市新莊區復興路二段185號","121.45907","25.04453","6500500","新莊區"
