"lineid","car","time","location","longitude","latitude","cityid","cityname"
"248005","653-BX","2018/07/16 09:39:20","新北市五股區成泰路一段87號","121.434866666667","25.068815","6501500","五股區"
"244018","403-UM","2018/07/16 09:39:28","新北市林口區麗園二街33巷10號","121.380551666667","25.0697333333333","6501700","林口區"
"244012","742-UY","2018/07/16 09:39:12","新北市林口區麗園一街4巷1號","121.376098333333","25.070965","6501700","林口區"
"244008","410-SL","2018/07/16 09:39:24","新北市林口區竹林路446巷2弄7號","121.388453333333","25.08565","6501700","林口區"
"244022","483-VK","2018/07/16 09:39:14","新北市林口區民享路36號","121.380695","25.0807166666667","6501700","林口區"
"244016","485-VK","2018/07/16 09:39:29","新北市林口區文化二路一段20巷49號","121.365348333333","25.06657","6501700","林口區"
"244020","838-TS","2018/07/16 09:39:15","新北市林口區粉寮路二段160巷28號","121.405186666667","25.0907533333333","6501700","林口區"
"222006","289-BY","2018/07/16 09:39:19","新北市深坑區北深路一段278巷16號","121.629026666667","25.0106216666667","6501800","深坑區"
"231007","189-VK","2018/07/16 09:39:16","新北市新店區新潭路三段215巷25號","121.508135","24.9040566666667","6500600","新店區"
"231008","192-VK","2018/07/16 09:39:15","新北市新店區平廣路一段111號","121.528483333333","24.89607","6500600","新店區"
"223003","205-TH","2018/07/16 09:39:21","新北市石碇區北宜路四段30號","121.624371666667","24.9564383333333","6501900","石碇區"
"223008","406-TH","2018/07/16 09:36:12","新北市石碇區南勢坑2-3號","121.6997","24.9907233333333","6501900","石碇區"
"223001","592-UM","2018/07/16 09:39:28","新北市石碇區北宜路1-2號","121.612351666667","24.9594516666667","6501900","石碇區"
"223007","661-BX","2018/07/16 09:39:27","新北市石碇區南勢坑12號","121.69893","24.98264","6501900","石碇區"
"227005","282-VK","2018/07/16 09:36:02","新北市雙溪區泰平里溪尾寮2-2號","121.819255","24.964325","6502500","雙溪區"
"252004","249-BX","2018/07/16 09:39:21","新北市三芝區福德里大水堀31號","121.509733333333","25.2168033333333","6502100","三芝區"
"252006","AAC-283","2018/07/16 09:39:31","新北市三芝區新庄里新庄子95-9號","121.514003333333","25.2743233333333","6502100","三芝區"
"237001","159-UY","2018/07/16 09:39:08","新北市三峽區國學街36號","121.373183333333","24.9423733333333","6500900","三峽區"
"236001","339-SR","2018/07/16 09:39:10","新北市土城區學府路一段99巷8-1號","121.456676666667","24.986855","6501300","土城區"
"236005","498-BY","2018/07/16 09:39:14","新北市土城區中央路三段1號","121.439841666667","24.9706066666667","6501300","土城區"
"242033","AAC-296","2018/07/16 09:38:23","新北市新莊區新泰路101巷29號","121.448406666667","25.03451","6500500","新莊區"
"242057","986-R7","2018/07/16 09:39:13","新北市新莊區四維路149號","121.422653333333","25.0221216666667","6500500","新莊區"
"242024","613-BX","2018/07/16 09:39:26","新北市新莊區新泰路528號","121.442096666667","25.047005","6500500","新莊區"
"242055","440-UM","2018/07/16 09:39:27","新北市新莊區瓊泰路60號","121.443448333333","25.028635","6500500","新莊區"
"242043","400-BY","2018/07/16 09:39:21","新北市新莊區龍安路74號","121.416973333333","25.0210316666667","6500500","新莊區"
"242059","353-BY","2018/07/16 09:39:20","新北市新莊區新樹路244巷27號","121.431466666667","25.0185733333333","6500500","新莊區"
"242038","133-UY","2018/07/16 09:39:24","新北市新莊區瓊林北路27號","121.43913","25.021905","6500500","新莊區"
"242030","135-UY","2018/07/16 09:39:17","新北市新莊區三和路8-9號","121.44086","25.0360066666667","6500500","新莊區"
"242003","176-VK","2018/07/16 09:39:28","新北市新莊區化成路387號","121.465391666667","25.0583833333333","6500500","新莊區"
"242001","349-TH","2018/07/16 09:39:23","新北市新莊區中港路五守新村16巷2號","121.454765","25.03893","6500500","新莊區"
"242018","281-VK","2018/07/16 09:39:18","新北市樹林區八德街816號","121.394796666667","24.968765","6500500","新莊區"
