"lineid","car","time","location","longitude","latitude","cityid","cityname"
"234070","149-BY","2018/07/16 11:24:12","新北市中和區興南路三段47巷32-6號","121.497038333333","24.9778633333333","6500400","永和區"
"244019","403-UM","2018/07/16 11:39:28","新北市林口區粉寮69號","121.405043333333","25.0908716666667","6501700","林口區"
"231008","192-VK","2018/07/16 11:39:35","新北市新店區頂石厝路8號","121.5402","24.9195566666667","6500600","新店區"
"235029","098-UM","2018/07/16 11:39:19","新北市中和區員山路36巷16-3號","121.485105","24.991255","6500300","中和區"
"227005","282-VK","2018/07/16 11:39:22","新北市雙溪區魚行里丁子蘭坑6-2號","121.871313333333","25.013585","6502500","雙溪區"
