"lineid","car","time","location","longitude","latitude","cityid","cityname"
"234070","149-BY","2018/07/16 11:24:12","新北市中和區興南路三段47巷32-6號","121.497038333333","24.9778633333333","6500400","永和區"
"244019","403-UM","2018/07/16 11:49:28","新北市林口區粉寮69號","121.40505","25.09087","6501700","林口區"
"231008","192-VK","2018/07/16 11:49:15","新北市新店區頂石厝路8號","121.540165","24.9195616666667","6500600","新店區"
"235029","098-UM","2018/07/16 11:49:19","新北市中和區員山路36巷16-3號","121.485185","24.9912883333333","6500300","中和區"
"227005","282-VK","2018/07/16 11:49:22","新北市雙溪區魚行里丁子蘭坑47號","121.865996666667","24.9989883333333","6502500","雙溪區"
