"lineid","car","time","location","longitude","latitude","cityid","cityname"
"234044","148-BY","2018/07/16 13:39:23","新北市永和區永元路68號","121.522601666667","25.00157","6500400","永和區"
"234005","207-UY","2018/07/16 13:39:28","新北市永和區自強街2號","121.514043333333","25.0081333333333","6500400","永和區"
"234078","298-R6","2018/07/16 13:39:35","新北市永和區國中路104巷11號","121.524643333333","25.00715","6500400","永和區"
"234036","336-UY","2018/07/16 13:39:33","新北市永和區民樂街31巷8弄1號","121.528065","25.001125","6500400","永和區"
"234062","337-UY","2018/07/16 13:39:24","新北市永和區秀朗路一段192巷6弄12號","121.519071666667","25.0023783333333","6500400","永和區"
"234068","552-UM","2018/07/16 13:39:26","新北市永和區永和路二段237-1號","121.515673333333","25.0144883333333","6500400","永和區"
"234084","553-UM","2018/07/16 13:39:19","新北市永和區永亨路122號","121.524416666667","25.003925","6500400","永和區"
"234015","745-BX","2018/07/16 13:39:33","新北市永和區環河西路一段1號","121.515158333333","25.017905","6500400","永和區"
"234028","746-BX","2018/07/16 13:39:17","新北市永和區民權路1巷10號","121.520863333333","24.9983416666667","6500400","永和區"
"234052","KEA-2590","2018/07/16 13:39:37","新北市永和區竹林路39巷18號","121.518718333333","25.0146366666667","6500400","永和區"
"234012","KEA-2591","2018/07/16 13:39:32","新北市永和區永平路238巷1弄1號","121.508838333333","25.0112666666667","6500400","永和區"
"234060","AAD-866","2018/07/16 13:39:18","新北市永和區中正路446號","121.517395","25.0028333333333","6500400","永和區"
"234066","847-RS","2018/07/16 13:39:25","新北市永和區中山路一段191巷7弄1號","121.509531666667","25.0083766666667","6500400","永和區"
"234040","862-TW","2018/07/16 13:39:24","新北市永和區中和路603號","121.51242","25.0042766666667","6500400","永和區"
"234048","863-TW","2018/07/16 13:39:29","新北市永和區保安路102號","121.509466666667","25.0159","6500400","永和區"
"234025","9371-KE","2018/07/16 13:39:20","新北市永和區和平街95巷23號","121.51109","25.0089616666667","6500400","永和區"
"234010","9373-KE","2018/07/16 13:39:24","新北市永和區保福路二段15巷11號","121.510515","25.01094","6500400","永和區"
"248013","025-BX","2018/07/16 13:39:18","新北市五股區中興路四段67-2號","121.436956666667","25.0833783333333","6501500","五股區"
"248015","026-BX","2018/07/16 13:39:37","新北市五股區凌雲路一段149巷42號","121.448658333333","25.1009433333333","6501500","五股區"
"248005","077-UY","2018/07/16 13:39:26","新北市五股區中興路一段29號","121.468816666667","25.0723183333333","6501500","五股區"
"248007","095-VK","2018/07/16 13:39:37","新北市五股區中興路一段148號","121.464651666667","25.0740466666667","6501500","五股區"
"248019","225-UY","2018/07/16 13:39:11","新北市五股區凌雲路三段田埔巷14-3號","121.435883333333","25.12155","6501500","五股區"
"248011","247-BX","2018/07/16 13:39:19","新北市五股區成泰路三段2巷3號","121.440946666667","25.086455","6501500","五股區"
"248003","677-BX","2018/07/16 13:39:27","新北市五股區民義路一段244號","121.426318333333","25.0924083333333","6501500","五股區"
"248001","678-BX","2018/07/16 13:39:31","新北市五股區西雲路233號","121.448975","25.0974716666667","6501500","五股區"
"248009","682-TV","2018/07/16 13:39:28","新北市五股區水碓七路170號","121.43107","25.0740233333333","6501500","五股區"
"234076","969-R7","2018/07/16 13:39:32","新北市永和區得和路233-2號","121.520116666667","25.000225","6500400","永和區"
"234072","AAC-211","2018/07/16 13:39:27","新北市永和區竹林路213巷32號","121.52254","25.0089733333333","6500400","永和區"
"234001","AAC-295","2018/07/16 13:39:34","新北市永和區秀朗路一段22號","121.514098333333","25.0067716666667","6500400","永和區"
"244001","248-BX","2018/07/16 13:39:15","新北市林口區瑞樹坑59-1號","121.342945","25.12609","6501700","林口區"
"243002","267-VK","2018/07/16 13:39:17","新北市泰山區黎明路33號","121.421681666667","25.0604133333333","6501600","泰山區"
"243005","AAD-798","2018/07/16 13:24:59","新北市泰山區明志路三段206巷3號","121.42331","25.0379266666667","6501600","泰山區"
"243008","380-SR","2018/07/16 13:39:26","新北市泰山區黎明路25號","121.422245","25.0606566666667","6501600","泰山區"
"243003","KEA-2215","2018/07/16 13:39:22","新北市泰山區黎明路25號","121.422141666667","25.0607783333333","6501600","泰山區"
"243004","646-TV","2018/07/16 13:39:27","新北市泰山區泰林路二段282號","121.431371666667","25.0624716666667","6501600","泰山區"
"231002","002-UM","2018/07/16 13:39:34","新北市新店區中央三街127號","121.524021666667","24.9768","6500600","新店區"
"231027","0291-UT","2018/07/16 13:39:27","新北市新店區新店後街8號","121.537911666667","24.9530233333333","6500600","新店區"
"231028","046-UY","2018/07/16 13:39:22","新北市新店區安和路一段6-2號","121.517131666667","24.9648316666667","6500600","新店區"
"231001","047-UY","2018/07/16 13:39:33","新北市新店區中正路379號","121.534765","24.9768166666667","6500600","新店區"
"231005","106-UY","2018/07/16 13:39:25","新北市新店區寶中路72號","121.547893333333","24.9806516666667","6500600","新店區"
"231010","107-UY","2018/07/16 13:39:29","新北市新店區平等街48巷17號","121.53533","24.9734766666667","6500600","新店區"
"231036","110-UY","2018/07/16 13:39:28","新北市新店區安祥路156巷39號","121.474678333333","24.9543633333333","6500600","新店區"
"231011","187-VK","2018/07/16 13:39:25","新北市新店區德正街23巷1號","121.544178333333","24.9719416666667","6500600","新店區"
"231023","KEA-2219","2018/07/16 13:39:16","新北市新店區新店路140號","121.537126666667","24.9552516666667","6500600","新店區"
"231026","256-BX","2018/07/16 13:39:31","新北市新店區中正路111號","121.542485","24.9705133333333","6500600","新店區"
"231003","268-BY","2018/07/16 13:39:30","新北市新店區中正路30號","121.54501","24.9697633333333","6500600","新店區"
"231018","278-BY","2018/07/16 13:39:26","新北市新店區百忍街31號","121.53366","24.9756833333333","6500600","新店區"
"231014","AAD-862","2018/07/16 13:39:24","新北市新店區竹林路2巷27弄11號","121.550971666667","24.95083","6500600","新店區"
"231004","355-BY","2018/07/16 13:39:32","新北市新店區北新路二段40號","121.542911666667","24.97157","6500600","新店區"
"231038","3712-VJ","2018/07/16 13:39:32","新北市新店區安華路28-1號","121.519226666667","24.96067","6500600","新店區"
"231037","4716-K9","2018/07/16 13:39:29","新北市新店區薏仁坑路53-1號","121.4912","24.963755","6500600","新店區"
"231025","4715-K9","2018/07/16 13:39:34","新北市新店區中央六街56號","121.527948333333","24.97571","6500600","新店區"
"231013","513-UM","2018/07/16 13:39:32","新北市新店區中正路454-5號","121.53442","24.9790566666667","6500600","新店區"
"231034","616-UM","2018/07/16 13:39:31","新北市新店區車子路162號","121.504533333333","24.946135","6500600","新店區"
"231006","617-UM","2018/07/16 13:39:34","新北市新店區北宜路一段97號","121.539096666667","24.95545","6500600","新店區"
"231030","619-UM","2018/07/16 13:39:26","新北市新店區安康路一段226號","121.523546666667","24.9636","6500600","新店區"
"231035","719-UM","2018/07/16 13:39:21","新北市新店區安忠路56巷6號","121.513026666667","24.9593766666667","6500600","新店區"
"231019","719-UY","2018/07/16 13:39:21","新北市新店區永興路88-1號","121.54399","24.933715","6500600","新店區"
"231031","720-UM","2018/07/16 13:39:22","新北市新店區安康路一段147號","121.527661666667","24.9621033333333","6500600","新店區"
"231029","897-TW","2018/07/16 13:39:34","新北市新店區安康路二段214號","121.509923333333","24.9593916666667","6500600","新店區"
"231024","AKT-0513","2018/07/16 13:39:23","新北市新店區中華路47巷2弄1號","121.53968","24.9675","6500600","新店區"
"235030","003-UY","2018/07/16 13:39:26","新北市中和區水源路24號","121.504353333333","25.0035","6500300","中和區"
"235028","005-UY","2018/07/16 13:39:34","新北市中和區連城路109巷3號","121.496611666667","24.99924","6500300","中和區"
"235027","006-UY","2018/07/16 13:39:25","新北市中和區中正路700號","121.486163333333","24.9963716666667","6500300","中和區"
"235020","096-UM","2018/07/16 13:39:33","新北市中和區新民街92號","121.481248333333","25.008275","6500300","中和區"
"235003","097-UM","2018/07/16 13:39:30","新北市中和區景平路278巷16弄4號","121.514183333333","24.9933416666667","6500300","中和區"
"235029","098-UM","2018/07/16 13:39:19","新北市中和區莊敬路33巷44號","121.500351666667","25.00688","6500300","中和區"
"235004","150-BY","2018/07/16 13:39:28","新北市中和區安平路59號","121.509456666667","24.9952483333333","6500300","中和區"
"235022","151-BY","2018/07/16 13:39:34","新北市中和區圓通路369巷39號","121.48976","24.985965","6500300","中和區"
"235019","183-VK","2018/07/16 13:39:33","新北市中和區莒光路120巷58號","121.471653333333","25.000805","6500300","中和區"
"235002","185-VK","2018/07/16 13:39:31","新北市中和區大勇街60巷22號","121.518985","24.9946666666667","6500300","中和區"
"235013","186-VK","2018/07/16 13:39:29","新北市中和區明義街11巷10弄1號","121.50379","24.9947216666667","6500300","中和區"
"235031","255-BX","2018/07/16 13:39:20","新北市中和區新生街186巷5弄27號","121.482851666667","24.99869","6500300","中和區"
"235008","293-VK","2018/07/16 13:39:17","新北市中和區復興路274巷12號","121.50279","24.990825","6500300","中和區"
"235072","301-VK","2018/07/16 13:39:22","新北市中和區員山路36巷13號","121.484005","24.9911883333333","6500300","中和區"
"235007","352-BY","2018/07/16 13:39:19","新北市中和區景平路163號","121.512438333333","24.9924633333333","6500300","中和區"
"235006","KEA-2878","2018/07/16 13:39:17","新北市中和區成功路41巷3號","121.526368333333","24.9932183333333","6500300","中和區"
"235014","4979-A6","2018/07/16 13:39:32","新北市中和區景新街496巷28弄7號","121.513446666667","24.98571","6500300","中和區"
"235033","4980-A6","2018/07/16 13:39:31","新北市中和區連城路65巷5號","121.497803333333","25.001015","6500300","中和區"
"235034","558-UM","2018/07/16 13:39:33","新北市中和區景平路612號","121.50066","24.9967916666667","6500300","中和區"
"235009","565-BX","2018/07/16 13:39:36","新北市中和區南山路236巷63弄9號","121.504083333333","24.9877116666667","6500300","中和區"
"235018","640-BX","2018/07/16 13:39:19","新北市中和區民享街54巷4號","121.473716666667","25.002425","6500300","中和區"
"235024","647-TV","2018/07/16 13:39:29","新北市中和區中山路二段628號","121.481243333333","25.005495","6500300","中和區"
"235011","732-UM","2018/07/16 13:39:15","新北市中和區南山路320巷10弄21號","121.506833333333","24.9867033333333","6500300","中和區"
"235010","733-UM","2018/07/16 13:39:20","新北市中和區南山路421巷1弄34號","121.50716","24.99056","6500300","中和區"
"235035","783-BX","2018/07/16 13:39:23","新北市中和區永和路356巷51號","121.48718","25.0142816666667","6500300","中和區"
"235026","800-TS","2018/07/16 13:39:17","新北市中和區景平路677巷5-1號","121.49632","25.0026233333333","6500300","中和區"
"235021","801-TS","2018/07/16 13:39:23","新北市中和區員山路327巷100號","121.47927","25.00239","6500300","中和區"
"235005","802-TS","2018/07/16 13:39:27","新北市中和區中安街78號","121.512046666667","25.0020316666667","6500300","中和區"
"235016","805-TS","2018/07/16 13:39:27","新北市中和區興南路三段52巷6-1號","121.493545","24.976315","6500300","中和區"
"235012","896-TW","2018/07/16 13:39:27","新北市中和區中正路81號","121.500711666667","24.99338","6500300","中和區"
"235017","900-TW","2018/07/16 13:39:21","新北市土城區延壽路77巷2號","121.469193333333","24.9927083333333","6500300","中和區"
"235015","157-BY","2018/07/16 13:39:35","新北市中和區華新街143巷106弄26號","121.506021666667","24.9788066666667","6500300","中和區"
"235001","AAC-213","2018/07/16 13:39:29","新北市中和區景德街64號","121.517093333333","24.991575","6500300","中和區"
"235023","AAC-215","2018/07/16 13:39:35","新北市中和區中正路395號","121.48998","24.99354","6500300","中和區"
"220013","072-UY","2018/07/16 13:39:33","新北市板橋區民族路151巷52號","121.470058333333","25.00851","6500100","板橋區"
"220034","073-UY","2018/07/16 13:39:21","新北市板橋區南雅西路二段175巷2號","121.45159","25.0125516666667","6500100","板橋區"
"220017","AAD-861","2018/07/16 13:39:36","新北市板橋區華東街1-10號","121.448341666667","24.9951133333333","6500100","板橋區"
"247007","056-VK","2018/07/16 13:39:21","新北市蘆洲區國道路二段105號","121.47054","25.074905","6501400","蘆洲區"
"253003","6232-TK","2018/07/16 13:39:24","新北市石門區內石門22號","121.570216666667","25.2735133333333","6502200","石門區"
"253001","6251-TK","2018/07/16 13:39:35","新北市石門區金華新城6號","121.514361666667","25.27614","6502200","石門區"
"253002","637-UY","2018/07/16 13:39:17","新北市石門區九芎林16-1號","121.565006666667","25.2601533333333","6502200","石門區"
"253004","8270-PC","2018/07/16 13:37:09","新北市石門區竹子湖13號","121.617188333333","25.25599","6502200","石門區"
"207002","749-BX","2018/07/16 13:39:31","新北市萬里區崁腳里崁腳路166號","121.645051666667","25.1558516666667","6502800","萬里區"
"252005","073-UM","2018/07/16 13:39:21","新北市三芝區圓山里內柑宅28-1號","121.53429","25.22139","6502100","三芝區"
"207001","662-BX","2018/07/16 13:39:35","新北市萬里區大鵬里萬里加投63號","121.640373333333","25.213165","6502800","萬里區"
"236024","269-VK","2018/07/16 13:39:26","新北市土城區城林路6巷80號","121.43854","24.9797483333333","6501300","土城區"
"236012","270-VK","2018/07/16 13:39:32","新北市土城區城林路6巷80號","121.438598333333","24.9797616666667","6501300","土城區"
"236005","498-BY","2018/07/16 13:39:34","新北市土城區慶祥街38號","121.437171666667","24.9747066666667","6501300","土城區"
"236040","752-BX","2018/07/16 13:39:20","新北市土城區城林路6巷80號","121.438531666667","24.97978","6501300","土城區"
"236054","AAC-216","2018/07/16 13:39:18","新北市土城區城林路6巷80號","121.43874","24.97968","6501300","土城區"
"221032","280-BY","2018/07/16 13:39:35","新北市汐止區秀峰路6巷10號","121.659151666667","25.0662633333333","6501100","汐止區"
"220028","200-UY","2018/07/16 13:39:30","新北市板橋區大觀路二段265巷76弄7號","121.442141666667","24.9965466666667","6500100","板橋區"
"220030","610-BX","2018/07/16 13:39:35","新北市板橋區篤行路一段29號","121.43206","24.9945416666667","6500100","板橋區"
"220056","276-BY","2018/07/16 13:39:27","新北市板橋區四川路二段140巷18號","121.449328333333","24.9933583333333","6500100","板橋區"
"220020","277-BY","2018/07/16 13:39:37","新北市板橋區金門街31巷46號","121.43389","24.9935033333333","6500100","板橋區"
"220019","283-VK","2018/07/16 13:39:27","新北市土城區四川路8號","121.455646666667","24.99609","6500100","板橋區"
"220043","285-UM","2018/07/16 13:39:30","新北市板橋區民生路二段161巷1號","121.470073333333","25.0198983333333","6500100","板橋區"
"220031","286-VK","2018/07/16 13:39:24","新北市板橋區大觀路二段39號","121.446738333333","25.002925","6500100","板橋區"
"220029","287-VK","2018/07/16 13:39:33","新北市板橋區大觀路一段79號","121.447005","25.004115","6500100","板橋區"
"220009","293-UM","2018/07/16 13:39:30","新北市板橋區民生路二段161巷3號","121.470255","25.0198166666667","6500100","板橋區"
"220010","295-UM","2018/07/16 13:39:32","新北市板橋區民生路二段120號","121.470441666667","25.0196333333333","6500100","板橋區"
"220032","296-UM","2018/07/16 13:39:24","新北市板橋區大觀路二段148巷1-2號","121.441811666667","24.99921","6500100","板橋區"
"220023","303-R5","2018/07/16 13:39:22","新北市板橋區華東街328號","121.45277","25.0034","6500100","板橋區"
"220012","486-VK","2018/07/16 13:39:22","新北市板橋區縣民大道二段86號","121.466366666667","25.014915","6500100","板橋區"
"220104","560-BX","2018/07/16 13:39:37","新北市板橋區南雅西路二段145巷10號","121.451615","25.01191","6500100","板橋區"
"220052","561-BX","2018/07/16 13:39:31","新北市板橋區民生路二段161巷3號","121.470178333333","25.019795","6500100","板橋區"
"220027","568-UM","2018/07/16 13:39:37","新北市板橋區大觀路二段13號","121.446833333333","25.0034533333333","6500100","板橋區"
"220005","686-BX","2018/07/16 13:39:18","新北市板橋區華東街1-9號","121.448263333333","24.9949133333333","6500100","板橋區"
"220002","741-BX","2018/07/16 13:39:17","新北市板橋區華東街260號","121.452686666667","25.0015133333333","6500100","板橋區"
"220025","806-UM","2018/07/16 13:39:24","新北市板橋區沙崙街37號","121.430506666667","24.9945366666667","6500100","板橋區"
"220003","827-TW","2018/07/16 13:39:19","新北市板橋區華東街1-9號","121.448173333333","24.99493","6500100","板橋區"
"220014","829-TW","2018/07/16 13:39:29","新北市板橋區民生路二段161巷7號","121.470291666667","25.0197083333333","6500100","板橋區"
"220022","895-R6","2018/07/16 13:39:24","新北市板橋區南雅南路一段60-1號","121.455461666667","25.0054433333333","6500100","板橋區"
"220021","985-R7","2018/07/16 13:39:26","新北市板橋區南雅南路二段116號","121.453251666667","25.00032","6500100","板橋區"
"220018","AAC-253","2018/07/16 13:39:16","新北市板橋區華東街1-9號","121.448195","24.994945","6500100","板橋區"
"235032","KEA-2873","2018/07/16 13:39:18","新北市中和區中正路211巷36弄22號","121.49678","24.9923916666667","6500300","中和區"
"235025","KEA-2875","2018/07/16 13:39:25","新北市中和區民享街22號","121.473975","25.00374","6500300","中和區"
