"lineid","car","time","location","longitude","latitude","cityid","cityname"
"234044","148-BY","2018/07/16 13:59:23","新北市永和區成功路一段16巷4號","121.526856666667","25.00548","6500400","永和區"
"234005","207-UY","2018/07/16 13:59:28","新北市中和區中和路320號","121.509591666667","25.0007016666667","6500400","永和區"
"234078","298-R6","2018/07/16 13:59:15","新北市永和區永利路77號","121.52126","25.0037566666667","6500400","永和區"
"234036","336-UY","2018/07/16 13:59:16","新北市永和區成功路二段152-2號","121.526525","24.99661","6500400","永和區"
"234062","337-UY","2018/07/16 13:59:23","新北市永和區中正路412巷20弄14號","121.518811666667","25.001505","6500400","永和區"
"234068","552-UM","2018/07/16 13:59:33","新北市永和區國光路39-2號","121.519155","25.008015","6500400","永和區"
"234084","553-UM","2018/07/16 13:59:31","新北市永和區福和路95號","121.522145","25.0078316666667","6500400","永和區"
"234015","745-BX","2018/07/16 13:59:33","新北市永和區信義路125號","121.51231","25.0151033333333","6500400","永和區"
"234028","746-BX","2018/07/16 13:59:17","新北市永和區民生路47巷33號","121.525078333333","24.9978816666667","6500400","永和區"
"234052","KEA-2590","2018/07/16 13:59:37","新北市永和區竹林路39巷38號","121.51989","25.0151733333333","6500400","永和區"
"234012","KEA-2591","2018/07/16 13:59:37","新北市永和區保生路55號","121.504686666667","25.0106116666667","6500400","永和區"
"234060","AAD-866","2018/07/16 13:59:37","新北市永和區安樂路100巷28號","121.515543333333","24.9987383333333","6500400","永和區"
"234066","847-RS","2018/07/16 13:59:30","新北市永和區永貞路368號","121.51006","25.0067916666667","6500400","永和區"
"234040","862-TW","2018/07/16 13:59:33","新北市永和區中和路389巷5號","121.508083333333","25.00055","6500400","永和區"
"234048","863-TW","2018/07/16 13:59:29","新北市永和區保安路149巷2弄1號","121.507191666667","25.013015","6500400","永和區"
"234025","9371-KE","2018/07/16 13:59:20","新北市永和區自由街58號","121.513761666667","25.0059466666667","6500400","永和區"
"234010","9373-KE","2018/07/16 13:59:24","新北市永和區仁愛路306巷35弄2號","121.502031666667","25.008705","6500400","永和區"
"248015","026-BX","2018/07/16 13:59:17","新北市五股區成泰路三段543巷18號","121.45089","25.1022716666667","6501500","五股區"
"248007","095-VK","2018/07/16 13:59:27","新北市五股區中興路一段128巷36號","121.465783333333","25.0752916666667","6501500","五股區"
"248019","225-UY","2018/07/16 13:59:31","新北市五股區凌雲路三段59-2號","121.425186666667","25.1250416666667","6501500","五股區"
"248011","247-BX","2018/07/16 13:59:19","新北市五股區成泰路二段195巷1號","121.440281666667","25.08737","6501500","五股區"
"248003","677-BX","2018/07/16 13:59:28","新北市五股區民義路二段42號","121.414466666667","25.1008733333333","6501500","五股區"
"248001","678-BX","2018/07/16 13:59:23","新北市五股區凌雲路一段156巷1號","121.44891","25.1026933333333","6501500","五股區"
"248009","682-TV","2018/07/16 13:59:24","新北市五股區水碓二路1號","121.430605","25.0712866666667","6501500","五股區"
"234022","9380-KE","2018/07/16 13:59:34","新北市永和區中正路706號","121.516195","25.0100083333333","6500400","永和區"
"234076","969-R7","2018/07/16 13:59:12","新北市永和區民治街35號","121.519301666667","24.9977433333333","6500400","永和區"
"234072","AAC-211","2018/07/16 13:59:27","新北市永和區豫溪街185號","121.522485","25.01041","6500400","永和區"
"234001","AAC-295","2018/07/16 13:59:25","新北市永和區福和路345號","121.515446666667","25.0071283333333","6500400","永和區"
"243002","267-VK","2018/07/16 13:59:17","新北市泰山區辭修路24號","121.428986666667","25.058125","6501600","泰山區"
"243005","AAD-798","2018/07/16 13:59:23","新北市泰山區明志路三段206巷9號","121.422841666667","25.038045","6501600","泰山區"
"243001","297-R6","2018/07/16 13:59:22","新北市泰山區福德街7號","121.43238","25.06246","6501600","泰山區"
"243008","380-SR","2018/07/16 13:59:27","新北市泰山區民權街2號","121.42773","25.0509883333333","6501600","泰山區"
"243007","421-VK","2018/07/16 13:59:31","新北市泰山區泰林路二段218號","121.432705","25.0618533333333","6501600","泰山區"
"243003","KEA-2215","2018/07/16 13:59:23","新北市泰山區明志路二段246-1號","121.426968333333","25.048245","6501600","泰山區"
"243004","646-TV","2018/07/16 13:59:29","新北市泰山區福興三街185號","121.433056666667","25.0570983333333","6501600","泰山區"
"243006","680-BX","2018/07/16 13:59:32","新北市泰山區黎明路23號","121.420951666667","25.0625883333333","6501600","泰山區"
"231002","002-UM","2018/07/16 13:59:34","新北市新店區中正路695巷2號","121.533926666667","24.99059","6500600","新店區"
"231027","0291-UT","2018/07/16 13:59:27","新北市新店區北宜路一段39巷20號","121.538748333333","24.95847","6500600","新店區"
"231028","046-UY","2018/07/16 13:59:18","新北市新店區安和路三段61號","121.517976666667","24.9832","6500600","新店區"
"231001","047-UY","2018/07/16 13:59:33","新北市新店區三民路47號","121.537053333333","24.9709466666667","6500600","新店區"
"231005","106-UY","2018/07/16 13:59:25","新北市新店區中興路三段202號","121.543781666667","24.9819783333333","6500600","新店區"
"231010","107-UY","2018/07/16 13:59:29","新北市新店區中央路151號","121.529421666667","24.9723483333333","6500600","新店區"
"231036","110-UY","2018/07/16 13:59:28","新北市新店區安祥路110巷29號","121.473453333333","24.9565233333333","6500600","新店區"
"231011","187-VK","2018/07/16 13:59:24","新北市新店區中興路二段77號","121.546835","24.9710933333333","6500600","新店區"
"231023","KEA-2219","2018/07/16 13:59:36","新北市新店區文中路45號","121.539403333333","24.95669","6500600","新店區"
"231026","256-BX","2018/07/16 13:59:31","新北市新店區安康路一段35-1號","121.532001666667","24.9606266666667","6500600","新店區"
"231003","268-BY","2018/07/16 13:59:29","新北市新店區中興路一段105號","121.541208333333","24.9624666666667","6500600","新店區"
"231018","278-BY","2018/07/16 13:59:26","新北市新店區中央路133巷11號","121.530958333333","24.9735383333333","6500600","新店區"
"231014","AAD-862","2018/07/16 13:59:24","新北市新店區郵政路97號","121.554468333333","24.951455","6500600","新店區"
"231004","355-BY","2018/07/16 13:59:32","新北市新店區北新路二段186號","121.542988333333","24.9763433333333","6500600","新店區"
"231038","3712-VJ","2018/07/16 13:59:31","新北市新店區安華路30巷1號","121.519531666667","24.9592866666667","6500600","新店區"
"231037","4716-K9","2018/07/16 13:59:29","新北市新店區安康路三段355巷45號","121.485045","24.9494183333333","6500600","新店區"
"231025","4715-K9","2018/07/16 13:59:34","新北市新店區中正路328巷30號","121.537818333333","24.976015","6500600","新店區"
"231013","513-UM","2018/07/16 13:59:33","新北市新店區明德路119-1號","121.541218333333","24.9798683333333","6500600","新店區"
"231034","616-UM","2018/07/16 13:59:31","新北市新店區達觀路6號","121.505625","24.9426033333333","6500600","新店區"
"231006","617-UM","2018/07/16 13:59:34","新北市新店區北宜路二段211號","121.553205","24.9532816666667","6500600","新店區"
"231030","619-UM","2018/07/16 13:59:26","新北市新店區安和路一段2-3號","121.51712","24.9643433333333","6500600","新店區"
"231035","719-UM","2018/07/16 13:59:01","新北市新店區安康路二段85巷17號","121.514121666667","24.96179","6500600","新店區"
"231019","719-UY","2018/07/16 13:59:21","新北市新店區湖子內路22號","121.542328333333","24.930805","6500600","新店區"
"231031","720-UM","2018/07/16 13:59:22","新北市新店區華城路11號","121.529543333333","24.95946","6500600","新店區"
"231029","897-TW","2018/07/16 13:59:34","新北市新店區安和路一段1號","121.516541666667","24.9638016666667","6500600","新店區"
"231024","AKT-0513","2018/07/16 13:59:36","新北市新店區力行路14巷10號","121.539281666667","24.96504","6500600","新店區"
"235030","003-UY","2018/07/16 13:59:26","新北市中和區中山路二段131巷5弄5號","121.50291","25.0029233333333","6500300","中和區"
"235028","005-UY","2018/07/16 13:59:34","新北市中和區連城路47巷6號","121.49805","25.0014316666667","6500300","中和區"
"235027","006-UY","2018/07/16 13:59:19","新北市中和區中正路592號","121.485778333333","24.9950383333333","6500300","中和區"
"235020","096-UM","2018/07/16 13:59:24","新北市板橋區三民路二段216號","121.47881","25.01174","6500300","中和區"
"235003","097-UM","2018/07/16 13:59:29","新北市中和區秀朗路三段179號","121.52433","24.9907933333333","6500300","中和區"
"235029","098-UM","2018/07/16 13:59:19","新北市中和區勝利路1號","121.500141666667","25.0081433333333","6500300","中和區"
"235004","150-BY","2018/07/16 13:59:28","新北市中和區景安路79巷50號","121.507888333333","24.9956316666667","6500300","中和區"
"235022","151-BY","2018/07/16 13:59:34","新北市中和區連城路534巷2號","121.475301666667","24.9913983333333","6500300","中和區"
"235019","183-VK","2018/07/16 13:59:33","新北市板橋區民族路310號","121.470748333333","25.0065066666667","6500300","中和區"
"235002","185-VK","2018/07/16 13:59:31","新北市中和區立人街24-5號","121.518811666667","24.9942016666667","6500300","中和區"
"235013","186-VK","2018/07/16 13:59:29","新北市中和區景安路167巷7號","121.505828333333","24.9947416666667","6500300","中和區"
"235031","255-BX","2018/07/16 13:59:20","新北市中和區新生街172號","121.483711666667","25.00003","6500300","中和區"
"235008","293-VK","2018/07/16 13:59:37","新北市中和區復興路280巷33弄14號","121.501415","24.991315","6500300","中和區"
"235036","301-VK","2018/07/16 13:59:22","新北市中和區錦和路168號","121.489891666667","24.9957483333333","6500300","中和區"
"235007","352-BY","2018/07/16 13:59:17","新北市中和區秀朗路三段24號","121.52644","24.9964083333333","6500300","中和區"
"235006","KEA-2878","2018/07/16 13:59:17","新北市中和區秀朗路三段60巷71號","121.523926666667","24.9945633333333","6500300","中和區"
"247009","KEA-2869","2018/07/16 13:59:33","新北市蘆洲區集賢路224巷1號","121.482256666667","25.0867033333333","6501400","蘆洲區"
"235014","4979-A6","2018/07/16 13:59:32","新北市中和區華新街50巷6號","121.5077","24.9839916666667","6500300","中和區"
"235033","4980-A6","2018/07/16 13:59:31","新北市中和區圓通路109巷1弄2號","121.499926666667","24.9963583333333","6500300","中和區"
"235034","558-UM","2018/07/16 13:59:33","新北市中和區中和路212號","121.506011666667","24.9995416666667","6500300","中和區"
"235009","565-BX","2018/07/16 13:59:32","新北市中和區景新街467巷20弄126號","121.514928333333","24.9872233333333","6500300","中和區"
"235018","640-BX","2018/07/16 13:59:23","新北市中和區國光街52號","121.470771666667","25.0002783333333","6500300","中和區"
"235024","647-TV","2018/07/16 13:59:29","新北市中和區民治街1巷2號","121.474915","25.0054583333333","6500300","中和區"
"235011","732-UM","2018/07/16 13:59:35","新北市中和區興南路二段54巷2-8號","121.506023333333","24.98556","6500300","中和區"
"235010","733-UM","2018/07/16 13:59:19","新北市中和區興南路二段5號","121.50818","24.9862483333333","6500300","中和區"
"235035","783-BX","2018/07/16 13:59:25","新北市中和區立德街98巷48號","121.488","25.0092316666667","6500300","中和區"
"235026","800-TS","2018/07/16 13:59:17","新北市中和區中山路二段340巷30號","121.493495","25.0036583333333","6500300","中和區"
"235021","801-TS","2018/07/16 13:59:23","新北市中和區民安街53-3號","121.479253333333","24.999855","6500300","中和區"
"235005","802-TS","2018/07/16 13:59:27","新北市中和區中安街38號","121.512955","25.0027966666667","6500300","中和區"
"235016","805-TS","2018/07/16 13:59:27","新北市中和區興南路二段261巷6-3號","121.502563333333","24.9795416666667","6500300","中和區"
"235012","896-TW","2018/07/16 13:59:26","新北市中和區華新街31號","121.50769","24.98478","6500300","中和區"
"235017","900-TW","2018/07/16 13:59:21","新北市中和區民德路394號","121.46612","24.993805","6500300","中和區"
"235015","157-BY","2018/07/16 13:59:35","新北市中和區忠孝街19巷18號","121.510075","24.9833133333333","6500300","中和區"
"235001","AAC-213","2018/07/16 13:59:29","新北市中和區秀朗路三段10巷14弄96號","121.523426666667","24.9966083333333","6500300","中和區"
"235023","AAC-215","2018/07/16 13:59:35","新北市中和區圓通路369巷14弄20號","121.490421666667","24.9879366666667","6500300","中和區"
"220016","013-TV","2018/07/16 13:59:21","新北市板橋區中山路二段465巷52號","121.4812","25.0216816666667","6500100","板橋區"
"220013","072-UY","2018/07/16 13:59:33","新北市板橋區漢生東路328號","121.471653333333","25.0078833333333","6500100","板橋區"
"220034","073-UY","2018/07/16 13:59:21","新北市板橋區中正路236巷52號","121.457515","25.0192733333333","6500100","板橋區"
"220105","075-UY","2018/07/16 13:59:30","新北市板橋區莒光路52-1號","121.470758333333","25.024315","6500100","板橋區"
"220017","AAD-861","2018/07/16 13:59:36","新北市板橋區華興街73-1號","121.457081666667","25.0050566666667","6500100","板橋區"
"247013","546-UM","2018/07/16 13:59:23","新北市蘆洲區中正路187號","121.468625","25.0856383333333","6501400","蘆洲區"
"247011","339-TH","2018/07/16 13:59:23","新北市蘆洲區民族路180號","121.479986666667","25.086815","6501400","蘆洲區"
"247003","337-TH","2018/07/16 13:59:34","新北市蘆洲區長榮路39號","121.463103333333","25.0826583333333","6501400","蘆洲區"
"247005","336-TH","2018/07/16 13:59:30","新北市蘆洲區永安南路二段50號","121.466025","25.077585","6501400","蘆洲區"
"247017","057-VK","2018/07/16 13:59:33","新北市蘆洲區民族路327巷93號","121.475698333333","25.08904","6501400","蘆洲區"
"247007","056-VK","2018/07/16 13:59:21","新北市蘆洲區永安北路二段10號","121.481193333333","25.0807","6501400","蘆洲區"
"247015","007-UY","2018/07/16 13:59:18","新北市蘆洲區光華路20號","121.469561666667","25.0833833333333","6501400","蘆洲區"
"247001","002-UY","2018/07/16 13:59:28","新北市蘆洲區永平街32巷62弄1號","121.4601","25.0929916666667","6501400","蘆洲區"
"247019","001-UY","2018/07/16 13:59:17","新北市蘆洲區民族路422巷84-1號","121.473623333333","25.093805","6501400","蘆洲區"
"253003","6232-TK","2018/07/16 13:59:24","新北市石門區尖子鹿19-2號","121.576111666667","25.277355","6502200","石門區"
"253001","6251-TK","2018/07/16 13:59:15","新北市石門區八甲53-2號","121.52083","25.2757833333333","6502200","石門區"
"253002","637-UY","2018/07/16 13:58:17","新北市石門區尖山湖18號","121.558608333333","25.2470166666667","6502200","石門區"
"253004","8270-PC","2018/07/16 13:59:07","新北市石門區草埔尾34-1號","121.603065","25.2650983333333","6502200","石門區"
"207002","749-BX","2018/07/16 13:59:31","新北市萬里區溪底里富士坪路1號","121.631278333333","25.1501316666667","6502800","萬里區"
"252005","073-UM","2018/07/16 13:59:21","新北市三芝區圓山里二坪頂47號","121.539055","25.243465","6502100","三芝區"
"207001","662-BX","2018/07/16 13:58:35","新北市萬里區磺潭里清水13號","121.637095","25.2021683333333","6502800","萬里區"
"236064","105-UM","2018/07/16 13:59:23","新北市土城區城林路6巷80號","121.438683333333","24.979715","6501300","土城區"
"236074","166-UM","2018/07/16 13:59:33","新北市土城區永寧路32巷10弄23號","121.428848333333","24.9610516666667","6501300","土城區"
"236029","253-BX","2018/07/16 13:59:32","新北市土城區城林路6巷80號","121.43836","24.9798066666667","6501300","土城區"
"236024","269-VK","2018/07/16 13:59:26","新北市土城區承天路18號","121.439488333333","24.9634433333333","6501300","土城區"
"236012","270-VK","2018/07/16 13:59:32","新北市土城區中央路二段280號","121.4406","24.9740216666667","6501300","土城區"
"236032","271-VK","2018/07/16 13:59:26","新北市土城區城林路6巷80號","121.438473333333","24.97979","6501300","土城區"
"236016","401-BY","2018/07/16 13:59:24","新北市土城區城林路6巷80號","121.438618333333","24.9797816666667","6501300","土城區"
"236005","498-BY","2018/07/16 13:59:33","新北市土城區中央路一段325號","121.443728333333","24.9831333333333","6501300","土城區"
"236040","752-BX","2018/07/16 13:59:20","新北市土城區城林路6巷80號","121.438518333333","24.9797733333333","6501300","土城區"
"236057","912-UM","2018/07/16 13:59:21","新北市土城區中央路三段260號","121.427126666667","24.9639566666667","6501300","土城區"
"236045","913-UM","2018/07/16 13:59:20","新北市土城區城林路6巷80號","121.43845","24.9797333333333","6501300","土城區"
"236060","915-UM","2018/07/16 13:59:18","新北市土城區城林路6巷80號","121.438481666667","24.9797383333333","6501300","土城區"
"236054","AAC-216","2018/07/16 13:59:39","新北市土城區城林路6巷80號","121.438731666667","24.97974","6501300","土城區"
"220028","200-UY","2018/07/16 13:59:24","新北市板橋區大觀路二段153巷46弄20號","121.449291666667","25.0000816666667","6500100","板橋區"
"220030","610-BX","2018/07/16 13:59:27","新北市板橋區篤行路三段20-1號","121.428846666667","24.9871983333333","6500100","板橋區"
"220050","245-BX","2018/07/16 13:59:37","新北市板橋區莊敬路123號","121.471963333333","25.0254916666667","6500100","板橋區"
"220056","276-BY","2018/07/16 13:59:27","新北市板橋區信義路111號","121.457635","24.99341","6500100","板橋區"
"220020","277-BY","2018/07/16 13:59:37","新北市板橋區金門街224號","121.430998333333","24.9876766666667","6500100","板橋區"
"220019","283-VK","2018/07/16 13:59:07","新北市板橋區忠孝路154巷38號","121.46417","25.001575","6500100","板橋區"
"220043","285-UM","2018/07/16 13:59:30","新北市板橋區光武街31號","121.467805","25.024995","6500100","板橋區"
"220001","285-VK","2018/07/16 13:59:27","新北市板橋區中山路二段89巷42號","121.473755","25.01705","6500100","板橋區"
"220031","286-VK","2018/07/16 13:59:24","新北市板橋區大觀路一段38巷1-3號","121.443191666667","25.004405","6500100","板橋區"
"220029","287-VK","2018/07/16 13:59:33","新北市板橋區光華街28巷1號","121.45391","25.012505","6500100","板橋區"
"220039","288-VK","2018/07/16 13:59:22","新北市板橋區互助街25巷9號","121.463156666667","25.0270833333333","6500100","板橋區"
"220009","293-UM","2018/07/16 13:59:30","新北市板橋區富山街102號","121.476223333333","25.0219316666667","6500100","板橋區"
"220010","295-UM","2018/07/16 13:59:32","新北市板橋區三民路二段245巷4弄10號","121.480881666667","25.0118","6500100","板橋區"
"220032","296-UM","2018/07/16 13:59:24","新北市板橋區大觀路三段5-4號","121.43272","24.995875","6500100","板橋區"
"220023","303-R5","2018/07/16 13:59:22","新北市板橋區大智街82號","121.45366","25.01564","6500100","板橋區"
"220041","307-R5","2018/07/16 13:59:22","新北市板橋區文化路一段104巷1弄9號","121.465333333333","25.0180616666667","6500100","板橋區"
"220047","317-R6","2018/07/16 13:59:34","新北市板橋區民有街47號","121.465615","25.02597","6500100","板橋區"
"220012","486-VK","2018/07/16 13:59:32","新北市板橋區縣民大道二段122號","121.46752","25.0157883333333","6500100","板橋區"
"220037","491-VK","2018/07/16 13:59:34","新北市板橋區中山路二段91號","121.474258333333","25.01595","6500100","板橋區"
"220104","560-BX","2018/07/16 13:59:17","新北市板橋區中正路294號","121.455013333333","25.0203883333333","6500100","板橋區"
"220052","561-BX","2018/07/16 13:59:31","新北市板橋區縣民大道二段287號","121.470376666667","25.018095","6500100","板橋區"
"220027","568-UM","2018/07/16 13:59:23","新北市板橋區民權路202巷9弄90號","121.458926666667","25.01575","6500100","板橋區"
"220011","609-BX","2018/07/16 13:59:28","新北市板橋區中山路二段169號","121.475931666667","25.0168516666667","6500100","板橋區"
"220040","637-BX","2018/07/16 13:59:21","新北市板橋區大同街53號","121.478506666667","25.0274766666667","6500100","板橋區"
"220005","686-BX","2018/07/16 13:59:18","新北市板橋區重慶路199-1號","121.462825","25.0017716666667","6500100","板橋區"
"220042","689-BX","2018/07/16 13:59:28","新北市板橋區民生路三段64號","121.46714","25.0252816666667","6500100","板橋區"
"220002","741-BX","2018/07/16 13:59:17","新北市板橋區重慶路89巷48弄11號","121.463356666667","25.00612","6500100","板橋區"
"220051","KEA-2699","2018/07/16 13:59:28","新北市板橋區田單街7號","121.481766666667","25.0291566666667","6500100","板橋區"
"220025","806-UM","2018/07/16 13:59:32","新北市板橋區大觀路二段174巷178號","121.442081666667","25.0036233333333","6500100","板橋區"
"220003","827-TW","2018/07/16 13:59:19","新北市板橋區中山路一段158巷9號","121.466351666667","25.0116","6500100","板橋區"
"220014","829-TW","2018/07/16 13:59:29","新北市板橋區三民路2段正泰3巷18-1號","121.477983333333","25.0143116666667","6500100","板橋區"
"220045","830-TW","2018/07/16 13:58:17","新北市板橋區莒光路163號","121.473625","25.0248666666667","6500100","板橋區"
"220038","833-TW","2018/07/16 13:59:21","新北市板橋區仁化街67號","121.475688333333","25.0318333333333","6500100","板橋區"
"220022","895-R6","2018/07/16 13:59:24","新北市板橋區新興路2號","121.456536666667","25.0072016666667","6500100","板橋區"
"220021","985-R7","2018/07/16 13:59:34","新北市板橋區館前西路195號","121.455215","25.0082633333333","6500100","板橋區"
"220046","AAC-210","2018/07/16 13:59:20","新北市板橋區漢生西路39巷6弄15號","121.462206666667","25.018215","6500100","板橋區"
"220018","AAC-253","2018/07/16 13:59:16","新北市板橋區四川路一段337號","121.458505","25.0001433333333","6500100","板橋區"
"235032","KEA-2873","2018/07/16 13:59:21","新北市中和區景平路545巷1弄17號","121.49889","24.99883","6500300","中和區"
"235025","KEA-2875","2018/07/16 13:59:25","新北市中和區民有街66號","121.476031666667","25.00423","6500300","中和區"
