"lineid","car","time","location","longitude","latitude","cityid","cityname"
"234025","9371-KE","2018/07/16 14:59:20","新北市永和區雙和街52巷2-1號","121.50909","25.003105","6500400","永和區"
"248013","025-BX","2018/07/16 14:59:28","新北市五股區成泰路三段43-7號","121.442475","25.089045","6501500","五股區"
"248015","026-BX","2018/07/16 14:59:37","新北市五股區成泰路三段577巷136號","121.448041666667","25.104275","6501500","五股區"
"248007","095-VK","2018/07/16 14:59:27","新北市五股區四維路155巷36弄16號","121.466848333333","25.0752","6501500","五股區"
"248019","225-UY","2018/07/16 14:59:36","新北市五股區凌雲路三段19-1號","121.43062","25.1091066666667","6501500","五股區"
"248003","677-BX","2018/07/16 14:59:27","新北市五股區成泰路一段8巷2號","121.434748333333","25.0669233333333","6501500","五股區"
"248001","678-BX","2018/07/16 14:59:23","新北市五股區成泰路三段6號","121.440875","25.0874383333333","6501500","五股區"
"248009","682-TV","2018/07/16 14:59:24","新北市五股區成泰路一段7巷16號","121.433223333333","25.06685","6501500","五股區"
"234022","9380-KE","2018/07/16 14:59:32","新北市永和區竹林路25巷30號","121.518058333333","25.0149433333333","6500400","永和區"
"243002","267-VK","2018/07/16 14:59:17","新北市泰山區明志路二段273巷16弄16號","121.427741666667","25.0465983333333","6501600","泰山區"
"243005","AAD-798","2018/07/16 14:59:23","新北市泰山區明志路二段325號","121.425903333333","25.04506","6501600","泰山區"
"243001","297-R6","2018/07/16 14:59:21","新北市泰山區泰林路二段292巷11號","121.431385","25.0635866666667","6501600","泰山區"
"243008","380-SR","2018/07/16 14:59:27","新北市泰山區明志路三段24號","121.424768333333","25.0430133333333","6501600","泰山區"
"243007","421-VK","2018/07/16 14:59:22","新北市泰山區仁愛路122號","121.43372","25.0557316666667","6501600","泰山區"
"243003","KEA-2215","2018/07/16 14:59:23","新北市新莊區壽山路160巷4號","121.417135","25.0314733333333","6501600","泰山區"
"243004","646-TV","2018/07/16 14:59:26","新北市泰山區楓江路160-2號","121.440861666667","25.065775","6501600","泰山區"
"243006","680-BX","2018/07/16 14:59:32","新北市泰山區泰林路二段319號","121.429633333333","25.063285","6501600","泰山區"
"231002","002-UM","2018/07/16 14:59:34","新北市新店區民權路89號","121.53786","24.9829683333333","6500600","新店區"
"231028","046-UY","2018/07/16 14:59:18","新北市新店區安康路二段360號","121.501998333333","24.95737","6500600","新店區"
"231001","047-UY","2018/07/16 14:59:33","新北市新店區中正路276號","121.538861666667","24.9736583333333","6500600","新店區"
"231005","106-UY","2018/07/16 14:59:27","新北市新店區寶慶街58巷4號","121.542068333333","24.9869116666667","6500600","新店區"
"231036","110-UY","2018/07/16 14:59:28","新北市新店區安祥路102巷30弄25號","121.484841666667","24.963245","6500600","新店區"
"231011","187-VK","2018/07/16 14:59:29","新北市新店區中興路三段205巷7弄1號","121.54324","24.9815533333333","6500600","新店區"
"231023","KEA-2219","2018/07/16 14:59:17","新北市新店區檳榔路150號","121.544151666667","24.9613033333333","6500600","新店區"
"231026","256-BX","2018/07/16 14:59:33","新北市新店區博愛街1號","121.540493333333","24.9726516666667","6500600","新店區"
"231003","268-BY","2018/07/16 14:59:29","新北市新店區中興路一段292號","121.546083333333","24.9690966666667","6500600","新店區"
"231018","278-BY","2018/07/16 14:59:26","新北市新店區中央七街10號","121.530241666667","24.9747233333333","6500600","新店區"
"231014","AAD-862","2018/07/16 14:59:24","新北市新店區銀河路68-1號","121.580391666667","24.9585233333333","6500600","新店區"
"231004","355-BY","2018/07/16 14:59:32","新北市新店區民族路26號","121.540706666667","24.9787916666667","6500600","新店區"
"231038","3712-VJ","2018/07/16 14:59:32","新北市新店區安華路28-1號","121.519675","24.960875","6500600","新店區"
"231025","4715-K9","2018/07/16 14:59:34","新北市新店區建國路171號","121.538383333333","24.9794433333333","6500600","新店區"
"231034","616-UM","2018/07/16 14:59:31","新北市新店區玫瑰路4-1號","121.49363","24.95139","6500600","新店區"
"231006","617-UM","2018/07/16 14:59:34","新北市新店區新坡一街72號","121.548971666667","24.96456","6500600","新店區"
"231030","619-UM","2018/07/16 14:59:26","新北市新店區安民街369號","121.516538333333","24.9760083333333","6500600","新店區"
"231039","718-UY","2018/07/16 14:59:30","新北市新店區寶安街30號","121.541983333333","24.9823433333333","6500600","新店區"
"231035","719-UM","2018/07/16 14:59:21","新北市新店區安業街19號","121.516855","24.97776","6500600","新店區"
"231019","719-UY","2018/07/16 14:59:21","新北市新店區新烏路三段65號","121.554276666667","24.903965","6500600","新店區"
"231031","720-UM","2018/07/16 14:59:02","新北市新店區安泰路60巷6號","121.483968333333","24.9467683333333","6500600","新店區"
"231029","897-TW","2018/07/16 14:59:34","新北市新店區錦秀路45號","121.47923","24.9437083333333","6500600","新店區"
"231024","AKT-0513","2018/07/16 14:59:36","新北市新店區中華路83巷21號","121.53876","24.9680783333333","6500600","新店區"
"235030","003-UY","2018/07/16 14:59:26","新北市中和區中山路二段18號","121.504841666667","25.005415","6500300","中和區"
"235020","096-UM","2018/07/16 14:59:34","新北市中和區中山路三段170巷4弄23號","121.473206666667","25.0071683333333","6500300","中和區"
"235003","097-UM","2018/07/16 14:59:29","新北市中和區宜安路52巷18號","121.512411666667","24.9972233333333","6500300","中和區"
"235029","098-UM","2018/07/16 14:59:19","新北市中和區橋和路284號","121.496503333333","25.0066116666667","6500300","中和區"
"235004","150-BY","2018/07/16 14:59:28","新北市中和區保健路19巷29號","121.50862","24.9987316666667","6500300","中和區"
"235022","151-BY","2018/07/16 14:59:34","新北市中和區員山路150巷2弄49號","121.48211","24.997315","6500300","中和區"
"235013","186-VK","2018/07/16 14:59:29","新北市中和區南華路15號","121.502443333333","24.995645","6500300","中和區"
"235008","293-VK","2018/07/16 14:59:28","新北市中和區中正路69號","121.501125","24.9935333333333","6500300","中和區"
"235036","301-VK","2018/07/16 14:59:22","新北市中和區莊敬路33巷20號","121.50013","25.005455","6500300","中和區"
"235007","352-BY","2018/07/16 14:59:36","新北市中和區華新街232巷4號","121.505916666667","24.9818983333333","6500300","中和區"
"247009","KEA-2869","2018/07/16 14:59:29","新北市五股區成泰路三段358號","121.451385","25.0983816666667","6501400","蘆洲區"
"235014","4979-A6","2018/07/16 14:59:32","新北市中和區景平路155巷2弄1號","121.513415","24.991865","6500300","中和區"
"235033","4980-A6","2018/07/16 14:59:31","新北市中和區圓通路97號","121.499636666667","24.996735","6500300","中和區"
"235034","558-UM","2018/07/16 14:59:32","新北市中和區景平路483號","121.500321666667","24.997545","6500300","中和區"
"235018","640-BX","2018/07/16 14:59:19","新北市中和區民享街41號","121.474013333333","25.002975","6500300","中和區"
"235010","733-UM","2018/07/16 14:59:39","新北市中和區興南路一段105巷20弄9號","121.510275","24.9854566666667","6500300","中和區"
"235035","783-BX","2018/07/16 14:59:23","新北市中和區建三路24號","121.486038333333","25.0021733333333","6500300","中和區"
"235012","896-TW","2018/07/16 14:59:26","新北市中和區忠孝街2-6號","121.509106666667","24.9829666666667","6500300","中和區"
"235017","900-TW","2018/07/16 14:59:26","新北市中和區民德路250號","121.467928333333","24.997215","6500300","中和區"
"235015","157-BY","2018/07/16 14:59:35","新北市中和區中興街115巷20號","121.500928333333","24.9919483333333","6500300","中和區"
"235001","AAC-213","2018/07/16 14:59:28","新北市中和區自立路18號","121.522131666667","24.99357","6500300","中和區"
"235023","AAC-215","2018/07/16 14:59:35","新北市中和區圓通路280號","121.491683333333","24.9907266666667","6500300","中和區"
"220016","013-TV","2018/07/16 14:59:25","新北市板橋區光復街41號","121.48176","25.0187933333333","6500100","板橋區"
"220013","072-UY","2018/07/16 14:59:33","新北市板橋區海山路39號","121.467281666667","25.0097116666667","6500100","板橋區"
"220105","075-UY","2018/07/16 14:59:30","新北市板橋區民治街71巷36號","121.480493333333","25.0328016666667","6500100","板橋區"
"220017","AAD-861","2018/07/16 14:59:16","新北市板橋區大明街18號","121.458931666667","25.0025983333333","6500100","板橋區"
"253003","6232-TK","2018/07/16 14:59:24","新北市石門區尖子鹿103-1號","121.579328333333","25.2952","6502200","石門區"
"253001","6251-TK","2018/07/16 14:59:34","新北市石門區崁子腳35-2號","121.539938333333","25.2696633333333","6502200","石門區"
"253002","637-UY","2018/07/16 14:59:17","新北市石門區楓林46號","121.543028333333","25.278735","6502200","石門區"
"253004","8270-PC","2018/07/16 14:59:19","新北市石門區茂林社區227號","121.591948333333","25.27048","6502200","石門區"
"207002","749-BX","2018/07/16 14:59:36","新北市萬里區崁腳里崁腳路62號","121.64851","25.1599716666667","6502800","萬里區"
"207001","662-BX","2018/07/16 14:59:35","新北市萬里區雙興里豐稟路6-3號","121.651078333333","25.183985","6502800","萬里區"
"236064","105-UM","2018/07/16 14:59:23","新北市土城區明德路二段209號","121.446465","24.98378","6501300","土城區"
"236074","166-UM","2018/07/16 14:59:33","新北市土城區中央路四段226號","121.41555","24.9571766666667","6501300","土城區"
"236029","253-BX","2018/07/16 14:59:32","新北市土城區慶利街9號","121.439601666667","24.9735933333333","6501300","土城區"
"236024","269-VK","2018/07/16 14:59:33","新北市土城區中正路57號","121.444335","24.97552","6501300","土城區"
"236012","270-VK","2018/07/16 14:59:32","新北市土城區立德路29巷15號","121.463413333333","24.9885216666667","6501300","土城區"
"236032","271-VK","2018/07/16 14:59:26","新北市土城區清水路171號","121.45931","24.98153","6501300","土城區"
"236016","401-BY","2018/07/16 14:59:24","新北市土城區延吉街166號","121.468493333333","24.98537","6501300","土城區"
"236040","752-BX","2018/07/16 14:59:22","新北市土城區學府路一段229巷9號","121.451643333333","24.983795","6501300","土城區"
"236057","912-UM","2018/07/16 14:59:21","新北市土城區明德路一段385-1號","121.452868333333","24.98022","6501300","土城區"
"236045","913-UM","2018/07/16 14:59:20","新北市土城區青雲路318-1號","121.458913333333","24.9776283333333","6501300","土城區"
"236060","915-UM","2018/07/16 14:59:34","新北市土城區延和路41巷6弄7號","121.466245","24.990175","6501300","土城區"
"236054","AAC-216","2018/07/16 14:59:18","新北市土城區裕民路85號","121.450161666667","24.9872933333333","6501300","土城區"
"238010","601-UM","2018/07/16 14:59:20","新北市樹林區八德街830號","121.392501666667","24.9686066666667","6500700","樹林區"
"238018","571-TV","2018/07/16 14:59:29","新北市樹林區八德街822號","121.394576666667","24.968715","6500700","樹林區"
"238008","KEA-2539","2018/07/16 14:59:19","新北市樹林區育德街78-1號","121.388085","24.9680933333333","6500700","樹林區"
"238001","283-BY","2018/07/16 14:59:21","新北市樹林區八德街828-5號","121.392966666667","24.9686066666667","6500700","樹林區"
"238001","282-BY","2018/07/16 14:59:22","新北市樹林區八德街852號","121.391996666667","24.968545","6500700","樹林區"
"238007","268-VK","2018/07/16 14:59:26","新北市樹林區太平路277號","121.418805","24.97267","6500700","樹林區"
"238013","172-UY","2018/07/16 14:59:38","新北市樹林區育德街121巷7號","121.389385","24.9681816666667","6500700","樹林區"
"220030","610-BX","2018/07/16 14:59:27","新北市板橋區篤行路一段37號","121.43195","24.9939816666667","6500100","板橋區"
"220050","245-BX","2018/07/16 14:59:39","新北市板橋區萬板路156號","121.475478333333","25.0235533333333","6500100","板橋區"
"220056","276-BY","2018/07/16 14:59:27","新北市板橋區南雅南路二段43號","121.451395","24.9944833333333","6500100","板橋區"
"220020","277-BY","2018/07/16 14:59:36","新北市板橋區金門街31巷10號","121.433316666667","24.9937133333333","6500100","板橋區"
"220043","285-UM","2018/07/16 14:59:37","新北市板橋區文德路20號","121.462653333333","25.0245016666667","6500100","板橋區"
"220001","285-VK","2018/07/16 14:59:27","新北市板橋區中山路二段90巷9號","121.475521666667","25.01603","6500100","板橋區"
"220031","286-VK","2018/07/16 14:59:24","新北市板橋區大觀路一段38巷156弄181號","121.444218333333","25.0096316666667","6500100","板橋區"
"220029","287-VK","2018/07/16 14:59:34","新北市板橋區僑中一街124巷18弄26-1號","121.447203333333","25.0135983333333","6500100","板橋區"
"220039","288-VK","2018/07/16 14:59:22","新北市板橋區新海路109巷1弄2號","121.460715","25.0224483333333","6500100","板橋區"
"220009","293-UM","2018/07/16 14:59:30","新北市板橋區縣民大道二段200巷31號","121.470626666667","25.01777","6500100","板橋區"
"220010","295-UM","2018/07/16 14:59:32","新北市板橋區萬安街20巷4弄16號","121.485223333333","25.0229383333333","6500100","板橋區"
"220032","296-UM","2018/07/16 14:59:24","新北市板橋區溪崑二街112巷12號","121.426048333333","24.98892","6500100","板橋區"
"220023","303-R5","2018/07/16 14:59:02","新北市板橋區金華街10巷133號","121.459911666667","25.020725","6500100","板橋區"
"220041","307-R5","2018/07/16 14:59:22","新北市板橋區裕民街128巷3號","121.458718333333","25.0277566666667","6500100","板橋區"
"220047","317-R6","2018/07/16 14:59:34","新北市板橋區新海路72巷42號","121.462203333333","25.02282","6500100","板橋區"
"220012","486-VK","2018/07/16 14:59:28","新北市板橋區實踐路106號","121.464036666667","25.004615","6500100","板橋區"
"220037","491-VK","2018/07/16 14:59:34","新北市板橋區仁化街189號","121.478458333333","25.034","6500100","板橋區"
"220104","560-BX","2018/07/16 14:59:37","新北市板橋區新生街53巷20號","121.457586666667","25.0216433333333","6500100","板橋區"
"220052","561-BX","2018/07/16 14:59:31","新北市板橋區自由路18-3號","121.465528333333","25.0226033333333","6500100","板橋區"
"220027","568-UM","2018/07/16 14:59:17","新北市板橋區僑中一街124巷70-5號","121.449071666667","25.0163933333333","6500100","板橋區"
"220011","609-BX","2018/07/16 14:59:28","新北市板橋區萬安街53巷33號","121.482721666667","25.023515","6500100","板橋區"
"220040","637-BX","2018/07/16 14:59:21","新北市板橋區文聖街101巷26號","121.478553333333","25.0298233333333","6500100","板橋區"
"220005","686-BX","2018/07/16 14:59:25","新北市板橋區四川路二段126號","121.450173333333","24.9938166666667","6500100","板橋區"
"220042","689-BX","2018/07/16 14:59:28","新北市板橋區長江路二段59號","121.46464","25.031475","6500100","板橋區"
"220002","741-BX","2018/07/16 14:59:37","新北市板橋區忠孝路忠義巷3弄20號","121.4653","25.0040333333333","6500100","板橋區"
"220051","KEA-2699","2018/07/16 14:59:28","新北市板橋區仁化街56號","121.475721666667","25.0315466666667","6500100","板橋區"
"220025","806-UM","2018/07/16 14:59:04","新北市板橋區僑中一街124巷20弄1號","121.44617","25.0140883333333","6500100","板橋區"
"220003","827-TW","2018/07/16 14:59:30","新北市板橋區國慶路167巷21號","121.461738333333","24.9975716666667","6500100","板橋區"
"220014","829-TW","2018/07/16 14:59:28","新北市板橋區中山路一段206巷2弄14號","121.469586666667","25.0127083333333","6500100","板橋區"
"220045","830-TW","2018/07/16 14:59:27","新北市板橋區莒光路40巷18號","121.470036666667","25.0235816666667","6500100","板橋區"
"220038","833-TW","2018/07/16 14:59:14","新北市板橋區綠堤街41-1號","121.455326666667","25.02596","6500100","板橋區"
"220022","895-R6","2018/07/16 14:59:25","新北市板橋區府後街1巷2-2號","121.459153333333","25.0106766666667","6500100","板橋區"
"220021","985-R7","2018/07/16 14:59:29","新北市板橋區南雅西路二段149號","121.452076666667","25.0118583333333","6500100","板橋區"
"220046","AAC-210","2018/07/16 14:59:20","新北市板橋區光正街18巷2號","121.462788333333","25.0171983333333","6500100","板橋區"
"220018","AAC-253","2018/07/16 14:59:30","新北市板橋區民族路67號","121.46545","25.0085916666667","6500100","板橋區"
"235032","KEA-2873","2018/07/16 14:59:18","新北市中和區勝利路35巷5號","121.499285","25.0069416666667","6500300","中和區"
