"lineid","car","time","location","longitude","latitude","cityid","cityname"
"234025","9371-KE","2018/07/16 15:19:20","新北市永和區中山路一段74號","121.512428333333","25.0108666666667","6500400","永和區"
"243004","646-TV","2018/07/16 15:19:26","新北市泰山區泰林路三段92號","121.418033333333","25.06532","6501600","泰山區"
"231002","002-UM","2018/07/16 15:19:34","新北市新店區中央一街20-1號","121.528008333333","24.9727016666667","6500600","新店區"
"231028","046-UY","2018/07/16 15:19:18","新北市新店區僑信路120巷40號","121.499283333333","24.946","6500600","新店區"
"231001","047-UY","2018/07/16 15:19:33","新北市新店區北新路一段263號","121.540993333333","24.9664416666667","6500600","新店區"
"231005","106-UY","2018/07/16 15:19:29","新北市新店區建國路231號","121.537528333333","24.9818066666667","6500600","新店區"
"231036","110-UY","2018/07/16 15:19:28","新北市新店區安祥路69巷17號","121.481865","24.9613633333333","6500600","新店區"
"231011","187-VK","2018/07/16 15:19:29","新北市新店區寶慶街74號","121.541646666667","24.9867716666667","6500600","新店區"
"231023","KEA-2219","2018/07/16 15:19:36","新北市新店區北新路一段64巷39弄16號","121.542603333333","24.965915","6500600","新店區"
"231026","256-BX","2018/07/16 15:19:33","新北市新店區中正路247巷6弄2號","121.538745","24.9728166666667","6500600","新店區"
"231003","268-BY","2018/07/16 15:19:29","新北市新店區寶橋路194號","121.550666666667","24.9784083333333","6500600","新店區"
"231018","278-BY","2018/07/16 15:19:26","新北市新店區中央七街7號","121.530726666667","24.975095","6500600","新店區"
"231014","AAD-862","2018/07/16 15:19:24","新北市新店區明山路45號","121.563821666667","24.956035","6500600","新店區"
"231004","355-BY","2018/07/16 15:19:32","新北市新店區博愛街13巷23號","121.540301666667","24.9741333333333","6500600","新店區"
"231038","3712-VJ","2018/07/16 15:19:31","新北市新店區安華路28-1號","121.519661666667","24.9609016666667","6500600","新店區"
"231037","4716-K9","2018/07/16 15:19:29","新北市新店區安民街341-1號","121.51665","24.974965","6500600","新店區"
"231025","4715-K9","2018/07/16 15:19:34","新北市新店區中正路491號","121.533801666667","24.9824316666667","6500600","新店區"
"231034","616-UM","2018/07/16 15:19:31","新北市新店區如意街6巷1號","121.495395","24.9489883333333","6500600","新店區"
"231030","619-UM","2018/07/16 15:19:26","新北市新店區安民街341-1號","121.51686","24.974975","6500600","新店區"
"231039","718-UY","2018/07/16 15:19:30","新北市新店區寶元路一段65號","121.542231666667","24.9857716666667","6500600","新店區"
"231035","719-UM","2018/07/16 15:19:21","新北市新店區永平街23巷9號","121.516675","24.9828766666667","6500600","新店區"
"231019","719-UY","2018/07/16 15:19:21","新北市新店區永福路54-2號","121.558166666667","24.92877","6500600","新店區"
"231031","720-UM","2018/07/16 15:19:22","新北市新店區和成街15巷2號","121.487791666667","24.94728","6500600","新店區"
"231029","897-TW","2018/07/16 15:19:34","新北市新店區安康路三段740號","121.473805","24.9419533333333","6500600","新店區"
"231024","AKT-0513","2018/07/16 15:19:16","新北市新店區光明街183號","121.539795","24.9631583333333","6500600","新店區"
"241011","013-R5","2018/07/16 15:19:25","新北市三重區成功路187號","121.485313333333","25.0526216666667","6500200","三重區"
"241016","266-UM","2018/07/16 15:19:27","新北市三重區重新路四段121號","121.484746666667","25.0522616666667","6500200","三重區"
"241022","887-TS","2018/07/16 15:19:22","新北市三重區重新路四段121號","121.484853333333","25.0525516666667","6500200","三重區"
"235030","003-UY","2018/07/16 15:19:26","新北市中和區保平路318號","121.507211666667","25.004285","6500300","中和區"
"235029","098-UM","2018/07/16 15:19:39","新北市中和區圓通路176-1號","121.497161666667","24.9945266666667","6500300","中和區"
"235036","301-VK","2018/07/16 15:19:22","新北市中和區中和路74號","121.500581666667","25.0002183333333","6500300","中和區"
"247009","KEA-2869","2018/07/16 15:19:29","新北市八里區中山路三段409號","121.368698333333","25.1347966666667","6501400","蘆洲區"
"235014","4979-A6","2018/07/16 15:19:32","新北市中和區景平路464巷2弄1-4號","121.505888333333","24.9940233333333","6500300","中和區"
"235033","4980-A6","2018/07/16 15:19:31","新北市中和區圓通路61號","121.5005","24.9972333333333","6500300","中和區"
"235012","896-TW","2018/07/16 15:19:26","新北市中和區興南路一段20-1號","121.511263333333","24.9909266666667","6500300","中和區"
"235023","AAC-215","2018/07/16 15:19:35","新北市中和區圓通路316號","121.486358333333","24.9879816666667","6500300","中和區"
"220017","AAD-861","2018/07/16 15:19:16","新北市板橋區南雅南路二段1-1號","121.454728333333","25.00374","6500100","板橋區"
"253003","6232-TK","2018/07/16 15:19:24","新北市石門區小坑9號","121.594488333333","25.2891533333333","6502200","石門區"
"253001","6251-TK","2018/07/16 15:19:35","新北市石門區楓林28-2號","121.541915","25.2891783333333","6502200","石門區"
"253002","637-UY","2018/07/16 15:19:37","新北市石門區尖子鹿103-3號","121.582203333333","25.29507","6502200","石門區"
"253004","8270-PC","2018/07/16 15:19:27","新北市石門區小坑23號","121.594278333333","25.27836","6502200","石門區"
"207002","749-BX","2018/07/16 15:19:30","新北市萬里區崁腳里內中福路4-5號","121.666461666667","25.164075","6502800","萬里區"
"207001","662-BX","2018/07/16 15:19:35","新北市萬里區大鵬里萬里加投24-2號","121.64899","25.207285","6502800","萬里區"
"236064","105-UM","2018/07/16 15:19:23","新北市土城區裕民路185巷36弄10號","121.45436","24.9845266666667","6501300","土城區"
"236074","166-UM","2018/07/16 15:19:33","新北市土城區溪頭路20巷2弄2號","121.412893333333","24.9555583333333","6501300","土城區"
"236029","253-BX","2018/07/16 15:19:34","新北市土城區中央路一段264-2號","121.444025","24.9838083333333","6501300","土城區"
"236024","269-VK","2018/07/16 15:19:26","新北市土城區員林街61巷2弄17號","121.444656666667","24.9776966666667","6501300","土城區"
"236012","270-VK","2018/07/16 15:19:32","新北市土城區廣福街8號","121.45727","24.9888883333333","6501300","土城區"
"236032","271-VK","2018/07/16 15:19:26","新北市土城區國際路108號","121.467386666667","24.97569","6501300","土城區"
"236016","401-BY","2018/07/16 15:19:24","新北市土城區峰廷街8號","121.468681666667","24.9877866666667","6501300","土城區"
"236040","752-BX","2018/07/16 15:19:00","新北市土城區裕民路284號","121.455563333333","24.9819516666667","6501300","土城區"
"236057","912-UM","2018/07/16 15:19:27","新北市土城區中央路二段231號","121.440263333333","24.9724633333333","6501300","土城區"
"236045","913-UM","2018/07/16 15:19:20","新北市土城區清水路328號","121.463931666667","24.985405","6501300","土城區"
"236060","915-UM","2018/07/16 15:19:18","新北市土城區延和路105巷5弄1號","121.467275","24.9910833333333","6501300","土城區"
"236054","AAC-216","2018/07/16 15:19:18","新北市土城區學府路一段276號","121.449978333333","24.9828983333333","6501300","土城區"
"238010","601-UM","2018/07/16 15:19:20","新北市樹林區中正路433-2號","121.414808333333","25.00831","6500700","樹林區"
"238005","571-TV","2018/07/16 15:19:29","新北市樹林區樹新路72號","121.42914","24.9972366666667","6500700","樹林區"
"238011","5061-A6","2018/07/16 15:19:34","新北市樹林區東榮街8號","121.418148333333","24.98379","6500700","樹林區"
"238009","KEA-2213","2018/07/16 15:19:20","新北市樹林區忠孝街17號","121.423521666667","24.982615","6500700","樹林區"
"238008","KEA-2539","2018/07/16 15:19:19","新北市樹林區西圳街一段165巷20弄11號","121.39558","24.9601883333333","6500700","樹林區"
"238012","303-VK","2018/07/16 15:19:35","新北市樹林區中山路一段146號","121.422583333333","24.9901416666667","6500700","樹林區"
"238001","283-BY","2018/07/16 15:19:21","新北市樹林區保安街二段335號","121.41248","25.0077","6500700","樹林區"
"238001","282-BY","2018/07/16 15:19:32","新北市樹林區大安路145巷27號","121.423158333333","24.99641","6500700","樹林區"
"238007","268-VK","2018/07/16 15:19:26","新北市樹林區俊英街98號","121.427728333333","25.0051333333333","6500700","樹林區"
"238013","172-UY","2018/07/16 15:19:18","新北市樹林區新興街17號","121.400125","24.9727266666667","6500700","樹林區"
"238003","169-UY","2018/07/16 15:19:30","新北市樹林區中山路一段135-1號","121.422435","24.9898916666667","6500700","樹林區"
"220030","610-BX","2018/07/16 15:19:27","新北市板橋區大觀路三段97號","121.432761666667","24.9946083333333","6500100","板橋區"
"220050","245-BX","2018/07/16 15:19:37","新北市板橋區縣民大道三段32號","121.471551666667","25.0188266666667","6500100","板橋區"
"220020","277-BY","2018/07/16 15:19:16","新北市樹林區八德街495-2號","121.401151666667","24.96934","6500100","板橋區"
"220031","286-VK","2018/07/16 15:19:33","新北市板橋區僑中二街106巷10號","121.445398333333","25.0076816666667","6500100","板橋區"
"220012","486-VK","2018/07/16 15:19:37","新北市板橋區中山路一段206巷80號","121.472683333333","25.0131033333333","6500100","板橋區"
"220037","491-VK","2018/07/16 15:19:34","新北市板橋區懷德街99號","121.478396666667","25.03156","6500100","板橋區"
"220052","561-BX","2018/07/16 15:19:31","新北市板橋區漢生西路79巷2號","121.462793333333","25.0192516666667","6500100","板橋區"
"220011","609-BX","2018/07/16 15:19:28","新北市板橋區三民路一段89號","121.479643333333","25.021985","6500100","板橋區"
"220042","689-BX","2018/07/16 15:19:32","新北市板橋區長江路二段263號","121.469405","25.0328916666667","6500100","板橋區"
"220051","KEA-2699","2018/07/16 15:19:28","新北市板橋區文聖街231號","121.480678333333","25.0255616666667","6500100","板橋區"
"220038","833-TW","2018/07/16 15:19:21","新北市板橋區互助街82號","121.460558333333","25.0263583333333","6500100","板橋區"
"220018","AAC-253","2018/07/16 15:19:16","新北市板橋區德興街34號","121.453393333333","24.9937983333333","6500100","板橋區"
