"lineid","car","time","location","longitude","latitude","cityid","cityname"
"234070","149-BY","2018/07/16 15:39:27","新北市中和區興南路二段301-1號","121.502388333333","24.9812566666667","6500400","永和區"
"243014","680-BX","2018/07/16 15:34:17","新北市泰山區黎明路35-1號","121.421741666667","25.06023","6501600","泰山區"
"231028","046-UY","2018/07/16 15:39:18","新北市新店區僑信路18號","121.499696666667","24.95254","6500600","新店區"
"231005","106-UY","2018/07/16 15:39:25","新北市新店區中正路348號","121.536371666667","24.97551","6500600","新店區"
"231011","187-VK","2018/07/16 15:39:29","新北市新店區寶元路一段109號","121.54574","24.9831466666667","6500600","新店區"
"231023","KEA-2219","2018/07/16 15:39:36","新北市新店區中興路一段274號","121.545383333333","24.9682433333333","6500600","新店區"
"231026","256-BX","2018/07/16 15:39:33","新北市新店區三民路77號","121.536008333333","24.9714916666667","6500600","新店區"
"231003","268-BY","2018/07/16 15:39:29","新北市新店區中興路二段231-2號","121.547906666667","24.9749666666667","6500600","新店區"
"231018","278-BY","2018/07/16 15:39:26","新北市新店區民生路156巷96號","121.527353333333","24.98225","6500600","新店區"
"231014","AAD-862","2018/07/16 15:39:24","新北市新店區北宜路二段39-1號","121.548783333333","24.951425","6500600","新店區"
"231004","355-BY","2018/07/16 15:39:32","新北市新店區安民街133巷26號","121.515416666667","24.9694816666667","6500600","新店區"
"231038","3712-VJ","2018/07/16 15:39:31","新北市新店區安華路28-1號","121.519651666667","24.9609016666667","6500600","新店區"
"231037","4716-K9","2018/07/16 15:39:29","新北市新店區安民街365巷1弄10號","121.51645","24.97503","6500600","新店區"
"231025","4715-K9","2018/07/16 15:39:34","新北市新店區安光路16號","121.513765","24.964755","6500600","新店區"
"231013","513-UM","2018/07/16 15:39:32","新北市新店區永業路81巷1弄9號","121.530046666667","24.9499","6500600","新店區"
"231034","616-UM","2018/07/16 15:39:31","新北市新店區如意街97號","121.495413333333","24.9469016666667","6500600","新店區"
"231030","619-UM","2018/07/16 15:39:26","新北市新店區新和街110號","121.520953333333","24.9863316666667","6500600","新店區"
"231039","718-UY","2018/07/16 15:39:30","新北市新店區寶元路二段29號","121.546585","24.9818766666667","6500600","新店區"
"231035","719-UM","2018/07/16 15:39:21","新北市新店區安興路81號","121.515476666667","24.9754283333333","6500600","新店區"
"231019","719-UY","2018/07/16 15:39:21","新北市新店區金興路18號","121.550405","24.9297116666667","6500600","新店區"
"231031","720-UM","2018/07/16 15:39:22","新北市新店區雙城路133號","121.49791","24.9387666666667","6500600","新店區"
"231029","897-TW","2018/07/16 15:39:34","新北市新店區安康路三段2號","121.494026666667","24.9538416666667","6500600","新店區"
"241011","013-R5","2018/07/16 15:39:25","新北市三重區龍濱路196號","121.50099","25.0733566666667","6500200","三重區"
"241028","022-UY","2018/07/16 15:39:34","新北市三重區成功路96號","121.487666666667","25.051525","6500200","三重區"
"241008","059-VK","2018/07/16 15:39:35","新北市三重區重新路四段121號","121.484943333333","25.052155","6500200","三重區"
"241015","062-VK","2018/07/16 15:39:36","新北市三重區重新路四段121號","121.485038333333","25.052415","6500200","三重區"
"241017","063-VK","2018/07/16 15:39:34","新北市三重區重新路三段132號","121.491603333333","25.0598666666667","6500200","三重區"
"241026","066-VK","2018/07/16 15:39:36","新北市三重區重新路四段121號","121.484806666667","25.052285","6500200","三重區"
"241002","090-VK","2018/07/16 15:39:20","新北市三重區忠孝路三段99巷4號","121.48015","25.0642966666667","6500200","三重區"
"241005","262-UM","2018/07/16 15:39:35","新北市三重區重新路四段121號","121.485166666667","25.0523683333333","6500200","三重區"
"241016","266-UM","2018/07/16 15:39:27","新北市三重區重新路四段121號","121.48468","25.0521966666667","6500200","三重區"
"241018","268-UM","2018/07/16 15:39:33","新北市三重區重新路四段121號","121.484903333333","25.052715","6500200","三重區"
"241013","270-UM","2018/07/16 15:39:33","新北市三重區正義北路291號","121.494963333333","25.0705733333333","6500200","三重區"
"241025","271-UM","2018/07/16 15:39:21","新北市三重區重新路四段121號","121.484823333333","25.0526383333333","6500200","三重區"
"241007","398-BY","2018/07/16 15:39:30","新北市三重區重新路四段121號","121.485113333333","25.052505","6500200","三重區"
"241004","475-VK","2018/07/16 15:39:34","新北市三重區重新路四段121號","121.48516","25.0525","6500200","三重區"
"241014","543-UM","2018/07/16 15:39:33","新北市三重區重新路四段121號","121.48513","25.052445","6500200","三重區"
"241023","545-UM","2018/07/16 15:39:35","新北市三重區重新路四段121號","121.48476","25.0525633333333","6500200","三重區"
"241019","KEA-2593","2018/07/16 15:39:31","新北市三重區重新路四段121號","121.484663333333","25.052325","6500200","三重區"
"241006","AAD-863","2018/07/16 15:38:11","新北市三重區重安街1號","121.489628333333","25.0584333333333","6500200","三重區"
"241022","887-TS","2018/07/16 15:39:22","新北市三重區重新路四段121號","121.484858333333","25.0525","6500200","三重區"
"241012","941-UM","2018/07/16 15:39:21","新北市三重區自強路一段68號","121.497056666667","25.0666133333333","6500200","三重區"
"241029","942-UM","2018/07/16 15:39:37","新北市三重區大同南路202號","121.496825","25.0567283333333","6500200","三重區"
"241033","AAC-255","2018/07/16 15:39:33","新北市三重區重新路五段447號","121.47441","25.047355","6500200","三重區"
"235029","098-UM","2018/07/16 15:39:19","新北市樹林區柑園街二段203巷22號","121.375708333333","24.95061","6500300","中和區"
"235036","301-VK","2018/07/16 15:39:22","新北市中和區圓通路221號","121.4966","24.9943466666667","6500300","中和區"
"235033","4980-A6","2018/07/16 15:39:31","新北市中和區員山路345號","121.481135","25.0016583333333","6500300","中和區"
"235023","AAC-215","2018/07/16 15:39:35","新北市中和區員山路37-8號","121.48209","24.990035","6500300","中和區"
"227001","400-TW","2018/07/16 15:39:10","新北市雙溪區牡丹里中正路48號","121.865088333333","25.03911","6502500","雙溪區"
"253003","6232-TK","2018/07/16 15:39:24","新北市石門區小坑9號","121.59435","25.2883766666667","6502200","石門區"
"236064","105-UM","2018/07/16 15:39:23","新北市土城區中央路三段38號","121.438468333333","24.9688283333333","6501300","土城區"
"236074","166-UM","2018/07/16 15:39:33","新北市土城區福安街66號","121.418408333333","24.9644833333333","6501300","土城區"
"236029","253-BX","2018/07/16 15:39:37","新北市土城區中央路一段45巷18號","121.448941666667","24.9900466666667","6501300","土城區"
"236024","269-VK","2018/07/16 15:39:26","新北市土城區裕生路83巷29弄7號","121.44834","24.9839533333333","6501300","土城區"
"236012","270-VK","2018/07/16 15:39:32","新北市土城區廣明街65號","121.454898333333","24.99364","6501300","土城區"
"236016","401-BY","2018/07/16 15:39:29","新北市土城區延吉街137巷25弄5號","121.471533333333","24.9850416666667","6501300","土城區"
"236040","752-BX","2018/07/16 15:39:00","新北市土城區學府路一段165號","121.45298","24.9857166666667","6501300","土城區"
"236057","912-UM","2018/07/16 15:39:21","新北市土城區中央路一段324號","121.443266666667","24.9816166666667","6501300","土城區"
"236045","913-UM","2018/07/16 15:39:40","新北市土城區金城路三段166號","121.467385","24.9875033333333","6501300","土城區"
"236060","915-UM","2018/07/16 15:39:38","新北市土城區立德路135巷5弄2號","121.464993333333","24.9870533333333","6501300","土城區"
"236054","AAC-216","2018/07/16 15:39:35","新北市土城區延和路3號","121.463603333333","24.98772","6501300","土城區"
"238002","755-BX","2018/07/16 15:39:31","新北市樹林區日新街90號","121.421515","24.9902033333333","6500700","樹林區"
"238010","601-UM","2018/07/16 15:39:31","新北市樹林區龍興街15號","121.402946666667","25.01642","6500700","樹林區"
"238005","571-TV","2018/07/16 15:39:34","新北市樹林區太平路101號","121.4191","24.9810733333333","6500700","樹林區"
"238011","5061-A6","2018/07/16 15:39:34","新北市樹林區中山路二段207號","121.403878333333","24.977265","6500700","樹林區"
"238009","KEA-2213","2018/07/16 15:39:20","新北市樹林區中華路185號","121.420568333333","24.9817866666667","6500700","樹林區"
"238008","KEA-2539","2018/07/16 15:39:37","新北市樹林區柑園街二段18號","121.387855","24.95576","6500700","樹林區"
"238012","303-VK","2018/07/16 15:39:29","新北市樹林區中山路二段64號","121.415831666667","24.9841783333333","6500700","樹林區"
"238001","283-BY","2018/07/16 15:39:21","新北市樹林區保安街二段293-1號","121.412288333333","25.0062933333333","6500700","樹林區"
"238001","282-BY","2018/07/16 15:39:21","新北市樹林區潭興街143巷11號","121.425385","24.9999966666667","6500700","樹林區"
"238007","268-VK","2018/07/16 15:39:26","新北市樹林區俊英街222號","121.424976666667","25.00998","6500700","樹林區"
"238013","172-UY","2018/07/16 15:39:18","新北市樹林區中洲街30巷13弄41號","121.398288333333","24.9724133333333","6500700","樹林區"
"238003","169-UY","2018/07/16 15:39:30","新北市樹林區復興路268號","121.418251666667","24.9885833333333","6500700","樹林區"
"220050","245-BX","2018/07/16 15:39:36","新北市板橋區太和街6巷3號","121.473723333333","25.0201983333333","6500100","板橋區"
"220052","561-BX","2018/07/16 15:39:31","新北市板橋區漢生東路53巷4號","121.466023333333","25.01674","6500100","板橋區"
"220038","833-TW","2018/07/16 15:39:21","新北市板橋區四維路296號","121.462816666667","25.0293366666667","6500100","板橋區"
"220018","AAC-253","2018/07/16 15:39:16","新北市板橋區華東街1-9號","121.448218333333","24.9949383333333","6500100","板橋區"
