"lineid","car","time","location","longitude","latitude","cityid","cityname"
"234070","149-BY","2018/07/16 15:59:26","新北市永和區福和路1號","121.526638333333","25.0099716666667","6500400","永和區"
"243009","297-R6","2018/07/16 15:49:49","新北市泰山區黎明路25號","121.422023333333","25.06096","6501600","泰山區"
"243012","646-TV","2018/07/16 15:45:52","新北市泰山區黎明路25號","121.422146666667","25.06063","6501600","泰山區"
"243014","680-BX","2018/07/16 15:34:17","新北市泰山區黎明路35-1號","121.421741666667","25.06023","6501600","泰山區"
"231046","107-UY","2018/07/16 15:59:30","新北市新店區安康路一段323-3號","121.52121","24.9638383333333","6500600","新店區"
"231011","187-VK","2018/07/16 15:59:29","新北市新店區中正路384號","121.534746666667","24.9770083333333","6500600","新店區"
"231023","KEA-2219","2018/07/16 15:59:16","新北市新店區柴埕路59號","121.513705","24.964915","6500600","新店區"
"231003","268-BY","2018/07/16 15:59:29","新北市新店區寶興路58巷1號","121.54983","24.9720716666667","6500600","新店區"
"231018","278-BY","2018/07/16 15:59:26","新北市新店區中正路663巷1弄2號","121.53302","24.9899966666667","6500600","新店區"
"231014","AAD-862","2018/07/16 15:59:24","新北市新店區中正路284巷4弄3號","121.538525","24.9747116666667","6500600","新店區"
"231038","3712-VJ","2018/07/16 15:59:31","新北市新店區安康路二段226號","121.5096","24.9592766666667","6500600","新店區"
"231037","4716-K9","2018/07/16 15:59:29","新北市新店區安康路二段16巷48號","121.516761666667","24.965675","6500600","新店區"
"231013","513-UM","2018/07/16 15:59:32","新北市新店區安光路10-1號","121.513646666667","24.9642733333333","6500600","新店區"
"231034","616-UM","2018/07/16 15:59:31","新北市新店區如意街75號","121.494385","24.947135","6500600","新店區"
"231030","619-UM","2018/07/16 15:59:30","新北市新店區永平街30號","121.516408333333","24.983915","6500600","新店區"
"231035","719-UM","2018/07/16 15:57:01","新北市新店區安民街303巷9弄2號","121.51694","24.973415","6500600","新店區"
"231019","719-UY","2018/07/16 15:59:21","新北市新店區新烏路一段65號","121.54625","24.9444133333333","6500600","新店區"
"241011","013-R5","2018/07/16 15:59:25","新北市三重區雙園街1巷8號","121.49719","25.0684516666667","6500200","三重區"
"241028","022-UY","2018/07/16 15:59:34","新北市三重區電信街81號","121.495798333333","25.058275","6500200","三重區"
"241008","059-VK","2018/07/16 15:59:35","新北市三重區重新路四段121號","121.485231666667","25.0523333333333","6500200","三重區"
"241015","062-VK","2018/07/16 15:59:36","新北市三重區重新路四段121號","121.485171666667","25.0522616666667","6500200","三重區"
"241017","063-VK","2018/07/16 15:59:34","新北市三重區大仁街48巷4號","121.491408333333","25.0644033333333","6500200","三重區"
"241026","066-VK","2018/07/16 15:59:16","新北市三重區中正南路12號","121.493506666667","25.060585","6500200","三重區"
"241002","090-VK","2018/07/16 15:59:20","新北市三重區仁義街91號","121.499883333333","25.0793183333333","6500200","三重區"
"241003","091-VK","2018/07/16 15:59:33","新北市三重區自強路五段114號","121.49691","25.0837333333333","6500200","三重區"
"241024","742-BX","2018/07/16 15:59:30","新北市三重區忠孝路三段2號","121.482046666667","25.067725","6500200","三重區"
"241005","262-UM","2018/07/16 15:59:35","新北市三重區三信路5號","121.488666666667","25.0864483333333","6500200","三重區"
"241016","266-UM","2018/07/16 15:59:27","新北市三重區重新路四段121號","121.484765","25.0522316666667","6500200","三重區"
"241018","268-UM","2018/07/16 15:59:33","新北市三重區大仁街20號","121.49157","25.0635816666667","6500200","三重區"
"241032","269-UM","2018/07/16 15:59:27","新北市三重區三陽路100巷3弄13號","121.483033333333","25.0581033333333","6500200","三重區"
"241013","270-UM","2018/07/16 15:59:33","新北市三重區三和路三段8號","121.497083333333","25.0701333333333","6500200","三重區"
"241025","271-UM","2018/07/16 15:59:21","新北市三重區三民街193號","121.482168333333","25.06571","6500200","三重區"
"241007","398-BY","2018/07/16 15:59:30","新北市三重區三和路四段322號","121.48388","25.077985","6500200","三重區"
"241004","475-VK","2018/07/16 15:59:34","新北市三重區重新路四段121號","121.48512","25.0525233333333","6500200","三重區"
"241020","478-VK","2018/07/16 15:59:30","新北市三重區力行路一段80號","121.48366","25.06955","6500200","三重區"
"241030","480-VK","2018/07/16 15:59:33","新北市三重區重新路四段101-11號","121.484965","25.05323","6500200","三重區"
"241014","543-UM","2018/07/16 15:59:33","新北市三重區重新路四段121號","121.485088333333","25.0523216666667","6500200","三重區"
"241023","545-UM","2018/07/16 15:59:35","新北市三重區中正北路174-7號","121.483438333333","25.0668516666667","6500200","三重區"
"241001","547-UM","2018/07/16 15:59:28","新北市三重區重新路四段121號","121.484485","25.051975","6500200","三重區"
"241019","KEA-2593","2018/07/16 15:59:31","新北市蘆洲區國道路二段30巷33號","121.474213333333","25.072725","6500200","三重區"
"241006","AAD-863","2018/07/16 15:59:24","新北市三重區中正北路18號","121.488716666667","25.0633733333333","6500200","三重區"
"241022","887-TS","2018/07/16 15:59:22","新北市三重區三民街175巷2號","121.48342","25.0655033333333","6500200","三重區"
"241012","941-UM","2018/07/16 15:59:21","新北市三重區文化北路118巷63號","121.497281666667","25.0661683333333","6500200","三重區"
"241029","942-UM","2018/07/16 15:59:17","新北市三重區大同南路212巷45號","121.497993333333","25.0567","6500200","三重區"
"241033","AAC-255","2018/07/16 15:59:33","新北市三重區重新路五段440號","121.474801666667","25.0473983333333","6500200","三重區"
"235029","098-UM","2018/07/16 15:59:19","新北市土城區忠義路76巷11-1號","121.440695","24.9648366666667","6500300","中和區"
"235058","151-BY","2018/07/16 15:58:42","新北市中和區員山路36巷16-2號","121.485266666667","24.9915416666667","6500300","中和區"
"235036","301-VK","2018/07/16 15:49:57","新北市中和區員山路36巷13號","121.48409","24.9907383333333","6500300","中和區"
"235026","800-TS","2018/07/16 15:59:37","新北市中和區中山路二段508號","121.486541666667","25.0049583333333","6500300","中和區"
"224007","275-VK","2018/07/16 15:59:34","新北市瑞芳區楓子瀨路40號","121.770631666667","25.1060433333333","6501200","瑞芳區"
"227008","642-TC","2018/07/16 15:59:26","新北市雙溪區三港里雙澳路32-2號","121.870625","25.0497016666667","6502500","雙溪區"
"227001","400-TW","2018/07/16 15:59:30","新北市雙溪區平林里外平林76號","121.84196","25.0348616666667","6502500","雙溪區"
"236057","912-UM","2018/07/16 15:59:21","新北市土城區中央路二段69號","121.442381666667","24.97874","6501300","土城區"
"236054","AAC-216","2018/07/16 15:59:38","新北市土城區中華路二段62號","121.438921666667","24.97657","6501300","土城區"
"238002","755-BX","2018/07/16 15:59:31","新北市樹林區啟智街80巷19號","121.418666666667","24.99248","6500700","樹林區"
"238010","601-UM","2018/07/16 15:59:40","新北市樹林區龍興街31巷8號","121.403411666667","25.0160016666667","6500700","樹林區"
"238005","571-TV","2018/07/16 15:59:29","新北市樹林區博愛街73號","121.42713","24.9921416666667","6500700","樹林區"
"238011","5061-A6","2018/07/16 15:59:34","新北市樹林區育德街19巷30號","121.39263","24.96993","6500700","樹林區"
"238009","KEA-2213","2018/07/16 15:59:40","新北市樹林區太順街49巷2號","121.41792","24.9791883333333","6500700","樹林區"
"238012","303-VK","2018/07/16 15:59:09","新北市樹林區中正路22-1號","121.42792","24.99928","6500700","樹林區"
"238001","283-BY","2018/07/16 15:59:21","新北市樹林區中正路433-2號","121.414963333333","25.0081566666667","6500700","樹林區"
"238001","282-BY","2018/07/16 15:59:22","新北市樹林區千歲街41號","121.425345","24.9961083333333","6500700","樹林區"
"238007","268-VK","2018/07/16 15:59:26","新北市樹林區三俊街173號","121.419398333333","25.0156083333333","6500700","樹林區"
"238013","172-UY","2018/07/16 15:59:18","新北市樹林區佳園路一段71-5號","121.393448333333","24.97011","6500700","樹林區"
"238003","169-UY","2018/07/16 15:59:10","新北市樹林區日新街148巷33號","121.419596666667","24.9877316666667","6500700","樹林區"
