"lineid","car","time","location","longitude","latitude","cityid","cityname"
"249005","172-UM","2018/07/16 17:19:24","新北市八里區華富山30-1號","121.418955","25.1299216666667","6502300","八里區"
"249001","173-UM","2018/07/16 17:19:35","新北市八里區中華路二段165巷3號","121.407653333333","25.1508733333333","6502300","八里區"
"249004","303-UY","2018/07/16 17:19:30","新北市八里區文化街91號","121.422758333333","25.1599383333333","6502300","八里區"
"249002","305-UY","2018/07/16 17:19:36","新北市八里區龍米路二段117巷26號","121.444661666667","25.1427566666667","6502300","八里區"
"249003","593-UM","2018/07/16 17:19:35","新北市八里區中山路二段459號","121.396286666667","25.145435","6502300","八里區"
"244007","080-UY","2018/07/16 17:19:36","新北市林口區湖北里2鄰9號","121.387838333333","25.0896066666667","6501700","林口區"
"244019","403-UM","2018/07/16 17:19:36","新北市林口區公園路223巷15號","121.372928333333","25.0746566666667","6501700","林口區"
"244013","742-UY","2018/07/16 17:19:25","新北市林口區粉寮69號","121.404796666667","25.0908116666667","6501700","林口區"
"244009","410-SL","2018/07/16 17:19:25","新北市林口區文化北路二段550巷30弄10號","121.37893","25.0916733333333","6501700","林口區"
"244023","483-VK","2018/07/16 17:19:36","新北市林口區隆林街69號","121.386825","25.0754433333333","6501700","林口區"
"244017","485-VK","2018/07/16 17:19:22","新北市林口區粉寮路60-17號","121.404295","25.090095","6501700","林口區"
"244011","657-BX","2018/07/16 17:19:34","新北市林口區粉寮路一段105號","121.397863333333","25.080325","6501700","林口區"
"244025","837-TS","2018/07/16 17:19:32","新北市林口區仁愛路二段526號","121.372848333333","25.0779983333333","6501700","林口區"
"244021","838-TS","2018/07/16 17:19:23","新北市林口區粉寮路二段262號","121.40482","25.0945016666667","6501700","林口區"
"243014","680-BX","2018/07/16 17:19:32","新北市泰山區黎明路25號","121.422055","25.06067","6501600","泰山區"
"231046","107-UY","2018/07/16 17:19:30","新北市新店區直潭路92號","121.530915","24.9375966666667","6500600","新店區"
"241011","013-R5","2018/07/16 17:19:25","新北市三重區河邊北街100巷27號","121.502785","25.0702516666667","6500200","三重區"
"241028","022-UY","2018/07/16 17:19:34","新北市三重區中正南路81號","121.49423","25.058615","6500200","三重區"
"241008","059-VK","2018/07/16 17:19:35","新北市三重區下竹圍街9號","121.481015","25.0758816666667","6500200","三重區"
"241015","062-VK","2018/07/16 17:19:36","新北市三重區福德北路89號","121.501903333333","25.0662516666667","6500200","三重區"
"241017","063-VK","2018/07/16 17:19:34","新北市三重區大同北路52號","121.495063333333","25.0629983333333","6500200","三重區"
"241026","066-VK","2018/07/16 17:19:36","新北市三重區福裕街39號","121.498988333333","25.0615316666667","6500200","三重區"
"241002","090-VK","2018/07/16 17:19:40","新北市三重區自強路五段22號","121.492633333333","25.0806683333333","6500200","三重區"
"241003","091-VK","2018/07/16 17:19:33","新北市三重區五華街125號","121.491391666667","25.0841366666667","6500200","三重區"
"241024","742-BX","2018/07/16 17:19:30","新北市三重區中正北路189號","121.47727","25.06961","6500200","三重區"
"241005","262-UM","2018/07/16 17:19:35","新北市三重區仁華街20號","121.483321666667","25.08175","6500200","三重區"
"241016","266-UM","2018/07/16 17:19:27","新北市三重區大同北路54巷2號","121.494101666667","25.0635433333333","6500200","三重區"
"241009","267-UM","2018/07/16 17:19:19","新北市三重區仁美街111號","121.485706666667","25.0808783333333","6500200","三重區"
"241018","268-UM","2018/07/16 17:19:33","新北市三重區安慶街107號","121.495205","25.0691216666667","6500200","三重區"
"241032","269-UM","2018/07/16 17:19:27","新北市三重區興華街130號","121.483298333333","25.0598","6500200","三重區"
"241013","270-UM","2018/07/16 17:19:33","新北市三重區三和路三段101巷38號","121.495215","25.0729366666667","6500200","三重區"
"241025","271-UM","2018/07/16 17:19:37","新北市三重區中正北路233號","121.475841666667","25.070385","6500200","三重區"
"241007","398-BY","2018/07/16 17:19:30","新北市三重區慈愛街30號","121.485045","25.0788766666667","6500200","三重區"
"241024","KEA-2210","2018/07/16 17:19:35","新北市三重區忠孝路三段52號","121.480666666667","25.0656883333333","6500200","三重區"
"241004","475-VK","2018/07/16 17:19:33","新北市三重區五華街110巷14號","121.491266666667","25.0823816666667","6500200","三重區"
"241020","478-VK","2018/07/16 17:19:31","新北市三重區自強路三段7巷2號","121.487395","25.0720333333333","6500200","三重區"
"241030","480-VK","2018/07/16 17:19:33","新北市三重區成功路73巷12號","121.489418333333","25.051925","6500200","三重區"
"241014","543-UM","2018/07/16 17:19:33","新北市三重區長榮路6號","121.500066666667","25.0685","6500200","三重區"
"241023","545-UM","2018/07/16 17:19:35","新北市三重區三民街166號","121.482131666667","25.06554","6500200","三重區"
"241001","547-UM","2018/07/16 17:19:37","新北市三重區仁愛街331號","121.492225","25.0796416666667","6500200","三重區"
"241019","KEA-2593","2018/07/16 17:19:31","新北市三重區忠孝路二段52號","121.485021666667","25.07041","6500200","三重區"
"241006","AAD-863","2018/07/16 17:19:23","新北市三重區車路頭街139巷14號","121.484341666667","25.0762116666667","6500200","三重區"
"241022","887-TS","2018/07/16 17:19:22","新北市三重區中正北路118巷2號","121.485616666667","25.0650866666667","6500200","三重區"
"241012","941-UM","2018/07/16 17:19:21","新北市三重區仁興街31巷39號","121.500221666667","25.0754566666667","6500200","三重區"
"241029","942-UM","2018/07/16 17:19:37","新北市三重區重新路四段86號","121.48804","25.0573633333333","6500200","三重區"
"241033","AAC-255","2018/07/16 17:19:33","新北市三重區中興北街207號","121.469033333333","25.0577783333333","6500200","三重區"
"235064","005-UY","2018/07/16 17:19:34","新北市中和區員山路36巷16-3號","121.484935","24.9912583333333","6500300","中和區"
"247010","KEA-2869","2018/07/16 17:19:39","新北市蘆洲區鷺江街12號","121.479128333333","25.082615","6501400","蘆洲區"
"247024","893-R6","2018/07/16 17:19:37","新北市蘆洲區長榮路262號","121.460365","25.0860216666667","6501400","蘆洲區"
"247014","546-UM","2018/07/16 17:19:31","新北市蘆洲區得勝街118號","121.471046666667","25.0828566666667","6501400","蘆洲區"
"247022","500-BY","2018/07/16 17:19:24","新北市蘆洲區三民路128巷31號","121.469998333333","25.0895166666667","6501400","蘆洲區"
"247012","339-TH","2018/07/16 17:19:28","新北市蘆洲區信義路319巷10弄3號","121.477563333333","25.0864816666667","6501400","蘆洲區"
"247004","337-TH","2018/07/16 17:19:36","新北市蘆洲區永安南路二段286號","121.457616666667","25.081325","6501400","蘆洲區"
"247006","336-TH","2018/07/16 17:19:26","新北市蘆洲區永安南路二段156號","121.461666666667","25.078975","6501400","蘆洲區"
"247018","057-VK","2018/07/16 17:19:33","新北市蘆洲區民權路70號","121.475065","25.0873633333333","6501400","蘆洲區"
"247008","056-VK","2018/07/16 17:19:37","新北市蘆洲區永安北路一段72巷22號","121.476605","25.0770883333333","6501400","蘆洲區"
"247016","007-UY","2018/07/16 17:19:33","新北市蘆洲區正和街96巷26號","121.467793333333","25.0813533333333","6501400","蘆洲區"
"247002","002-UY","2018/07/16 17:19:22","新北市蘆洲區永樂街38巷33弄60號","121.456445","25.08998","6501400","蘆洲區"
"247020","001-UY","2018/07/16 17:19:33","新北市蘆洲區仁愛街8號","121.472498333333","25.0923666666667","6501400","蘆洲區"
"228003","097-TW","2018/07/16 17:19:34","新北市貢寮區福隆里裕隆街16-1號","121.94577","25.016905","6502600","貢寮區"
"228001","212-TW","2018/07/16 17:19:25","新北市貢寮區仁理村尖山腳街18-3號","121.9255","25.0483233333333","6502600","貢寮區"
"228002","663-BX","2018/07/16 17:19:33","新北市貢寮區雙玉里下雙溪街24號","121.920831666667","25.0099966666667","6502600","貢寮區"
"224006","676-BX","2018/07/16 17:19:21","新北市瑞芳區傑魚坑路309號","121.78634","25.1046083333333","6501200","瑞芳區"
"224008","285-BY","2018/07/16 17:19:38","新北市瑞芳區侯硐路48號","121.825778333333","25.0829983333333","6501200","瑞芳區"
"224009","273-VK","2018/07/16 17:19:24","新北市瑞芳區汽車路99號","121.842498333333","25.1086316666667","6501200","瑞芳區"
"224005","271-BY","2018/07/16 17:19:38","新北市瑞芳區鼻頭路247號","121.909646666667","25.1218833333333","6501200","瑞芳區"
"227008","642-TC","2018/07/16 17:19:26","新北市雙溪區三貂里定福路1-1號","121.84964","25.0625816666667","6502500","雙溪區"
"227001","400-TW","2018/07/16 17:19:30","新北市雙溪區上林里內平林90號","121.82754","25.027475","6502500","雙溪區"
"251009","008-UM","2018/07/16 17:19:39","新北市淡水區三民街20號","121.439033333333","25.1717483333333","6501000","淡水區"
"251004","009-UM","2018/07/16 17:19:28","新北市淡水區中正東路二段48巷20號","121.457305","25.1584","6501000","淡水區"
"251013","KEA-2871","2018/07/16 17:19:26","新北市淡水區竹圍子8-5號","121.478818333333","25.1931216666667","6501000","淡水區"
"251014","180-VK","2018/07/16 17:19:28","新北市淡水區公埔子20-6號","121.468081666667","25.2263866666667","6501000","淡水區"
"251015","181-VK","2018/07/16 17:19:13","新北市淡水區樹林口12號","121.478843333333","25.1670616666667","6501000","淡水區"
"251010","413-VK","2018/07/16 17:19:24","新北市淡水區中正路二段211號","121.426211666667","25.189125","6501000","淡水區"
"251012","441-VK","2018/07/16 17:19:30","新北市淡水區中山北路一段158號","121.444323333333","25.1779583333333","6501000","淡水區"
"251008","442-VK","2018/07/16 17:19:22","新北市淡水區大同路263號","121.466726666667","25.1421466666667","6501000","淡水區"
"251006","561-UM","2018/07/16 17:19:36","新北市淡水區重建街204號","121.441203333333","25.17452","6501000","淡水區"
"251016","575-R6","2018/07/16 17:19:22","新北市淡水區鄒厝崙14號","121.461955","25.1906033333333","6501000","淡水區"
"251007","577-R6","2018/07/16 17:19:37","新北市淡水區民生路47-4號","121.462083333333","25.1380816666667","6501000","淡水區"
"251011","650-BX","2018/07/16 17:19:27","新北市淡水區坪頂路128號","121.464965","25.1613333333333","6501000","淡水區"
"251002","672-BX","2018/07/16 17:19:21","新北市淡水區中正路二段31號","121.419343333333","25.181625","6501000","淡水區"
"251003","766-UM","2018/07/16 17:19:32","新北市淡水區中正路二段31號","121.419311666667","25.181805","6501000","淡水區"
"207003","550-UM","2018/07/16 17:19:34","新北市萬里區萬里里獅頭路23號","121.693321666667","25.1782666666667","6502800","萬里區"
"252002","178-VK","2018/07/16 17:19:40","新北市三芝區忠孝街1-14號","121.505525","25.25392","6502100","三芝區"
"252001","292-VK","2018/07/16 17:19:30","新北市三芝區淡金路一段3號","121.498085","25.25965","6502100","三芝區"
"237012","275-BY","2018/07/16 17:19:28","新北市三峽區中山路459巷137號","121.349945","24.9339866666667","6500900","三峽區"
"242058","986-R7","2018/07/16 17:19:36","新北市新莊區中正路400號","121.441645","25.033925","6500500","新莊區"
"242053","751-BX","2018/07/16 17:19:34","新北市新莊區瓊林路59-66號","121.44157","25.02299","6500500","新莊區"
"242027","705-TV","2018/07/16 17:19:27","新北市新莊區中港路303號","121.452796666667","25.0446","6500500","新莊區"
"242025","613-BX","2018/07/16 17:19:28","新北市新莊區中港一街142號","121.446896666667","25.046025","6500500","新莊區"
"242029","612-BX","2018/07/16 17:19:40","新北市新莊區幸福路764號","121.447215","25.0491666666667","6500500","新莊區"
"242042","566-BX","2018/07/16 17:19:39","新北市新莊區中正路481號","121.441236666667","25.0337683333333","6500500","新莊區"
"242046","497-BY","2018/07/16 17:19:36","新北市新莊區中正路487號","121.44103","25.0336916666667","6500500","新莊區"
"242050","441-UM","2018/07/16 17:19:28","新北市新莊區瓊林南路211號","121.434478333333","25.0091316666667","6500500","新莊區"
"242056","440-UM","2018/07/16 17:19:30","新北市新莊區中正路473-1號","121.441938333333","25.0329516666667","6500500","新莊區"
"242036","415-TV","2018/07/16 17:19:30","新北市新莊區新樹路72-7號","121.436386666667","25.0249066666667","6500500","新莊區"
"242007","413-TV","2018/07/16 17:19:24","新北市新莊區新泰路488號","121.44237","25.0458383333333","6500500","新莊區"
"242044","400-BY","2018/07/16 17:19:36","新北市新莊區中正路649號","121.429985","25.0312366666667","6500500","新莊區"
"242023","362-BY","2018/07/16 17:19:39","新北市新莊區中港一街142號","121.446708333333","25.0449833333333","6500500","新莊區"
"242060","353-BY","2018/07/16 17:19:34","新北市新莊區中正路384-1號","121.442008333333","25.03517","6500500","新莊區"
"242009","132-UY","2018/07/16 17:19:31","新北市新莊區中和街63號","121.447538333333","25.0471616666667","6500500","新莊區"
"242039","133-UY","2018/07/16 17:19:24","新北市新莊區新樹路72-6號","121.436495","25.025055","6500500","新莊區"
"242031","135-UY","2018/07/16 17:19:19","新北市新莊區新泰路486號","121.442453333333","25.0456816666667","6500500","新莊區"
"242048","172-VK","2018/07/16 17:19:30","新北市新莊區龍安路249巷1號","121.419058333333","25.02063","6500500","新莊區"
"242017","175-VK","2018/07/16 17:19:32","新北市新莊區中平路82巷22號","121.445756666667","25.0449266666667","6500500","新莊區"
"242004","176-VK","2018/07/16 17:19:35","新北市新莊區新泰路486號","121.442441666667","25.0457","6500500","新莊區"
"242015","346-TH","2018/07/16 17:19:35","新北市新莊區新泰路213巷64號","121.444491666667","25.038405","6500500","新莊區"
"242011","347-TH","2018/07/16 17:19:35","新北市新莊區中平路82巷22號","121.445783333333","25.044985","6500500","新莊區"
"242021","348-TH","2018/07/16 17:19:23","新北市新莊區中港路316號","121.452241666667","25.04547","6500500","新莊區"
"242002","349-TH","2018/07/16 17:19:42","新北市新莊區新泰路260號","121.446118333333","25.0399716666667","6500500","新莊區"
"242013","351-TH","2018/07/16 17:19:23","新北市新莊區新泰路357巷3弄1號","121.442336666667","25.0413016666667","6500500","新莊區"
"238023","601-UM","2018/07/16 17:19:20","新北市樹林區中正路433號","121.415041666667","25.0085166666667","6500700","樹林區"
"238018","571-TV","2018/07/16 17:19:29","新北市樹林區鎮前街267號","121.420138333333","24.9858083333333","6500700","樹林區"
"238024","5061-A6","2018/07/16 17:19:24","新北市樹林區保安街一段48巷19號","121.426338333333","24.9948883333333","6500700","樹林區"
"238022","KEA-2213","2018/07/16 17:19:40","新北市樹林區忠孝街35號","121.423761666667","24.9820516666667","6500700","樹林區"
"238021","KEA-2539","2018/07/16 17:19:30","新北市樹林區西圳街一段140號","121.396975","24.963275","6500700","樹林區"
"238025","303-VK","2018/07/16 17:19:24","新北市樹林區保安二街75號","121.424418333333","24.9951333333333","6500700","樹林區"
"238017","283-BY","2018/07/16 17:19:41","新北市樹林區中正路250號","121.417675","25.0072533333333","6500700","樹林區"
"238014","282-BY","2018/07/16 17:19:24","新北市樹林區長壽街70巷38號","121.421885","24.99491","6500700","樹林區"
"238020","268-VK","2018/07/16 17:19:26","新北市樹林區千歲街61巷10號","121.425928333333","24.9983383333333","6500700","樹林區"
"238026","172-UY","2018/07/16 17:19:39","新北市樹林區味王街14號","121.403083333333","24.9759916666667","6500700","樹林區"
"238016","169-UY","2018/07/16 17:19:27","新北市樹林區中山路一段169號","121.421686666667","24.9885033333333","6500700","樹林區"
"239007","AAC-297","2018/07/16 17:19:21","新北市鶯歌區行政路3-1號","121.350831666667","24.955315","6500800","鶯歌區"
"239006","891-R6","2018/07/16 17:19:27","新北市鶯歌區福昌街20號","121.333038333333","24.96095","6500800","鶯歌區"
"239008","527-UM","2018/07/16 17:19:26","新北市鶯歌區西湖街曾厝巷27號","121.339403333333","24.9614483333333","6500800","鶯歌區"
"239005","526-UM","2018/07/16 17:19:34","新北市鶯歌區福德二街20號","121.329621666667","24.9672966666667","6500800","鶯歌區"
"239001","417-VK","2018/07/16 17:19:20","新北市鶯歌區尖山路228號","121.34325","24.9468","6500800","鶯歌區"
"239003","360-BY","2018/07/16 17:19:34","新北市鶯歌區德昌二街71號","121.333418333333","24.9581566666667","6500800","鶯歌區"
"239002","359-BY","2018/07/16 17:19:29","新北市鶯歌區建國路206號","121.34933","24.9536016666667","6500800","鶯歌區"
"239004","193-VK","2018/07/16 17:19:34","新北市鶯歌區文化路417-5號","121.35283","24.9487816666667","6500800","鶯歌區"
"221008","489-VK","2018/07/16 17:19:33","新北市汐止區康寧街901號","121.651413333333","25.0751283333333","6501100","汐止區"
"242019","281-VK","2018/07/16 17:19:35","新北市新莊區公園路16號","121.448223333333","25.0390716666667","6500500","新莊區"
"235061","KEA-2875","2018/07/16 17:18:49","新北市中和區員山路36巷16-2號","121.485326666667","24.991665","6500300","中和區"
