"lineid","car","time","location","longitude","latitude","cityid","cityname"
"234026","9371-KE","2018/07/16 17:39:33","新北市永和區中正路633號","121.515466666667","25.0100733333333","6500400","永和區"
"249005","172-UM","2018/07/16 17:39:24","新北市八里區荖阡坑路41-6號","121.40234","25.1321783333333","6502300","八里區"
"249001","173-UM","2018/07/16 17:39:35","新北市八里區龍米路二段150號","121.436268333333","25.1563216666667","6502300","八里區"
"249004","303-UY","2018/07/16 17:39:30","新北市八里區賢一街101號","121.41859","25.15732","6502300","八里區"
"249002","305-UY","2018/07/16 17:39:36","新北市八里區頂寮二街117-28號","121.446171666667","25.1266216666667","6502300","八里區"
"249003","593-UM","2018/07/16 17:39:35","新北市八里區中山路二段233號","121.403256666667","25.1491533333333","6502300","八里區"
"248006","077-UY","2018/07/16 17:39:41","新北市五股區中興路二段37巷28號","121.460116666667","25.0749","6501500","五股區"
"232011","375-UM","2018/07/16 17:39:29","新北市坪林區水柳腳34號","121.710175","24.9353033333333","6502000","坪林區"
"244007","080-UY","2018/07/16 17:39:36","新北市林口區林口路272巷23號","121.386898333333","25.0845033333333","6501700","林口區"
"244019","403-UM","2018/07/16 17:39:36","新北市林口區文化一路一段89-5號","121.371765","25.0704716666667","6501700","林口區"
"244013","742-UY","2018/07/16 17:39:25","新北市林口區中山路262-1號","121.384508333333","25.0800316666667","6501700","林口區"
"244009","410-SL","2018/07/16 17:39:25","新北市林口區民享路178號","121.382241666667","25.083625","6501700","林口區"
"244023","483-VK","2018/07/16 17:39:36","新北市林口區興林路346號","121.388696666667","25.0699766666667","6501700","林口區"
"244017","485-VK","2018/07/16 17:39:42","新北市林口區文化一路一段57-2號","121.370991666667","25.06999","6501700","林口區"
"244011","657-BX","2018/07/16 17:39:34","新北市林口區佳林路211號","121.384276666667","25.0771316666667","6501700","林口區"
"244025","837-TS","2018/07/16 17:39:32","新北市林口區忠孝路308巷21號","121.367216666667","25.0721366666667","6501700","林口區"
"244021","838-TS","2018/07/16 17:39:23","新北市林口區仁愛路一段18號","121.397685","25.07522","6501700","林口區"
"222003","436-BY","2018/07/16 17:39:30","新北市深坑區深南路51-1號","121.621265","25.0097866666667","6501800","深坑區"
"222002","659-BX","2018/07/16 17:39:37","新北市深坑區深南路1號","121.62198","25.0048433333333","6501800","深坑區"
"231046","107-UY","2018/07/16 17:39:30","新北市新店區直潭路107號","121.531545","24.9367866666667","6500600","新店區"
"241005","262-UM","2018/07/16 17:39:35","新北市三重區永安北路二段5巷27號","121.482448333333","25.0810833333333","6500200","三重區"
"241016","266-UM","2018/07/16 17:39:27","新北市三重區正義北路15號","121.497738333333","25.0629333333333","6500200","三重區"
"241007","398-BY","2018/07/16 17:39:30","新北市三重區車路頭街135-1號","121.4843","25.0761266666667","6500200","三重區"
"241024","KEA-2210","2018/07/16 17:39:35","新北市三重區大勇街82巷15弄15號","121.480415","25.07189","6500200","三重區"
"241014","543-UM","2018/07/16 17:39:33","新北市三重區河邊北街72-6號","121.50433","25.06843","6500200","三重區"
"241023","545-UM","2018/07/16 17:39:34","新北市三重區中華路128號","121.483555","25.06387","6500200","三重區"
"241019","KEA-2593","2018/07/16 17:39:31","新北市三重區六張街247號","121.487583333333","25.0684033333333","6500200","三重區"
"241006","AAD-863","2018/07/16 17:39:23","新北市八里區荖阡坑路41-3號","121.400555","25.1314083333333","6500200","三重區"
"241012","941-UM","2018/07/16 17:39:21","新北市三重區龍門路300號","121.502468333333","25.0745033333333","6500200","三重區"
"241033","AAC-255","2018/07/16 17:39:33","新北市三重區光復路一段61巷2號","121.472108333333","25.0494066666667","6500200","三重區"
"235064","005-UY","2018/07/16 17:22:06","新北市中和區員山路36巷16-3號","121.484936666667","24.991255","6500300","中和區"
"235065","098-UM","2018/07/16 17:39:39","新北市中和區員山路36巷16-3號","121.485128333333","24.991195","6500300","中和區"
"247010","KEA-2869","2018/07/16 17:39:39","新北市蘆洲區中山一路72號","121.478778333333","25.0811766666667","6501400","蘆洲區"
"247024","893-R6","2018/07/16 17:39:37","新北市蘆洲區長樂路159號","121.462083333333","25.08811","6501400","蘆洲區"
"247014","546-UM","2018/07/16 17:39:31","新北市蘆洲區中山二路121號","121.472178333333","25.0816683333333","6501400","蘆洲區"
"247022","500-BY","2018/07/16 17:39:24","新北市蘆洲區民族路548巷33號","121.467436666667","25.0895316666667","6501400","蘆洲區"
"247012","339-TH","2018/07/16 17:39:28","新北市蘆洲區民權路3巷10號","121.476018333333","25.0854083333333","6501400","蘆洲區"
"247004","337-TH","2018/07/16 17:39:36","新北市蘆洲區長安街249巷12號","121.458585","25.0829966666667","6501400","蘆洲區"
"247006","336-TH","2018/07/16 17:39:26","新北市蘆洲區長安街66號","121.462793333333","25.0801166666667","6501400","蘆洲區"
"247018","057-VK","2018/07/16 17:39:33","新北市蘆洲區民權路69號","121.473518333333","25.08838","6501400","蘆洲區"
"247008","056-VK","2018/07/16 17:39:37","新北市蘆洲區民生街74號","121.472918333333","25.0790016666667","6501400","蘆洲區"
"247016","007-UY","2018/07/16 17:39:33","新北市蘆洲區光華路70巷6號","121.46779","25.0831933333333","6501400","蘆洲區"
"247002","002-UY","2018/07/16 17:39:22","新北市蘆洲區永平街32號","121.458585","25.0910283333333","6501400","蘆洲區"
"247020","001-UY","2018/07/16 17:39:33","新北市蘆洲區民族路355號","121.47182","25.091665","6501400","蘆洲區"
"228003","097-TW","2018/07/16 17:39:34","新北市貢寮區仁理村仁和路92號","121.922743333333","25.050465","6502600","貢寮區"
"228001","212-TW","2018/07/16 17:39:25","新北市貢寮區仁理村仁愛路95-1號","121.927671666667","25.055455","6502600","貢寮區"
"228002","663-BX","2018/07/16 17:39:33","新北市貢寮區福隆里龜壽谷街28號","121.952703333333","25.0106183333333","6502600","貢寮區"
"224010","AGQ-8101","2018/07/16 17:36:00","新北市瑞芳區逢甲路115號","121.807413333333","25.1093233333333","6501200","瑞芳區"
"224006","676-BX","2018/07/16 17:39:21","新北市瑞芳區中山路326號","121.79652","25.110115","6501200","瑞芳區"
"224008","285-BY","2018/07/16 17:39:38","新北市瑞芳區瑞柑新村30號","121.828985","25.1068416666667","6501200","瑞芳區"
"224009","273-VK","2018/07/16 17:39:22","新北市瑞芳區崙頂路1-6號","121.847198333333","25.10455","6501200","瑞芳區"
"224005","271-BY","2018/07/16 17:39:38","新北市瑞芳區海濱路8-6號","121.83168","25.1261583333333","6501200","瑞芳區"
"227008","642-TC","2018/07/16 17:22:54","新北市雙溪區三貂里定福路1-2號","121.850795","25.06344","6502500","雙溪區"
"251009","008-UM","2018/07/16 17:39:39","新北市淡水區中正路32號","121.443906666667","25.169145","6501000","淡水區"
"251004","009-UM","2018/07/16 17:39:32","新北市淡水區中正東路二段141號","121.459285","25.1478933333333","6501000","淡水區"
"251013","KEA-2871","2018/07/16 17:39:23","新北市淡水區演戲埔腳12號","121.469433333333","25.1942383333333","6501000","淡水區"
"251014","180-VK","2018/07/16 17:39:28","新北市淡水區公埔子16-6號","121.481013333333","25.224605","6501000","淡水區"
"251015","181-VK","2018/07/16 17:38:53","新北市淡水區樹林口14-1號","121.479511666667","25.16831","6501000","淡水區"
"251010","413-VK","2018/07/16 17:39:24","新北市淡水區淡海路280巷97號","121.419973333333","25.1888416666667","6501000","淡水區"
"251012","441-VK","2018/07/16 17:39:30","新北市淡水區北新路200巷10號","121.451831666667","25.17967","6501000","淡水區"
"251008","442-VK","2018/07/16 17:39:43","新北市淡水區八勢路一段48號","121.466406666667","25.155115","6501000","淡水區"
"251005","443-VK","2018/07/16 17:39:33","新北市淡水區鄧公路35巷4號","121.451646666667","25.1713133333333","6501000","淡水區"
"251006","561-UM","2018/07/16 17:39:21","新北市淡水區大信街32號","121.442056666667","25.1770916666667","6501000","淡水區"
"251016","575-R6","2018/07/16 17:39:42","新北市淡水區埤島39-15號","121.452748333333","25.19588","6501000","淡水區"
"251007","577-R6","2018/07/16 17:39:37","新北市淡水區民生路124巷30號","121.4642","25.1375516666667","6501000","淡水區"
"251011","650-BX","2018/07/16 17:39:27","新北市淡水區小坪頂71號","121.484573333333","25.1586366666667","6501000","淡水區"
"251002","672-BX","2018/07/16 17:39:41","新北市淡水區清水街246號","121.440673333333","25.1721916666667","6501000","淡水區"
"251003","766-UM","2018/07/16 17:39:32","新北市淡水區中山北路一段89號","121.442263333333","25.1762833333333","6501000","淡水區"
"207003","550-UM","2018/07/16 17:39:34","新北市萬里區龜吼里漁澳路28號","121.686098333333","25.1956333333333","6502800","萬里區"
"207004","225-TW","2018/07/16 17:39:39","新北市萬里區中幅里中福路6-7號","121.685866666667","25.16452","6502800","萬里區"
"252002","178-VK","2018/07/16 17:39:40","新北市三芝區智成街83號","121.505036666667","25.2556933333333","6502100","三芝區"
"252001","292-VK","2018/07/16 17:39:30","新北市三芝區淡金路二段4號","121.502325","25.259225","6502100","三芝區"
"237012","275-BY","2018/07/16 17:39:28","新北市三峽區中山路459巷163-3號","121.34889","24.9330783333333","6500900","三峽區"
"237014","433-BY","2018/07/16 17:39:40","新北市三峽區中山路459巷163-3號","121.34875","24.9330716666667","6500900","三峽區"
"237006","5529-G3","2018/07/16 17:39:42","新北市三峽區介壽路二段36號","121.391078333333","24.935295","6500900","三峽區"
"237011","KEA-2596","2018/07/16 17:39:38","新北市三峽區中山路459巷131號","121.35094","24.93458","6500900","三峽區"
"237015","649-BX","2018/07/16 17:39:31","新北市三峽區民權街200號","121.367776666667","24.9294316666667","6500900","三峽區"
"237010","706-TV","2018/07/16 17:39:39","新北市三峽區中山路283號","121.361876666667","24.937595","6500900","三峽區"
"236014","270-VK","2018/07/16 17:39:25","新北市土城區城林路6巷80號","121.438595","24.9795883333333","6501300","土城區"
"236039","271-VK","2018/07/16 17:39:24","新北市土城區城林路6巷80號","121.43849","24.9798266666667","6501300","土城區"
"236020","401-BY","2018/07/16 17:39:34","新北市土城區城林路6巷80號","121.438795","24.9796233333333","6501300","土城區"
"236042","752-BX","2018/07/16 17:39:24","新北市土城區城林路6巷80號","121.438723333333","24.979655","6501300","土城區"
"236059","912-UM","2018/07/16 17:39:21","新北市土城區城林路6巷80號","121.438603333333","24.9796766666667","6501300","土城區"
"236048","913-UM","2018/07/16 17:39:37","新北市土城區城林路6巷80號","121.438521666667","24.9795466666667","6501300","土城區"
"242034","AAC-296","2018/07/16 17:37:18","新北市新莊區新莊路472號","121.446978333333","25.0333816666667","6500500","新莊區"
"242058","986-R7","2018/07/16 17:39:37","新北市新莊區中正路626號","121.42218","25.028845","6500500","新莊區"
"242053","751-BX","2018/07/16 17:39:34","新北市新莊區新樹路454號","121.431413333333","25.0011","6500500","新莊區"
"242027","705-TV","2018/07/16 17:39:40","新北市新莊區福壽街116號","121.457971666667","25.0508833333333","6500500","新莊區"
"242025","613-BX","2018/07/16 17:39:28","新北市新莊區思源路82巷1號","121.460688333333","25.0450683333333","6500500","新莊區"
"242029","612-BX","2018/07/16 17:39:36","新北市新莊區復興路一段157號","121.45078","25.0433783333333","6500500","新莊區"
"242042","566-BX","2018/07/16 17:39:39","新北市新莊區建國一路69號","121.434691666667","25.02969","6500500","新莊區"
"242046","497-BY","2018/07/16 17:39:16","新北市新莊區中正路561號","121.434966666667","25.0324416666667","6500500","新莊區"
"242050","441-UM","2018/07/16 17:39:28","新北市新莊區西盛街189號","121.428975","25.0171316666667","6500500","新莊區"
"242056","440-UM","2018/07/16 17:39:30","新北市新莊區泰豐街21號","121.448338333333","25.03178","6500500","新莊區"
"242036","415-TV","2018/07/16 17:39:30","新北市新莊區建福路59巷45號","121.428545","25.0278533333333","6500500","新莊區"
"242007","413-TV","2018/07/16 17:39:24","新北市新莊區福樂街118巷5號","121.457283333333","25.04805","6500500","新莊區"
"242044","400-BY","2018/07/16 17:39:36","新北市新莊區中正路871巷9弄2號","121.41871","25.02676","6500500","新莊區"
"242023","362-BY","2018/07/16 17:39:39","新北市新莊區公園路129-12號","121.457571666667","25.041135","6500500","新莊區"
"242060","353-BY","2018/07/16 17:39:34","新北市新莊區瓊林路186號","121.440411666667","25.0221433333333","6500500","新莊區"
"242009","132-UY","2018/07/16 17:39:41","新北市新莊區昌明街14巷18號","121.457368333333","25.05343","6500500","新莊區"
"242039","133-UY","2018/07/16 17:39:24","新北市新莊區民安東路43巷2弄3號","121.429326666667","25.02121","6500500","新莊區"
"242031","135-UY","2018/07/16 17:39:39","新北市新莊區新泰路380號","121.444095","25.043195","6500500","新莊區"
"242048","172-VK","2018/07/16 17:39:37","新北市新莊區萬安街143號","121.420495","25.021775","6500500","新莊區"
"242017","175-VK","2018/07/16 17:39:31","新北市新莊區復興路一段149巷22弄2號","121.450298333333","25.0441566666667","6500500","新莊區"
"242004","176-VK","2018/07/16 17:39:35","新北市新莊區自立街200號","121.456735","25.0454633333333","6500500","新莊區"
"242015","346-TH","2018/07/16 17:39:35","新北市新莊區新泰路337號","121.444878333333","25.0418866666667","6500500","新莊區"
"242011","347-TH","2018/07/16 17:39:38","新北市新莊區中原路201-2號","121.45126","25.0539516666667","6500500","新莊區"
"242021","348-TH","2018/07/16 17:39:23","新北市新莊區中華路一段65號","121.45209","25.03958","6500500","新莊區"
"242002","349-TH","2018/07/16 17:39:42","新北市新莊區新莊路282號","121.45151","25.0338283333333","6500500","新莊區"
"242013","351-TH","2018/07/16 17:39:23","新北市新莊區中誠街120號","121.449296666667","25.0477066666667","6500500","新莊區"
"238015","755-BX","2018/07/16 17:39:22","新北市樹林區啟智街25號","121.420851666667","24.9933283333333","6500700","樹林區"
"238023","601-UM","2018/07/16 17:39:20","新北市樹林區三福街114號","121.406453333333","25.0163483333333","6500700","樹林區"
"238018","571-TV","2018/07/16 17:39:29","新北市樹林區鎮前街18號","121.426053333333","24.99305","6500700","樹林區"
"238024","5061-A6","2018/07/16 17:39:24","新北市樹林區八德街495-1號","121.402145","24.96933","6500700","樹林區"
"238022","KEA-2213","2018/07/16 17:39:40","新北市樹林區太元街42號","121.418198333333","24.9798266666667","6500700","樹林區"
"238021","KEA-2539","2018/07/16 17:39:30","新北市樹林區柑園街一段271號","121.394203333333","24.9564333333333","6500700","樹林區"
"238025","303-VK","2018/07/16 17:39:24","新北市樹林區保安街三段69號","121.412631666667","25.0119433333333","6500700","樹林區"
"238017","283-BY","2018/07/16 17:39:21","新北市樹林區三德街30巷33號","121.414773333333","25.012155","6500700","樹林區"
"238014","282-BY","2018/07/16 17:39:24","新北市樹林區保安街一段364號","121.417646666667","24.9984666666667","6500700","樹林區"
"238020","268-VK","2018/07/16 17:39:26","新北市樹林區俊英街116巷2號","121.427703333333","25.0057616666667","6500700","樹林區"
"238026","172-UY","2018/07/16 17:39:39","新北市樹林區新興街19巷12號","121.401056666667","24.9730166666667","6500700","樹林區"
"238016","169-UY","2018/07/16 17:39:27","新北市樹林區啟智街129-6號","121.417985","24.988965","6500700","樹林區"
"239007","AAC-297","2018/07/16 17:39:41","新北市鶯歌區鶯桃路182巷11號","121.338683333333","24.957485","6500800","鶯歌區"
"239006","891-R6","2018/07/16 17:39:26","新北市鶯歌區永和街34巷12號","121.33349","24.9672683333333","6500800","鶯歌區"
"239008","527-UM","2018/07/16 17:39:41","新北市鶯歌區大湖路742號","121.33218","24.9769983333333","6500800","鶯歌區"
"239005","526-UM","2018/07/16 17:39:29","新北市鶯歌區福隆二街36號","121.324936666667","24.9717266666667","6500800","鶯歌區"
"239001","417-VK","2018/07/16 17:39:40","新北市鶯歌區中正三路281號","121.332051666667","24.9377733333333","6500800","鶯歌區"
"239003","360-BY","2018/07/16 17:39:34","新北市鶯歌區永吉街27巷27弄6號","121.337178333333","24.9568616666667","6500800","鶯歌區"
"239002","359-BY","2018/07/16 17:39:29","新北市鶯歌區南雅路491號","121.34562","24.9539933333333","6500800","鶯歌區"
"239004","193-VK","2018/07/16 17:39:34","新北市鶯歌區三鶯路74號","121.357988333333","24.9428983333333","6500800","鶯歌區"
"221008","489-VK","2018/07/16 17:39:33","新北市汐止區康寧街901號","121.651381666667","25.0750783333333","6501100","汐止區"
"221015","131-UY","2018/07/16 17:39:40","新北市汐止區康寧街901號","121.650915","25.0752133333333","6501100","汐止區"
"221010","269-BY","2018/07/16 17:39:23","新北市汐止區汐萬路一段418巷30號","121.650041666667","25.07885","6501100","汐止區"
"221023","279-VK","2018/07/16 17:39:33","新北市汐止區康寧街901號","121.651511666667","25.075045","6501100","汐止區"
"221032","280-BY","2018/07/16 17:39:43","新北市汐止區康寧街901號","121.650951666667","25.075335","6501100","汐止區"
"221031","353-TW","2018/07/16 17:39:36","新北市汐止區康寧街901號","121.651705","25.074945","6501100","汐止區"
"221002","707-TV","2018/07/16 17:39:37","新北市汐止區康寧街901號","121.651651666667","25.0749883333333","6501100","汐止區"
"242019","281-VK","2018/07/16 17:39:34","新北市新莊區中港路201號","121.454908333333","25.04185","6500500","新莊區"
"235061","KEA-2875","2018/07/16 17:18:49","新北市中和區員山路36巷16-2號","121.485326666667","24.991665","6500300","中和區"
