"lineid","car","time","location","longitude","latitude","cityid","cityname"
"234026","9371-KE","2018/07/16 17:59:33","新北市永和區永和路一段41號","121.512828333333","25.0061966666667","6500400","永和區"
"249005","172-UM","2018/07/16 17:59:24","新北市八里區荖阡坑路22號","121.399171666667","25.1357566666667","6502300","八里區"
"249001","173-UM","2018/07/16 17:59:35","新北市八里區龍米路二段30號","121.448651666667","25.1401116666667","6502300","八里區"
"249004","303-UY","2018/07/16 17:59:38","新北市八里區中山路一段1號","121.423151666667","25.1589983333333","6502300","八里區"
"249002","305-UY","2018/07/16 17:59:15","新北市八里區龍形二街50號","121.450451666667","25.1331516666667","6502300","八里區"
"249003","593-UM","2018/07/16 17:59:35","新北市八里區中山路二段76號","121.408521666667","25.1558783333333","6502300","八里區"
"248014","025-BX","2018/07/16 17:59:25","新北市五股區更洲路47號","121.456808333333","25.0790683333333","6501500","五股區"
"248016","026-BX","2018/07/16 17:59:25","新北市五股區中興路二段83巷26-6號","121.459513333333","25.075275","6501500","五股區"
"248006","077-UY","2018/07/16 17:59:41","新北市五股區中興路二段83巷26-6號","121.45973","25.075145","6501500","五股區"
"248008","095-VK","2018/07/16 17:59:34","新北市五股區中興路二段150號","121.458601666667","25.078575","6501500","五股區"
"248018","225-UY","2018/07/16 17:59:28","新北市五股區中興路二段83巷26-6號","121.459923333333","25.0753666666667","6501500","五股區"
"248010","682-TV","2018/07/16 17:59:40","新北市五股區中興路二段161號","121.457743333333","25.07737","6501500","五股區"
"232011","375-UM","2018/07/16 17:59:29","新北市坪林區北宜路八段375號","121.708893333333","24.93222","6502000","坪林區"
"244007","080-UY","2018/07/16 17:59:36","新北市林口區林口路222號","121.386883333333","25.0836633333333","6501700","林口區"
"244019","403-UM","2018/07/16 17:59:36","新北市林口區文化一路一段124號","121.374826666667","25.072325","6501700","林口區"
"244013","742-UY","2018/07/16 17:59:25","新北市林口區林口路31號","121.39058","25.07867","6501700","林口區"
"244009","410-SL","2018/07/16 17:59:25","新北市林口區佳林路56巷27號","121.385316666667","25.081035","6501700","林口區"
"244023","483-VK","2018/07/16 17:59:36","新北市林口區東湖路105巷17號","121.38394","25.072515","6501700","林口區"
"244017","485-VK","2018/07/16 17:59:22","新北市林口區忠孝路377號","121.36931","25.071485","6501700","林口區"
"244011","657-BX","2018/07/16 17:59:33","新北市林口區中正路130號","121.39314","25.077245","6501700","林口區"
"244025","837-TS","2018/07/16 17:59:32","新北市林口區文化三路一段39巷11號","121.36004","25.066515","6501700","林口區"
"244021","838-TS","2018/07/16 17:59:23","新北市林口區新寮27-5號","121.396693333333","25.0668916666667","6501700","林口區"
"222003","436-BY","2018/07/16 17:59:30","新北市深坑區炮子崙24號","121.60489","24.9871883333333","6501800","深坑區"
"222002","659-BX","2018/07/16 17:59:39","新北市深坑區文化街98號","121.617108333333","25.0018983333333","6501800","深坑區"
"231046","107-UY","2018/07/16 17:59:30","新北市新店區康雅崙路70號","121.533943333333","24.9267133333333","6500600","新店區"
"231054","KEA-2219","2018/07/16 17:59:24","新北市新店區安一路一段1-1號","121.519761666667","24.96123","6500600","新店區"
"231058","3713-VJ","2018/07/16 17:59:22","新北市新店區安華路28-1號","121.51952","24.9606333333333","6500600","新店區"
"231060","897-TW","2018/07/16 17:59:22","新北市新店區安華路28-1號","121.519641666667","24.9607016666667","6500600","新店區"
"231055","AKT-0513","2018/07/16 17:59:24","新北市新店區安華路28-1號","121.519411666667","24.96057","6500600","新店區"
"241016","266-UM","2018/07/16 17:59:26","新北市三重區新北大道一段252號","121.479708333333","25.061645","6500200","三重區"
"241024","KEA-2210","2018/07/16 17:59:35","新北市三重區後竹圍街205巷50號","121.484373333333","25.0730166666667","6500200","三重區"
"241006","AAD-863","2018/07/16 17:59:23","新北市八里區中華路三段35號","121.396285","25.1428233333333","6500200","三重區"
"241033","AAC-255","2018/07/16 17:59:33","新北市三重區重新路五段559號","121.47051","25.0459283333333","6500200","三重區"
"235064","005-UY","2018/07/16 17:59:22","新北市中和區員山路36巷16-3號","121.485046666667","24.991315","6500300","中和區"
"235065","098-UM","2018/07/16 17:59:38","新北市中和區橋和路2-1號","121.488421666667","25.0049316666667","6500300","中和區"
"235058","151-BY","2018/07/16 17:59:27","新北市中和區圓通路367巷18-4號","121.491818333333","24.9886283333333","6500300","中和區"
"235038","185-VK","2018/07/16 17:59:40","新北市中和區圓通路141巷48弄15號","121.498088333333","24.9937466666667","6500300","中和區"
"235049","186-VK","2018/07/16 17:59:36","新北市中和區員山路36巷13號","121.484146666667","24.990915","6500300","中和區"
"247010","KEA-2869","2018/07/16 17:59:39","新北市蘆洲區信義路271巷3號","121.47864","25.0848316666667","6501400","蘆洲區"
"235070","558-UM","2018/07/16 17:59:33","新北市中和區員山路36巷16-2號","121.485363333333","24.9917466666667","6500300","中和區"
"235054","640-BX","2018/07/16 17:59:32","新北市中和區連城路523巷13弄24號","121.482238333333","24.9936433333333","6500300","中和區"
"235052","805-TS","2018/07/16 17:59:21","新北市中和區員山路36巷16號","121.484348333333","24.9915083333333","6500300","中和區"
"235053","900-TW","2018/07/16 17:59:35","新北市中和區員山路36巷16-2號","121.485075","24.9917033333333","6500300","中和區"
"235051","157-BY","2018/07/16 17:59:26","新北市中和區員山路36巷13號","121.484195","24.99084","6500300","中和區"
"235037","AAC-213","2018/07/16 17:59:38","新北市中和區中正路173號","121.497635","24.9936933333333","6500300","中和區"
"247014","546-UM","2018/07/16 17:59:35","新北市蘆洲區忠孝路78號","121.471495","25.0856366666667","6501400","蘆洲區"
"247022","500-BY","2018/07/16 17:59:24","新北市蘆洲區中正路516巷12號","121.46252","25.0981016666667","6501400","蘆洲區"
"247012","339-TH","2018/07/16 17:59:38","新北市蘆洲區民族路123號","121.479801666667","25.0871416666667","6501400","蘆洲區"
"247006","336-TH","2018/07/16 17:59:26","新北市蘆洲區中華街31號","121.463201666667","25.0814883333333","6501400","蘆洲區"
"247018","057-VK","2018/07/16 17:59:33","新北市蘆洲區復興路230號","121.479256666667","25.0893483333333","6501400","蘆洲區"
"247016","007-UY","2018/07/16 17:59:33","新北市蘆洲區中正路185巷76號","121.466183333333","25.0843733333333","6501400","蘆洲區"
"247002","002-UY","2018/07/16 17:59:41","新北市蘆洲區永平街32巷45弄26號","121.458616666667","25.0929366666667","6501400","蘆洲區"
"247020","001-UY","2018/07/16 17:59:33","新北市蘆洲區水湳街36-8號","121.471331666667","25.089785","6501400","蘆洲區"
"226004","312-R5","2018/07/16 17:59:28","新北市平溪區石底里公園街18-3號","121.733355","25.0257883333333","6502400","平溪區"
"228003","097-TW","2018/07/16 17:59:34","新北市貢寮區真理里美艷山街6-2號","121.92888","25.0607516666667","6502600","貢寮區"
"228001","212-TW","2018/07/16 17:59:25","新北市貢寮區真理里新港街26巷31號","121.929178333333","25.0547216666667","6502600","貢寮區"
"228002","663-BX","2018/07/16 17:59:33","新北市貢寮區福隆里桂安街15號","121.963178333333","25.02104","6502600","貢寮區"
"224006","676-BX","2018/07/16 17:59:41","新北市瑞芳區大寮路356-1號","121.784663333333","25.1031733333333","6501200","瑞芳區"
"224002","639-TC","2018/07/16 17:59:37","新北市瑞芳區三爪子坑路32巷110號","121.809963333333","25.1059183333333","6501200","瑞芳區"
"224008","285-BY","2018/07/16 17:59:38","新北市瑞芳區明燈路一段45巷71號","121.821886666667","25.104855","6501200","瑞芳區"
"224009","273-VK","2018/07/16 17:59:22","新北市瑞芳區山尖路197號","121.850836666667","25.11272","6501200","瑞芳區"
"224005","271-BY","2018/07/16 17:59:38","新北市瑞芳區弘祥新村1號","121.817113333333","25.1288816666667","6501200","瑞芳區"
"253005","032-BX","2018/07/16 17:59:26","新北市石門區中山路62-5號","121.567388333333","25.289765","6502200","石門區"
"253006","295-VK","2018/07/16 17:59:30","新北市石門區大丘田45-5號","121.549741666667","25.275445","6502200","石門區"
"208002","KEA-2872","2018/07/16 17:59:37","新北市金山區三界壇路31號","121.627576666667","25.2279216666667","6502700","金山區"
"208001","761-BX","2018/07/16 17:59:38","新北市金山區磺港里磺港路248號","121.643803333333","25.2250333333333","6502700","金山區"
"251009","008-UM","2018/07/16 17:59:19","新北市淡水區大仁街6巷1號","121.442416666667","25.1746516666667","6501000","淡水區"
"251004","009-UM","2018/07/16 17:59:31","新北市淡水區民權路22號","121.45992","25.13769","6501000","淡水區"
"251001","011-UM","2018/07/16 17:59:41","新北市淡水區民權路15號","121.463193333333","25.124435","6501000","淡水區"
"251013","KEA-2871","2018/07/16 17:59:23","新北市淡水區泉洲厝30號","121.479705","25.1909916666667","6501000","淡水區"
"251014","180-VK","2018/07/16 17:59:28","新北市淡水區公埔子16-6號","121.480848333333","25.2242966666667","6501000","淡水區"
"251015","181-VK","2018/07/16 17:59:33","新北市淡水區興福寮1-6號","121.4878","25.16427","6501000","淡水區"
"251010","413-VK","2018/07/16 17:59:24","新北市淡水區中正路一段87巷23弄5號","121.420168333333","25.1782466666667","6501000","淡水區"
"251012","441-VK","2018/07/16 17:59:30","新北市淡水區北新路三段38巷7號","121.484543333333","25.1870066666667","6501000","淡水區"
"251008","442-VK","2018/07/16 17:59:43","新北市淡水區八勢一街51號","121.461938333333","25.155655","6501000","淡水區"
"251005","443-VK","2018/07/16 17:59:33","新北市淡水區英專路122巷1號","121.44661","25.1727","6501000","淡水區"
"251006","561-UM","2018/07/16 17:59:41","新北市淡水區新生街19號","121.438898333333","25.1735866666667","6501000","淡水區"
"251016","575-R6","2018/07/16 17:59:42","新北市淡水區埤島28號","121.447628333333","25.198365","6501000","淡水區"
"251011","650-BX","2018/07/16 17:59:27","新北市淡水區三空泉5號","121.47642","25.1612866666667","6501000","淡水區"
"251002","672-BX","2018/07/16 17:59:21","新北市淡水區中正東路8-1號","121.447738333333","25.1669533333333","6501000","淡水區"
"251003","766-UM","2018/07/16 17:59:32","新北市淡水區大忠街45號","121.444656666667","25.1763516666667","6501000","淡水區"
"207003","550-UM","2018/07/16 17:59:34","新北市萬里區港東路野柳風景區攤販68號","121.691293333333","25.2058283333333","6502800","萬里區"
"207004","225-TW","2018/07/16 17:59:39","新北市萬里區中幅里中福路48號","121.68342","25.174125","6502800","萬里區"
"252002","178-VK","2018/07/16 17:59:20","新北市三芝區中山路二段47巷11號","121.50257","25.25513","6502100","三芝區"
"252001","292-VK","2018/07/16 17:59:30","新北市三芝區中興街二段2號","121.498406666667","25.2565933333333","6502100","三芝區"
"237004","KEA-2597","2018/07/16 17:59:35","新北市三峽區中園街179號","121.36706","24.9215666666667","6500900","三峽區"
"237007","153-BY","2018/07/16 17:59:28","新北市三峽區中園街149號","121.367246666667","24.922865","6500900","三峽區"
"237009","210-TH","2018/07/16 17:59:32","新北市三峽區文化路254號","121.367158333333","24.93577","6500900","三峽區"
"237013","252-BX","2018/07/16 17:59:37","新北市三峽區介壽路一段111號","121.375868333333","24.9320183333333","6500900","三峽區"
"237012","275-BY","2018/07/16 17:59:28","新北市三峽區民生街19巷3號","121.376148333333","24.9362183333333","6500900","三峽區"
"237008","302-VK","2018/07/16 17:59:22","新北市三峽區白雞24號","121.368401666667","24.9125783333333","6500900","三峽區"
"237014","433-BY","2018/07/16 17:59:20","新北市三峽區復興路101巷1弄79號","121.370958333333","24.9376916666667","6500900","三峽區"
"237006","5529-G3","2018/07/16 17:59:42","新北市三峽區介壽路二段138巷102-2號","121.399075","24.9313533333333","6500900","三峽區"
"237011","KEA-2596","2018/07/16 17:59:18","新北市三峽區大同路64號","121.376641666667","24.9282766666667","6500900","三峽區"
"237015","649-BX","2018/07/16 17:59:31","新北市三峽區紫微路105號","121.409828333333","24.9123666666667","6500900","三峽區"
"237010","706-TV","2018/07/16 17:59:39","新北市三峽區和平街65號","121.37016","24.9366","6500900","三峽區"
"237005","AKY-6261","2018/07/16 17:59:39","新北市三峽區復興路235號","121.368216666667","24.9387566666667","6500900","三峽區"
"236069","105-UM","2018/07/16 17:59:25","新北市土城區城林路6巷80號","121.438316666667","24.979505","6501300","土城區"
"236078","166-UM","2018/07/16 17:59:37","新北市土城區永寧路32巷10弄1號","121.42891","24.961015","6501300","土城區"
"236030","253-BX","2018/07/16 17:59:33","新北市土城區城林路6巷80號","121.43867","24.97966","6501300","土城區"
"236026","269-VK","2018/07/16 17:59:25","新北市土城區忠義路45巷2號","121.441075","24.969505","6501300","土城區"
"236014","270-VK","2018/07/16 17:59:25","新北市土城區城林路6巷80號","121.438545","24.979565","6501300","土城區"
"236039","271-VK","2018/07/16 17:59:24","新北市土城區城林路6巷80號","121.438511666667","24.9797116666667","6501300","土城區"
"236020","401-BY","2018/07/16 17:59:34","新北市土城區城林路6巷80號","121.438758333333","24.9796716666667","6501300","土城區"
"236042","752-BX","2018/07/16 17:59:24","新北市土城區城林路6巷80號","121.438668333333","24.9796666666667","6501300","土城區"
"236059","912-UM","2018/07/16 17:59:41","新北市土城區中央路三段244巷5號","121.427865","24.9642616666667","6501300","土城區"
"236048","913-UM","2018/07/16 17:59:37","新北市土城區中華路二段113號","121.439031666667","24.977035","6501300","土城區"
"236063","915-UM","2018/07/16 17:59:38","新北市土城區中央路二段280號","121.440893333333","24.9740933333333","6501300","土城區"
"236055","AAC-216","2018/07/16 17:59:23","新北市土城區城林路6巷80號","121.438451666667","24.97961","6501300","土城區"
"242034","AAC-296","2018/07/16 17:59:38","新北市新莊區中正路411號","121.444875","25.03437","6500500","新莊區"
"242058","986-R7","2018/07/16 17:59:36","新北市新莊區中正路726-13號","121.415273333333","25.0238466666667","6500500","新莊區"
"242053","751-BX","2018/07/16 17:59:34","新北市新莊區民安西路415巷7號","121.430728333333","25.0093033333333","6500500","新莊區"
"242027","705-TV","2018/07/16 17:59:41","新北市新莊區思源路385號","121.459843333333","25.0513866666667","6500500","新莊區"
"242025","613-BX","2018/07/16 17:59:28","新北市新莊區五工路60號","121.458446666667","25.0630216666667","6500500","新莊區"
"242029","612-BX","2018/07/16 17:59:20","新北市新莊區中平路110巷13號","121.445726666667","25.0460483333333","6500500","新莊區"
"242042","566-BX","2018/07/16 17:59:39","新北市泰山區貴陽街29號","121.422466666667","25.0333283333333","6500500","新莊區"
"242046","497-BY","2018/07/16 17:59:36","新北市新莊區福營路165巷17號","121.43233","25.0307416666667","6500500","新莊區"
"242050","441-UM","2018/07/16 17:59:32","新北市新莊區西盛街153巷1號","121.428378333333","25.0181116666667","6500500","新莊區"
"242056","440-UM","2018/07/16 17:59:30","新北市新莊區豐年街124巷6弄3號","121.44597","25.0299466666667","6500500","新莊區"
"242036","415-TV","2018/07/16 17:59:32","新北市新莊區中正路685號","121.425978333333","25.0297366666667","6500500","新莊區"
"242007","413-TV","2018/07/16 17:59:24","新北市新莊區自信街37號","121.454218333333","25.0482933333333","6500500","新莊區"
"242044","400-BY","2018/07/16 17:59:36","新北市新莊區雙鳳路117號","121.413538333333","25.0278866666667","6500500","新莊區"
"242023","362-BY","2018/07/16 17:59:39","新北市新莊區福壽街64號","121.458266666667","25.04914","6500500","新莊區"
"242060","353-BY","2018/07/16 17:59:33","新北市新莊區瓊林南路220號","121.433511666667","25.005615","6500500","新莊區"
"242009","132-UY","2018/07/16 17:59:31","新北市新莊區中原路228號","121.453276666667","25.054545","6500500","新莊區"
"242039","133-UY","2018/07/16 17:59:24","新北市新莊區民安路138號","121.42429","25.0252966666667","6500500","新莊區"
"242031","135-UY","2018/07/16 17:59:39","新北市新莊區新泰路289巷32號","121.444058333333","25.040535","6500500","新莊區"
"242048","172-VK","2018/07/16 17:59:30","新北市新莊區後港二路10號","121.422905","25.02404","6500500","新莊區"
"242017","175-VK","2018/07/16 17:59:31","新北市新莊區中和街60巷15號","121.448653333333","25.044855","6500500","新莊區"
"242004","176-VK","2018/07/16 17:59:35","新北市新莊區自由街4號","121.4558","25.0480416666667","6500500","新莊區"
"242015","346-TH","2018/07/16 17:59:35","新北市新莊區中平路87巷5號","121.444241666667","25.04569","6500500","新莊區"
"242011","347-TH","2018/07/16 17:59:35","新北市新莊區中港路中慶巷13號","121.450663333333","25.053725","6500500","新莊區"
"242021","348-TH","2018/07/16 17:59:39","新北市新莊區中正路213號","121.451473333333","25.03592","6500500","新莊區"
"242002","349-TH","2018/07/16 17:59:22","新北市新莊區中正路153號","121.456023333333","25.0367133333333","6500500","新莊區"
"242013","351-TH","2018/07/16 17:59:23","新北市新莊區中和街125巷2號","121.44716","25.04862","6500500","新莊區"
"238015","755-BX","2018/07/16 17:59:22","新北市樹林區大安路307巷1弄3號","121.418225","24.99213","6500700","樹林區"
"238023","601-UM","2018/07/16 17:59:40","新北市樹林區龍興街55號","121.403228333333","25.01529","6500700","樹林區"
"238018","571-TV","2018/07/16 17:59:29","新北市樹林區樹新路242號","121.431265","25.0005533333333","6500700","樹林區"
"238022","KEA-2213","2018/07/16 17:59:40","新北市樹林區太平路150巷34號","121.417516666667","24.9776333333333","6500700","樹林區"
"238021","KEA-2539","2018/07/16 17:59:29","新北市樹林區柑園街一段157號","121.399968333333","24.95782","6500700","樹林區"
"238025","303-VK","2018/07/16 17:59:24","新北市樹林區三俊街7號","121.411408333333","25.0154033333333","6500700","樹林區"
"238017","283-BY","2018/07/16 17:59:41","新北市樹林區中正路644號","121.409906666667","25.0162316666667","6500700","樹林區"
"238014","282-BY","2018/07/16 17:59:24","新北市樹林區大安路123號","121.422236666667","24.9975566666667","6500700","樹林區"
"238020","268-VK","2018/07/16 17:59:26","新北市新莊區龍安路254巷18-1號","121.42063","25.0183933333333","6500700","樹林區"
"238026","172-UY","2018/07/16 17:59:19","新北市樹林區佳園路一段50號","121.392896666667","24.9706533333333","6500700","樹林區"
"238016","169-UY","2018/07/16 17:59:27","新北市樹林區日新街168號","121.420043333333","24.9883483333333","6500700","樹林區"
"239007","AAC-297","2018/07/16 17:59:21","新北市鶯歌區永樂街22號","121.341926666667","24.9532866666667","6500800","鶯歌區"
"239006","891-R6","2018/07/16 17:59:26","新北市鶯歌區鶯桃路413巷34弄30號","121.330838333333","24.964165","6500800","鶯歌區"
"239008","527-UM","2018/07/16 17:59:41","新北市鶯歌區明圓街21號","121.336216666667","24.9773","6500800","鶯歌區"
"239005","526-UM","2018/07/16 17:59:29","新北市鶯歌區鶯桃路668巷74-1號","121.33056","24.97223","6500800","鶯歌區"
"239001","417-VK","2018/07/16 17:59:40","新北市鶯歌區中正三路156巷1號","121.334018333333","24.93881","6500800","鶯歌區"
"239003","360-BY","2018/07/16 17:59:34","新北市鶯歌區永吉街45號","121.33555","24.9571433333333","6500800","鶯歌區"
"239002","359-BY","2018/07/16 17:59:29","新北市鶯歌區育英街17巷1弄3號","121.347521666667","24.955175","6500800","鶯歌區"
"221008","489-VK","2018/07/16 17:59:33","新北市汐止區明峰街26號","121.634266666667","25.0715133333333","6501100","汐止區"
"221036","130-UY","2018/07/16 17:59:34","新北市汐止區大同路三段56號","121.66764","25.0768533333333","6501100","汐止區"
"221015","131-UY","2018/07/16 17:59:20","新北市汐止區長江街271號","121.664605","25.0806166666667","6501100","汐止區"
"221010","269-BY","2018/07/16 17:59:23","新北市汐止區汐萬路二段245巷7號","121.64572","25.0876166666667","6501100","汐止區"
"221012","278-VK","2018/07/16 17:59:31","新北市汐止區長興街二段30號","121.673276666667","25.0813833333333","6501100","汐止區"
"221023","279-VK","2018/07/16 17:59:33","新北市汐止區明峰街162號","121.62916","25.0706033333333","6501100","汐止區"
"221032","280-BY","2018/07/16 17:59:23","新北市汐止區民權街一段16號","121.621021666667","25.0526116666667","6501100","汐止區"
"221027","281-BY","2018/07/16 17:59:38","新北市汐止區大同路二段376號","121.657948333333","25.0671866666667","6501100","汐止區"
"221029","298-VK","2018/07/16 17:59:36","新北市汐止區樟樹二路251巷46號","121.640546666667","25.06714","6501100","汐止區"
"221031","353-TW","2018/07/16 17:59:36","新北市汐止區中興路212號","121.631058333333","25.066235","6501100","汐止區"
"221035","622-UM","2018/07/16 17:59:23","新北市汐止區新江北路30巷22弄7號","121.65126","25.0697016666667","6501100","汐止區"
"221025","623-UM","2018/07/16 17:59:38","新北市汐止區仁愛路10號","121.65938","25.063615","6501100","汐止區"
"221038","646-BX","2018/07/16 17:59:37","新北市汐止區連興街128巷7弄5號","121.653513333333","25.0613583333333","6501100","汐止區"
"221002","707-TV","2018/07/16 17:59:37","新北市汐止區中興路31號","121.63486","25.0617333333333","6501100","汐止區"
"221018","753-BX","2018/07/16 17:59:27","新北市汐止區招商街11巷1號","121.666513333333","25.0688833333333","6501100","汐止區"
"242019","281-VK","2018/07/16 17:59:37","新北市新莊區明中街43巷25號","121.45719","25.0386633333333","6500500","新莊區"
"235068","KEA-2873","2018/07/16 17:59:38","新北市中和區員山路36巷16-3號","121.484993333333","24.9913016666667","6500300","中和區"
