"lineid","car","time","location","longitude","latitude","cityid","cityname"
"234046","148-BY","2018/07/16 19:49:32","新北市永和區永亨路203號","121.526066666667","25.0027183333333","6500400","永和區"
"234007","207-UY","2018/07/16 19:49:28","新北市中和區中和路236號","121.506868333333","24.9996216666667","6500400","永和區"
"234081","298-R6","2018/07/16 19:49:40","新北市永和區國中路2號","121.524358333333","25.00429","6500400","永和區"
"234038","336-UY","2018/07/16 19:49:31","新北市永和區民樂街41巷13號","121.52834","25.00011","6500400","永和區"
"234064","337-UY","2018/07/16 19:49:41","新北市永和區中正路368巷18號","121.518423333333","25.0007233333333","6500400","永和區"
"234070","552-UM","2018/07/16 19:49:35","新北市永和區竹林路88號","121.519475","25.0125566666667","6500400","永和區"
"234086","553-UM","2018/07/16 19:49:33","新北市永和區永亨路31號","121.519768333333","25.006175","6500400","永和區"
"234017","745-BX","2018/07/16 19:49:41","新北市永和區忠孝街26巷4號","121.515406666667","25.0165366666667","6500400","永和區"
"234030","746-BX","2018/07/16 19:49:35","新北市永和區民生路67巷28號","121.524235","24.9972983333333","6500400","永和區"
"234054","KEA-2590","2018/07/16 19:49:35","新北市永和區竹林路73-1號","121.518681666667","25.0131316666667","6500400","永和區"
"234013","KEA-2591","2018/07/16 19:49:38","新北市永和區永平路256號","121.508416666667","25.011505","6500400","永和區"
"234061","AAD-866","2018/07/16 19:49:43","新北市永和區中正路184號","121.515233333333","24.9969233333333","6500400","永和區"
"234067","847-RS","2018/07/16 19:49:40","新北市永和區中山路一段212號","121.508568333333","25.0084766666667","6500400","永和區"
"234042","862-TW","2018/07/16 19:49:38","新北市永和區中和路389巷22號","121.508193333333","25.0012933333333","6500400","永和區"
"234050","863-TW","2018/07/16 19:49:30","新北市永和區保安路79號","121.508646666667","25.0148083333333","6500400","永和區"
"234026","9371-KE","2018/07/16 19:49:33","新北市永和區雙和街25巷7號","121.508933333333","25.0018133333333","6500400","永和區"
"234011","9373-KE","2018/07/16 19:49:32","新北市永和區仁愛路352巷92弄2號","121.501216666667","25.0080166666667","6500400","永和區"
"249001","173-UM","2018/07/16 19:49:41","新北市八里區中華路二段252號","121.40542","25.1496616666667","6502300","八里區"
"249004","303-UY","2018/07/16 19:49:38","新北市八里區仁愛路19號","121.413368333333","25.1609233333333","6502300","八里區"
"249002","305-UY","2018/07/16 19:49:16","新北市八里區頂寮五街17號","121.451438333333","25.12616","6502300","八里區"
"249003","593-UM","2018/07/16 19:49:25","新北市八里區中華路二段538-4號","121.398705","25.1450933333333","6502300","八里區"
"248014","025-BX","2018/07/16 19:49:35","新北市五股區五福路42巷8號","121.434253333333","25.0895716666667","6501500","五股區"
"248016","026-BX","2018/07/16 19:49:22","新北市五股區成泰路四段22巷2-1號","121.453728333333","25.10669","6501500","五股區"
"248008","095-VK","2018/07/16 19:49:34","新北市五股區四維路140號","121.468201666667","25.075305","6501500","五股區"
"248018","225-UY","2018/07/16 19:27:07","新北市五股區壟路16號","121.41537","25.08574","6501500","五股區"
"248012","247-BX","2018/07/16 19:49:28","新北市五股區蓬萊路1-3號","121.434288333333","25.0796783333333","6501500","五股區"
"248004","677-BX","2018/07/16 19:49:34","新北市五股區成泰路一段114號","121.435495","25.0732216666667","6501500","五股區"
"248002","678-BX","2018/07/16 19:49:24","新北市五股區成泰路三段625號","121.452938333333","25.1040616666667","6501500","五股區"
"248010","682-TV","2018/07/16 19:49:40","新北市五股區登林路貿商巷3弄15號","121.42974","25.0698883333333","6501500","五股區"
"234077","969-R7","2018/07/16 19:49:35","新北市永和區民權路23號","121.519965","24.9978033333333","6500400","永和區"
"234074","AAC-211","2018/07/16 19:49:42","新北市永和區竹林路213巷6號","121.52123","25.0088266666667","6500400","永和區"
"234003","AAC-295","2018/07/16 19:49:22","新北市永和區福和路345號","121.515403333333","25.0071416666667","6500400","永和區"
"243010","267-VK","2018/07/16 19:49:36","新北市泰山區民生路33號","121.430676666667","25.0521716666667","6501600","泰山區"
"243013","AAD-798","2018/07/16 19:49:43","新北市泰山區應化街7號","121.42387","25.0437316666667","6501600","泰山區"
"243009","297-R6","2018/07/16 19:49:27","新北市泰山區美寧街60號","121.430971666667","25.0646566666667","6501600","泰山區"
"243016","380-SR","2018/07/16 19:49:28","新北市泰山區新北大道七段97號","121.417878333333","25.0318616666667","6501600","泰山區"
"243015","421-VK","2018/07/16 19:49:31","新北市泰山區明志路二段214巷9號","121.426751666667","25.0488616666667","6501600","泰山區"
"243011","KEA-2215","2018/07/16 19:49:41","新北市泰山區明志路三段196巷21弄31號","121.42249","25.0382233333333","6501600","泰山區"
"243012","646-TV","2018/07/16 19:49:37","新北市泰山區全興路13號","121.432348333333","25.0589333333333","6501600","泰山區"
"243014","680-BX","2018/07/16 19:49:38","新北市泰山區泰林路二段33-8號","121.435188333333","25.0565033333333","6501600","泰山區"
"222003","436-BY","2018/07/16 19:49:30","新北市深坑區深南路51-1號","121.621246666667","25.009785","6501800","深坑區"
"222002","659-BX","2018/07/16 19:49:37","新北市深坑區北深路二段2巷1號","121.621355","25.00464","6501800","深坑區"
"231041","002-UM","2018/07/16 19:49:34","新北市新店區中央路210-1號","121.530093333333","24.9736633333333","6500600","新店區"
"231059","046-UY","2018/07/16 19:49:28","新北市新店區安和路二段138號","121.519435","24.9723183333333","6500600","新店區"
"231040","047-UY","2018/07/16 19:49:29","新北市新店區北新路一段96巷23號","121.543046666667","24.9688633333333","6500600","新店區"
"231044","106-UY","2018/07/16 19:49:36","新北市新店區中正路602號","121.534133333333","24.9880483333333","6500600","新店區"
"231046","107-UY","2018/07/16 19:49:30","新北市新店區福園街10巷1號","121.532673333333","24.9727916666667","6500600","新店區"
"231065","110-UY","2018/07/16 19:49:29","新北市新店區安祥路109巷90弄12號","121.477683333333","24.9596016666667","6500600","新店區"
"231047","187-VK","2018/07/16 19:49:37","新北市新店區寶興路56號","121.549751666667","24.972355","6500600","新店區"
"231054","KEA-2219","2018/07/16 19:49:24","新北市新店區光明街77號","121.538796666667","24.9607316666667","6500600","新店區"
"231057","256-BX","2018/07/16 19:49:33","新北市新店區梅崗三路1號","121.558121666667","24.9311116666667","6500600","新店區"
"231042","268-BY","2018/07/16 19:49:30","新北市新店區中興路一段268-3號","121.545191666667","24.9679266666667","6500600","新店區"
"231051","278-BY","2018/07/16 19:49:41","新北市新店區中央三街56號","121.52713","24.974735","6500600","新店區"
"231050","AAD-862","2018/07/16 19:49:32","新北市新店區郵政路5巷6號","121.55724","24.9516416666667","6500600","新店區"
"231043","355-BY","2018/07/16 19:49:28","新北市新店區中正路282號","121.538553333333","24.9738883333333","6500600","新店區"
"231066","4716-K9","2018/07/16 19:49:28","新北市新店區安康路二段341巷5號","121.496961666667","24.9548216666667","6500600","新店區"
"231056","4715-K9","2018/07/16 19:49:35","新北市新店區民權路72號","121.538115","24.98314","6500600","新店區"
"231049","513-UM","2018/07/16 19:49:33","新北市新店區民權路96號","121.536646666667","24.9831033333333","6500600","新店區"
"231063","616-UM","2018/07/16 19:49:39","新北市新店區車子路11號","121.503053333333","24.9519883333333","6500600","新店區"
"231045","617-UM","2018/07/16 19:49:40","新北市新店區北宜路二段360-1號","121.56467","24.9526833333333","6500600","新店區"
"231061","619-UM","2018/07/16 19:49:41","新北市新店區安民街163號","121.516623333333","24.9700233333333","6500600","新店區"
"231068","718-UY","2018/07/16 19:49:38","新北市新店區安華路28-1號","121.51925","24.9607366666667","6500600","新店區"
"231064","719-UM","2018/07/16 19:49:39","新北市新店區安和路二段3-5號","121.517986666667","24.9673783333333","6500600","新店區"
"231052","719-UY","2018/07/16 19:49:28","新北市新店區新烏路三段50號","121.553933333333","24.9046416666667","6500600","新店區"
"231062","720-UM","2018/07/16 19:49:36","新北市新店區永業路31巷1號","121.532926666667","24.95549","6500600","新店區"
"231060","897-TW","2018/07/16 19:49:43","新北市新店區安康路二段237號","121.50823","24.95857","6500600","新店區"
"231055","AKT-0513","2018/07/16 19:49:24","新北市新店區力行路12號","121.539408333333","24.9646183333333","6500600","新店區"
"241011","013-R5","2018/07/16 19:49:45","新北市三重區三和路二段173巷45號","121.499295","25.0701366666667","6500200","三重區"
"241028","022-UY","2018/07/16 19:49:34","新北市三重區中正南路157號","121.493825","25.05612","6500200","三重區"
"241008","059-VK","2018/07/16 19:49:35","新北市三重區永福街145號","121.478748333333","25.07634","6500200","三重區"
"241031","061-VK","2018/07/16 19:49:31","新北市三重區重新路四段250-1號","121.485995","25.0533683333333","6500200","三重區"
"241015","062-VK","2018/07/16 19:49:44","新北市三重區重新路一段1號","121.50381","25.064265","6500200","三重區"
"241017","063-VK","2018/07/16 19:49:34","新北市三重區重陽路三段5巷8弄29號","121.489611666667","25.066595","6500200","三重區"
"241026","066-VK","2018/07/16 19:49:36","新北市三重區中央南路49號","121.501371666667","25.0618383333333","6500200","三重區"
"241003","091-VK","2018/07/16 19:49:28","新北市三重區五華街91-3號","121.49183","25.0835233333333","6500200","三重區"
"241024","742-BX","2018/07/16 19:49:39","新北市三重區國道路一段58巷20號","121.481091666667","25.07201","6500200","三重區"
"241016","266-UM","2018/07/16 19:49:26","新北市三重區正義北路16巷33號","121.496418333333","25.0628083333333","6500200","三重區"
"241018","268-UM","2018/07/16 19:49:37","新北市三重區雙園街57巷32號","121.494515","25.0683683333333","6500200","三重區"
"241032","269-UM","2018/07/16 19:49:36","新北市三重區重陽路一段44巷10號","121.48597","25.0577866666667","6500200","三重區"
"241013","270-UM","2018/07/16 19:49:29","新北市三重區仁愛街112巷12號","121.49475","25.074075","6500200","三重區"
"241025","271-UM","2018/07/16 19:49:36","新北市三重區忠孝路三段75巷7號","121.480231666667","25.0660766666667","6500200","三重區"
"241007","398-BY","2018/07/16 19:49:30","新北市三重區三和路四段137號","121.484526666667","25.0779916666667","6500200","三重區"
"241035","462-BY","2018/07/16 19:49:40","新北市三重區大榮街53號","121.49924","25.0635833333333","6500200","三重區"
"241004","475-VK","2018/07/16 19:49:33","新北市三重區五華街74號","121.493383333333","25.0820066666667","6500200","三重區"
"241020","478-VK","2018/07/16 19:49:42","新北市三重區後竹圍街8號","121.49166","25.073625","6500200","三重區"
"241030","480-VK","2018/07/16 19:49:32","新北市三重區環河南路254巷40號","121.489743333333","25.05125","6500200","三重區"
"241014","543-UM","2018/07/16 19:49:32","新北市三重區長安街75號","121.50161","25.067385","6500200","三重區"
"241023","545-UM","2018/07/16 19:49:34","新北市三重區頂崁街166號","121.477633333333","25.0658683333333","6500200","三重區"
"241001","547-UM","2018/07/16 19:49:41","新北市三重區仁愛街327巷61號","121.493648333333","25.08026","6500200","三重區"
"241019","KEA-2593","2018/07/16 19:49:31","新北市三重區自強路二段85號","121.488418333333","25.070165","6500200","三重區"
"241006","AAD-863","2018/07/16 19:49:23","新北市三重區永福街275號","121.482265","25.0743016666667","6500200","三重區"
"241022","887-TS","2018/07/16 19:49:21","新北市三重區重陽路二段72號","121.487138333333","25.0641666666667","6500200","三重區"
"241029","942-UM","2018/07/16 19:49:37","新北市三重區光明路31-1號","121.491303333333","25.0584233333333","6500200","三重區"
"241033","AAC-255","2018/07/16 19:49:32","新北市三重區中興南街66號","121.470611666667","25.04399","6500200","三重區"
"235066","003-UY","2018/07/16 19:49:28","新北市中和區南工路58號","121.506003333333","25.0017016666667","6500300","中和區"
"235064","005-UY","2018/07/16 19:49:42","新北市中和區南山路127巷18弄24號","121.50351","24.99691","6500300","中和區"
"235056","096-UM","2018/07/16 19:49:36","新北市中和區中山路三段114巷3號","121.475245","25.0074366666667","6500300","中和區"
"235039","097-UM","2018/07/16 19:49:34","新北市中和區大勇街27巷31號","121.516035","24.993895","6500300","中和區"
"235065","098-UM","2018/07/16 19:49:38","新北市中和區莊敬路19號","121.5","25.0045233333333","6500300","中和區"
"235040","150-BY","2018/07/16 19:49:22","新北市中和區安和路39號","121.509656666667","24.9948333333333","6500300","中和區"
"235058","151-BY","2018/07/16 19:49:27","新北市中和區員山路132巷11號","121.481963333333","24.9963966666667","6500300","中和區"
"235055","183-VK","2018/07/16 19:49:39","新北市中和區德光路27巷1弄1號","121.470846666667","25.0040133333333","6500300","中和區"
"235038","185-VK","2018/07/16 19:49:44","新北市中和區自立路17號","121.522226666667","24.9960833333333","6500300","中和區"
"235049","186-VK","2018/07/16 19:49:36","新北市中和區中興街41號","121.500631666667","24.9943066666667","6500300","中和區"
"235067","255-BX","2018/07/16 19:49:34","新北市中和區新生街186巷1弄25號","121.483405","24.9987466666667","6500300","中和區"
"235044","293-VK","2018/07/16 19:49:21","新北市中和區南山路233號","121.503616666667","24.993205","6500300","中和區"
"235072","301-VK","2018/07/16 19:49:35","新北市中和區連城路265巷10弄1號","121.491703333333","24.9952183333333","6500300","中和區"
"235043","352-BY","2018/07/16 19:49:42","新北市中和區興南路二段159巷25號","121.505386666667","24.98302","6500300","中和區"
"235042","KEA-2878","2018/07/16 19:49:37","新北市中和區景安路79巷3號","121.506725","24.9972966666667","6500300","中和區"
"235050","4979-A6","2018/07/16 19:49:27","新北市中和區和平街164巷4號","121.506048333333","24.9924066666667","6500300","中和區"
"235069","4980-A6","2018/07/16 19:49:27","新北市中和區中正路395號","121.48972","24.994","6500300","中和區"
"235070","558-UM","2018/07/16 19:49:33","新北市中和區景平路509號","121.499513333333","24.9986016666667","6500300","中和區"
"235054","640-BX","2018/07/16 19:49:38","新北市中和區莒光路163號","121.472803333333","25.000255","6500300","中和區"
"235060","647-TV","2018/07/16 19:49:36","新北市中和區中山路二段523巷10弄4號","121.481398333333","25.0045933333333","6500300","中和區"
"235047","732-UM","2018/07/16 19:49:39","新北市中和區興南路一段67號","121.510343333333","24.9893533333333","6500300","中和區"
"235046","733-UM","2018/07/16 19:49:32","新北市中和區仁愛街61號","121.51139","24.9877133333333","6500300","中和區"
"235071","783-BX","2018/07/16 19:49:33","新北市中和區中板路7-1號","121.484901666667","25.0114766666667","6500300","中和區"
"235057","801-TS","2018/07/16 19:49:38","新北市中和區員山路150-3號","121.481326666667","24.9973616666667","6500300","中和區"
"235041","802-TS","2018/07/16 19:49:37","新北市中和區永貞路239巷1號","121.512923333333","25.0035516666667","6500300","中和區"
"235052","805-TS","2018/07/16 19:49:41","新北市中和區華新街30巷16號","121.50684","24.9845083333333","6500300","中和區"
"235048","896-TW","2018/07/16 19:49:28","新北市中和區興南路二段10-3號","121.507791666667","24.9860333333333","6500300","中和區"
"235053","900-TW","2018/07/16 19:49:34","新北市中和區國光街187號","121.467388333333","25.0015883333333","6500300","中和區"
"235051","157-BY","2018/07/16 19:49:26","新北市中和區中興街180巷50弄1號","121.498938333333","24.9890116666667","6500300","中和區"
"235037","AAC-213","2018/07/16 19:49:38","新北市中和區自立路187-1號","121.523866666667","24.9914166666667","6500300","中和區"
"235059","AAC-215","2018/07/16 19:49:43","新北市中和區圓通路305巷7弄1號","121.493715","24.99003","6500300","中和區"
"220068","013-TV","2018/07/16 19:49:38","新北市板橋區中山路二段416巷32弄1號","121.483276666667","25.0201833333333","6500100","板橋區"
"220065","072-UY","2018/07/16 19:49:40","新北市板橋區民族路69巷18弄22號","121.466408333333","25.0098833333333","6500100","板橋區"
"220086","073-UY","2018/07/16 19:49:26","新北市板橋區南雅西路二段7巷25號","121.45192","25.009495","6500100","板橋區"
"220106","075-UY","2018/07/16 19:49:25","新北市板橋區文化路二段604號","121.476981666667","25.0349216666667","6500100","板橋區"
"220069","AAD-861","2018/07/16 19:49:33","新北市板橋區南雅南路二段11-23號","121.453958333333","25.0020166666667","6500100","板橋區"
"247014","546-UM","2018/07/16 19:49:38","新北市蘆洲區復興路30-1號","121.472375","25.0850183333333","6501400","蘆洲區"
"247004","337-TH","2018/07/16 19:49:33","新北市蘆洲區中原路48號","121.45934","25.0823666666667","6501400","蘆洲區"
"247006","336-TH","2018/07/16 19:49:39","新北市蘆洲區永安南路二段26號","121.467305","25.07709","6501400","蘆洲區"
"247008","056-VK","2018/07/16 19:49:18","新北市蘆洲區中山一路1號","121.478648333333","25.08011","6501400","蘆洲區"
"247002","002-UY","2018/07/16 19:49:29","新北市蘆洲區永平街27號","121.458705","25.0908316666667","6501400","蘆洲區"
"226004","312-R5","2018/07/16 19:49:28","新北市平溪區靜安路三段392巷3號","121.784328333333","25.0495333333333","6502400","平溪區"
"228003","097-TW","2018/07/16 19:49:33","新北市貢寮區真理里美艷山街4號","121.9276","25.0600816666667","6502600","貢寮區"
"228001","212-TW","2018/07/16 19:49:25","新北市貢寮區真理里新港街58號","121.926223333333","25.0566066666667","6502600","貢寮區"
"224010","AGQ-8101","2018/07/16 19:49:40","新北市瑞芳區基山街2號","121.845095","25.1098166666667","6501200","瑞芳區"
"224002","639-TC","2018/07/16 19:49:37","新北市瑞芳區員山子路3-1號","121.819006666667","25.104625","6501200","瑞芳區"
"227008","642-TC","2018/07/16 19:49:26","新北市雙溪區新基里中華路82號","121.865891666667","25.0384016666667","6502500","雙溪區"
"227001","400-TW","2018/07/16 19:49:30","新北市雙溪區雙溪里內挖路36號","121.863161666667","25.0368083333333","6502500","雙溪區"
"222001","KEA-2212","2018/07/16 19:49:37","新北市深坑區北深路三段114號","121.606683333333","25.0015316666667","6501800","深坑區"
"208002","KEA-2872","2018/07/16 19:49:37","新北市金山區四維路31號","121.634723333333","25.2229733333333","6502700","金山區"
"208003","665-BX","2018/07/16 19:49:33","新北市金山區中正路20號","121.635905","25.22225","6502700","金山區"
"208001","761-BX","2018/07/16 19:49:39","新北市金山區重和里六股林口13號","121.60511","25.221885","6502700","金山區"
"251009","008-UM","2018/07/16 19:49:39","新北市淡水區中正路32號","121.443888333333","25.1691766666667","6501000","淡水區"
"251001","011-UM","2018/07/16 19:49:41","新北市淡水區坪頂路27號","121.456406666667","25.16215","6501000","淡水區"
"251013","KEA-2871","2018/07/16 19:49:43","新北市淡水區頂田寮1-3號","121.45744","25.2148566666667","6501000","淡水區"
"251014","180-VK","2018/07/16 19:49:28","新北市淡水區番社前1-7號","121.468271666667","25.2360666666667","6501000","淡水區"
"251015","181-VK","2018/07/16 19:49:33","新北市淡水區北新路三段50號","121.48457","25.1874716666667","6501000","淡水區"
"251010","413-VK","2018/07/16 19:49:44","新北市淡水區崁頂78-3號","121.429941666667","25.2060933333333","6501000","淡水區"
"251012","441-VK","2018/07/16 19:49:38","新北市淡水區淡金路三段70巷1號","121.448296666667","25.20039","6501000","淡水區"
"251008","442-VK","2018/07/16 19:49:22","新北市淡水區中正路二段24巷2-1號","121.426795","25.1769716666667","6501000","淡水區"
"251005","443-VK","2018/07/16 19:49:33","新北市淡水區中正東路1號","121.447166666667","25.1672733333333","6501000","淡水區"
"251006","561-UM","2018/07/16 19:49:41","新北市淡水區水碓街15號","121.443466666667","25.1769733333333","6501000","淡水區"
"251016","575-R6","2018/07/16 19:49:42","新北市淡水區三塊厝2-1號","121.454505","25.209645","6501000","淡水區"
"251007","577-R6","2018/07/16 19:49:36","新北市淡水區竿蓁一街102巷1號","121.45364","25.1662516666667","6501000","淡水區"
"251011","650-BX","2018/07/16 19:49:26","新北市淡水區淡金路二段509號","121.447026666667","25.18977","6501000","淡水區"
"251003","766-UM","2018/07/16 19:49:32","新北市淡水區崁頂98號","121.434748333333","25.203775","6501000","淡水區"
"207003","550-UM","2018/07/16 19:49:34","新北市萬里區大鵬里萬里加投202號","121.642748333333","25.2162233333333","6502800","萬里區"
"207004","225-TW","2018/07/16 19:49:38","新北市萬里區萬里里瑪鋉路261號","121.68988","25.17976","6502800","萬里區"
"252002","178-VK","2018/07/16 19:49:39","新北市三芝區三民街31號","121.504563333333","25.258555","6502100","三芝區"
"252001","292-VK","2018/07/16 19:49:30","新北市三芝區公正街9號","121.499778333333","25.25755","6502100","三芝區"
"237004","KEA-2597","2018/07/16 19:49:35","新北市三峽區添福285-5號","121.376336666667","24.8914683333333","6500900","三峽區"
"237007","153-BY","2018/07/16 19:49:28","新北市三峽區二鬮路136巷24弄3號","121.356053333333","24.9100883333333","6500900","三峽區"
"237009","210-TH","2018/07/16 19:49:32","新北市三峽區中園街86巷1號","121.367738333333","24.9245916666667","6500900","三峽區"
"237013","252-BX","2018/07/16 19:49:36","新北市三峽區溪北街42號","121.396881666667","24.9360633333333","6500900","三峽區"
"237012","275-BY","2018/07/16 19:49:28","新北市三峽區中華路26號","121.373876666667","24.9323966666667","6500900","三峽區"
"237008","302-VK","2018/07/16 19:49:42","新北市三峽區大同路147巷7號","121.371141666667","24.92655","6500900","三峽區"
"237014","433-BY","2018/07/16 19:49:40","新北市三峽區嘉添91號","121.36909","24.9097616666667","6500900","三峽區"
"237006","5529-G3","2018/07/16 19:49:42","新北市三峽區中正路一段330號","121.370713333333","24.9247833333333","6500900","三峽區"
"237011","KEA-2596","2018/07/16 19:49:38","新北市三峽區介壽路一段588號","121.388995","24.934465","6500900","三峽區"
"237015","649-BX","2018/07/16 19:49:31","新北市三峽區溪東路218巷25號","121.406955","24.9304583333333","6500900","三峽區"
"237010","706-TV","2018/07/16 19:49:39","新北市三峽區復興路172號","121.370765","24.9385016666667","6500900","三峽區"
"237005","AKY-6261","2018/07/16 19:49:37","新北市三峽區民生街100號","121.373918333333","24.9354966666667","6500900","三峽區"
"236069","105-UM","2018/07/16 19:49:25","新北市土城區水源街30號","121.440918333333","24.975595","6501300","土城區"
"236078","166-UM","2018/07/16 19:49:36","新北市土城區溪頭路131號","121.409695","24.9513","6501300","土城區"
"236030","253-BX","2018/07/16 19:49:33","新北市土城區中央路一段290號","121.443305","24.9824033333333","6501300","土城區"
"236026","269-VK","2018/07/16 19:49:25","新北市土城區中央路二段61巷26號","121.44328","24.9786133333333","6501300","土城區"
"236039","271-VK","2018/07/16 19:49:24","新北市土城區國際路158巷45號","121.46824","24.9754333333333","6501300","土城區"
"236020","401-BY","2018/07/16 19:49:34","新北市土城區延吉街137巷2弄25號","121.470151666667","24.9855033333333","6501300","土城區"
"236042","752-BX","2018/07/16 19:49:23","新北市土城區裕民路267-1號","121.45529","24.9822616666667","6501300","土城區"
"236059","912-UM","2018/07/16 19:49:41","新北市土城區中央路一段186-1號","121.44555","24.9863666666667","6501300","土城區"
"236048","913-UM","2018/07/16 19:49:37","新北市土城區青雲路256號","121.459016666667","24.97979","6501300","土城區"
"236063","915-UM","2018/07/16 19:49:38","新北市土城區延和路105巷2弄1號","121.467613333333","24.9904383333333","6501300","土城區"
"236055","AAC-216","2018/07/16 19:49:43","新北市土城區延和路148號","121.467823333333","24.99013","6501300","土城區"
"242034","AAC-296","2018/07/16 19:49:35","新北市新莊區仁愛街54巷1號","121.444888333333","25.037255","6500500","新莊區"
"242058","986-R7","2018/07/16 19:49:32","新北市新莊區八德街17號","121.425243333333","25.0226233333333","6500500","新莊區"
"242029","612-BX","2018/07/16 19:49:31","新北市新莊區中平路288-17號","121.444758333333","25.05128","6500500","新莊區"
"242046","497-BY","2018/07/16 19:49:36","新北市新莊區福營路326號","121.422025","25.0270283333333","6500500","新莊區"
"242056","440-UM","2018/07/16 19:49:38","新北市新莊區新泰路52號","121.449348333333","25.0345483333333","6500500","新莊區"
"242036","415-TV","2018/07/16 19:49:30","新北市新莊區建安街89號","121.427151666667","25.0245033333333","6500500","新莊區"
"242023","362-BY","2018/07/16 19:49:45","新北市新莊區化成路89號","121.465571666667","25.0466016666667","6500500","新莊區"
"242060","353-BY","2018/07/16 19:49:33","新北市新莊區中環路一段10號","121.44274","25.0258933333333","6500500","新莊區"
"242039","133-UY","2018/07/16 19:49:24","新北市新莊區民安路299巷55弄1號","121.429411666667","25.023825","6500500","新莊區"
"242031","135-UY","2018/07/16 19:49:38","新北市新莊區忠孝街35號","121.443913333333","25.035725","6500500","新莊區"
"242048","172-VK","2018/07/16 19:49:29","新北市新莊區建安街92巷29號","121.42562","25.0246516666667","6500500","新莊區"
"242017","175-VK","2018/07/16 19:49:31","新北市新莊區中港路287號","121.452843333333","25.04403","6500500","新莊區"
"242004","176-VK","2018/07/16 19:49:36","新北市新莊區化成路63巷24弄33號","121.462305","25.0460133333333","6500500","新莊區"
"242021","348-TH","2018/07/16 19:49:43","新北市新莊區建中街28號","121.449065","25.037475","6500500","新莊區"
"242013","351-TH","2018/07/16 19:49:35","新北市新莊區中誠街69巷1號","121.45072","25.0476366666667","6500500","新莊區"
"238015","755-BX","2018/07/16 19:49:27","新北市樹林區中山路二段10號","121.417633333333","24.9851683333333","6500700","樹林區"
"238023","601-UM","2018/07/16 19:49:40","新北市樹林區三寶街12號","121.406513333333","25.0154983333333","6500700","樹林區"
"238021","KEA-2539","2018/07/16 19:49:44","新北市樹林區田尾街192巷5號","121.400293333333","24.94914","6500700","樹林區"
"239006","891-R6","2018/07/16 19:49:26","新北市鶯歌區尖山埔路227號","121.344983333333","24.9503466666667","6500800","鶯歌區"
"239002","359-BY","2018/07/16 19:49:29","新北市鶯歌區中正一路421號","121.360958333333","24.9570533333333","6500800","鶯歌區"
"239004","193-VK","2018/07/16 19:49:33","新北市鶯歌區二甲路83號","121.339321666667","24.9330866666667","6500800","鶯歌區"
"221008","489-VK","2018/07/16 19:49:33","新北市汐止區康寧街83巷26號","121.620558333333","25.0673016666667","6501100","汐止區"
"221036","130-UY","2018/07/16 19:49:34","新北市汐止區汐萬路一段160號","121.652568333333","25.071595","6501100","汐止區"
"221015","131-UY","2018/07/16 19:49:40","新北市汐止區忠孝東路430號","121.666046666667","25.0722383333333","6501100","汐止區"
"221010","269-BY","2018/07/16 19:49:37","新北市汐止區連峰街128號","121.646075","25.07915","6501100","汐止區"
"221012","278-VK","2018/07/16 19:49:31","新北市汐止區保長路267號","121.68092","25.0743466666667","6501100","汐止區"
"221023","279-VK","2018/07/16 19:49:33","新北市汐止區明峰街153號","121.629233333333","25.0703433333333","6501100","汐止區"
"221032","280-BY","2018/07/16 19:49:43","新北市汐止區橫科路403巷18號","121.625345","25.04749","6501100","汐止區"
"221027","281-BY","2018/07/16 19:49:38","新北市汐止區中正路9號","121.662995","25.07015","6501100","汐止區"
"221029","298-VK","2018/07/16 19:49:36","新北市汐止區康寧街901號","121.651576666667","25.0749066666667","6501100","汐止區"
"221031","353-TW","2018/07/16 19:49:35","新北市汐止區福德二路54巷2弄1號","121.6338","25.0674116666667","6501100","汐止區"
"221035","622-UM","2018/07/16 19:49:29","新北市汐止區長江街13巷6弄1號","121.654735","25.0716916666667","6501100","汐止區"
"221025","623-UM","2018/07/16 19:49:28","新北市汐止區秀峰路81巷14號","121.660783333333","25.0643216666667","6501100","汐止區"
"221038","646-BX","2018/07/16 19:49:34","新北市汐止區忠孝東路411號","121.665691666667","25.0713016666667","6501100","汐止區"
"221002","707-TV","2018/07/16 19:49:37","新北市汐止區大同路一段219巷26號","121.633151666667","25.0586466666667","6501100","汐止區"
"221018","753-BX","2018/07/16 19:49:27","新北市汐止區茄苳路7號","121.664743333333","25.0709083333333","6501100","汐止區"
"220080","200-UY","2018/07/16 19:49:31","新北市板橋區大觀路二段69巷4號","121.446843333333","25.002265","6500100","板橋區"
"220082","610-BX","2018/07/16 19:49:32","新北市板橋區溪北路101號","121.429033333333","24.9893733333333","6500100","板橋區"
"220101","245-BX","2018/07/16 19:49:38","新北市板橋區縣民大道三段93巷22號","121.475031666667","25.0225116666667","6500100","板橋區"
"220056","276-BY","2018/07/16 19:49:40","新北市板橋區四川路二段99巷9號","121.452995","24.9942","6500100","板橋區"
"220072","277-BY","2018/07/16 19:49:29","新北市板橋區金門街151巷25號","121.433935","24.99028","6500100","板橋區"
"220071","283-VK","2018/07/16 19:49:29","新北市板橋區五權街30巷12弄24號","121.463961666667","24.994225","6500100","板橋區"
"220094","285-UM","2018/07/16 19:49:28","新北市板橋區長江路一段108號","121.45966","25.029635","6500100","板橋區"
"220053","285-VK","2018/07/16 19:49:44","新北市板橋區中山路二段60巷36號","121.474576666667","25.0146233333333","6500100","板橋區"
"220083","286-VK","2018/07/16 19:49:34","新北市板橋區僑中二街8巷2-5號","121.447141666667","25.0112416666667","6500100","板橋區"
"220081","287-VK","2018/07/16 19:49:38","新北市板橋區大觀路一段29巷179弄21號","121.449478333333","25.0046183333333","6500100","板橋區"
"220090","288-VK","2018/07/16 19:49:40","新北市板橋區龍泉街54巷8弄10號","121.457346666667","25.02691","6500100","板橋區"
"220061","293-UM","2018/07/16 19:49:39","新北市板橋區中山路一段283巷2弄19號","121.47061","25.0152066666667","6500100","板橋區"
"220062","295-UM","2018/07/16 19:49:32","新北市板橋區中山路二段416巷38弄29號","121.481808333333","25.0194366666667","6500100","板橋區"
"220084","296-UM","2018/07/16 19:49:41","新北市板橋區滿平街2-1號","121.426218333333","24.990165","6500100","板橋區"
"242019","281-VK","2018/07/16 19:49:43","新北市新莊區中華路一段130號","121.452626666667","25.04113","6500500","新莊區"
"220075","303-R5","2018/07/16 19:49:35","新北市板橋區金華街10巷48弄24-3號","121.457821666667","25.0199533333333","6500100","板橋區"
"220092","307-R5","2018/07/16 19:49:39","新北市板橋區陽明街164巷10弄1號","121.464046666667","25.0244116666667","6500100","板橋區"
"220098","317-R6","2018/07/16 19:49:41","新北市板橋區四維路269巷94弄18號","121.459366666667","25.02688","6500100","板橋區"
"220064","486-VK","2018/07/16 19:49:41","新北市板橋區館前東路104號","121.462906666667","25.007665","6500100","板橋區"
"220088","491-VK","2018/07/16 19:49:37","新北市板橋區文聖街83號","121.477458333333","25.0301183333333","6500100","板橋區"
"220035","560-BX","2018/07/16 19:49:37","新北市板橋區金華街136號","121.459546666667","25.0209","6500100","板橋區"
"220103","561-BX","2018/07/16 19:49:33","新北市板橋區陽明街29巷3號","121.465206666667","25.0216866666667","6500100","板橋區"
"220079","568-UM","2018/07/16 19:49:37","新北市板橋區中正路183巷20-3號","121.455818333333","25.0163933333333","6500100","板橋區"
"220063","609-BX","2018/07/16 19:49:43","新北市板橋區三民路一段50-1號","121.479416666667","25.022625","6500100","板橋區"
"220091","637-BX","2018/07/16 19:49:29","新北市板橋區民治街79號","121.479745","25.032315","6500100","板橋區"
"220057","686-BX","2018/07/16 19:49:37","新北市板橋區信義路152號","121.459126666667","24.9916683333333","6500100","板橋區"
"220093","689-BX","2018/07/16 19:49:38","新北市板橋區長江路二段231號","121.468458333333","25.03258","6500100","板橋區"
"220054","741-BX","2018/07/16 19:49:37","新北市板橋區忠孝路忠義巷20弄2號","121.466481666667","25.0038483333333","6500100","板橋區"
"220102","KEA-2699","2018/07/16 19:49:39","新北市板橋區松柏街50巷4號","121.47587","25.029875","6500100","板橋區"
"220077","806-UM","2018/07/16 19:49:30","新北市板橋區僑中一街124巷20弄1號","121.446205","25.014145","6500100","板橋區"
"220055","827-TW","2018/07/16 19:49:29","新北市板橋區和平路31號","121.459995","24.9957266666667","6500100","板橋區"
"220067","829-TW","2018/07/16 19:49:37","新北市板橋區長安街291號","121.474528333333","25.0118866666667","6500100","板橋區"
"220096","830-TW","2018/07/16 19:49:26","新北市板橋區民生路二段234巷26弄9號","121.470566666667","25.02202","6500100","板橋區"
"220089","833-TW","2018/07/16 19:49:27","新北市板橋區英士路192-1號","121.458333333333","25.0235483333333","6500100","板橋區"
"220074","895-R6","2018/07/16 19:49:25","新北市板橋區文化路一段46巷25號","121.46056","25.011385","6500100","板橋區"
"220073","985-R7","2018/07/16 19:49:37","新北市板橋區大仁街105號","121.45271","25.0156766666667","6500100","板橋區"
"220097","AAC-210","2018/07/16 19:49:30","新北市板橋區文化路一段285巷36號","121.463533333333","25.0195583333333","6500100","板橋區"
"220070","AAC-253","2018/07/16 19:49:41","新北市板橋區館前東路130號","121.463955","25.0078183333333","6500100","板橋區"
"235068","KEA-2873","2018/07/16 19:49:38","新北市中和區莊敬路2號","121.499415","25.00427","6500300","中和區"
"235061","KEA-2875","2018/07/16 19:49:16","新北市中和區員山路202號","121.48134","25.0006466666667","6500300","中和區"
