"lineid","car","time","location","longitude","latitude","cityid","cityname"
"234046","148-BY","2018/07/16 19:59:32","新北市永和區林森路109號","121.522826666667","25.0032466666667","6500400","永和區"
"234007","207-UY","2018/07/16 19:59:28","新北市永和區保生路22巷21號","121.507211666667","25.008135","6500400","永和區"
"234081","298-R6","2018/07/16 19:59:40","新北市永和區永利路81巷2弄4號","121.521651666667","25.0035433333333","6500400","永和區"
"234038","336-UY","2018/07/16 19:59:31","新北市永和區成功路二段133號","121.526683333333","24.9980866666667","6500400","永和區"
"234064","337-UY","2018/07/16 19:59:41","新北市永和區中正路412巷20弄27號","121.519153333333","25.0013033333333","6500400","永和區"
"234070","552-UM","2018/07/16 19:59:35","新北市永和區國光路14號","121.519131666667","25.0083466666667","6500400","永和區"
"234086","553-UM","2018/07/16 19:59:33","新北市永和區福和路232號","121.518945","25.0076516666667","6500400","永和區"
"234017","745-BX","2018/07/16 19:59:41","新北市永和區文化路70號","121.514255","25.0151116666667","6500400","永和區"
"234030","746-BX","2018/07/16 19:59:41","新北市永和區民生路67巷21號","121.523911666667","24.9973283333333","6500400","永和區"
"234054","KEA-2590","2018/07/16 19:59:36","新北市永和區博愛街47巷1號","121.519325","25.01591","6500400","永和區"
"234013","KEA-2591","2018/07/16 19:59:38","新北市永和區保生路55號","121.504641666667","25.010655","6500400","永和區"
"234061","AAD-866","2018/07/16 19:59:23","新北市永和區中正路283巷44號","121.516571666667","25.0003633333333","6500400","永和區"
"234067","847-RS","2018/07/16 19:59:40","新北市永和區中山路一段230號","121.507958333333","25.0081883333333","6500400","永和區"
"234042","862-TW","2018/07/16 19:59:38","新北市永和區中和路421巷16弄9號","121.508791666667","25.0012883333333","6500400","永和區"
"234050","863-TW","2018/07/16 19:59:30","新北市永和區保安路137號","121.50743","25.0133616666667","6500400","永和區"
"234026","9371-KE","2018/07/16 19:59:33","新北市永和區水源街27巷7號","121.511271666667","25.0041166666667","6500400","永和區"
"234011","9373-KE","2018/07/16 19:59:31","新北市永和區仁愛路352巷112弄9號","121.500853333333","25.00851","6500400","永和區"
"249005","172-UM","2018/07/16 19:59:44","新北市八里區楓林路4號","121.381833333333","25.1299566666667","6502300","八里區"
"249001","173-UM","2018/07/16 19:59:42","新北市八里區中華路二段310號","121.403811666667","25.1483666666667","6502300","八里區"
"249004","303-UY","2018/07/16 19:59:38","新北市八里區中華路一段333-1號","121.413536666667","25.1536033333333","6502300","八里區"
"249002","305-UY","2018/07/16 19:59:36","新北市八里區頂寮一街32號","121.451118333333","25.1237583333333","6502300","八里區"
"249003","593-UM","2018/07/16 19:59:33","新北市八里區訊塘路19號","121.397891666667","25.1451933333333","6502300","八里區"
"248014","025-BX","2018/07/16 19:59:35","新北市五股區五福路22巷5號","121.434555","25.0890716666667","6501500","五股區"
"248016","026-BX","2018/07/16 19:59:42","新北市五股區成泰路三段577巷80弄25號","121.44955","25.1046433333333","6501500","五股區"
"248008","095-VK","2018/07/16 19:59:34","新北市五股區四維路30巷17號","121.467918333333","25.0715183333333","6501500","五股區"
"248018","225-UY","2018/07/16 19:59:28","新北市五股區登林路118-4號","121.414675","25.0759516666667","6501500","五股區"
"248012","247-BX","2018/07/16 19:59:28","新北市五股區民義路一段109號","121.434135","25.08644","6501500","五股區"
"248004","677-BX","2018/07/16 19:59:34","新北市五股區成泰路一段8巷4號","121.43499","25.06688","6501500","五股區"
"248002","678-BX","2018/07/16 19:59:24","新北市五股區成泰路三段482號","121.452033333333","25.1016416666667","6501500","五股區"
"248010","682-TV","2018/07/16 19:59:40","新北市五股區成泰路一段34巷1號","121.435111666667","25.0682166666667","6501500","五股區"
"234023","9380-KE","2018/07/16 19:59:38","新北市永和區中正路704號","121.51626","25.0098733333333","6500400","永和區"
"234077","969-R7","2018/07/16 19:59:35","新北市永和區民族街61號","121.51844","24.9978616666667","6500400","永和區"
"234074","AAC-211","2018/07/16 19:59:42","新北市永和區豫溪街215巷14號","121.524123333333","25.0096383333333","6500400","永和區"
"234003","AAC-295","2018/07/16 19:59:42","新北市永和區中正路613號","121.51619","25.009795","6500400","永和區"
"243010","267-VK","2018/07/16 19:59:36","新北市泰山區中華街11號","121.4277","25.0523383333333","6501600","泰山區"
"243013","AAD-798","2018/07/16 19:59:23","新北市泰山區應化街7號","121.423858333333","25.0437333333333","6501600","泰山區"
"243009","297-R6","2018/07/16 19:59:27","新北市泰山區楓江路16巷23號","121.434035","25.0615333333333","6501600","泰山區"
"243016","380-SR","2018/07/16 19:59:28","新北市泰山區明志路三段521號","121.421381666667","25.0314933333333","6501600","泰山區"
"243015","421-VK","2018/07/16 19:59:31","新北市泰山區明志路二段194號","121.427423333333","25.04962","6501600","泰山區"
"243011","KEA-2215","2018/07/16 19:59:38","新北市泰山區明志路三段182巷13號","121.423553333333","25.03912","6501600","泰山區"
"243012","646-TV","2018/07/16 19:59:37","新北市泰山區全興路82號","121.43299","25.057865","6501600","泰山區"
"243014","680-BX","2018/07/16 19:59:38","新北市泰山區泰林路二段165號","121.433813333333","25.0605166666667","6501600","泰山區"
"222003","436-BY","2018/07/16 19:59:30","新北市深坑區埔新街14號","121.620751666667","25.0039416666667","6501800","深坑區"
"222002","659-BX","2018/07/16 19:59:37","新北市深坑區北深路二段81巷8弄3號","121.61826","25.0030316666667","6501800","深坑區"
"231041","002-UM","2018/07/16 19:59:34","新北市新店區中正路352號","121.535941666667","24.97551","6500600","新店區"
"231059","046-UY","2018/07/16 19:59:28","新北市新店區安康路二段4號","121.516426666667","24.9637616666667","6500600","新店區"
"231040","047-UY","2018/07/16 19:59:29","新北市新店區中正路51號","121.544653333333","24.9699016666667","6500600","新店區"
"231044","106-UY","2018/07/16 19:59:36","新北市新店區復興路32號","121.539133333333","24.98682","6500600","新店區"
"231046","107-UY","2018/07/16 19:59:30","新北市新店區三民路159巷19弄2號","121.532723333333","24.97412","6500600","新店區"
"231065","110-UY","2018/07/16 19:59:29","新北市新店區安祥路109巷8號","121.47542","24.9588366666667","6500600","新店區"
"231047","187-VK","2018/07/16 19:59:40","新北市新店區寶宏路14號","121.549251666667","24.9762066666667","6500600","新店區"
"231054","KEA-2219","2018/07/16 19:59:44","新北市新店區光明街198號","121.539735","24.96248","6500600","新店區"
"231057","256-BX","2018/07/16 19:59:31","新北市新店區花園二路一段11號","121.555501666667","24.932525","6500600","新店區"
"231042","268-BY","2018/07/16 19:59:22","新北市新店區中正路5號","121.545851666667","24.9691683333333","6500600","新店區"
"231051","278-BY","2018/07/16 19:59:41","新北市新店區中央二街11號","121.529058333333","24.9733433333333","6500600","新店區"
"231050","AAD-862","2018/07/16 19:59:32","新北市新店區北宜路二段65-1號","121.5494","24.9514833333333","6500600","新店區"
"231043","355-BY","2018/07/16 19:59:28","新北市新店區中正路282-11號","121.538471666667","24.9739316666667","6500600","新店區"
"231056","4715-K9","2018/07/16 19:59:35","新北市新店區明德路26巷4號","121.542158333333","24.9777383333333","6500600","新店區"
"231049","513-UM","2018/07/16 19:59:36","新北市新店區明德路83號","121.541486666667","24.9783183333333","6500600","新店區"
"231063","616-UM","2018/07/16 19:59:39","新北市新店區黎明路9號","121.502711666667","24.9509283333333","6500600","新店區"
"231045","617-UM","2018/07/16 19:59:40","新北市新店區北宜路二段172號","121.558426666667","24.9541183333333","6500600","新店區"
"231061","619-UM","2018/07/16 19:59:41","新北市新店區安民街285號","121.51755","24.9733116666667","6500600","新店區"
"231068","718-UY","2018/07/16 19:59:38","新北市新店區安康路一段258-2號","121.520331666667","24.965395","6500600","新店區"
"231064","719-UM","2018/07/16 19:59:39","新北市新店區碧安街15巷14號","121.5171","24.9691566666667","6500600","新店區"
"231052","719-UY","2018/07/16 19:59:28","新北市新店區新烏路三段230巷1號","121.550315","24.9010383333333","6500600","新店區"
"231062","720-UM","2018/07/16 19:59:40","新北市新店區華潭街26巷1弄1號","121.5295","24.9536933333333","6500600","新店區"
"231060","897-TW","2018/07/16 19:59:43","新北市新店區安康路二段458號","121.494366666667","24.9541883333333","6500600","新店區"
"231055","AKT-0513","2018/07/16 19:59:24","新北市新店區中華路83巷67號","121.538395","24.9674","6500600","新店區"
"241011","013-R5","2018/07/16 19:59:24","新北市三重區三和路二段220號","121.497896666667","25.0695083333333","6500200","三重區"
"241028","022-UY","2018/07/16 19:59:34","新北市三重區中正南路50號","121.493938333333","25.0598983333333","6500200","三重區"
"241008","059-VK","2018/07/16 19:59:35","新北市三重區永福街179巷9號","121.478508333333","25.0749666666667","6500200","三重區"
"241031","061-VK","2018/07/16 19:59:31","新北市三重區重新路四段144巷32號","121.487158333333","25.0550683333333","6500200","三重區"
"241015","062-VK","2018/07/16 19:59:44","新北市三重區三和路二段6-2號","121.501203333333","25.0668133333333","6500200","三重區"
"241017","063-VK","2018/07/16 19:59:34","新北市三重區重陽路四段1號","121.49106","25.0686283333333","6500200","三重區"
"241026","066-VK","2018/07/16 19:59:36","新北市三重區福德南路15-1號","121.502685","25.0631283333333","6500200","三重區"
"241002","090-VK","2018/07/16 19:59:40","新北市三重區仁愛街277號","121.492746666667","25.0788316666667","6500200","三重區"
"241003","091-VK","2018/07/16 19:59:26","新北市三重區仁愛街445巷1號","121.490001666667","25.082305","6500200","三重區"
"241024","742-BX","2018/07/16 19:59:39","新北市三重區力行路二段2號","121.481966666667","25.07184","6500200","三重區"
"241016","266-UM","2018/07/16 19:59:26","新北市三重區正義北路48巷21號","121.496605","25.0637133333333","6500200","三重區"
"241018","268-UM","2018/07/16 19:59:37","新北市三重區正義北路244巷71號","121.49393","25.0677166666667","6500200","三重區"
"241032","269-UM","2018/07/16 19:59:36","新北市三重區朝陽街26巷1弄1號","121.483228333333","25.0564983333333","6500200","三重區"
"241013","270-UM","2018/07/16 19:59:29","新北市三重區三和路三段125巷40號","121.493925","25.073755","6500200","三重區"
"241025","271-UM","2018/07/16 19:59:36","新北市三重區頂崁街210巷11號","121.476505","25.0678083333333","6500200","三重區"
"241007","398-BY","2018/07/16 19:59:30","新北市三重區溪尾街160號","121.488773333333","25.0800816666667","6500200","三重區"
"241035","462-BY","2018/07/16 19:59:40","新北市三重區大榮街9號","121.498146666667","25.06321","6500200","三重區"
"241004","475-VK","2018/07/16 19:59:33","新北市三重區五華街108-1號","121.49253","25.0827033333333","6500200","三重區"
"241020","478-VK","2018/07/16 19:59:42","新北市三重區忠孝路一段101號","121.48957","25.072205","6500200","三重區"
"241030","480-VK","2018/07/16 19:59:32","新北市三重區重新路四段248-1號","121.486256666667","25.053445","6500200","三重區"
"241014","543-UM","2018/07/16 19:59:32","新北市三重區三和路二段164號","121.499236666667","25.0686366666667","6500200","三重區"
"241023","545-UM","2018/07/16 19:59:34","新北市三重區頂崁街166號","121.477633333333","25.065855","6500200","三重區"
"241001","547-UM","2018/07/16 19:59:41","新北市三重區仁愛街283巷36號","121.494326666667","25.0800016666667","6500200","三重區"
"241019","KEA-2593","2018/07/16 19:59:31","新北市三重區自強路二段7號","121.490213333333","25.068905","6500200","三重區"
"241006","AAD-863","2018/07/16 19:59:43","新北市三重區力行路二段90號","121.481786666667","25.0742416666667","6500200","三重區"
"241022","887-TS","2018/07/16 19:59:41","新北市三重區新北大道一段9號","121.488781666667","25.0606683333333","6500200","三重區"
"241029","942-UM","2018/07/16 19:59:37","新北市三重區重安街14號","121.49027","25.0582583333333","6500200","三重區"
"241033","AAC-255","2018/07/16 19:59:32","新北市三重區中興北街101號","121.469618333333","25.04839","6500200","三重區"
"235066","003-UY","2018/07/16 19:59:34","新北市中和區中山路二段56號","121.50416","25.0048016666667","6500300","中和區"
"235056","096-UM","2018/07/16 19:59:36","新北市中和區中山路三段170巷8弄17號","121.473073333333","25.0077416666667","6500300","中和區"
"235039","097-UM","2018/07/16 19:59:34","新北市永和區中正路2巷27號","121.5138","24.993625","6500300","中和區"
"235065","098-UM","2018/07/16 19:59:38","新北市中和區福美路269號","121.498133333333","25.0050333333333","6500300","中和區"
"235040","150-BY","2018/07/16 19:59:42","新北市中和區保健路8巷3號","121.507903333333","24.9979983333333","6500300","中和區"
"235058","151-BY","2018/07/16 19:59:27","新北市中和區員山路150-3號","121.481345","24.9973683333333","6500300","中和區"
"235055","183-VK","2018/07/16 19:59:29","新北市中和區民生街23巷1弄1號","121.47085","25.0053866666667","6500300","中和區"
"235049","186-VK","2018/07/16 19:59:36","新北市中和區景平路530號","121.502713333333","24.9944633333333","6500300","中和區"
"235067","255-BX","2018/07/16 19:59:34","新北市中和區員山路148巷23弄9號","121.482221666667","24.9976566666667","6500300","中和區"
"235044","293-VK","2018/07/16 19:59:42","新北市中和區中正路69號","121.501155","24.9934233333333","6500300","中和區"
"235072","301-VK","2018/07/16 19:59:35","新北市中和區中正路432巷11號","121.490695","24.9957966666667","6500300","中和區"
"247010","KEA-2869","2018/07/16 19:59:44","新北市三重區集賢路188號","121.483915","25.0881483333333","6501400","蘆洲區"
"235050","4979-A6","2018/07/16 19:59:27","新北市中和區景平路155號","121.513353333333","24.99195","6500300","中和區"
"235069","4980-A6","2018/07/16 19:59:27","新北市中和區圓通路73號","121.500103333333","24.9968683333333","6500300","中和區"
"235070","558-UM","2018/07/16 19:59:33","新北市中和區圓通路172號","121.497391666667","24.9946966666667","6500300","中和區"
"235054","640-BX","2018/07/16 19:59:32","新北市中和區莒光路9號","121.4719","25.0058583333333","6500300","中和區"
"235046","733-UM","2018/07/16 19:59:32","新北市中和區興南路一段93巷73號","121.510393333333","24.98665","6500300","中和區"
"235041","802-TS","2018/07/16 19:59:37","新北市中和區安平路30號","121.50956","24.9947583333333","6500300","中和區"
"235052","805-TS","2018/07/16 19:59:41","新北市中和區華新街30巷20弄1-2號","121.506605","24.984005","6500300","中和區"
"235048","896-TW","2018/07/16 19:59:28","新北市中和區興南路一段20-1號","121.511253333333","24.991035","6500300","中和區"
"235051","157-BY","2018/07/16 19:59:26","新北市中和區復興路299號","121.501535","24.99017","6500300","中和區"
"235037","AAC-213","2018/07/16 19:59:38","新北市中和區自立路99巷16號","121.522743333333","24.9947216666667","6500300","中和區"
"235059","AAC-215","2018/07/16 19:59:23","新北市中和區圓通路305巷5弄17號","121.494008333333","24.9903383333333","6500300","中和區"
"220068","013-TV","2018/07/16 19:58:25","新北市板橋區光復街149號","121.485693333333","25.0201","6500100","板橋區"
"220065","072-UY","2018/07/16 19:59:40","新北市板橋區中山路一段154巷21號","121.465351666667","25.0105033333333","6500100","板橋區"
"220086","073-UY","2018/07/16 19:59:26","新北市五股區新五路三段26號","121.444065","25.087345","6500100","板橋區"
"220106","075-UY","2018/07/16 19:59:25","新北市板橋區民治街61巷24號","121.480568333333","25.03339","6500100","板橋區"
"220069","AAD-861","2018/07/16 19:59:24","新北市板橋區大明街13號","121.45886","25.0025316666667","6500100","板橋區"
"247024","893-R6","2018/07/16 19:59:40","新北市蘆洲區光榮路120巷12號","121.465278333333","25.088355","6501400","蘆洲區"
"247014","546-UM","2018/07/16 19:59:38","新北市蘆洲區成功路115號","121.47256","25.0820583333333","6501400","蘆洲區"
"247012","339-TH","2018/07/16 19:59:28","新北市蘆洲區民族路220號","121.479645","25.0879366666667","6501400","蘆洲區"
"247004","337-TH","2018/07/16 19:59:33","新北市蘆洲區永康街59號","121.456508333333","25.0853933333333","6501400","蘆洲區"
"247006","336-TH","2018/07/16 19:59:39","新北市蘆洲區九芎街88號","121.465805","25.07985","6501400","蘆洲區"
"247018","057-VK","2018/07/16 19:59:32","新北市蘆洲區民族路292號","121.478101666667","25.089695","6501400","蘆洲區"
"247008","056-VK","2018/07/16 19:59:38","新北市蘆洲區中山一路95巷20弄7號","121.47706","25.0805966666667","6501400","蘆洲區"
"247016","007-UY","2018/07/16 19:59:33","新北市蘆洲區光華路13號","121.469773333333","25.08339","6501400","蘆洲區"
"247002","002-UY","2018/07/16 19:59:32","新北市蘆洲區永樂街31巷9號","121.45817","25.0872016666667","6501400","蘆洲區"
"247020","001-UY","2018/07/16 19:59:44","新北市蘆洲區民義街70號","121.473121666667","25.089985","6501400","蘆洲區"
"226004","312-R5","2018/07/16 19:59:28","新北市平溪區十分里十分街96-2號","121.776623333333","25.0425983333333","6502400","平溪區"
"228003","097-TW","2018/07/16 19:59:34","新北市貢寮區仁理村仁和路252號","121.924101666667","25.0541133333333","6502600","貢寮區"
"224010","AGQ-8101","2018/07/16 19:59:40","新北市瑞芳區基山街267-1號","121.841016666667","25.1075783333333","6501200","瑞芳區"
"224002","639-TC","2018/07/16 19:59:37","新北市瑞芳區員山子路3-1號","121.819206666667","25.1047","6501200","瑞芳區"
"227008","642-TC","2018/07/16 19:59:26","新北市雙溪區新基里新基南街25號","121.866233333333","25.0381933333333","6502500","雙溪區"
"227001","400-TW","2018/07/16 19:59:30","新北市雙溪區共和里東榮街12號","121.865421666667","25.034255","6502500","雙溪區"
"222001","KEA-2212","2018/07/16 19:59:37","新北市深坑區北深路三段157號","121.602051666667","25.0032483333333","6501800","深坑區"
"208002","KEA-2872","2018/07/16 19:59:37","新北市金山區中華路366-1號","121.633251666667","25.224545","6502700","金山區"
"208003","665-BX","2018/07/16 19:59:33","新北市金山區海興路93號","121.63348","25.2413","6502700","金山區"
"208001","761-BX","2018/07/16 19:59:34","新北市金山區重和里林口24號","121.596916666667","25.2103133333333","6502700","金山區"
"251009","008-UM","2018/07/16 19:59:39","新北市淡水區英專路28巷20號","121.44594","25.1697483333333","6501000","淡水區"
"251004","009-UM","2018/07/16 19:59:24","新北市淡水區民族路50巷2弄2號","121.461371666667","25.1358433333333","6501000","淡水區"
"251001","011-UM","2018/07/16 19:59:40","新北市淡水區新市二路四段265號","121.445725","25.1924933333333","6501000","淡水區"
"251013","KEA-2871","2018/07/16 19:59:43","新北市淡水區下圭柔山63-7號","121.451731666667","25.2061716666667","6501000","淡水區"
"251014","180-VK","2018/07/16 19:59:28","新北市淡水區石頭厝3-2號","121.45924","25.2352566666667","6501000","淡水區"
"251015","181-VK","2018/07/16 19:59:33","新北市淡水區商工路184號","121.449441666667","25.1885833333333","6501000","淡水區"
"251010","413-VK","2018/07/16 19:59:24","新北市淡水區下圭柔山91-3號","121.431103333333","25.2102066666667","6501000","淡水區"
"251012","441-VK","2018/07/16 19:59:30","新北市淡水區下圭柔山93-4號","121.436465","25.2092683333333","6501000","淡水區"
"251008","442-VK","2018/07/16 19:59:22","新北市淡水區淡海路63巷10-1號","121.42271","25.180805","6501000","淡水區"
"251005","443-VK","2018/07/16 19:59:33","新北市淡水區學府路136巷33號","121.451671666667","25.1727333333333","6501000","淡水區"
"251006","561-UM","2018/07/16 19:59:41","新北市淡水區水碓街40巷1號","121.44442","25.1772883333333","6501000","淡水區"
"251016","575-R6","2018/07/16 19:59:42","新北市淡水區淡金路五段20號","121.452873333333","25.232265","6501000","淡水區"
"251011","650-BX","2018/07/16 19:59:26","新北市淡水區崁頂55-3號","121.442343333333","25.1966516666667","6501000","淡水區"
"251003","766-UM","2018/07/16 19:59:32","新北市淡水區中山北路二段189巷15弄29號","121.443338333333","25.1843066666667","6501000","淡水區"
"207003","550-UM","2018/07/16 19:59:34","新北市萬里區大鵬里萬里加投41-2號","121.637778333333","25.2072183333333","6502800","萬里區"
"207004","225-TW","2018/07/16 19:59:38","新北市萬里區北基里忠二街29號","121.68549","25.1756583333333","6502800","萬里區"
"252002","178-VK","2018/07/16 19:59:39","新北市三芝區忠孝街116-3號","121.50555","25.2575016666667","6502100","三芝區"
"252001","292-VK","2018/07/16 19:59:30","新北市三芝區公正街9號","121.49977","25.257615","6502100","三芝區"
"237004","KEA-2597","2018/07/16 19:59:35","新北市三峽區添福2-15號","121.37162","24.9067466666667","6500900","三峽區"
"237007","153-BY","2018/07/16 19:59:28","新北市三峽區二鬮路136巷11號","121.358985","24.907865","6500900","三峽區"
"237009","210-TH","2018/07/16 19:59:32","新北市三峽區清水街437號","121.368455","24.925485","6500900","三峽區"
"237012","275-BY","2018/07/16 19:59:28","新北市三峽區中華路3巷8-1號","121.37494","24.9311633333333","6500900","三峽區"
"237008","302-VK","2018/07/16 19:59:42","新北市三峽區中華路138號","121.370721666667","24.9271316666667","6500900","三峽區"
"237014","433-BY","2018/07/16 19:59:40","新北市三峽區添福59-1號","121.374788333333","24.9035733333333","6500900","三峽區"
"237006","5529-G3","2018/07/16 19:59:42","新北市三峽區中正路二段168號","121.365878333333","24.9157683333333","6500900","三峽區"
"237011","KEA-2596","2018/07/16 19:59:38","新北市三峽區中正路一段48號","121.375203333333","24.930345","6500900","三峽區"
"237015","649-BX","2018/07/16 19:59:31","新北市三峽區橫溪路99巷42號","121.400055","24.93683","6500900","三峽區"
"237005","AKY-6261","2018/07/16 19:59:37","新北市三峽區民生街1巷26-1號","121.379351666667","24.9339766666667","6500900","三峽區"
"236069","105-UM","2018/07/16 19:59:25","新北市土城區忠義路77號","121.442971666667","24.96512","6501300","土城區"
"236078","166-UM","2018/07/16 19:59:36","新北市土城區福安街88號","121.417936666667","24.9642316666667","6501300","土城區"
"236030","253-BX","2018/07/16 19:59:33","新北市土城區中央路一段252-1號","121.444233333333","24.9846166666667","6501300","土城區"
"236026","269-VK","2018/07/16 19:59:25","新北市土城區中央路二段89號","121.44237","24.97813","6501300","土城區"
"236014","270-VK","2018/07/16 19:59:25","新北市土城區廣福街123號","121.456263333333","24.9929083333333","6501300","土城區"
"236039","271-VK","2018/07/16 19:59:44","新北市土城區國際路72-1號","121.466758333333","24.9762833333333","6501300","土城區"
"236020","401-BY","2018/07/16 19:59:34","新北市土城區延吉街20號","121.472115","24.9875233333333","6501300","土城區"
"236042","752-BX","2018/07/16 19:59:43","新北市土城區學府路一段143巷6號","121.453883333333","24.9858616666667","6501300","土城區"
"236059","912-UM","2018/07/16 19:59:21","新北市土城區中央路一段269號","121.444991666667","24.9853483333333","6501300","土城區"
"236048","913-UM","2018/07/16 19:59:37","新北市土城區金城路三段190號","121.468405","24.9878316666667","6501300","土城區"
"236063","915-UM","2018/07/16 19:59:38","新北市土城區金城路三段73巷4弄32號","121.466255","24.9883216666667","6501300","土城區"
"236055","AAC-216","2018/07/16 19:59:23","新北市土城區立德路19號","121.46163","24.9881166666667","6501300","土城區"
"242034","AAC-296","2018/07/16 19:59:37","新北市新莊區華興街56號","121.44604","25.036485","6500500","新莊區"
"242058","986-R7","2018/07/16 19:59:32","新北市新莊區八德街106號","121.42418","25.0211733333333","6500500","新莊區"
"242025","613-BX","2018/07/16 19:59:41","新北市新莊區五工二路86巷52號","121.460905","25.0675533333333","6500500","新莊區"
"242029","612-BX","2018/07/16 19:59:31","新北市新莊區中榮街152巷17號","121.44591","25.0533466666667","6500500","新莊區"
"242046","497-BY","2018/07/16 19:59:36","新北市新莊區裕民街19巷4號","121.419688333333","25.0252616666667","6500500","新莊區"
"242056","440-UM","2018/07/16 19:59:38","新北市新莊區中正路347巷19號","121.44727","25.034305","6500500","新莊區"
"242036","415-TV","2018/07/16 19:59:30","新北市新莊區建安街57巷2弄5號","121.4284","25.0247133333333","6500500","新莊區"
"242044","400-BY","2018/07/16 19:59:22","新北市新莊區中正路925號","121.410471666667","25.0211733333333","6500500","新莊區"
"242023","362-BY","2018/07/16 19:59:24","新北市新莊區化成路402號","121.465938333333","25.050645","6500500","新莊區"
"242060","353-BY","2018/07/16 19:59:33","新北市新莊區瓊泰路21號","121.444258333333","25.02861","6500500","新莊區"
"242039","133-UY","2018/07/16 19:59:24","新北市新莊區民安路276號","121.42774","25.0214383333333","6500500","新莊區"
"242031","135-UY","2018/07/16 19:59:38","新北市新莊區公園一路79號","121.44314","25.037255","6500500","新莊區"
"242048","172-VK","2018/07/16 19:59:29","新北市新莊區四維路10號","121.423808333333","25.0251583333333","6500500","新莊區"
"242017","175-VK","2018/07/16 19:59:31","新北市新莊區中港路318號","121.45272","25.045715","6500500","新莊區"
"242004","176-VK","2018/07/16 19:59:34","新北市新莊區化成路488-2號","121.466153333333","25.0519433333333","6500500","新莊區"
"242015","346-TH","2018/07/16 19:59:37","新北市新莊區泰順街33巷9號","121.44606","25.042725","6500500","新莊區"
"242011","347-TH","2018/07/16 19:59:35","新北市新莊區中港路531巷140號","121.44938","25.0515233333333","6500500","新莊區"
"242021","348-TH","2018/07/16 19:59:43","新北市新莊區建中街32巷13號","121.448828333333","25.03801","6500500","新莊區"
"242013","351-TH","2018/07/16 19:59:28","新北市新莊區幸福路670巷2弄1號","121.451056666667","25.0495283333333","6500500","新莊區"
"238015","755-BX","2018/07/16 19:59:27","新北市樹林區中山路三段210-2號","121.380573333333","24.96783","6500700","樹林區"
"238023","601-UM","2018/07/16 19:59:40","新北市樹林區中正路347-1號","121.419713333333","25.005955","6500700","樹林區"
"238021","KEA-2539","2018/07/16 19:59:44","新北市樹林區佳園路二段141號","121.390138333333","24.9576833333333","6500700","樹林區"
"239006","891-R6","2018/07/16 19:59:26","新北市鶯歌區文化路253號","121.353395","24.95315","6500800","鶯歌區"
"239002","359-BY","2018/07/16 19:59:29","新北市鶯歌區中正一路113-1號","121.370988333333","24.9585883333333","6500800","鶯歌區"
"221008","489-VK","2018/07/16 19:59:33","新北市汐止區康寧街39號","121.618476666667","25.06689","6501100","汐止區"
"221036","130-UY","2018/07/16 19:59:34","新北市汐止區新台五路二段85巷20號","121.664213333333","25.067475","6501100","汐止區"
"221015","131-UY","2018/07/16 19:59:40","新北市汐止區大同路二段709號","121.665168333333","25.0728533333333","6501100","汐止區"
"221010","269-BY","2018/07/16 19:59:23","新北市汐止區連峰街225巷27號","121.643935","25.0808683333333","6501100","汐止區"
"221012","278-VK","2018/07/16 19:59:31","新北市汐止區大同路三段292號","121.678195","25.0712733333333","6501100","汐止區"
"221023","279-VK","2018/07/16 19:59:33","新北市汐止區明峰街216號","121.62703","25.068845","6501100","汐止區"
"221032","280-BY","2018/07/16 19:59:23","新北市汐止區橫科路18巷10號","121.617815","25.0505716666667","6501100","汐止區"
"221027","281-BY","2018/07/16 19:59:38","新北市汐止區中正路76號","121.661538333333","25.0696083333333","6501100","汐止區"
"221029","298-VK","2018/07/16 19:59:36","新北市汐止區樟樹一路137巷23號","121.641126666667","25.065865","6501100","汐止區"
"221031","353-TW","2018/07/16 19:59:35","新北市汐止區福德一路188-1號","121.634818333333","25.0655216666667","6501100","汐止區"
"221035","622-UM","2018/07/16 19:59:29","新北市汐止區長江街43號","121.655741666667","25.0713266666667","6501100","汐止區"
"221025","623-UM","2018/07/16 19:59:28","新北市汐止區秀峰路109巷5號","121.660461666667","25.0634766666667","6501100","汐止區"
"221038","646-BX","2018/07/16 19:59:34","新北市汐止區忠孝東路477號","121.666116666667","25.0731183333333","6501100","汐止區"
"221002","707-TV","2018/07/16 19:59:37","新北市汐止區大同路一段219巷26號","121.633156666667","25.058705","6501100","汐止區"
"221018","753-BX","2018/07/16 19:59:27","新北市汐止區茄苳路25號","121.665338333333","25.0708966666667","6501100","汐止區"
"220080","200-UY","2018/07/16 19:59:31","新北市板橋區大觀路二段169巷13號","121.445986666667","24.9999716666667","6500100","板橋區"
"220082","610-BX","2018/07/16 19:59:33","新北市板橋區篤行路二段131巷23號","121.431753333333","24.990355","6500100","板橋區"
"220101","245-BX","2018/07/16 19:59:38","新北市板橋區莊敬路259號","121.473736666667","25.021525","6500100","板橋區"
"220072","277-BY","2018/07/16 19:59:29","新北市板橋區篤行路二段73號","121.431693333333","24.991905","6500100","板橋區"
"220071","283-VK","2018/07/16 19:59:29","新北市板橋區廣權路109號","121.464856666667","24.9928366666667","6500100","板橋區"
"220094","285-UM","2018/07/16 19:59:28","新北市板橋區陽明街239號","121.46313","25.0245516666667","6500100","板橋區"
"220053","285-VK","2018/07/16 19:59:44","新北市板橋區中山路二段90巷5號","121.475438333333","25.0160933333333","6500100","板橋區"
"220083","286-VK","2018/07/16 19:59:34","新北市板橋區僑中二街38號","121.445321666667","25.0108166666667","6500100","板橋區"
"220081","287-VK","2018/07/16 19:59:38","新北市板橋區大觀路一段28巷101號","121.449985","25.0119966666667","6500100","板橋區"
"220090","288-VK","2018/07/16 19:59:20","新北市板橋區新海路135巷21號","121.46031","25.023155","6500100","板橋區"
"220061","293-UM","2018/07/16 19:59:39","新北市板橋區觀光街90號","121.469416666667","25.0169066666667","6500100","板橋區"
"220062","295-UM","2018/07/16 19:59:32","新北市板橋區光復街172巷31弄5-2號","121.486485","25.01911","6500100","板橋區"
"220084","296-UM","2018/07/16 19:59:41","新北市板橋區滿平街2巷10號","121.42504","24.9893416666667","6500100","板橋區"
"242019","281-VK","2018/07/16 19:59:43","新北市新莊區民生街19號","121.456028333333","25.04219","6500500","新莊區"
"220075","303-R5","2018/07/16 19:59:35","新北市板橋區金華街10巷65號","121.457758333333","25.0204616666667","6500100","板橋區"
"220092","307-R5","2018/07/16 19:59:33","新北市板橋區四維路259巷69號","121.460716666667","25.026775","6500100","板橋區"
"220098","317-R6","2018/07/16 19:59:41","新北市板橋區新海路72巷46弄9號","121.462498333333","25.0232033333333","6500100","板橋區"
"220064","486-VK","2018/07/16 19:59:28","新北市板橋區民族路166號","121.464841666667","25.008565","6500100","板橋區"
"220088","491-VK","2018/07/16 19:59:42","新北市板橋區懷德街180號","121.479541666667","25.02981","6500100","板橋區"
"220035","560-BX","2018/07/16 19:59:37","新北市板橋區新生街29巷15弄5號","121.456315","25.0219716666667","6500100","板橋區"
"220103","561-BX","2018/07/16 19:59:33","新北市板橋區自由路13號","121.465493333333","25.02269","6500100","板橋區"
"220079","568-UM","2018/07/16 19:59:37","新北市板橋區南雅西路二段145巷4號","121.451746666667","25.0117316666667","6500100","板橋區"
"220091","637-BX","2018/07/16 19:59:31","新北市板橋區文聖街89巷27號","121.47849","25.0304983333333","6500100","板橋區"
"220093","689-BX","2018/07/16 19:59:29","新北市板橋區長江路三段118號","121.475171666667","25.0343083333333","6500100","板橋區"
"220054","741-BX","2018/07/16 19:59:31","新北市板橋區忠孝路忠義巷7號","121.465511666667","25.0036866666667","6500100","板橋區"
"220102","KEA-2699","2018/07/16 19:59:44","新北市板橋區仁化街66號","121.475841666667","25.0318433333333","6500100","板橋區"
"220055","827-TW","2018/07/16 19:59:29","新北市板橋區仁愛路62巷15弄2號","121.459971666667","24.99844","6500100","板橋區"
"220067","829-TW","2018/07/16 19:59:37","新北市板橋區漢生東路189號","121.469993333333","25.011675","6500100","板橋區"
"220096","830-TW","2018/07/16 19:59:25","新北市板橋區莒光路16巷5號","121.469728333333","25.0243433333333","6500100","板橋區"
"220089","833-TW","2018/07/16 19:59:44","新北市板橋區新海路385巷34弄2號","121.457421666667","25.0255083333333","6500100","板橋區"
"220074","895-R6","2018/07/16 19:59:25","新北市板橋區文化路一段32巷18號","121.460011666667","25.0109766666667","6500100","板橋區"
"220073","985-R7","2018/07/16 19:59:37","新北市板橋區南雅西路二段11號","121.452951666667","25.00943","6500100","板橋區"
"220097","AAC-210","2018/07/16 19:59:43","新北市板橋區光正街45巷31號","121.46183","25.0160616666667","6500100","板橋區"
"220070","AAC-253","2018/07/16 19:59:41","新北市板橋區四川路一段147號","121.45985","25.0041666666667","6500100","板橋區"
"235068","KEA-2873","2018/07/16 19:59:38","新北市中和區中山路二段250巷24號","121.497285","25.0033383333333","6500300","中和區"
