"lineid","car","time","location","longitude","latitude","cityid","cityname"
"234046","148-BY","2018/07/16 20:19:32","新北市永和區得和路326號","121.523218333333","24.9995583333333","6500400","永和區"
"234007","207-UY","2018/07/16 20:19:28","新北市永和區環河西路二段229巷5號","121.50157","25.0098433333333","6500400","永和區"
"234081","298-R6","2018/07/16 20:19:40","新北市永和區福和路7巷10弄7號","121.524876666667","25.00748","6500400","永和區"
"234038","336-UY","2018/07/16 20:19:31","新北市永和區成功路一段93巷13弄27號","121.527758333333","25.0038033333333","6500400","永和區"
"234064","337-UY","2018/07/16 20:19:41","新北市永和區得和路108號","121.51828","25.0001533333333","6500400","永和區"
"234070","552-UM","2018/07/16 20:19:35","新北市永和區福和路263巷15號","121.518","25.0064983333333","6500400","永和區"
"234086","553-UM","2018/07/16 20:19:33","新北市永和區永和路二段59號","121.514695","25.01098","6500400","永和區"
"234017","745-BX","2018/07/16 20:19:41","新北市永和區永和路二段185號","121.515011666667","25.013495","6500400","永和區"
"234030","746-BX","2018/07/16 20:19:35","新北市永和區民權路84號","121.519856666667","24.997085","6500400","永和區"
"234054","KEA-2590","2018/07/16 20:19:42","新北市永和區光復街31-1號","121.516656666667","25.017935","6500400","永和區"
"234013","KEA-2591","2018/07/16 20:19:38","新北市永和區保生路40巷1號","121.505868333333","25.008335","6500400","永和區"
"234061","AAD-866","2018/07/16 20:19:43","新北市中和區安樂路241號","121.514115","24.99947","6500400","永和區"
"234067","847-RS","2018/07/16 20:19:40","新北市永和區保平路236巷1弄16號","121.50849","25.0054233333333","6500400","永和區"
"234042","862-TW","2018/07/16 20:19:38","新北市中和區中安街172號","121.510885","24.9997966666667","6500400","永和區"
"234050","863-TW","2018/07/16 20:19:30","新北市永和區新生路28巷9號","121.507933333333","25.0164966666667","6500400","永和區"
"234026","9371-KE","2018/07/16 20:19:33","新北市永和區保生路55號","121.504538333333","25.0107683333333","6500400","永和區"
"249005","172-UM","2018/07/16 20:19:24","新北市八里區下罟子2-19號","121.388055","25.1418683333333","6502300","八里區"
"249001","173-UM","2018/07/16 20:19:41","新北市八里區中華路二段536-4號","121.399115","25.1450833333333","6502300","八里區"
"249004","303-UY","2018/07/16 20:19:38","新北市八里區中山路一段312號","121.413086666667","25.1593116666667","6502300","八里區"
"249002","305-UY","2018/07/16 20:19:16","新北市八里區龍米路一段100巷5號","121.45355","25.12521","6502300","八里區"
"249003","593-UM","2018/07/16 20:19:25","新北市八里區中山路二段447巷30號","121.397421666667","25.1450916666667","6502300","八里區"
"248014","025-BX","2018/07/16 20:19:35","新北市五股區中直路17-4號","121.422808333333","25.1113","6501500","五股區"
"248016","026-BX","2018/07/16 20:19:42","新北市五股區凌雲路一段158巷44號","121.44703","25.1039216666667","6501500","五股區"
"248012","247-BX","2018/07/16 20:19:28","新北市五股區民義路一段206號","121.430583333333","25.0892033333333","6501500","五股區"
"248004","677-BX","2018/07/16 20:19:34","新北市五股區中興路四段17-4號","121.439475","25.08241","6501500","五股區"
"248002","678-BX","2018/07/16 20:19:24","新北市五股區成泰路三段165號","121.445195","25.0918416666667","6501500","五股區"
"234023","9380-KE","2018/07/16 20:19:38","新北市永和區復興街60號","121.516553333333","25.0133066666667","6500400","永和區"
"234077","969-R7","2018/07/16 20:19:35","新北市永和區民光街7號","121.515363333333","24.996285","6500400","永和區"
"234074","AAC-211","2018/07/16 20:19:42","新北市永和區竹林路201巷22弄11號","121.522575","25.0094516666667","6500400","永和區"
"234003","AAC-295","2018/07/16 20:19:42","新北市永和區自強街2號","121.514011666667","25.00813","6500400","永和區"
"243010","267-VK","2018/07/16 20:19:36","新北市泰山區明志路二段254號","121.426921666667","25.0475183333333","6501600","泰山區"
"243013","AAD-798","2018/07/16 20:19:43","新北市泰山區新民路28號","121.426813333333","25.0445433333333","6501600","泰山區"
"243009","297-R6","2018/07/16 20:19:27","新北市泰山區泰林路二段121號","121.434163333333","25.059525","6501600","泰山區"
"243016","380-SR","2018/07/16 20:19:28","新北市泰山區明志路三段125號","121.42504","25.04068","6501600","泰山區"
"243015","421-VK","2018/07/16 20:19:31","新北市泰山區仁愛路43號","121.432345","25.0553866666667","6501600","泰山區"
"243011","KEA-2215","2018/07/16 20:19:38","新北市新莊區明志路19號","121.419948333333","25.0292533333333","6501600","泰山區"
"243012","646-TV","2018/07/16 20:19:36","新北市泰山區楓江路127-3號","121.43924","25.0646333333333","6501600","泰山區"
"243014","680-BX","2018/07/16 20:19:44","新北市泰山區泰林路二段353號","121.428215","25.0638783333333","6501600","泰山區"
"222003","436-BY","2018/07/16 20:19:37","新北市深坑區文化街43號","121.617498333333","25.00179","6501800","深坑區"
"222002","659-BX","2018/07/16 20:19:42","新北市深坑區萬福路75巷38號","121.598538333333","25.0098166666667","6501800","深坑區"
"231041","002-UM","2018/07/16 20:19:34","新北市新店區民權路46號","121.540115","24.9830666666667","6500600","新店區"
"231059","046-UY","2018/07/16 20:19:43","新北市新店區安德街100號","121.509433333333","24.9609816666667","6500600","新店區"
"231040","047-UY","2018/07/16 20:19:29","新北市新店區中正路177號","121.540865","24.972155","6500600","新店區"
"231044","106-UY","2018/07/16 20:19:36","新北市新店區北新路三段89號","121.541525","24.9816883333333","6500600","新店區"
"231065","110-UY","2018/07/16 20:19:29","新北市新店區安祥路106巷16號","121.478223333333","24.9623966666667","6500600","新店區"
"231047","187-VK","2018/07/16 20:19:37","新北市新店區寶橋路132號","121.54733","24.9760866666667","6500600","新店區"
"231054","KEA-2219","2018/07/16 20:19:44","新北市新店區檳榔路105號","121.544681666667","24.9617033333333","6500600","新店區"
"231057","256-BX","2018/07/16 20:19:31","新北市新店區花園五路二段11號","121.554038333333","24.934365","6500600","新店區"
"231042","268-BY","2018/07/16 20:19:42","新北市新店區中興路二段197號","121.548245","24.9737016666667","6500600","新店區"
"231051","278-BY","2018/07/16 20:19:41","新北市新店區中央六街91號","121.526285","24.9768883333333","6500600","新店區"
"231050","AAD-862","2018/07/16 20:19:32","新北市新店區博愛街6巷1號","121.54107","24.97328","6500600","新店區"
"231043","355-BY","2018/07/16 20:19:28","新北市新店區建國路133號","121.5393","24.978245","6500600","新店區"
"231058","3713-VJ","2018/07/16 20:19:42","新北市新店區中央路15號","121.533296666667","24.978385","6500600","新店區"
"231066","4716-K9","2018/07/16 20:19:28","新北市新店區安興路90號","121.514823333333","24.9762433333333","6500600","新店區"
"231056","4715-K9","2018/07/16 20:19:35","新北市新店區建安街45號","121.538661666667","24.97578","6500600","新店區"
"231067","4772-VM","2018/07/16 20:19:32","新北市新店區溪洲路8巷94號","121.533276666667","24.9627083333333","6500600","新店區"
"231049","513-UM","2018/07/16 20:19:33","新北市新店區北新路一段130號","121.542208333333","24.970065","6500600","新店區"
"231063","616-UM","2018/07/16 20:19:39","新北市新店區柴埕路116號","121.504393333333","24.9597666666667","6500600","新店區"
"231045","617-UM","2018/07/16 20:19:40","新北市新店區新坡一街82號","121.547633333333","24.962295","6500600","新店區"
"231061","619-UM","2018/07/16 20:19:41","新北市新店區安興路33-1號","121.515858333333","24.9704083333333","6500600","新店區"
"231068","718-UY","2018/07/16 20:19:38","新北市新店區寶安街16巷1號","121.542098333333","24.9816933333333","6500600","新店區"
"231064","719-UM","2018/07/16 20:19:39","新北市新店區安利街28號","121.519133333333","24.9746866666667","6500600","新店區"
"231052","719-UY","2018/07/16 20:19:28","新北市新店區新烏路二段399號","121.551221666667","24.9095966666667","6500600","新店區"
"231062","720-UM","2018/07/16 20:19:36","新北市新店區安泰路7巷16號","121.485671666667","24.950995","6500600","新店區"
"231060","897-TW","2018/07/16 20:19:43","新北市新店區錦秀路11巷94弄2號","121.480276666667","24.942445","6500600","新店區"
"231055","AKT-0513","2018/07/16 20:19:24","新北市新店區新明街7號","121.541011666667","24.9681483333333","6500600","新店區"
"241011","013-R5","2018/07/16 20:19:24","新北市三重區龍門路180號","121.4993","25.0733783333333","6500200","三重區"
"241028","022-UY","2018/07/16 20:19:34","新北市三重區大同南路151-4號","121.496541666667","25.0569716666667","6500200","三重區"
"241008","059-VK","2018/07/16 20:19:35","新北市三重區永福街211巷23號","121.479076666667","25.0741133333333","6500200","三重區"
"241031","061-VK","2018/07/16 20:19:31","新北市三重區三寧街15號","121.489501666667","25.0597566666667","6500200","三重區"
"241015","062-VK","2018/07/16 20:19:24","新北市三重區重新路一段120號","121.50037","25.0630216666667","6500200","三重區"
"241017","063-VK","2018/07/16 20:19:34","新北市三重區自強路一段157號","121.493396666667","25.0671183333333","6500200","三重區"
"241026","066-VK","2018/07/16 20:19:36","新北市三重區重新路一段52號","121.50265","25.063535","6500200","三重區"
"241002","090-VK","2018/07/16 20:19:40","新北市三重區五華街1巷96號","121.497466666667","25.080345","6500200","三重區"
"241003","091-VK","2018/07/16 20:19:26","新北市三重區富華街50號","121.490235","25.0829416666667","6500200","三重區"
"241024","742-BX","2018/07/16 20:19:39","新北市三重區中正北路238號","121.481843333333","25.0679533333333","6500200","三重區"
"241016","266-UM","2018/07/16 20:19:26","新北市三重區大同北路97-3號","121.494328333333","25.0635583333333","6500200","三重區"
"241018","268-UM","2018/07/16 20:19:37","新北市三重區正義北路185號","121.496306666667","25.0678783333333","6500200","三重區"
"241032","269-UM","2018/07/16 20:19:36","新北市三重區捷運路37巷20號","121.484146666667","25.056895","6500200","三重區"
"241013","270-UM","2018/07/16 20:19:29","新北市三重區三和路三段167巷10號","121.492256666667","25.07425","6500200","三重區"
"241025","271-UM","2018/07/16 20:19:36","新北市三重區頂崁街210巷8號","121.47691","25.0675766666667","6500200","三重區"
"241007","398-BY","2018/07/16 20:19:29","新北市三重區溪尾街108巷71號","121.487103333333","25.0782383333333","6500200","三重區"
"241035","462-BY","2018/07/16 20:19:40","新北市三重區文化北路6-3號","121.499565","25.063665","6500200","三重區"
"241004","475-VK","2018/07/16 20:19:33","新北市三重區仁政街198號","121.490638333333","25.080355","6500200","三重區"
"241020","478-VK","2018/07/16 20:19:42","新北市三重區忠孝路一段21巷13號","121.491613333333","25.0727683333333","6500200","三重區"
"241030","480-VK","2018/07/16 20:19:32","新北市三重區集美街89巷23號","121.488306666667","25.0526816666667","6500200","三重區"
"241014","543-UM","2018/07/16 20:19:32","新北市三重區河邊北街98-1號","121.503993333333","25.0700466666667","6500200","三重區"
"241023","545-UM","2018/07/16 20:19:25","新北市三重區大有街1-1號","121.477605","25.0656516666667","6500200","三重區"
"241001","547-UM","2018/07/16 20:19:40","新北市三重區自強路四段31巷19號","121.490253333333","25.0767933333333","6500200","三重區"
"241019","KEA-2593","2018/07/16 20:19:31","新北市三重區忠孝路一段75號","121.490545","25.0720666666667","6500200","三重區"
"241006","AAD-863","2018/07/16 20:19:43","新北市三重區車路頭街139巷14號","121.484373333333","25.0762066666667","6500200","三重區"
"241022","887-TS","2018/07/16 20:19:42","新北市三重區市前街14號","121.489121666667","25.0623983333333","6500200","三重區"
"241029","942-UM","2018/07/16 20:19:37","新北市三重區重安街90號","121.492371666667","25.0564966666667","6500200","三重區"
"241033","AAC-255","2018/07/16 20:19:32","新北市三重區五谷王北街50巷30號","121.475343333333","25.0513683333333","6500200","三重區"
"235066","003-UY","2018/07/16 20:19:08","新北市中和區保平路370號","121.50638","25.0035616666667","6500300","中和區"
"235039","097-UM","2018/07/16 20:19:34","新北市中和區大勇街27巷18號","121.516643333333","24.99393","6500300","中和區"
"235065","098-UM","2018/07/16 20:19:38","新北市中和區橋和路298號","121.496868333333","25.0068583333333","6500300","中和區"
"235072","301-VK","2018/07/16 20:19:35","新北市板橋區光復街216巷14號","121.486145","25.02066","6500300","中和區"
"247010","KEA-2869","2018/07/16 20:19:44","新北市蘆洲區信義路222巷32弄16號","121.480413333333","25.084665","6501400","蘆洲區"
"235050","4979-A6","2018/07/16 20:19:27","新北市中和區景安路177巷8號","121.505748333333","24.9939933333333","6500300","中和區"
"235069","4980-A6","2018/07/16 20:19:27","新北市中和區圓通路113號","121.499361666667","24.996465","6500300","中和區"
"235059","AAC-215","2018/07/16 20:19:43","新北市中和區圓通路417號","121.488821666667","24.989225","6500300","中和區"
"220069","AAD-861","2018/07/16 20:19:43","新北市板橋區大觀路一段28巷128號","121.450233333333","25.0141233333333","6500100","板橋區"
"247024","893-R6","2018/07/16 20:19:40","新北市蘆洲區光榮路120巷8弄53號","121.463983333333","25.0875466666667","6501400","蘆洲區"
"247014","546-UM","2018/07/16 20:19:38","新北市蘆洲區中山二路137巷10號","121.47208","25.0812533333333","6501400","蘆洲區"
"247022","500-BY","2018/07/16 20:19:42","新北市蘆洲區民族路451號","121.467443333333","25.0885866666667","6501400","蘆洲區"
"247012","339-TH","2018/07/16 20:19:28","新北市蘆洲區中興街51號","121.48128","25.0872483333333","6501400","蘆洲區"
"247004","337-TH","2018/07/16 20:19:33","新北市蘆洲區永康街30號","121.458535","25.0855166666667","6501400","蘆洲區"
"247006","336-TH","2018/07/16 20:19:39","新北市蘆洲區九芎街153巷14號","121.465583333333","25.0787216666667","6501400","蘆洲區"
"247018","057-VK","2018/07/16 20:19:27","新北市蘆洲區民族路408巷22號","121.474988333333","25.0923033333333","6501400","蘆洲區"
"247008","056-VK","2018/07/16 20:19:38","新北市蘆洲區集賢路204號","121.483298333333","25.0874583333333","6501400","蘆洲區"
"247016","007-UY","2018/07/16 20:19:33","新北市蘆洲區光華路132巷39號","121.465868333333","25.0837666666667","6501400","蘆洲區"
"247002","002-UY","2018/07/16 20:19:29","新北市蘆洲區長安街331巷40號","121.455648333333","25.08663","6501400","蘆洲區"
"247020","001-UY","2018/07/16 20:19:24","新北市蘆洲區仁愛街37號","121.472085","25.0928266666667","6501400","蘆洲區"
"224010","AGQ-8101","2018/07/16 20:16:00","新北市瑞芳區烏勢巷147號","121.846908333333","25.107795","6501200","瑞芳區"
"222001","KEA-2212","2018/07/16 20:19:37","新北市深坑區北深路三段247號","121.599416666667","25.0042533333333","6501800","深坑區"
"251001","011-UM","2018/07/16 20:19:40","新北市淡水區新市二路四段265號","121.44575","25.1925066666667","6501000","淡水區"
"251013","KEA-2871","2018/07/16 20:19:23","新北市淡水區相公山1-2號","121.474288333333","25.2066516666667","6501000","淡水區"
"251014","180-VK","2018/07/16 20:19:28","新北市淡水區石頭厝1號","121.458733333333","25.235475","6501000","淡水區"
"251015","181-VK","2018/07/16 20:19:33","新北市淡水區埤島6-10號","121.445973333333","25.1947983333333","6501000","淡水區"
"251010","413-VK","2018/07/16 20:19:24","新北市淡水區新民街一段153號","121.427508333333","25.1887933333333","6501000","淡水區"
"251012","441-VK","2018/07/16 20:19:30","新北市淡水區下圭柔山431-1號","121.449826666667","25.210215","6501000","淡水區"
"251008","442-VK","2018/07/16 20:19:22","新北市淡水區淡海路180巷17號","121.421356666667","25.1846466666667","6501000","淡水區"
"251005","443-VK","2018/07/16 20:19:33","新北市淡水區中山北路三段163號","121.445393333333","25.196705","6501000","淡水區"
"251006","561-UM","2018/07/16 20:19:41","新北市淡水區北新路169巷2號","121.450378333333","25.1792833333333","6501000","淡水區"
"251016","575-R6","2018/07/16 20:19:42","新北市淡水區淡金路四段593號","121.452288333333","25.2319266666667","6501000","淡水區"
"251002","672-BX","2018/07/16 20:19:41","新北市淡水區中正路224號","121.439315","25.1704333333333","6501000","淡水區"
"251003","766-UM","2018/07/16 20:19:32","新北市淡水區中山北路一段196號","121.444543333333","25.1794433333333","6501000","淡水區"
"207004","225-TW","2018/07/16 20:19:38","新北市萬里區北基里仁三街1號","121.682216666667","25.17543","6502800","萬里區"
"252002","178-VK","2018/07/16 20:19:40","新北市三芝區中正路一段35號","121.503091666667","25.258385","6502100","三芝區"
"252001","292-VK","2018/07/16 20:19:30","新北市三芝區中山路一段14號","121.500705","25.2580016666667","6502100","三芝區"
"237009","210-TH","2018/07/16 20:19:32","新北市三峽區中山路219巷19弄8號","121.363013333333","24.9358233333333","6500900","三峽區"
"237006","5529-G3","2018/07/16 20:19:42","新北市三峽區中正路二段41號","121.366705","24.9187633333333","6500900","三峽區"
"237015","649-BX","2018/07/16 20:19:31","新北市三峽區介壽路二段138巷2號","121.394816666667","24.93555","6500900","三峽區"
"237005","AKY-6261","2018/07/16 20:19:37","新北市三峽區三樹路98巷74弄28號","121.385038333333","24.938415","6500900","三峽區"
"236069","105-UM","2018/07/16 20:19:45","新北市土城區中山路34號","121.424726666667","24.9637383333333","6501300","土城區"
"236078","166-UM","2018/07/16 20:19:36","新北市土城區德安街4巷2號","121.422236666667","24.9647983333333","6501300","土城區"
"236030","253-BX","2018/07/16 20:19:33","新北市土城區中央路一段45巷2弄1號","121.448503333333","24.99027","6501300","土城區"
"236026","269-VK","2018/07/16 20:19:31","新北市土城區裕生路100巷1號","121.446613333333","24.9849","6501300","土城區"
"236014","270-VK","2018/07/16 20:19:25","新北市土城區廣明街90巷29號","121.455623333333","24.9947733333333","6501300","土城區"
"236059","912-UM","2018/07/16 20:19:41","新北市土城區大安路101-5號","121.433506666667","24.9685816666667","6501300","土城區"
"242034","AAC-296","2018/07/16 20:19:32","新北市新莊區建中街162號","121.444475","25.0366733333333","6500500","新莊區"
"242058","986-R7","2018/07/16 20:19:32","新北市新莊區四維路215號","121.421593333333","25.01992","6500500","新莊區"
"242053","751-BX","2018/07/16 20:19:34","新北市新莊區民安西路263號","121.42625","25.0131316666667","6500500","新莊區"
"242027","705-TV","2018/07/16 20:19:29","新北市新莊區幸福路602號","121.45207","25.04938","6500500","新莊區"
"242025","613-BX","2018/07/16 20:19:40","新北市新莊區五工二路70巷19號","121.460796666667","25.066485","6500500","新莊區"
"242029","612-BX","2018/07/16 20:19:31","新北市新莊區中華路二段201號","121.452401666667","25.052745","6500500","新莊區"
"242042","566-BX","2018/07/16 20:19:38","新北市新莊區壽山路41號","121.414885","25.030845","6500500","新莊區"
"242046","497-BY","2018/07/16 20:19:36","新北市新莊區中正路新生巷33號","121.417178333333","25.0234","6500500","新莊區"
"242050","441-UM","2018/07/16 20:19:27","新北市新莊區民安西路212巷8號","121.425256666667","25.0149016666667","6500500","新莊區"
"242056","440-UM","2018/07/16 20:19:40","新北市新莊區新莊路649巷40號","121.444911666667","25.03165","6500500","新莊區"
"242036","415-TV","2018/07/16 20:19:30","新北市新莊區建安街50號","121.427403333333","25.024825","6500500","新莊區"
"242007","413-TV","2018/07/16 20:19:24","新北市新莊區福壽街124巷41弄10號","121.459385","25.0516433333333","6500500","新莊區"
"242044","400-BY","2018/07/16 20:19:42","新北市新莊區中正路新建巷28弄10號","121.4139","25.021625","6500500","新莊區"
"242023","362-BY","2018/07/16 20:19:45","新北市新莊區化成路830號","121.464928333333","25.0601233333333","6500500","新莊區"
"242060","353-BY","2018/07/16 20:19:33","新北市新莊區新樹路279號","121.434006666667","25.0205733333333","6500500","新莊區"
"242009","132-UY","2018/07/16 20:19:33","新北市新莊區昌平街9號","121.454863333333","25.0517083333333","6500500","新莊區"
"242039","133-UY","2018/07/16 20:18:44","新北市新莊區八德街133巷4弄5號","121.424308333333","25.0197783333333","6500500","新莊區"
"242031","135-UY","2018/07/16 20:19:38","新北市新莊區三和路20-6號","121.439483333333","25.03744","6500500","新莊區"
"242048","172-VK","2018/07/16 20:19:39","新北市新莊區龍安路216號","121.420155","25.019935","6500500","新莊區"
"242017","175-VK","2018/07/16 20:19:31","新北市新莊區中港一街141號","121.448008333333","25.0450366666667","6500500","新莊區"
"242004","176-VK","2018/07/16 20:19:34","新北市新莊區化成路524巷3號","121.466695","25.0527266666667","6500500","新莊區"
"242015","346-TH","2018/07/16 20:19:27","新北市新莊區永樂街247號","121.445791666667","25.0442533333333","6500500","新莊區"
"242011","347-TH","2018/07/16 20:19:35","新北市新莊區中信街25號","121.450941666667","25.0507366666667","6500500","新莊區"
"242021","348-TH","2018/07/16 20:19:43","新北市新莊區復興路一段2號","121.445515","25.0412983333333","6500500","新莊區"
"242002","349-TH","2018/07/16 20:19:34","新北市新莊區化成路14號","121.464761666667","25.042375","6500500","新莊區"
"242013","351-TH","2018/07/16 20:19:28","新北市新莊區中和街184號","121.447441666667","25.0497816666667","6500500","新莊區"
"239002","359-BY","2018/07/16 20:19:29","新北市鶯歌區二甲路12-2號","121.345608333333","24.9350233333333","6500800","鶯歌區"
"221008","489-VK","2018/07/16 20:19:33","台北市內湖區康樂街12號","121.617771666667","25.0679616666667","6501100","汐止區"
"221036","130-UY","2018/07/16 20:19:34","新北市汐止區福安街57巷12號","121.664266666667","25.06414","6501100","汐止區"
"221015","131-UY","2018/07/16 20:19:40","新北市汐止區建成路142巷19弄3號","121.662166666667","25.0737816666667","6501100","汐止區"
"221010","269-BY","2018/07/16 20:19:43","新北市汐止區八連路二段494號","121.628873333333","25.10634","6501100","汐止區"
"221012","278-VK","2018/07/16 20:19:31","新北市汐止區保新街141號","121.688146666667","25.0701116666667","6501100","汐止區"
"221023","279-VK","2018/07/16 20:19:40","新北市汐止區湖前街110巷2弄16號","121.632068333333","25.07182","6501100","汐止區"
"221032","280-BY","2018/07/16 20:19:30","新北市汐止區弘道街57號","121.618815","25.0483383333333","6501100","汐止區"
"221027","281-BY","2018/07/16 20:19:38","新北市汐止區大同路二段353號","121.656975","25.0672833333333","6501100","汐止區"
"221029","298-VK","2018/07/16 20:19:35","新北市汐止區工建路98號","121.639513333333","25.0635183333333","6501100","汐止區"
"221021","299-VK","2018/07/16 20:19:42","新北市汐止區水源路一段275號","121.65406","25.0588916666667","6501100","汐止區"
"221031","353-TW","2018/07/16 20:19:35","新北市汐止區中興路150巷13號","121.633035","25.0649816666667","6501100","汐止區"
"221035","622-UM","2018/07/16 20:19:29","新北市汐止區長江街101-5號","121.658715","25.073205","6501100","汐止區"
"221025","623-UM","2018/07/16 20:19:28","新北市汐止區水源路一段291巷4弄33號","121.655053333333","25.0573683333333","6501100","汐止區"
"221038","646-BX","2018/07/16 20:19:34","新北市汐止區忠孝東路476-1號","121.666158333333","25.0736233333333","6501100","汐止區"
"221002","707-TV","2018/07/16 20:19:37","新北市汐止區福德三路63號","121.637058333333","25.0693066666667","6501100","汐止區"
"221018","753-BX","2018/07/16 20:19:27","新北市汐止區茄安路43號","121.674155","25.0687616666667","6501100","汐止區"
"220101","245-BX","2018/07/16 20:19:38","新北市板橋區莊敬路77號","121.473106666667","25.026735","6500100","板橋區"
"220083","286-VK","2018/07/16 20:19:42","新北市板橋區僑中二街102巷14號","121.445521666667","25.0085233333333","6500100","板橋區"
"220081","287-VK","2018/07/16 20:19:38","新北市板橋區僑中一街80巷7弄10號","121.447328333333","25.0128283333333","6500100","板橋區"
"220061","293-UM","2018/07/16 20:19:39","新北市板橋區文華街4號","121.458136666667","25.0002733333333","6500100","板橋區"
"220084","296-UM","2018/07/16 20:19:41","新北市五股區成泰路一段98巷2-2號","121.437051666667","25.0716766666667","6500100","板橋區"
"242019","281-VK","2018/07/16 20:19:23","新北市新莊區復興路二段196巷1號","121.459368333333","25.0440816666667","6500500","新莊區"
"220103","561-BX","2018/07/16 20:19:33","新北市板橋區新海路95號","121.461565","25.022135","6500100","板橋區"
"220102","KEA-2699","2018/07/16 20:19:39","新北市板橋區莊敬路220巷29弄7號","121.472898333333","25.020005","6500100","板橋區"
"220055","827-TW","2018/07/16 20:19:29","新北市板橋區仁愛路21號","121.458871666667","24.99946","6500100","板橋區"
"220089","833-TW","2018/07/16 20:19:23","新北市板橋區四維路154號","121.464883333333","25.025825","6500100","板橋區"
"220097","AAC-210","2018/07/16 20:19:27","新北市板橋區復興街135號","121.46113","25.0179833333333","6500100","板橋區"
"220070","AAC-253","2018/07/16 20:19:41","新北市板橋區四川路二段253號","121.450518333333","24.993235","6500100","板橋區"
"235068","KEA-2873","2018/07/16 20:19:38","新北市中和區福美路252號","121.49834","25.0051383333333","6500300","中和區"
