"lineid","car","time","location","longitude","latitude","cityid","cityname"
"234007","207-UY","2018/07/16 20:59:28","新北市八里區中山路三段409號","121.368751666667","25.1343683333333","6500400","永和區"
"231059","046-UY","2018/07/16 20:59:28","新北市新店區僑信路132巷1號","121.500695","24.94577","6500600","新店區"
"231040","047-UY","2018/07/16 20:59:29","新北市新店區北新路一段351號","121.541986666667","24.969445","6500600","新店區"
"231065","110-UY","2018/07/16 20:59:29","新北市新店區安祥路69巷50號","121.482096666667","24.9600783333333","6500600","新店區"
"231047","187-VK","2018/07/16 20:59:37","新北市新店區寶橋路235巷121號","121.54992","24.9838633333333","6500600","新店區"
"231054","KEA-2219","2018/07/16 20:59:44","新北市新店區中正路75巷71號","121.543113333333","24.9688283333333","6500600","新店區"
"231042","268-BY","2018/07/16 20:59:42","新北市新店區中興路二段197號","121.548261666667","24.9738633333333","6500600","新店區"
"231051","278-BY","2018/07/16 20:59:41","新北市新店區中正路663巷7弄15號","121.532961666667","24.99008","6500600","新店區"
"231050","AAD-862","2018/07/16 20:59:32","新北市新店區三民路75巷4弄2號","121.535506666667","24.97096","6500600","新店區"
"231043","355-BY","2018/07/16 20:59:29","新北市新店區民族路192號","121.536258333333","24.9754683333333","6500600","新店區"
"231066","4716-K9","2018/07/16 20:59:28","新北市新店區吉安街14號","121.516771666667","24.965785","6500600","新店區"
"231067","4772-VM","2018/07/16 20:59:32","新北市新店區安康路一段266巷4號","121.519801666667","24.9640366666667","6500600","新店區"
"231063","616-UM","2018/07/16 20:59:39","新北市新店區富貴街6巷2號","121.494635","24.950145","6500600","新店區"
"231061","619-UM","2018/07/16 20:59:41","新北市新店區永安街109巷3號","121.5211","24.9856566666667","6500600","新店區"
"231068","718-UY","2018/07/16 20:59:38","新北市新店區寶元路二段39號","121.547025","24.9813483333333","6500600","新店區"
"231064","719-UM","2018/07/16 20:59:19","新北市新店區安民街115巷28號","121.515175","24.9677633333333","6500600","新店區"
"231052","719-UY","2018/07/16 20:59:28","新北市新店區光明街22號","121.538055","24.9588316666667","6500600","新店區"
"231062","720-UM","2018/07/16 20:59:36","新北市新店區雙城路20巷6號","121.49147","24.9507383333333","6500600","新店區"
"231060","897-TW","2018/07/16 20:59:43","新北市新店區安康路三段423號","121.483171666667","24.9498333333333","6500600","新店區"
"241011","013-R5","2018/07/16 20:59:44","新北市三重區秀江街113號","121.49983","25.0722466666667","6500200","三重區"
"241028","022-UY","2018/07/16 20:59:35","新北市三重區正義南路38號","121.49822","25.060995","6500200","三重區"
"241008","059-VK","2018/07/16 20:59:35","新北市三重區車路頭街135-1號","121.484298333333","25.0761433333333","6500200","三重區"
"241031","061-VK","2018/07/16 20:59:31","新北市三重區重陽路一段113巷2弄1號","121.487598333333","25.0598816666667","6500200","三重區"
"241015","062-VK","2018/07/16 20:59:44","新北市三重區福德北路63號","121.502131666667","25.065535","6500200","三重區"
"241017","063-VK","2018/07/16 20:59:34","新北市三重區大仁街55號","121.493528333333","25.0659183333333","6500200","三重區"
"241026","066-VK","2018/07/16 20:59:36","新北市三重區文化南路45號","121.500256666667","25.0613966666667","6500200","三重區"
"241002","090-VK","2018/07/16 20:59:40","新北市三重區五華街7巷12號","121.495591666667","25.0803416666667","6500200","三重區"
"241003","091-VK","2018/07/16 20:59:26","新北市三重區進安街198號","121.493931666667","25.0860366666667","6500200","三重區"
"241024","742-BX","2018/07/16 20:59:39","新北市三重區國道路一段58巷20號","121.48124","25.0720133333333","6500200","三重區"
"241005","262-UM","2018/07/16 20:59:34","新北市三重區五華街141巷1號","121.491118333333","25.084725","6500200","三重區"
"241016","266-UM","2018/07/16 20:59:26","新北市三重區自強路一段147號","121.494105","25.066795","6500200","三重區"
"241018","268-UM","2018/07/16 20:59:36","新北市三重區雙園街97號","121.493835","25.0673166666667","6500200","三重區"
"241032","269-UM","2018/07/16 20:59:35","新北市三重區興華街141號","121.482906666667","25.060055","6500200","三重區"
"241013","270-UM","2018/07/16 20:59:29","新北市三重區仁愛街131號","121.49559","25.074915","6500200","三重區"
"241025","271-UM","2018/07/16 20:59:36","新北市三重區貴陽街18-1號","121.484213333333","25.0618833333333","6500200","三重區"
"241007","398-BY","2018/07/16 20:59:29","新北市三重區慈愛街10號","121.484596666667","25.07852","6500200","三重區"
"241004","475-VK","2018/07/16 20:59:33","新北市三重區仁愛街423-1號","121.49041","25.0814316666667","6500200","三重區"
"241020","478-VK","2018/07/16 20:59:42","新北市三重區忠孝路二段35號","121.485928333333","25.071085","6500200","三重區"
"241030","480-VK","2018/07/16 20:59:32","新北市三重區中正南路252巷5號","121.49342","25.05268","6500200","三重區"
"241014","543-UM","2018/07/16 20:59:32","新北市三重區長榮路75號","121.50257","25.06904","6500200","三重區"
"241023","545-UM","2018/07/16 20:59:34","新北市三重區忠孝路三段84巷63號","121.482293333333","25.0637283333333","6500200","三重區"
"241001","547-UM","2018/07/16 20:59:40","新北市三重區三和路四段128-1號","121.4889","25.0753383333333","6500200","三重區"
"241019","KEA-2593","2018/07/16 20:59:31","新北市三重區自強路二段74巷19號","121.488053333333","25.0698816666667","6500200","三重區"
"241006","AAD-863","2018/07/16 20:59:43","新北市三重區永福街46巷15弄7號","121.481401666667","25.07801","6500200","三重區"
"241022","887-TS","2018/07/16 20:59:41","新北市三重區中正北路20巷12號","121.487986666667","25.0624716666667","6500200","三重區"
"241029","942-UM","2018/07/16 20:59:37","新北市三重區正義南路111號","121.498225","25.0585566666667","6500200","三重區"
"241033","AAC-255","2018/07/16 20:59:32","新北市三重區興德路100號","121.472366666667","25.0531833333333","6500200","三重區"
"247010","KEA-2869","2018/07/16 20:59:44","新北市蘆洲區鷺江街72號","121.47711","25.0838","6501400","蘆洲區"
"235069","4980-A6","2018/07/16 20:59:27","新北市中和區中正路637巷32號","121.484948333333","24.9946216666667","6500300","中和區"
"247024","893-R6","2018/07/16 20:59:40","新北市蘆洲區長興路213號","121.461145","25.08635","6501400","蘆洲區"
"247014","546-UM","2018/07/16 20:59:38","新北市蘆洲區中山二路36巷11號","121.47427","25.0827416666667","6501400","蘆洲區"
"247022","500-BY","2018/07/16 20:59:42","新北市蘆洲區民族路556號","121.467553333333","25.0889716666667","6501400","蘆洲區"
"247012","339-TH","2018/07/16 20:59:28","新北市蘆洲區民權路5號","121.476675","25.08573","6501400","蘆洲區"
"247004","337-TH","2018/07/16 20:59:32","新北市蘆洲區永安南路二段268號","121.458648333333","25.0807066666667","6501400","蘆洲區"
"247006","336-TH","2018/07/16 20:59:39","新北市蘆洲區永安南路二段18號","121.467721666667","25.0771666666667","6501400","蘆洲區"
"247018","057-VK","2018/07/16 20:59:27","新北市蘆洲區民權路87號","121.473091666667","25.088735","6501400","蘆洲區"
"247008","056-VK","2018/07/16 20:59:38","新北市蘆洲區民生街76號","121.472786666667","25.0791266666667","6501400","蘆洲區"
"247016","007-UY","2018/07/16 20:59:33","新北市蘆洲區正和街84號","121.468376666667","25.0809133333333","6501400","蘆洲區"
"247020","001-UY","2018/07/16 20:59:24","新北市蘆洲區民族路488號","121.47116","25.091345","6501400","蘆洲區"
"251001","011-UM","2018/07/16 20:59:40","新北市淡水區淡金路二段147號","121.450001666667","25.1827233333333","6501000","淡水區"
"251013","KEA-2871","2018/07/16 20:59:43","新北市淡水區行忠路523號","121.467416666667","25.1991883333333","6501000","淡水區"
"251014","180-VK","2018/07/16 20:59:28","新北市淡水區溪口28號","121.455355","25.2366366666667","6501000","淡水區"
"251015","181-VK","2018/07/16 20:59:33","新北市淡水區淡金路四段542巷17號","121.452723333333","25.2270716666667","6501000","淡水區"
"251010","413-VK","2018/07/16 20:59:24","新北市淡水區中正路一段116-3號","121.423913333333","25.1787466666667","6501000","淡水區"
"251012","441-VK","2018/07/16 20:59:30","新北市淡水區淡金路五段108號","121.456483333333","25.2366316666667","6501000","淡水區"
"251005","443-VK","2018/07/16 20:59:13","新北市淡水區學府路73巷2弄1號","121.447995","25.170095","6501000","淡水區"
"251016","575-R6","2018/07/16 20:59:42","新北市淡水區牛埔子11-1號","121.45019","25.2184416666667","6501000","淡水區"
"251007","577-R6","2018/07/16 20:59:36","新北市淡水區水源街一段110號","121.446855","25.1719066666667","6501000","淡水區"
"251011","650-BX","2018/07/16 20:59:26","新北市淡水區新民街322巷2號","121.435328333333","25.1835433333333","6501000","淡水區"
"251002","672-BX","2018/07/16 20:59:41","新北市淡水區英專路68號","121.445711666667","25.17107","6501000","淡水區"
"251003","766-UM","2018/07/16 20:59:31","新北市淡水區新春街123號","121.441371666667","25.1822733333333","6501000","淡水區"
"242050","441-UM","2018/07/16 20:59:27","新北市新莊區新樹路210號","121.433733333333","25.020385","6500500","新莊區"
"242009","132-UY","2018/07/16 20:59:33","新北市新莊區思源路226號","121.459976666667","25.04833","6500500","新莊區"
"242004","176-VK","2018/07/16 20:59:34","新北市樹林區八德街495-1號","121.402006666667","24.9693316666667","6500500","新莊區"
"221036","130-UY","2018/07/16 20:59:34","新北市汐止區汐萬路一段256巷3號","121.652305","25.07459","6501100","汐止區"
"221027","281-BY","2018/07/16 20:59:38","新北市汐止區汐萬路一段256巷3號","121.65328","25.0744833333333","6501100","汐止區"
"221035","622-UM","2018/07/16 20:59:29","新北市汐止區汐萬路一段256巷1號","121.651881666667","25.0748216666667","6501100","汐止區"
"221018","753-BX","2018/07/16 20:59:27","新北市汐止區汐萬路一段256巷3號","121.652781666667","25.07448","6501100","汐止區"
"220084","296-UM","2018/07/16 20:59:41","新北市八里區下罟子6-3號","121.386165","25.1419116666667","6500100","板橋區"
"220070","AAC-253","2018/07/16 20:59:41","新北市八里區中山路三段409號","121.36879","25.1340016666667","6500100","板橋區"
