"lineid","car","time","location","longitude","latitude","cityid","cityname"
"231040","047-UY","2018/07/16 21:29:29","新北市新店區安康路一段162號","121.52611","24.963035","6500600","新店區"
"231047","187-VK","2018/07/16 21:29:37","新北市新店區安德街60巷35號","121.510613333333","24.9635666666667","6500600","新店區"
"231063","616-UM","2018/07/16 21:29:39","新北市新店區如意街80號","121.495576666667","24.94693","6500600","新店區"
"241011","013-R5","2018/07/16 21:29:44","新北市三重區龍門路223號","121.501343333333","25.0738766666667","6500200","三重區"
"241017","063-VK","2018/07/16 21:29:34","新北市三重區中正北路25巷2號","121.493183333333","25.062665","6500200","三重區"
"241024","742-BX","2018/07/16 21:29:39","新北市三重區中正北路145巷14號","121.48428","25.0678283333333","6500200","三重區"
"241005","262-UM","2018/07/16 21:29:34","新北市三重區仁華街77號","121.485618333333","25.0829383333333","6500200","三重區"
"241016","266-UM","2018/07/16 21:29:46","新北市三重區正義北路101號","121.497","25.0654883333333","6500200","三重區"
"241007","398-BY","2018/07/16 21:29:29","新北市三重區正義北路113號","121.496845","25.0656733333333","6500200","三重區"
"241006","AAD-863","2018/07/16 21:29:43","新北市五股區天乙路102-18號","121.447393333333","25.1070916666667","6500200","三重區"
"247010","KEA-2869","2018/07/16 21:29:24","新北市蘆洲區中山二路182號","121.47052","25.08058","6501400","蘆洲區"
"247012","339-TH","2018/07/16 21:29:28","新北市蘆洲區永平街32巷45弄36號","121.454968333333","25.09523","6501400","蘆洲區"
"247006","336-TH","2018/07/16 21:29:39","新北市蘆洲區中原路52號","121.459081666667","25.0822816666667","6501400","蘆洲區"
"247016","007-UY","2018/07/16 21:29:33","新北市八里區商港路88-4號","121.3941","25.1482266666667","6501400","蘆洲區"
"251009","008-UM","2018/07/16 21:29:38","新北市淡水區民族路33巷16-3號","121.463441666667","25.1359816666667","6501000","淡水區"
"251004","009-UM","2018/07/16 21:29:44","新北市淡水區民權路119號","121.460183333333","25.1369616666667","6501000","淡水區"
"251001","011-UM","2018/07/16 21:29:40","新北市淡水區濱海路二段202巷65弄37號","121.433678333333","25.19258","6501000","淡水區"
"251013","KEA-2871","2018/07/16 21:29:43","新北市淡水區埤島57-1號","121.46126","25.19663","6501000","淡水區"
"251014","180-VK","2018/07/16 21:29:28","新北市淡水區六塊厝2-5號","121.449278333333","25.2403033333333","6501000","淡水區"
"251015","181-VK","2018/07/16 21:29:33","新北市淡水區淡金路四段542巷47號","121.453745","25.227105","6501000","淡水區"
"251010","413-VK","2018/07/16 21:29:44","新北市淡水區沙崙路25巷21號","121.420635","25.1823916666667","6501000","淡水區"
"251012","441-VK","2018/07/16 21:29:30","新北市淡水區淡金路五段35巷46號","121.452461666667","25.2347566666667","6501000","淡水區"
"251005","443-VK","2018/07/16 21:29:33","新北市淡水區水源街一段38號","121.443738333333","25.1722466666667","6501000","淡水區"
"251006","561-UM","2018/07/16 21:29:41","新北市淡水區公明街43號","121.443303333333","25.1688233333333","6501000","淡水區"
"251016","575-R6","2018/07/16 21:29:42","新北市淡水區前洲子11號","121.441073333333","25.21935","6501000","淡水區"
"251007","577-R6","2018/07/16 21:29:36","新北市淡水區水源街二段194號","121.456843333333","25.1759583333333","6501000","淡水區"
"251011","650-BX","2018/07/16 21:29:45","新北市淡水區真理街32號","121.436895","25.1784816666667","6501000","淡水區"
"251003","766-UM","2018/07/16 21:29:31","新北市淡水區崁頂15-5號","121.438995","25.1858983333333","6501000","淡水區"
"220070","AAC-253","2018/07/16 21:29:40","新北市五股區成洲一路23號","121.449783333333","25.0958033333333","6500100","板橋區"
