"lineid","car","time","location","longitude","latitude","cityid","cityname"
"241016","266-UM","2018/07/16 22:09:26","新北市林口區太平里180號","121.368278333333","25.1343933333333","6500200","三重區"
"241006","AAD-863","2018/07/16 22:09:43","新北市五股區中興路三段2巷10號","121.448991666667","25.0811066666667","6500200","三重區"
"247010","KEA-2869","2018/07/16 22:09:44","新北市八里區荖阡坑路20-9號","121.398428333333","25.136985","6501400","蘆洲區"
"235010","733-UM","2018/07/16 21:49:02","新北市中和區員山路36巷13號","121.484156666667","24.9907666666667","6500300","中和區"
"247012","339-TH","2018/07/16 22:09:28","新北市五股區成泰路四段22巷6-4號","121.454143333333","25.1047433333333","6501400","蘆洲區"
"251004","009-UM","2018/07/16 22:09:46","新北市淡水區民族路50巷1號","121.461773333333","25.13578","6501000","淡水區"
"251010","413-VK","2018/07/16 22:09:44","新北市淡水區沙崙路200號","121.424753333333","25.1839266666667","6501000","淡水區"
"251008","442-VK","2018/07/16 22:09:29","新北市淡水區學府路104號","121.449866666667","25.171885","6501000","淡水區"
"251007","577-R6","2018/07/16 22:09:36","新北市淡水區北新路129號","121.449153333333","25.1789366666667","6501000","淡水區"
"251011","650-BX","2018/07/16 22:09:45","新北市淡水區水碓街7號","121.443193333333","25.177185","6501000","淡水區"
"220070","AAC-253","2018/07/16 21:53:00","新北市板橋區華東街1-9號","121.448265","24.99486","6500100","板橋區"
