"lineid","car","time","location","longitude","latitude","cityid","cityname"
"241016","266-UM","2018/07/16 22:17:46","新北市八里區荖阡坑路34-2號","121.40117","25.13026","6500200","三重區"
"241006","AAD-863","2018/07/16 22:19:43","新北市五股區工商路8號","121.440506666667","25.08241","6500200","三重區"
"247010","KEA-2869","2018/07/16 22:19:24","新北市五股區更洲路70號","121.4566","25.0800283333333","6501400","蘆洲區"
"247005","336-TH","2018/07/16 22:19:38","新北市五股區中興路三段2巷10號","121.448905","25.0810916666667","6501400","蘆洲區"
"251004","009-UM","2018/07/16 22:19:43","新北市淡水區民族路76號","121.462233333333","25.13562","6501000","淡水區"
"251010","413-VK","2018/07/16 22:19:44","新北市淡水區沙崙路200號","121.424753333333","25.1838933333333","6501000","淡水區"
"251008","442-VK","2018/07/16 22:19:29","新北市淡水區學府路104號","121.44985","25.1718833333333","6501000","淡水區"
"251007","577-R6","2018/07/16 22:19:36","新北市淡水區北新路137號","121.449323333333","25.1789866666667","6501000","淡水區"
"251011","650-BX","2018/07/16 22:19:25","新北市淡水區水碓街15-1號","121.443225","25.1772166666667","6501000","淡水區"
"220070","AAC-253","2018/07/16 21:53:00","新北市板橋區華東街1-9號","121.448265","24.99486","6500100","板橋區"
