"lineid","car","time","location","longitude","latitude","cityid","cityname"
"248005","653-BX","2018/09/03 06:58:41","新北市五股區中興路二段163號","121.457591666667","25.0775433333333","6501500","五股區"
"232001","290-BY","2018/09/03 06:58:52","新北市坪林區下坑子口15號","121.714546666667","24.9513816666667","6502000","坪林區"
"232012","291-BY","2018/09/03 06:58:57","新北市坪林區黃舉皮寮2-1號","121.688813333333","24.9425283333333","6502000","坪林區"
"232010","375-UM","2018/09/03 06:58:55","新北市坪林區北宜路八段337號","121.710965","24.933755","6502000","坪林區"
"232017","705-BZ","2018/09/03 06:58:52","新北市坪林區大粗坑6-1號","121.731335","24.9489083333333","6502000","坪林區"
"232005","758-BX","2018/09/03 06:58:42","新北市坪林區魚堀17-8號","121.703115","24.9183233333333","6502000","坪林區"
"244001","248-BX","2018/09/03 06:58:54","新北市林口區中山路202號","121.388476666667","25.0791166666667","6501700","林口區"
"223006","022-BY","2018/09/03 06:58:40","新北市石碇區新興坑31號","121.648076666667","25.0155983333333","6501900","石碇區"
"223002","KEA-2673","2018/09/03 06:58:34","新北市石碇區烏塗窟48號","121.653023333333","24.9694766666667","6501900","石碇區"
"223003","205-TH","2018/09/03 06:58:48","新北市石碇區石碇東街147號","121.65894","24.9890533333333","6501900","石碇區"
"223008","406-TH","2018/09/03 06:58:52","新北市石碇區十八重溪78號","121.673165","25.01183","6501900","石碇區"
"223001","592-UM","2018/09/03 06:58:56","新北市石碇區石崁33-3號","121.659501666667","24.9928133333333","6501900","石碇區"
"223004","660-BX","2018/09/03 06:58:42","新北市石碇區碇坪路一段58號","121.657086666667","24.9915233333333","6501900","石碇區"
"223007","661-BX","2018/09/03 06:58:47","新北市石碇區十八重溪78號","121.673121666667","25.011715","6501900","石碇區"
"223005","677-TV","2018/09/03 06:58:45","新北市石碇區碇坪路一段62號","121.657185","24.9914433333333","6501900","石碇區"
"227005","282-VK","2018/09/03 06:58:52","新北市雙溪區新基里自強路5號","121.866388333333","25.0390633333333","6502500","雙溪區"
"252006","073-UM","2018/09/03 06:58:50","新北市三芝區埔坪里埔頭坑43號","121.504596666667","25.2617466666667","6502100","三芝區"
"252004","249-BX","2018/09/03 06:58:43","新北市三芝區埔坪里埔頭坑41號","121.504488333333","25.2644283333333","6502100","三芝區"
