"lineid","car","time","location","longitude","latitude","cityid","cityname"
"232008","758-BX","2018/12/14 07:57:54","","121.711176666667","24.90104","6502000","坪林區"
"244004","248-BX","2018/12/14 07:59:24","","121.298056666667","25.1180566666667","6501700","林口區"
"222005","289-BY","2018/12/14 07:59:25","","121.616905","25.0018","6501800","深坑區"
"231007","189-VK","2018/12/14 07:59:11","","121.523173333333","24.9436566666667","6500600","新店區"
"231009","192-VK","2018/12/14 07:59:29","","121.536566666667","24.9612433333333","6500600","新店區"
"235001","611-BX","2018/12/14 07:59:18","","121.49222","24.9873233333333","6500300","中和區"
"226005","5620-A6","2018/12/14 07:59:20","","121.733656666667","25.025485","6502400","平溪區"
"226001","8452-VL","2018/12/14 07:59:27","","121.78269","25.04718","6502400","平溪區"
"226006","AGD-0702","2018/12/14 07:59:13","","121.775441666667","25.0417516666667","6502400","平溪區"
"223006","022-BY","2018/12/14 07:59:24","","121.706273333333","24.92363","6501900","石碇區"
"223002","KEA-2673","2018/12/14 07:50:28","","121.667081666667","24.956745","6501900","石碇區"
"223003","205-TH","2018/12/14 07:59:27","","121.674253333333","24.9574766666667","6501900","石碇區"
"223004","437-BY","2018/12/14 07:59:23","","121.651745","25.00032","6501900","石碇區"
"223001","592-UM","2018/12/14 07:59:16","","121.66722","24.9726133333333","6501900","石碇區"
"223007","661-BX","2018/12/14 07:42:09","","121.698828333333","25.0144933333333","6501900","石碇區"
"223005","677-TV","2018/12/14 07:59:20","","121.651283333333","24.9961583333333","6501900","石碇區"
"227005","282-VK","2018/12/14 07:59:20","","121.86203","25.03601","6502500","雙溪區"
"252005","073-UM","2018/12/14 07:59:32","","121.503131666667","25.2543633333333","6502100","三芝區"
"237001","361-BY","2018/12/14 07:48:40","","121.375928333333","24.9400833333333","6500900","三峽區"
