"lineid","car","time","location","longitude","latitude","cityid","cityname"
"232010","375-UM","2018/12/15 07:48:52","","121.726273333333","24.9387133333333","6502000","坪林區"
"244005","248-BX","2018/12/15 07:49:27","","121.3109","25.1132433333333","6501700","林口區"
"231008","192-VK","2018/12/15 07:49:16","","121.519578333333","24.9611566666667","6500600","新店區"
"235001","611-BX","2018/12/15 07:49:15","","121.49143","24.9892366666667","6500300","中和區"
"226005","5620-A6","2018/12/15 07:49:15","","121.739128333333","25.0248066666667","6502400","平溪區"
"226007","7418-A5","2018/12/15 07:49:23","","121.779485","25.035305","6502400","平溪區"
"226003","AGD-0702","2018/12/15 07:37:24","","121.750385","25.0350533333333","6502400","平溪區"
"223006","022-BY","2018/12/15 07:39:54","","121.65758","24.9759766666667","6501900","石碇區"
"223002","KEA-2673","2018/12/15 07:49:27","","121.642323333333","25.00968","6501900","石碇區"
"223003","205-TH","2018/12/15 07:49:18","","121.664773333333","24.968655","6501900","石碇區"
"223004","437-BY","2018/12/15 07:49:28","","121.642335","25.0095883333333","6501900","石碇區"
"223001","592-UM","2018/12/15 07:49:16","","121.664873333333","24.9685566666667","6501900","石碇區"
"223007","661-BX","2018/12/15 07:47:09","","121.69877","25.0145366666667","6501900","石碇區"
"223005","677-TV","2018/12/15 07:49:30","","121.642298333333","25.009665","6501900","石碇區"
"227006","030-BX","2018/12/15 07:49:25","","121.86481","25.0355516666667","6502500","雙溪區"
"252004","249-BX","2018/12/15 07:49:11","","121.514028333333","25.2074083333333","6502100","三芝區"
"252007","AAC-283","2018/12/15 07:49:12","","121.474551666667","25.2447083333333","6502100","三芝區"
"237001","159-UY","2018/12/15 07:49:22","","121.37595","24.9396283333333","6500900","三峽區"
