"lineid","car","time","location","longitude","latitude","cityid","cityname"
"248004","653-BX","2018/11/01 06:57:40","新北市五股區中興路二段83巷26號","121.459251666667","25.075565","6501500","五股區"
"232001","290-BY","2018/11/01 06:57:47","新北市坪林區下坑子口15-1號","121.717308333333","24.948825","6502000","坪林區"
"232014","291-BY","2018/11/01 06:57:46","新北市坪林區仁里10號","121.69202","24.931965","6502000","坪林區"
"232010","375-UM","2018/11/01 06:57:34","新北市坪林區北宜路八段337號","121.71095","24.9337116666667","6502000","坪林區"
"232018","705-BZ","2018/11/01 06:57:46","新北市坪林區坪雙路一段1-1號","121.711281666667","24.940555","6502000","坪林區"
"232007","758-BX","2018/11/01 06:57:45","新北市坪林區魚堀17-8號","121.703125","24.9182716666667","6502000","坪林區"
"244003","248-BX","2018/11/01 06:57:35","新北市林口區粉寮路17-3號","121.398646666667","25.08085","6501700","林口區"
"235001","611-BX","2018/11/01 06:57:40","新北市中和區圓通路367巷4號","121.491401666667","24.989235","6500300","中和區"
"223006","022-BY","2018/11/01 06:57:41","新北市石碇區楓子林30號","121.642295","25.0096716666667","6501900","石碇區"
"223002","KEA-2673","2018/11/01 06:57:39","新北市石碇區小粗坑(格頭里)6號","121.652723333333","24.9605666666667","6501900","石碇區"
"223003","205-TH","2018/11/01 06:57:44","新北市石碇區石崁40-5號","121.6579","24.9939266666667","6501900","石碇區"
"223008","406-TH","2018/11/01 06:57:37","新北市石碇區雙溪84-1號","121.661261666667","25.0089216666667","6501900","石碇區"
"223001","592-UM","2018/11/01 06:57:40","新北市石碇區石崁40-7號","121.65805","24.9938883333333","6501900","石碇區"
"223004","660-BX","2018/11/01 06:57:29","新北市石碇區碇坪路一段56號","121.65702","24.99149","6501900","石碇區"
"223007","661-BX","2018/11/01 06:57:33","新北市石碇區雙溪84-1號","121.661226666667","25.0088766666667","6501900","石碇區"
"223005","677-TV","2018/11/01 06:57:31","新北市石碇區碇坪路一段60號","121.657103333333","24.9915016666667","6501900","石碇區"
"227007","282-VK","2018/11/01 06:57:38","新北市雙溪區新基里自強路5號","121.866363333333","25.0390666666667","6502500","雙溪區"
"252004","249-BX","2018/11/01 06:57:38","新北市三芝區埔坪里埔頭坑41號","121.504435","25.26463","6502100","三芝區"
"242001","233-RS","2018/11/01 06:57:49","新北市新莊區中港路301號","121.452956666667","25.044505","6500500","新莊區"
