"lineid","car","time","location","longitude","latitude","cityid","cityname"
"248005","653-BX","2018/07/26 07:39:36","新北市五股區明德路12巷3號","121.433326666667","25.0718033333333","6501500","五股區"
"232001","290-BY","2018/07/26 07:39:36","新北市坪林區上坑子口4號","121.69831","24.95787","6502000","坪林區"
"232014","291-BY","2018/07/26 07:39:30","新北市坪林區九芎根3-1號","121.666758333333","24.886215","6502000","坪林區"
"232010","375-UM","2018/07/26 07:39:38","新北市坪林區磨壁潭2-1號","121.719756666667","24.9388966666667","6502000","坪林區"
"232007","758-BX","2018/07/26 07:39:37","新北市坪林區魚堀33-1號","121.698118333333","24.9258016666667","6502000","坪林區"
"244003","248-BX","2018/07/26 07:39:31","新北市林口區頂福里71-34號","121.356725","25.0792083333333","6501700","林口區"
"235001","611-BX","2018/07/26 07:39:49","新北市中和區圓通路367巷6號","121.491601666667","24.989355","6500300","中和區"
"226005","5620-A6","2018/07/26 07:39:43","新北市平溪區靜安路二段291號","121.734456666667","25.0235316666667","6502400","平溪區"
"226007","7418-A5","2018/07/26 07:39:45","新北市平溪區平湖里大厝1號","121.779648333333","25.0391633333333","6502400","平溪區"
"226003","AGD-0702","2018/07/26 07:36:14","新北市平溪區嶺腳里嶺腳寮83-2號","121.750415","25.034985","6502400","平溪區"
"223006","022-BY","2018/07/26 07:39:31","新北市石碇區蚯蚓坑22-1號","121.689416666667","25.0063616666667","6501900","石碇區"
"223002","KEA-2673","2018/07/26 07:39:42","新北市石碇區北宜路五段大湖巷5-1號","121.632926666667","24.9420166666667","6501900","石碇區"
"223003","205-TH","2018/07/26 07:39:41","新北市石碇區烏塗窟14號","121.655955","24.9750683333333","6501900","石碇區"
"223001","592-UM","2018/07/26 07:39:30","新北市石碇區烏塗窟8號","121.655861666667","24.9750416666667","6501900","石碇區"
"223004","660-BX","2018/07/26 07:39:35","新北市石碇區八分寮47-1號","121.64206","25.013545","6501900","石碇區"
"223007","661-BX","2018/07/26 07:39:34","新北市石碇區大溪墘17號","121.692275","25.008135","6501900","石碇區"
"223005","677-TV","2018/07/26 07:39:36","新北市石碇區八分寮47-1號","121.642071666667","25.01362","6501900","石碇區"
"227007","282-VK","2018/07/26 07:39:38","新北市雙溪區雙溪里太平路54號","121.864726666667","25.03552","6502500","雙溪區"
"252004","249-BX","2018/07/26 07:39:35","新北市三芝區圓山里石曹子坑55-1號","121.51835","25.2073583333333","6502100","三芝區"
"252007","AAC-283","2018/07/26 07:39:46","新北市三芝區古庄里四棧橋53-13號","121.48546","25.26533","6502100","三芝區"
"237001","159-UY","2018/07/26 07:39:36","新北市三峽區三樹路60號","121.377758333333","24.9382616666667","6500900","三峽區"
"236009","165-UM","2018/07/26 07:39:31","新北市土城區延壽路13巷22號","121.470421666667","24.9909866666667","6501300","土城區"
"236003","339-SR","2018/07/26 07:39:43","新北市土城區南天母路135巷31號","121.449056666667","24.9544516666667","6501300","土城區"
"242033","AAC-296","2018/07/26 07:23:09","新北市新莊區新泰路357巷3弄57號","121.442305","25.0396283333333","6500500","新莊區"
"242057","986-R7","2018/07/26 07:39:46","新北市新莊區新泰路357巷1弄57號","121.442511666667","25.039395","6500500","新莊區"
"242052","751-BX","2018/07/26 07:39:43","新北市新莊區新泰路357巷3弄45號","121.44204","25.0401866666667","6500500","新莊區"
"242028","705-TV","2018/07/26 07:39:46","新北市新莊區新泰路357巷3弄57號","121.442195","25.03931","6500500","新莊區"
"242026","615-BX","2018/07/26 07:39:46","新北市新莊區新泰路255巷83號","121.4421","25.038895","6500500","新莊區"
"242040","566-BX","2018/07/26 07:39:30","新北市新莊區新泰路357巷3弄57號","121.44205","25.0390433333333","6500500","新莊區"
"242049","441-UM","2018/07/26 07:39:47","新北市新莊區中正路400號","121.441951666667","25.0341633333333","6500500","新莊區"
"242006","413-TV","2018/07/26 07:39:39","新北市新莊區新泰路357巷3弄57號","121.441978333333","25.0393866666667","6500500","新莊區"
"242043","400-BY","2018/07/26 07:39:40","新北市新莊區三和路12-14號","121.442046666667","25.0372633333333","6500500","新莊區"
"242022","362-BY","2018/07/26 07:39:39","新北市新莊區新泰路255巷83號","121.442205","25.0387566666667","6500500","新莊區"
"242038","133-UY","2018/07/26 07:39:36","新北市新莊區三和路12-14號","121.442103333333","25.037215","6500500","新莊區"
"242016","175-VK","2018/07/26 07:39:40","新北市新莊區三和路12-21號","121.442008333333","25.0385933333333","6500500","新莊區"
"242003","176-VK","2018/07/26 07:39:45","新北市新莊區三和路12-21號","121.44196","25.0385783333333","6500500","新莊區"
"242014","347-TH","2018/07/26 07:39:43","新北市新莊區三和路12-18號","121.442175","25.03764","6500500","新莊區"
"242020","348-TH","2018/07/26 07:39:39","新北市新莊區新泰路357巷3弄57號","121.441895","25.03957","6500500","新莊區"
"242001","349-TH","2018/07/26 07:39:39","新北市新莊區三和路12-16號","121.441971666667","25.03746","6500500","新莊區"
"242012","351-TH","2018/07/26 07:39:36","新北市新莊區新泰路357巷3弄57號","121.441881666667","25.0394133333333","6500500","新莊區"
"242047","281-VK","2018/07/26 07:39:42","新北市新莊區中正路539-1號","121.435453333333","25.032845","6500500","新莊區"
"242035","280-VK","2018/07/26 07:39:40","新北市新莊區三和路12-21號","121.44195","25.03835","6500500","新莊區"
