"lineid","car","time","location","longitude","latitude","cityid","cityname"
"248005","653-BX","2018/10/08 07:19:30","新北市五股區明德路12巷3號","121.433253333333","25.07173","6501500","五股區"
"232001","290-BY","2018/10/08 07:19:32","新北市坪林區桶盤嶼10-1號","121.706601666667","24.9584333333333","6502000","坪林區"
"232012","291-BY","2018/10/08 07:19:19","新北市坪林區仁里10-2號","121.691835","24.9309716666667","6502000","坪林區"
"232010","375-UM","2018/10/08 07:19:25","新北市坪林區水聳淒坑5號","121.726328333333","24.9259116666667","6502000","坪林區"
"232017","705-BZ","2018/10/08 07:19:26","新北市坪林區九芎坑2號","121.723285","24.9663066666667","6502000","坪林區"
"232005","758-BX","2018/10/08 07:19:27","新北市坪林區魚堀39-2號","121.69969","24.93192","6502000","坪林區"
"244001","248-BX","2018/10/08 07:19:25","新北市林口區忠孝路1號","121.364121666667","25.076155","6501700","林口區"
"222005","289-BY","2018/10/08 07:19:29","新北市深坑區平埔街22巷19號","121.61469","25.00108","6501800","深坑區"
"235001","611-BX","2018/10/08 07:19:29","新北市中和區圓通路367巷4號","121.491358333333","24.9892733333333","6500300","中和區"
"226005","5620-A6","2018/10/08 07:19:39","新北市平溪區菁桐里二坑路18號","121.721296666667","25.0245183333333","6502400","平溪區"
"226001","7418-A5","2018/10/08 07:19:23","新北市平溪區南山里南山坪3號","121.762596666667","25.0317216666667","6502400","平溪區"
"226003","AGD-0702","2018/10/08 07:19:28","新北市平溪區嶺腳里嶺腳寮70號","121.748486666667","25.03157","6502400","平溪區"
"223006","022-BY","2018/10/08 07:19:27","新北市石碇區深按2號","121.659388333333","25.0182866666667","6501900","石碇區"
"223002","KEA-2673","2018/10/08 07:19:37","新北市石碇區北宜路五段大湖巷1號","121.630966666667","24.9495266666667","6501900","石碇區"
"223003","205-TH","2018/10/08 07:10:40","新北市石碇區烏塗窟8號","121.655831666667","24.975105","6501900","石碇區"
"223008","406-TH","2018/10/08 07:19:39","新北市石碇區番子坑24-7號","121.677578333333","25.0037466666667","6501900","石碇區"
"223004","437-BY","2018/10/08 07:19:36","新北市石碇區新興坑1-1號","121.654056666667","25.0149316666667","6501900","石碇區"
"223001","592-UM","2018/10/08 07:19:03","新北市石碇區烏塗窟1-1號","121.655018333333","24.9762816666667","6501900","石碇區"
"223007","661-BX","2018/10/08 07:19:19","新北市石碇區蚯蚓坑19-8號","121.684543333333","24.999585","6501900","石碇區"
"223005","677-TV","2018/10/08 07:19:28","新北市石碇區新興坑1-1號","121.654143333333","25.0147783333333","6501900","石碇區"
"227005","282-VK","2018/10/08 07:19:32","新北市雙溪區新基里自強路5號","121.866333333333","25.0390433333333","6502500","雙溪區"
"252006","073-UM","2018/10/08 07:19:25","新北市三芝區錫板里海尾33號","121.490175","25.2513","6502100","三芝區"
"252004","249-BX","2018/10/08 07:19:29","新北市三芝區福德里大湖9號","121.504356666667","25.224235","6502100","三芝區"
"242055","751-BX","2018/10/08 07:19:30","新北市新莊區三和路12-21號","121.4422","25.0385666666667","6500500","新莊區"
"242022","362-BY","2018/10/08 07:19:24","新北市新莊區三和路18-23號","121.441808333333","25.038935","6500500","新莊區"
"242001","233-RS","2018/10/08 07:19:41","新北市新莊區中港路301號","121.452953333333","25.044495","6500500","新莊區"
"242014","351-TH","2018/10/08 07:19:31","新北市新莊區新泰路357巷3弄57號","121.442031666667","25.039475","6500500","新莊區"
