"lineid","car","time","location","longitude","latitude","cityid","cityname"
"234001","149-BY","2018/09/18 09:09:22","新北市永和區成功路一段16巷2號","121.52679","25.0053333333333","6500400","永和區"
"248005","653-BX","2018/09/18 09:09:23","新北市五股區水碓路9號","121.43364","25.0722383333333","6501500","五股區"
"222004","289-BY","2018/09/18 09:09:28","新北市深坑區王軍寮15號","121.614108333333","24.98179","6501800","深坑區"
"231007","189-VK","2018/09/18 09:09:33","新北市新店區新潭路三段236號","121.500993333333","24.9039066666667","6500600","新店區"
"231009","192-VK","2018/09/18 09:09:29","新北市新店區廣興路130號","121.5354","24.9112983333333","6500600","新店區"
"235001","611-BX","2018/09/18 09:09:34","新北市中和區中山路三段136巷73號","121.473458333333","25.007885","6500300","中和區"
"223006","022-BY","2018/09/18 09:09:32","新北市石碇區石碇東街46號","121.659646666667","24.9911433333333","6501900","石碇區"
"223003","205-TH","2018/09/18 09:09:30","新北市石碇區北宜路五段火燒樟巷9號","121.626038333333","24.9545083333333","6501900","石碇區"
"223008","406-TH","2018/09/18 09:09:23","新北市石碇區靜安路一段358號","121.698541666667","25.01737","6501900","石碇區"
"223001","592-UM","2018/09/18 09:09:37","新北市石碇區北宜路五段火燒樟巷11號","121.625755","24.9545983333333","6501900","石碇區"
"223004","660-BX","2018/09/18 09:09:28","新北市石碇區崩山46號","121.680081666667","24.9684716666667","6501900","石碇區"
"223005","677-TV","2018/09/18 09:09:18","新北市石碇區崩山57-1號","121.682825","24.9663533333333","6501900","石碇區"
"227006","282-VK","2018/09/18 09:09:21","新北市雙溪區上林里內平林124-5號","121.823783333333","25.0276216666667","6502500","雙溪區"
"227012","030-BX","2018/09/18 09:09:32","新北市坪林區坪雙路二段152號","121.766273333333","24.962145","6502500","雙溪區"
"252004","249-BX","2018/09/18 09:09:27","新北市三芝區興華里田心子23號","121.493806666667","25.1979233333333","6502100","三芝區"
"252007","AAC-283","2018/09/18 09:09:17","新北市三芝區後厝里陽住坑2號","121.483613333333","25.249375","6502100","三芝區"
"237001","159-UY","2018/09/18 09:09:20","新北市三峽區大德路487號","121.374131666667","24.9479383333333","6500900","三峽區"
"236008","165-UM","2018/09/18 09:09:24","新北市土城區金安街42號","121.4205","24.9651933333333","6501300","土城區"
"236039","271-VK","2018/09/18 09:09:31","新北市土城區永和街27-16號","121.434651666667","24.9614016666667","6501300","土城區"
"236002","339-SR","2018/09/18 09:09:34","新北市土城區學成路1號","121.453493333333","24.986165","6501300","土城區"
"236006","498-BY","2018/09/18 09:09:27","新北市土城區中央路三段76巷50弄1號","121.435561666667","24.9694633333333","6501300","土城區"
"242001","233-RS","2018/09/18 09:09:38","新北市新莊區環河路636-7號","121.437408333333","25.01161","6500500","新莊區"
