"lineid","car","time","location","longitude","latitude","cityid","cityname"
"248005","653-BX","2018/09/18 09:28:22","新北市五股區自強路85號","121.432571666667","25.07183","6501500","五股區"
"222004","289-BY","2018/09/18 09:28:29","新北市深坑區大崙腳8-1號","121.619071666667","24.9923633333333","6501800","深坑區"
"231007","189-VK","2018/09/18 09:28:33","新北市新店區新潭路三段215巷25號","121.508113333333","24.9040983333333","6500600","新店區"
"231009","192-VK","2018/09/18 09:28:29","新北市新店區平廣路一段202巷5弄7號","121.51451","24.8897483333333","6500600","新店區"
"235001","611-BX","2018/09/18 09:28:34","新北市中和區中山路三段63巷11弄4號","121.477363333333","25.0041566666667","6500300","中和區"
"223006","022-BY","2018/09/18 09:28:32","新北市石碇區小粗坑(潭邊里)6-1號","121.675436666667","24.983845","6501900","石碇區"
"223003","205-TH","2018/09/18 09:28:30","新北市石碇區二格路5號","121.626636666667","24.9635033333333","6501900","石碇區"
"223008","406-TH","2018/09/18 09:28:23","新北市石碇區小粗坑(潭邊里)9-1號","121.678478333333","24.985205","6501900","石碇區"
"223004","660-BX","2018/09/18 09:28:28","新北市石碇區磨石坑13號","121.688791666667","24.97265","6501900","石碇區"
"223005","677-TV","2018/09/18 09:28:35","新北市石碇區磨石坑24-5號","121.690503333333","24.971465","6501900","石碇區"
"227006","282-VK","2018/09/18 09:28:21","新北市雙溪區長源里赤皮崙7號","121.794216666667","25.01759","6502500","雙溪區"
"227012","030-BX","2018/09/18 09:28:32","新北市雙溪區泰平里烏山路13-1號","121.794468333333","24.9501133333333","6502500","雙溪區"
"252004","249-BX","2018/09/18 09:28:27","新北市三芝區福德里大水堀32-4號","121.514093333333","25.217225","6502100","三芝區"
"252007","AAC-283","2018/09/18 09:28:17","新北市三芝區古庄里山豬堀14號","121.492726666667","25.2597083333333","6502100","三芝區"
"237001","159-UY","2018/09/18 09:28:20","新北市鶯歌區中正一路467-1號","121.372268333333","24.9578166666667","6500900","三峽區"
"236039","271-VK","2018/09/18 09:28:31","新北市土城區清水路250巷1號","121.461486666667","24.98265","6501300","土城區"
"236002","339-SR","2018/09/18 09:28:34","新北市土城區光明街28巷34號","121.441251666667","24.97417","6501300","土城區"
"236006","498-BY","2018/09/18 09:28:20","新北市土城區承天路62巷3號","121.440103333333","24.96114","6501300","土城區"
"242001","233-RS","2018/09/18 09:28:18","新北市新莊區環河路636-7號","121.437395","25.01161","6500500","新莊區"
