"lineid","car","time","location","longitude","latitude","cityid","cityname"
"231007","189-VK","2018/09/18 11:19:33","新北市新店區新潭路一段140巷11號","121.527823333333","24.9348916666667","6500600","新店區"
"231009","192-VK","2018/09/18 11:19:29","新北市新店區頂石厝路72號","121.535353333333","24.9184416666667","6500600","新店區"
"235029","098-UM","2018/09/18 11:19:23","新北市中和區員山路36巷16-3號","121.485091666667","24.9911733333333","6500300","中和區"
"227006","282-VK","2018/09/18 11:19:21","新北市雙溪區魚行里八股6-1號","121.881533333333","25.0207316666667","6502500","雙溪區"
"242001","233-RS","2018/09/18 11:07:19","新北市新莊區環河路636-7號","121.437431666667","25.0116333333333","6500500","新莊區"
