"lineid","car","time","location","longitude","latitude","cityid","cityname"
"231007","189-VK","2018/09/18 11:29:08","新北市新店區新潭路一段71號","121.524238333333","24.940475","6500600","新店區"
"231009","192-VK","2018/09/18 11:29:09","新北市新店區頂石厝路72號","121.535465","24.9184883333333","6500600","新店區"
"235029","098-UM","2018/09/18 11:29:03","新北市中和區員山路36巷16-3號","121.485036666667","24.9912116666667","6500300","中和區"
"227006","282-VK","2018/09/18 11:29:01","新北市雙溪區魚行里新店76號","121.87329","25.02834","6502500","雙溪區"
"242001","233-RS","2018/09/18 11:07:19","新北市新莊區環河路636-7號","121.437431666667","25.0116333333333","6500500","新莊區"
