"lineid","car","time","location","longitude","latitude","cityid","cityname"
"234044","148-BY","2018/09/18 14:08:09","新北市永和區得和路327號","121.523496666667","24.9996266666667","6500400","永和區"
"234001","149-BY","2018/09/18 14:08:11","新北市永和區永貞路378巷2號","121.509736666667","25.007125","6500400","永和區"
"234005","207-UY","2018/09/18 14:08:01","新北市中和區光華街59-1號","121.506423333333","25.00313","6500400","永和區"
"234078","298-R6","2018/09/18 14:08:11","新北市永和區國中路53號","121.524641666667","25.005885","6500400","永和區"
"234036","336-UY","2018/09/18 14:07:54","新北市永和區成功路一段47巷17號","121.527636666667","25.0039916666667","6500400","永和區"
"234062","337-UY","2018/09/18 14:07:59","新北市永和區永利路152號","121.522486666667","25.0027566666667","6500400","永和區"
"234084","338-UY","2018/09/18 14:08:02","新北市永和區福和路285號","121.517338333333","25.0073916666667","6500400","永和區"
"234068","552-UM","2018/09/18 14:08:04","新北市永和區中正路535號","121.516906666667","25.0078233333333","6500400","永和區"
"234015","745-BX","2018/09/18 14:07:58","新北市永和區仁愛路60-1號","121.513388333333","25.0133766666667","6500400","永和區"
"234028","746-BX","2018/09/18 14:08:02","新北市永和區民生路22巷15號","121.521636666667","24.9971516666667","6500400","永和區"
"234052","KEA-2590","2018/09/18 14:08:02","新北市永和區博愛街31巷2號","121.518506666667","25.0158233333333","6500400","永和區"
"234012","KEA-2591","2018/09/18 14:08:07","新北市永和區永貞路387號","121.508048333333","25.0088666666667","6500400","永和區"
"234060","AAD-866","2018/09/18 14:08:08","新北市永和區安樂路146-1號","121.514236666667","25.0004466666667","6500400","永和區"
"234040","862-TW","2018/09/18 14:08:04","新北市永和區雙和街64巷22弄4號","121.509678333333","25.0029266666667","6500400","永和區"
"234048","863-TW","2018/09/18 14:08:10","新北市永和區環河西路二段65號","121.506901666667","25.0153183333333","6500400","永和區"
"234025","9371-KE","2018/09/18 14:07:56","新北市永和區安樂路272巷11號","121.514965","25.004455","6500400","永和區"
"234010","9373-KE","2018/09/18 14:08:01","新北市永和區環河西路二段245-1號","121.500576666667","25.0091233333333","6500400","永和區"
"248017","225-UY","2018/09/18 14:08:10","新北市五股區民義路一段228號","121.42865","25.0907416666667","6501500","五股區"
"234022","9380-KE","2018/09/18 14:08:09","新北市永和區博愛街32巷17-1號","121.518875","25.0152983333333","6500400","永和區"
"234076","969-R7","2018/09/18 14:08:10","新北市永和區民族街81巷62號","121.520251666667","24.9964916666667","6500400","永和區"
"234072","AAC-211","2018/09/18 14:07:58","新北市永和區豫溪街160巷2號","121.523246666667","25.00954","6500400","永和區"
"234066","AAC-212","2018/09/18 14:08:06","新北市永和區保平路266號","121.508658333333","25.0051583333333","6500400","永和區"
"234001","AAC-295","2018/09/18 14:07:58","新北市永和區中正路700號","121.51632","25.0099666666667","6500400","永和區"
"244001","248-BX","2018/09/18 14:07:58","新北市林口區竹林路267號","121.38955","25.080855","6501700","林口區"
"231002","002-UM","2018/09/18 14:08:09","新北市新店區中正路485號","121.53388","24.982015","6500600","新店區"
"231027","0291-UT","2018/09/18 14:07:55","新北市新店區光明街138巷13弄2號","121.540126666667","24.9614316666667","6500600","新店區"
"231028","046-UY","2018/09/18 14:08:08","新北市新店區安和路三段110巷5號","121.517535","24.9853333333333","6500600","新店區"
"231001","047-UY","2018/09/18 14:08:09","新北市新店區中華路147號","121.538198333333","24.97046","6500600","新店區"
"231005","106-UY","2018/09/18 14:07:59","新北市新店區中興路三段309-1號","121.54193","24.9860283333333","6500600","新店區"
"231020","108-UY","2018/09/18 14:07:55","新北市新店區新烏路二段198巷2弄2號","121.547856666667","24.9170083333333","6500600","新店區"
"231012","187-VK","2018/09/18 14:08:11","新北市新店區中興路一段282-4號","121.546271666667","24.9682383333333","6500600","新店區"
"231023","KEA-2219","2018/09/18 14:08:10","新北市新店區文中路45號","121.539646666667","24.95667","6500600","新店區"
"231003","268-BY","2018/09/18 14:08:08","新北市新店區中興路一段48號","121.539015","24.959245","6500600","新店區"
"231018","278-BY","2018/09/18 14:08:00","新北市新店區中央路200號","121.530503333333","24.97429","6500600","新店區"
"231015","AAD-862","2018/09/18 14:07:58","新北市新店區中生路128號","121.568001666667","24.948895","6500600","新店區"
"231038","3712-VJ","2018/09/18 14:07:52","新北市新店區安康路一段291巷18號","121.522308333333","24.96255","6500600","新店區"
"231037","4716-K9","2018/09/18 14:08:03","新北市新店區安康路三段165巷2弄6號","121.489356666667","24.951355","6500600","新店區"
"231025","4715-K9","2018/09/18 14:07:54","新北市新店區二十張路131號","121.535923333333","24.979185","6500600","新店區"
"231036","512-UM","2018/09/18 14:07:53","新北市新店區安祥路109巷1弄59號","121.478105","24.9609383333333","6500600","新店區"
"231013","513-UM","2018/09/18 14:08:05","新北市新店區北新路三段65巷34弄21號","121.54","24.98163","6500600","新店區"
"231034","616-UM","2018/09/18 14:08:08","新北市新店區車子路11號","121.503058333333","24.9520583333333","6500600","新店區"
"231006","617-UM","2018/09/18 14:08:07","新北市新店區北宜路二段277號","121.555025","24.953655","6500600","新店區"
"231030","619-UM","2018/09/18 14:07:59","新北市新店區安民街65巷21-2號","121.515155","24.9675316666667","6500600","新店區"
"231035","719-UM","2018/09/18 14:07:54","新北市新店區安和路二段115號","121.518766666667","24.9703133333333","6500600","新店區"
"231032","720-UM","2018/09/18 14:08:00","新北市新店區秀山路20號","121.532518333333","24.9602566666667","6500600","新店區"
"231029","897-TW","2018/09/18 14:08:04","新北市新店區安康路二段157號","121.51038","24.9595483333333","6500600","新店區"
"231004","899-TW","2018/09/18 14:08:04","新北市新店區北新路二段156-1號","121.542986666667","24.97555","6500600","新店區"
"235030","003-UY","2018/09/18 14:08:05","新北市中和區廣福路40號","121.504385","25.0021433333333","6500300","中和區"
"235028","005-UY","2018/09/18 14:08:01","新北市中和區泰和街44巷10號","121.498903333333","25.0001833333333","6500300","中和區"
"235027","006-UY","2018/09/18 14:08:04","新北市中和區連城路249巷4號","121.493611666667","24.996785","6500300","中和區"
"235020","096-UM","2018/09/18 14:08:08","新北市中和區員山路514巷14弄12號","121.480196666667","25.0092866666667","6500300","中和區"
"235003","097-UM","2018/09/18 14:08:12","新北市中和區秀峰街117號","121.52016","24.9906583333333","6500300","中和區"
"235029","098-UM","2018/09/18 14:08:03","新北市中和區中山路二段2巷17號","121.503815","25.0069883333333","6500300","中和區"
"235004","150-BY","2018/09/18 14:08:02","新北市中和區宜安路121號","121.510033333333","24.99786","6500300","中和區"
"235022","151-BY","2018/09/18 14:08:07","新北市中和區連城路469巷79弄2號","121.483526666667","24.99368","6500300","中和區"
"235019","183-VK","2018/09/18 14:08:10","新北市中和區德光路94號","121.46867","25.0035033333333","6500300","中和區"
"235013","186-VK","2018/09/18 14:08:04","新北市中和區明禮街2號","121.505293333333","24.995815","6500300","中和區"
"235031","255-BX","2018/09/18 14:07:51","新北市中和區新生街233巷10號","121.484421666667","24.99855","6500300","中和區"
"235008","293-VK","2018/09/18 14:07:55","新北市中和區中興街202巷2號","121.499491666667","24.9900633333333","6500300","中和區"
"235036","301-VK","2018/09/18 14:07:55","新北市中和區中山路二段258號","121.497533333333","25.00252","6500300","中和區"
"235007","352-BY","2018/09/18 14:07:55","新北市中和區景平路98號","121.520333333333","24.9914316666667","6500300","中和區"
"235006","KEA-2878","2018/09/18 14:07:56","新北市中和區自立路18號","121.522245","24.9934866666667","6500300","中和區"
"247011","KEA-2869","2018/09/18 14:08:05","新北市蘆洲區信義路293號","121.478538333333","25.0858583333333","6501400","蘆洲區"
"235014","4979-A6","2018/09/18 14:08:01","新北市中和區復興路249巷11弄3-1號","121.503598333333","24.9896566666667","6500300","中和區"
"235033","4980-A6","2018/09/18 14:08:12","新北市中和區中和路217巷20號","121.504775","25.0003816666667","6500300","中和區"
"235034","558-UM","2018/09/18 14:08:10","新北市中和區中和路27號","121.499876666667","25.0018316666667","6500300","中和區"
"235009","565-BX","2018/09/18 14:07:58","新北市中和區景新街467巷35弄15號","121.514066666667","24.9888766666667","6500300","中和區"
"235018","640-BX","2018/09/18 14:07:56","新北市中和區國光街107巷2弄29號","121.469361666667","24.9989966666667","6500300","中和區"
"235011","732-UM","2018/09/18 14:08:08","新北市中和區興南路一段58號","121.510755","24.9905183333333","6500300","中和區"
"235010","733-UM","2018/09/18 14:08:06","新北市中和區忠孝街1巷42號","121.508601666667","24.984005","6500300","中和區"
"235035","783-BX","2018/09/18 14:07:54","新北市中和區立德街98巷18號","121.487448333333","25.0086066666667","6500300","中和區"
"235021","801-TS","2018/09/18 14:07:58","新北市中和區民利街51號","121.479433333333","24.9988","6500300","中和區"
"235005","802-TS","2018/09/18 14:08:08","新北市中和區中安街166號","121.510943333333","25.0000366666667","6500300","中和區"
"235016","805-TS","2018/09/18 14:08:14","新北市中和區興南路二段114巷21弄1號","121.503721666667","24.9844266666667","6500300","中和區"
"235012","896-TW","2018/09/18 14:08:09","新北市中和區華新街143巷71弄13號","121.508363333333","24.978875","6500300","中和區"
"235017","900-TW","2018/09/18 14:08:05","新北市中和區民德路260號","121.467988333333","24.9968466666667","6500300","中和區"
"235024","911-UM","2018/09/18 14:08:00","新北市中和區中山路三段147號","121.473775","25.006","6500300","中和區"
"235015","157-BY","2018/09/18 14:07:59","新北市中和區忠孝街19巷31號","121.509665","24.9844666666667","6500300","中和區"
"235001","AAC-213","2018/09/18 14:07:54","新北市中和區秀朗路三段58-3號","121.525723333333","24.9951333333333","6500300","中和區"
"235023","AAC-215","2018/09/18 14:08:11","新北市中和區圓通路296巷31弄1號","121.488596666667","24.9904716666667","6500300","中和區"
"220016","013-TV","2018/09/18 14:08:03","新北市板橋區翠華街6巷1弄3號","121.480913333333","25.0240233333333","6500100","板橋區"
"220013","072-UY","2018/09/18 14:08:11","新北市板橋區民族路219巷22號","121.469246666667","25.0082716666667","6500100","板橋區"
"220034","073-UY","2018/09/18 14:08:13","新北市板橋區中正路216巷84號","121.458215","25.018995","6500100","板橋區"
"220105","075-UY","2018/09/18 14:08:12","新北市板橋區雙十路三段9號","121.471655","25.0302583333333","6500100","板橋區"
"220017","AAD-861","2018/09/18 14:08:11","新北市板橋區貴興路31號","121.457615","25.0039516666667","6500100","板橋區"
"247001","893-R6","2018/09/18 14:08:00","新北市蘆洲區永平街56號","121.457678333333","25.0915133333333","6501400","蘆洲區"
"247015","546-UM","2018/09/18 14:07:58","新北市蘆洲區光華路46巷50號","121.467551666667","25.084765","6501400","蘆洲區"
"247023","500-BY","2018/09/18 14:08:07","新北市蘆洲區光榮路68號","121.463138333333","25.088685","6501400","蘆洲區"
"247013","339-TH","2018/09/18 14:08:10","新北市蘆洲區忠孝路70號","121.471606666667","25.0853733333333","6501400","蘆洲區"
"247005","337-TH","2018/09/18 14:08:05","新北市蘆洲區永安南路二段16巷16號","121.468013333333","25.07772","6501400","蘆洲區"
"247007","336-TH","2018/09/18 14:08:06","新北市蘆洲區中山一路234號","121.47281","25.0803216666667","6501400","蘆洲區"
"247019","057-VK","2018/09/18 14:08:09","新北市蘆洲區民族路422巷128號","121.472428333333","25.094355","6501400","蘆洲區"
"247017","007-UY","2018/09/18 14:07:54","新北市蘆洲區復興路105巷11號","121.476351666667","25.0884933333333","6501400","蘆洲區"
"247003","002-UY","2018/09/18 14:08:00","新北市蘆洲區長安街102巷47號","121.462343333333","25.0818166666667","6501400","蘆洲區"
"247021","001-UY","2018/09/18 14:08:00","新北市蘆洲區三民路165號","121.471416666667","25.087015","6501400","蘆洲區"
"235026","251-BX","2018/09/18 14:08:07","新北市中和區中山路二段380號","121.491051666667","25.00405","6500300","中和區"
"228004","212-TW","2018/09/18 14:08:08","新北市貢寮區雙玉里德心街11-1號","121.91888","25.0155566666667","6502600","貢寮區"
"228005","828-UM","2018/09/18 14:08:05","新北市貢寮區美豐里土地公嶺23號","121.88919","25.059695","6502600","貢寮區"
"207002","749-BX","2018/09/18 14:08:03","新北市萬里區溪底里瑞泉路20號","121.605196666667","25.1475816666667","6502800","萬里區"
"207001","662-BX","2018/09/18 14:07:55","新北市萬里區磺潭里清水18號","121.63788","25.1976516666667","6502800","萬里區"
"252005","AAC-283","2018/09/18 14:08:08","新北市三芝區橫山里橫山21號","121.54034","25.26274","6502100","三芝區"
"236065","105-UM","2018/09/18 14:08:07","新北市土城區金城路二段2巷5號","121.447553333333","24.9760833333333","6501300","土城區"
"236040","107-UM","2018/09/18 14:08:11","新北市土城區明德路二段245號","121.44538","24.9840083333333","6501300","土城區"
"236074","166-UM","2018/09/18 14:07:54","新北市土城區永寧路32巷2號","121.429236666667","24.9607133333333","6501300","土城區"
"236029","253-BX","2018/09/18 14:08:03","新北市土城區城林路6巷80號","121.438466666667","24.979835","6501300","土城區"
"236024","269-VK","2018/09/18 14:07:59","新北市土城區承天路67號","121.439521666667","24.9634933333333","6501300","土城區"
"236013","270-VK","2018/09/18 14:08:11","新北市土城區學府路一段217號","121.451466666667","24.98444","6501300","土城區"
"236032","271-VK","2018/09/18 14:08:05","新北市土城區員林街10-3號","121.443006666667","24.9780433333333","6501300","土城區"
"236017","401-BY","2018/09/18 14:08:00","新北市土城區城林路6巷80號","121.438193333333","24.9796683333333","6501300","土城區"
"236006","498-BY","2018/09/18 14:08:05","新北市土城區中央路一段53號","121.447901666667","24.9903666666667","6501300","土城區"
"236057","912-UM","2018/09/18 14:08:07","新北市土城區中央路四段132-2號","121.417616666667","24.9585966666667","6501300","土城區"
"236045","913-UM","2018/09/18 14:07:58","新北市土城區金城路二段28-6號","121.450701666667","24.9783833333333","6501300","土城區"
"236060","915-UM","2018/09/18 14:08:03","新北市土城區金城路二段36號","121.450783333333","24.9784566666667","6501300","土城區"
"236054","AAC-216","2018/09/18 14:07:51","新北市土城區城林路6巷80號","121.438356666667","24.9797933333333","6501300","土城區"
"221010","269-BY","2018/09/18 14:08:11","新北市汐止區長青路210巷85-3號","121.618281666667","25.1170833333333","6501100","汐止區"
"221032","280-BY","2018/09/18 14:08:04","新北市汐止區福德二路104號","121.632321666667","25.0660133333333","6501100","汐止區"
"220027","145-BY","2018/09/18 14:08:16","新北市板橋區民權路260巷21號","121.458735","25.0153683333333","6500100","板橋區"
"220028","200-UY","2018/09/18 14:08:09","新北市板橋區大觀路二段1巷22號","121.449196666667","25.0038383333333","6500100","板橋區"
"220030","610-BX","2018/09/18 14:08:05","新北市板橋區溪崑二街75號","121.4279","24.9902783333333","6500100","板橋區"
"220050","245-BX","2018/09/18 14:08:13","新北市板橋區民生路二段226巷10弄13號","121.471148333333","25.021295","6500100","板橋區"
"220039","257-TC","2018/09/18 14:07:51","新北市板橋區四維路291巷4弄4-2號","121.4625","25.0283083333333","6500100","板橋區"
"220040","267-BY","2018/09/18 14:08:06","新北市板橋區縣民大道247巷37號","121.482053333333","25.0267266666667","6500100","板橋區"
"220004","276-BY","2018/09/18 14:07:52","新北市板橋區信義路148號","121.45887","24.9917083333333","6500100","板橋區"
"220020","277-BY","2018/09/18 14:08:08","新北市板橋區金門街369巷15號","121.428911666667","24.9846483333333","6500100","板橋區"
"220019","283-VK","2018/09/18 14:08:08","新北市板橋區重慶路232號","121.462715","25.0015366666667","6500100","板橋區"
"220043","285-UM","2018/09/18 14:08:10","新北市板橋區光武街92號","121.466071666667","25.0286566666667","6500100","板橋區"
"220001","285-VK","2018/09/18 14:08:07","新北市板橋區懷仁街24巷20號","121.475731666667","25.0193333333333","6500100","板橋區"
"220031","286-VK","2018/09/18 14:08:06","新北市板橋區大觀路二段174巷178號","121.442025","25.00357","6500100","板橋區"
"220029","287-VK","2018/09/18 14:08:04","新北市板橋區南雅東路89號","121.453238333333","25.0087033333333","6500100","板橋區"
"220009","293-UM","2018/09/18 14:08:05","新北市板橋區三民路二段21巷30號","121.480391666667","25.0181666666667","6500100","板橋區"
"220010","295-UM","2018/09/18 14:08:04","新北市中和區中板路52號","121.482341666667","25.0122683333333","6500100","板橋區"
"220046","299-UM","2018/09/18 14:08:06","新北市板橋區英士路76號","121.460096666667","25.024245","6500100","板橋區"
"220023","303-R5","2018/09/18 14:08:09","新北市板橋區大智街23號","121.455095","25.0147766666667","6500100","板橋區"
"220041","307-R5","2018/09/18 14:08:02","新北市板橋區松江街76號","121.468826666667","25.0279283333333","6500100","板橋區"
"220047","317-R6","2018/09/18 14:08:02","新北市板橋區自由路51巷12號","121.464806666667","25.0235666666667","6500100","板橋區"
"220012","486-VK","2018/09/18 14:08:14","新北市板橋區板新路58號","121.47347","25.0139816666667","6500100","板橋區"
"220104","560-BX","2018/09/18 14:08:03","新北市板橋區新生街23巷17號","121.45648","25.02249","6500100","板橋區"
"220052","561-BX","2018/09/18 14:08:07","新北市板橋區文化路一段188巷9弄110號","121.46855","25.0194233333333","6500100","板橋區"
"220032","568-UM","2018/09/18 14:08:00","新北市板橋區溪崑二街56巷36號","121.42828","24.9915166666667","6500100","板橋區"
"220011","609-BX","2018/09/18 14:08:10","新北市板橋區三民路二段115號","121.479238333333","25.01584","6500100","板橋區"
"220005","686-BX","2018/09/18 14:08:09","新北市板橋區國慶路280號","121.46335","24.9988733333333","6500100","板橋區"
"220025","687-BX","2018/09/18 14:07:54","新北市板橋區龍興街15號","121.442743333333","24.999645","6500100","板橋區"
"220042","689-BX","2018/09/18 14:08:01","新北市板橋區民生路三段125號","121.46615","25.02586","6500100","板橋區"
"220002","741-BX","2018/09/18 14:08:08","新北市板橋區重慶路91號","121.462181666667","25.0059716666667","6500100","板橋區"
"220051","KEA-2699","2018/09/18 14:08:06","新北市板橋區萬板路818巷9號","121.48305","25.026675","6500100","板橋區"
"220003","827-TW","2018/09/18 14:07:56","新北市板橋區中山路一段146號","121.46375","25.01117","6500100","板橋區"
"220014","829-TW","2018/09/18 14:08:07","新北市板橋區三民路二段154巷7號","121.478731666667","25.0151466666667","6500100","板橋區"
"220045","831-TW","2018/09/18 14:07:58","新北市板橋區大同街4號","121.47695","25.0267933333333","6500100","板橋區"
"220038","833-TW","2018/09/18 14:08:14","新北市板橋區文化路二段367號","121.473036666667","25.0309516666667","6500100","板橋區"
"220022","895-R6","2018/09/18 14:08:09","新北市板橋區林園街13號","121.453883333333","25.009585","6500100","板橋區"
"220021","985-R7","2018/09/18 14:08:09","新北市板橋區民權路182號","121.459323333333","25.0135483333333","6500100","板橋區"
"220018","AAC-253","2018/09/18 14:08:09","新北市板橋區忠孝路21號","121.460403333333","25.0019133333333","6500100","板橋區"
"235032","KEA-2873","2018/09/18 14:08:01","新北市中和區連城路75巷5號","121.49817","24.9989583333333","6500300","中和區"
"235025","KEA-2875","2018/09/18 14:08:12","新北市中和區員山路212號","121.481315","25.0008066666667","6500300","中和區"
"235002","KEA-2876","2018/09/18 14:08:04","新北市中和區大仁街10巷27弄3號","121.519136666667","24.992735","6500300","中和區"
