"lineid","car","time","location","longitude","latitude","cityid","cityname"
"234001","149-BY","2018/09/18 14:58:31","新北市八里區下罟子1-7號","121.39152","25.1415466666667","6500400","永和區"
"234025","9371-KE","2018/09/18 14:58:35","新北市永和區水源街21巷14弄4號","121.511413333333","25.0038216666667","6500400","永和區"
"248017","225-UY","2018/09/18 14:30:50","新北市五股區外寮路7-3號","121.424506666667","25.0787133333333","6501500","五股區"
"244001","248-BX","2018/09/18 14:58:38","新北市林口區竹林路265號","121.389583333333","25.0808","6501700","林口區"
"231002","002-UM","2018/09/18 14:58:29","新北市新店區民權路63號","121.539226666667","24.9829633333333","6500600","新店區"
"231027","0291-UT","2018/09/18 14:58:35","新北市新店區柴埕路116號","121.504453333333","24.9598133333333","6500600","新店區"
"231028","046-UY","2018/09/18 14:58:38","新北市新店區安康路二段310號","121.505616666667","24.9581216666667","6500600","新店區"
"231001","047-UY","2018/09/18 14:58:29","新北市新店區中正路261號","121.538805","24.9735533333333","6500600","新店區"
"231005","106-UY","2018/09/18 14:58:39","新北市新店區復興路66號","121.537765","24.9867516666667","6500600","新店區"
"231020","108-UY","2018/09/18 14:58:35","新北市新店區永福路54號","121.558123333333","24.9286566666667","6500600","新店區"
"231012","187-VK","2018/09/18 14:58:30","新北市新店區永華街47號","121.54421","24.9759816666667","6500600","新店區"
"231023","KEA-2219","2018/09/18 14:58:30","新北市新店區檳榔路109號","121.544473333333","24.96177","6500600","新店區"
"231026","256-BX","2018/09/18 14:58:38","新北市新店區北新路一段251號","121.540873333333","24.9660783333333","6500600","新店區"
"231003","268-BY","2018/09/18 14:58:27","新北市新店區中興路二段55-1號","121.546635","24.9702983333333","6500600","新店區"
"231018","278-BY","2018/09/18 14:58:40","新北市新店區中央六街10號","121.530136666667","24.9745283333333","6500600","新店區"
"231015","AAD-862","2018/09/18 14:58:38","新北市新店區北宜路二段617號","121.571193333333","24.956795","6500600","新店區"
"231038","3712-VJ","2018/09/18 14:58:32","新北市新店區安華路28-1號","121.519643333333","24.9610333333333","6500600","新店區"
"231037","4716-K9","2018/09/18 14:58:43","新北市新店區薏仁坑路自強巷1號","121.497003333333","24.9577966666667","6500600","新店區"
"231025","4715-K9","2018/09/18 14:58:34","新北市新店區大同街2號","121.539798333333","24.97999","6500600","新店區"
"231036","512-UM","2018/09/18 14:58:33","新北市新店區安祥路102巷46弄53號","121.486391666667","24.96357","6500600","新店區"
"231034","616-UM","2018/09/18 14:58:28","新北市新店區玫瑰路4-1號","121.493578333333","24.9514216666667","6500600","新店區"
"231006","617-UM","2018/09/18 14:58:27","新北市新店區新坡一街85號","121.548945","24.9645216666667","6500600","新店區"
"231030","619-UM","2018/09/18 14:58:39","新北市新店區安民街341-1號","121.516833333333","24.9749083333333","6500600","新店區"
"231039","718-UY","2018/09/18 14:58:28","新北市新店區中興路二段121巷1號","121.547275","24.9719666666667","6500600","新店區"
"231035","719-UM","2018/09/18 14:58:34","新北市新店區安業街19號","121.516883333333","24.9777683333333","6500600","新店區"
"231032","720-UM","2018/09/18 14:58:40","新北市新店區安泰路22-1號","121.485411666667","24.948385","6500600","新店區"
"231029","897-TW","2018/09/18 14:58:25","新北市新店區安康路三段740號","121.473795","24.9419666666667","6500600","新店區"
"231004","899-TW","2018/09/18 14:58:24","新北市新店區民族路47號","121.540238333333","24.978635","6500600","新店區"
"231024","AKT-0513","2018/09/18 14:58:43","新北市新店區中華路83巷21號","121.538693333333","24.9681366666667","6500600","新店區"
"235030","003-UY","2018/09/18 14:58:25","新北市中和區中山路二段63號","121.504131666667","25.004735","6500300","中和區"
"235020","096-UM","2018/09/18 14:58:28","新北市中和區中山路三段170巷4弄2號","121.472895","25.0068416666667","6500300","中和區"
"235003","097-UM","2018/09/18 14:58:32","新北市中和區宜安路52巷14號","121.512323333333","24.9971166666667","6500300","中和區"
"235029","098-UM","2018/09/18 14:58:43","新北市中和區永和路55號","121.497131666667","25.0053833333333","6500300","中和區"
"235004","150-BY","2018/09/18 14:58:41","新北市中和區景安路79巷21號","121.506981666667","24.996745","6500300","中和區"
"235013","186-VK","2018/09/18 14:58:44","新北市中和區景安路132巷33號","121.5037","24.9945716666667","6500300","中和區"
"235031","255-BX","2018/09/18 14:58:30","新北市中和區中正路716-8號","121.485371666667","24.99713","6500300","中和區"
"235008","293-VK","2018/09/18 14:58:34","新北市中和區中正路91號","121.500366666667","24.99347","6500300","中和區"
"235036","301-VK","2018/09/18 14:58:35","新北市中和區連城路144巷4弄11號","121.49562","24.9989016666667","6500300","中和區"
"235007","352-BY","2018/09/18 14:58:35","新北市中和區華新街230號","121.505988333333","24.9817466666667","6500300","中和區"
"235014","4979-A6","2018/09/18 14:58:41","新北市中和區景平路177號","121.511898333333","24.99249","6500300","中和區"
"235033","4980-A6","2018/09/18 14:58:32","新北市中和區圓通路158巷3-1號","121.497678333333","24.9961583333333","6500300","中和區"
"235034","558-UM","2018/09/18 14:58:40","新北市中和區圓通路227號","121.496438333333","24.9942816666667","6500300","中和區"
"235018","640-BX","2018/09/18 14:58:35","新北市中和區民享街30巷1號","121.473976666667","25.003425","6500300","中和區"
"235010","733-UM","2018/09/18 14:58:26","新北市中和區興南路一段93巷89弄1號","121.510695","24.9860533333333","6500300","中和區"
"235035","783-BX","2018/09/18 14:58:34","新北市中和區建一路103號","121.488045","25.0015233333333","6500300","中和區"
"235012","896-TW","2018/09/18 14:58:29","新北市中和區忠孝街1巷2-1號","121.509218333333","24.9830616666667","6500300","中和區"
"235015","157-BY","2018/09/18 14:58:39","新北市中和區捷運路16號","121.508863333333","24.9899266666667","6500300","中和區"
"235001","AAC-213","2018/09/18 14:58:34","新北市中和區自立路99巷20號","121.523286666667","24.99471","6500300","中和區"
"235023","AAC-215","2018/09/18 14:58:31","新北市中和區圓通路335巷4弄4號","121.491891666667","24.9897983333333","6500300","中和區"
"220016","013-TV","2018/09/18 14:58:41","新北市板橋區光復街23號","121.481286666667","25.0192883333333","6500100","板橋區"
"220013","072-UY","2018/09/18 14:58:39","新北市板橋區區運路19號","121.465521666667","25.01018","6500100","板橋區"
"220034","073-UY","2018/09/18 14:58:37","新北市樹林區八德街247巷24-1號","121.420926666667","24.9739316666667","6500100","板橋區"
"220105","075-UY","2018/09/18 14:58:32","新北市板橋區文聖街11巷22號","121.475923333333","25.0326683333333","6500100","板橋區"
"220017","AAD-861","2018/09/18 14:58:38","新北市板橋區貴興路51號","121.457531666667","25.00315","6500100","板橋區"
"247008","336-TH","2018/09/18 14:58:26","新北市五股區中興路三段2巷10號","121.448876666667","25.0816283333333","6501400","蘆洲區"
"235026","251-BX","2018/09/18 14:58:26","新北市中和區中山路二段321-1號","121.493693333333","25.0021166666667","6500300","中和區"
"228004","212-TW","2018/09/18 14:58:28","新北市貢寮區雙玉里田寮洋街25-4號","121.930516666667","25.0178066666667","6502600","貢寮區"
"207002","749-BX","2018/09/18 14:58:43","新北市萬里區崁腳里崁腳路91號","121.64757","25.1595333333333","6502800","萬里區"
"207001","662-BX","2018/09/18 14:58:35","新北市萬里區雙興里二坪路10號","121.64698","25.1754083333333","6502800","萬里區"
"236065","105-UM","2018/09/18 14:58:27","新北市土城區明德路二段116號","121.444903333333","24.9841866666667","6501300","土城區"
"236040","107-UM","2018/09/18 14:58:41","新北市土城區裕民路214巷18弄2號","121.452728333333","24.98375","6501300","土城區"
"236074","166-UM","2018/09/18 14:58:44","新北市土城區中央路四段55-12號","121.418976666667","24.9570066666667","6501300","土城區"
"236029","253-BX","2018/09/18 14:58:22","新北市土城區興城路112號","121.44022","24.97084","6501300","土城區"
"236024","269-VK","2018/09/18 14:58:40","新北市土城區中正路74巷3弄1號","121.444775","24.9749616666667","6501300","土城區"
"236013","270-VK","2018/09/18 14:58:31","新北市土城區永豐路29巷2號","121.463226666667","24.9882883333333","6501300","土城區"
"236032","271-VK","2018/09/18 14:58:25","新北市土城區清水路137號","121.458256666667","24.981615","6501300","土城區"
"236017","401-BY","2018/09/18 14:58:40","新北市土城區延吉街166號","121.468486666667","24.9853583333333","6501300","土城區"
"236057","912-UM","2018/09/18 14:58:30","新北市土城區金城路二段230號","121.456508333333","24.9828866666667","6501300","土城區"
"236045","913-UM","2018/09/18 14:58:38","新北市土城區青雲路318號","121.458905","24.977275","6501300","土城區"
"236060","915-UM","2018/09/18 14:58:43","新北市土城區延和路88巷1號","121.466601666667","24.98927","6501300","土城區"
"236054","AAC-216","2018/09/18 14:58:31","新北市土城區學成路139號","121.449123333333","24.989525","6501300","土城區"
"221010","269-BY","2018/09/18 14:58:31","新北市汐止區汐萬路一段256巷3號","121.652118333333","25.074795","6501100","汐止區"
"220027","145-BY","2018/09/18 14:58:36","新北市板橋區僑中一街124巷70-5號","121.449241666667","25.0154216666667","6500100","板橋區"
"220028","200-UY","2018/09/18 14:58:42","新北市板橋區大觀路二段183號","121.444725","24.9999","6500100","板橋區"
"220030","610-BX","2018/09/18 14:58:25","新北市板橋區篤行路二段129號","121.431228333333","24.99047","6500100","板橋區"
"220050","245-BX","2018/09/18 14:58:31","新北市板橋區莒光路219號","121.474181666667","25.0227566666667","6500100","板橋區"
"220039","257-TC","2018/09/18 14:58:31","新北市板橋區幸福路32巷46號","121.460536666667","25.0218866666667","6500100","板橋區"
"220040","267-BY","2018/09/18 14:58:41","新北市板橋區文聖街89巷34號","121.478485","25.0304383333333","6500100","板橋區"
"220020","277-BY","2018/09/18 14:58:36","新北市板橋區金門街119號","121.433146666667","24.99168","6500100","板橋區"
"220019","283-VK","2018/09/18 14:58:24","新北市板橋區和平路174巷43號","121.465396666667","24.99392","6500100","板橋區"
"220043","285-UM","2018/09/18 14:58:38","新北市板橋區雨農路17巷1號","121.462178333333","25.024585","6500100","板橋區"
"220001","285-VK","2018/09/18 14:58:27","新北市板橋區永豐街121號","121.474496666667","25.0196666666667","6500100","板橋區"
"220031","286-VK","2018/09/18 14:58:39","新北市板橋區僑中二街88巷20-1號","121.445391666667","25.0095483333333","6500100","板橋區"
"220029","287-VK","2018/09/18 14:58:24","新北市板橋區僑中一街102巷7弄20號","121.446078333333","25.0129633333333","6500100","板橋區"
"220009","293-UM","2018/09/18 14:58:35","新北市板橋區中山路一段137號","121.462755","25.01062","6500100","板橋區"
"220010","295-UM","2018/09/18 14:58:39","新北市板橋區萬安街85巷2弄12號","121.48453","25.0249233333333","6500100","板橋區"
"220046","299-UM","2018/09/18 14:58:26","新北市板橋區文化路一段221巷16號","121.463126666667","25.0177833333333","6500100","板橋區"
"220023","303-R5","2018/09/18 14:58:29","新北市板橋區金華街10巷99號","121.458793333333","25.0205316666667","6500100","板橋區"
"220041","307-R5","2018/09/18 14:58:23","新北市板橋區裕民街128巷3號","121.458855","25.0276833333333","6500100","板橋區"
"220047","317-R6","2018/09/18 14:58:28","新北市板橋區新海路72巷48號","121.462146666667","25.0230883333333","6500100","板橋區"
"220012","486-VK","2018/09/18 14:58:35","新北市板橋區民族路219巷67號","121.468548333333","25.0090716666667","6500100","板橋區"
"220052","561-BX","2018/09/18 14:58:40","新北市板橋區文化路一段421巷23-1號","121.466218333333","25.0232216666667","6500100","板橋區"
"220011","609-BX","2018/09/18 14:58:36","新北市板橋區中山路二段553巷16號","121.483371666667","25.0226183333333","6500100","板橋區"
"220005","686-BX","2018/09/18 14:58:32","新北市板橋區四川路二段109號","121.451608333333","24.9943233333333","6500100","板橋區"
"220025","687-BX","2018/09/18 14:58:34","新北市板橋區僑中一街124巷52號","121.446623333333","25.0157433333333","6500100","板橋區"
"220042","689-BX","2018/09/18 14:58:41","新北市板橋區文化路二段606號","121.47729","25.0356483333333","6500100","板橋區"
"220002","741-BX","2018/09/18 14:58:28","新北市板橋區忠孝路201巷30號","121.465083333333","25.0034466666667","6500100","板橋區"
"220051","KEA-2699","2018/09/18 14:58:38","新北市板橋區仁化街42巷26號","121.47563","25.03087","6500100","板橋區"
"220003","827-TW","2018/09/18 14:58:36","新北市板橋區國慶路268號","121.46333","24.9984816666667","6500100","板橋區"
"220014","829-TW","2018/09/18 14:58:38","新北市板橋區漢生東路175-1號","121.469438333333","25.0121466666667","6500100","板橋區"
"220038","833-TW","2018/09/18 14:58:43","新北市板橋區龍泉街55巷24號","121.457653333333","25.025225","6500100","板橋區"
"220022","895-R6","2018/09/18 14:58:29","新北市板橋區府中路67號","121.458048333333","25.00948","6500100","板橋區"
"220021","985-R7","2018/09/18 14:58:24","新北市板橋區大觀路二段93號","121.446211666667","25.0019466666667","6500100","板橋區"
"220018","AAC-253","2018/09/18 14:58:38","新北市板橋區成都街22號","121.460931666667","25.0047133333333","6500100","板橋區"
"235032","KEA-2873","2018/09/18 14:58:31","新北市中和區福祥路136號","121.498713333333","25.0068983333333","6500300","中和區"
