"lineid","car","time","location","longitude","latitude","cityid","cityname"
"231046","107-UY","2018/09/18 16:09:44","新北市新店區灣潭路2-4號","121.536568333333","24.95018","6500600","新店區"
"231012","187-VK","2018/09/18 16:09:30","新北市新店區薏仁坑路5號","121.499131666667","24.959035","6500600","新店區"
"231018","278-BY","2018/09/18 16:09:40","新北市新店區中正路694巷15號","121.535345","24.9908816666667","6500600","新店區"
"231035","719-UM","2018/09/18 16:09:34","新北市新店區薏仁坑路23號","121.497925","24.9590766666667","6500600","新店區"
"241011","013-R5","2018/09/18 16:09:37","新北市三重區正義北路337號","121.493598333333","25.071495","6500200","三重區"
"241028","022-UY","2018/09/18 16:09:43","新北市三重區正義南路111號","121.498238333333","25.0585633333333","6500200","三重區"
"241008","059-VK","2018/09/18 16:09:40","新北市三重區力行路一段80號","121.483813333333","25.0695883333333","6500200","三重區"
"241022","060-VK","2018/09/18 16:09:41","新北市三重區新北大道一段9號","121.489106666667","25.06132","6500200","三重區"
"241015","062-VK","2018/09/18 16:09:25","新北市三重區三和路一段2號","121.503975","25.0641633333333","6500200","三重區"
"241017","063-VK","2018/09/18 16:09:39","新北市三重區重陽路三段5巷13號","121.491031666667","25.0651016666667","6500200","三重區"
"241024","065-VK","2018/09/18 16:09:31","新北市三重區中正北路145巷9弄17號","121.485573333333","25.06767","6500200","三重區"
"241026","066-VK","2018/09/18 16:09:27","新北市三重區正義南路17號","121.497655","25.0614416666667","6500200","三重區"
"241002","090-VK","2018/09/18 16:09:27","新北市三重區仁義街91號","121.49978","25.0794766666667","6500200","三重區"
"241003","091-VK","2018/09/18 16:09:41","新北市三重區仁義街220巷18號","121.494636666667","25.0837416666667","6500200","三重區"
"241005","262-UM","2018/09/18 16:09:36","新北市三重區溪尾街305號","121.487565","25.08369","6500200","三重區"
"241019","265-UM","2018/09/18 16:09:41","新北市三重區重陽路三段97號","121.490263333333","25.067985","6500200","三重區"
"241016","266-UM","2018/09/18 16:09:38","新北市三重區重新路三段90號","121.49296","25.060925","6500200","三重區"
"241018","268-UM","2018/09/18 16:09:36","新北市三重區明志街67號","121.491095","25.0638816666667","6500200","三重區"
"241032","269-UM","2018/09/18 16:09:45","新北市三重區三陽路100巷3弄13號","121.483018333333","25.058135","6500200","三重區"
"241013","270-UM","2018/09/18 16:09:25","新北市三重區安樂街7號","121.496865","25.0698066666667","6500200","三重區"
"241025","271-UM","2018/09/18 16:09:46","新北市三重區忠孝路三段40巷6-2號","121.481786666667","25.0665283333333","6500200","三重區"
"241007","398-BY","2018/09/18 16:09:37","新北市三重區慈愛街8號","121.484516666667","25.0784216666667","6500200","三重區"
"241004","475-VK","2018/09/18 16:09:44","新北市三重區長元街105號","121.504646666667","25.0668566666667","6500200","三重區"
"241014","543-UM","2018/09/18 16:09:30","新北市三重區中正南路252巷5號","121.493973333333","25.0519783333333","6500200","三重區"
"241023","545-UM","2018/09/18 16:09:46","新北市三重區忠孝路二段80號","121.484146666667","25.0696866666667","6500200","三重區"
"241001","547-UM","2018/09/18 16:09:42","新北市三重區忠孝路二段6號","121.486526666667","25.0712833333333","6500200","三重區"
"241006","AAD-863","2018/09/18 16:09:25","新北市三重區力行路二段122號","121.48213","25.0749483333333","6500200","三重區"
"241031","743-BX","2018/09/18 16:09:35","新北市三重區重新路四段121號","121.48466","25.0524116666667","6500200","三重區"
"241020","887-TS","2018/09/18 16:09:37","新北市三重區車路頭街25號","121.483838333333","25.0706783333333","6500200","三重區"
"241012","941-UM","2018/09/18 16:09:27","新北市三重區文化北路132巷19號","121.497998333333","25.0666583333333","6500200","三重區"
"241029","942-UM","2018/09/18 16:09:44","新北市三重區同安街90號","121.495001666667","25.05656","6500200","三重區"
"241033","AAC-255","2018/09/18 16:09:28","新北市三重區五谷王南街11巷9號","121.473655","25.04458","6500200","三重區"
"247008","336-TH","2018/09/18 16:09:31","新北市五股區中興路三段2巷10號","121.448911666667","25.081635","6501400","蘆洲區"
"235026","251-BX","2018/09/18 16:09:25","新北市中和區橋和路126號","121.493053333333","25.0060283333333","6500300","中和區"
"224007","275-VK","2018/09/18 16:09:46","新北市瑞芳區粗坑口路3-1號","121.761898333333","25.09861","6501200","瑞芳區"
"227009","642-TC","2018/09/18 16:09:35","新北市雙溪區三港里雙澳路70-1號","121.881425","25.0544033333333","6502500","雙溪區"
"227003","400-TW","2018/09/18 16:09:41","新北市雙溪區上林里內平林47號","121.833308333333","25.03043","6502500","雙溪區"
"251008","181-VK","2018/09/18 16:09:33","新北市淡水區馬偕街28-9號","121.437321666667","25.1730616666667","6501000","淡水區"
"251007","577-R6","2018/09/18 16:09:29","新北市淡水區中正路二段31號","121.419573333333","25.1812883333333","6501000","淡水區"
"207004","681-TV","2018/09/18 15:42:39","新北市萬里區萬里里獅頭路23號","121.693828333333","25.1782383333333","6502800","萬里區"
