"lineid","car","time","location","longitude","latitude","cityid","cityname"
"234026","9371-KE","2018/09/18 17:39:08","新北市永和區國光路80號","121.518135","25.0100233333333","6500400","永和區"
"249005","172-UM","2018/09/18 17:39:04","新北市八里區荖阡坑路34-1號","121.402753333333","25.1297883333333","6502300","八里區"
"249001","173-UM","2018/09/18 17:39:11","新北市八里區龍米路二段159-3號","121.439485","25.1538516666667","6502300","八里區"
"249004","303-UY","2018/09/18 17:38:58","新北市八里區賢一街70-3號","121.418835","25.15752","6502300","八里區"
"249002","305-UY","2018/09/18 17:38:57","新北市八里區石壁腳19號","121.441746666667","25.1353516666667","6502300","八里區"
"249003","593-UM","2018/09/18 17:38:58","新北市八里區中山路二段201號","121.404071666667","25.1497133333333","6502300","八里區"
"232011","375-UM","2018/09/18 17:38:58","新北市坪林區水柳腳37號","121.709878333333","24.9352033333333","6502000","坪林區"
"244023","069-UM","2018/09/18 17:39:15","新北市林口區東明一街95巷15號","121.391356666667","25.070505","6501700","林口區"
"244007","080-UY","2018/09/18 17:39:00","新北市林口區林口路270號","121.386195","25.08462","6501700","林口區"
"244019","403-UM","2018/09/18 17:39:04","新北市林口區文化一路一段84-1號","121.372581666667","25.0697333333333","6501700","林口區"
"244013","KEA-2802","2018/09/18 17:39:03","新北市林口區中山路188-2號","121.389353333333","25.0789433333333","6501700","林口區"
"244017","485-VK","2018/09/18 17:39:00","新北市林口區文化一路一段57-2號","121.371281666667","25.06985","6501700","林口區"
"244009","656-BX","2018/09/18 17:39:17","新北市林口區竹林一路113號","121.384833333333","25.085875","6501700","林口區"
"244011","657-BX","2018/09/18 17:39:04","新北市林口區佳林路154號","121.384091666667","25.077135","6501700","林口區"
"244025","837-TS","2018/09/18 17:39:06","新北市林口區文化三路一段394巷6號","121.366125","25.0730083333333","6501700","林口區"
"244021","838-TS","2018/09/18 17:38:59","新北市林口區仁愛路一段18號","121.397685","25.07527","6501700","林口區"
"222002","659-BX","2018/09/18 17:39:07","新北市深坑區深南路32號","121.620966666667","25.0082933333333","6501800","深坑區"
"231046","107-UY","2018/09/18 17:39:02","新北市新店區直潭路92號","121.530945","24.93762","6500600","新店區"
"241024","065-VK","2018/09/18 17:39:11","新北市三重區力行路二段4號","121.481606666667","25.07191","6500200","三重區"
"251014","742-BX","2018/09/18 17:38:57","新北市淡水區公埔子15-1號","121.47924","25.2266333333333","6501000","淡水區"
"241005","262-UM","2018/09/18 17:39:16","新北市三重區仁愛街519號","121.487326666667","25.0822433333333","6500200","三重區"
"241019","265-UM","2018/09/18 17:39:01","新北市三重區六張街217號","121.488336666667","25.06859","6500200","三重區"
"241016","266-UM","2018/09/18 17:39:19","新北市三重區正義北路23號","121.497596666667","25.0634566666667","6500200","三重區"
"241025","271-UM","2018/09/18 17:39:06","新北市蘆洲區永安南路二段292號","121.457226666667","25.0817033333333","6500200","三重區"
"241007","398-BY","2018/09/18 17:38:57","新北市三重區慈愛街9-1號","121.485116666667","25.0786783333333","6500200","三重區"
"241014","543-UM","2018/09/18 17:39:10","新北市三重區龍濱路19號","121.503011666667","25.0678566666667","6500200","三重區"
"241023","545-UM","2018/09/18 17:39:06","新北市三重區中華路103號","121.483601666667","25.0633","6500200","三重區"
"241012","941-UM","2018/09/18 17:39:07","新北市三重區龍門路236號","121.500638333333","25.0736866666667","6500200","三重區"
"241033","AAC-255","2018/09/18 17:39:08","新北市三重區光復路一段138-1號","121.471771666667","25.0531383333333","6500200","三重區"
"247012","KEA-2869","2018/09/18 17:39:14","新北市蘆洲區民權路23號","121.476196666667","25.0862833333333","6501400","蘆洲區"
"235052","805-TS","2018/09/18 17:38:22","新北市中和區員山路36巷13號","121.484245","24.991675","6500300","中和區"
"247002","893-R6","2018/09/18 17:39:09","新北市蘆洲區永平街32巷11弄27號","121.457848333333","25.0917883333333","6501400","蘆洲區"
"247016","546-UM","2018/09/18 17:39:06","新北市蘆洲區光華路48號","121.468611666667","25.08318","6501400","蘆洲區"
"247024","500-BY","2018/09/18 17:39:17","新北市蘆洲區長樂路125-1號","121.462168333333","25.088085","6501400","蘆洲區"
"247014","339-TH","2018/09/18 17:38:56","新北市蘆洲區中山二路114號","121.472066666667","25.081675","6501400","蘆洲區"
"247006","337-TH","2018/09/18 17:39:16","新北市蘆洲區長安街68巷23號","121.463751666667","25.0808533333333","6501400","蘆洲區"
"247008","336-TH","2018/09/18 17:39:11","新北市蘆洲區和平路19巷14號","121.472228333333","25.0784533333333","6501400","蘆洲區"
"247020","057-VK","2018/09/18 17:39:08","新北市蘆洲區民族路349號","121.472308333333","25.0918716666667","6501400","蘆洲區"
"247010","056-VK","2018/09/18 17:39:02","新北市蘆洲區集賢路412號","121.479816666667","25.0814033333333","6501400","蘆洲區"
"247018","007-UY","2018/09/18 17:38:56","新北市蘆洲區三民路110巷2號","121.471726666667","25.0869733333333","6501400","蘆洲區"
"247004","002-UY","2018/09/18 17:39:02","新北市蘆洲區長安街249巷28號","121.458153333333","25.0828183333333","6501400","蘆洲區"
"247022","001-UY","2018/09/18 17:39:06","新北市蘆洲區民族路447號","121.46758","25.088795","6501400","蘆洲區"
"228001","212-TW","2018/09/18 17:38:58","新北市貢寮區仁理村仁愛路95-1號","121.927666666667","25.0555016666667","6502600","貢寮區"
"228002","663-BX","2018/09/18 17:39:11","新北市貢寮區福隆里外隆林街14-1號","121.959163333333","25.00364","6502600","貢寮區"
"228003","828-UM","2018/09/18 17:39:13","新北市貢寮區仁理村仁和路210號","121.923676666667","25.0530283333333","6502600","貢寮區"
"224006","676-BX","2018/09/18 17:39:06","新北市瑞芳區傑魚坑路36號","121.794073333333","25.11066","6501200","瑞芳區"
"224008","285-BY","2018/09/18 17:39:01","新北市瑞芳區瑞柑新村31號","121.830393333333","25.1071","6501200","瑞芳區"
"224009","273-VK","2018/09/18 17:39:02","新北市瑞芳區新山路145號","121.852153333333","25.1087433333333","6501200","瑞芳區"
"224005","271-BY","2018/09/18 17:39:04","新北市瑞芳區海濱路8-6號","121.831613333333","25.126205","6501200","瑞芳區"
"227009","642-TC","2018/09/18 17:38:54","新北市雙溪區三貂里定福路1-2號","121.850758333333","25.0634","6502500","雙溪區"
"251004","009-UM","2018/09/18 17:39:04","新北市淡水區中正東路二段141號","121.459295","25.14806","6501000","淡水區"
"251005","010-UM","2018/09/18 17:39:17","新北市淡水區鄧公路33巷14號","121.45186","25.17094","6501000","淡水區"
"251013","KEA-2871","2018/09/18 17:39:12","新北市淡水區演戲埔腳3號","121.47226","25.1935116666667","6501000","淡水區"
"251016","179-VK","2018/09/18 17:39:16","新北市淡水區埤島39-15號","121.452775","25.19587","6501000","淡水區"
"251015","180-VK","2018/09/18 17:39:01","新北市淡水區興福寮1-6號","121.488116666667","25.1646683333333","6501000","淡水區"
"251008","181-VK","2018/09/18 17:38:53","新北市淡水區八勢路30巷19號","121.462493333333","25.1537666666667","6501000","淡水區"
"251010","413-VK","2018/09/18 17:39:00","新北市淡水區淡海路280巷16號","121.41987","25.189555","6501000","淡水區"
"251012","441-VK","2018/09/18 17:39:14","新北市淡水區北新路200巷8號","121.451721666667","25.179655","6501000","淡水區"
"251006","561-UM","2018/09/18 17:39:14","新北市淡水區大信街34號","121.442185","25.1771583333333","6501000","淡水區"
"251009","575-R6","2018/09/18 17:39:00","新北市淡水區中正路32號","121.444006666667","25.1692716666667","6501000","淡水區"
"251007","577-R6","2018/09/18 17:39:09","新北市淡水區民生路124巷2號","121.463853333333","25.1380833333333","6501000","淡水區"
"251011","650-BX","2018/09/18 17:38:58","新北市淡水區小坪頂13-3號","121.486406666667","25.156085","6501000","淡水區"
"251002","672-BX","2018/09/18 17:39:04","新北市淡水區中山路141號","121.440725","25.1717733333333","6501000","淡水區"
"251003","766-UM","2018/09/18 17:39:11","新北市淡水區中山北路一段64號","121.442008333333","25.175675","6501000","淡水區"
"207004","681-TV","2018/09/18 17:39:15","新北市萬里區中幅里中福路8-1號","121.685773333333","25.164965","6502800","萬里區"
"207003","550-UM","2018/09/18 17:39:15","新北市萬里區龜吼里漁澳路5-1號","121.686573333333","25.194295","6502800","萬里區"
"252002","178-VK","2018/09/18 17:39:07","新北市三芝區中正路二段2號","121.504991666667","25.2557383333333","6502100","三芝區"
"252001","292-VK","2018/09/18 17:39:12","新北市三芝區淡金路二段2號","121.502305","25.25919","6502100","三芝區"
"237012","275-BY","2018/09/18 17:39:16","新北市三峽區中山路459巷163-3號","121.348658333333","24.93277","6500900","三峽區"
"237008","302-VK","2018/09/18 17:39:12","新北市三峽區中山路321-2號","121.360783333333","24.93811","6500900","三峽區"
"237014","433-BY","2018/09/18 17:39:05","新北市三峽區中山路459巷163-3號","121.349111666667","24.9329666666667","6500900","三峽區"
"237011","KEA-2596","2018/09/18 17:39:00","新北市三峽區中山路138-1號","121.36519","24.9361633333333","6500900","三峽區"
"237016","649-BX","2018/09/18 17:39:03","新北市三峽區正義街16-1號","121.369486666667","24.9192566666667","6500900","三峽區"
"237010","706-TV","2018/09/18 17:39:14","新北市三峽區中山路196號","121.363415","24.9369516666667","6500900","三峽區"
"236070","105-UM","2018/09/18 17:39:13","新北市土城區城林路6巷80號","121.43859","24.9797783333333","6501300","土城區"
"236079","166-UM","2018/09/18 17:39:02","新北市土城區城林路6巷80號","121.438445","24.9797916666667","6501300","土城區"
"236014","270-VK","2018/09/18 17:39:06","新北市土城區城林路6巷80號","121.438348333333","24.9796133333333","6501300","土城區"
"236038","271-VK","2018/09/18 17:39:00","新北市土城區城林路6巷80號","121.438505","24.9796416666667","6501300","土城區"
"236055","AAC-216","2018/09/18 17:39:00","新北市土城區城林路6巷80號","121.438456666667","24.9797383333333","6501300","土城區"
"242037","AAC-296","2018/09/18 17:39:07","新北市新莊區後港一路147號","121.431111666667","25.0278716666667","6500500","新莊區"
"242058","986-R7","2018/09/18 17:39:10","新北市新莊區中正路723-9號","121.422846666667","25.0290833333333","6500500","新莊區"
"242056","751-BX","2018/09/18 17:39:03","新北市新莊區新莊路543巷9弄28號","121.44831","25.0319016666667","6500500","新莊區"
"242025","705-TV","2018/09/18 17:39:16","新北市新莊區思源路98號","121.46024","25.04597","6500500","新莊區"
"242027","615-BX","2018/09/18 17:38:58","新北市新莊區福壽街116號","121.45797","25.0508516666667","6500500","新莊區"
"242029","612-BX","2018/09/18 17:39:14","新北市新莊區復興路一段171號","121.451211666667","25.0433483333333","6500500","新莊區"
"242044","566-BX","2018/09/18 17:39:08","新北市新莊區中正路871巷9弄2號","121.418736666667","25.02675","6500500","新莊區"
"242048","497-BY","2018/09/18 17:38:57","新北市新莊區萬安街129號","121.42061","25.0222683333333","6500500","新莊區"
"242054","442-UM","2018/09/18 17:39:11","新北市新莊區新樹路697號","121.432201666667","25.0023466666667","6500500","新莊區"
"242002","440-UM","2018/09/18 17:39:10","新北市新莊區新莊路266號","121.451793333333","25.03394","6500500","新莊區"
"242039","415-TV","2018/09/18 17:39:09","新北市新莊區民全街16號","121.429051666667","25.02193","6500500","新莊區"
"242009","413-TV","2018/09/18 17:39:07","新北市新莊區福壽街169巷14號","121.457208333333","25.053785","6500500","新莊區"
"242046","400-BY","2018/09/18 17:39:00","新北市新莊區中正路573號","121.434716666667","25.0323483333333","6500500","新莊區"
"242023","362-BY","2018/09/18 17:39:14","新北市新莊區民樂街34號","121.457916666667","25.040925","6500500","新莊區"
"242061","353-BY","2018/09/18 17:39:02","新北市新莊區瓊林南路12-2號","121.436271666667","25.0189383333333","6500500","新莊區"
"242011","132-UY","2018/09/18 17:39:12","新北市新莊區中港路556-1號","121.451603333333","25.0529916666667","6500500","新莊區"
"242042","133-UY","2018/09/18 17:39:14","新北市新莊區中正路514巷17號","121.433036666667","25.0329766666667","6500500","新莊區"
"242034","135-UY","2018/09/18 17:39:10","新北市新莊區新莊路528號","121.445755","25.0329816666667","6500500","新莊區"
"242051","172-VK","2018/09/18 17:39:08","新北市新莊區西盛街187-16號","121.429","25.0171766666667","6500500","新莊區"
"242019","175-VK","2018/09/18 17:39:10","新北市新莊區中港路182號","121.454873333333","25.042055","6500500","新莊區"
"242007","176-VK","2018/09/18 17:39:07","新北市新莊區福樂街118巷6號","121.457325","25.048065","6500500","新莊區"
"242005","347-TH","2018/09/18 17:39:07","新北市新莊區自立街202號","121.456751666667","25.0455683333333","6500500","新莊區"
"242032","348-TH","2018/09/18 17:39:14","新北市新莊區新泰路341號","121.444745","25.04194","6500500","新莊區"
"242021","350-TH","2018/09/18 17:39:13","新北市新莊區中華路一段110號","121.452351666667","25.0402466666667","6500500","新莊區"
"242015","351-TH","2018/09/18 17:39:16","新北市新莊區新泰路291號","121.445435","25.0406766666667","6500500","新莊區"
"238015","755-BX","2018/09/18 17:39:12","新北市樹林區啟智街36號","121.420653333333","24.9931766666667","6500700","樹林區"
"238023","601-UM","2018/09/18 17:39:13","新北市樹林區三福街62號","121.40508","25.0162816666667","6500700","樹林區"
"238019","599-UM","2018/09/18 17:39:15","新北市樹林區太平路56巷1號","121.419006666667","24.98187","6500700","樹林區"
"238018","571-TV","2018/09/18 17:39:09","新北市樹林區鎮前街25號","121.425796666667","24.9924716666667","6500700","樹林區"
"238024","5061-A6","2018/09/18 17:38:56","新北市樹林區太平路269號","121.419671666667","24.9731733333333","6500700","樹林區"
"238022","KEA-2213","2018/09/18 17:39:06","新北市樹林區中華路187巷7號","121.420626666667","24.981275","6500700","樹林區"
"238021","KEA-2539","2018/09/18 17:38:56","新北市樹林區柑園街一段253巷9號","121.395998333333","24.9557583333333","6500700","樹林區"
"238025","303-VK","2018/09/18 17:39:11","新北市樹林區保安街二段335號","121.412533333333","25.007765","6500700","樹林區"
"238017","283-BY","2018/09/18 17:39:11","新北市樹林區中正路415號","121.417308333333","25.0074783333333","6500700","樹林區"
"238014","282-BY","2018/09/18 17:39:14","新北市樹林區保安街一段376號","121.417741666667","24.9989266666667","6500700","樹林區"
"238020","268-VK","2018/09/18 17:38:57","新北市樹林區俊英街116巷29弄16號","121.428036666667","25.0067816666667","6500700","樹林區"
"238026","172-UY","2018/09/18 17:38:57","新北市樹林區新興街19巷26號","121.401408333333","24.97337","6500700","樹林區"
"238016","169-UY","2018/09/18 17:39:12","新北市樹林區復興路285號","121.418788333333","24.9891533333333","6500700","樹林區"
"239007","AAC-297","2018/09/18 17:39:08","新北市鶯歌區國光街72號","121.341521666667","24.95801","6500800","鶯歌區"
"239006","891-R6","2018/09/18 17:39:12","新北市鶯歌區鶯桃路483號","121.331896666667","24.966175","6500800","鶯歌區"
"239008","527-UM","2018/09/18 17:39:13","新北市鶯歌區大湖路700巷22弄19號","121.333866666667","24.977305","6500800","鶯歌區"
"239005","526-UM","2018/09/18 17:39:07","新北市鶯歌區鳳吉四街1號","121.326081666667","24.9724383333333","6500800","鶯歌區"
"239001","417-VK","2018/09/18 17:39:15","新北市鶯歌區中正三路238號","121.330001666667","24.9366366666667","6500800","鶯歌區"
"239003","360-BY","2018/09/18 17:38:57","新北市鶯歌區鶯桃路208號","121.337406666667","24.9591716666667","6500800","鶯歌區"
"239002","359-BY","2018/09/18 17:38:54","新北市鶯歌區育德街41號","121.343881666667","24.9550966666667","6500800","鶯歌區"
"239004","193-VK","2018/09/18 17:39:01","新北市鶯歌區三鶯路97號","121.35932","24.9440283333333","6500800","鶯歌區"
"221008","489-VK","2018/09/18 17:39:03","新北市汐止區康寧街901號","121.651365","25.07503","6501100","汐止區"
"221010","269-BY","2018/09/18 17:39:05","新北市汐止區汐萬路一段418巷25號","121.650036666667","25.07888","6501100","汐止區"
"221023","279-VK","2018/09/18 17:39:06","新北市汐止區汐萬路一段256巷1號","121.651711666667","25.07487","6501100","汐止區"
"221032","280-BY","2018/09/18 17:39:07","新北市汐止區康寧街901號","121.650833333333","25.0752766666667","6501100","汐止區"
"221021","299-VK","2018/09/18 17:39:04","新北市汐止區汐萬路一段256巷3號","121.652083333333","25.07489","6501100","汐止區"
"221031","353-TW","2018/09/18 17:39:16","新北市汐止區汐萬路一段256巷1號","121.651786666667","25.07495","6501100","汐止區"
"242017","281-VK","2018/09/18 17:38:59","新北市新莊區中和街30巷11號","121.448825","25.0438466666667","6500500","新莊區"
"235061","KEA-2875","2018/09/18 17:24:08","新北市中和區員山路36巷16-2號","121.485248333333","24.9917033333333","6500300","中和區"
