"lineid","car","time","location","longitude","latitude","cityid","cityname"
"234026","9371-KE","2018/09/18 18:09:08","新北市永和區永和路一段1號","121.512961666667","25.0051366666667","6500400","永和區"
"234011","9373-KE","2018/09/18 17:45:51","新北市永和區福和路1號","121.525603333333","25.009365","6500400","永和區"
"249005","172-UM","2018/09/18 18:09:04","新北市八里區荖阡坑路17-12號","121.401741666667","25.1380016666667","6502300","八里區"
"249001","173-UM","2018/09/18 18:09:11","新北市八里區龍米路二段35號","121.448433333333","25.1400233333333","6502300","八里區"
"249004","303-UY","2018/09/18 18:09:18","新北市八里區龍米路二段150號","121.436635","25.1562966666667","6502300","八里區"
"249002","305-UY","2018/09/18 18:09:17","新北市八里區龍米路一段356巷46號","121.452126666667","25.1303083333333","6502300","八里區"
"249003","593-UM","2018/09/18 18:08:58","新北市八里區中華路二段165巷19弄10號","121.409561666667","25.151245","6502300","八里區"
"248014","025-BX","2018/09/18 18:09:04","新北市五股區成泰路一段218號","121.436476666667","25.079815","6501500","五股區"
"248006","077-UY","2018/09/18 18:09:12","新北市五股區中興路二段94號","121.460458333333","25.07746","6501500","五股區"
"248008","095-VK","2018/09/18 18:08:57","新北市蘆洲區永安南路二段356號","121.456065","25.082805","6501500","五股區"
"248020","225-UY","2018/09/18 18:09:05","新北市五股區凌雲路一段22巷11號","121.454018333333","25.1000366666667","6501500","五股區"
"248010","272-BY","2018/09/18 18:09:04","新北市五股區成泰路一段212號","121.436465","25.079185","6501500","五股區"
"248004","677-BX","2018/09/18 18:09:06","新北市五股區成泰路二段182號","121.438615","25.0845","6501500","五股區"
"248002","678-BX","2018/09/18 18:09:05","新北市五股區中興路三段198號","121.441211666667","25.0821466666667","6501500","五股區"
"232011","375-UM","2018/09/18 18:08:58","新北市坪林區國中路8號","121.713253333333","24.9396166666667","6502000","坪林區"
"244023","069-UM","2018/09/18 18:09:15","新北市林口區東湖路120號","121.384716666667","25.073435","6501700","林口區"
"244007","080-UY","2018/09/18 18:09:14","新北市林口區林口路124巷2號","121.388661666667","25.0816733333333","6501700","林口區"
"244019","403-UM","2018/09/18 18:09:04","新北市林口區麗園路89號","121.373011666667","25.0686183333333","6501700","林口區"
"244013","KEA-2802","2018/09/18 18:09:03","新北市林口區中正路525巷7號","121.382865","25.0769483333333","6501700","林口區"
"244017","485-VK","2018/09/18 18:09:00","新北市林口區文化一路一段35號","121.370388333333","25.0690916666667","6501700","林口區"
"244009","656-BX","2018/09/18 18:09:17","新北市林口區佳林路22號","121.386581666667","25.0824683333333","6501700","林口區"
"244011","657-BX","2018/09/18 18:09:04","新北市林口區中山路3號","121.396591666667","25.0781216666667","6501700","林口區"
"244025","837-TS","2018/09/18 18:09:06","新北市林口區文明街182號","121.360816666667","25.0724466666667","6501700","林口區"
"244021","838-TS","2018/09/18 18:09:02","新北市林口區自強四街2號","121.39883","25.0769983333333","6501700","林口區"
"243013","AAD-798","2018/09/18 18:09:13","新北市泰山區南林路93號","121.415503333333","25.051165","6501600","泰山區"
"222003","436-BY","2018/09/18 18:09:03","新北市深坑區阿柔洋47號","121.612215","24.9972716666667","6501800","深坑區"
"222002","659-BX","2018/09/18 18:09:07","新北市深坑區文化街52號","121.619","25.0015933333333","6501800","深坑區"
"231059","046-UY","2018/09/18 18:09:08","新北市新店區安華路28-1號","121.519486666667","24.9608083333333","6500600","新店區"
"231046","107-UY","2018/09/18 18:09:02","新北市新店區直潭七街60號","121.532266666667","24.93997","6500600","新店區"
"231052","108-UY","2018/09/18 18:09:10","新北市新店區安一路一段1-1號","121.519671666667","24.9610883333333","6500600","新店區"
"231057","256-BX","2018/09/18 18:09:08","新北市新店區安一路一段1-1號","121.519593333333","24.961115","6500600","新店區"
"231050","AAD-862","2018/09/18 18:09:05","新北市新店區安一路一段1-1號","121.519966666667","24.96124","6500600","新店區"
"231058","3713-VJ","2018/09/18 18:09:13","新北市新店區安華路1-1號","121.519145","24.9605866666667","6500600","新店區"
"231066","4716-K9","2018/09/18 18:09:08","新北市新店區安一路一段1-1號","121.5193","24.9611083333333","6500600","新店區"
"231056","4715-K9","2018/09/18 18:09:02","新北市新店區安康路一段164-1號","121.525955","24.9630283333333","6500600","新店區"
"231049","513-UM","2018/09/18 18:09:02","新北市新店區安一路一段1-1號","121.519576666667","24.9610833333333","6500600","新店區"
"231045","617-UM","2018/09/18 18:09:15","新北市新店區安華路28-1號","121.51949","24.96087","6500600","新店區"
"231061","619-UM","2018/09/18 18:09:02","新北市新店區安華路28-1號","121.519616666667","24.96081","6500600","新店區"
"231060","897-TW","2018/09/18 18:09:13","新北市新店區安華路28-1號","121.519696666667","24.9608616666667","6500600","新店區"
"231055","AKT-0513","2018/09/18 18:09:14","新北市新店區安華路28-1號","121.51954","24.960595","6500600","新店區"
"241024","065-VK","2018/09/18 18:09:11","新北市三重區中正北路193巷35弄39號","121.477641666667","25.0711866666667","6500200","三重區"
"251014","742-BX","2018/09/18 18:09:17","新北市淡水區南平15號","121.487428333333","25.21996","6501000","淡水區"
"241033","AAC-255","2018/09/18 18:09:08","新北市三重區中興北街52-5號","121.469263333333","25.050635","6500200","三重區"
"235064","005-UY","2018/09/18 18:09:11","新北市中和區中正路209號","121.497108333333","24.9936366666667","6500300","中和區"
"235063","006-UY","2018/09/18 18:08:57","新北市中和區員山路36巷16-3號","121.485066666667","24.9912966666667","6500300","中和區"
"235056","096-UM","2018/09/18 18:09:13","新北市中和區連城路469巷70弄2號","121.483415","24.9938716666667","6500300","中和區"
"235039","097-UM","2018/09/18 18:09:17","新北市中和區中正路637巷52弄1號","121.485471666667","24.9934733333333","6500300","中和區"
"235065","098-UM","2018/09/18 18:09:11","新北市中和區中山路二段2巷45弄1號","121.502273333333","25.0068766666667","6500300","中和區"
"235040","150-BY","2018/09/18 18:09:06","新北市中和區錦和路350-1號","121.490333333333","24.9935166666667","6500300","中和區"
"235058","151-BY","2018/09/18 18:09:13","新北市中和區圓通路367巷33弄15號","121.495118333333","24.985175","6500300","中和區"
"235042","KEA-2878","2018/09/18 18:09:05","新北市中和區景平路279-4號","121.50768","24.9930016666667","6500300","中和區"
"235050","4979-A6","2018/09/18 18:08:56","新北市中和區錦和路350-1號","121.490428333333","24.993565","6500300","中和區"
"235069","4980-A6","2018/09/18 18:09:00","新北市中和區景平路353號","121.504815","24.99341","6500300","中和區"
"235070","558-UM","2018/09/18 18:09:17","新北市中和區圓通路176號","121.496921666667","24.9944","6500300","中和區"
"235045","565-BX","2018/09/18 18:09:09","新北市中和區錦和路350-1號","121.49054","24.9936016666667","6500300","中和區"
"235054","640-BX","2018/09/18 18:09:08","新北市中和區連城路599號","121.478725","24.9932316666667","6500300","中和區"
"235047","732-UM","2018/09/18 18:09:17","新北市中和區錦和路350-1號","121.490255","24.9935833333333","6500300","中和區"
"235057","801-TS","2018/09/18 18:08:59","新北市中和區員山路36巷13號","121.484265","24.9907833333333","6500300","中和區"
"235052","805-TS","2018/09/18 18:09:00","新北市中和區中正路273號","121.495658333333","24.993725","6500300","中和區"
"235048","896-TW","2018/09/18 18:09:06","新北市中和區員山路36巷16-2號","121.485071666667","24.9918266666667","6500300","中和區"
"235053","900-TW","2018/09/18 18:09:06","新北市中和區和城路一段271巷1號","121.485333333333","24.99191","6500300","中和區"
"235051","157-BY","2018/09/18 18:09:11","新北市中和區板南路100號","121.503736666667","24.9923766666667","6500300","中和區"
"235037","AAC-213","2018/09/18 18:09:10","新北市中和區景平路149號","121.513716666667","24.9922866666667","6500300","中和區"
"226004","205-ST","2018/09/18 18:09:08","新北市平溪區靜安路二段196號","121.723376666667","25.0219566666667","6502400","平溪區"
"235062","251-BX","2018/09/18 18:09:04","新北市中和區連城路469巷11號","121.483603333333","24.9955766666667","6500300","中和區"
"228001","212-TW","2018/09/18 18:09:18","新北市貢寮區真理里新港街26巷55弄2-1號","121.927413333333","25.05291","6502600","貢寮區"
"228002","663-BX","2018/09/18 18:09:11","新北市貢寮區福連里馬崗街1號","121.997856666667","25.0165816666667","6502600","貢寮區"
"228003","828-UM","2018/09/18 18:09:13","新北市貢寮區真理里美艷山街6-2號","121.92885","25.06072","6502600","貢寮區"
"224010","AGQ-8101","2018/09/18 17:58:59","新北市瑞芳區金光路334號","121.848533333333","25.1100016666667","6501200","瑞芳區"
"224006","676-BX","2018/09/18 18:09:06","新北市瑞芳區中山路67號","121.8041","25.10611","6501200","瑞芳區"
"224002","639-TC","2018/09/18 18:09:09","新北市瑞芳區三爪子坑路199號","121.811416666667","25.1057816666667","6501200","瑞芳區"
"224008","285-BY","2018/09/18 18:09:01","新北市瑞芳區員山子路3-9號","121.820266666667","25.1038833333333","6501200","瑞芳區"
"224007","275-VK","2018/09/18 18:09:04","新北市瑞芳區四腳亭坑路2-3號","121.776133333333","25.1091433333333","6501200","瑞芳區"
"224009","273-VK","2018/09/18 18:09:02","新北市瑞芳區金光路213號","121.852413333333","25.1074083333333","6501200","瑞芳區"
"224005","271-BY","2018/09/18 18:08:04","新北市瑞芳區深澳路63號","121.81789","25.12944","6501200","瑞芳區"
"227009","642-TC","2018/09/18 18:09:15","新北市雙溪區三貂里定福路1-2號","121.850756666667","25.063435","6502500","雙溪區"
"253006","032-BX","2018/09/18 18:08:59","新北市石門區老梅路52巷25弄2-1號","121.546701666667","25.287475","6502200","石門區"
"253005","295-VK","2018/09/18 18:09:03","新北市石門區福安街19號","121.568643333333","25.29258","6502200","石門區"
"222001","KEA-2212","2018/09/18 18:09:10","新北市深坑區北深路二段186號","121.614026666667","25.00228","6501800","深坑區"
"208002","KEA-2872","2018/09/18 18:08:59","新北市金山區三界壇路111巷20-3號","121.617255","25.2318116666667","6502700","金山區"
"208003","665-BX","2018/09/18 18:09:11","新北市金山區磺港里磺港路11號","121.649658333333","25.2305866666667","6502700","金山區"
"208001","761-BX","2018/09/18 18:09:16","新北市金山區磺港里磺港路107號","121.646601666667","25.2269683333333","6502700","金山區"
"251004","009-UM","2018/09/18 18:09:04","新北市淡水區民權路187巷64號","121.461303333333","25.1341283333333","6501000","淡水區"
"251005","010-UM","2018/09/18 18:08:57","新北市淡水區水源街一段120號","121.447226666667","25.1718133333333","6501000","淡水區"
"251013","KEA-2871","2018/09/18 18:09:16","新北市淡水區竹圍子10號","121.476075","25.1945166666667","6501000","淡水區"
"251016","179-VK","2018/09/18 18:09:16","新北市淡水區下圭柔山15-5號","121.452136666667","25.20152","6501000","淡水區"
"251015","180-VK","2018/09/18 18:09:00","新北市淡水區興福寮88巷1號","121.485321666667","25.16502","6501000","淡水區"
"251008","181-VK","2018/09/18 18:09:13","新北市淡水區坪頂路70巷41號","121.460701666667","25.1604083333333","6501000","淡水區"
"251010","413-VK","2018/09/18 18:09:00","新北市淡水區中正路二段50巷10號","121.419898333333","25.183375","6501000","淡水區"
"251012","441-VK","2018/09/18 18:09:14","新北市淡水區北新路三段171號","121.491281666667","25.1912783333333","6501000","淡水區"
"251001","559-UM","2018/09/18 18:09:15","新北市淡水區自立路1巷27號","121.462616666667","25.1295983333333","6501000","淡水區"
"251006","561-UM","2018/09/18 18:09:14","新北市淡水區新民街92號","121.43832","25.17674","6501000","淡水區"
"251009","575-R6","2018/09/18 18:09:00","新北市淡水區大忠街34巷11號","121.443818333333","25.17563","6501000","淡水區"
"251011","650-BX","2018/09/18 18:09:18","新北市淡水區三空泉9-2號","121.474088333333","25.16355","6501000","淡水區"
"251002","672-BX","2018/09/18 18:09:04","新北市淡水區中正東路一段127巷2號","121.455358333333","25.1591733333333","6501000","淡水區"
"251003","766-UM","2018/09/18 18:09:11","新北市淡水區大忠街113巷20號","121.44728","25.1774216666667","6501000","淡水區"
"207004","681-TV","2018/09/18 18:09:15","新北市萬里區中幅里中福路93號","121.675528333333","25.1697883333333","6502800","萬里區"
"207003","550-UM","2018/09/18 18:09:15","新北市萬里區野柳里港西路70-3號","121.68543","25.20483","6502800","萬里區"
"252002","178-VK","2018/09/18 18:09:07","新北市三芝區中山路二段32號","121.502898333333","25.2552583333333","6502100","三芝區"
"252003","249-BX","2018/09/18 18:09:17","新北市三芝區埔頭里埔頭39-3號","121.499551666667","25.261125","6502100","三芝區"
"252001","292-VK","2018/09/18 18:09:12","新北市三芝區中興街二段6號","121.498518333333","25.2566333333333","6502100","三芝區"
"237007","153-BY","2018/09/18 18:09:14","新北市三峽區中正路二段327號","121.36609","24.91019","6500900","三峽區"
"237009","210-TH","2018/09/18 18:09:03","新北市三峽區大仁路48號","121.36542","24.9375616666667","6500900","三峽區"
"237013","252-BX","2018/09/18 18:09:10","新北市三峽區長泰街18巷2號","121.378798333333","24.9316416666667","6500900","三峽區"
"237012","275-BY","2018/09/18 18:09:16","新北市三峽區民生街1巷6-8號","121.377155","24.9357683333333","6500900","三峽區"
"237008","302-VK","2018/09/18 18:09:13","新北市三峽區白雞42-3號","121.378843333333","24.9113883333333","6500900","三峽區"
"237014","433-BY","2018/09/18 18:09:05","新北市三峽區復興路110巷4弄14號","121.373366666667","24.9382783333333","6500900","三峽區"
"237006","5529-G3","2018/09/18 18:09:10","新北市三峽區介壽路二段138巷1弄88號","121.397996666667","24.9322933333333","6500900","三峽區"
"237011","KEA-2596","2018/09/18 18:09:00","新北市三峽區介壽路一段550號","121.387165","24.9334866666667","6500900","三峽區"
"237016","649-BX","2018/09/18 18:09:03","新北市三峽區紫新路32巷3號","121.422415","24.9218333333333","6500900","三峽區"
"237010","706-TV","2018/09/18 18:09:14","新北市三峽區民權街200號","121.36772","24.9292616666667","6500900","三峽區"
"237005","AKY-6261","2018/09/18 18:09:02","新北市三峽區和平街24-3號","121.37025","24.9363916666667","6500900","三峽區"
"236070","105-UM","2018/09/18 18:09:13","新北市土城區石門路15號","121.459318333333","24.96764","6501300","土城區"
"236042","107-UM","2018/09/18 18:09:09","新北市土城區中華路二段2號","121.43939","24.97964","6501300","土城區"
"236079","166-UM","2018/09/18 18:09:02","新北市土城區永寧路29號","121.430448333333","24.9633133333333","6501300","土城區"
"236030","253-BX","2018/09/18 18:09:02","新北市土城區城林路6巷80號","121.438668333333","24.9796583333333","6501300","土城區"
"236026","269-VK","2018/09/18 18:09:01","新北市土城區承天路67號","121.439458333333","24.96361","6501300","土城區"
"236014","270-VK","2018/09/18 18:09:06","新北市土城區學府路一段208號","121.452438333333","24.9853566666667","6501300","土城區"
"236038","271-VK","2018/09/18 18:09:00","新北市土城區明德路一段369號","121.455745","24.9778816666667","6501300","土城區"
"236021","401-BY","2018/09/18 18:09:05","新北市土城區城林路6巷80號","121.438496666667","24.9797033333333","6501300","土城區"
"236059","912-UM","2018/09/18 18:09:11","新北市土城區中央路四段208號","121.416011666667","24.9574983333333","6501300","土城區"
"236049","913-UM","2018/09/18 18:09:01","新北市土城區明德路一段365-1號","121.453578333333","24.9790466666667","6501300","土城區"
"236063","915-UM","2018/09/18 18:09:03","新北市土城區金城路二段8-1號","121.44851","24.9767633333333","6501300","土城區"
"236055","AAC-216","2018/09/18 18:09:00","新北市土城區中華路二段111號","121.439","24.9770783333333","6501300","土城區"
"242037","AAC-296","2018/09/18 18:09:06","新北市新莊區後港一路49巷5弄2號","121.425573333333","25.0272866666667","6500500","新莊區"
"242058","986-R7","2018/09/18 18:09:10","新北市新莊區壽山路49-2號","121.41441","25.0309333333333","6500500","新莊區"
"242056","751-BX","2018/09/18 18:09:02","新北市新莊區豐年街豐1巷37號","121.447778333333","25.03128","6500500","新莊區"
"242025","705-TV","2018/09/18 18:09:10","新北市新莊區五權一路100號","121.459558333333","25.0676616666667","6500500","新莊區"
"242027","615-BX","2018/09/18 18:09:18","新北市新莊區幸福路565號","121.45423","25.0492533333333","6500500","新莊區"
"242029","612-BX","2018/09/18 18:09:04","新北市新莊區中平路158號","121.444768333333","25.0474783333333","6500500","新莊區"
"242044","566-BX","2018/09/18 18:09:08","新北市新莊區雙鳳路135號","121.412906666667","25.0274066666667","6500500","新莊區"
"242048","497-BY","2018/09/18 18:09:17","新北市新莊區民安路98巷13號","121.423476666667","25.025385","6500500","新莊區"
"242054","442-UM","2018/09/18 18:09:11","新北市新莊區西盛街410號","121.427365","25.0123816666667","6500500","新莊區"
"242002","440-UM","2018/09/18 18:09:10","新北市新莊區新莊路59號","121.458421666667","25.037085","6500500","新莊區"
"242039","415-TV","2018/09/18 18:09:09","新北市新莊區民安西路38巷35號","121.426386666667","25.0203066666667","6500500","新莊區"
"242009","413-TV","2018/09/18 18:09:07","新北市新莊區昌平街71巷15號","121.453725","25.0536016666667","6500500","新莊區"
"242046","400-BY","2018/09/18 18:09:00","新北市新莊區中正路653-2號","121.429708333333","25.0302533333333","6500500","新莊區"
"242023","362-BY","2018/09/18 18:09:04","新北市泰山區泰林路一段4號","121.442013333333","25.0480983333333","6500500","新莊區"
"242061","353-BY","2018/09/18 18:09:09","新北市新莊區新樹路447號","121.43266","25.0135333333333","6500500","新莊區"
"242011","132-UY","2018/09/18 18:09:12","新北市新莊區中信街92號","121.447953333333","25.05353","6500500","新莊區"
"242042","133-UY","2018/09/18 18:09:14","新北市新莊區天祥街133號","121.413991666667","25.029765","6500500","新莊區"
"242034","135-UY","2018/09/18 18:09:08","新北市新莊區新莊路462號","121.447198333333","25.0334766666667","6500500","新莊區"
"242051","172-VK","2018/09/18 18:09:08","新北市新莊區民本街23巷19號","121.42922","25.0197633333333","6500500","新莊區"
"242019","175-VK","2018/09/18 18:09:01","新北市新莊區公園路129-1號","121.456808333333","25.0408116666667","6500500","新莊區"
"242007","176-VK","2018/09/18 18:09:07","新北市新莊區自強街37巷3號","121.454385","25.0465516666667","6500500","新莊區"
"242005","347-TH","2018/09/18 18:09:07","新北市新莊區中華路二段40號","121.454148333333","25.0455833333333","6500500","新莊區"
"242032","348-TH","2018/09/18 18:09:14","新北市新莊區新泰路255巷5號","121.445793333333","25.039765","6500500","新莊區"
"242021","350-TH","2018/09/18 18:09:02","新北市新莊區新興街45巷10號","121.450155","25.0392433333333","6500500","新莊區"
"242015","351-TH","2018/09/18 18:09:16","新北市新莊區中平路152巷45號","121.446683333333","25.0474483333333","6500500","新莊區"
"238015","755-BX","2018/09/18 18:09:12","新北市樹林區大安路325號","121.417418333333","24.9917766666667","6500700","樹林區"
"238023","601-UM","2018/09/18 18:09:05","新北市樹林區三福街85巷8號","121.407053333333","25.0154133333333","6500700","樹林區"
"238019","599-UM","2018/09/18 18:09:15","新北市樹林區仁愛街101號","121.424883333333","24.98347","6500700","樹林區"
"238018","571-TV","2018/09/18 18:09:09","新北市板橋區大觀路三段236-6號","121.429325","24.9924783333333","6500700","樹林區"
"238022","KEA-2213","2018/09/18 18:09:06","新北市樹林區太平路174巷32弄5號","121.417233333333","24.9766633333333","6500700","樹林區"
"238021","KEA-2539","2018/09/18 18:09:16","新北市樹林區柑園街二段123號","121.384266666667","24.9548483333333","6500700","樹林區"
"238025","303-VK","2018/09/18 18:09:12","新北市樹林區保安街一段329號","121.41732","24.9986483333333","6500700","樹林區"
"238017","283-BY","2018/09/18 18:09:14","新北市樹林區三俊街2號","121.41075","25.0152283333333","6500700","樹林區"
"238014","282-BY","2018/09/18 18:09:14","新北市樹林區潭興街91巷16號","121.424168333333","24.9990216666667","6500700","樹林區"
"238020","268-VK","2018/09/18 18:09:17","新北市樹林區三俊街199巷35-2號","121.420738333333","25.018005","6500700","樹林區"
"238026","172-UY","2018/09/18 18:09:17","新北市樹林區佳園路一段50號","121.392871666667","24.970735","6500700","樹林區"
"238016","169-UY","2018/09/18 18:09:12","新北市樹林區中山路一段242巷6號","121.420743333333","24.9878366666667","6500700","樹林區"
"239007","AAC-297","2018/09/18 18:09:08","新北市鶯歌區尖山埔路147號","121.346473333333","24.9510516666667","6500800","鶯歌區"
"239006","891-R6","2018/09/18 18:09:12","新北市鶯歌區鶯桃路381巷2弄13號","121.332865","24.96367","6500800","鶯歌區"
"239008","527-UM","2018/09/18 18:09:13","新北市鶯歌區國際一路179號","121.336241666667","24.97655","6500800","鶯歌區"
"239005","526-UM","2018/09/18 18:09:06","新北市鶯歌區鳳七路101巷20號","121.329398333333","24.9706866666667","6500800","鶯歌區"
"239001","417-VK","2018/09/18 18:09:15","新北市鶯歌區中正三路福德巷2弄26號","121.339228333333","24.9410083333333","6500800","鶯歌區"
"239003","360-BY","2018/09/18 18:09:16","新北市鶯歌區福安街9巷1號","121.335178333333","24.96495","6500800","鶯歌區"
"239002","359-BY","2018/09/18 18:09:14","新北市鶯歌區國慶街48號","121.349763333333","24.9554666666667","6500800","鶯歌區"
"239004","193-VK","2018/09/18 18:09:01","新北市鶯歌區尖山路174巷17號","121.344565","24.9481033333333","6500800","鶯歌區"
"221008","489-VK","2018/09/18 18:09:03","新北市汐止區康寧街309號","121.627191666667","25.0674433333333","6501100","汐止區"
"221036","130-UY","2018/09/18 18:09:16","新北市汐止區大同路三段99號","121.668151666667","25.0774833333333","6501100","汐止區"
"221015","131-UY","2018/09/18 18:09:08","新北市汐止區鄉長路二段26巷2-4號","121.668306666667","25.0830916666667","6501100","汐止區"
"221010","269-BY","2018/09/18 18:09:05","新北市汐止區汐萬路二段256號","121.645916666667","25.08921","6501100","汐止區"
"221012","278-VK","2018/09/18 18:09:00","新北市汐止區保一街39號","121.67425","25.0800266666667","6501100","汐止區"
"221023","279-VK","2018/09/18 18:09:06","新北市汐止區中興路295號","121.627905","25.07015","6501100","汐止區"
"221032","280-BY","2018/09/18 18:09:07","新北市汐止區力行街39巷1號","121.616696666667","25.0501366666667","6501100","汐止區"
"221027","281-BY","2018/09/18 18:09:15","新北市汐止區大同路二段585號","121.66362","25.0702583333333","6501100","汐止區"
"221029","298-VK","2018/09/18 18:09:00","新北市汐止區樟樹二路134號","121.639986666667","25.065635","6501100","汐止區"
"221021","299-VK","2018/09/18 18:09:04","新北市汐止區龍安路202巷30號","121.652565","25.0633633333333","6501100","汐止區"
"221031","353-TW","2018/09/18 18:09:16","新北市汐止區中興路151號","121.63132","25.06589","6501100","汐止區"
"221035","622-UM","2018/09/18 18:09:19","新北市汐止區大同路二段187巷6弄1號","121.652413333333","25.0654133333333","6501100","汐止區"
"221025","623-UM","2018/09/18 18:09:18","新北市汐止區勤進路1號","121.66038","25.0620916666667","6501100","汐止區"
"221038","646-BX","2018/09/18 18:09:09","新北市汐止區環山路6號","121.65781","25.060145","6501100","汐止區"
"221002","707-TV","2018/09/18 18:08:56","新北市汐止區福德一路215號","121.63469","25.0652566666667","6501100","汐止區"
"221018","753-BX","2018/09/18 18:09:01","新北市汐止區忠孝東路355號","121.665675","25.07058","6501100","汐止區"
"235061","KEA-2875","2018/09/18 18:09:02","新北市中和區員山路72-2號","121.481136666667","24.9936566666667","6500300","中和區"
"235038","KEA-2876","2018/09/18 18:08:37","新北市中和區景平路256號","121.515363333333","24.9924333333333","6500300","中和區"
