"lineid","car","time","location","longitude","latitude","cityid","cityname"
"234046","148-BY","2018/09/18 18:29:27","新北市永和區福和路1號","121.525588333333","25.0094583333333","6500400","永和區"
"234086","338-UY","2018/09/18 18:29:29","新北市永和區福和路8巷3號","121.525001666667","25.009105","6500400","永和區"
"234030","746-BX","2018/09/18 18:29:33","新北市永和區福和路1號","121.526286666667","25.009575","6500400","永和區"
"234061","AAD-866","2018/09/18 18:29:43","新北市永和區福和路1號","121.526113333333","25.0095483333333","6500400","永和區"
"234026","9371-KE","2018/09/18 18:29:48","新北市永和區中山路一段47號","121.513111666667","25.0105683333333","6500400","永和區"
"234011","9373-KE","2018/09/18 18:29:32","新北市永和區保安路132號","121.508973333333","25.0153466666667","6500400","永和區"
"249005","172-UM","2018/09/18 18:29:43","新北市八里區中華路三段134號","121.392026666667","25.1343783333333","6502300","八里區"
"249001","173-UM","2018/09/18 18:29:31","新北市八里區龍米路一段140號","121.453016666667","25.1256733333333","6502300","八里區"
"249004","303-UY","2018/09/18 18:29:38","新北市八里區忠孝路86號","121.426058333333","25.160435","6502300","八里區"
"249002","305-UY","2018/09/18 18:29:37","新北市八里區龍形三街26號","121.44794","25.131685","6502300","八里區"
"248014","025-BX","2018/09/18 18:29:44","新北市五股區明德路18號","121.43302","25.07148","6501500","五股區"
"248006","077-UY","2018/09/18 18:29:44","新北市五股區四維路44號","121.467288333333","25.0719866666667","6501500","五股區"
"248008","095-VK","2018/09/18 18:29:38","新北市五股區四維路185巷46號","121.46341","25.07749","6501500","五股區"
"248020","225-UY","2018/09/18 18:29:45","新北市五股區孝義路80號","121.44967","25.1147666666667","6501500","五股區"
"248012","247-BX","2018/09/18 18:29:31","新北市五股區御史路8號","121.442188333333","25.09042","6501500","五股區"
"248016","261-SL","2018/09/18 18:29:37","新北市五股區凌雲路一段83巷7弄2號","121.449821666667","25.1007183333333","6501500","五股區"
"248010","272-BY","2018/09/18 18:29:44","新北市五股區明德路6-11號","121.433981666667","25.0716283333333","6501500","五股區"
"248004","677-BX","2018/09/18 18:29:46","新北市五股區民義路一段152號","121.433135","25.0874733333333","6501500","五股區"
"248002","678-BX","2018/09/18 18:29:45","新北市五股區西雲路115號","121.444183333333","25.0932216666667","6501500","五股區"
"234077","969-R7","2018/09/18 18:29:28","新北市永和區環河東路二段100號","121.524538333333","25.01054","6500400","永和區"
"244023","069-UM","2018/09/18 18:29:35","新北市林口區仁愛路二段62巷16號","121.38413","25.0760516666667","6501700","林口區"
"244007","080-UY","2018/09/18 18:29:40","新北市林口區後湖2-16號","121.389143333333","25.0969266666667","6501700","林口區"
"244019","403-UM","2018/09/18 18:29:44","新北市林口區忠孝路646巷2號","121.379025","25.0681016666667","6501700","林口區"
"244013","KEA-2802","2018/09/18 18:29:43","新北市林口區中山路130號","121.392165","25.07868","6501700","林口區"
"244017","485-VK","2018/09/18 18:29:40","新北市林口區八德路62號","121.365936666667","25.06567","6501700","林口區"
"244009","656-BX","2018/09/18 18:29:37","新北市林口區文化三路二段291-12號","121.378071666667","25.086705","6501700","林口區"
"244011","657-BX","2018/09/18 18:29:43","新北市林口區中山路158號","121.390701666667","25.0787866666667","6501700","林口區"
"244025","837-TS","2018/09/18 18:29:26","新北市林口區南勢六街81巷12號","121.354416666667","25.0720866666667","6501700","林口區"
"244021","838-TS","2018/09/18 18:29:39","新北市林口區自強三街11號","121.397581666667","25.0778783333333","6501700","林口區"
"243013","AAD-798","2018/09/18 18:26:44","新北市泰山區明志路三段206巷3號","121.423306666667","25.0379116666667","6501600","泰山區"
"243012","539-UM","2018/09/18 18:29:36","新北市泰山區泰林路二段550號","121.423231666667","25.0637483333333","6501600","泰山區"
"222003","436-BY","2018/09/18 18:29:43","新北市深坑區烏月路56-1號","121.631225","25.0057116666667","6501800","深坑區"
"222002","659-BX","2018/09/18 18:29:27","新北市深坑區雲鄉路150號","121.623266666667","24.9980233333333","6501800","深坑區"
"231041","002-UM","2018/09/18 18:29:43","新北市新店區安華路28-1號","121.519598333333","24.9608383333333","6500600","新店區"
"231059","046-UY","2018/09/18 18:29:28","新北市新店區安華路28-1號","121.519505","24.960795","6500600","新店區"
"231040","047-UY","2018/09/18 18:29:32","新北市新店區安康路一段92-1號","121.527833333333","24.9619833333333","6500600","新店區"
"231044","106-UY","2018/09/18 18:29:31","新北市新店區安華路28-1號","121.519666666667","24.9608516666667","6500600","新店區"
"231046","107-UY","2018/09/18 18:29:43","新北市新店區直潭路93號","121.53219","24.9398616666667","6500600","新店區"
"231048","187-VK","2018/09/18 18:29:40","新北市新店區安一路一段1-1號","121.51955","24.9610866666667","6500600","新店區"
"231054","KEA-2219","2018/09/18 18:29:28","新北市新店區安一路一段1-1號","121.519691666667","24.96111","6500600","新店區"
"231057","256-BX","2018/09/18 18:29:48","新北市新店區北新路一段89號","121.53879","24.96147","6500600","新店區"
"231042","268-BY","2018/09/18 18:29:44","新北市新店區安華路1-1號","121.519603333333","24.9603366666667","6500600","新店區"
"231051","278-BY","2018/09/18 18:29:37","新北市新店區安一路一段1-1號","121.519608333333","24.961155","6500600","新店區"
"231050","AAD-862","2018/09/18 18:29:45","新北市新店區安一路一段1-1號","121.51976","24.9611616666667","6500600","新店區"
"231058","3713-VJ","2018/09/18 18:29:33","新北市新店區環河路19巷27號","121.537636666667","24.9597166666667","6500600","新店區"
"231066","4716-K9","2018/09/18 18:29:28","新北市新店區安一路一段1-1號","121.519221666667","24.9612383333333","6500600","新店區"
"231056","4715-K9","2018/09/18 18:29:42","新北市新店區二十張路129巷5弄3號","121.536623333333","24.9787716666667","6500600","新店區"
"231067","4772-VM","2018/09/18 18:29:35","新北市新店區安華路28-1號","121.519335","24.9606116666667","6500600","新店區"
"231065","512-UM","2018/09/18 18:29:45","新北市新店區安一路一段1-1號","121.519441666667","24.9612183333333","6500600","新店區"
"231049","513-UM","2018/09/18 18:29:42","新北市新店區安一路一段1-1號","121.519606666667","24.9611033333333","6500600","新店區"
"231063","616-UM","2018/09/18 18:29:26","新北市新店區安華路1-1號","121.51939","24.9604983333333","6500600","新店區"
"231045","617-UM","2018/09/18 18:29:35","新北市新店區安華路28-1號","121.519411666667","24.9608033333333","6500600","新店區"
"231061","619-UM","2018/09/18 18:29:41","新北市新店區安華路28-1號","121.519445","24.9607266666667","6500600","新店區"
"231064","719-UM","2018/09/18 18:29:47","新北市新店區安一路一段1-1號","121.519531666667","24.9612066666667","6500600","新店區"
"231062","720-UM","2018/09/18 18:29:38","新北市新店區安一路一段1-1號","121.51912","24.9612316666667","6500600","新店區"
"231060","897-TW","2018/09/18 18:29:33","新北市新店區安華路28-1號","121.519533333333","24.9606383333333","6500600","新店區"
"231043","899-TW","2018/09/18 18:29:42","新北市新店區安華路28-1號","121.519211666667","24.9607533333333","6500600","新店區"
"231055","AKT-0513","2018/09/18 18:29:34","新北市新店區中正路187號","121.54079","24.9722266666667","6500600","新店區"
"251014","742-BX","2018/09/18 18:29:37","新北市淡水區南平28號","121.492816666667","25.2158633333333","6501000","淡水區"
"235066","003-UY","2018/09/18 18:29:46","新北市中和區中山路二段120號","121.502713333333","25.0037983333333","6500300","中和區"
"235064","005-UY","2018/09/18 18:29:31","新北市中和區連城路139巷48號","121.496676666667","24.9974716666667","6500300","中和區"
"235063","006-UY","2018/09/18 18:29:37","新北市中和區連城路347巷43號","121.488635","24.9947816666667","6500300","中和區"
"235056","096-UM","2018/09/18 18:29:33","新北市中和區員山路611巷1號","121.477943333333","25.0112683333333","6500300","中和區"
"235039","097-UM","2018/09/18 18:29:37","新北市中和區安平路202號","121.513428333333","24.999495","6500300","中和區"
"235065","098-UM","2018/09/18 18:29:30","新北市中和區中山路二段64巷14弄2號","121.503443333333","25.0055183333333","6500300","中和區"
"235040","150-BY","2018/09/18 18:29:46","新北市中和區安平路59號","121.509575","24.994975","6500300","中和區"
"235058","151-BY","2018/09/18 18:29:46","新北市中和區圓通路369巷30弄54號","121.488606666667","24.9846116666667","6500300","中和區"
"235055","183-VK","2018/09/18 18:29:40","新北市中和區莒光路118號","121.4725","25.0018616666667","6500300","中和區"
"235049","186-VK","2018/09/18 18:29:30","新北市中和區景安路130號","121.505183333333","24.9943733333333","6500300","中和區"
"235067","255-BX","2018/09/18 18:29:32","新北市中和區連城路469巷79弄2號","121.483535","24.9937216666667","6500300","中和區"
"235072","301-VK","2018/09/18 18:29:38","新北市中和區連城路125號","121.496016666667","24.9991666666667","6500300","中和區"
"235043","352-BY","2018/09/18 18:29:46","新北市中和區景平路301號","121.50666","24.99316","6500300","中和區"
"235042","KEA-2878","2018/09/18 18:29:45","新北市中和區景平路64巷26號","121.522396666667","24.991545","6500300","中和區"
"235050","4979-A6","2018/09/18 18:29:36","新北市中和區安樂路2巷2號","121.511766666667","24.9915116666667","6500300","中和區"
"235069","4980-A6","2018/09/18 18:29:40","新北市中和區連城路127巷27號","121.497095","24.9976283333333","6500300","中和區"
"235070","558-UM","2018/09/18 18:29:37","新北市中和區景平路566號","121.501943333333","24.99541","6500300","中和區"
"235045","565-BX","2018/09/18 18:29:29","新北市中和區南山路236巷24弄22號","121.504883333333","24.9890533333333","6500300","中和區"
"235054","640-BX","2018/09/18 18:29:39","新北市中和區民享街86巷1號","121.474461666667","25.0008883333333","6500300","中和區"
"235047","732-UM","2018/09/18 18:29:37","新北市中和區南山路250巷2號","121.507641666667","24.9890166666667","6500300","中和區"
"235046","733-UM","2018/09/18 18:29:19","新北市中和區南山路273號","121.504005","24.9923516666667","6500300","中和區"
"235057","801-TS","2018/09/18 18:29:39","新北市中和區民安街71號","121.478323333333","24.9997383333333","6500300","中和區"
"235041","802-TS","2018/09/18 18:29:47","新北市中和區景新街170號","121.505865","24.9966083333333","6500300","中和區"
"235052","805-TS","2018/09/18 18:29:40","新北市中和區興南路二段94號","121.505236666667","24.9843066666667","6500300","中和區"
"235048","896-TW","2018/09/18 18:29:46","新北市中和區中正路83號","121.500651666667","24.9934066666667","6500300","中和區"
"235053","900-TW","2018/09/18 18:29:46","新北市中和區連城路518巷1號","121.476398333333","24.9918166666667","6500300","中和區"
"235060","911-UM","2018/09/18 18:29:35","新北市中和區員山路481號","121.480058333333","25.00537","6500300","中和區"
"235051","157-BY","2018/09/18 18:29:31","新北市中和區興南路二段142巷37弄1號","121.502213333333","24.9846233333333","6500300","中和區"
"235037","AAC-213","2018/09/18 18:29:50","新北市中和區景德街95-9號","121.51516","24.9912866666667","6500300","中和區"
"235059","AAC-215","2018/09/18 18:29:30","新北市中和區員山路36巷16-3號","121.485118333333","24.9911","6500300","中和區"
"220065","072-UY","2018/09/18 18:29:46","新北市板橋區四川路一段387號","121.458086666667","24.99919","6500100","板橋區"
"220069","AAD-861","2018/09/18 18:29:42","新北市板橋區華東街1-10號","121.448703333333","24.9949583333333","6500100","板橋區"
"226004","205-ST","2018/09/18 18:29:28","新北市平溪區白石里白石腳211號","121.7278","25.0223716666667","6502400","平溪區"
"235062","251-BX","2018/09/18 18:29:44","新北市中和區景平路989巷6號","121.495136666667","25.0051483333333","6500300","中和區"
"228001","212-TW","2018/09/18 18:29:38","新北市貢寮區仁理村仁和路72號","121.922715","25.0499583333333","6502600","貢寮區"
"228002","663-BX","2018/09/18 18:29:51","新北市貢寮區福連里香蘭街11號","121.979188333333","25.02334","6502600","貢寮區"
"228003","828-UM","2018/09/18 18:29:34","新北市貢寮區和美里和美街40號","121.912383333333","25.0894133333333","6502600","貢寮區"
"224006","676-BX","2018/09/18 18:29:46","新北市瑞芳區明燈路二段38號","121.810105","25.1074983333333","6501200","瑞芳區"
"224002","639-TC","2018/09/18 18:29:29","新北市瑞芳區三爪子坑路29巷29號","121.813725","25.10675","6501200","瑞芳區"
"224008","285-BY","2018/09/18 18:29:46","新北市瑞芳區岳王路1巷41號","121.80559","25.11039","6501200","瑞芳區"
"224007","275-VK","2018/09/18 18:29:44","新北市瑞芳區大埔路吉慶公園城32號","121.764413333333","25.0997616666667","6501200","瑞芳區"
"224009","273-VK","2018/09/18 18:29:42","新北市瑞芳區五號路306-4號","121.857251666667","25.1116683333333","6501200","瑞芳區"
"224005","271-BY","2018/09/18 18:29:44","新北市瑞芳區瑞濱路103號","121.82037","25.1204183333333","6501200","瑞芳區"
"227009","642-TC","2018/09/18 18:29:38","新北市雙溪區牡丹里牡丹137-1號","121.851143333333","25.0589566666667","6502500","雙溪區"
"227003","400-TW","2018/09/18 18:29:41","新北市雙溪區魚行里坤溪21-1號","121.870871666667","25.0273383333333","6502500","雙溪區"
"253006","032-BX","2018/09/18 18:29:39","新北市石門區公地47號","121.545373333333","25.290035","6502200","石門區"
"253005","295-VK","2018/09/18 18:29:43","新北市石門區海園路37號","121.556428333333","25.2911966666667","6502200","石門區"
"222001","KEA-2212","2018/09/18 18:29:50","新北市深坑區北深路一段199號","121.630408333333","25.0089733333333","6501800","深坑區"
"208002","KEA-2872","2018/09/18 18:29:39","新北市金山區民生路21-5號","121.643931666667","25.2221466666667","6502700","金山區"
"208003","665-BX","2018/09/18 18:29:31","新北市金山區中山路116號","121.639375","25.2198983333333","6502700","金山區"
"208001","761-BX","2018/09/18 18:29:36","新北市金山區溫泉路21巷1號","121.637805","25.2228516666667","6502700","金山區"
"251004","009-UM","2018/09/18 18:29:44","新北市淡水區民族路31巷29號","121.462235","25.1365033333333","6501000","淡水區"
"251005","010-UM","2018/09/18 18:29:42","新北市淡水區中山路138號","121.44151","25.1712216666667","6501000","淡水區"
"251013","KEA-2871","2018/09/18 18:29:32","新北市淡水區奎柔山路1266號","121.483525","25.20547","6501000","淡水區"
"251016","179-VK","2018/09/18 18:29:36","新北市淡水區下圭柔山105-1號","121.44392","25.2092416666667","6501000","淡水區"
"251015","180-VK","2018/09/18 18:29:40","新北市淡水區興福寮88巷216號","121.485975","25.1665966666667","6501000","淡水區"
"251008","181-VK","2018/09/18 18:29:33","新北市淡水區北投子86-5號","121.469113333333","25.1824916666667","6501000","淡水區"
"251010","413-VK","2018/09/18 18:29:40","新北市淡水區沙崙路181巷1號","121.424106666667","25.184165","6501000","淡水區"
"251012","441-VK","2018/09/18 18:29:34","新北市淡水區北新路一段157號","121.45872","25.1822733333333","6501000","淡水區"
"251001","559-UM","2018/09/18 18:29:35","新北市淡水區自強路373號","121.464508333333","25.1333283333333","6501000","淡水區"
"251006","561-UM","2018/09/18 18:29:34","新北市淡水區大信街13-1號","121.441825","25.1765466666667","6501000","淡水區"
"251011","650-BX","2018/09/18 18:29:38","新北市淡水區中正東路81巷1號","121.447691666667","25.16706","6501000","淡水區"
"251002","672-BX","2018/09/18 18:29:44","新北市淡水區竿蓁二街19巷15號","121.45275","25.164235","6501000","淡水區"
"251003","766-UM","2018/09/18 18:29:31","新北市淡水區北新路169巷14號","121.449736666667","25.1801566666667","6501000","淡水區"
"207004","681-TV","2018/09/18 18:29:40","新北市萬里區萬里里瑪鋉路162號","121.690071666667","25.179705","6502800","萬里區"
"207003","550-UM","2018/09/18 18:29:35","新北市萬里區野柳里港東路153號","121.68945","25.2050666666667","6502800","萬里區"
"252002","178-VK","2018/09/18 18:29:26","新北市三芝區中山路二段35號","121.502913333333","25.2552116666667","6502100","三芝區"
"252003","249-BX","2018/09/18 18:29:37","新北市三芝區後厝里北勢子42-11號","121.471256666667","25.2520916666667","6502100","三芝區"
"252001","292-VK","2018/09/18 18:29:32","新北市三芝區中興街二段6號","121.498541666667","25.25653","6502100","三芝區"
"237007","153-BY","2018/09/18 18:29:34","新北市三峽區中正路三段70巷9號","121.355901666667","24.9043783333333","6500900","三峽區"
"237009","210-TH","2018/09/18 18:29:43","新北市三峽區大同路202-1號","121.367885","24.92768","6500900","三峽區"
"237013","252-BX","2018/09/18 18:29:30","新北市三峽區光明路69巷25號","121.37659","24.9291216666667","6500900","三峽區"
"237012","275-BY","2018/09/18 18:29:36","新北市三峽區三樹路168巷11號","121.379253333333","24.94066","6500900","三峽區"
"237008","302-VK","2018/09/18 18:29:32","新北市三峽區白雞68-251號","121.390925","24.9077066666667","6500900","三峽區"
"237014","433-BY","2018/09/18 18:29:45","新北市三峽區復興路179-3號","121.369178333333","24.9388533333333","6500900","三峽區"
"237006","5529-G3","2018/09/18 18:29:30","新北市三峽區溪東路473巷29號","121.414905","24.9291166666667","6500900","三峽區"
"237011","KEA-2596","2018/09/18 18:29:40","新北市三峽區溪東路365號","121.411583333333","24.9293683333333","6500900","三峽區"
"237016","649-BX","2018/09/18 18:29:43","新北市三峽區紫微南路5號","121.425333333333","24.9201916666667","6500900","三峽區"
"237010","706-TV","2018/09/18 18:29:45","新北市三峽區中山路276號","121.361301666667","24.9378366666667","6500900","三峽區"
"237005","AKY-6261","2018/09/18 18:29:41","新北市三峽區清水街342號","121.370975","24.933715","6500900","三峽區"
"236070","105-UM","2018/09/18 18:29:33","新北市土城區永豐路255巷27弄37號","121.476601666667","24.9736833333333","6501300","土城區"
"236042","107-UM","2018/09/18 18:29:49","新北市土城區裕民路67巷4弄12號","121.450153333333","24.987685","6501300","土城區"
"236079","166-UM","2018/09/18 18:29:48","新北市土城區大暖路57號","121.422335","24.9585933333333","6501300","土城區"
"236030","253-BX","2018/09/18 18:29:41","新北市土城區水源街67號","121.439908333333","24.9763183333333","6501300","土城區"
"236026","269-VK","2018/09/18 18:29:41","新北市土城區南天母路135巷24號","121.449313333333","24.95472","6501300","土城區"
"236014","270-VK","2018/09/18 18:29:26","新北市土城區青雲路39巷7號","121.460301666667","24.9874633333333","6501300","土城區"
"236038","271-VK","2018/09/18 18:29:40","新北市土城區青雲路449號","121.458715","24.97515","6501300","土城區"
"236021","401-BY","2018/09/18 18:29:45","新北市土城區永豐路202巷14號","121.466261666667","24.983395","6501300","土城區"
"236059","912-UM","2018/09/18 18:29:31","新北市土城區中央路四段144號","121.417361666667","24.95844","6501300","土城區"
"236049","913-UM","2018/09/18 18:29:42","新北市土城區青雲路461號","121.458708333333","24.97436","6501300","土城區"
"236063","915-UM","2018/09/18 18:29:43","新北市土城區延壽路41號","121.470826666667","24.991465","6501300","土城區"
"236055","AAC-216","2018/09/18 18:29:40","新北市土城區中華路二段1號","121.439545","24.9788666666667","6501300","土城區"
"242058","986-R7","2018/09/18 18:29:30","新北市新莊區中正路897-10號","121.411583333333","25.0216483333333","6500500","新莊區"
"242025","705-TV","2018/09/18 18:29:29","新北市新莊區中原路656號","121.443785","25.054395","6500500","新莊區"
"242044","566-BX","2018/09/18 18:29:48","新北市新莊區中山路三段656號","121.413488333333","25.02405","6500500","新莊區"
"242054","442-UM","2018/09/18 18:29:43","新北市樹林區樹新路120巷20號","121.43058","24.99682","6500500","新莊區"
"242009","413-TV","2018/09/18 18:29:47","新北市新莊區新泰路347巷3號","121.444116666667","25.042035","6500500","新莊區"
"242046","400-BY","2018/09/18 18:29:40","新北市新莊區中正路803巷25號","121.4219","25.0278033333333","6500500","新莊區"
"242061","353-BY","2018/09/18 18:29:42","新北市新莊區新樹路73號","121.437693333333","25.0277233333333","6500500","新莊區"
"242011","132-UY","2018/09/18 18:29:32","新北市新莊區中榮街99號","121.44499","25.052795","6500500","新莊區"
"242042","133-UY","2018/09/18 18:29:34","新北市新莊區天祥街116號","121.414663333333","25.0299983333333","6500500","新莊區"
"242005","347-TH","2018/09/18 18:29:46","新北市新莊區三和路12-21號","121.442141666667","25.0381183333333","6500500","新莊區"
"242021","350-TH","2018/09/18 18:29:39","新北市新莊區新泰路357巷3弄37號","121.44196","25.0403783333333","6500500","新莊區"
"238015","755-BX","2018/09/18 18:29:37","新北市樹林區啟智街131號","121.417436666667","24.9885983333333","6500700","樹林區"
"238023","601-UM","2018/09/18 18:29:45","新北市樹林區三寶街2號","121.406515","25.0162133333333","6500700","樹林區"
"238019","599-UM","2018/09/18 18:29:40","新北市樹林區中華路74號","121.419478333333","24.98142","6500700","樹林區"
"238018","571-TV","2018/09/18 18:29:49","新北市樹林區樹新路50巷1號","121.429118333333","24.9965916666667","6500700","樹林區"
"238024","5061-A6","2018/09/18 18:29:37","新北市樹林區中山路一段149-3號","121.422095","24.9892","6500700","樹林區"
"238025","303-VK","2018/09/18 18:29:31","新北市樹林區中山路三段129號","121.396466666667","24.9731766666667","6500700","樹林區"
"238017","283-BY","2018/09/18 18:29:31","新北市樹林區保安街二段337巷9-1號","121.41112","25.00826","6500700","樹林區"
"238014","282-BY","2018/09/18 18:29:34","新北市樹林區大安路111巷25號","121.423171666667","24.9974883333333","6500700","樹林區"
"238020","268-VK","2018/09/18 18:29:37","新北市樹林區三龍街94巷1號","121.414448333333","25.018325","6500700","樹林區"
"238026","172-UY","2018/09/18 18:29:37","新北市樹林區佳園路一段75巷104號","121.396561666667","24.9705216666667","6500700","樹林區"
"238016","169-UY","2018/09/18 18:29:32","新北市樹林區文化街28號","121.419375","24.98778","6500700","樹林區"
"239007","AAC-297","2018/09/18 18:29:28","新北市鶯歌區中正一路221號","121.35413","24.9572016666667","6500800","鶯歌區"
"239006","891-R6","2018/09/18 18:29:31","新北市鶯歌區鶯桃路296巷51號","121.335786666667","24.961395","6500800","鶯歌區"
"239008","527-UM","2018/09/18 18:29:33","新北市鶯歌區國際一路179號","121.336268333333","24.9765333333333","6500800","鶯歌區"
"239005","526-UM","2018/09/18 18:29:46","新北市鶯歌區鳳吉二街138號","121.328411666667","24.97475","6500800","鶯歌區"
"239001","417-VK","2018/09/18 18:29:34","新北市鶯歌區二橋街7號","121.336793333333","24.9395116666667","6500800","鶯歌區"
"239003","360-BY","2018/09/18 18:29:37","新北市鶯歌區永和街126號","121.334748333333","24.9693783333333","6500800","鶯歌區"
"239002","359-BY","2018/09/18 18:29:34","新北市鶯歌區中正一路240號","121.35429","24.95686","6500800","鶯歌區"
"239004","193-VK","2018/09/18 18:29:41","新北市鶯歌區中正三路194巷30號","121.330983333333","24.9414016666667","6500800","鶯歌區"
"221008","489-VK","2018/09/18 18:29:43","新北市汐止區康寧街901號","121.651336666667","25.07482","6501100","汐止區"
"221036","130-UY","2018/09/18 18:29:36","新北市汐止區南昌街21號","121.663425","25.0693266666667","6501100","汐止區"
"221015","131-UY","2018/09/18 18:29:28","新北市汐止區鄉友街48號","121.669113333333","25.0817483333333","6501100","汐止區"
"221010","269-BY","2018/09/18 18:29:45","新北市汐止區瑞松街18巷9號","121.645223333333","25.1047283333333","6501100","汐止區"
"221012","278-VK","2018/09/18 18:29:40","新北市汐止區保長路51巷15號","121.673956666667","25.0790483333333","6501100","汐止區"
"221023","279-VK","2018/09/18 18:29:46","新北市汐止區康寧街518-1號","121.634171666667","25.0688566666667","6501100","汐止區"
"221032","280-BY","2018/09/18 18:29:27","新北市汐止區福山街58巷15號","121.618306666667","25.0459866666667","6501100","汐止區"
"221027","281-BY","2018/09/18 18:29:45","新北市汐止區和平街69號","121.661491666667","25.070655","6501100","汐止區"
"221029","298-VK","2018/09/18 18:29:40","新北市汐止區樟樹一路272-7號","121.642681666667","25.0688966666667","6501100","汐止區"
"221021","299-VK","2018/09/18 18:29:44","新北市汐止區復興路53巷2號","121.656921666667","25.06257","6501100","汐止區"
"221031","353-TW","2018/09/18 18:29:16","新北市汐止區光復街8巷23-1號","121.637948333333","25.0571566666667","6501100","汐止區"
"221035","622-UM","2018/09/18 18:29:39","新北市汐止區大同路二段45號","121.648078333333","25.0625266666667","6501100","汐止區"
"221025","623-UM","2018/09/18 18:29:34","新北市汐止區仁愛路120號","121.662888333333","25.0638466666667","6501100","汐止區"
"221038","646-BX","2018/09/18 18:29:29","新北市汐止區秀峰路6巷4號","121.659126666667","25.0666983333333","6501100","汐止區"
"221002","707-TV","2018/09/18 18:29:47","新北市汐止區福德一路171號","121.636036666667","25.0662066666667","6501100","汐止區"
"221018","753-BX","2018/09/18 18:29:41","新北市汐止區茄苳路250巷7號","121.671421666667","25.0679666666667","6501100","汐止區"
"220079","145-BY","2018/09/18 18:29:36","新北市板橋區華東街1-10號","121.448355","24.99502","6500100","板橋區"
"220071","283-VK","2018/09/18 18:29:46","新北市板橋區華東街1-9號","121.448081666667","24.9949183333333","6500100","板橋區"
"220083","286-VK","2018/09/18 18:29:37","新北市板橋區華東街1-10號","121.448348333333","24.9948583333333","6500100","板橋區"
"220023","303-R5","2018/09/18 18:29:44","新北市板橋區華東街1-10號","121.44865","24.99501","6500100","板橋區"
"220064","486-VK","2018/09/18 18:29:24","新北市板橋區華東街11號","121.451266666667","24.9982733333333","6500100","板橋區"
"220035","560-BX","2018/09/18 18:29:30","新北市板橋區南雅南路二段20號","121.45446","25.0031883333333","6500100","板橋區"
"220084","568-UM","2018/09/18 18:29:43","新北市板橋區華東街1-10號","121.448503333333","24.9949416666667","6500100","板橋區"
"220077","687-BX","2018/09/18 18:29:29","新北市板橋區華東街1-10號","121.448371666667","24.9949716666667","6500100","板橋區"
"220073","985-R7","2018/09/18 18:29:37","新北市板橋區華東街1-10號","121.448286666667","24.9949816666667","6500100","板橋區"
"235068","KEA-2873","2018/09/18 18:29:33","新北市中和區中正路637巷60弄61號","121.485475","24.99294","6500300","中和區"
"235061","KEA-2875","2018/09/18 18:29:32","新北市中和區國光街34號","121.471193333333","25.0003383333333","6500300","中和區"
"235038","KEA-2876","2018/09/18 18:29:37","新北市中和區立人街61號","121.520175","24.994175","6500300","中和區"
