"lineid","car","time","location","longitude","latitude","cityid","cityname"
"244018","403-UM","2018/09/18 20:50:56","新北市林口區粉寮路二段88巷100-12號","121.409575","25.090205","6501700","林口區"
"231059","046-UY","2018/09/18 20:59:20","新北市新店區僑信路112號","121.500278333333","24.9467233333333","6500600","新店區"
"231040","047-UY","2018/09/18 20:59:12","新北市新店區中正路181號","121.540793333333","24.972205","6500600","新店區"
"231053","108-UY","2018/09/18 20:59:10","新北市新店區安康路一段222號","121.523758333333","24.9635333333333","6500600","新店區"
"231048","187-VK","2018/09/18 20:59:00","新北市新店區寶元路一段109號","121.545706666667","24.9831266666667","6500600","新店區"
"231054","KEA-2219","2018/09/18 20:59:08","新北市新店區大新街7巷1號","121.543201666667","24.9685083333333","6500600","新店區"
"231057","256-BX","2018/09/18 20:59:09","新北市新店區安康路一段206號","121.524145","24.9634266666667","6500600","新店區"
"231042","268-BY","2018/09/18 20:59:03","新北市新店區寶橋路99號","121.547605","24.9764566666667","6500600","新店區"
"231051","278-BY","2018/09/18 20:59:17","新北市新店區中正路663巷7弄15號","121.532921666667","24.990055","6500600","新店區"
"231050","AAD-862","2018/09/18 20:59:11","新北市新店區三民路75巷3弄1號","121.53575","24.9710616666667","6500600","新店區"
"231058","3713-VJ","2018/09/18 20:59:13","新北市新店區安康路二段414巷2號","121.495823333333","24.95778","6500600","新店區"
"231066","4716-K9","2018/09/18 20:59:08","新北市新店區吉安街10號","121.516795","24.965715","6500600","新店區"
"231067","4772-VM","2018/09/18 20:59:15","新北市新店區安德街120巷20號","121.50836","24.9606383333333","6500600","新店區"
"231065","512-UM","2018/09/18 20:59:05","新北市新店區安祥路67巷9號","121.484193333333","24.9598016666667","6500600","新店區"
"231049","513-UM","2018/09/18 20:59:02","新北市新店區安光路10-1號","121.513743333333","24.9638833333333","6500600","新店區"
"231063","616-UM","2018/09/18 20:59:06","新北市新店區如意街9巷21號","121.495915","24.9482333333333","6500600","新店區"
"231061","619-UM","2018/09/18 20:59:21","新北市新店區永安街109巷11號","121.521455","24.9859533333333","6500600","新店區"
"231068","718-UY","2018/09/18 20:59:04","新北市新店區寶元路二段64巷1號","121.547263333333","24.981065","6500600","新店區"
"231064","719-UM","2018/09/18 20:57:46","新北市新店區安民街303巷9弄2號","121.51687","24.9733866666667","6500600","新店區"
"231062","720-UM","2018/09/18 20:59:18","新北市新店區裕合街116號","121.490296666667","24.94909","6500600","新店區"
"231060","897-TW","2018/09/18 20:59:12","新北市新店區安康路三段455號","121.482938333333","24.9495633333333","6500600","新店區"
"231043","899-TW","2018/09/18 20:59:01","新北市新店區中央路218號","121.529778333333","24.9730583333333","6500600","新店區"
"241011","013-R5","2018/09/18 20:59:17","新北市三重區介壽路26號","121.499808333333","25.0721","6500200","三重區"
"241028","022-UY","2018/09/18 20:59:03","新北市三重區重新路二段51-1號","121.497143333333","25.0619033333333","6500200","三重區"
"241008","059-VK","2018/09/18 20:59:19","新北市三重區力行路二段160號","121.482653333333","25.0765716666667","6500200","三重區"
"241022","060-VK","2018/09/18 20:59:07","新北市三重區中正北路20巷12號","121.487963333333","25.0624966666667","6500200","三重區"
"241015","062-VK","2018/09/18 20:59:19","新北市三重區福德北路63號","121.502121666667","25.0655566666667","6500200","三重區"
"241017","063-VK","2018/09/18 20:58:59","新北市三重區大仁街23號","121.492088333333","25.0645616666667","6500200","三重區"
"241024","065-VK","2018/09/18 20:59:11","新北市三重區大勇街82巷15弄30號","121.481276666667","25.0719766666667","6500200","三重區"
"241026","066-VK","2018/09/18 20:59:12","新北市三重區文化南路45號","121.500238333333","25.061425","6500200","三重區"
"241002","090-VK","2018/09/18 20:59:17","新北市三重區五華街5號","121.49545","25.079935","6500200","三重區"
"251014","742-BX","2018/09/18 20:59:17","新北市淡水區溪口28號","121.455058333333","25.2367116666667","6501000","淡水區"
"241005","262-UM","2018/09/18 20:59:15","新北市三重區五華街213號","121.489506666667","25.085615","6500200","三重區"
"241019","265-UM","2018/09/18 20:59:01","新北市三重區三張街115-1號","121.487963333333","25.0699966666667","6500200","三重區"
"241016","266-UM","2018/09/18 20:59:18","新北市三重區自強路一段125號","121.495276666667","25.0664716666667","6500200","三重區"
"241009","267-UM","2018/09/18 20:59:18","新北市三重區三和路四段386號","121.482435","25.078975","6500200","三重區"
"241018","268-UM","2018/09/18 20:59:15","新北市三重區雙園街97號","121.493833333333","25.0672633333333","6500200","三重區"
"241032","269-UM","2018/09/18 20:59:15","新北市三重區興華街129號","121.483288333333","25.059925","6500200","三重區"
"241013","270-UM","2018/09/18 20:59:05","新北市三重區仁賢街12-1號","121.49567","25.074865","6500200","三重區"
"241007","398-BY","2018/09/18 20:59:17","新北市三重區三和路四段155巷33號","121.484873333333","25.0786033333333","6500200","三重區"
"241004","475-VK","2018/09/18 20:59:04","新北市三重區仁愛街423-1號","121.490356666667","25.0814516666667","6500200","三重區"
"241030","480-VK","2018/09/18 20:59:15","新北市三重區中正南路252巷5號","121.49343","25.052725","6500200","三重區"
"241014","543-UM","2018/09/18 20:59:10","新北市三重區長榮路75號","121.502586666667","25.0691133333333","6500200","三重區"
"241023","545-UM","2018/09/18 20:59:05","新北市三重區忠孝路三段84巷63號","121.482315","25.0637383333333","6500200","三重區"
"241001","547-UM","2018/09/18 20:57:55","新北市三重區自強路三段87巷25號","121.488468333333","25.0750283333333","6500200","三重區"
"241006","AAD-863","2018/09/18 20:59:04","新北市三重區永福街52號","121.481705","25.07809","6500200","三重區"
"241031","743-BX","2018/09/18 20:59:03","新北市三重區重陽路一段113巷2弄2號","121.48733","25.0599516666667","6500200","三重區"
"241020","887-TS","2018/09/18 20:59:00","新北市三重區忠孝路二段34號","121.485776666667","25.0710333333333","6500200","三重區"
"241012","941-UM","2018/09/18 20:59:19","新北市三重區仁信街27號","121.501273333333","25.0755516666667","6500200","三重區"
"241029","942-UM","2018/09/18 20:59:17","新北市三重區正義南路111號","121.498243333333","25.058545","6500200","三重區"
"241033","AAC-255","2018/09/18 20:59:17","新北市三重區光復路二段2號","121.472138333333","25.0532516666667","6500200","三重區"
"247012","KEA-2869","2018/09/18 20:59:17","新北市蘆洲區民權路6號","121.476983333333","25.08553","6501400","蘆洲區"
"235069","4980-A6","2018/09/18 20:59:02","新北市中和區中正路637巷17號","121.484876666667","24.99463","6500300","中和區"
"247002","893-R6","2018/09/18 20:59:22","新北市蘆洲區永樂街38巷39號","121.458328333333","25.0895283333333","6501400","蘆洲區"
"247016","546-UM","2018/09/18 20:59:17","新北市蘆洲區正和街81號","121.468218333333","25.0807983333333","6501400","蘆洲區"
"247024","500-BY","2018/09/18 20:59:22","新北市蘆洲區光明路20號","121.461173333333","25.086395","6501400","蘆洲區"
"247014","339-TH","2018/09/18 20:59:15","新北市蘆洲區中山二路36巷25號","121.474241666667","25.0830366666667","6501400","蘆洲區"
"247006","337-TH","2018/09/18 20:59:07","新北市蘆洲區永安南路二段16巷8號","121.467878333333","25.07726","6501400","蘆洲區"
"247008","336-TH","2018/09/18 20:59:10","新北市蘆洲區民生街76號","121.47282","25.0791183333333","6501400","蘆洲區"
"247020","057-VK","2018/09/18 20:59:08","新北市蘆洲區民族路488號","121.471111666667","25.0912466666667","6501400","蘆洲區"
"247010","056-VK","2018/09/18 20:59:15","新北市蘆洲區鷺江街76號","121.476901666667","25.0838716666667","6501400","蘆洲區"
"247018","007-UY","2018/09/18 20:59:16","新北市蘆洲區民權路136-2號","121.473111666667","25.0888316666667","6501400","蘆洲區"
"247004","002-UY","2018/09/18 20:59:21","新北市蘆洲區永安南路二段268號","121.458658333333","25.08076","6501400","蘆洲區"
"247022","001-UY","2018/09/18 20:59:14","新北市蘆洲區中正路198-1號","121.466858333333","25.0883833333333","6501400","蘆洲區"
"222001","KEA-2212","2018/09/18 20:59:10","新北市深坑區北深路三段25巷15號","121.608985","25.00052","6501800","深坑區"
"251005","010-UM","2018/09/18 20:59:02","新北市淡水區學府路51巷2弄16號","121.448085","25.1699683333333","6501000","淡水區"
"251013","KEA-2871","2018/09/18 20:59:12","新北市淡水區番子厝11號","121.461813333333","25.2017416666667","6501000","淡水區"
"251016","179-VK","2018/09/18 20:59:15","新北市淡水區牛埔子11-1號","121.450198333333","25.2184683333333","6501000","淡水區"
"251015","180-VK","2018/09/18 20:59:00","新北市淡水區淡金路四段542巷17號","121.452783333333","25.22709","6501000","淡水區"
"251010","413-VK","2018/09/18 20:59:20","新北市淡水區中正路一段116-3號","121.423906666667","25.1787566666667","6501000","淡水區"
"251012","441-VK","2018/09/18 20:59:14","新北市淡水區淡金路五段116-1號","121.456555","25.236935","6501000","淡水區"
"251001","559-UM","2018/09/18 20:59:15","新北市淡水區北投子14-3號","121.449448333333","25.1829766666667","6501000","淡水區"
"251007","577-R6","2018/09/18 20:59:09","新北市淡水區仁愛街2巷11號","121.446125","25.170595","6501000","淡水區"
"251011","650-BX","2018/09/18 20:59:17","新北市淡水區新民街一段8巷10號","121.434633333333","25.1839666666667","6501000","淡水區"
"251002","672-BX","2018/09/18 20:59:14","新北市淡水區英專路45號","121.445681666667","25.1706366666667","6501000","淡水區"
"251003","766-UM","2018/09/18 20:59:11","新北市淡水區新春街125巷11號","121.44139","25.1825416666667","6501000","淡水區"
"242058","986-R7","2018/09/18 20:59:18","新北市板橋區金門街215巷121-1號","121.433813333333","24.98604","6500500","新莊區"
"242027","615-BX","2018/09/18 20:59:11","新北市樹林區八德街491-8號","121.4027","24.9693366666667","6500500","新莊區"
"242054","442-UM","2018/09/18 20:59:10","新北市樹林區八德街800號","121.395293333333","24.9688466666667","6500500","新莊區"
"242039","415-TV","2018/09/18 20:59:09","新北市樹林區太平路269號","121.419653333333","24.9731283333333","6500500","新莊區"
"242042","133-UY","2018/09/18 20:59:14","新北市板橋區大觀路三段50巷49號","121.432341666667","24.9957316666667","6500500","新莊區"
"221018","753-BX","2018/09/18 20:59:01","新北市汐止區汐萬路一段256巷1號","121.651918333333","25.0748283333333","6501100","汐止區"
"220070","AAC-253","2018/09/18 20:58:57","新北市林口區太平里180號","121.368366666667","25.13449","6500100","板橋區"
