"lineid","car","time","location","longitude","latitude","cityid","cityname"
"241022","060-VK","2018/09/18 22:00:07","新北市五股區凌雲路一段25號","121.4523","25.0998166666667","6500200","三重區"
"241033","AAC-255","2018/09/18 21:59:57","新北市八里區下罟子17-1號","121.380891666667","25.1398333333333","6500200","三重區"
"247012","KEA-2869","2018/09/18 21:59:57","新北市林口區太平里180號","121.366708333333","25.134035","6501400","蘆洲區"
"251004","009-UM","2018/09/18 22:00:11","新北市淡水區自強路51號","121.459145","25.1300783333333","6501000","淡水區"
"251005","010-UM","2018/09/18 22:00:06","新北市淡水區鄧公路30巷1弄65號","121.454488333333","25.1696266666667","6501000","淡水區"
"251008","181-VK","2018/09/18 21:59:58","新北市淡水區學府路104號","121.449858333333","25.17176","6501000","淡水區"
"251010","413-VK","2018/09/18 21:59:59","新北市淡水區中正路二段215號","121.42627","25.1893166666667","6501000","淡水區"
"251007","577-R6","2018/09/18 22:00:09","新北市淡水區北新路184巷60號","121.45113","25.1776433333333","6501000","淡水區"
"251011","650-BX","2018/09/18 21:59:57","新北市淡水區水碓街7號","121.443165","25.177095","6501000","淡水區"
