"lineid","car","time","location","longitude","latitude","cityid","cityname"
"248005","653-BX","2018/10/11 08:28:53","新北市五股區明德路12巷3號","121.433315","25.071785","6501500","五股區"
"232001","290-BY","2018/10/11 08:27:10","新北市坪林區粗石斛6-1號","121.749223333333","24.9525616666667","6502000","坪林區"
"232014","291-BY","2018/10/11 08:28:42","新北市坪林區北宜路七段338號","121.696913333333","24.93489","6502000","坪林區"
"244022","069-UM","2018/10/11 08:28:52","新北市林口區東明一街15巷8號","121.39286","25.0723416666667","6501700","林口區"
"244006","080-UY","2018/10/11 08:28:48","新北市林口區湖子20號","121.385775","25.0924916666667","6501700","林口區"
"244003","248-BX","2018/10/11 08:28:48","新北市林口區下福里15鄰74號","121.309683333333","25.114995","6501700","林口區"
"244018","403-UM","2018/10/11 08:28:55","新北市林口區公園路223巷30號","121.373248333333","25.0748933333333","6501700","林口區"
"244012","KEA-2802","2018/10/11 08:28:55","新北市林口區中山路248-1號","121.386261666667","25.0794033333333","6501700","林口區"
"244016","485-VK","2018/10/11 08:28:56","新北市林口區忠孝路372號","121.369255","25.0714883333333","6501700","林口區"
"244008","656-BX","2018/10/11 08:28:54","新北市林口區寶林路103號","121.3838","25.08517","6501700","林口區"
"244010","701-TV","2018/10/11 08:28:41","新北市林口區中正路255號","121.390563333333","25.0776333333333","6501700","林口區"
"244024","837-TS","2018/10/11 08:28:44","新北市林口區文化三路一段179號","121.361966666667","25.0695366666667","6501700","林口區"
"244020","838-TS","2018/10/11 08:28:47","新北市林口區中山路2-2號","121.396796666667","25.078705","6501700","林口區"
"222006","289-BY","2018/10/11 08:28:47","新北市深坑區萬福路161號","121.612455","25.0155316666667","6501800","深坑區"
"231069","189-VK","2018/10/11 08:28:53","新北市新店區新潭路二段2號","121.527861666667","24.9271083333333","6500600","新店區"
"231008","192-VK","2018/10/11 08:28:54","新北市新店區新烏路三段99巷4-1號","121.55279","24.9025466666667","6500600","新店區"
"235001","611-BX","2018/10/11 08:28:54","新北市中和區中正路575號","121.486435","24.9944516666667","6500300","中和區"
"226005","5620-A6","2018/10/11 08:28:45","新北市平溪區南山里六分9號","121.796506666667","25.0497916666667","6502400","平溪區"
"226007","7418-A5","2018/10/11 08:28:54","新北市平溪區東勢里芊蓁林61號","121.750053333333","25.00534","6502400","平溪區"
"226003","AGD-0702","2018/10/11 08:28:53","新北市平溪區靜安路三段392巷3號","121.784268333333","25.0504116666667","6502400","平溪區"
"223006","022-BY","2018/10/11 08:08:02","新北市石碇區十八重溪16號","121.677116666667","25.0113816666667","6501900","石碇區"
"223002","KEA-2673","2018/10/11 08:28:50","新北市石碇區烏塗窟11號","121.655386666667","24.9746216666667","6501900","石碇區"
"223008","406-TH","2018/10/11 08:28:44","新北市石碇區靜安路一段194號","121.67218","25.0062616666667","6501900","石碇區"
"223004","437-BY","2018/10/11 08:28:37","新北市石碇區石碇東街20號","121.660525","24.990975","6501900","石碇區"
"223001","592-UM","2018/10/11 08:28:47","新北市石碇區北宜路六段柑腳巷3-1號","121.65906","24.9378266666667","6501900","石碇區"
"223005","677-TV","2018/10/11 08:28:47","新北市石碇區石碇東街22號","121.660465","24.9910333333333","6501900","石碇區"
"252004","249-BX","2018/10/11 08:28:57","新北市三芝區興華里車埕6號","121.501293333333","25.2016316666667","6502100","三芝區"
"252007","AAC-283","2018/10/11 08:28:44","新北市三芝區蘭陽街13-1號","121.473555","25.2424683333333","6502100","三芝區"
"237001","159-UY","2018/10/11 08:28:46","新北市三峽區三樹路279號","121.379033333333","24.9432183333333","6500900","三峽區"
"242035","AAC-296","2018/10/11 08:28:51","新北市新莊區後港一路63號","121.426446666667","25.0266333333333","6500500","新莊區"
"242057","986-R7","2018/10/11 08:28:48","新北市新莊區天祥街120巷3弄16號","121.414236666667","25.0305633333333","6500500","新莊區"
"242055","751-BX","2018/10/11 08:28:38","新北市新莊區豐年街124巷18號","121.44546","25.029825","6500500","新莊區"
"242028","705-TV","2018/10/11 08:28:53","新北市新莊區中平路190號","121.444725","25.0481066666667","6500500","新莊區"
"242026","615-BX","2018/10/11 08:28:48","新北市新莊區思源路357號","121.459746666667","25.0506933333333","6500500","新莊區"
"242024","613-BX","2018/10/11 08:28:51","新北市新莊區五權一路22號","121.457228333333","25.0652233333333","6500500","新莊區"
"242043","566-BX","2018/10/11 08:28:51","新北市新莊區新北大道七段339號","121.412898333333","25.027585","6500500","新莊區"
"242047","497-BY","2018/10/11 08:28:46","新北市新莊區萬安街67巷14號","121.422028333333","25.0237333333333","6500500","新莊區"
"242014","442-UM","2018/10/11 08:28:50","新北市新莊區中平路127號","121.444605","25.0470216666667","6500500","新莊區"
"242052","441-UM","2018/10/11 08:28:41","新北市新莊區民安西路470-1號","121.431676666667","25.0078116666667","6500500","新莊區"
"242008","413-TV","2018/10/11 08:28:48","新北市新莊區中華路二段210巷20號","121.45358","25.05246","6500500","新莊區"
"242045","400-BY","2018/10/11 08:28:49","新北市新莊區福營路165巷21號","121.432545","25.0305966666667","6500500","新莊區"
"242022","362-BY","2018/10/11 08:28:45","新北市新莊區幸福東路52號","121.465455","25.0493666666667","6500500","新莊區"
"242059","353-BY","2018/10/11 08:28:41","新北市新莊區新樹路233號","121.435086666667","25.0225533333333","6500500","新莊區"
"242010","132-UY","2018/10/11 08:28:35","新北市新莊區中榮街56巷12號","121.449196666667","25.0536533333333","6500500","新莊區"
"242040","133-UY","2018/10/11 08:28:53","新北市新莊區天祥街135巷8弄1號","121.413683333333","25.0293533333333","6500500","新莊區"
"242033","135-UY","2018/10/11 08:28:44","新北市新莊區景德路389號","121.445875","25.0333766666667","6500500","新莊區"
"242049","172-VK","2018/10/11 08:28:53","新北市新莊區民本街43巷23號","121.42924","25.0184016666667","6500500","新莊區"
"242012","173-VK","2018/10/11 08:28:54","新北市新莊區中泰街109號","121.448596666667","25.04651","6500500","新莊區"
"242018","175-VK","2018/10/11 08:28:42","新北市新莊區公園路224號","121.456668333333","25.0406366666667","6500500","新莊區"
"242006","176-VK","2018/10/11 08:28:53","新北市新莊區中華路二段83-1號","121.45264","25.0487333333333","6500500","新莊區"
"242016","346-TH","2018/10/11 08:28:35","新北市新莊區中和街52號","121.448148333333","25.044575","6500500","新莊區"
"242001","347-TH","2018/10/11 08:28:52","新北市新莊區新莊路1號","121.45942","25.0379433333333","6500500","新莊區"
"242030","348-TH","2018/10/11 08:28:58","新北市新莊區新泰路289巷43號","121.443628333333","25.04028","6500500","新莊區"
"242003","349-TH","2018/10/11 08:28:57","新北市新莊區自由街6號","121.455745","25.0478483333333","6500500","新莊區"
"242020","350-TH","2018/10/11 08:28:52","新北市新莊區中華路一段63巷42號","121.449883333333","25.0392516666667","6500500","新莊區"
"242038","281-VK","2018/10/11 08:28:39","新北市新莊區民安西路24巷13號","121.426368333333","25.02093","6500500","新莊區"
