"lineid","car","time","location","longitude","latitude","cityid","cityname"
"248005","653-BX","2018/10/11 09:28:45","新北市五股區水碓一路7號","121.432255","25.0728216666667","6501500","五股區"
"244022","069-UM","2018/10/11 09:28:52","新北市林口區仁愛路二段102號","121.383485","25.075","6501700","林口區"
"244006","080-UY","2018/10/11 09:28:48","新北市林口區中湖62號","121.384735","25.1008266666667","6501700","林口區"
"244018","403-UM","2018/10/11 09:28:55","新北市林口區忠孝路646巷70號","121.379631666667","25.067085","6501700","林口區"
"244012","KEA-2802","2018/10/11 09:28:58","新北市林口區麗園一街11巷11號","121.378898333333","25.070595","6501700","林口區"
"244016","485-VK","2018/10/11 09:28:56","新北市林口區文化二路一段156號","121.368401666667","25.071435","6501700","林口區"
"244008","656-BX","2018/10/11 09:28:54","新北市林口區竹林路330巷14號","121.39194","25.083","6501700","林口區"
"244010","701-TV","2018/10/11 09:28:41","新北市林口區中興街3號","121.388948333333","25.077465","6501700","林口區"
"244024","837-TS","2018/10/11 09:28:44","新北市林口區文化三路一段555巷18號","121.370125","25.077015","6501700","林口區"
"222006","289-BY","2018/10/11 09:28:47","新北市深坑區昇高坑路46號","121.628121666667","24.9990833333333","6501800","深坑區"
"231069","189-VK","2018/10/11 09:28:41","新北市新店區新潭路三段215巷25號","121.50822","24.9042183333333","6500600","新店區"
"231008","192-VK","2018/10/11 09:28:54","新北市新店區平廣路一段151號","121.522213333333","24.891355","6500600","新店區"
"235064","031-BX","2018/10/11 09:28:44","新北市中和區泰和街12號","121.49989","25.0010616666667","6500300","中和區"
"235001","611-BX","2018/10/11 09:28:54","新北市中和區莒光路222-8號","121.46891","24.9950333333333","6500300","中和區"
"226003","AGD-0702","2018/10/11 09:28:53","新北市平溪區平溪里三坑路1-2號","121.741406666667","25.02887","6502400","平溪區"
"223006","022-BY","2018/10/11 09:28:41","新北市石碇區石崁14-1號","121.655216666667","24.9943033333333","6501900","石碇區"
"223008","406-TH","2018/10/11 09:28:55","新北市石碇區頭7號","121.707561666667","24.9977283333333","6501900","石碇區"
"223004","437-BY","2018/10/11 09:28:57","新北市石碇區碇坪路二段22號","121.687","24.974105","6501900","石碇區"
"223005","677-TV","2018/10/11 09:28:40","新北市石碇區大崙18號","121.683731666667","24.9787116666667","6501900","石碇區"
"252004","249-BX","2018/10/11 09:28:37","新北市三芝區店子里店子118-1號","121.509993333333","25.20952","6502100","三芝區"
"252007","AAC-283","2018/10/11 09:28:44","新北市三芝區新庄里新庄子86號","121.510978333333","25.2711133333333","6502100","三芝區"
"237001","159-UY","2018/10/11 09:28:46","新北市樹林區柑園街二段276巷26-1號","121.372975","24.9562683333333","6500900","三峽區"
"242035","AAC-296","2018/10/11 09:27:55","新北市新莊區建福路76號","121.426908333333","25.0266566666667","6500500","新莊區"
"242057","986-R7","2018/10/11 09:28:48","新北市新莊區龍安路278巷18號","121.421791666667","25.0185616666667","6500500","新莊區"
"242055","751-BX","2018/10/11 09:28:54","新北市新莊區瓊泰路144號","121.443221666667","25.0321733333333","6500500","新莊區"
"242024","613-BX","2018/10/11 09:28:40","新北市新莊區中原東路198-1號","121.460993333333","25.05459","6500500","新莊區"
"242043","566-BX","2018/10/11 09:28:50","新北市新莊區中正路895-32號","121.412228333333","25.0214683333333","6500500","新莊區"
"242047","497-BY","2018/10/11 09:28:58","新北市新莊區中正路612-1號","121.426168333333","25.0300716666667","6500500","新莊區"
"242014","442-UM","2018/10/11 09:28:50","新北市新莊區中和街1號","121.448366666667","25.0429433333333","6500500","新莊區"
"242052","441-UM","2018/10/11 09:28:41","新北市新莊區民安西路226號","121.425841666667","25.014515","6500500","新莊區"
"242045","400-BY","2018/10/11 09:28:55","新北市新莊區富國路22巷37號","121.41824","25.0254733333333","6500500","新莊區"
"242022","362-BY","2018/10/11 09:28:45","新北市新莊區思源路49號","121.459943333333","25.04005","6500500","新莊區"
"242059","353-BY","2018/10/11 09:28:41","新北市新莊區新樹路186號","121.434278333333","25.0211033333333","6500500","新莊區"
"242010","132-UY","2018/10/11 09:28:41","新北市新莊區中榮街122巷1號","121.446511666667","25.0530533333333","6500500","新莊區"
"242040","133-UY","2018/10/11 09:28:53","新北市新莊區天祥街1巷1號","121.417201666667","25.02709","6500500","新莊區"
"242033","135-UY","2018/10/11 09:28:44","新北市新莊區中正路334巷25弄25號","121.445338333333","25.0359733333333","6500500","新莊區"
"242001","347-TH","2018/10/11 09:27:12","新北市新莊區中正路147-18號","121.457135","25.036985","6500500","新莊區"
"242030","348-TH","2018/10/11 09:28:38","新北市新莊區三泰路4號","121.440738333333","25.0339816666667","6500500","新莊區"
"242003","349-TH","2018/10/11 09:28:37","新北市新莊區頭前路60-3號","121.466825","25.0527083333333","6500500","新莊區"
"242038","281-VK","2018/10/11 09:28:39","新北市新莊區民安路303號","121.429605","25.022505","6500500","新莊區"
