"lineid","car","time","location","longitude","latitude","cityid","cityname"
"234012","KEA-2591","2018/10/11 12:18:56","新北市永和區福和路1號","121.526375","25.0099466666667","6500400","永和區"
"234040","862-TW","2018/10/11 12:18:53","新北市永和區福和路1號","121.526366666667","25.0097766666667","6500400","永和區"
"244019","403-UM","2018/10/11 11:53:00","新北市林口區粉寮路二段88巷100-12號","121.40964","25.0902283333333","6501700","林口區"
"243001","297-R6","2018/10/11 12:13:13","新北市泰山區黎明路31號","121.421778333333","25.0606633333333","6501600","泰山區"
"243008","KEA-2801","2018/10/11 12:12:13","新北市泰山區犁頭窠3-1號","121.422305","25.06062","6501600","泰山區"
"231008","192-VK","2018/10/11 12:18:54","新北市新店區薏仁坑路自強巷6號","121.496601666667","24.9584533333333","6500600","新店區"
"228005","097-TW","2018/10/11 12:18:51","新北市貢寮區福連里香蘭街7-3號","121.97577","25.02413","6502600","貢寮區"
"228004","212-TW","2018/10/11 12:18:58","新北市貢寮區貢寮里長泰路17-1號","121.891491666667","25.0214033333333","6502600","貢寮區"
"235025","KEA-2875","2018/10/11 12:18:40","新北市中和區員山路36巷13號","121.48393","24.9911783333333","6500300","中和區"
