"lineid","car","time","location","longitude","latitude","cityid","cityname"
"234044","148-BY","2018/10/11 14:08:59","新北市永和區成功路二段83號","121.526915","24.9995366666667","6500400","永和區"
"234005","207-UY","2018/10/11 14:08:59","新北市中和區中和路302-1號","121.508755","24.9999483333333","6500400","永和區"
"234078","298-R6","2018/10/11 14:08:50","新北市永和區國中路1號","121.523791666667","25.0044516666667","6500400","永和區"
"234036","336-UY","2018/10/11 14:08:49","新北市永和區成功路一段47巷8號","121.527548333333","25.0039966666667","6500400","永和區"
"234062","337-UY","2018/10/11 14:08:41","新北市永和區永利路146號","121.522193333333","25.0027766666667","6500400","永和區"
"234084","338-UY","2018/10/11 14:08:45","新北市永和區福和路82-1號","121.522713333333","25.0080733333333","6500400","永和區"
"234068","552-UM","2018/10/11 14:08:53","新北市永和區福和路232號","121.519055","25.0076633333333","6500400","永和區"
"234015","745-BX","2018/10/11 14:08:57","新北市永和區仁愛路20號","121.51483","25.0135333333333","6500400","永和區"
"234028","746-BX","2018/10/11 14:09:01","新北市永和區民權路82號","121.519916666667","24.9971916666667","6500400","永和區"
"234052","KEA-2590","2018/10/11 14:08:59","新北市永和區環河東路一段108號","121.52036","25.0159816666667","6500400","永和區"
"234012","KEA-2591","2018/10/11 14:06:57","新北市永和區仁愛路295號","121.504961666667","25.0091416666667","6500400","永和區"
"234060","AAD-866","2018/10/11 14:09:01","新北市永和區安樂路72巷3號","121.514933333333","24.9986316666667","6500400","永和區"
"234040","862-TW","2018/10/11 14:08:53","新北市永和區雙和街64巷22弄5-1號","121.509876666667","25.0029366666667","6500400","永和區"
"234048","863-TW","2018/10/11 14:09:03","新北市永和區永平路305號","121.505563333333","25.0139133333333","6500400","永和區"
"234025","9371-KE","2018/10/11 14:09:02","新北市永和區安樂路272巷11號","121.514928333333","25.00436","6500400","永和區"
"234010","9373-KE","2018/10/11 14:08:44","新北市永和區環河西路二段241號","121.500635","25.0093383333333","6500400","永和區"
"248015","026-BX","2018/10/11 14:08:54","新北市五股區成泰路三段543巷56號","121.449546666667","25.1030966666667","6501500","五股區"
"248007","095-VK","2018/10/11 14:08:50","新北市五股區中興路一段118巷2號","121.465993333333","25.0737816666667","6501500","五股區"
"248017","225-UY","2018/10/11 14:08:48","新北市五股區壟路7-11號","121.416631666667","25.0907133333333","6501500","五股區"
"248011","247-BX","2018/10/11 14:09:00","新北市五股區工商路36巷16號","121.439806666667","25.0842783333333","6501500","五股區"
"248004","677-BX","2018/10/11 14:09:00","新北市五股區工商路148號","121.433848333333","25.08711","6501500","五股區"
"248001","678-BX","2018/10/11 14:08:56","新北市五股區成泰路三段577巷81號","121.449665","25.103715","6501500","五股區"
"248009","682-TV","2018/10/11 14:08:43","新北市五股區水碓一路23號","121.430666666667","25.0713466666667","6501500","五股區"
"234022","9380-KE","2018/10/11 14:08:48","新北市永和區博愛街32巷17-1號","121.518875","25.0152583333333","6500400","永和區"
"234076","969-R7","2018/10/11 14:08:52","新北市永和區民族街67巷25號","121.519405","24.9971533333333","6500400","永和區"
"234072","AAC-211","2018/10/11 14:08:53","新北市永和區竹林路201巷22弄1號","121.522026666667","25.0093816666667","6500400","永和區"
"234066","AAC-212","2018/10/11 14:08:53","新北市永和區保平路214巷1弄12號","121.50905","25.0058333333333","6500400","永和區"
"234001","AAC-295","2018/10/11 14:08:49","新北市永和區中正路730號","121.515528333333","25.01009","6500400","永和區"
"243005","AAD-798","2018/10/11 14:08:54","新北市泰山區台麗街6巷11號","121.424123333333","25.0376866666667","6501600","泰山區"
"243001","297-R6","2018/10/11 14:08:56","新北市泰山區楓江路25巷5號","121.43445","25.0632883333333","6501600","泰山區"
"243008","KEA-2801","2018/10/11 14:08:46","新北市泰山區明志路二段325號","121.425911666667","25.0450833333333","6501600","泰山區"
"243007","421-VK","2018/10/11 14:08:45","新北市泰山區明志路一段493-1號","121.430693333333","25.0550283333333","6501600","泰山區"
"243003","KEA-2215","2018/10/11 14:08:51","新北市泰山區新生路27號","121.427331666667","25.0455916666667","6501600","泰山區"
"243002","KEA-2216","2018/10/11 14:08:51","新北市泰山區仁愛路39巷21號","121.431131666667","25.0553116666667","6501600","泰山區"
"243004","646-TV","2018/10/11 14:08:52","新北市泰山區辭修路36巷1弄1號","121.428085","25.05837","6501600","泰山區"
"243006","680-BX","2018/10/11 14:08:59","新北市泰山區泰林路二段462-1號","121.425818333333","25.0642083333333","6501600","泰山區"
"231028","001-UM","2018/10/11 14:08:55","新北市新店區安和路三段139號","121.516955","24.9853883333333","6500600","新店區"
"231002","002-UM","2018/10/11 14:08:48","新北市新店區中正路542-6號","121.533633333333","24.9862366666667","6500600","新店區"
"231027","0293-UT","2018/10/11 14:09:04","新北市新店區光明街138巷13弄9號","121.540175","24.9615","6500600","新店區"
"231001","047-UY","2018/10/11 14:08:58","新北市新店區中華路62號","121.539303333333","24.9689283333333","6500600","新店區"
"231005","106-UY","2018/10/11 14:08:57","新北市新店區中興路三段327號","121.541985","24.9863566666667","6500600","新店區"
"231010","107-UY","2018/10/11 14:08:55","新北市新店區安華路30巷1號","121.519458333333","24.9597983333333","6500600","新店區"
"231011","187-VK","2018/10/11 14:08:58","新北市新店區五峰路73號","121.546371666667","24.968035","6500600","新店區"
"231031","188-VK","2018/10/11 14:08:44","新北市新店區秀山路51號","121.530611666667","24.9607283333333","6500600","新店區"
"231021","189-VK","2018/10/11 14:08:59","新北市新店區屈尺路75號","121.545558333333","24.922705","6500600","新店區"
"231023","KEA-2219","2018/10/11 14:08:46","新北市新店區文中路40號","121.539588333333","24.9565","6500600","新店區"
"231003","268-BY","2018/10/11 14:09:03","新北市新店區光明街96巷3號","121.539381666667","24.9599583333333","6500600","新店區"
"231018","278-BY","2018/10/11 14:09:00","新北市新店區中央五街44號","121.528186666667","24.9750916666667","6500600","新店區"
"231017","AAD-862","2018/10/11 14:08:48","新北市新店區中生路83巷3號","121.564708333333","24.9518083333333","6500600","新店區"
"231038","3712-VJ","2018/10/11 14:08:53","新北市新店區安康路一段216號","121.523913333333","24.9634983333333","6500600","新店區"
"231037","4716-K9","2018/10/11 14:09:00","新北市新店區安康路三段165巷5號","121.489688333333","24.9512933333333","6500600","新店區"
"231025","4715-K9","2018/10/11 14:08:46","新北市新店區二十張路129巷5弄5號","121.536665","24.9788683333333","6500600","新店區"
"231036","512-UM","2018/10/11 14:08:53","新北市新店區安祥路109巷3弄64號","121.47752","24.9610966666667","6500600","新店區"
"231013","513-UM","2018/10/11 14:09:02","新北市新店區北新路3段65巷34弄29-1號","121.54004","24.9820516666667","6500600","新店區"
"231034","616-UM","2018/10/11 14:08:43","新北市新店區車子路11號","121.503028333333","24.9520166666667","6500600","新店區"
"231006","617-UM","2018/10/11 14:08:48","新北市新店區北宜路二段150-1號","121.557795","24.954005","6500600","新店區"
"231030","619-UM","2018/10/11 14:08:53","新北市新店區安興路7-1號","121.515008333333","24.96856","6500600","新店區"
"231035","719-UM","2018/10/11 14:08:48","新北市新店區安和路二段115號","121.518793333333","24.9703233333333","6500600","新店區"
"231029","897-TW","2018/10/11 14:09:02","新北市新店區安康路二段130-2號","121.51259","24.96211","6500600","新店區"
"231004","899-TW","2018/10/11 14:08:57","新北市新店區北新路二段198號","121.543025","24.9766216666667","6500600","新店區"
"235030","003-UY","2018/10/11 14:08:50","新北市中和區廣福路63號","121.502553333333","25.0011183333333","6500300","中和區"
"235028","005-UY","2018/10/11 14:08:54","新北市中和區泰和街36號","121.499271666667","25.0001616666667","6500300","中和區"
"235027","006-UY","2018/10/11 14:08:52","新北市中和區連城路307號","121.489515","24.9962583333333","6500300","中和區"
"235020","096-UM","2018/10/11 14:09:02","新北市板橋區三民路二段228號","121.478758333333","25.0113966666667","6500300","中和區"
"235003","097-UM","2018/10/11 14:08:49","新北市中和區秀峰街91號","121.521175","24.9902983333333","6500300","中和區"
"235029","098-UM","2018/10/11 14:08:46","新北市中和區中山路二段136巷17號","121.501486666667","25.0040783333333","6500300","中和區"
"235004","150-BY","2018/10/11 14:08:47","新北市中和區宜安路129號","121.509658333333","24.9980583333333","6500300","中和區"
"235022","151-BY","2018/10/11 14:09:03","新北市中和區連城路525-8號","121.48092","24.9948766666667","6500300","中和區"
"235019","183-VK","2018/10/11 14:09:04","新北市中和區德光路103號","121.46833","25.0033066666667","6500300","中和區"
"235002","185-VK","2018/10/11 14:09:05","新北市中和區大仁街10巷27弄6號","121.519261666667","24.9928066666667","6500300","中和區"
"235013","186-VK","2018/10/11 14:09:01","新北市中和區景安路139號","121.505711666667","24.9955616666667","6500300","中和區"
"235031","255-BX","2018/10/11 14:08:58","新北市中和區中正路711號","121.484716666667","24.9985616666667","6500300","中和區"
"235008","293-VK","2018/10/11 14:08:59","新北市中和區中興街202巷35號","121.499018333333","24.9897966666667","6500300","中和區"
"235036","301-VK","2018/10/11 14:08:47","新北市中和區中山路二段146-3號","121.501665","25.0029433333333","6500300","中和區"
"235007","352-BY","2018/10/11 14:08:58","新北市中和區景平路4號","121.524231666667","24.9905433333333","6500300","中和區"
"235006","KEA-2878","2018/10/11 14:09:04","新北市中和區自強路7巷16號","121.520443333333","24.9935366666667","6500300","中和區"
"247011","KEA-2869","2018/10/11 14:08:42","新北市蘆洲區信義路317號","121.478396666667","25.086405","6501400","蘆洲區"
"235014","4979-A6","2018/10/11 14:08:52","新北市中和區復興路261號","121.502838333333","24.9903783333333","6500300","中和區"
"235033","4980-A6","2018/10/11 14:08:57","新北市中和區中和路165巷5-1號","121.50289","25.0002666666667","6500300","中和區"
"235034","558-UM","2018/10/11 14:08:52","新北市中和區中和路81號","121.50099","25.00075","6500300","中和區"
"235009","565-BX","2018/10/11 14:08:53","新北市中和區景新街467巷35弄20-3號","121.514075","24.98895","6500300","中和區"
"235018","640-BX","2018/10/11 14:09:03","新北市中和區國光街107巷2弄32號","121.469286666667","24.9989866666667","6500300","中和區"
"235010","733-UM","2018/10/11 14:08:56","新北市中和區忠孝街1巷18號","121.508581666667","24.9839366666667","6500300","中和區"
"235035","783-BX","2018/10/11 14:09:01","新北市中和區立德街98巷115號","121.488813333333","25.008075","6500300","中和區"
"235026","800-TS","2018/10/11 14:09:01","新北市中和區中山路二段380巷2號","121.491135","25.00416","6500300","中和區"
"235021","801-TS","2018/10/11 14:08:47","新北市中和區民利街50號","121.47934","24.9988116666667","6500300","中和區"
"235005","802-TS","2018/10/11 14:08:53","新北市中和區中安街178巷13弄1號","121.510271666667","24.9987133333333","6500300","中和區"
"235016","805-TS","2018/10/11 14:08:59","新北市中和區興南路二段114巷21弄2號","121.503601666667","24.9845066666667","6500300","中和區"
"235012","896-TW","2018/10/11 14:09:00","新北市中和區華新街109巷11弄2-8號","121.507965","24.979835","6500300","中和區"
"235017","900-TW","2018/10/11 14:09:03","新北市中和區華福街81號","121.467448333333","24.9965183333333","6500300","中和區"
"235024","911-UM","2018/10/11 14:08:52","新北市中和區民有街16號","121.475625","25.0054266666667","6500300","中和區"
"235015","157-BY","2018/10/11 14:09:05","新北市中和區興南路一段73巷1號","121.510296666667","24.9892016666667","6500300","中和區"
"235001","AAC-213","2018/10/11 14:08:47","新北市中和區秀朗路三段60巷26號","121.525418333333","24.9950866666667","6500300","中和區"
"235023","AAC-215","2018/10/11 14:09:04","新北市中和區圓通路369巷2號","121.491163333333","24.989435","6500300","中和區"
"220016","013-TV","2018/10/11 14:08:55","新北市板橋區翠華街6巷11號","121.480873333333","25.02405","6500100","板橋區"
"220104","015-TV","2018/10/11 14:08:58","新北市板橋區中正路379巷1弄3號","121.454083333333","25.0214516666667","6500100","板橋區"
"220013","072-UY","2018/10/11 14:08:57","新北市板橋區民族路219巷8號","121.469631666667","25.007645","6500100","板橋區"
"220034","073-UY","2018/10/11 14:08:43","新北市板橋區中正路216巷69號","121.457788333333","25.0190116666667","6500100","板橋區"
"220105","075-UY","2018/10/11 14:08:49","新北市板橋區雙十路三段14號","121.471651666667","25.03034","6500100","板橋區"
"220017","AAD-861","2018/10/11 14:08:58","新北市板橋區華興街72號","121.45738","25.0051566666667","6500100","板橋區"
"247001","893-R6","2018/10/11 14:08:55","新北市蘆洲區永平街42-1號","121.458143333333","25.091205","6501400","蘆洲區"
"247015","546-UM","2018/10/11 14:08:56","新北市蘆洲區光華路46巷51號","121.467383333333","25.0847416666667","6501400","蘆洲區"
"247023","500-BY","2018/10/11 14:09:01","新北市蘆洲區光榮路66巷13號","121.463313333333","25.0883416666667","6501400","蘆洲區"
"247013","339-TH","2018/10/11 14:08:56","新北市蘆洲區忠孝路92號","121.471395","25.08585","6501400","蘆洲區"
"247005","337-TH","2018/10/11 14:09:04","新北市蘆洲區九芎街5巷6號","121.468328333333","25.0779566666667","6501400","蘆洲區"
"247007","336-TH","2018/10/11 14:09:04","新北市蘆洲區中山一路232號","121.472813333333","25.08041","6501400","蘆洲區"
"247019","057-VK","2018/10/11 14:08:53","新北市蘆洲區民族路426巷52號","121.472823333333","25.09363","6501400","蘆洲區"
"247009","056-VK","2018/10/11 14:08:58","新北市蘆洲區三民路70號","121.475376666667","25.0839316666667","6501400","蘆洲區"
"247017","007-UY","2018/10/11 14:08:52","新北市蘆洲區復興路105巷11號","121.47633","25.0884666666667","6501400","蘆洲區"
"247003","002-UY","2018/10/11 14:08:51","新北市蘆洲區長安街102巷63號","121.462541666667","25.0820066666667","6501400","蘆洲區"
"247021","001-UY","2018/10/11 14:08:46","新北市蘆洲區三民路140號","121.47064","25.0877633333333","6501400","蘆洲區"
"235011","251-BX","2018/10/11 14:08:51","新北市中和區興南路一段92號","121.509845","24.989215","6500300","中和區"
"228005","097-TW","2018/10/11 14:08:51","新北市雙溪區三港里雙澳路91號","121.888901666667","25.0580083333333","6502600","貢寮區"
"228004","212-TW","2018/10/11 14:08:58","新北市貢寮區雙玉里德心街11-1號","121.918786666667","25.0156366666667","6502600","貢寮區"
"253003","6232-TK","2018/10/11 14:08:49","新北市石門區尖子鹿45號","121.582816666667","25.2692783333333","6502200","石門區"
"253001","6251-TK","2018/10/11 14:08:56","新北市石門區八甲43號","121.531531666667","25.26797","6502200","石門區"
"253002","637-UY","2018/10/11 14:08:46","新北市石門區七股32號","121.552005","25.2642383333333","6502200","石門區"
"253004","8270-PC","2018/10/11 14:08:51","新北市石門區小坑45號","121.597096666667","25.2603533333333","6502200","石門區"
"207002","749-BX","2018/10/11 14:09:03","新北市萬里區溪底里瑞泉路8-2號","121.607938333333","25.144215","6502800","萬里區"
"207001","662-BX","2018/10/11 14:08:58","新北市萬里區磺潭里清水18號","121.637838333333","25.197625","6502800","萬里區"
"252005","AAC-283","2018/10/11 14:08:54","新北市三芝區橫山里橫山21號","121.540066666667","25.26274","6502100","三芝區"
"236068","105-UM","2018/10/11 14:09:00","新北市土城區明德路一段238號","121.46013","24.9773483333333","6501300","土城區"
"236040","107-UM","2018/10/11 14:08:56","新北市土城區城林路6巷80號","121.43814","24.9796133333333","6501300","土城區"
"236074","166-UM","2018/10/11 14:08:57","新北市土城區永寧路30-1號","121.42935","24.9607533333333","6501300","土城區"
"236029","253-BX","2018/10/11 14:08:47","新北市土城區興城路79號","121.439933333333","24.970755","6501300","土城區"
"236024","269-VK","2018/10/11 14:08:46","新北市土城區忠承路55號","121.439565","24.9660866666667","6501300","土城區"
"236012","270-VK","2018/10/11 14:08:46","新北市土城區學府路一段8號","121.459621666667","24.9884066666667","6501300","土城區"
"236032","271-VK","2018/10/11 14:08:52","新北市土城區明德路一段375-2號","121.45463","24.9782866666667","6501300","土城區"
"236017","401-BY","2018/10/11 14:08:53","新北市土城區城林路6巷80號","121.4386","24.979815","6501300","土城區"
"236054","752-BX","2018/10/11 14:08:56","新北市土城區中華路二段92號","121.43815","24.9745616666667","6501300","土城區"
"236057","912-UM","2018/10/11 14:08:46","新北市土城區中央路四段208號","121.415965","24.95745","6501300","土城區"
"236045","913-UM","2018/10/11 14:09:00","新北市土城區明德路一段365-1號","121.453563333333","24.9790533333333","6501300","土城區"
"236060","915-UM","2018/10/11 14:08:54","新北市土城區中正路69號","121.444641666667","24.9757933333333","6501300","土城區"
"221010","269-BY","2018/10/11 14:09:00","新北市汐止區長青路210巷52號","121.614715","25.116955","6501100","汐止區"
"221027","281-BY","2018/10/11 14:08:30","新北市新店區安忠路57巷13號","121.513601666667","24.9575333333333","6501100","汐止區"
"220027","145-BY","2018/10/11 14:08:57","新北市板橋區民權路202巷9弄2號","121.460403333333","25.0153966666667","6500100","板橋區"
"220028","200-UY","2018/10/11 14:09:00","新北市板橋區大觀路二段5-2號","121.447075","25.003755","6500100","板橋區"
"220030","610-BX","2018/10/11 14:08:54","新北市板橋區溪崑二街58號","121.428075","24.9906066666667","6500100","板橋區"
"220050","245-BX","2018/10/11 14:08:57","新北市板橋區民生路二段148號","121.471481666667","25.0198166666667","6500100","板橋區"
"220040","267-BY","2018/10/11 14:08:56","新北市板橋區萬板路562號","121.481025","25.0266416666667","6500100","板橋區"
"220004","276-BY","2018/10/11 14:08:48","新北市板橋區信義路74巷1弄15號","121.457636666667","24.9927566666667","6500100","板橋區"
"220020","277-BY","2018/10/11 14:08:59","新北市板橋區金門街369巷99號","121.428291666667","24.9816166666667","6500100","板橋區"
"220043","283-UM","2018/10/11 14:09:00","新北市板橋區光武街127巷2號","121.465935","25.0287716666667","6500100","板橋區"
"220019","283-VK","2018/10/11 14:09:03","新北市板橋區重慶路265號","121.46333","24.9999633333333","6500100","板橋區"
"220031","286-VK","2018/10/11 14:08:52","新北市板橋區大觀路二段174巷176弄1號","121.44233","25.0034333333333","6500100","板橋區"
"220029","287-VK","2018/10/11 14:08:54","新北市板橋區南雅西路二段203號","121.4517","25.013345","6500100","板橋區"
"220039","288-VK","2018/10/11 14:08:50","新北市板橋區四維路291巷1號","121.462021666667","25.0282616666667","6500100","板橋區"
"220009","293-UM","2018/10/11 14:08:51","新北市板橋區中山路二段305號","121.478775","25.0184216666667","6500100","板橋區"
"220001","295-UM","2018/10/11 14:08:43","新北市板橋區懷仁街14巷24號","121.475495","25.0195566666667","6500100","板橋區"
"220032","296-UM","2018/10/11 14:08:58","新北市板橋區溪崑一街47巷2號","121.430451666667","24.990865","6500100","板橋區"
"220023","303-R5","2018/10/11 14:08:46","新北市板橋區西門街42號","121.45433","25.00944","6500100","板橋區"
"220010","305-R5","2018/10/11 14:09:01","新北市板橋區三民路二段245巷69弄1號","121.48108","25.0128616666667","6500100","板橋區"
"220041","307-R5","2018/10/11 14:08:45","新北市板橋區文化路二段225巷60弄14號","121.469361666667","25.0288433333333","6500100","板橋區"
"220047","317-R6","2018/10/11 14:08:53","新北市板橋區文化路一段435巷78號","121.46579","25.0238416666667","6500100","板橋區"
"220012","486-VK","2018/10/11 14:08:09","新北市板橋區民生路一段1-2號","121.476776666667","25.0119016666667","6500100","板橋區"
"220038","487-VK","2018/10/11 14:08:52","新北市板橋區文化路二段413號","121.474213333333","25.0322366666667","6500100","板橋區"
"220037","491-VK","2018/10/11 14:09:01","新北市板橋區莊敬路38號","121.472808333333","25.02701","6500100","板橋區"
"220052","561-BX","2018/10/11 14:08:54","新北市板橋區介壽街84巷36號","121.468986666667","25.0180783333333","6500100","板橋區"
"220011","609-BX","2018/10/11 14:09:02","新北市板橋區三民路二段113號","121.479293333333","25.015855","6500100","板橋區"
"220005","686-BX","2018/10/11 14:08:42","新北市板橋區重慶路253-3號","121.463335","25.0002933333333","6500100","板橋區"
"220025","687-BX","2018/10/11 14:09:04","新北市板橋區大觀路二段22巷38-2號","121.444615","25.0037166666667","6500100","板橋區"
"220042","689-BX","2018/10/11 14:08:57","新北市板橋區民生路三段179號","121.465561666667","25.0272883333333","6500100","板橋區"
"220002","741-BX","2018/10/11 14:09:01","新北市板橋區重慶路69巷21號","121.462831666667","25.0071216666667","6500100","板橋區"
"220051","KEA-2699","2018/10/11 14:09:02","新北市板橋區萬板路810-1號","121.482855","25.0273816666667","6500100","板橋區"
"220003","827-TW","2018/10/11 14:09:00","新北市板橋區新民街11號","121.463786666667","25.009875","6500100","板橋區"
"220014","829-TW","2018/10/11 14:08:59","新北市板橋區民享街116巷2弄14號","121.477493333333","25.015565","6500100","板橋區"
"220045","831-TW","2018/10/11 14:08:51","新北市板橋區雙十路二段47巷28號","121.475495","25.0259733333333","6500100","板橋區"
"220022","895-R6","2018/10/11 14:08:58","新北市板橋區西門街59號","121.454403333333","25.0091383333333","6500100","板橋區"
"220021","985-R7","2018/10/11 14:08:57","新北市板橋區中正路163-1號","121.456663333333","25.01618","6500100","板橋區"
"220046","AAC-210","2018/10/11 14:08:41","新北市板橋區新海路135巷4號","121.45991","25.022925","6500100","板橋區"
"220018","AAC-253","2018/10/11 14:08:46","新北市板橋區四川路一段367號","121.458225","24.9995916666667","6500100","板橋區"
"235032","KEA-2873","2018/10/11 14:08:38","新北市中和區連城路75巷13號","121.49861","24.99822","6500300","中和區"
"235025","KEA-2875","2018/10/11 14:08:39","新北市中和區連城路456巷7號","121.4787","24.9951666666667","6500300","中和區"
