"lineid","car","time","location","longitude","latitude","cityid","cityname"
"234044","148-BY","2018/10/11 14:18:56","新北市永和區永元路118號","121.522673333333","25.002545","6500400","永和區"
"234005","207-UY","2018/10/11 14:18:59","新北市永和區保平路280-1號","121.508515","25.0048316666667","6500400","永和區"
"234078","298-R6","2018/10/11 14:18:50","新北市永和區國中路102號","121.524271666667","25.0065133333333","6500400","永和區"
"234036","336-UY","2018/10/11 14:19:01","新北市永和區成功路一段5號","121.52717","25.0051883333333","6500400","永和區"
"234062","337-UY","2018/10/11 14:19:01","新北市永和區得和路119號","121.518648333333","25.00033","6500400","永和區"
"234084","338-UY","2018/10/11 14:18:48","新北市永和區中正路654巷1號","121.517093333333","25.0086016666667","6500400","永和區"
"234068","552-UM","2018/10/11 14:18:53","新北市永和區福和路263巷7弄1號","121.517975","25.0069466666667","6500400","永和區"
"234015","745-BX","2018/10/11 14:18:56","新北市永和區仁愛路93號","121.512928333333","25.013115","6500400","永和區"
"234028","746-BX","2018/10/11 14:19:01","新北市永和區民權路49巷7號","121.52049","24.9972766666667","6500400","永和區"
"234052","KEA-2590","2018/10/11 14:18:59","新北市永和區永和路二段298號","121.51619","25.0158783333333","6500400","永和區"
"234012","KEA-2591","2018/10/11 14:18:56","新北市永和區保生路5巷1號","121.506148333333","25.00727","6500400","永和區"
"234060","AAD-866","2018/10/11 14:19:03","新北市永和區得和路45巷2號","121.516576666667","25.000215","6500400","永和區"
"234040","862-TW","2018/10/11 14:18:53","新北市中和區安平路161號","121.512443333333","24.9985733333333","6500400","永和區"
"234048","863-TW","2018/10/11 14:18:48","新北市永和區保安路2號","121.510781666667","25.01757","6500400","永和區"
"234025","9371-KE","2018/10/11 14:19:02","新北市永和區安樂路144巷19號","121.514706666667","25.0001016666667","6500400","永和區"
"248015","026-BX","2018/10/11 14:18:54","新北市五股區成洲五路12號","121.452328333333","25.10157","6501500","五股區"
"248007","095-VK","2018/10/11 14:18:50","新北市五股區中興路二段37巷24號","121.460618333333","25.0750516666667","6501500","五股區"
"248017","225-UY","2018/10/11 14:18:28","新北市五股區外寮路9號","121.419481666667","25.0785933333333","6501500","五股區"
"248011","247-BX","2018/10/11 14:19:00","新北市五股區中興路四段54號","121.437915","25.0830083333333","6501500","五股區"
"248004","677-BX","2018/10/11 14:19:00","新北市五股區五福路39號","121.433368333333","25.089465","6501500","五股區"
"248001","678-BX","2018/10/11 14:18:57","新北市五股區成泰路三段590-3號","121.45293","25.1060366666667","6501500","五股區"
"248009","682-TV","2018/10/11 14:19:02","新北市五股區自強路90巷72號","121.43071","25.071295","6501500","五股區"
"234076","969-R7","2018/10/11 14:18:52","新北市永和區民族街81巷42號","121.519545","24.9964983333333","6500400","永和區"
"234072","AAC-211","2018/10/11 14:18:47","新北市永和區福和路1號","121.525086666667","25.008815","6500400","永和區"
"234066","AAC-212","2018/10/11 14:18:56","新北市永和區保平路292巷13弄16號","121.506583333333","25.0056033333333","6500400","永和區"
"234001","AAC-295","2018/10/11 14:18:49","新北市永和區中正路620號","121.516996666667","25.0079","6500400","永和區"
"243005","AAD-798","2018/10/11 14:18:54","新北市泰山區明志路三段145巷8弄2號","121.425791666667","25.03967","6501600","泰山區"
"243001","297-R6","2018/10/11 14:18:54","新北市泰山區明志路一段19巷5弄5號","121.434158333333","25.06593","6501600","泰山區"
"243008","KEA-2801","2018/10/11 14:18:46","新北市泰山區明志路三段142巷2號","121.424746666667","25.0399416666667","6501600","泰山區"
"243007","421-VK","2018/10/11 14:19:05","新北市泰山區明志路二段41號","121.42961","25.0531","6501600","泰山區"
"243003","KEA-2215","2018/10/11 14:18:51","新北市泰山區中央路5巷40-4號","121.42785","25.0427","6501600","泰山區"
"243002","KEA-2216","2018/10/11 14:18:51","新北市泰山區明志路二段29號","121.429783333333","25.0532416666667","6501600","泰山區"
"243004","646-TV","2018/10/11 14:18:47","新北市泰山區仁義路220巷2號","121.432915","25.0539","6501600","泰山區"
"243006","680-BX","2018/10/11 14:18:59","新北市泰山區泰林路二段118號","121.434583333333","25.0593383333333","6501600","泰山區"
"231028","001-UM","2018/10/11 14:18:55","新北市新店區安和路二段221號","121.51745","24.9757716666667","6500600","新店區"
"231002","002-UM","2018/10/11 14:18:48","新北市新店區中正路500號","121.534131666667","24.982105","6500600","新店區"
"231027","0293-UT","2018/10/11 14:19:04","新北市新店區北新路一段285號","121.541285","24.9668966666667","6500600","新店區"
"231001","047-UY","2018/10/11 14:18:58","新北市新店區北新路一段273號","121.540926666667","24.96676","6500600","新店區"
"231005","106-UY","2018/10/11 14:18:57","新北市新店區中興路三段226號","121.543373333333","24.9831133333333","6500600","新店區"
"231011","187-VK","2018/10/11 14:18:58","新北市新店區五峰路63巷8弄44號","121.547968333333","24.968585","6500600","新店區"
"231031","188-VK","2018/10/11 14:19:04","新北市新店區永業路28號","121.5329","24.95556","6500600","新店區"
"231021","189-VK","2018/10/11 14:18:59","新北市新店區新烏路二段198巷2弄2號","121.547778333333","24.9170366666667","6500600","新店區"
"231023","KEA-2219","2018/10/11 14:19:06","新北市新店區光明街73號","121.538956666667","24.9605966666667","6500600","新店區"
"231003","268-BY","2018/10/11 14:19:03","新北市新店區中興路一段191號","121.543275","24.9649983333333","6500600","新店區"
"231018","278-BY","2018/10/11 14:19:00","新北市新店區中央四街28號","121.528726666667","24.9743583333333","6500600","新店區"
"231017","AAD-862","2018/10/11 14:18:48","新北市新店區北宜路三段83-1號","121.57705","24.95184","6500600","新店區"
"231038","3712-VJ","2018/10/11 14:18:53","新北市新店區安康路一段3-1號","121.534098333333","24.9604833333333","6500600","新店區"
"231037","4716-K9","2018/10/11 14:19:00","新北市新店區安康路二段406號","121.496806666667","24.9552816666667","6500600","新店區"
"231025","4715-K9","2018/10/11 14:18:46","新北市新店區民族路161號","121.537673333333","24.9767216666667","6500600","新店區"
"231036","512-UM","2018/10/11 14:18:53","新北市新店區安祥路109巷11號","121.475921666667","24.9590466666667","6500600","新店區"
"231013","513-UM","2018/10/11 14:19:02","新北市新店區大豐路72號","121.539005","24.9794266666667","6500600","新店區"
"231034","616-UM","2018/10/11 14:19:03","新北市新店區車子路11號","121.503043333333","24.9519833333333","6500600","新店區"
"231006","617-UM","2018/10/11 14:18:48","新北市新店區北宜路二段599號","121.568163333333","24.9555933333333","6500600","新店區"
"231030","619-UM","2018/10/11 14:18:53","新北市新店區安民街3巷19號","121.514231666667","24.96415","6500600","新店區"
"231035","719-UM","2018/10/11 14:18:48","新北市新店區安和路二段113巷3弄5號","121.518041666667","24.969965","6500600","新店區"
"231029","897-TW","2018/10/11 14:19:02","新北市新店區安康路二段159巷2號","121.510253333333","24.95929","6500600","新店區"
"231004","899-TW","2018/10/11 14:18:58","新北市新店區中正路126號","121.5421","24.97132","6500600","新店區"
"235030","003-UY","2018/10/11 14:18:50","新北市中和區枋寮街2號","121.502518333333","24.9998783333333","6500300","中和區"
"235028","005-UY","2018/10/11 14:18:54","新北市中和區中和路40巷2號","121.49972","25.0014466666667","6500300","中和區"
"235027","006-UY","2018/10/11 14:18:55","新北市中和區連勝街121巷18弄7號","121.494965","24.99442","6500300","中和區"
"235020","096-UM","2018/10/11 14:19:02","新北市中和區中山路三段1號","121.480011666667","25.0058733333333","6500300","中和區"
"235003","097-UM","2018/10/11 14:19:03","新北市中和區秀峰街103巷8弄2號","121.520113333333","24.98953","6500300","中和區"
"235029","098-UM","2018/10/11 14:18:46","新北市中和區中山路二段64巷14弄1號","121.503423333333","25.0056083333333","6500300","中和區"
"235004","150-BY","2018/10/11 14:18:50","新北市中和區安平路36巷1號","121.510153333333","24.9949933333333","6500300","中和區"
"235022","151-BY","2018/10/11 14:19:03","新北市中和區連城路523巷11弄1號","121.481691666667","24.99419","6500300","中和區"
"235019","183-VK","2018/10/11 14:19:04","新北市中和區中山路三段179巷23號","121.473575","25.0058983333333","6500300","中和區"
"235002","185-VK","2018/10/11 14:18:45","新北市中和區自強路29號","121.520735","24.99275","6500300","中和區"
"235013","186-VK","2018/10/11 14:19:01","新北市中和區景新街239號","121.508238333333","24.9944866666667","6500300","中和區"
"235031","255-BX","2018/10/11 14:18:58","新北市中和區連城路461號","121.484256666667","24.99612","6500300","中和區"
"235008","293-VK","2018/10/11 14:18:59","新北市中和區中興街266巷2號","121.498516666667","24.9875133333333","6500300","中和區"
"235036","301-VK","2018/10/11 14:18:47","新北市中和區永和路57巷8號","121.497028333333","25.0050583333333","6500300","中和區"
"235007","352-BY","2018/10/11 14:18:58","新北市中和區景平路296號","121.512856666667","24.9928516666667","6500300","中和區"
"235006","KEA-2878","2018/10/11 14:18:44","新北市中和區安樂路143巷2弄5號","121.514035","24.9978116666667","6500300","中和區"
"247011","KEA-2869","2018/10/11 14:18:42","新北市蘆洲區信義路351巷18號","121.476815","25.086775","6501400","蘆洲區"
"235014","4979-A6","2018/10/11 14:18:52","新北市中和區復興路282號","121.502086666667","24.9903016666667","6500300","中和區"
"235033","4980-A6","2018/10/11 14:18:57","新北市中和區景平路736巷1弄5號","121.497248333333","25.0040033333333","6500300","中和區"
"235034","558-UM","2018/10/11 14:18:52","新北市中和區景平路666-1號","121.49747","25.0008183333333","6500300","中和區"
"235009","565-BX","2018/10/11 14:18:57","新北市中和區景新街423巷33弄18號","121.513611666667","24.99042","6500300","中和區"
"235018","640-BX","2018/10/11 14:18:43","新北市中和區國光街109巷4號","121.469831666667","25.0004116666667","6500300","中和區"
"235010","733-UM","2018/10/11 14:18:56","新北市中和區華新街168號","121.507378333333","24.9822383333333","6500300","中和區"
"235035","783-BX","2018/10/11 14:19:01","新北市中和區建一路2號","121.487978333333","25.0042583333333","6500300","中和區"
"235026","800-TS","2018/10/11 14:19:01","新北市中和區橋安街17號","121.492748333333","25.0037516666667","6500300","中和區"
"235021","801-TS","2018/10/11 14:18:47","新北市中和區員山路423巷11號","121.480503333333","25.0030483333333","6500300","中和區"
"235005","802-TS","2018/10/11 14:18:53","新北市中和區安平路130號","121.51211","24.9978083333333","6500300","中和區"
"235016","805-TS","2018/10/11 14:18:59","新北市中和區興南路二段142巷17弄4號","121.503381666667","24.983315","6500300","中和區"
"235012","896-TW","2018/10/11 14:19:00","新北市中和區華新街109巷26號","121.50863","24.9802566666667","6500300","中和區"
"235017","900-TW","2018/10/11 14:19:03","新北市中和區華安街17巷45號","121.468066666667","24.9984833333333","6500300","中和區"
"235024","911-UM","2018/10/11 14:18:52","新北市中和區員山路294巷20號","121.482185","25.0023233333333","6500300","中和區"
"235015","157-BY","2018/10/11 14:18:45","新北市中和區和平街38巷24號","121.509628333333","24.991245","6500300","中和區"
"235001","AAC-213","2018/10/11 14:18:54","新北市中和區秀朗路三段50巷12弄6號","121.524006666667","24.9952716666667","6500300","中和區"
"235023","AAC-215","2018/10/11 14:19:04","新北市中和區圓通路252巷34號","121.492298333333","24.9927233333333","6500300","中和區"
"220016","013-TV","2018/10/11 14:18:55","新北市板橋區翠華街6巷54號","121.481298333333","25.02503","6500100","板橋區"
"220104","015-TV","2018/10/11 14:18:58","新北市板橋區中正路433巷29號","121.453096666667","25.0237783333333","6500100","板橋區"
"220013","072-UY","2018/10/11 14:18:57","新北市板橋區民族路170巷14號","121.467211666667","25.0073783333333","6500100","板橋區"
"220034","073-UY","2018/10/11 14:19:03","新北市板橋區中正路250巷51號","121.457695","25.0198","6500100","板橋區"
"220105","075-UY","2018/10/11 14:18:49","新北市板橋區雙十路三段66巷1號","121.47061","25.0319233333333","6500100","板橋區"
"220017","AAD-861","2018/10/11 14:18:58","新北市板橋區大華街67號","121.459696666667","25.003405","6500100","板橋區"
"247001","893-R6","2018/10/11 14:18:55","新北市蘆洲區永樂街80號","121.456783333333","25.0886066666667","6501400","蘆洲區"
"247015","546-UM","2018/10/11 14:18:56","新北市蘆洲區中正路185巷31弄45號","121.467266666667","25.083205","6501400","蘆洲區"
"247023","500-BY","2018/10/11 14:18:58","新北市蘆洲區永平街32巷12弄18號","121.46","25.0909533333333","6501400","蘆洲區"
"247013","339-TH","2018/10/11 14:18:56","新北市蘆洲區中山一路182號","121.474023333333","25.0810116666667","6501400","蘆洲區"
"247005","337-TH","2018/10/11 14:19:04","新北市蘆洲區長安街22巷3弄1號","121.464195","25.079415","6501400","蘆洲區"
"247007","336-TH","2018/10/11 14:18:44","新北市蘆洲區信義路34巷1號","121.474516666667","25.0794383333333","6501400","蘆洲區"
"247019","057-VK","2018/10/11 14:18:53","新北市蘆洲區民族路341號","121.472758333333","25.0919583333333","6501400","蘆洲區"
"247009","056-VK","2018/10/11 14:18:58","新北市蘆洲區三民路26巷43弄2號","121.477641666667","25.08327","6501400","蘆洲區"
"247017","007-UY","2018/10/11 14:18:52","新北市蘆洲區民權路102號","121.473898333333","25.08811","6501400","蘆洲區"
"247003","002-UY","2018/10/11 14:19:00","新北市蘆洲區長安街172巷11號","121.45951","25.0836416666667","6501400","蘆洲區"
"247021","001-UY","2018/10/11 14:19:05","新北市蘆洲區三民路128巷94號","121.469648333333","25.0903233333333","6501400","蘆洲區"
"235011","251-BX","2018/10/11 14:18:51","新北市中和區和平街54巷6弄2號","121.508865","24.990955","6500300","中和區"
"228005","097-TW","2018/10/11 14:18:51","新北市貢寮區美豐里土地公嶺54號","121.894505","25.0650033333333","6502600","貢寮區"
"228004","212-TW","2018/10/11 14:18:58","新北市貢寮區雙玉里田寮洋街26號","121.926406666667","25.0136733333333","6502600","貢寮區"
"253003","6232-TK","2018/10/11 14:18:49","新北市石門區尖子鹿31-1號","121.57938","25.2669883333333","6502200","石門區"
"253001","6251-TK","2018/10/11 14:18:56","新北市石門區八甲27-2號","121.52716","25.2776733333333","6502200","石門區"
"253002","637-UY","2018/10/11 14:18:46","新北市石門區大溪墘3號","121.551713333333","25.2818083333333","6502200","石門區"
"253004","8270-PC","2018/10/11 14:18:51","新北市石門區阿里磅26號","121.589598333333","25.258585","6502200","石門區"
"207002","749-BX","2018/10/11 14:18:42","新北市萬里區溪底里瑞泉路9號","121.604891666667","25.1447633333333","6502800","萬里區"
"207001","662-BX","2018/10/11 14:18:58","新北市萬里區磺潭里清水18號","121.637833333333","25.1976516666667","6502800","萬里區"
"252005","AAC-283","2018/10/11 14:18:54","新北市三芝區橫山里大坑85-4號","121.527955","25.2578533333333","6502100","三芝區"
"236068","105-UM","2018/10/11 14:19:00","新北市土城區明德路一段109號","121.465521666667","24.981515","6501300","土城區"
"236040","107-UM","2018/10/11 14:18:56","新北市土城區裕生路21巷6弄24號","121.448556666667","24.9866216666667","6501300","土城區"
"236074","166-UM","2018/10/11 14:18:57","新北市土城區永平街2巷1號","121.427406666667","24.9635083333333","6501300","土城區"
"236029","253-BX","2018/10/11 14:18:47","新北市土城區順風路66號","121.440371666667","24.9776766666667","6501300","土城區"
"236024","269-VK","2018/10/11 14:18:46","新北市土城區承天路67號","121.439503333333","24.9636366666667","6501300","土城區"
"236012","270-VK","2018/10/11 14:18:46","新北市土城區青雲路39巷7號","121.460338333333","24.9875633333333","6501300","土城區"
"236032","271-VK","2018/10/11 14:18:52","新北市土城區青雲路451巷8弄17號","121.459555","24.9741483333333","6501300","土城區"
"236017","401-BY","2018/10/11 14:18:53","新北市土城區明德路一段365-1號","121.453995","24.9796966666667","6501300","土城區"
"236054","752-BX","2018/10/11 14:18:56","新北市土城區中華路二段110號","121.43797","24.9741033333333","6501300","土城區"
"236057","912-UM","2018/10/11 14:18:46","新北市土城區中央路四段464號","121.40986","24.9505433333333","6501300","土城區"
"236045","913-UM","2018/10/11 14:19:00","新北市土城區明德路一段375-1號","121.454976666667","24.9781216666667","6501300","土城區"
"236060","915-UM","2018/10/11 14:18:54","新北市土城區金城路三段95號","121.467038333333","24.98755","6501300","土城區"
"221010","269-BY","2018/10/11 14:19:00","新北市汐止區長青路210巷1號","121.607998333333","25.1151883333333","6501100","汐止區"
"221027","281-BY","2018/10/11 14:18:50","新北市新店區薏仁坑路自強巷1號","121.497305","24.9577","6501100","汐止區"
"220027","145-BY","2018/10/11 14:18:57","新北市板橋區民權路308號","121.457215","25.0162633333333","6500100","板橋區"
"220028","200-UY","2018/10/11 14:19:00","新北市板橋區大觀路二段15號","121.447043333333","25.0034033333333","6500100","板橋區"
"220030","610-BX","2018/10/11 14:18:59","新北市板橋區溪城路79號","121.426676666667","24.9835866666667","6500100","板橋區"
"220050","245-BX","2018/10/11 14:19:00","新北市板橋區莊敬路25巷6號","121.47397","25.0276866666667","6500100","板橋區"
"220040","267-BY","2018/10/11 14:18:56","新北市板橋區縣民大道三段223號","121.480563333333","25.0254083333333","6500100","板橋區"
"220004","276-BY","2018/10/11 14:19:02","新北市板橋區信義路68號","121.457331666667","24.9936566666667","6500100","板橋區"
"220020","277-BY","2018/10/11 14:18:59","新北市板橋區金門街337巷7弄2號","121.430265","24.9847816666667","6500100","板橋區"
"220043","283-UM","2018/10/11 14:19:00","新北市板橋區吳鳳路21巷2號","121.466968333333","25.03122","6500100","板橋區"
"220019","283-VK","2018/10/11 14:18:47","新北市板橋區忠孝路48巷9弄19號","121.4621","25.0003083333333","6500100","板橋區"
"220031","286-VK","2018/10/11 14:18:58","新北市板橋區龍興街95巷16號","121.44333","25.002825","6500100","板橋區"
"220029","287-VK","2018/10/11 14:18:54","新北市板橋區南雅西路一段49號","121.453756666667","25.0048116666667","6500100","板橋區"
"220039","288-VK","2018/10/11 14:18:50","新北市板橋區長江路一段106巷13弄35號","121.461361666667","25.0297666666667","6500100","板橋區"
"220009","293-UM","2018/10/11 14:18:51","新北市板橋區中山路二段318巷20弄37號","121.481133333333","25.0189566666667","6500100","板橋區"
"220001","295-UM","2018/10/11 14:18:43","新北市板橋區富山街5號","121.478555","25.021525","6500100","板橋區"
"220032","296-UM","2018/10/11 14:18:58","新北市板橋區滿平街136巷6弄11號","121.42758","24.987845","6500100","板橋區"
"220023","303-R5","2018/10/11 14:18:46","新北市板橋區南雅南路一段60號","121.455293333333","25.0053666666667","6500100","板橋區"
"220010","305-R5","2018/10/11 14:19:01","新北市板橋區三民路二段居仁巷1弄24號","121.480018333333","25.013555","6500100","板橋區"
"220041","307-R5","2018/10/11 14:19:05","新北市板橋區松江街62號","121.4688","25.0275183333333","6500100","板橋區"
"220047","317-R6","2018/10/11 14:18:53","新北市板橋區四維路266巷2弄25-1號","121.464091666667","25.028105","6500100","板橋區"
"220012","486-VK","2018/10/11 14:18:49","新北市板橋區縣民大道二段68-1號","121.463443333333","25.0130016666667","6500100","板橋區"
"220038","487-VK","2018/10/11 14:19:01","新北市板橋區文化路二段1號","121.468626666667","25.0241766666667","6500100","板橋區"
"220037","491-VK","2018/10/11 14:19:01","新北市板橋區雙十路二段239號","121.472755","25.0290383333333","6500100","板橋區"
"220052","561-BX","2018/10/11 14:19:03","新北市板橋區文化路一段188巷23號","121.46706","25.0189266666667","6500100","板橋區"
"220011","609-BX","2018/10/11 14:19:02","新北市板橋區三民路二段203-4號","121.47914","25.01349","6500100","板橋區"
"220005","686-BX","2018/10/11 14:19:02","新北市板橋區和平路161巷24號","121.46346","24.9967633333333","6500100","板橋區"
"220025","687-BX","2018/10/11 14:18:44","新北市板橋區大觀路二段142-1號","121.442695","24.99928","6500100","板橋區"
"220042","689-BX","2018/10/11 14:18:58","新北市板橋區漢生西路33號","121.463118333333","25.0183266666667","6500100","板橋區"
"220002","741-BX","2018/10/11 14:19:01","新北市板橋區重慶路155巷7號","121.462643333333","25.0040116666667","6500100","板橋區"
"220051","KEA-2699","2018/10/11 14:19:01","新北市板橋區萬板路558號","121.480821666667","25.02697","6500100","板橋區"
"220003","827-TW","2018/10/11 14:19:00","新北市板橋區民族路61號","121.46492","25.008695","6500100","板橋區"
"220014","829-TW","2018/10/11 14:19:00","新北市板橋區長安街178巷16號","121.474285","25.0109233333333","6500100","板橋區"
"220045","831-TW","2018/10/11 14:18:51","新北市板橋區大同街26巷1號","121.478016666667","25.02716","6500100","板橋區"
"220022","895-R6","2018/10/11 14:18:59","新北市板橋區民權路170巷2號","121.459783333333","25.0130333333333","6500100","板橋區"
"220021","985-R7","2018/10/11 14:19:02","新北市板橋區中正路201號","121.456293333333","25.0173883333333","6500100","板橋區"
"220046","AAC-210","2018/10/11 14:19:03","新北市板橋區幸福路58號","121.461155","25.0200816666667","6500100","板橋區"
"220018","AAC-253","2018/10/11 14:18:46","新北市板橋區忠孝路97號","121.462361666667","25.0024433333333","6500100","板橋區"
"235032","KEA-2873","2018/10/11 14:18:38","新北市中和區圓通路158巷24號","121.4983","24.99697","6500300","中和區"
"235025","KEA-2875","2018/10/11 14:18:39","新北市中和區民利街73號","121.478535","24.99818","6500300","中和區"
