"lineid","car","time","location","longitude","latitude","cityid","cityname"
"244003","248-BX","2018/10/11 15:17:57","新北市林口區東林街43號","121.39481","25.0795566666667","6501700","林口區"
"243008","KEA-2801","2018/10/11 15:17:46","新北市泰山區文程路23號","121.428543333333","25.0492","6501600","泰山區"
"243003","KEA-2215","2018/10/11 15:17:52","新北市泰山區明志路三段197號","121.424175","25.0386933333333","6501600","泰山區"
"231028","001-UM","2018/10/11 15:17:58","新北市新店區僑愛一路1號","121.499858333333","24.9449866666667","6500600","新店區"
"231002","002-UM","2018/10/11 15:17:48","新北市新店區中正路700巷1號","121.53393","24.9911733333333","6500600","新店區"
"231001","047-UY","2018/10/11 15:17:58","新北市新店區北新路一段343號","121.54179","24.9689816666667","6500600","新店區"
"231005","106-UY","2018/10/11 15:17:57","新北市新店區二十張路59號","121.53756","24.9806516666667","6500600","新店區"
"231011","187-VK","2018/10/11 15:17:57","新北市新店區寶元路一段61號","121.542226666667","24.9860066666667","6500600","新店區"
"231031","188-VK","2018/10/11 15:18:04","新北市新店區安泰路60巷55弄39號","121.484471666667","24.9456183333333","6500600","新店區"
"231021","189-VK","2018/10/11 15:17:59","新北市新店區湖興路109號","121.560578333333","24.9354766666667","6500600","新店區"
"231023","KEA-2219","2018/10/11 15:17:46","新北市新店區北新路一段64巷29號","121.541981666667","24.965825","6500600","新店區"
"231026","256-BX","2018/10/11 15:17:55","新北市新店區中正路265巷21號","121.537776666667","24.9731966666667","6500600","新店區"
"231003","268-BY","2018/10/11 15:18:03","新北市新店區寶橋路238號","121.551686666667","24.9788816666667","6500600","新店區"
"231018","278-BY","2018/10/11 15:18:00","新北市新店區中央七街47號","121.528683333333","24.9759033333333","6500600","新店區"
"231017","AAD-862","2018/10/11 15:17:48","新北市新店區明山路45號","121.56387","24.9558966666667","6500600","新店區"
"231038","3712-VJ","2018/10/11 15:17:53","新北市新店區安華路28-1號","121.519733333333","24.9609016666667","6500600","新店區"
"231037","4716-K9","2018/10/11 15:18:00","新北市新店區安民街341-1號","121.51664","24.9749633333333","6500600","新店區"
"231025","4715-K9","2018/10/11 15:18:06","新北市新店區百忍街90號","121.53267","24.9773033333333","6500600","新店區"
"231036","512-UM","2018/10/11 15:17:53","新北市新店區安祥路69巷31號","121.481785","24.96065","6500600","新店區"
"231034","616-UM","2018/10/11 15:18:03","新北市新店區玫瑰路34號","121.495613333333","24.950035","6500600","新店區"
"231006","617-UM","2018/10/11 15:17:48","新北市新店區新坡一街113號","121.547291666667","24.96403","6500600","新店區"
"231030","619-UM","2018/10/11 15:17:53","新北市新店區安民街341-1號","121.516855","24.9749233333333","6500600","新店區"
"231035","719-UM","2018/10/11 15:17:48","新北市新店區永平街16巷22號","121.517213333333","24.9842833333333","6500600","新店區"
"231039","719-UY","2018/10/11 15:17:59","新北市新店區寶元路一段61號","121.542248333333","24.9859083333333","6500600","新店區"
"231029","897-TW","2018/10/11 15:18:02","新北市新店區安康路三段738號","121.473913333333","24.9419716666667","6500600","新店區"
"231004","899-TW","2018/10/11 15:17:57","新北市新店區建國路29號","121.540203333333","24.9740766666667","6500600","新店區"
"231024","AKT-0513","2018/10/11 15:17:48","新北市新店區新明街10號","121.54105","24.9682283333333","6500600","新店區"
"241028","022-UY","2018/10/11 15:17:50","新北市三重區重新路四段121號","121.484993333333","25.0524216666667","6500200","三重區"
"235030","003-UY","2018/10/11 15:18:03","新北市中和區光華街85號","121.50695","25.00265","6500300","中和區"
"235029","098-UM","2018/10/11 15:17:50","新北市中和區永和路88-3號","121.497293333333","25.0054033333333","6500300","中和區"
"235006","KEA-2878","2018/10/11 15:18:04","新北市中和區仁愛街36巷36號","121.511168333333","24.9866416666667","6500300","中和區"
"247011","KEA-2869","2018/10/11 15:18:02","新北市林口區太平里180號","121.367196666667","25.1350866666667","6501400","蘆洲區"
"235014","4979-A6","2018/10/11 15:17:52","新北市中和區景平路464巷2弄1-4號","121.50588","24.99402","6500300","中和區"
"235033","4980-A6","2018/10/11 15:17:57","新北市中和區圓通路196號","121.49631","24.994595","6500300","中和區"
"235034","558-UM","2018/10/11 15:17:52","新北市中和區中正路534號","121.487631666667","24.9945533333333","6500300","中和區"
"235018","640-BX","2018/10/11 15:18:03","新北市中和區民享街35巷8弄15號","121.474693333333","25.0034866666667","6500300","中和區"
"235012","896-TW","2018/10/11 15:17:59","新北市中和區興南路一段50號","121.510988333333","24.99055","6500300","中和區"
"235023","AAC-215","2018/10/11 15:18:04","新北市中和區圓通路320-1號","121.485396666667","24.98789","6500300","中和區"
"220016","013-TV","2018/10/11 15:17:55","新北市板橋區中山路二段416巷1弄4號","121.483285","25.0208666666667","6500100","板橋區"
"253003","6232-TK","2018/10/11 15:17:48","新北市石門區小坑9號","121.594486666667","25.2891","6502200","石門區"
"253001","6251-TK","2018/10/11 15:17:56","新北市石門區小坑9號","121.594566666667","25.28918","6502200","石門區"
"253002","637-UY","2018/10/11 15:17:46","新北市石門區阿里磅1號","121.588483333333","25.2912966666667","6502200","石門區"
"253004","8270-PC","2018/10/11 15:17:57","新北市石門區小坑20號","121.596406666667","25.2819566666667","6502200","石門區"
"207002","749-BX","2018/10/11 15:18:02","新北市萬里區崁腳里內中福路38-1號","121.659361666667","25.16377","6502800","萬里區"
"207001","662-BX","2018/10/11 15:17:58","新北市萬里區磺潭里員潭路10號","121.64671","25.1991083333333","6502800","萬里區"
"236068","105-UM","2018/10/11 15:18:00","新北市土城區裕民路185巷36弄10號","121.454338333333","24.984505","6501300","土城區"
"236040","107-UM","2018/10/11 15:17:56","新北市土城區金城路二段239號","121.455713333333","24.98251","6501300","土城區"
"236074","166-UM","2018/10/11 15:17:57","新北市土城區中州路27巷1號","121.413708333333","24.9577566666667","6501300","土城區"
"236029","253-BX","2018/10/11 15:17:47","新北市土城區中央路一段262巷17號","121.443256666667","24.9841233333333","6501300","土城區"
"236024","269-VK","2018/10/11 15:17:58","新北市土城區員林街6-1號","121.44271","24.978065","6501300","土城區"
"236012","270-VK","2018/10/11 15:17:46","新北市土城區學府路一段15-2號","121.458486666667","24.9879516666667","6501300","土城區"
"236032","271-VK","2018/10/11 15:17:52","新北市土城區國際路139巷59號","121.468511666667","24.9775666666667","6501300","土城區"
"236017","401-BY","2018/10/11 15:17:53","新北市土城區峰廷街8號","121.468685","24.9877683333333","6501300","土城區"
"236054","752-BX","2018/10/11 15:17:56","新北市土城區學府路一段220號","121.452178333333","24.9851383333333","6501300","土城區"
"236057","912-UM","2018/10/11 15:18:06","新北市土城區中央路二段237號","121.440261666667","24.972115","6501300","土城區"
"236045","913-UM","2018/10/11 15:18:00","新北市土城區金城路三段11號","121.464536666667","24.9861666666667","6501300","土城區"
"236060","915-UM","2018/10/11 15:17:54","新北市土城區延平街69巷4號","121.467271666667","24.9929833333333","6501300","土城區"
"238006","599-UM","2018/10/11 15:17:55","新北市樹林區太平路25-1號","121.419186666667","24.98334","6500700","樹林區"
"238005","571-TV","2018/10/11 15:17:57","新北市樹林區樹新路122號","121.430106666667","24.9983916666667","6500700","樹林區"
"238011","5061-A6","2018/10/11 15:17:50","新北市樹林區鎮前街142號","121.424658333333","24.990445","6500700","樹林區"
"238009","KEA-2213","2018/10/11 15:17:48","新北市樹林區仁愛街83巷1號","121.424346666667","24.98319","6500700","樹林區"
"238008","KEA-2539","2018/10/11 15:17:46","新北市樹林區西圳街一段165巷20弄11號","121.395671666667","24.9602183333333","6500700","樹林區"
"238012","303-VK","2018/10/11 15:18:01","新北市樹林區中山路一段10號","121.42411","24.992675","6500700","樹林區"
"238001","283-BY","2018/10/11 15:17:48","新北市樹林區啟智街124巷13號","121.415293333333","24.988155","6500700","樹林區"
"238001","282-BY","2018/10/11 15:17:49","新北市樹林區大安路255號","121.419305","24.9940783333333","6500700","樹林區"
"238007","268-VK","2018/10/11 15:17:47","新北市樹林區中正路243號","121.430176666667","24.9985166666667","6500700","樹林區"
"238013","172-UY","2018/10/11 15:18:00","新北市樹林區東大街144號","121.410038333333","24.975945","6500700","樹林區"
"238003","169-UY","2018/10/11 15:17:55","新北市樹林區八德街1號","121.417605","24.9848933333333","6500700","樹林區"
"221027","281-BY","2018/10/11 15:17:50","新北市汐止區康寧街901號","121.65169","25.0749616666667","6501100","汐止區"
"221033","647-BX","2018/10/11 15:17:56","新北市汐止區汐萬路二段220號","121.646823333333","25.0876666666667","6501100","汐止區"
"220050","245-BX","2018/10/11 15:17:57","新北市板橋區莊敬路75巷31號","121.473846666667","25.02622","6500100","板橋區"
"220031","286-VK","2018/10/11 15:17:52","新北市板橋區僑中二街102巷2號","121.44617","25.0083283333333","6500100","板橋區"
"220029","287-VK","2018/10/11 15:17:54","新北市板橋區僑中一街80巷1弄18號","121.44682","25.0120516666667","6500100","板橋區"
"220009","293-UM","2018/10/11 15:17:50","新北市板橋區四川路一段35號","121.459578333333","25.0066166666667","6500100","板橋區"
"220041","307-R5","2018/10/11 15:18:05","新北市板橋區民權路170巷12號","121.460293333333","25.0133466666667","6500100","板橋區"
"220038","487-VK","2018/10/11 15:17:51","新北市板橋區互助街102號","121.459863333333","25.026","6500100","板橋區"
"220037","491-VK","2018/10/11 15:18:01","新北市板橋區民治街85號","121.47951","25.0321266666667","6500100","板橋區"
"220052","561-BX","2018/10/11 15:17:51","新北市板橋區漢生東路23巷1-2號","121.465208333333","25.0172883333333","6500100","板橋區"
"220011","609-BX","2018/10/11 15:18:02","新北市板橋區三民路一段131號","121.479333333333","25.0204366666667","6500100","板橋區"
"220025","687-BX","2018/10/11 15:18:05","新北市板橋區僑中一街124巷62-1號","121.446751666667","25.0166833333333","6500100","板橋區"
"220042","689-BX","2018/10/11 15:17:58","新北市板橋區長江路二段188號","121.466968333333","25.03202","6500100","板橋區"
"220051","KEA-2699","2018/10/11 15:18:01","新北市板橋區文化路一段305號","121.465188333333","25.0190616666667","6500100","板橋區"
"220014","829-TW","2018/10/11 15:17:59","新北市板橋區中山路一段208號","121.469765","25.01374","6500100","板橋區"
"220046","AAC-210","2018/10/11 15:18:01","新北市板橋區公館街29號","121.461188333333","25.0153933333333","6500100","板橋區"
"220018","AAC-253","2018/10/11 15:18:06","新北市土城區四川路22號","121.455273333333","24.9959383333333","6500100","板橋區"
