"lineid","car","time","location","longitude","latitude","cityid","cityname"
"231028","001-UM","2018/10/11 15:37:55","新北市新店區僑義路33號","121.500526666667","24.9504083333333","6500600","新店區"
"231005","106-UY","2018/10/11 15:37:57","新北市新店區民族路241號","121.536466666667","24.9755983333333","6500600","新店區"
"231011","187-VK","2018/10/11 15:37:57","新北市新店區寶元路一段109號","121.545641666667","24.9831166666667","6500600","新店區"
"231031","188-VK","2018/10/11 15:38:04","新北市新店區裕合街143號","121.489171666667","24.9491066666667","6500600","新店區"
"231021","189-VK","2018/10/11 15:37:59","新北市新店區花園二路二段14-2號","121.554966666667","24.9316933333333","6500600","新店區"
"231023","KEA-2219","2018/10/11 15:37:46","新北市新店區五峰路43號","121.544535","24.9689116666667","6500600","新店區"
"231026","256-BX","2018/10/11 15:37:57","新北市新店區三民路75巷3弄1號","121.535765","24.9710583333333","6500600","新店區"
"231003","268-BY","2018/10/11 15:37:43","新北市新店區寶高路102巷20號","121.552693333333","24.9740733333333","6500600","新店區"
"231018","278-BY","2018/10/11 15:38:00","新北市新店區民生路156巷64號","121.527726666667","24.98182","6500600","新店區"
"231017","AAD-862","2018/10/11 15:37:48","新北市新店區北宜路二段8號","121.547793333333","24.9518333333333","6500600","新店區"
"231038","3712-VJ","2018/10/11 15:37:53","新北市新店區安康路一段351-1號","121.519473333333","24.9640183333333","6500600","新店區"
"231037","4716-K9","2018/10/11 15:38:00","新北市新店區安興路112號","121.51464","24.97752","6500600","新店區"
"231025","4715-K9","2018/10/11 15:38:06","新北市新店區柴埕路116號","121.504566666667","24.9598383333333","6500600","新店區"
"231036","512-UM","2018/10/11 15:37:53","新北市新店區安康路二段341巷2號","121.496363333333","24.9551116666667","6500600","新店區"
"231013","513-UM","2018/10/11 15:38:01","新北市新店區永業路81巷5弄33號","121.53111","24.9499733333333","6500600","新店區"
"231034","616-UM","2018/10/11 15:38:03","新北市新店區玫瑰路58巷34號","121.493518333333","24.9469066666667","6500600","新店區"
"231030","619-UM","2018/10/11 15:37:52","新北市新店區新和街93巷2號","121.521025","24.9864883333333","6500600","新店區"
"231035","719-UM","2018/10/11 15:37:48","新北市新店區安興路83-3號","121.515305","24.9755333333333","6500600","新店區"
"231039","719-UY","2018/10/11 15:37:59","新北市新店區寶元路二段14巷1號","121.545938333333","24.9825716666667","6500600","新店區"
"231029","897-TW","2018/10/11 15:38:02","新北市新店區安康路三段27號","121.493233333333","24.9532083333333","6500600","新店區"
"231004","899-TW","2018/10/11 15:37:57","新北市新店區民族路105號","121.538276666667","24.9773933333333","6500600","新店區"
"241011","013-R5","2018/10/11 15:37:45","新北市三重區文化北路248號","121.497388333333","25.06997","6500200","三重區"
"241028","022-UY","2018/10/11 15:37:50","新北市三重區成功路55號","121.489116666667","25.05097","6500200","三重區"
"241015","062-VK","2018/10/11 15:37:56","新北市三重區重新路四段121號","121.485068333333","25.0524","6500200","三重區"
"241017","063-VK","2018/10/11 15:38:00","新北市三重區大仁街1號","121.491638333333","25.063575","6500200","三重區"
"241003","091-VK","2018/10/11 15:37:59","新北市三重區重新路四段121號","121.485138333333","25.0524883333333","6500200","三重區"
"241009","265-UM","2018/10/11 15:37:55","新北市三重區重新路四段121號","121.484918333333","25.05257","6500200","三重區"
"241016","266-UM","2018/10/11 15:37:54","新北市三重區重新路四段121號","121.484811666667","25.0526416666667","6500200","三重區"
"241018","268-UM","2018/10/11 15:37:59","新北市三重區重新路四段121號","121.484926666667","25.0527533333333","6500200","三重區"
"241013","270-UM","2018/10/11 15:37:44","新北市三重區忠孝路一段101號","121.48956","25.0720766666667","6500200","三重區"
"241007","398-BY","2018/10/11 15:37:57","新北市三重區重新路四段121號","121.485063333333","25.0524583333333","6500200","三重區"
"241004","475-VK","2018/10/11 15:37:50","新北市三重區重新路四段121號","121.485008333333","25.0525166666667","6500200","三重區"
"241020","478-VK","2018/10/11 15:37:59","新北市三重區忠孝路二段52號","121.485075","25.07043","6500200","三重區"
"241030","480-VK","2018/10/11 15:37:51","新北市三重區重新路四段121號","121.48522","25.0524416666667","6500200","三重區"
"241014","543-UM","2018/10/11 15:37:48","新北市三重區重新路四段121號","121.48491","25.052625","6500200","三重區"
"241023","545-UM","2018/10/11 15:37:48","新北市三重區重新路四段121號","121.48485","25.0525683333333","6500200","三重區"
"241006","AAD-863","2018/10/11 15:38:00","新北市三重區重新路四段121號","121.484628333333","25.052135","6500200","三重區"
"241012","941-UM","2018/10/11 15:38:03","新北市三重區正義北路176號","121.496466666667","25.0664016666667","6500200","三重區"
"241029","942-UM","2018/10/11 15:37:46","新北市三重區中正南路262號","121.493218333333","25.052805","6500200","三重區"
"241033","AAC-255","2018/10/11 15:37:45","新北市三重區中興南街74號","121.470913333333","25.0436366666667","6500200","三重區"
"247011","KEA-2869","2018/10/11 15:38:02","新北市五股區孝義路9-17號","121.448826666667","25.1069316666667","6501400","蘆洲區"
"235033","4980-A6","2018/10/11 15:37:57","新北市中和區員山路359巷1弄8號","121.481028333333","25.0016933333333","6500300","中和區"
"235023","AAC-215","2018/10/11 15:38:04","新北市中和區員山路36巷16號","121.484331666667","24.9916066666667","6500300","中和區"
"220016","013-TV","2018/10/11 15:37:55","新北市板橋區光復街177號","121.48489","25.020825","6500100","板橋區"
"227004","642-TC","2018/10/11 15:37:47","新北市雙溪區牡丹里中正路103號","121.861613333333","25.0476083333333","6502500","雙溪區"
"236068","105-UM","2018/10/11 15:38:00","新北市土城區中央路三段32號","121.438521666667","24.96896","6501300","土城區"
"236040","107-UM","2018/10/11 15:37:56","新北市土城區學享街10號","121.451073333333","24.9874366666667","6501300","土城區"
"236074","166-UM","2018/10/11 15:38:00","新北市土城區龍泉路22號","121.410581666667","24.9481766666667","6501300","土城區"
"236029","253-BX","2018/10/11 15:37:52","新北市土城區中央路一段45巷2弄26號","121.448176666667","24.989685","6501300","土城區"
"236024","269-VK","2018/10/11 15:38:06","新北市土城區中央路一段289號","121.444518333333","24.9842816666667","6501300","土城區"
"236012","270-VK","2018/10/11 15:37:47","新北市土城區廣明街63巷26號","121.454083333333","24.9932566666667","6501300","土城區"
"236017","401-BY","2018/10/11 15:37:53","新北市土城區延吉街111巷12弄15-2號","121.471876666667","24.9849133333333","6501300","土城區"
"236054","752-BX","2018/10/11 15:37:56","新北市土城區金城路三段115號","121.46779","24.9877833333333","6501300","土城區"
"236057","912-UM","2018/10/11 15:37:45","新北市土城區中央路一段260號","121.444148333333","24.984225","6501300","土城區"
"236045","913-UM","2018/10/11 15:38:00","新北市土城區金城路三段297號","121.474143333333","24.990955","6501300","土城區"
"236060","915-UM","2018/10/11 15:37:54","新北市土城區延和路18巷14號","121.464501666667","24.9879933333333","6501300","土城區"
"238002","755-BX","2018/10/11 15:37:47","新北市樹林區育英街78號","121.42073","24.9893333333333","6500700","樹林區"
"238010","601-UM","2018/10/11 15:38:03","新北市樹林區三福街114號","121.406183333333","25.0163116666667","6500700","樹林區"
"238006","599-UM","2018/10/11 15:37:55","新北市樹林區八德街11號","121.420273333333","24.9749833333333","6500700","樹林區"
"238005","571-TV","2018/10/11 15:37:57","新北市樹林區中華路219-1號","121.419475","24.9811516666667","6500700","樹林區"
"238011","5061-A6","2018/10/11 15:37:50","新北市樹林區八德街212巷26號","121.415171666667","24.973895","6500700","樹林區"
"238009","KEA-2213","2018/10/11 15:37:48","新北市樹林區中華路187巷15號","121.420806666667","24.9809916666667","6500700","樹林區"
"238008","KEA-2539","2018/10/11 15:37:56","新北市樹林區柑園街一段345號","121.390563333333","24.9564583333333","6500700","樹林區"
"238012","303-VK","2018/10/11 15:37:49","新北市樹林區中山路二段110-6號","121.413801666667","24.983195","6500700","樹林區"
"238004","283-BY","2018/10/11 15:37:48","新北市樹林區保安街二段295巷14號","121.411688333333","25.0059983333333","6500700","樹林區"
"238001","282-BY","2018/10/11 15:37:49","新北市樹林區潭興街107巷21弄18號","121.423808333333","24.9988066666667","6500700","樹林區"
"238007","268-VK","2018/10/11 15:38:06","新北市樹林區俊英街176號","121.426275","25.00751","6500700","樹林區"
"238013","172-UY","2018/10/11 15:37:59","新北市樹林區新興街19巷2弄21號","121.401538333333","24.9729033333333","6500700","樹林區"
"238003","169-UY","2018/10/11 15:37:37","新北市樹林區育英街64號","121.421065","24.98929","6500700","樹林區"
"220050","245-BX","2018/10/11 15:37:57","新北市板橋區縣民大道二段112號","121.467223333333","25.0155733333333","6500100","板橋區"
"220031","286-VK","2018/10/11 15:37:52","新北市板橋區僑中二街116巷27號","121.444491666667","25.0065833333333","6500100","板橋區"
"220038","487-VK","2018/10/11 15:37:51","新北市板橋區四維路268號","121.463216666667","25.0284833333333","6500100","板橋區"
"220052","561-BX","2018/10/11 15:37:51","新北市板橋區漢生東路73巷2號","121.466315","25.0162333333333","6500100","板橋區"
