"lineid","car","time","location","longitude","latitude","cityid","cityname"
"243012","646-TV","2018/10/11 15:40:53","新北市泰山區黎明路25號","121.421988333333","25.06064","6501600","泰山區"
"243014","680-BX","2018/10/11 15:41:20","新北市泰山區黎明路25號","121.422003333333","25.0606966666667","6501600","泰山區"
"231028","001-UM","2018/10/11 15:47:55","新北市新店區薏仁坑路自強巷1號","121.497756666667","24.9576733333333","6500600","新店區"
"231046","107-UY","2018/10/11 15:47:51","新北市新店區安一路一段1-1號","121.519946666667","24.961205","6500600","新店區"
"231011","187-VK","2018/10/11 15:47:57","新北市新店區文化路45號","121.544583333333","24.9809616666667","6500600","新店區"
"231031","188-VK","2018/10/11 15:48:04","新北市新店區雙城路127號","121.492553333333","24.9472433333333","6500600","新店區"
"231021","189-VK","2018/10/11 15:47:58","新北市新店區新烏路一段159號","121.544826666667","24.93563","6500600","新店區"
"231023","KEA-2219","2018/10/11 15:47:46","新北市新店區中興路一段252號","121.544498333333","24.9667833333333","6500600","新店區"
"231026","256-BX","2018/10/11 15:47:55","新北市新店區三民路138-1號","121.535065","24.9749916666667","6500600","新店區"
"231003","268-BY","2018/10/11 15:48:03","新北市新店區寶興路60巷3號","121.549868333333","24.971815","6500600","新店區"
"231018","278-BY","2018/10/11 15:48:00","新北市新店區中正路663巷7弄15號","121.532991666667","24.9900966666667","6500600","新店區"
"231017","AAD-862","2018/10/11 15:47:48","新北市新店區中華路117巷6弄2號","121.537833333333","24.9687866666667","6500600","新店區"
"231038","3712-VJ","2018/10/11 15:47:53","新北市新店區安康路二段242巷9號","121.508755","24.9595783333333","6500600","新店區"
"231037","4716-K9","2018/10/11 15:48:00","新北市新店區安興路112號","121.514763333333","24.9775583333333","6500600","新店區"
"231013","513-UM","2018/10/11 15:48:01","新北市新店區永業路81巷3弄10號","121.530276666667","24.9494016666667","6500600","新店區"
"231034","616-UM","2018/10/11 15:48:03","新北市新店區吉祥街11巷2號","121.497768333333","24.946445","6500600","新店區"
"231030","619-UM","2018/10/11 15:47:57","新北市新店區永安街42號","121.518163333333","24.986735","6500600","新店區"
"231035","719-UM","2018/10/11 15:47:48","新北市新店區安興路83-3號","121.51527","24.9755183333333","6500600","新店區"
"231039","719-UY","2018/10/11 15:47:59","新北市新店區寶中路51號","121.546886666667","24.980115","6500600","新店區"
"231029","897-TW","2018/10/11 15:48:02","新北市新店區薏仁坑路22號","121.498611666667","24.9591283333333","6500600","新店區"
"231004","899-TW","2018/10/11 15:47:57","新北市新店區民族路190號","121.536315","24.97554","6500600","新店區"
"241011","013-R5","2018/10/11 15:48:05","新北市三重區文化北路248號","121.497425","25.0698983333333","6500200","三重區"
"241028","022-UY","2018/10/11 15:47:50","新北市三重區重新路三段86號","121.49318","25.0606883333333","6500200","三重區"
"241015","062-VK","2018/10/11 15:47:56","新北市三重區重新路四段121號","121.485095","25.052375","6500200","三重區"
"241017","063-VK","2018/10/11 15:48:00","新北市三重區大仁街1號","121.491666666667","25.0636666666667","6500200","三重區"
"241026","066-VK","2018/10/11 15:47:53","新北市三重區成功路72號","121.488323333333","25.051095","6500200","三重區"
"241003","091-VK","2018/10/11 15:47:59","新北市三重區河邊北街23號","121.504568333333","25.0660266666667","6500200","三重區"
"241005","262-UM","2018/10/11 15:47:55","新北市三重區河邊北街15號","121.504368333333","25.06484","6500200","三重區"
"241009","265-UM","2018/10/11 15:47:55","新北市三重區重新路四段121號","121.485103333333","25.0525383333333","6500200","三重區"
"241016","266-UM","2018/10/11 15:47:54","新北市三重區重新路四段121號","121.484835","25.0526416666667","6500200","三重區"
"241018","268-UM","2018/10/11 15:47:59","新北市三重區重新路四段2-3號","121.48921","25.058265","6500200","三重區"
"241013","270-UM","2018/10/11 15:48:04","新北市三重區六張街28號","121.49531","25.0705883333333","6500200","三重區"
"241025","271-UM","2018/10/11 15:47:58","新北市三重區忠孝路三段52號","121.480698333333","25.0656733333333","6500200","三重區"
"241007","398-BY","2018/10/11 15:47:57","新北市三重區三民街206號","121.481015","25.0663133333333","6500200","三重區"
"241004","475-VK","2018/10/11 15:47:50","新北市三重區重新路四段121號","121.485013333333","25.0525166666667","6500200","三重區"
"241020","478-VK","2018/10/11 15:47:59","新北市三重區忠孝路二段52號","121.485105","25.0703533333333","6500200","三重區"
"241030","480-VK","2018/10/11 15:47:51","新北市三重區重新路四段121號","121.485163333333","25.0524716666667","6500200","三重區"
"241014","543-UM","2018/10/11 15:47:48","新北市三重區重新路四段121號","121.484938333333","25.0526683333333","6500200","三重區"
"241023","545-UM","2018/10/11 15:47:48","新北市三重區忠孝路三段84巷16-1號","121.480761666667","25.0648333333333","6500200","三重區"
"241006","AAD-863","2018/10/11 15:47:59","新北市三重區重新路四段121號","121.484713333333","25.0523183333333","6500200","三重區"
"241024","887-TS","2018/10/11 15:47:53","新北市三重區重新路四段121號","121.484601666667","25.0520633333333","6500200","三重區"
"241012","941-UM","2018/10/11 15:48:02","新北市三重區自強路一段40號","121.497906666667","25.0671733333333","6500200","三重區"
"241029","942-UM","2018/10/11 15:47:46","新北市三重區正義南路169號","121.499031666667","25.0573916666667","6500200","三重區"
"241033","AAC-255","2018/10/11 15:47:45","新北市三重區光復路一段49號","121.472065","25.0487316666667","6500200","三重區"
"247011","KEA-2869","2018/10/11 15:47:49","新北市五股區新五路二段265號","121.441616666667","25.084035","6501400","蘆洲區"
"235033","4980-A6","2018/10/11 15:47:57","新北市中和區連城路469巷44弄10號","121.482858333333","24.9945783333333","6500300","中和區"
"220016","013-TV","2018/10/11 15:47:55","新北市板橋區中山路二段374號","121.48192","25.0202716666667","6500100","板橋區"
"247008","336-TH","2018/10/11 15:47:43","新北市五股區中興路三段2巷10號","121.449321666667","25.0810516666667","6501400","蘆洲區"
"227004","642-TC","2018/10/11 15:47:47","新北市雙溪區平林里外平林44號","121.852951666667","25.036325","6502500","雙溪區"
"227010","400-TW","2018/10/11 15:44:35","新北市雙溪區牡丹里牡丹96號","121.85041","25.0602883333333","6502500","雙溪區"
"236068","105-UM","2018/10/11 15:48:00","新北市土城區中山路34號","121.424761666667","24.963805","6501300","土城區"
"236074","166-UM","2018/10/11 15:47:57","新北市土城區中央路四段290號","121.414276666667","24.9562566666667","6501300","土城區"
"236024","269-VK","2018/10/11 15:48:06","新北市土城區中央路一段249巷10弄1號","121.445775","24.9854583333333","6501300","土城區"
"236012","270-VK","2018/10/11 15:48:06","新北市土城區廣明街100號","121.454753333333","24.994485","6501300","土城區"
"236017","401-BY","2018/10/11 15:47:58","新北市土城區和城路二段253號","121.473105","24.9874766666667","6501300","土城區"
"236054","752-BX","2018/10/11 15:47:56","新北市土城區中央路一段43號","121.448253333333","24.9904066666667","6501300","土城區"
"236057","912-UM","2018/10/11 15:48:06","新北市土城區中央路一段237號","121.445546666667","24.9861666666667","6501300","土城區"
"236045","913-UM","2018/10/11 15:48:00","新北市土城區清水路71號","121.455621666667","24.9813783333333","6501300","土城區"
"238002","755-BX","2018/10/11 15:48:01","新北市樹林區樹德街90號","121.420323333333","24.9925316666667","6500700","樹林區"
"238010","601-UM","2018/10/11 15:47:58","桃園市龜山區龍興街12巷9號","121.402091666667","25.0161566666667","6500700","樹林區"
"238006","599-UM","2018/10/11 15:47:55","新北市樹林區水源街32巷49號","121.425333333333","24.9803616666667","6500700","樹林區"
"238005","571-TV","2018/10/11 15:48:02","新北市樹林區中華路47號","121.42362","24.9833566666667","6500700","樹林區"
"238011","5061-A6","2018/10/11 15:47:50","新北市樹林區中山路二段189巷6號","121.405366666667","24.976515","6500700","樹林區"
"238009","KEA-2213","2018/10/11 15:48:03","新北市樹林區太順街62巷3弄2號","121.417438333333","24.979715","6500700","樹林區"
"238008","KEA-2539","2018/10/11 15:47:46","新北市樹林區柑園街二段152號","121.381995","24.9543066666667","6500700","樹林區"
"238012","303-VK","2018/10/11 15:47:59","新北市樹林區保安二街52號","121.424336666667","24.9952133333333","6500700","樹林區"
"238004","283-BY","2018/10/11 15:47:48","新北市樹林區光華街14巷1號","121.41344","25.003095","6500700","樹林區"
"238001","282-BY","2018/10/11 15:47:52","新北市樹林區千歲街61巷6號","121.42635","24.998045","6500700","樹林區"
"238007","268-VK","2018/10/11 15:47:47","新北市樹林區三俊街253號","121.422281666667","25.0144783333333","6500700","樹林區"
"238013","172-UY","2018/10/11 15:47:59","新北市樹林區八德街598巷3號","121.397463333333","24.970585","6500700","樹林區"
"238003","169-UY","2018/10/11 15:47:55","新北市樹林區復興路308巷2弄4號","121.416878333333","24.987335","6500700","樹林區"
"220050","245-BX","2018/10/11 15:47:57","新北市三重區光復路二段175號","121.472651666667","25.061865","6500100","板橋區"
