"lineid","car","time","location","longitude","latitude","cityid","cityname"
"234011","9372-KE","2018/10/11 17:48:03","新北市永和區福和路1號","121.525496666667","25.0095116666667","6500400","永和區"
"234026","9371-KE","2018/10/11 17:47:55","新北市永和區永平路160號","121.511001666667","25.008835","6500400","永和區"
"249005","172-UM","2018/10/11 17:47:52","新北市八里區荖阡坑路34-1號","121.402781666667","25.1296583333333","6502300","八里區"
"249001","173-UM","2018/10/11 17:48:00","新北市八里區龍米路二段108號","121.443655","25.1496516666667","6502300","八里區"
"249004","303-UY","2018/10/11 17:48:09","新北市八里區中華路一段81巷18號","121.419581666667","25.15581","6502300","八里區"
"249002","305-UY","2018/10/11 17:48:07","新北市八里區石壁腳19號","121.441711666667","25.1353566666667","6502300","八里區"
"249003","593-UM","2018/10/11 17:47:54","新北市八里區中山路二段196號","121.405756666667","25.1524116666667","6502300","八里區"
"248016","026-BX","2018/10/11 17:47:55","新北市五股區中興路二段83巷26-6號","121.459995","25.075225","6501500","五股區"
"248008","095-VK","2018/10/11 17:48:00","新北市五股區中興路二段37巷26號","121.460311666667","25.0751966666667","6501500","五股區"
"248014","261-SL","2018/10/11 17:48:09","新北市五股區中興路二段83巷26-6號","121.460058333333","25.0752166666667","6501500","五股區"
"232011","375-UM","2018/10/11 17:47:58","新北市坪林區北宜路八段256號","121.709408333333","24.9350333333333","6502000","坪林區"
"244023","069-UM","2018/10/11 17:48:02","新北市林口區東湖一街1號","121.38747","25.0733133333333","6501700","林口區"
"244007","080-UY","2018/10/11 17:48:09","新北市林口區林口路270號","121.386316666667","25.0845816666667","6501700","林口區"
"244019","403-UM","2018/10/11 17:48:07","新北市林口區忠孝路542巷11弄2號","121.37304","25.067015","6501700","林口區"
"244013","KEA-2802","2018/10/11 17:47:54","新北市林口區中正路453號","121.384366666667","25.077755","6501700","林口區"
"244017","485-VK","2018/10/11 17:48:09","新北市林口區文化二路一段260巷1-1號","121.37126","25.07326","6501700","林口區"
"244009","656-BX","2018/10/11 17:48:02","新北市林口區忠孝路512號","121.384591666667","25.0833116666667","6501700","林口區"
"244011","701-TV","2018/10/11 17:47:54","新北市林口區中正路350號","121.386496666667","25.0777633333333","6501700","林口區"
"244025","837-TS","2018/10/11 17:48:07","新北市林口區文化三路一段225巷13號","121.361933333333","25.0714","6501700","林口區"
"244021","838-TS","2018/10/11 17:47:52","新北市林口區仁愛路一段139巷9號","121.398155","25.0716983333333","6501700","林口區"
"243014","680-BX","2018/10/11 17:45:52","新北市泰山區黎明路25號","121.422101666667","25.0606266666667","6501600","泰山區"
"222003","436-BY","2018/10/11 17:47:51","新北市深坑區阿柔洋60-1號","121.608561666667","24.998515","6501800","深坑區"
"222002","659-BX","2018/10/11 17:47:52","新北市深坑區平埔街22巷17弄1號","121.614875","25.0008566666667","6501800","深坑區"
"231046","107-UY","2018/10/11 17:48:11","新北市新店區下石厝路1號","121.531195","24.9298383333333","6500600","新店區"
"231055","AKT-0513","2018/10/11 17:47:59","新北市新店區安華路1-1號","121.519496666667","24.9604633333333","6500600","新店區"
"251014","742-BX","2018/10/11 17:48:09","新北市淡水區公埔子16-6號","121.481003333333","25.2246083333333","6501000","淡水區"
"241005","262-UM","2018/10/11 17:47:55","新北市三重區仁愛街519號","121.487341666667","25.0823283333333","6500200","三重區"
"241016","266-UM","2018/10/11 17:47:54","新北市三重區新北大道一段3-1號","121.490233333333","25.061395","6500200","三重區"
"241007","398-BY","2018/10/11 17:47:57","新北市三重區國道路一段139號","121.475993333333","25.0736183333333","6500200","三重區"
"241024","887-TS","2018/10/11 17:47:53","新北市三重區後竹圍街295號","121.478821666667","25.0698666666667","6500200","三重區"
"241012","941-UM","2018/10/11 17:48:02","新北市三重區龍濱路285號","121.500986666667","25.0734483333333","6500200","三重區"
"241033","AAC-255","2018/10/11 17:48:05","新北市三重區光復路一段16號","121.471986666667","25.047025","6500200","三重區"
"235058","151-BY","2018/10/11 17:48:00","新北市中和區員山路36巷16-2號","121.4853","24.991705","6500300","中和區"
"247012","KEA-2869","2018/10/11 17:47:55","新北市蘆洲區復興路60巷1弄2號","121.474833333333","25.08603","6501400","蘆洲區"
"247002","893-R6","2018/10/11 17:48:03","新北市蘆洲區永平街32巷21弄35號","121.457785","25.0923816666667","6501400","蘆洲區"
"247024","500-BY","2018/10/11 17:47:56","新北市蘆洲區光榮路122號","121.464616666667","25.0895166666667","6501400","蘆洲區"
"247014","339-TH","2018/10/11 17:48:11","新北市蘆洲區保和街69巷2弄1號","121.469531666667","25.0857033333333","6501400","蘆洲區"
"247006","337-TH","2018/10/11 17:48:00","新北市蘆洲區九芎街90巷12號","121.465501666667","25.0805266666667","6501400","蘆洲區"
"247008","336-TH","2018/10/11 17:47:54","新北市蘆洲區中山一路208號","121.473296666667","25.080825","6501400","蘆洲區"
"247020","057-VK","2018/10/11 17:47:59","新北市蘆洲區民義街71巷17號","121.472638333333","25.0906066666667","6501400","蘆洲區"
"247010","056-VK","2018/10/11 17:47:50","新北市蘆洲區民族路66號","121.477463333333","25.0846616666667","6501400","蘆洲區"
"247018","007-UY","2018/10/11 17:48:11","新北市蘆洲區復興路227巷2弄19號","121.480966666667","25.0903916666667","6501400","蘆洲區"
"247004","002-UY","2018/10/11 17:48:03","新北市蘆洲區長安街172巷12號","121.45967","25.083515","6501400","蘆洲區"
"247022","001-UY","2018/10/11 17:47:56","新北市蘆洲區中正路454號","121.46251","25.0949333333333","6501400","蘆洲區"
"228003","097-TW","2018/10/11 17:48:06","新北市貢寮區真理里美艷山街11-6號","121.927793333333","25.060145","6502600","貢寮區"
"228001","212-TW","2018/10/11 17:47:54","新北市貢寮區仁理村仁愛路95-1號","121.927656666667","25.0554216666667","6502600","貢寮區"
"228002","663-BX","2018/10/11 17:47:55","新北市貢寮區福隆里外隆林街16-4號","121.957906666667","25.005135","6502600","貢寮區"
"224006","676-BX","2018/10/11 17:48:00","新北市瑞芳區傑魚坑路183號","121.788461666667","25.1082616666667","6501200","瑞芳區"
"224008","285-BY","2018/10/11 17:48:02","新北市瑞芳區明燈路一段41號","121.821826666667","25.1070483333333","6501200","瑞芳區"
"224009","273-VK","2018/10/11 17:47:57","新北市瑞芳區山尖路86號","121.85381","25.1147083333333","6501200","瑞芳區"
"224005","271-BY","2018/10/11 17:48:10","新北市瑞芳區海濱路29號","121.83092","25.1243016666667","6501200","瑞芳區"
"227004","642-TC","2018/10/11 17:36:06","新北市雙溪區共和里東榮街52號","121.866333333333","25.0336833333333","6502500","雙溪區"
"253006","032-BX","2018/10/11 17:48:02","新北市石門區中山路62-7號","121.567375","25.2902333333333","6502200","石門區"
"208002","KEA-2872","2018/10/11 17:48:06","新北市金山區磺清路135號","121.639443333333","25.2277983333333","6502700","金山區"
"251009","008-UM","2018/10/11 17:48:07","新北市淡水區長興街29號","121.443933333333","25.1710516666667","6501000","淡水區"
"251005","010-UM","2018/10/11 17:48:01","新北市淡水區學府路102巷23號","121.451465","25.1717933333333","6501000","淡水區"
"251013","KEA-2871","2018/10/11 17:47:56","新北市淡水區泉洲厝31號","121.479585","25.1911333333333","6501000","淡水區"
"251016","179-VK","2018/10/11 17:47:56","新北市淡水區埤島39-15號","121.452741666667","25.19588","6501000","淡水區"
"251015","180-VK","2018/10/11 17:48:05","新北市淡水區興福寮28-1號","121.492021666667","25.1637433333333","6501000","淡水區"
"251008","181-VK","2018/10/11 17:48:08","新北市淡水區八勢路一段156號","121.468115","25.1563883333333","6501000","淡水區"
"251010","413-VK","2018/10/11 17:47:58","新北市淡水區淡海路280巷33弄34-2號","121.418731666667","25.18861","6501000","淡水區"
"251012","441-VK","2018/10/11 17:48:02","新北市淡水區北新路一段403號","121.46826","25.182895","6501000","淡水區"
"251007","442-VK","2018/10/11 17:47:54","新北市淡水區民生路52巷3號","121.462016666667","25.1376283333333","6501000","淡水區"
"251004","443-VK","2018/10/11 17:48:01","新北市淡水區民權一街16號","121.458925","25.136945","6501000","淡水區"
"251001","559-UM","2018/10/11 17:47:56","新北市淡水區民權路92巷35-1號","121.462178333333","25.1266383333333","6501000","淡水區"
"251006","561-UM","2018/10/11 17:47:57","新北市淡水區大信街1巷12號","121.440435","25.17675","6501000","淡水區"
"251011","650-BX","2018/10/11 17:47:10","新北市淡水區吳(仔)厝9號","121.479088333333","25.1469416666667","6501000","淡水區"
"251002","672-BX","2018/10/11 17:47:55","新北市淡水區中山路93號","121.442336666667","25.17054","6501000","淡水區"
"251003","766-UM","2018/10/11 17:47:55","新北市淡水區大忠街5巷1號","121.443166666667","25.1764083333333","6501000","淡水區"
"207003","550-UM","2018/10/11 17:48:01","新北市萬里區野柳里東澳路66號","121.692685","25.200915","6502800","萬里區"
"207004","225-TW","2018/10/11 17:48:09","新北市萬里區萬里里瑪鋉路12-4號","121.687738333333","25.17574","6502800","萬里區"
"252002","178-VK","2018/10/11 17:47:58","新北市三芝區智成街69號","121.504375","25.25587","6502100","三芝區"
"252001","292-VK","2018/10/11 17:47:57","新北市三芝區淡金路一段4-5號","121.498323333333","25.2596966666667","6502100","三芝區"
"237004","KEA-2597","2018/10/11 17:47:57","新北市三峽區中山路184巷1弄1號","121.363631666667","24.93687","6500900","三峽區"
"237009","210-TH","2018/10/11 17:47:58","新北市三峽區中山路130號","121.365355","24.936095","6500900","三峽區"
"237013","252-BX","2018/10/11 17:48:07","新北市三峽區愛國路16巷1號","121.374033333333","24.9334716666667","6500900","三峽區"
"237012","275-BY","2018/10/11 17:48:02","新北市三峽區中山路138-1號","121.365191666667","24.9361133333333","6500900","三峽區"
"237014","433-BY","2018/10/11 17:47:56","新北市三峽區中山路119號","121.365525","24.9358966666667","6500900","三峽區"
"237006","5529-G3","2018/10/11 17:48:07","新北市三峽區介壽路二段2號","121.389668333333","24.9346933333333","6500900","三峽區"
"237011","KEA-2596","2018/10/11 17:47:59","新北市三峽區中園街3號","121.368595","24.927465","6500900","三峽區"
"237010","706-TV","2018/10/11 17:48:04","新北市三峽區復興路239-1號","121.368218333333","24.9385966666667","6500900","三峽區"
"237005","AKY-6261","2018/10/11 17:47:53","新北市三峽區中山路459巷90-1號","121.354791666667","24.9361616666667","6500900","三峽區"
"236070","105-UM","2018/10/11 17:47:54","新北市土城區明德路一段375-1號","121.455146666667","24.97804","6501300","土城區"
"236042","107-UM","2018/10/11 17:47:51","新北市土城區城林路6巷80號","121.438516666667","24.979775","6501300","土城區"
"236078","166-UM","2018/10/11 17:47:58","新北市土城區中央路三段50號","121.437148333333","24.9676416666667","6501300","土城區"
"236030","253-BX","2018/10/11 17:48:05","新北市土城區城林路6巷80號","121.43868","24.9796683333333","6501300","土城區"
"236014","270-VK","2018/10/11 17:48:01","新北市土城區城林路6巷80號","121.43858","24.97959","6501300","土城區"
"236038","271-VK","2018/10/11 17:47:52","新北市土城區城林路6巷80號","121.43847","24.97976","6501300","土城區"
"236021","401-BY","2018/10/11 17:47:59","新北市土城區城林路6巷80號","121.438696666667","24.9797166666667","6501300","土城區"
"236055","752-BX","2018/10/11 17:48:04","新北市土城區城林路6巷80號","121.438783333333","24.9796816666667","6501300","土城區"
"236059","912-UM","2018/10/11 17:48:00","新北市土城區中華路二段111號","121.439063333333","24.977085","6501300","土城區"
"236049","913-UM","2018/10/11 17:47:54","新北市土城區城林路6巷80號","121.438545","24.9795866666667","6501300","土城區"
"236063","915-UM","2018/10/11 17:47:54","新北市土城區城林路6巷80號","121.438486666667","24.97976","6501300","土城區"
"242036","AAC-296","2018/10/11 17:48:10","新北市新莊區建福路68號","121.426766666667","25.0269266666667","6500500","新莊區"
"242058","986-R7","2018/10/11 17:47:56","新北市新莊區中正路700-28號","121.41816","25.0273133333333","6500500","新莊區"
"242056","751-BX","2018/10/11 17:47:55","新北市新莊區瓊林路40巷29號","121.446583333333","25.0301333333333","6500500","新莊區"
"242029","705-TV","2018/10/11 17:47:52","新北市新莊區復興路一段63號","121.447658333333","25.0423983333333","6500500","新莊區"
"242027","615-BX","2018/10/11 17:48:00","新北市新莊區福壽街167號","121.45802","25.0536516666667","6500500","新莊區"
"242025","613-BX","2018/10/11 17:48:12","新北市新莊區中山路一段7號","121.465113333333","25.061125","6500500","新莊區"
"242044","566-BX","2018/10/11 17:47:53","新北市新莊區富國路60-1號","121.419173333333","25.0261483333333","6500500","新莊區"
"242048","497-BY","2018/10/11 17:48:07","新北市新莊區萬安街102巷12號","121.42036","25.02283","6500500","新莊區"
"242015","442-UM","2018/10/11 17:48:09","新北市新莊區新泰路502巷42弄7號","121.443796666667","25.04618","6500500","新莊區"
"242053","441-UM","2018/10/11 17:48:08","新北市新莊區民安西路468-1號","121.431623333333","25.007845","6500500","新莊區"
"242009","413-TV","2018/10/11 17:48:06","新北市新莊區昌明街30巷6號","121.456781666667","25.0526466666667","6500500","新莊區"
"242046","400-BY","2018/10/11 17:48:08","新北市新莊區建國一路78號","121.43447","25.030445","6500500","新莊區"
"242023","362-BY","2018/10/11 17:48:12","新北市新莊區福樂街22號","121.457861666667","25.0451833333333","6500500","新莊區"
"242061","353-BY","2018/10/11 17:48:11","新北市新莊區瓊林南路219號","121.434615","25.0088983333333","6500500","新莊區"
"242011","132-UY","2018/10/11 17:48:12","新北市新莊區中港路671號","121.450776666667","25.05589","6500500","新莊區"
"242042","133-UY","2018/10/11 17:47:51","新北市泰山區台麗街93-6號","121.42873","25.0359","6500500","新莊區"
"242034","135-UY","2018/10/11 17:47:55","新北市新莊區新莊路682-7號","121.440831666667","25.0327016666667","6500500","新莊區"
"242051","172-VK","2018/10/11 17:48:01","新北市新莊區西盛街257巷23號","121.429001666667","25.0159466666667","6500500","新莊區"
"242013","173-VK","2018/10/11 17:48:10","新北市新莊區中誠街166巷8號","121.448068333333","25.0478333333333","6500500","新莊區"
"242019","175-VK","2018/10/11 17:48:01","新北市新莊區民樂街53號","121.457963333333","25.0413783333333","6500500","新莊區"
"242007","176-VK","2018/10/11 17:48:00","新北市新莊區福樂街122號","121.45696","25.047845","6500500","新莊區"
"242017","346-TH","2018/10/11 17:46:39","新北市新莊區復興路一段149巷22弄7號","121.450413333333","25.0443416666667","6500500","新莊區"
"242002","347-TH","2018/10/11 17:48:07","新北市新莊區景德路106號","121.451391666667","25.0344216666667","6500500","新莊區"
"242031","348-TH","2018/10/11 17:48:06","新北市新莊區新泰路357巷3弄45號","121.442255","25.040175","6500500","新莊區"
"242004","349-TH","2018/10/11 17:48:08","新北市新莊區思源路177巷7弄7號","121.458886666667","25.0452333333333","6500500","新莊區"
"242021","350-TH","2018/10/11 17:48:08","新北市新莊區永寧街34巷2號","121.45293","25.039595","6500500","新莊區"
"238015","755-BX","2018/10/11 17:47:55","新北市樹林區樹德街114號","121.419646666667","24.99269","6500700","樹林區"
"238023","601-UM","2018/10/11 17:47:58","新北市樹林區龍興街32巷30號","121.40175","25.0154916666667","6500700","樹林區"
"238019","599-UM","2018/10/11 17:47:55","新北市樹林區太平路108號","121.418533333333","24.9787983333333","6500700","樹林區"
"238018","571-TV","2018/10/11 17:48:03","新北市樹林區博愛街29巷10號","121.427338333333","24.9924383333333","6500700","樹林區"
"238022","KEA-2213","2018/10/11 17:48:07","新北市樹林區太順街96巷16弄8號","121.41652","24.9793833333333","6500700","樹林區"
"238021","KEA-2539","2018/10/11 17:47:52","新北市樹林區柑園街一段73號","121.401891666667","24.960215","6500700","樹林區"
"238025","303-VK","2018/10/11 17:48:09","新北市樹林區三俊街96號","121.414268333333","25.0155383333333","6500700","樹林區"
"238017","283-BY","2018/10/11 17:48:08","新北市樹林區俊德街5號","121.414948333333","25.014765","6500700","樹林區"
"238014","282-BY","2018/10/11 17:48:08","新北市樹林區保安街一段293號","121.41799","24.9972333333333","6500700","樹林區"
"238007","268-VK","2018/10/11 17:48:04","新北市樹林區中山路三段210-2號","121.382043333333","24.9657216666667","6500700","樹林區"
"238026","172-UY","2018/10/11 17:48:03","新北市樹林區新興街19巷36弄25號","121.402515","24.9729983333333","6500700","樹林區"
"238016","169-UY","2018/10/11 17:47:35","新北市樹林區復興路377號","121.4168","24.9869133333333","6500700","樹林區"
"239007","AAC-297","2018/10/11 17:47:52","新北市鶯歌區鶯桃路122號","121.338443333333","24.954555","6500800","鶯歌區"
"239006","891-R6","2018/10/11 17:47:54","新北市鶯歌區永和街115巷36號","121.333255","24.9693066666667","6500800","鶯歌區"
"239008","527-UM","2018/10/11 17:47:52","新北市鶯歌區大湖路361巷81-1號","121.333533333333","24.9758016666667","6500800","鶯歌區"
"239005","526-UM","2018/10/11 17:47:59","新北市鶯歌區鳳吉三街26巷7號","121.326998333333","24.9731383333333","6500800","鶯歌區"
"239001","417-VK","2018/10/11 17:48:00","新北市鶯歌區中正三路327號","121.328278333333","24.9355016666667","6500800","鶯歌區"
"239003","360-BY","2018/10/11 17:48:03","新北市鶯歌區鶯桃路206巷16號","121.337621666667","24.959495","6500800","鶯歌區"
"239002","359-BY","2018/10/11 17:47:54","新北市鶯歌區育德街23-4號","121.344261666667","24.9545216666667","6500800","鶯歌區"
"239004","193-VK","2018/10/11 17:47:56","新北市鶯歌區文化路300號","121.352635","24.94664","6500800","鶯歌區"
"221008","489-VK","2018/10/11 17:47:58","新北市汐止區康寧街901號","121.651278333333","25.0750133333333","6501100","汐止區"
"221036","130-UY","2018/10/11 17:48:00","新北市汐止區汐萬路一段310號","121.65033","25.074805","6501100","汐止區"
"221015","131-UY","2018/10/11 17:48:06","新北市汐止區長江街213號","121.661501666667","25.0776866666667","6501100","汐止區"
"221010","269-BY","2018/10/11 17:47:58","新北市汐止區汐萬路二段126號","121.648203333333","25.0853183333333","6501100","汐止區"
"221012","278-VK","2018/10/11 17:47:56","新北市汐止區汐萬路一段191號","121.652511666667","25.07163","6501100","汐止區"
"221023","279-VK","2018/10/11 17:48:01","新北市汐止區康寧街753巷2弄22號","121.640128333333","25.07452","6501100","汐止區"
"221032","280-BY","2018/10/11 17:47:51","新北市汐止區工建路98號","121.639513333333","25.0637533333333","6501100","汐止區"
"221029","298-VK","2018/10/11 17:47:58","新北市汐止區汐萬路一段256巷1號","121.651861666667","25.07479","6501100","汐止區"
"221021","299-VK","2018/10/11 17:48:07","新北市汐止區水源路一段3號","121.657166666667","25.0672033333333","6501100","汐止區"
"221031","353-TW","2018/10/11 17:48:10","新北市汐止區工建路202號","121.636798333333","25.0626383333333","6501100","汐止區"
"221035","622-UM","2018/10/11 17:47:55","新北市汐止區汐萬路一段211巷13號","121.6516","25.07196","6501100","汐止區"
"221025","623-UM","2018/10/11 17:47:51","新北市汐止區大同路二段173號","121.651651666667","25.0644466666667","6501100","汐止區"
"221038","646-BX","2018/10/11 17:47:58","新北市汐止區汐萬路一段312號","121.650441666667","25.0752","6501100","汐止區"
"221033","647-BX","2018/10/11 17:48:10","新北市汐止區林森街78號","121.624005","25.0406916666667","6501100","汐止區"
"221002","707-TV","2018/10/11 17:47:57","新北市汐止區康寧街901號","121.651453333333","25.0750066666667","6501100","汐止區"
"221018","753-BX","2018/10/11 17:47:58","新北市汐止區汐萬路一段4號","121.65617","25.0672533333333","6501100","汐止區"
"242039","281-VK","2018/10/11 17:48:04","新北市新莊區民安路211號","121.426393333333","25.0222066666667","6500500","新莊區"
