"lineid","car","time","location","longitude","latitude","cityid","cityname"
"234011","9372-KE","2018/10/11 17:58:03","新北市永和區福和路1號","121.525468333333","25.0095833333333","6500400","永和區"
"234026","9371-KE","2018/10/11 17:57:55","新北市永和區永和路一段45-1號","121.512808333333","25.006315","6500400","永和區"
"249005","172-UM","2018/10/11 17:57:52","新北市八里區荖阡坑路22-1號","121.398833333333","25.1371583333333","6502300","八里區"
"249001","173-UM","2018/10/11 17:58:00","新北市八里區龍米路二段35號","121.448363333333","25.140005","6502300","八里區"
"249004","303-UY","2018/10/11 17:57:59","新北市八里區龍米路三段48-1號","121.427776666667","25.1592516666667","6502300","八里區"
"249002","305-UY","2018/10/11 17:58:07","新北市八里區龍形五街29號","121.449771666667","25.133315","6502300","八里區"
"249003","593-UM","2018/10/11 17:57:54","新北市八里區中華路二段260號","121.40523","25.1495816666667","6502300","八里區"
"248016","026-BX","2018/10/11 17:57:55","新北市五股區中興路二段83巷26-6號","121.460021666667","25.0752166666667","6501500","五股區"
"248006","077-UY","2018/10/11 17:58:12","新北市五股區中興路二段83巷26-6號","121.459901666667","25.0753716666667","6501500","五股區"
"248008","095-VK","2018/10/11 17:58:00","新北市五股區更洲路10號","121.458315","25.0788133333333","6501500","五股區"
"248020","225-UY","2018/10/11 17:58:07","新北市五股區中興路二段83巷26-6號","121.460056666667","25.075255","6501500","五股區"
"248014","261-SL","2018/10/11 17:58:09","新北市五股區更洲路47號","121.456891666667","25.079","6501500","五股區"
"248010","682-TV","2018/10/11 17:58:03","新北市五股區中興路二段83巷26-3號","121.460175","25.0753","6501500","五股區"
"232011","375-UM","2018/10/11 17:57:58","新北市坪林區北宜路八段167號","121.707578333333","24.93463","6502000","坪林區"
"244023","069-UM","2018/10/11 17:58:02","新北市林口區東湖一街71號","121.385308333333","25.0724616666667","6501700","林口區"
"244007","080-UY","2018/10/11 17:58:09","新北市林口區林口路80號","121.389086666667","25.0807216666667","6501700","林口區"
"244019","403-UM","2018/10/11 17:58:04","新北市林口區文化一路一段124號","121.374791666667","25.07218","6501700","林口區"
"244013","KEA-2802","2018/10/11 17:58:11","新北市林口區中山路47號","121.394535","25.0784916666667","6501700","林口區"
"244017","485-VK","2018/10/11 17:58:09","新北市林口區忠孝路371-1號","121.368918333333","25.0719783333333","6501700","林口區"
"244009","656-BX","2018/10/11 17:58:02","新北市林口區佳林路56巷43號","121.385065","25.0807883333333","6501700","林口區"
"244011","701-TV","2018/10/11 17:57:54","新北市林口區中正路186號","121.39189","25.0775666666667","6501700","林口區"
"244025","837-TS","2018/10/11 17:58:07","新北市林口區文化三路一段39巷179號","121.359095","25.06771","6501700","林口區"
"244021","838-TS","2018/10/11 17:58:12","新北市林口區新寮32號","121.400106666667","25.0660266666667","6501700","林口區"
"243014","680-BX","2018/10/11 17:45:52","新北市泰山區黎明路25號","121.422101666667","25.0606266666667","6501600","泰山區"
"222003","436-BY","2018/10/11 17:57:51","新北市深坑區炮子崙12-1號","121.604341666667","24.9860233333333","6501800","深坑區"
"222002","659-BX","2018/10/11 17:57:52","新北市深坑區深坑街35號","121.615945","25.00183","6501800","深坑區"
"231040","047-UY","2018/10/11 17:58:00","新北市新店區安一路一段1-1號","121.518893333333","24.96095","6500600","新店區"
"231046","107-UY","2018/10/11 17:58:11","新北市新店區康雅崙路14號","121.537636666667","24.9265566666667","6500600","新店區"
"231054","KEA-2219","2018/10/11 17:58:12","新北市新店區安一路一段1-1號","121.519718333333","24.96132","6500600","新店區"
"231055","AKT-0513","2018/10/11 17:57:59","新北市新店區安華路1-1號","121.519355","24.960535","6500600","新店區"
"251014","742-BX","2018/10/11 17:58:09","新北市淡水區公埔子16-6號","121.481003333333","25.2246083333333","6501000","淡水區"
"241016","266-UM","2018/10/11 17:57:53","新北市三重區光復路二段206號","121.46951","25.0637216666667","6500200","三重區"
"241024","887-TS","2018/10/11 17:57:53","新北市三重區大勇街28號","121.482581666667","25.0715733333333","6500200","三重區"
"241033","AAC-255","2018/10/11 17:58:05","新北市三重區重新路五段621號","121.467953333333","25.0441933333333","6500200","三重區"
"235065","098-UM","2018/10/11 17:58:08","新北市中和區橋和路105號","121.490866666667","25.0056616666667","6500300","中和區"
"235058","151-BY","2018/10/11 17:58:00","新北市中和區錦和路350-1號","121.490243333333","24.99354","6500300","中和區"
"235038","185-VK","2018/10/11 17:58:10","新北市中和區中正路412號","121.492105","24.9940183333333","6500300","中和區"
"235067","255-BX","2018/10/11 17:58:07","新北市中和區和城路一段271巷1號","121.485726666667","24.991805","6500300","中和區"
"247012","KEA-2869","2018/10/11 17:57:55","新北市蘆洲區民族路242號","121.479255","25.0884783333333","6501400","蘆洲區"
"235070","558-UM","2018/10/11 17:58:09","新北市中和區員山路36巷16-3號","121.48504","24.99171","6500300","中和區"
"235052","805-TS","2018/10/11 17:57:54","新北市中和區員山路36巷16號","121.484385","24.9914266666667","6500300","中和區"
"235051","157-BY","2018/10/11 17:57:51","新北市中和區員山路36巷13號","121.484295","24.9907783333333","6500300","中和區"
"235037","AAC-213","2018/10/11 17:58:04","新北市中和區錦和路350-1號","121.490386666667","24.9935483333333","6500300","中和區"
"247002","893-R6","2018/10/11 17:58:03","新北市蘆洲區永平街32巷57弄33號","121.458613333333","25.09339","6501400","蘆洲區"
"247016","546-UM","2018/10/11 17:58:07","新北市蘆洲區中正路185巷78弄42號","121.4656","25.085025","6501400","蘆洲區"
"247024","500-BY","2018/10/11 17:57:56","新北市蘆洲區光明路50巷49號","121.462166666667","25.08606","6501400","蘆洲區"
"247014","339-TH","2018/10/11 17:58:11","新北市蘆洲區忠孝路31號","121.471448333333","25.0856916666667","6501400","蘆洲區"
"247006","337-TH","2018/10/11 17:58:00","新北市蘆洲區中華街2號","121.463615","25.0817333333333","6501400","蘆洲區"
"247020","057-VK","2018/10/11 17:57:59","新北市蘆洲區民義街35巷7號","121.471531666667","25.0894766666667","6501400","蘆洲區"
"247010","056-VK","2018/10/11 17:58:10","新北市蘆洲區信義路170號","121.479386666667","25.0838566666667","6501400","蘆洲區"
"247018","007-UY","2018/10/11 17:58:11","新北市蘆洲區復興路201號","121.479435","25.0894933333333","6501400","蘆洲區"
"247004","002-UY","2018/10/11 17:58:03","新北市蘆洲區長安街194巷5號","121.459121666667","25.0842083333333","6501400","蘆洲區"
"228003","097-TW","2018/10/11 17:58:06","新北市貢寮區真理里美艷山街6-2號","121.928861666667","25.060715","6502600","貢寮區"
"228001","212-TW","2018/10/11 17:57:54","新北市貢寮區真理里新港街26巷31號","121.929395","25.054615","6502600","貢寮區"
"228002","663-BX","2018/10/11 17:57:55","新北市貢寮區福連里香蘭街2-1號","121.968535","25.02342","6502600","貢寮區"
"224006","676-BX","2018/10/11 17:58:00","新北市瑞芳區大寮路356-1號","121.784668333333","25.1032366666667","6501200","瑞芳區"
"224008","285-BY","2018/10/11 17:58:02","新北市瑞芳區明燈路一段45巷61-4號","121.821821666667","25.105125","6501200","瑞芳區"
"224009","273-VK","2018/10/11 17:58:09","新北市瑞芳區金光路223號","121.85179","25.1067833333333","6501200","瑞芳區"
"224005","271-BY","2018/10/11 17:57:50","新北市瑞芳區建基路一段50巷6-1號","121.817978333333","25.1280416666667","6501200","瑞芳區"
"227004","642-TC","2018/10/11 17:36:06","新北市雙溪區共和里東榮街52號","121.866333333333","25.0336833333333","6502500","雙溪區"
"253006","032-BX","2018/10/11 17:57:57","新北市石門區大丘田45-2號","121.54975","25.2748516666667","6502200","石門區"
"222001","KEA-2212","2018/10/11 17:57:50","新北市深坑區文山路三段110號","121.608656666667","24.99942","6501800","深坑區"
"208002","KEA-2872","2018/10/11 17:58:06","新北市金山區三界壇路14號","121.625755","25.2284316666667","6502700","金山區"
"208003","665-BX","2018/10/11 17:57:51","新北市金山區磺港里磺港路309號","121.644113333333","25.22763","6502700","金山區"
"208001","761-BX","2018/10/11 17:58:06","新北市金山區磺港里磺港路169號","121.643371666667","25.2248033333333","6502700","金山區"
"251009","008-UM","2018/10/11 17:58:07","新北市淡水區中山路108巷3號","121.442058333333","25.1710416666667","6501000","淡水區"
"251005","010-UM","2018/10/11 17:58:01","新北市淡水區水源街一段100號","121.446156666667","25.17215","6501000","淡水區"
"251013","KEA-2871","2018/10/11 17:57:56","新北市淡水區泉洲厝31號","121.479616666667","25.19103","6501000","淡水區"
"251016","179-VK","2018/10/11 17:58:10","新北市淡水區埤島31號","121.448998333333","25.1976166666667","6501000","淡水區"
"251015","180-VK","2018/10/11 17:58:05","新北市淡水區興福寮88巷1號","121.485348333333","25.164975","6501000","淡水區"
"251008","181-VK","2018/10/11 17:58:08","新北市淡水區八勢一街43-8號","121.461923333333","25.1558166666667","6501000","淡水區"
"251010","413-VK","2018/10/11 17:57:58","新北市淡水區中正路一段87巷7號","121.419676666667","25.1782983333333","6501000","淡水區"
"251012","441-VK","2018/10/11 17:58:02","新北市淡水區北新路三段38巷7號","121.484541666667","25.1870183333333","6501000","淡水區"
"251007","442-VK","2018/10/11 17:57:53","新北市淡水區中正東路二段161巷8弄13號","121.4616","25.145735","6501000","淡水區"
"251004","443-VK","2018/10/11 17:58:01","新北市淡水區民權路84號","121.459196666667","25.1335766666667","6501000","淡水區"
"251001","559-UM","2018/10/11 17:57:56","新北市淡水區民權路92巷35號","121.462833333333","25.1257533333333","6501000","淡水區"
"251006","561-UM","2018/10/11 17:58:10","新北市淡水區新生街20-4號","121.438913333333","25.1737916666667","6501000","淡水區"
"251011","650-BX","2018/10/11 17:57:50","新北市淡水區小坪頂22-2號","121.484665","25.1572316666667","6501000","淡水區"
"251002","672-BX","2018/10/11 17:57:55","新北市淡水區鼻頭街18-5號","121.446803333333","25.166715","6501000","淡水區"
"251003","766-UM","2018/10/11 17:57:55","新北市淡水區大忠街47號","121.444756666667","25.176415","6501000","淡水區"
"207003","550-UM","2018/10/11 17:58:01","新北市萬里區野柳里港東路167-1號","121.69021","25.2050516666667","6502800","萬里區"
"207004","225-TW","2018/10/11 17:58:09","新北市萬里區中幅里中福路48號","121.683473333333","25.1741666666667","6502800","萬里區"
"252002","178-VK","2018/10/11 17:57:57","新北市三芝區中山路二段13號","121.502566666667","25.25569","6502100","三芝區"
"252001","292-VK","2018/10/11 17:57:57","新北市三芝區中興街二段6號","121.498425","25.2565583333333","6502100","三芝區"
"237004","KEA-2597","2018/10/11 17:57:57","新北市三峽區中園街181號","121.36707","24.92154","6500900","三峽區"
"237007","153-BY","2018/10/11 17:58:01","新北市三峽區中園街161號","121.36718","24.9220066666667","6500900","三峽區"
"237009","210-TH","2018/10/11 17:57:58","新北市三峽區文化路201號","121.366428333333","24.9357","6500900","三峽區"
"237013","252-BX","2018/10/11 17:58:07","新北市三峽區介壽路一段176號","121.377158333333","24.9310166666667","6500900","三峽區"
"237012","275-BY","2018/10/11 17:58:02","新北市三峽區民生街27巷1號","121.376026666667","24.9362033333333","6500900","三峽區"
"237008","302-VK","2018/10/11 17:58:01","新北市三峽區正義街68號","121.369056666667","24.9182183333333","6500900","三峽區"
"237014","433-BY","2018/10/11 17:57:56","新北市三峽區復興路101巷1弄37號","121.372108333333","24.9372583333333","6500900","三峽區"
"237006","5529-G3","2018/10/11 17:58:07","新北市三峽區介壽路二段136巷120弄2-1號","121.392385","24.9320683333333","6500900","三峽區"
"237011","KEA-2596","2018/10/11 17:57:59","新北市三峽區光明路48號","121.374711666667","24.9296816666667","6500900","三峽區"
"237016","649-BX","2018/10/11 17:58:07","新北市三峽區詩朗139號","121.404328333333","24.9099433333333","6500900","三峽區"
"237010","706-TV","2018/10/11 17:58:04","新北市三峽區文化路242號","121.367533333333","24.9358","6500900","三峽區"
"237005","AKY-6261","2018/10/11 17:57:53","新北市三峽區復興路237巷30號","121.368693333333","24.93757","6500900","三峽區"
"236070","105-UM","2018/10/11 17:57:54","新北市土城區青雲路665-1號","121.466265","24.9648633333333","6501300","土城區"
"236042","107-UM","2018/10/11 17:58:11","新北市土城區城林路6巷80號","121.438495","24.9797366666667","6501300","土城區"
"236078","166-UM","2018/10/11 17:57:58","新北市土城區永寧路36-1號","121.428793333333","24.9590833333333","6501300","土城區"
"236030","253-BX","2018/10/11 17:58:05","新北市土城區城林路6巷80號","121.438675","24.9796266666667","6501300","土城區"
"236026","269-VK","2018/10/11 17:58:04","新北市土城區承天路47號","121.439021666667","24.96365","6501300","土城區"
"236014","270-VK","2018/10/11 17:58:01","新北市土城區城林路6巷80號","121.438543333333","24.97958","6501300","土城區"
"236038","271-VK","2018/10/11 17:57:52","新北市土城區城林路6巷80號","121.438486666667","24.97976","6501300","土城區"
"236021","401-BY","2018/10/11 17:57:59","新北市土城區城林路6巷80號","121.438495","24.9796233333333","6501300","土城區"
"236055","752-BX","2018/10/11 17:58:04","新北市土城區中央路二段274號","121.441161666667","24.9741833333333","6501300","土城區"
"236059","912-UM","2018/10/11 17:58:00","新北市土城區中央路三段238-4號","121.428321666667","24.964275","6501300","土城區"
"236049","913-UM","2018/10/11 17:57:54","新北市土城區城林路6巷80號","121.438526666667","24.9796033333333","6501300","土城區"
"236063","915-UM","2018/10/11 17:57:54","新北市土城區城林路6巷80號","121.438486666667","24.97975","6501300","土城區"
"242036","AAC-296","2018/10/11 17:58:10","新北市新莊區建福路27號","121.426293333333","25.0289766666667","6500500","新莊區"
"242058","986-R7","2018/10/11 17:57:56","新北市新莊區中正路730-16號","121.414373333333","25.0233766666667","6500500","新莊區"
"242056","751-BX","2018/10/11 17:57:55","新北市新莊區豐年街124巷6弄1號","121.445956666667","25.0299066666667","6500500","新莊區"
"242029","705-TV","2018/10/11 17:58:12","新北市新莊區中平路57號","121.444713333333","25.044425","6500500","新莊區"
"242027","615-BX","2018/10/11 17:57:54","新北市新莊區思源路399號","121.45995","25.0519166666667","6500500","新莊區"
"242025","613-BX","2018/10/11 17:58:12","新北市新莊區五工路52號","121.45928","25.062555","6500500","新莊區"
"242044","566-BX","2018/10/11 17:57:53","新北市新莊區雙鳳路54號","121.415846666667","25.0272966666667","6500500","新莊區"
"242048","497-BY","2018/10/11 17:58:07","新北市新莊區萬安街47巷18號","121.422263333333","25.0242733333333","6500500","新莊區"
"242015","442-UM","2018/10/11 17:58:03","新北市新莊區中平路87巷1號","121.444636666667","25.0456883333333","6500500","新莊區"
"242053","441-UM","2018/10/11 17:58:08","新北市新莊區光華街12號","121.428766666667","25.01086","6500500","新莊區"
"242009","413-TV","2018/10/11 17:58:06","新北市新莊區中華路二段314號","121.452446666667","25.0539133333333","6500500","新莊區"
"242046","400-BY","2018/10/11 17:58:08","新北市新莊區福營路141號","121.432606666667","25.0316066666667","6500500","新莊區"
"242023","362-BY","2018/10/11 17:57:52","新北市新莊區福壽街43號","121.458221666667","25.0486766666667","6500500","新莊區"
"242061","353-BY","2018/10/11 17:58:11","新北市新莊區新樹路579號","121.432898333333","25.0068966666667","6500500","新莊區"
"242011","132-UY","2018/10/11 17:58:01","新北市新莊區富貴路406號","121.450076666667","25.0570166666667","6500500","新莊區"
"242042","133-UY","2018/10/11 17:57:51","新北市新莊區中正路612-1號","121.426148333333","25.0301883333333","6500500","新莊區"
"242051","172-VK","2018/10/11 17:58:01","新北市新莊區龍安路478號","121.426543333333","25.0177316666667","6500500","新莊區"
"242013","173-VK","2018/10/11 17:58:10","新北市新莊區中和街123號","121.447306666667","25.048515","6500500","新莊區"
"242019","175-VK","2018/10/11 17:58:01","新北市新莊區明中街49巷14號","121.456651666667","25.0390866666667","6500500","新莊區"
"242007","176-VK","2018/10/11 17:58:00","新北市新莊區自信街47號","121.454626666667","25.0482966666667","6500500","新莊區"
"242017","346-TH","2018/10/11 17:58:09","新北市新莊區永樂街171號","121.44872","25.0445883333333","6500500","新莊區"
"242002","347-TH","2018/10/11 17:58:01","新北市新莊區中正路147-20號","121.456981666667","25.036845","6500500","新莊區"
"242031","348-TH","2018/10/11 17:58:06","新北市新莊區新泰路289巷7號","121.445163333333","25.0405583333333","6500500","新莊區"
"242004","349-TH","2018/10/11 17:58:08","新北市新莊區思源路177巷31號","121.459108333333","25.046635","6500500","新莊區"
"242021","350-TH","2018/10/11 17:58:08","新北市新莊區建興街39巷2號","121.4501","25.036925","6500500","新莊區"
"238015","755-BX","2018/10/11 17:58:00","新北市樹林區樹德街42巷7號","121.421016666667","24.9923033333333","6500700","樹林區"
"238023","601-UM","2018/10/11 17:57:58","新北市樹林區龍興街48號","121.402986666667","25.015435","6500700","樹林區"
"238019","599-UM","2018/10/11 17:57:55","新北市樹林區忠孝街91號","121.42428","24.9812333333333","6500700","樹林區"
"238018","571-TV","2018/10/11 17:58:02","新北市樹林區中正路7-3號","121.430241666667","24.99766","6500700","樹林區"
"238022","KEA-2213","2018/10/11 17:58:07","新北市樹林區太元街37號","121.418526666667","24.97956","6500700","樹林區"
"238021","KEA-2539","2018/10/11 17:57:52","新北市樹林區田尾街82號","121.408943333333","24.9581783333333","6500700","樹林區"
"238025","303-VK","2018/10/11 17:57:49","新北市樹林區俊興街209-6號","121.417606666667","25.0145583333333","6500700","樹林區"
"238017","283-BY","2018/10/11 17:58:08","新北市樹林區中正路622號","121.410198333333","25.0159083333333","6500700","樹林區"
"238014","282-BY","2018/10/11 17:58:09","新北市樹林區大安路71號","121.42343","24.9988116666667","6500700","樹林區"
"238007","268-VK","2018/10/11 17:58:04","新北市樹林區中山路三段204號","121.386766666667","24.968245","6500700","樹林區"
"238026","172-UY","2018/10/11 17:58:03","新北市樹林區中洲街51巷4號","121.396711666667","24.9710066666667","6500700","樹林區"
"238016","169-UY","2018/10/11 17:57:55","新北市樹林區復興路337號","121.41785","24.9878466666667","6500700","樹林區"
"239007","AAC-297","2018/10/11 17:58:10","新北市鶯歌區永樂街7號","121.3418","24.9531366666667","6500800","鶯歌區"
"239006","891-R6","2018/10/11 17:57:54","新北市鶯歌區鶯桃路413巷68弄10-1號","121.329645","24.9634116666667","6500800","鶯歌區"
"239008","527-UM","2018/10/11 17:58:12","新北市鶯歌區國際一路88號","121.335371666667","24.9776333333333","6500800","鶯歌區"
"239005","526-UM","2018/10/11 17:57:59","桃園市八德區桃鶯路96號","121.327851666667","24.97026","6500800","鶯歌區"
"239001","417-VK","2018/10/11 17:58:00","新北市鶯歌區中正三路363號","121.327555","24.93485","6500800","鶯歌區"
"239003","360-BY","2018/10/11 17:58:07","新北市鶯歌區鶯桃路295巷6號","121.334521666667","24.9597533333333","6500800","鶯歌區"
"239002","359-BY","2018/10/11 17:57:54","新北市鶯歌區育英街9號","121.34692","24.955685","6500800","鶯歌區"
"221008","489-VK","2018/10/11 17:57:58","新北市汐止區明峰街31號","121.633966666667","25.0713783333333","6501100","汐止區"
"221036","130-UY","2018/10/11 17:58:00","新北市汐止區大同路三段34號","121.667098333333","25.0765883333333","6501100","汐止區"
"221015","131-UY","2018/10/11 17:58:06","新北市汐止區長江街293號","121.665396666667","25.0812866666667","6501100","汐止區"
"221010","269-BY","2018/10/11 17:57:58","新北市汐止區汐萬路二段245巷37號","121.643948333333","25.0875733333333","6501100","汐止區"
"221012","278-VK","2018/10/11 17:57:56","新北市汐止區長興街二段2巷1號","121.672125","25.0807466666667","6501100","汐止區"
"221023","279-VK","2018/10/11 17:58:01","新北市汐止區明峰街29號","121.634141666667","25.0713783333333","6501100","汐止區"
"221032","280-BY","2018/10/11 17:58:11","新北市汐止區民權街一段16號","121.621195","25.05335","6501100","汐止區"
"221027","281-BY","2018/10/11 17:58:07","新北市汐止區大同路二段391號","121.6578","25.067255","6501100","汐止區"
"221029","298-VK","2018/10/11 17:57:58","新北市汐止區樟樹二路334號","121.641468333333","25.0704233333333","6501100","汐止區"
"221021","299-VK","2018/10/11 17:58:07","新北市汐止區復興路23號","121.65611","25.0652266666667","6501100","汐止區"
"221031","353-TW","2018/10/11 17:58:10","新北市汐止區中興路188號","121.631663333333","25.0656716666667","6501100","汐止區"
"221035","622-UM","2018/10/11 17:57:55","新北市汐止區汐萬路一段115巷50號","121.653068333333","25.0701316666667","6501100","汐止區"
"221025","623-UM","2018/10/11 17:57:51","新北市汐止區新台五路一段266號","121.659196666667","25.06372","6501100","汐止區"
"221038","646-BX","2018/10/11 17:57:58","新北市汐止區連興街128巷5號","121.653515","25.0616383333333","6501100","汐止區"
"221033","647-BX","2018/10/11 17:57:50","新北市汐止區合順街39巷1號","121.620616666667","25.043295","6501100","汐止區"
"221002","707-TV","2018/10/11 17:58:01","新北市汐止區中興路62號","121.635433333333","25.0615216666667","6501100","汐止區"
"221018","753-BX","2018/10/11 17:57:58","新北市汐止區忠孝東路348號","121.665528333333","25.0697616666667","6501100","汐止區"
"242039","281-VK","2018/10/11 17:58:04","新北市新莊區民安路138號","121.424278333333","25.0254166666667","6500500","新莊區"
