"lineid","car","time","location","longitude","latitude","cityid","cityname"
"234046","148-BY","2018/10/11 18:28:01","新北市永和區福和路1號","121.526418333333","25.0100333333333","6500400","永和區"
"234007","207-UY","2018/10/11 18:27:53","新北市永和區環河西路二段219號","121.501366666667","25.0100583333333","6500400","永和區"
"234081","298-R6","2018/10/11 18:28:03","新北市永和區福和路1號","121.525425","25.0095333333333","6500400","永和區"
"234086","338-UY","2018/10/11 18:27:59","新北市永和區福和路59號","121.522951666667","25.0079466666667","6500400","永和區"
"234013","KEA-2591","2018/10/11 18:28:07","新北市永和區環河東路一段42號","121.518836666667","25.017115","6500400","永和區"
"234042","862-TW","2018/10/11 18:28:10","新北市永和區福和路290號","121.517395","25.0074616666667","6500400","永和區"
"234011","9372-KE","2018/10/11 18:28:03","新北市永和區保福路二段165號","121.509078333333","25.0149783333333","6500400","永和區"
"234026","9371-KE","2018/10/11 18:27:55","新北市永和區中正路708號","121.515981666667","25.0100033333333","6500400","永和區"
"249005","172-UM","2018/10/11 18:28:11","新北市八里區中華路三段103號","121.392896666667","25.13837","6502300","八里區"
"249001","173-UM","2018/10/11 18:28:00","新北市八里區龍米路一段92號","121.454033333333","25.123935","6502300","八里區"
"249004","303-UY","2018/10/11 18:27:59","新北市八里區忠孝路56號","121.426391666667","25.160415","6502300","八里區"
"249002","305-UY","2018/10/11 18:28:07","新北市八里區龍形三街17號","121.44915","25.1316266666667","6502300","八里區"
"248016","026-BX","2018/10/11 18:27:55","新北市五股區凌雲路一段83巷22弄1號","121.449841666667","25.10077","6501500","五股區"
"248006","077-UY","2018/10/11 18:27:52","新北市五股區中興路二段63巷17號","121.460225","25.07541","6501500","五股區"
"248008","095-VK","2018/10/11 18:27:59","新北市五股區中興路二段88號","121.461131666667","25.078695","6501500","五股區"
"248020","225-UY","2018/10/11 18:28:07","新北市五股區孝義路55巷1號","121.453211666667","25.11208","6501500","五股區"
"248012","247-BX","2018/10/11 18:27:52","新北市五股區御成路26號","121.441685","25.0917","6501500","五股區"
"248014","261-SL","2018/10/11 18:28:09","新北市五股區自強路129號","121.432206666667","25.0699033333333","6501500","五股區"
"248004","677-BX","2018/10/11 18:27:59","新北市五股區六合街3號","121.432055","25.0885616666667","6501500","五股區"
"248002","678-BX","2018/10/11 18:28:10","新北市五股區西雲路116-6號","121.444678333333","25.09371","6501500","五股區"
"248010","682-TV","2018/10/11 18:28:03","新北市五股區水碓路1號","121.433931666667","25.072085","6501500","五股區"
"232011","375-UM","2018/10/11 18:18:41","新北市坪林區坪雙路一段41號","121.711701666667","24.9424483333333","6502000","坪林區"
"244023","069-UM","2018/10/11 18:28:02","新北市林口區仁愛路二段106巷9號","121.383366666667","25.07524","6501700","林口區"
"244007","080-UY","2018/10/11 18:28:09","新北市林口區台電新村48號","121.386518333333","25.086825","6501700","林口區"
"244019","403-UM","2018/10/11 18:28:04","新北市林口區忠孝路52號","121.378455","25.067755","6501700","林口區"
"244013","KEA-2802","2018/10/11 18:27:51","新北市林口區中山路260號","121.384931666667","25.0798033333333","6501700","林口區"
"244017","485-VK","2018/10/11 18:28:08","新北市林口區八德路78號","121.365568333333","25.0656766666667","6501700","林口區"
"244009","656-BX","2018/10/11 18:28:02","新北市林口區中山路594號","121.375858333333","25.0857","6501700","林口區"
"244011","701-TV","2018/10/11 18:27:54","新北市林口區中山路73號","121.392826666667","25.0784083333333","6501700","林口區"
"244025","837-TS","2018/10/11 18:28:07","新北市林口區南勢六街81巷16號","121.354393333333","25.0720316666667","6501700","林口區"
"244021","838-TS","2018/10/11 18:28:12","新北市林口區自強二街1號","121.397448333333","25.0785316666667","6501700","林口區"
"243013","AAD-798","2018/10/11 18:27:02","新北市泰山區明志路三段206巷3號","121.423288333333","25.0379316666667","6501600","泰山區"
"243012","646-TV","2018/10/11 18:28:07","新北市泰山區泰林路二段482號","121.4247","25.0640066666667","6501600","泰山區"
"222003","436-BY","2018/10/11 18:28:11","新北市深坑區旺耽路8號","121.630713333333","25.0054283333333","6501800","深坑區"
"222002","659-BX","2018/10/11 18:27:52","新北市深坑區雲鄉路178號","121.62236","24.9982966666667","6501800","深坑區"
"231059","001-UM","2018/10/11 18:27:57","新北市新店區安華路28-1號","121.519526666667","24.9609066666667","6500600","新店區"
"231041","002-UM","2018/10/11 18:27:58","新北市新店區安華路28-1號","121.519688333333","24.9608283333333","6500600","新店區"
"231040","047-UY","2018/10/11 18:28:00","新北市新店區安華路28-1號","121.519096666667","24.9609133333333","6500600","新店區"
"231044","106-UY","2018/10/11 18:28:01","新北市新店區安華路28-1號","121.519601666667","24.9607966666667","6500600","新店區"
"231046","107-UY","2018/10/11 18:27:51","新北市新店區直潭七街60號","121.532253333333","24.939795","6500600","新店區"
"231047","187-VK","2018/10/11 18:28:09","新北市新店區安一路一段1-1號","121.519691666667","24.9612433333333","6500600","新店區"
"231062","188-VK","2018/10/11 18:27:50","新北市新店區安一路一段1-1號","121.519366666667","24.96151","6500600","新店區"
"231052","189-VK","2018/10/11 18:28:05","新北市新店區新烏路一段58號","121.546111666667","24.950025","6500600","新店區"
"231054","KEA-2219","2018/10/11 18:28:12","新北市新店區安一路一段1-1號","121.519888333333","24.961205","6500600","新店區"
"231057","256-BX","2018/10/11 18:28:07","新北市新店區北宜路一段46號","121.538386666667","24.9565166666667","6500600","新店區"
"231042","268-BY","2018/10/11 18:27:51","新北市新店區安華路28-1號","121.519451666667","24.9607266666667","6500600","新店區"
"231051","278-BY","2018/10/11 18:13:46","新北市新店區安一路一段1-1號","121.519418333333","24.9612316666667","6500600","新店區"
"231050","AAD-862","2018/10/11 18:28:04","新北市新店區安華路28-1號","121.519805","24.961035","6500600","新店區"
"231061","355-BY","2018/10/11 18:27:53","新北市新店區安華路28-1號","121.518983333333","24.9609116666667","6500600","新店區"
"231058","3713-VJ","2018/10/11 18:28:01","新北市新店區北宜路一段18號","121.538106666667","24.9573016666667","6500600","新店區"
"231066","4716-K9","2018/10/11 18:27:57","新北市新店區安一路一段1-1號","121.51943","24.9614216666667","6500600","新店區"
"231056","4715-K9","2018/10/11 18:28:00","新北市新店區二十張路131號","121.535963333333","24.97913","6500600","新店區"
"231067","4772-VM","2018/10/11 18:28:09","新北市新店區安華路1-1號","121.519106666667","24.9605516666667","6500600","新店區"
"231065","512-UM","2018/10/11 18:27:51","新北市新店區安一路一段1-1號","121.519308333333","24.9612433333333","6500600","新店區"
"231049","513-UM","2018/10/11 18:27:58","新北市新店區安一路一段1-1號","121.519603333333","24.9611366666667","6500600","新店區"
"231063","616-UM","2018/10/11 18:27:49","新北市新店區安華路28-1號","121.519505","24.9606133333333","6500600","新店區"
"231045","617-UM","2018/10/11 18:28:11","新北市新店區安華路28-1號","121.51942","24.960975","6500600","新店區"
"231064","719-UM","2018/10/11 18:27:57","新北市新店區安一路一段1-1號","121.519591666667","24.9613833333333","6500600","新店區"
"231060","897-TW","2018/10/11 18:28:12","新北市新店區安華路28-1號","121.51956","24.9607966666667","6500600","新店區"
"231043","899-TW","2018/10/11 18:28:01","新北市新店區安華路28-1號","121.519343333333","24.9608816666667","6500600","新店區"
"231055","AKT-0513","2018/10/11 18:28:04","新北市新店區中正路154巷1號","121.541681666667","24.9719116666667","6500600","新店區"
"251014","742-BX","2018/10/11 18:28:09","新北市淡水區南平25號","121.494933333333","25.2144933333333","6501000","淡水區"
"241024","887-TS","2018/10/11 18:27:59","新北市三重區大勇街82巷8號","121.479408333333","25.0716766666667","6500200","三重區"
"235066","003-UY","2018/10/11 18:27:57","新北市中和區中山路二段120號","121.50265","25.0037733333333","6500300","中和區"
"235064","005-UY","2018/10/11 18:28:02","新北市中和區連城路139巷38號","121.496463333333","24.99771","6500300","中和區"
"235063","006-UY","2018/10/11 18:28:03","新北市中和區中正路460號","121.490205","24.9942533333333","6500300","中和區"
"235056","096-UM","2018/10/11 18:27:50","新北市中和區員山路611巷1號","121.477848333333","25.011265","6500300","中和區"
"235039","097-UM","2018/10/11 18:27:54","新北市中和區安平路166號","121.512778333333","24.9987683333333","6500300","中和區"
"235065","098-UM","2018/10/11 18:28:08","新北市中和區莊敬路49巷20弄32號","121.50312","25.0051016666667","6500300","中和區"
"235040","150-BY","2018/10/11 18:28:08","新北市中和區安平路59號","121.509511666667","24.9951233333333","6500300","中和區"
"235058","151-BY","2018/10/11 18:28:00","新北市中和區圓通路369巷36-1號","121.490961666667","24.9845583333333","6500300","中和區"
"235055","183-VK","2018/10/11 18:27:53","新北市中和區民享街494號","121.46969","24.9922316666667","6500300","中和區"
"235038","185-VK","2018/10/11 18:28:10","新北市中和區自立路141巷1號","121.522241666667","24.9935316666667","6500300","中和區"
"235049","186-VK","2018/10/11 18:28:07","新北市中和區景平路365號","121.504381666667","24.9934333333333","6500300","中和區"
"235067","255-BX","2018/10/11 18:28:07","新北市中和區連城路469巷79弄14號","121.483746666667","24.9936633333333","6500300","中和區"
"235072","301-VK","2018/10/11 18:28:05","新北市中和區連城路171巷8號","121.49557","24.9975966666667","6500300","中和區"
"235043","352-BY","2018/10/11 18:27:58","新北市中和區景平路321號","121.506016666667","24.99316","6500300","中和區"
"235042","KEA-2878","2018/10/11 18:28:01","新北市中和區自立路58巷25弄8號","121.523231666667","24.9910366666667","6500300","中和區"
"235050","4979-A6","2018/10/11 18:27:55","新北市中和區興南路一段12號","121.511478333333","24.9912933333333","6500300","中和區"
"235069","4980-A6","2018/10/11 18:27:59","新北市中和區連城路165號","121.495608333333","24.998575","6500300","中和區"
"235070","558-UM","2018/10/11 18:27:49","新北市中和區南華路41號","121.503815","24.9966483333333","6500300","中和區"
"235045","565-BX","2018/10/11 18:28:10","新北市中和區南山路236巷24弄30號","121.504881666667","24.9890116666667","6500300","中和區"
"235054","640-BX","2018/10/11 18:27:50","新北市中和區民享街92號","121.474878333333","24.9998066666667","6500300","中和區"
"235047","732-UM","2018/10/11 18:28:06","新北市中和區南山路250巷2號","121.507698333333","24.989005","6500300","中和區"
"235046","733-UM","2018/10/11 18:28:09","新北市中和區板南路190號","121.500303333333","24.9928316666667","6500300","中和區"
"235062","800-TS","2018/10/11 18:28:03","新北市中和區景平路999巷1號","121.495396666667","25.005935","6500300","中和區"
"235057","801-TS","2018/10/11 18:28:03","新北市中和區民安街178號","121.476445","24.99991","6500300","中和區"
"235041","802-TS","2018/10/11 18:28:07","新北市中和區景平路353號","121.504891666667","24.993295","6500300","中和區"
"235052","805-TS","2018/10/11 18:27:54","新北市中和區興南路二段133號","121.50525","24.984175","6500300","中和區"
"235048","896-TW","2018/10/11 18:28:03","新北市中和區中正路79號","121.500786666667","24.9935033333333","6500300","中和區"
"235053","900-TW","2018/10/11 18:28:10","新北市土城區延壽路6號","121.471415","24.99033","6500300","中和區"
"235060","911-UM","2018/10/11 18:28:09","新北市中和區員山路473號","121.480163333333","25.0046333333333","6500300","中和區"
"235051","157-BY","2018/10/11 18:28:05","新北市中和區興南路二段142巷17弄32號","121.502716666667","24.9827483333333","6500300","中和區"
"235037","AAC-213","2018/10/11 18:28:05","新北市中和區景德街95-10號","121.515128333333","24.99117","6500300","中和區"
"220035","015-TV","2018/10/11 18:28:00","新北市板橋區南雅南路二段122-13號","121.452285","24.9978966666667","6500100","板橋區"
"220065","072-UY","2018/10/11 18:28:06","新北市板橋區華興街26號","121.459071666667","25.0046716666667","6500100","板橋區"
"220069","AAD-861","2018/10/11 18:28:08","新北市板橋區華東街1-10號","121.448318333333","24.995125","6500100","板橋區"
"226004","312-R5","2018/10/11 18:27:59","新北市平溪區靜安路二段240號","121.72458","25.0220383333333","6502400","平溪區"
"228003","097-TW","2018/10/11 18:28:06","新北市貢寮區和美里和美街36號","121.912375","25.08527","6502600","貢寮區"
"228001","212-TW","2018/10/11 18:27:54","新北市貢寮區仁理村仁義街8號","121.923795","25.0520883333333","6502600","貢寮區"
"228002","663-BX","2018/10/11 18:27:55","新北市貢寮區福連里香蘭街9號","121.977728333333","25.0238016666667","6502600","貢寮區"
"224006","676-BX","2018/10/11 18:28:00","新北市瑞芳區明燈路二段55號","121.811188333333","25.1081016666667","6501200","瑞芳區"
"224002","639-TC","2018/10/11 18:28:03","新北市瑞芳區正貿新村20號","121.813335","25.1057183333333","6501200","瑞芳區"
"224008","285-BY","2018/10/11 18:28:02","新北市瑞芳區岳王路1巷32號","121.806255","25.1105133333333","6501200","瑞芳區"
"224007","275-VK","2018/10/11 18:28:03","新北市瑞芳區大埔路吉慶公園城16號","121.764963333333","25.1000833333333","6501200","瑞芳區"
"224009","273-VK","2018/10/11 18:27:57","新北市瑞芳區五號路96號","121.854728333333","25.1104233333333","6501200","瑞芳區"
"224005","271-BY","2018/10/11 18:28:10","新北市瑞芳區台電新村140號","121.811436666667","25.1279733333333","6501200","瑞芳區"
"227004","642-TC","2018/10/11 18:28:06","新北市雙溪區共和里中山路53號","121.867058333333","25.0319133333333","6502500","雙溪區"
"227010","400-TW","2018/10/11 18:27:55","新北市雙溪區牡丹里牡丹29號","121.85226","25.05856","6502500","雙溪區"
"253006","032-BX","2018/10/11 18:27:57","新北市石門區公地20-1號","121.545765","25.29019","6502200","石門區"
"253005","295-VK","2018/10/11 18:27:57","新北市石門區老崩山11-13號","121.551735","25.2906616666667","6502200","石門區"
"222001","KEA-2212","2018/10/11 18:28:11","新北市深坑區北深路一段201巷1號","121.630358333333","25.0088833333333","6501800","深坑區"
"208002","KEA-2872","2018/10/11 18:28:06","新北市金山區磺港里青年路1號","121.639531666667","25.2257633333333","6502700","金山區"
"208003","665-BX","2018/10/11 18:27:51","新北市金山區中山路116號","121.639348333333","25.21991","6502700","金山區"
"208001","761-BX","2018/10/11 18:27:58","新北市金山區金包里街156號","121.637418333333","25.2226","6502700","金山區"
"251005","010-UM","2018/10/11 18:28:01","新北市淡水區博愛街47-1號","121.44683","25.1690683333333","6501000","淡水區"
"251013","KEA-2871","2018/10/11 18:27:56","新北市淡水區椿子林19-1號","121.480396666667","25.2039633333333","6501000","淡水區"
"251016","179-VK","2018/10/11 18:27:56","新北市淡水區下圭柔山115號","121.446273333333","25.21257","6501000","淡水區"
"251015","180-VK","2018/10/11 18:28:05","新北市淡水區興福寮88巷216號","121.486011666667","25.166645","6501000","淡水區"
"251008","181-VK","2018/10/11 18:28:08","新北市淡水區北投子95-1號","121.466471666667","25.1768866666667","6501000","淡水區"
"251010","413-VK","2018/10/11 18:27:58","新北市淡水區沙崙路181巷1號","121.424163333333","25.184205","6501000","淡水區"
"251012","441-VK","2018/10/11 18:28:02","新北市淡水區北新路一段156-1號","121.460861666667","25.1824433333333","6501000","淡水區"
"251004","443-VK","2018/10/11 18:28:00","新北市淡水區民族路31巷34號","121.46242","25.1365983333333","6501000","淡水區"
"251001","559-UM","2018/10/11 18:27:56","新北市淡水區自強路116-9號","121.46322","25.1322283333333","6501000","淡水區"
"251006","561-UM","2018/10/11 18:27:57","新北市淡水區新民街21號","121.43937","25.1751783333333","6501000","淡水區"
"251011","650-BX","2018/10/11 18:28:10","新北市淡水區中正東路一段27號","121.451971666667","25.1633683333333","6501000","淡水區"
"251002","672-BX","2018/10/11 18:27:55","新北市淡水區竿蓁二街19巷1號","121.453216666667","25.1631083333333","6501000","淡水區"
"251003","766-UM","2018/10/11 18:27:55","新北市淡水區北新路169巷19號","121.44965","25.1800233333333","6501000","淡水區"
"207003","550-UM","2018/10/11 18:28:01","新北市萬里區野柳里港東路347號","121.689203333333","25.204015","6502800","萬里區"
"207004","225-TW","2018/10/11 18:28:09","新北市萬里區北基里忠二街11號","121.685401666667","25.1746733333333","6502800","萬里區"
"252002","178-VK","2018/10/11 18:27:57","新北市三芝區中山路二段41號","121.50289","25.25505","6502100","三芝區"
"252003","249-BX","2018/10/11 18:28:07","新北市三芝區後厝里北勢子41-7號","121.47242","25.2530283333333","6502100","三芝區"
"252001","292-VK","2018/10/11 18:27:57","新北市三芝區中興街二段6號","121.49846","25.2565866666667","6502100","三芝區"
"237004","KEA-2597","2018/10/11 18:27:57","新北市三峽區五寮144號","121.359545","24.8583216666667","6500900","三峽區"
"237007","153-BY","2018/10/11 18:28:01","新北市三峽區中正路三段70巷23號","121.355686666667","24.9048533333333","6500900","三峽區"
"237009","210-TH","2018/10/11 18:27:58","新北市三峽區中山路92號","121.366651666667","24.935325","6500900","三峽區"
"237013","252-BX","2018/10/11 18:28:07","新北市三峽區永安街9巷22號","121.376915","24.930055","6500900","三峽區"
"237012","275-BY","2018/10/11 18:28:02","新北市三峽區三樹路64號","121.37796","24.9381783333333","6500900","三峽區"
"237008","302-VK","2018/10/11 18:28:01","新北市三峽區白雞68-305號","121.39116","24.9095683333333","6500900","三峽區"
"237014","433-BY","2018/10/11 18:27:56","新北市三峽區民生街105號","121.374083333333","24.9355416666667","6500900","三峽區"
"237006","5529-G3","2018/10/11 18:28:07","新北市三峽區溪東路473巷74號","121.415363333333","24.9292983333333","6500900","三峽區"
"237011","KEA-2596","2018/10/11 18:27:59","新北市三峽區溪東路345號","121.411133333333","24.9297066666667","6500900","三峽區"
"237016","649-BX","2018/10/11 18:28:07","新北市三峽區竹崙路144號","121.434986666667","24.9086816666667","6500900","三峽區"
"237010","706-TV","2018/10/11 18:28:04","新北市三峽區民族街15號","121.369368333333","24.930905","6500900","三峽區"
"237005","AKY-6261","2018/10/11 18:28:12","新北市三峽區民族街6號","121.368951666667","24.9314633333333","6500900","三峽區"
"236070","105-UM","2018/10/11 18:27:54","新北市土城區永豐路211-2號","121.474573333333","24.9762683333333","6501300","土城區"
"236042","107-UM","2018/10/11 18:28:11","新北市土城區裕民路67巷13號","121.4499","24.9883433333333","6501300","土城區"
"236078","166-UM","2018/10/11 18:27:58","新北市土城區中央路四段25-10號","121.424425","24.9624766666667","6501300","土城區"
"236030","253-BX","2018/10/11 18:28:05","新北市土城區水源街81巷16號","121.439405","24.97607","6501300","土城區"
"236026","269-VK","2018/10/11 18:28:07","新北市土城區南天母路121號","121.447981666667","24.9512466666667","6501300","土城區"
"236014","270-VK","2018/10/11 18:28:01","新北市土城區青雲路39巷7號","121.460263333333","24.9873933333333","6501300","土城區"
"236038","271-VK","2018/10/11 18:28:12","新北市土城區青雲路409號","121.45885","24.9755666666667","6501300","土城區"
"236021","401-BY","2018/10/11 18:27:59","新北市土城區永豐路202巷14號","121.466271666667","24.9833333333333","6501300","土城區"
"236055","752-BX","2018/10/11 18:27:57","新北市土城區中華路二段103號","121.439215","24.9773116666667","6501300","土城區"
"236059","912-UM","2018/10/11 18:28:00","新北市土城區中央路四段172號","121.416691666667","24.9580933333333","6501300","土城區"
"236049","913-UM","2018/10/11 18:27:54","新北市土城區青雲路452號","121.45934","24.970485","6501300","土城區"
"236063","915-UM","2018/10/11 18:28:02","新北市土城區延壽路111巷23號","121.468375","24.9935733333333","6501300","土城區"
"242058","986-R7","2018/10/11 18:28:00","新北市新莊區中正路899巷2號","121.411523333333","25.0216","6500500","新莊區"
"242056","751-BX","2018/10/11 18:28:01","新北市新莊區瓊泰路77巷16號","121.442578333333","25.0292516666667","6500500","新莊區"
"242025","613-BX","2018/10/11 18:28:12","新北市新莊區昌平街346號","121.454645","25.0614883333333","6500500","新莊區"
"242044","566-BX","2018/10/11 18:28:12","新北市新莊區龍安路99號","121.416345","25.0223966666667","6500500","新莊區"
"242053","441-UM","2018/10/11 18:28:08","新北市新莊區保安街一段14巷61弄7號","121.430455","24.996495","6500500","新莊區"
"242009","413-TV","2018/10/11 18:28:06","新北市新莊區新泰路368號","121.444593333333","25.0428133333333","6500500","新莊區"
"242046","400-BY","2018/10/11 18:28:08","新北市新莊區中正路829巷5號","121.420966666667","25.0276833333333","6500500","新莊區"
"242061","353-BY","2018/10/11 18:27:51","新北市新莊區後港一路160號","121.430765","25.0275433333333","6500500","新莊區"
"242011","132-UY","2018/10/11 18:28:01","新北市新莊區中港路615巷10號","121.450823333333","25.0534933333333","6500500","新莊區"
"242042","133-UY","2018/10/11 18:28:11","新北市新莊區天祥街53號","121.414988333333","25.0303966666667","6500500","新莊區"
"242007","176-VK","2018/10/11 18:28:00","新北市新莊區碧江街27-15號","121.45243","25.0329816666667","6500500","新莊區"
"242004","349-TH","2018/10/11 18:28:08","新北市新莊區三和路12-21號","121.442403333333","25.0382416666667","6500500","新莊區"
"238015","755-BX","2018/10/11 18:27:59","新北市樹林區復興路360號","121.415738333333","24.9862083333333","6500700","樹林區"
"238023","601-UM","2018/10/11 18:27:58","新北市樹林區三福街114號","121.40649","25.0163783333333","6500700","樹林區"
"238019","599-UM","2018/10/11 18:27:54","新北市樹林區中華路190-16號","121.411778333333","24.9806366666667","6500700","樹林區"
"238018","571-TV","2018/10/11 18:28:11","新北市樹林區樹新路52-9號","121.428818333333","24.9968383333333","6500700","樹林區"
"238024","5061-A6","2018/10/11 18:28:12","新北市樹林區育英街2巷58號","121.423798333333","24.9909583333333","6500700","樹林區"
"238025","303-VK","2018/10/11 18:28:09","新北市樹林區大安路277號","121.418453333333","24.9931833333333","6500700","樹林區"
"238007","268-VK","2018/10/11 17:58:25","新北市樹林區中山路三段204號","121.386766666667","24.968245","6500700","樹林區"
"238026","172-UY","2018/10/11 18:28:02","新北市樹林區佳園路一段75巷10-12號","121.395981666667","24.970625","6500700","樹林區"
"238016","169-UY","2018/10/11 18:27:55","新北市樹林區文化街28號","121.419215","24.9877266666667","6500700","樹林區"
"239007","AAC-297","2018/10/11 18:28:04","新北市鶯歌區育英街65-1號","121.347315","24.9523266666667","6500800","鶯歌區"
"239006","891-R6","2018/10/11 18:27:54","新北市鶯歌區鶯桃路268巷18號","121.335965","24.960465","6500800","鶯歌區"
"239008","527-UM","2018/10/11 18:28:12","新北市鶯歌區國際一路14號","121.336181666667","24.9765116666667","6500800","鶯歌區"
"239005","526-UM","2018/10/11 18:27:59","新北市鶯歌區鶯桃路668巷23號","121.328981666667","24.97028","6500800","鶯歌區"
"239001","417-VK","2018/10/11 18:28:00","新北市鶯歌區國中街197號","121.33821","24.939175","6500800","鶯歌區"
"239003","360-BY","2018/10/11 18:28:03","新北市鶯歌區福安街11巷2號","121.335366666667","24.965225","6500800","鶯歌區"
"239002","359-BY","2018/10/11 18:27:54","新北市鶯歌區中正一路53號","121.352253333333","24.9539616666667","6500800","鶯歌區"
"239004","193-VK","2018/10/11 18:27:56","新北市鶯歌區尖山路168巷1號","121.345066666667","24.9482266666667","6500800","鶯歌區"
"221008","489-VK","2018/10/11 18:27:58","新北市汐止區康寧街901號","121.65145","25.0750533333333","6501100","汐止區"
"221036","130-UY","2018/10/11 18:28:00","新北市汐止區信義路1號","121.662613333333","25.0692216666667","6501100","汐止區"
"221015","131-UY","2018/10/11 18:28:06","新北市汐止區鄉長路二段23巷18號","121.667728333333","25.0831333333333","6501100","汐止區"
"221010","269-BY","2018/10/11 18:27:58","新北市汐止區瑞松街18巷9號","121.645151666667","25.1048066666667","6501100","汐止區"
"221012","278-VK","2018/10/11 18:27:55","新北市汐止區保長路19巷1號","121.672176666667","25.0798983333333","6501100","汐止區"
"221023","279-VK","2018/10/11 18:28:01","新北市汐止區中興路234-2號","121.629973333333","25.0675466666667","6501100","汐止區"
"221032","280-BY","2018/10/11 18:28:11","新北市汐止區民權街二段109巷32號","121.620003333333","25.04642","6501100","汐止區"
"221027","281-BY","2018/10/11 18:28:07","新北市汐止區建成路37巷8號","121.662635","25.0724866666667","6501100","汐止區"
"221029","298-VK","2018/10/11 18:27:58","新北市汐止區連峰街1巷5號","121.645831666667","25.0759983333333","6501100","汐止區"
"221021","299-VK","2018/10/11 18:28:07","新北市汐止區新台五路一段148號","121.653336666667","25.0620583333333","6501100","汐止區"
"221031","353-TW","2018/10/11 18:27:49","新北市汐止區光復街7巷34號","121.641203333333","25.0601166666667","6501100","汐止區"
"221035","622-UM","2018/10/11 18:27:55","新北市汐止區大同路二段167號","121.6511","25.064865","6501100","汐止區"
"221025","623-UM","2018/10/11 18:28:11","新北市汐止區秀峰路143號","121.660393333333","25.06219","6501100","汐止區"
"221038","646-BX","2018/10/11 18:28:05","新北市汐止區忠孝東路236號","121.662486666667","25.0669816666667","6501100","汐止區"
"221033","647-BX","2018/10/11 18:28:10","新北市汐止區宜興街27號","121.621758333333","25.041885","6501100","汐止區"
"221002","707-TV","2018/10/11 18:27:57","新北市汐止區福德一路149號","121.636613333333","25.0667","6501100","汐止區"
"221018","753-BX","2018/10/11 18:27:58","新北市汐止區茄苳路88巷32號","121.667588333333","25.0699016666667","6501100","汐止區"
"220079","145-BY","2018/10/11 18:28:03","新北市板橋區華東街1-10號","121.448355","24.9950283333333","6500100","板橋區"
"220080","200-UY","2018/10/11 18:27:54","新北市板橋區華東街1-9號","121.447996666667","24.9950066666667","6500100","板橋區"
"220082","610-BX","2018/10/11 18:28:04","新北市板橋區華東街1-9號","121.448226666667","24.994885","6500100","板橋區"
"220071","283-VK","2018/10/11 18:27:54","新北市板橋區華東街1-9號","121.448058333333","24.9949083333333","6500100","板橋區"
"220083","286-VK","2018/10/11 18:28:00","新北市板橋區華東街1-10號","121.448413333333","24.9951083333333","6500100","板橋區"
"220081","287-VK","2018/10/11 18:28:08","新北市板橋區華東街1-10號","121.448251666667","24.995045","6500100","板橋區"
"220084","296-UM","2018/10/11 18:28:06","新北市板橋區華東街1-9號","121.44817","24.994955","6500100","板橋區"
"220075","303-R5","2018/10/11 18:27:57","新北市板橋區華東街1-9號","121.44821","24.994985","6500100","板橋區"
"220064","486-VK","2018/10/11 18:28:04","新北市板橋區板城路421號","121.448635","24.9961133333333","6500100","板橋區"
"220077","687-BX","2018/10/11 18:27:52","新北市板橋區華東街1-10號","121.448281666667","24.9950366666667","6500100","板橋區"
"220074","895-R6","2018/10/11 18:28:09","新北市板橋區華東街1-10號","121.44823","24.9949683333333","6500100","板橋區"
"235068","KEA-2873","2018/10/11 18:28:05","新北市中和區錦和路350-1號","121.490435","24.99358","6500300","中和區"
"235061","KEA-2875","2018/10/11 18:28:04","新北市中和區民治街29巷2弄6號","121.475555","25.0006966666667","6500300","中和區"
