"lineid","car","time","location","longitude","latitude","cityid","cityname"
"234046","148-BY","2018/10/11 18:38:01","新北市永和區永元路126號","121.522755","25.0029166666667","6500400","永和區"
"234007","207-UY","2018/10/11 18:38:13","新北市永和區文化路212號","121.510098333333","25.0167366666667","6500400","永和區"
"234081","298-R6","2018/10/11 18:38:03","新北市永和區林森路81號","121.523835","25.003925","6500400","永和區"
"234064","337-UY","2018/10/11 18:38:12","新北市永和區福和路1號","121.526548333333","25.01019","6500400","永和區"
"234086","338-UY","2018/10/11 18:37:59","新北市永和區中正路4號","121.512446666667","24.9937","6500400","永和區"
"234070","552-UM","2018/10/11 18:37:55","新北市永和區福和路1號","121.52559","25.0095766666667","6500400","永和區"
"234017","745-BX","2018/10/11 18:37:57","新北市永和區福和路1號","121.526433333333","25.009645","6500400","永和區"
"234030","746-BX","2018/10/11 18:37:53","新北市永和區成功路一段139號","121.526821666667","25.001495","6500400","永和區"
"234013","KEA-2591","2018/10/11 18:38:07","新北市永和區信義路91巷2號","121.51214","25.0137583333333","6500400","永和區"
"234042","862-TW","2018/10/11 18:38:10","新北市永和區永貞路308號","121.511935","25.0049183333333","6500400","永和區"
"234011","9372-KE","2018/10/11 18:38:03","新北市永和區文化路9巷22弄38號","121.514315","25.0146066666667","6500400","永和區"
"234026","9371-KE","2018/10/11 18:37:55","新北市永和區永貞路415號","121.507393333333","25.0094633333333","6500400","永和區"
"249005","172-UM","2018/10/11 18:38:11","新北市八里區中華路三段228號","121.388683333333","25.12498","6502300","八里區"
"249001","173-UM","2018/10/11 18:38:00","新北市八里區龍米路一段348號","121.451491666667","25.1308666666667","6502300","八里區"
"249004","303-UY","2018/10/11 18:37:59","新北市八里區龍米路三段60號","121.423613333333","25.1589733333333","6502300","八里區"
"249002","305-UY","2018/10/11 18:38:07","新北市八里區龍形一街19巷2號","121.449856666667","25.1303833333333","6502300","八里區"
"248016","026-BX","2018/10/11 18:37:55","新北市五股區凌雲路一段149巷42號","121.448623333333","25.10091","6501500","五股區"
"248008","095-VK","2018/10/11 18:37:59","新北市五股區中興路一段150巷13-1號","121.464646666667","25.0745483333333","6501500","五股區"
"248020","225-UY","2018/10/11 18:38:07","新北市五股區孝義路87號","121.444718333333","25.1199633333333","6501500","五股區"
"248012","247-BX","2018/10/11 18:38:12","新北市五股區成泰路三段2巷1-20號","121.44119","25.0866366666667","6501500","五股區"
"248014","261-SL","2018/10/11 18:38:09","新北市五股區成泰路一段198號","121.435886666667","25.078615","6501500","五股區"
"248004","677-BX","2018/10/11 18:37:59","新北市五股區民義路一段242-3號","121.426601666667","25.0920383333333","6501500","五股區"
"248002","678-BX","2018/10/11 18:38:10","新北市五股區西雲路191號","121.447721666667","25.09569","6501500","五股區"
"248010","682-TV","2018/10/11 18:38:03","新北市五股區水碓一路92號","121.431828333333","25.0736166666667","6501500","五股區"
"234023","9380-KE","2018/10/11 18:37:52","新北市永和區福和路76巷1號","121.522973333333","25.0084016666667","6500400","永和區"
"234077","969-R7","2018/10/11 18:37:56","新北市永和區福和路212號","121.519606666667","25.0076366666667","6500400","永和區"
"234074","AAC-211","2018/10/11 18:38:05","新北市永和區福和路1號","121.526546666667","25.009835","6500400","永和區"
"234003","AAC-295","2018/10/11 18:38:01","新北市永和區福和路1號","121.526763333333","25.0101216666667","6500400","永和區"
"232011","375-UM","2018/10/11 18:38:03","新北市坪林區坪雙路一段1-1號","121.711243333333","24.9405833333333","6502000","坪林區"
"244023","069-UM","2018/10/11 18:38:02","新北市林口區文化二路二段72號","121.378633333333","25.0803733333333","6501700","林口區"
"244007","080-UY","2018/10/11 18:38:09","新北市林口區後湖2號","121.389135","25.0971233333333","6501700","林口區"
"244019","403-UM","2018/10/11 18:38:04","新北市林口區麗園二街38巷26號","121.379896666667","25.0678716666667","6501700","林口區"
"244013","KEA-2802","2018/10/11 18:38:01","新北市林口區信義路58-8號","121.382098333333","25.07867","6501700","林口區"
"244017","485-VK","2018/10/11 18:38:08","新北市林口區文化二路一段22號","121.364756666667","25.0674433333333","6501700","林口區"
"244009","656-BX","2018/10/11 18:34:42","新北市林口區林口路80號","121.389105","25.0806133333333","6501700","林口區"
"244011","701-TV","2018/10/11 18:37:54","新北市林口區興林路17巷3弄1號","121.390166666667","25.0770083333333","6501700","林口區"
"244025","837-TS","2018/10/11 18:38:07","新北市林口區南勢三街1巷31號","121.35763","25.0776066666667","6501700","林口區"
"244021","838-TS","2018/10/11 18:38:12","新北市林口區自強二街28號","121.398178333333","25.07789","6501700","林口區"
"243013","AAD-798","2018/10/11 18:27:02","新北市泰山區明志路三段206巷3號","121.423288333333","25.0379316666667","6501600","泰山區"
"243012","646-TV","2018/10/11 18:38:07","新北市泰山區泰林路二段146號","121.434206666667","25.059855","6501600","泰山區"
"243014","680-BX","2018/10/11 18:38:04","新北市泰山區黎明路25號","121.422063333333","25.0606666666667","6501600","泰山區"
"222003","436-BY","2018/10/11 18:38:11","新北市深坑區翠谷街37巷1號","121.62653","25.0094633333333","6501800","深坑區"
"222002","659-BX","2018/10/11 18:37:52","新北市深坑區雲鄉路1號","121.621066666667","24.9996283333333","6501800","深坑區"
"231059","001-UM","2018/10/11 18:37:57","新北市新店區安華路28-1號","121.519513333333","24.9608733333333","6500600","新店區"
"231041","002-UM","2018/10/11 18:37:58","新北市新店區安華路28-1號","121.519618333333","24.96078","6500600","新店區"
"231040","047-UY","2018/10/11 18:38:00","新北市新店區安華路28-1號","121.519255","24.9608866666667","6500600","新店區"
"231044","106-UY","2018/10/11 18:38:01","新北市新店區安康路一段89號","121.529178333333","24.9615183333333","6500600","新店區"
"231046","107-UY","2018/10/11 18:38:11","新北市新店區直潭二街1號","121.535515","24.9431833333333","6500600","新店區"
"231047","187-VK","2018/10/11 18:37:49","新北市新店區安一路一段1-1號","121.519623333333","24.96119","6500600","新店區"
"231062","188-VK","2018/10/11 18:38:10","新北市新店區安一路一段1-1號","121.519453333333","24.9613733333333","6500600","新店區"
"231052","189-VK","2018/10/11 18:38:05","新北市新店區永興路15號","121.544331666667","24.9394133333333","6500600","新店區"
"231054","KEA-2219","2018/10/11 18:37:52","新北市新店區安一路一段1-1號","121.51982","24.9611033333333","6500600","新店區"
"231057","256-BX","2018/10/11 18:38:07","新北市新店區新烏路一段215號","121.549293333333","24.9314216666667","6500600","新店區"
"231042","268-BY","2018/10/11 18:38:11","新北市新店區安華路28-1號","121.519435","24.960705","6500600","新店區"
"231051","278-BY","2018/10/11 18:38:06","新北市新店區環河路100號","121.537","24.9640116666667","6500600","新店區"
"231050","AAD-862","2018/10/11 18:38:04","新北市新店區安一路一段1-1號","121.519898333333","24.9611666666667","6500600","新店區"
"231061","355-BY","2018/10/11 18:37:53","新北市新店區安華路28-1號","121.518876666667","24.9608816666667","6500600","新店區"
"231058","3713-VJ","2018/10/11 18:38:09","新北市新店區國校路74-1號","121.53836","24.9531366666667","6500600","新店區"
"231066","4716-K9","2018/10/11 18:37:57","新北市新店區安一路一段1-1號","121.519525","24.9617216666667","6500600","新店區"
"231056","4715-K9","2018/10/11 18:38:00","新北市新店區建國路116號","121.539278333333","24.978525","6500600","新店區"
"231067","4772-VM","2018/10/11 18:38:09","新北市新店區安華路1-1號","121.519216666667","24.9605033333333","6500600","新店區"
"231065","512-UM","2018/10/11 18:38:11","新北市新店區安一路一段1-1號","121.519288333333","24.9612266666667","6500600","新店區"
"231049","513-UM","2018/10/11 18:37:58","新北市新店區安一路一段1-1號","121.519615","24.9611266666667","6500600","新店區"
"231063","616-UM","2018/10/11 18:38:09","新北市新店區安華路28-1號","121.519441666667","24.9605616666667","6500600","新店區"
"231045","617-UM","2018/10/11 18:37:51","新北市新店區安華路28-1號","121.519466666667","24.96094","6500600","新店區"
"231064","719-UM","2018/10/11 18:37:57","新北市新店區安一路一段1-1號","121.519495","24.9614","6500600","新店區"
"231060","897-TW","2018/10/11 18:38:12","新北市新店區安華路28-1號","121.519658333333","24.9607033333333","6500600","新店區"
"231043","899-TW","2018/10/11 18:38:01","新北市新店區安華路28-1號","121.519226666667","24.9608966666667","6500600","新店區"
"231055","AKT-0513","2018/10/11 18:37:59","新北市新店區中華路111號","121.538891666667","24.9693166666667","6500600","新店區"
"251014","742-BX","2018/10/11 18:38:09","新北市淡水區崙頂12-8號","121.495578333333","25.21726","6501000","淡水區"
"241024","887-TS","2018/10/11 18:37:53","新北市三重區中正北路193巷37號","121.475993333333","25.070745","6500200","三重區"
"235066","003-UY","2018/10/11 18:38:03","新北市中和區水源路7巷4號","121.504025","25.0036633333333","6500300","中和區"
"235064","005-UY","2018/10/11 18:38:02","新北市中和區連城路109巷42號","121.497193333333","24.9978483333333","6500300","中和區"
"235063","006-UY","2018/10/11 18:38:03","新北市中和區連城路401號","121.486205","24.995965","6500300","中和區"
"235056","096-UM","2018/10/11 18:38:10","新北市中和區員山路611巷1號","121.477873333333","25.011305","6500300","中和區"
"235039","097-UM","2018/10/11 18:37:54","新北市中和區宜安路16號","121.51331","24.9956083333333","6500300","中和區"
"235065","098-UM","2018/10/11 18:38:08","新北市中和區中山路二段2巷45弄44號","121.501686666667","25.00644","6500300","中和區"
"235040","150-BY","2018/10/11 18:38:08","新北市中和區安平路52-1號","121.510253333333","24.9955416666667","6500300","中和區"
"235058","151-BY","2018/10/11 18:38:00","新北市中和區圓通路369巷30弄48號","121.488563333333","24.9840183333333","6500300","中和區"
"235055","183-VK","2018/10/11 18:38:05","新北市板橋區國泰街75巷53號","121.468693333333","25.0050233333333","6500300","中和區"
"235038","185-VK","2018/10/11 18:37:50","新北市中和區立人街14巷3號","121.519278333333","24.99468","6500300","中和區"
"235049","186-VK","2018/10/11 18:38:07","新北市中和區景平路480號","121.505106666667","24.9936583333333","6500300","中和區"
"235067","255-BX","2018/10/11 18:38:07","新北市中和區新生街18號","121.483133333333","25.0042433333333","6500300","中和區"
"235044","293-VK","2018/10/11 18:38:01","新北市中和區景安路220巷1弄4號","121.503166666667","24.9908383333333","6500300","中和區"
"235072","301-VK","2018/10/11 18:37:55","新北市中和區連城路133-1號","121.495911666667","24.9990616666667","6500300","中和區"
"235043","352-BY","2018/10/11 18:37:58","新北市中和區景平路177號","121.511936666667","24.9925733333333","6500300","中和區"
"235042","KEA-2878","2018/10/11 18:38:01","新北市中和區成功路97巷18弄3號","121.526901666667","24.9916633333333","6500300","中和區"
"235050","4979-A6","2018/10/11 18:37:55","新北市中和區忠孝街121號","121.512476666667","24.9880133333333","6500300","中和區"
"235069","4980-A6","2018/10/11 18:37:59","新北市中和區連城路127巷19號","121.496716666667","24.9982016666667","6500300","中和區"
"235070","558-UM","2018/10/11 18:37:49","新北市中和區景平路572號","121.501748333333","24.99555","6500300","中和區"
"235045","565-BX","2018/10/11 18:38:10","新北市中和區南山路236巷63弄1號","121.503835","24.9876516666667","6500300","中和區"
"235054","640-BX","2018/10/11 18:37:50","新北市中和區莒光路129巷2弄22號","121.473071666667","25.00127","6500300","中和區"
"235047","732-UM","2018/10/11 18:38:06","新北市中和區南山路320巷3號","121.507633333333","24.98646","6500300","中和區"
"235046","733-UM","2018/10/11 18:38:09","新北市中和區忠孝街103號","121.512071666667","24.9862416666667","6500300","中和區"
"235062","800-TS","2018/10/11 18:38:03","新北市中和區景平路754號","121.496393333333","25.00452","6500300","中和區"
"235057","801-TS","2018/10/11 18:38:03","新北市中和區員山路327巷46號","121.480405","25.0016916666667","6500300","中和區"
"235041","802-TS","2018/10/11 18:38:07","新北市中和區宜安路154號","121.509326666667","24.9987633333333","6500300","中和區"
"235052","805-TS","2018/10/11 18:37:54","新北市中和區興南路三段21號","121.496825","24.9791916666667","6500300","中和區"
"235048","896-TW","2018/10/11 18:38:03","新北市中和區南山路164號","121.504698333333","24.9914866666667","6500300","中和區"
"235053","900-TW","2018/10/11 18:38:10","新北市土城區延壽路55巷1號","121.469725","24.9921383333333","6500300","中和區"
"235060","911-UM","2018/10/11 18:38:04","新北市中和區中山路二段577號","121.480381666667","25.0055916666667","6500300","中和區"
"235051","157-BY","2018/10/11 18:37:51","新北市中和區興南路二段114巷10弄5號","121.503991666667","24.9851816666667","6500300","中和區"
"235037","AAC-213","2018/10/11 18:38:04","新北市中和區景平路111巷52號","121.515375","24.990415","6500300","中和區"
"235059","AAC-215","2018/10/11 18:38:11","新北市中和區錦和路350-1號","121.490545","24.9935566666667","6500300","中和區"
"220035","015-TV","2018/10/11 18:38:00","新北市板橋區南雅西路二段145巷6號","121.451613333333","25.0118033333333","6500100","板橋區"
"220065","072-UY","2018/10/11 18:38:06","新北市板橋區民族路151巷52號","121.470121666667","25.0084483333333","6500100","板橋區"
"220086","073-UY","2018/10/11 18:38:10","新北市板橋區南雅西路二段177號","121.451826666667","25.0125666666667","6500100","板橋區"
"220069","AAD-861","2018/10/11 18:38:08","新北市板橋區華東街1-8號","121.447818333333","24.9948266666667","6500100","板橋區"
"226004","312-R5","2018/10/11 18:37:59","新北市平溪區石底里公園街18-3號","121.733395","25.0257333333333","6502400","平溪區"
"228003","097-TW","2018/10/11 18:38:05","新北市貢寮區和美里龍洞街46號","121.913336666667","25.1125433333333","6502600","貢寮區"
"228001","212-TW","2018/10/11 18:37:54","新北市貢寮區仁理村研海街12-1號","121.923806666667","25.0517183333333","6502600","貢寮區"
"228002","663-BX","2018/10/11 18:37:55","新北市貢寮區福隆里東興街6-11號","121.950756666667","25.0210733333333","6502600","貢寮區"
"224010","AGQ-8101","2018/10/11 18:37:21","新北市瑞芳區崙頂路105號","121.84446","25.1070466666667","6501200","瑞芳區"
"224006","676-BX","2018/10/11 18:38:00","新北市瑞芳區明燈路三段84號","121.805766666667","25.1082983333333","6501200","瑞芳區"
"224002","639-TC","2018/10/11 18:37:53","新北市瑞芳區國中新村19號","121.817396666667","25.1071683333333","6501200","瑞芳區"
"224008","285-BY","2018/10/11 18:38:02","新北市瑞芳區岳王路11號","121.807088333333","25.1106566666667","6501200","瑞芳區"
"224007","275-VK","2018/10/11 18:38:03","新北市瑞芳區大埔路167號","121.763766666667","25.1018083333333","6501200","瑞芳區"
"224009","273-VK","2018/10/11 18:37:57","新北市瑞芳區祈堂路64號","121.859095","25.1094216666667","6501200","瑞芳區"
"224005","271-BY","2018/10/11 18:38:10","新北市瑞芳區永龍新村34號","121.81885","25.11937","6501200","瑞芳區"
"227004","642-TC","2018/10/11 18:37:54","新北市雙溪區魚行里坤溪3-5號","121.876193333333","25.0209183333333","6502500","雙溪區"
"227010","400-TW","2018/10/11 18:37:55","新北市雙溪區牡丹里下坑11號","121.851013333333","25.05619","6502500","雙溪區"
"253006","032-BX","2018/10/11 18:37:57","新北市石門區崁子腳28-1號","121.53961","25.289875","6502200","石門區"
"253005","295-VK","2018/10/11 18:37:57","新北市石門區石門街28號","121.566135","25.2905633333333","6502200","石門區"
"222001","KEA-2212","2018/10/11 18:37:54","新北市深坑區北深路一段84號","121.636176666667","25.0106766666667","6501800","深坑區"
"208002","KEA-2872","2018/10/11 18:38:06","新北市金山區環金路58號","121.638788333333","25.2174166666667","6502700","金山區"
"208003","665-BX","2018/10/11 18:38:11","新北市金山區中山路258號","121.635581666667","25.2239466666667","6502700","金山區"
"208001","761-BX","2018/10/11 18:37:58","新北市金山區文化三路38號","121.63551","25.2247733333333","6502700","金山區"
"251013","KEA-2871","2018/10/11 18:37:56","新北市淡水區雲廣坑7-1號","121.475553333333","25.2132183333333","6501000","淡水區"
"251016","179-VK","2018/10/11 18:37:56","新北市淡水區下圭柔山76-8號","121.442421666667","25.2053816666667","6501000","淡水區"
"251015","180-VK","2018/10/11 18:38:05","新北市淡水區興福寮66巷579號","121.484301666667","25.16349","6501000","淡水區"
"251008","181-VK","2018/10/11 18:38:08","新北市淡水區北投子20號","121.454041666667","25.1837633333333","6501000","淡水區"
"251010","413-VK","2018/10/11 18:37:58","新北市淡水區沙崙路141號","121.423233333333","25.1829783333333","6501000","淡水區"
"251012","441-VK","2018/10/11 18:38:02","新北市淡水區北新路188號","121.44973","25.1789666666667","6501000","淡水區"
"251004","443-VK","2018/10/11 18:38:00","新北市淡水區民權路41號","121.46008","25.1403316666667","6501000","淡水區"
"251001","559-UM","2018/10/11 18:37:56","新北市淡水區自強路415巷2號","121.465436666667","25.1342016666667","6501000","淡水區"
"251006","561-UM","2018/10/11 18:37:57","新北市淡水區中山北路一段305號","121.444468333333","25.1828066666667","6501000","淡水區"
"251011","650-BX","2018/10/11 18:37:50","新北市淡水區鄧公路19-1號","121.45064","25.169765","6501000","淡水區"
"251002","672-BX","2018/10/11 18:37:55","新北市淡水區中正東路一段3巷14弄1號","121.450935","25.1641583333333","6501000","淡水區"
"251003","766-UM","2018/10/11 18:37:55","新北市淡水區北新路69巷26號","121.44675","25.1801466666667","6501000","淡水區"
"207003","550-UM","2018/10/11 18:38:11","新北市萬里區野柳里港東路155號","121.68976","25.20524","6502800","萬里區"
"207004","225-TW","2018/10/11 18:38:08","新北市萬里區萬里里獅頭路12-4號","121.693378333333","25.1795116666667","6502800","萬里區"
"252002","178-VK","2018/10/11 18:38:11","新北市三芝區中正路二段35號","121.503966666667","25.2549733333333","6502100","三芝區"
"252003","249-BX","2018/10/11 18:38:07","新北市三芝區後厝里土地公坑56-1號","121.46374","25.2488016666667","6502100","三芝區"
"252001","292-VK","2018/10/11 18:37:57","新北市三芝區埔頭里埔頭14號","121.50042","25.254175","6502100","三芝區"
"237004","KEA-2597","2018/10/11 18:37:57","新北市三峽區金敏3號","121.38344","24.8752833333333","6500900","三峽區"
"237007","153-BY","2018/10/11 18:38:01","新北市三峽區柑樹路2巷3號","121.362285","24.9056116666667","6500900","三峽區"
"237009","210-TH","2018/10/11 18:37:58","新北市三峽區大同路240巷21號","121.3653","24.926075","6500900","三峽區"
"237013","252-BX","2018/10/11 18:38:07","新北市三峽區光明路69巷25號","121.37659","24.929185","6500900","三峽區"
"237012","275-BY","2018/10/11 18:38:02","新北市三峽區三樹路268號","121.379785","24.94354","6500900","三峽區"
"237008","302-VK","2018/10/11 18:38:01","新北市三峽區白雞68-5號","121.395893333333","24.9083066666667","6500900","三峽區"
"237014","433-BY","2018/10/11 18:37:56","新北市三峽區和平街65-4號","121.369958333333","24.93683","6500900","三峽區"
"237006","5529-G3","2018/10/11 18:38:07","新北市三峽區溪東路315巷1弄2號","121.410641666667","24.93081","6500900","三峽區"
"237011","KEA-2596","2018/10/11 18:37:59","新北市三峽區溪東路359號","121.41147","24.9294266666667","6500900","三峽區"
"237016","649-BX","2018/10/11 18:38:07","新北市三峽區竹崙路19巷1-1號","121.428641666667","24.9227866666667","6500900","三峽區"
"237010","706-TV","2018/10/11 18:38:04","新北市三峽區中山路276號","121.361366666667","24.9378066666667","6500900","三峽區"
"237005","AKY-6261","2018/10/11 18:37:53","新北市三峽區文化路1-1號","121.373533333333","24.9349016666667","6500900","三峽區"
"236070","105-UM","2018/10/11 18:37:54","新北市土城區永豐路157巷29弄6-1號","121.4683","24.9814583333333","6501300","土城區"
"236042","107-UM","2018/10/11 18:38:11","新北市土城區學成路124號","121.449323333333","24.9893916666667","6501300","土城區"
"236078","166-UM","2018/10/11 18:38:01","新北市土城區中央路四段38號","121.420768333333","24.96079","6501300","土城區"
"236030","253-BX","2018/10/11 18:38:05","新北市土城區慶利街33號","121.438825","24.9744533333333","6501300","土城區"
"236026","269-VK","2018/10/11 18:38:04","新北市土城區千歲路28巷6號","121.4413","24.968865","6501300","土城區"
"236014","270-VK","2018/10/11 18:38:02","新北市土城區青雲路183巷14號","121.459555","24.98283","6501300","土城區"
"236038","271-VK","2018/10/11 18:37:52","新北市土城區明德路一段291巷11弄19號","121.460948333333","24.9760916666667","6501300","土城區"
"236021","401-BY","2018/10/11 18:37:59","新北市土城區延吉街311號","121.466006666667","24.9843683333333","6501300","土城區"
"236055","752-BX","2018/10/11 18:38:04","新北市土城區中華路一段45號","121.445711666667","24.9884","6501300","土城區"
"236059","912-UM","2018/10/11 18:38:00","新北市土城區中央路三段191號","121.430716666667","24.9648233333333","6501300","土城區"
"236049","913-UM","2018/10/11 18:38:09","新北市土城區明德路一段66號","121.465538333333","24.9833316666667","6501300","土城區"
"236063","915-UM","2018/10/11 18:37:54","新北市土城區延和路177巷23號","121.470196666667","24.9911166666667","6501300","土城區"
"242058","986-R7","2018/10/11 18:37:56","新北市新莊區中正路887-13號","121.41635","25.0243516666667","6500500","新莊區"
"242025","613-BX","2018/10/11 18:37:52","新北市新莊區中平路181號","121.444825","25.04917","6500500","新莊區"
"242053","441-UM","2018/10/11 18:38:08","新北市樹林區八德街367號","121.417093333333","24.9719333333333","6500500","新莊區"
"242046","400-BY","2018/10/11 18:38:08","新北市新莊區民安路36號","121.423008333333","25.0278083333333","6500500","新莊區"
"242061","353-BY","2018/10/11 18:38:11","新北市新莊區民安路188巷3弄1號","121.425001666667","25.0233833333333","6500500","新莊區"
"242042","133-UY","2018/10/11 18:38:11","新北市新莊區天祥街91巷34號","121.414768333333","25.0286866666667","6500500","新莊區"
"242007","176-VK","2018/10/11 18:37:59","新北市新莊區環漢路三段530號","121.435428333333","25.00153","6500500","新莊區"
"242004","349-TH","2018/10/11 18:38:08","新北市新莊區三和路12-21號","121.442323333333","25.03839","6500500","新莊區"
"238023","601-UM","2018/10/11 18:37:58","新北市樹林區三福街114號","121.40649","25.0163683333333","6500700","樹林區"
"238019","599-UM","2018/10/11 18:37:54","新北市樹林區中華路190-16號","121.411753333333","24.9806133333333","6500700","樹林區"
"238018","571-TV","2018/10/11 18:38:02","新北市樹林區鎮前街55號","121.425178333333","24.9914183333333","6500700","樹林區"
"238024","5061-A6","2018/10/11 18:38:07","新北市樹林區大安路593號","121.411851666667","24.98298","6500700","樹林區"
"238025","303-VK","2018/10/11 18:38:09","新北市樹林區中山路三段210-2號","121.380828333333","24.9669416666667","6500700","樹林區"
"238026","172-UY","2018/10/11 18:38:02","新北市樹林區八德街1150號","121.390723333333","24.968545","6500700","樹林區"
"238016","169-UY","2018/10/11 18:37:55","新北市樹林區文化街23號","121.419266666667","24.9876666666667","6500700","樹林區"
"239007","AAC-297","2018/10/11 18:37:52","新北市鶯歌區中正一路碧龍巷6號","121.36724","24.957135","6500800","鶯歌區"
"239008","527-UM","2018/10/11 18:37:52","新北市鶯歌區國際一路179號","121.336216666667","24.976525","6500800","鶯歌區"
"239005","526-UM","2018/10/11 18:37:59","新北市鶯歌區鶯桃路668巷29號","121.329005","24.9703933333333","6500800","鶯歌區"
"239001","417-VK","2018/10/11 18:38:00","新北市鶯歌區國中街171號","121.337336666667","24.938435","6500800","鶯歌區"
"239003","360-BY","2018/10/11 18:38:03","新北市鶯歌區永和街172號","121.336058333333","24.9704333333333","6500800","鶯歌區"
"239002","359-BY","2018/10/11 18:37:54","新北市鶯歌區中正一路478號","121.366506666667","24.9568666666667","6500800","鶯歌區"
"239004","193-VK","2018/10/11 18:37:56","新北市鶯歌區尖山路240巷17號","121.34234","24.94739","6500800","鶯歌區"
"221008","489-VK","2018/10/11 18:37:58","新北市汐止區康寧街901號","121.65139","25.075035","6501100","汐止區"
"221036","130-UY","2018/10/11 18:38:00","新北市汐止區水碓街59號","121.665185","25.0690266666667","6501100","汐止區"
"221015","131-UY","2018/10/11 18:38:06","新北市汐止區鄉友街12號","121.668346666667","25.0808766666667","6501100","汐止區"
"221010","269-BY","2018/10/11 18:37:58","新北市汐止區汐萬路三段74巷2號","121.643995","25.0956083333333","6501100","汐止區"
"221012","278-VK","2018/10/11 18:37:55","新北市汐止區保長路147巷2號","121.676936666667","25.0765183333333","6501100","汐止區"
"221023","279-VK","2018/10/11 18:38:01","新北市汐止區康寧街541巷12號","121.633891666667","25.0694866666667","6501100","汐止區"
"221032","280-BY","2018/10/11 18:38:11","新北市汐止區福山街60巷14號","121.618176666667","25.0462433333333","6501100","汐止區"
"221027","281-BY","2018/10/11 18:38:07","新北市汐止區大同路二段595號","121.663656666667","25.0705383333333","6501100","汐止區"
"221029","298-VK","2018/10/11 18:37:58","新北市汐止區樟樹一路133巷1號","121.642075","25.065085","6501100","汐止區"
"221021","299-VK","2018/10/11 18:38:07","新北市汐止區復興路60號","121.656946666667","25.0624116666667","6501100","汐止區"
"221031","353-TW","2018/10/11 18:38:10","新北市汐止區大同路一段293號","121.636976666667","25.0586783333333","6501100","汐止區"
"221035","622-UM","2018/10/11 18:37:55","新北市汐止區大同路二段9-1號","121.646976666667","25.062815","6501100","汐止區"
"221025","623-UM","2018/10/11 18:38:11","新北市汐止區福安街22巷14號","121.662673333333","25.0643633333333","6501100","汐止區"
"221038","646-BX","2018/10/11 18:37:58","新北市汐止區汐萬路一段256巷3號","121.652475","25.07463","6501100","汐止區"
"221002","707-TV","2018/10/11 18:37:57","新北市汐止區中興路54號","121.635863333333","25.06077","6501100","汐止區"
"221018","753-BX","2018/10/11 18:37:58","新北市汐止區茄苳路224巷3弄23號","121.671275","25.0680883333333","6501100","汐止區"
"220079","145-BY","2018/10/11 18:38:03","新北市板橋區大觀路一段35巷1號","121.449381666667","25.0084666666667","6500100","板橋區"
"220080","200-UY","2018/10/11 18:37:34","新北市板橋區大觀路二段265巷72弄35號","121.441071666667","24.9971483333333","6500100","板橋區"
"220082","610-BX","2018/10/11 18:38:04","新北市板橋區大觀路三段59巷17弄6-1號","121.436298333333","24.99548","6500100","板橋區"
"220056","276-BY","2018/10/11 18:38:04","新北市板橋區四川路二段140巷16弄19號","121.4484","24.993585","6500100","板橋區"
"220072","277-BY","2018/10/11 18:38:00","新北市板橋區大觀路二段443-2號","121.438131666667","24.99533","6500100","板橋區"
"220094","283-UM","2018/10/11 18:38:10","新北市板橋區民生路二段161巷3號","121.470248333333","25.01979","6500100","板橋區"
"220071","283-VK","2018/10/11 18:37:54","新北市板橋區四川路二段橋頭6號","121.448186666667","24.9936933333333","6500100","板橋區"
"220083","286-VK","2018/10/11 18:38:00","新北市板橋區合安一路77號","121.448015","24.998895","6500100","板橋區"
"220081","287-VK","2018/10/11 18:38:07","新北市板橋區板城路271號","121.449815","24.9981133333333","6500100","板橋區"
"220084","296-UM","2018/10/11 18:38:06","新北市板橋區板城路327號","121.449676666667","24.9979433333333","6500100","板橋區"
"220053","299-UM","2018/10/11 18:38:10","新北市板橋區民生路二段120號","121.470411666667","25.019615","6500100","板橋區"
"220075","303-R5","2018/10/11 18:37:57","新北市板橋區華東街328號","121.452728333333","25.0033416666667","6500100","板橋區"
"220062","305-R5","2018/10/11 18:38:06","新北市板橋區民生路二段120號","121.470371666667","25.0196833333333","6500100","板橋區"
"220064","486-VK","2018/10/11 18:38:04","新北市板橋區縣民大道一段290號","121.461305","25.01058","6500100","板橋區"
"220063","609-BX","2018/10/11 18:38:03","新北市板橋區民生路二段161巷1號","121.469936666667","25.020025","6500100","板橋區"
"220057","686-BX","2018/10/11 18:38:02","新北市板橋區華東街1-9號","121.448228333333","24.994925","6500100","板橋區"
"220077","687-BX","2018/10/11 18:38:13","新北市板橋區大觀路二段265巷76弄37號","121.441021666667","24.99676","6500100","板橋區"
"220054","741-BX","2018/10/11 18:38:11","新北市板橋區縣民大道一段64巷2號","121.455155","25.0041216666667","6500100","板橋區"
"220067","829-TW","2018/10/11 18:38:04","新北市板橋區民生路二段161巷3號","121.470051666667","25.0197483333333","6500100","板橋區"
"220074","895-R6","2018/10/11 18:38:09","新北市板橋區南雅南路二段76號","121.453753333333","25.0017666666667","6500100","板橋區"
"220073","985-R7","2018/10/11 18:38:07","新北市板橋區南雅南路二段11-21號","121.454475","25.0016083333333","6500100","板橋區"
"220070","AAC-253","2018/10/11 18:37:59","新北市板橋區華東街1-8號","121.44789","24.9948083333333","6500100","板橋區"
"235068","KEA-2873","2018/10/11 18:38:05","新北市中和區中正路269號","121.495825","24.993545","6500300","中和區"
"235061","KEA-2875","2018/10/11 18:38:04","新北市中和區民享街95-1號","121.474863333333","25.00026","6500300","中和區"
