"lineid","car","time","location","longitude","latitude","cityid","cityname"
"234046","148-BY","2018/10/11 18:48:01","新北市永和區秀朗路二段126巷28號","121.524688333333","25.0010183333333","6500400","永和區"
"234007","207-UY","2018/10/11 18:47:53","新北市永和區文化路123號","121.512215","25.01534","6500400","永和區"
"234081","298-R6","2018/10/11 18:48:03","新北市永和區永利路122號","121.52165","25.0030266666667","6500400","永和區"
"234038","336-UY","2018/10/11 18:48:01","新北市永和區林森路10巷18弄17號","121.52626","25.00721","6500400","永和區"
"234064","337-UY","2018/10/11 18:47:51","新北市永和區福和路1號","121.526285","25.00976","6500400","永和區"
"234086","338-UY","2018/10/11 18:47:59","新北市永和區中正路64號","121.513418333333","24.9949383333333","6500400","永和區"
"234070","552-UM","2018/10/11 18:47:55","新北市永和區竹林路155號","121.520485","25.0102983333333","6500400","永和區"
"234017","745-BX","2018/10/11 18:47:57","新北市永和區忠孝街26巷15號","121.515233333333","25.0166183333333","6500400","永和區"
"234030","746-BX","2018/10/11 18:47:53","新北市永和區得和路321號","121.523418333333","24.9996266666667","6500400","永和區"
"234054","KEA-2590","2018/10/11 18:48:00","新北市永和區環河東路二段90號","121.524416666667","25.0106683333333","6500400","永和區"
"234013","KEA-2591","2018/10/11 18:48:09","新北市永和區永平路284巷45號","121.508655","25.0129083333333","6500400","永和區"
"234061","AAD-866","2018/10/11 18:48:00","新北市永和區福和路305號","121.516296666667","25.00709","6500400","永和區"
"234042","862-TW","2018/10/11 18:48:10","新北市永和區永貞路308號","121.511866666667","25.0048666666667","6500400","永和區"
"234011","9372-KE","2018/10/11 18:48:03","新北市永和區文化路124號","121.51311","25.0153883333333","6500400","永和區"
"234026","9371-KE","2018/10/11 18:47:55","新北市永和區保生路55號","121.504545","25.0107966666667","6500400","永和區"
"249005","172-UM","2018/10/11 18:48:11","新北市八里區長道坑16-3號","121.395121666667","25.11571","6502300","八里區"
"249001","173-UM","2018/10/11 18:47:59","新北市八里區龍米路二段16號","121.448961666667","25.13911","6502300","八里區"
"249002","305-UY","2018/10/11 18:48:07","新北市八里區頂寮二街138號","121.449301666667","25.1294483333333","6502300","八里區"
"248016","026-BX","2018/10/11 18:47:55","新北市五股區凌雲路一段149巷42號","121.448635","25.100985","6501500","五股區"
"248006","077-UY","2018/10/11 18:48:08","新北市五股區中興路二段83巷26-6號","121.459633333333","25.0751933333333","6501500","五股區"
"248008","095-VK","2018/10/11 18:47:59","新北市五股區中興路一段151巷46號","121.46514","25.072455","6501500","五股區"
"248020","225-UY","2018/10/11 18:48:07","新北市五股區凌雲路三段41-1號","121.430831666667","25.1182316666667","6501500","五股區"
"248012","247-BX","2018/10/11 18:47:53","新北市五股區成泰路二段147巷5-17號","121.437093333333","25.0884083333333","6501500","五股區"
"248014","261-SL","2018/10/11 18:48:09","新北市五股區成泰路二段81號","121.438123333333","25.0838733333333","6501500","五股區"
"248004","677-BX","2018/10/11 18:47:59","新北市五股區民義路二段52-3號","121.41014","25.1046833333333","6501500","五股區"
"248002","678-BX","2018/10/11 18:48:10","新北市五股區西雲路247號","121.44926","25.09793","6501500","五股區"
"248010","682-TV","2018/10/11 18:48:03","新北市五股區水碓七路81號","121.429668333333","25.0722333333333","6501500","五股區"
"234023","9380-KE","2018/10/11 18:47:21","新北市永和區竹林路119巷24號","121.521276666667","25.0116133333333","6500400","永和區"
"234077","969-R7","2018/10/11 18:48:02","新北市永和區中正路2巷23號","121.513625","24.99346","6500400","永和區"
"234074","AAC-211","2018/10/11 18:48:05","新北市永和區福和路1號","121.526581666667","25.0098066666667","6500400","永和區"
"234003","AAC-295","2018/10/11 18:48:01","新北市永和區豫溪街63號","121.517496666667","25.0099716666667","6500400","永和區"
"232011","375-UM","2018/10/11 18:48:03","新北市坪林區水聳淒坑26-2號","121.71164","24.9342866666667","6502000","坪林區"
"244023","069-UM","2018/10/11 18:48:02","新北市林口區吉祥路176號","121.376321666667","25.0806883333333","6501700","林口區"
"244007","080-UY","2018/10/11 18:48:09","新北市林口區湖北里59號","121.383908333333","25.10697","6501700","林口區"
"244019","403-UM","2018/10/11 18:48:04","新北市林口區麗園二街87號","121.382671666667","25.0668033333333","6501700","林口區"
"244013","KEA-2802","2018/10/11 18:48:11","新北市林口區麗園一街6巷7-3號","121.375175","25.070895","6501700","林口區"
"244017","485-VK","2018/10/11 18:48:08","新北市林口區文化二路一段269號","121.367368333333","25.070645","6501700","林口區"
"244009","656-BX","2018/10/11 18:48:02","新北市林口區竹林路362巷16號","121.392648333333","25.084285","6501700","林口區"
"244011","701-TV","2018/10/11 18:47:54","新北市林口區中正路57巷12弄2號","121.395166666667","25.0766983333333","6501700","林口區"
"244025","837-TS","2018/10/11 18:48:07","新北市林口區南勢街248號","121.358513333333","25.075715","6501700","林口區"
"244021","838-TS","2018/10/11 18:47:52","新北市林口區工六路17號","121.400243333333","25.077535","6501700","林口區"
"243013","AAD-798","2018/10/11 18:27:02","新北市泰山區明志路三段206巷3號","121.423288333333","25.0379316666667","6501600","泰山區"
"243016","KEA-2801","2018/10/11 18:47:55","新北市泰山區明志路一段325號","121.43124","25.058825","6501600","泰山區"
"243015","421-VK","2018/10/11 18:48:05","新北市泰山區泰林路二段411號","121.426731666667","25.0642633333333","6501600","泰山區"
"243010","KEA-2216","2018/10/11 18:48:03","新北市泰山區犁頭窠6號","121.42167","25.058915","6501600","泰山區"
"243012","646-TV","2018/10/11 18:48:07","新北市泰山區福興三街13號","121.434448333333","25.057715","6501600","泰山區"
"243014","680-BX","2018/10/11 18:48:04","新北市泰山區黎明路25號","121.42207","25.0606416666667","6501600","泰山區"
"222003","436-BY","2018/10/11 18:47:51","新北市深坑區翠谷街1號","121.6266","25.0073816666667","6501800","深坑區"
"222002","659-BX","2018/10/11 18:47:52","新北市深坑區文山路一段69號","121.627045","25.0019283333333","6501800","深坑區"
"231059","001-UM","2018/10/11 18:47:57","新北市新店區安華路28-1號","121.519501666667","24.9608533333333","6500600","新店區"
"231041","002-UM","2018/10/11 18:47:59","新北市新店區安華路28-1號","121.519661666667","24.960755","6500600","新店區"
"231040","047-UY","2018/10/11 18:48:00","新北市新店區環河路18號","121.53716","24.9615616666667","6500600","新店區"
"231044","106-UY","2018/10/11 18:48:01","新北市新店區五峰路57-1號","121.546901666667","24.970805","6500600","新店區"
"231046","107-UY","2018/10/11 18:47:51","新北市新店區直潭二街1號","121.535151666667","24.943065","6500600","新店區"
"231047","187-VK","2018/10/11 18:48:08","新北市新店區環河路1-2號","121.53819","24.9616216666667","6500600","新店區"
"231062","188-VK","2018/10/11 18:47:50","新北市新店區安一路一段1-1號","121.519226666667","24.9612933333333","6500600","新店區"
"231052","189-VK","2018/10/11 18:48:05","新北市新店區新烏路一段247號","121.547271666667","24.9304966666667","6500600","新店區"
"231054","KEA-2219","2018/10/11 18:48:12","新北市新店區北新路一段89號","121.538508333333","24.961685","6500600","新店區"
"231057","256-BX","2018/10/11 18:48:07","新北市新店區花園一路一段2號","121.552878333333","24.9323366666667","6500600","新店區"
"231042","268-BY","2018/10/11 18:47:51","新北市新店區安康路一段92-1號","121.527925","24.9620633333333","6500600","新店區"
"231051","278-BY","2018/10/11 18:48:06","新北市新店區中央路69號","121.532325","24.9769866666667","6500600","新店區"
"231050","AAD-862","2018/10/11 18:48:04","新北市新店區安康路一段52巷2號","121.530163333333","24.9611666666667","6500600","新店區"
"231061","355-BY","2018/10/11 18:47:53","新北市新店區安華路28-1號","121.519016666667","24.9609016666667","6500600","新店區"
"231058","3713-VJ","2018/10/11 18:48:01","新北市新店區北宜路一段105巷4弄3號","121.539941666667","24.9556583333333","6500600","新店區"
"231066","4716-K9","2018/10/11 18:47:57","新北市新店區安一路一段1-1號","121.519418333333","24.9613066666667","6500600","新店區"
"231056","4715-K9","2018/10/11 18:48:00","新北市新店區建國路215號","121.537585","24.980445","6500600","新店區"
"231067","4772-VM","2018/10/11 18:48:09","新北市新店區安華路28-1號","121.519285","24.9605833333333","6500600","新店區"
"231065","512-UM","2018/10/11 18:47:31","新北市新店區安忠路57巷15號","121.51285","24.95726","6500600","新店區"
"231049","513-UM","2018/10/11 18:48:03","新北市新店區環河路88號","121.53697","24.9636633333333","6500600","新店區"
"231063","616-UM","2018/10/11 18:48:09","新北市新店區安華路28-1號","121.519448333333","24.96054","6500600","新店區"
"231045","617-UM","2018/10/11 18:48:11","新北市新店區安華路8號","121.519836666667","24.9624883333333","6500600","新店區"
"231064","719-UM","2018/10/11 18:47:57","新北市新店區安一路一段1-1號","121.519503333333","24.9613033333333","6500600","新店區"
"231060","897-TW","2018/10/11 18:47:52","新北市新店區安華路28-1號","121.519596666667","24.9607683333333","6500600","新店區"
"231043","899-TW","2018/10/11 18:48:01","新北市新店區安華路28-1號","121.519148333333","24.9608866666667","6500600","新店區"
"231055","AKT-0513","2018/10/11 18:48:06","新北市新店區北新路一段271巷3號","121.540638333333","24.9666316666667","6500600","新店區"
"251014","742-BX","2018/10/11 18:48:09","新北市淡水區崙頂2-2號","121.491651666667","25.2239483333333","6501000","淡水區"
"241035","KEA-2210","2018/10/11 18:47:59","新北市三重區重新路四段121號","121.484573333333","25.0522716666667","6500200","三重區"
"235066","003-UY","2018/10/11 18:47:57","新北市中和區光華街14號","121.504135","25.0040433333333","6500300","中和區"
"235064","005-UY","2018/10/11 18:48:02","新北市中和區連城路75巷6弄1號","121.498166666667","24.9986533333333","6500300","中和區"
"235063","006-UY","2018/10/11 18:48:03","新北市中和區連城路248號","121.487316666667","24.99649","6500300","中和區"
"235056","096-UM","2018/10/11 18:48:10","新北市中和區員山路611巷5弄3號","121.478003333333","25.0112116666667","6500300","中和區"
"235039","097-UM","2018/10/11 18:47:54","新北市中和區宜安路52巷20號","121.512471666667","24.9973483333333","6500300","中和區"
"235065","098-UM","2018/10/11 18:48:08","新北市中和區中山路二段2巷37號","121.502796666667","25.0069583333333","6500300","中和區"
"235040","150-BY","2018/10/11 18:48:08","新北市中和區安平路36巷5號","121.510295","24.9949016666667","6500300","中和區"
"235058","151-BY","2018/10/11 18:48:00","新北市中和區連城路573-1號","121.478978333333","24.99435","6500300","中和區"
"235055","183-VK","2018/10/11 18:47:53","新北市中和區民生街18號","121.470318333333","25.0054566666667","6500300","中和區"
"235038","185-VK","2018/10/11 18:48:10","新北市中和區立人街32號","121.518423333333","24.99412","6500300","中和區"
"235049","186-VK","2018/10/11 18:48:07","新北市中和區景安路132巷36號","121.504063333333","24.9943433333333","6500300","中和區"
"235067","255-BX","2018/10/11 18:48:07","新北市中和區新生街13巷1-1號","121.483426666667","25.0043366666667","6500300","中和區"
"235044","293-VK","2018/10/11 18:48:01","新北市中和區中興街117號","121.499938333333","24.9920683333333","6500300","中和區"
"235072","301-VK","2018/10/11 18:47:55","新北市中和區連城路66-1號","121.497678333333","25.001625","6500300","中和區"
"235043","352-BY","2018/10/11 18:48:06","新北市中和區景平路19號","121.523133333333","24.990575","6500300","中和區"
"235042","KEA-2878","2018/10/11 18:48:09","新北市中和區秀朗路三段153巷2號","121.525385","24.9914866666667","6500300","中和區"
"235050","4979-A6","2018/10/11 18:47:55","新北市中和區忠孝街62巷7弄2號","121.513043333333","24.983775","6500300","中和區"
"235069","4980-A6","2018/10/11 18:47:59","新北市中和區景平路597號","121.496986666667","25.0005216666667","6500300","中和區"
"235070","558-UM","2018/10/11 18:48:09","新北市中和區枋寮街4號","121.502315","24.9998033333333","6500300","中和區"
"235045","565-BX","2018/10/11 18:48:10","新北市中和區南山路174-2號","121.504995","24.9912783333333","6500300","中和區"
"235054","640-BX","2018/10/11 18:48:10","新北市中和區民享街68巷8號","121.473648333333","25.0018733333333","6500300","中和區"
"235047","732-UM","2018/10/11 18:48:06","新北市中和區興南路二段93號","121.506176666667","24.9847666666667","6500300","中和區"
"235046","733-UM","2018/10/11 18:48:09","新北市中和區仁愛街36巷55號","121.511473333333","24.98634","6500300","中和區"
"235062","800-TS","2018/10/11 18:48:03","新北市中和區中山路二段312巷12號","121.495433333333","25.0037183333333","6500300","中和區"
"235057","801-TS","2018/10/11 18:48:10","新北市中和區民安街25巷2弄1號","121.4805","25.0002983333333","6500300","中和區"
"235041","802-TS","2018/10/11 18:48:07","新北市中和區中安街178巷3弄11號","121.511113333333","24.999075","6500300","中和區"
"235052","805-TS","2018/10/11 18:47:54","新北市中和區興南路二段399巷56號","121.49962","24.97881","6500300","中和區"
"235048","896-TW","2018/10/11 18:48:03","新北市中和區興南路二段22-3號","121.507525","24.98577","6500300","中和區"
"235053","900-TW","2018/10/11 18:48:10","新北市中和區華福街31號","121.466063333333","24.9968183333333","6500300","中和區"
"235060","911-UM","2018/10/11 18:48:04","新北市中和區中山路三段177號","121.472808333333","25.0062666666667","6500300","中和區"
"235051","157-BY","2018/10/11 18:47:51","新北市中和區華新街143巷106弄32號","121.506191666667","24.9786433333333","6500300","中和區"
"235037","AAC-213","2018/10/11 18:48:04","新北市中和區秀朗路三段175巷2號","121.524566666667","24.9913166666667","6500300","中和區"
"235059","AAC-215","2018/10/11 18:48:11","新北市中和區圓通路290-4號","121.490331666667","24.9892883333333","6500300","中和區"
"220068","013-TV","2018/10/11 18:48:00","新北市板橋區民生路二段56-6號","121.47091","25.0186","6500100","板橋區"
"220035","015-TV","2018/10/11 18:48:00","新北市板橋區中正路275巷79弄10號","121.452091666667","25.0177933333333","6500100","板橋區"
"220065","072-UY","2018/10/11 18:48:06","新北市板橋區民族路151巷52號","121.470141666667","25.0084616666667","6500100","板橋區"
"220086","073-UY","2018/10/11 18:48:10","新北市板橋區大智街71巷40號","121.452918333333","25.014335","6500100","板橋區"
"220106","075-UY","2018/10/11 18:48:04","新北市板橋區民生路二段161巷5號","121.470253333333","25.019725","6500100","板橋區"
"220069","AAD-861","2018/10/11 18:48:08","新北市板橋區館前西路48號","121.458501666667","25.0069616666667","6500100","板橋區"
"226004","312-R5","2018/10/11 18:47:59","新北市平溪區平溪里平溪街56號","121.736088333333","25.0276633333333","6502400","平溪區"
"228003","097-TW","2018/10/11 18:48:05","新北市貢寮區和美里龍洞街42號","121.913286666667","25.1126633333333","6502600","貢寮區"
"228001","212-TW","2018/10/11 18:48:14","新北市貢寮區仁理村保健街71號","121.923671666667","25.05164","6502600","貢寮區"
"228002","663-BX","2018/10/11 18:47:55","新北市貢寮區福隆里東興街6-11號","121.95075","25.0210616666667","6502600","貢寮區"
"224010","AGQ-8101","2018/10/11 18:46:21","新北市瑞芳區烏勢巷137號","121.846771666667","25.1076033333333","6501200","瑞芳區"
"224006","676-BX","2018/10/11 18:48:00","新北市瑞芳區中正路100號","121.80519","25.1076816666667","6501200","瑞芳區"
"224002","639-TC","2018/10/11 18:47:53","新北市瑞芳區傑魚坑路311-1號","121.79412","25.1074866666667","6501200","瑞芳區"
"224008","285-BY","2018/10/11 18:48:02","新北市瑞芳區逢甲路342號","121.802873333333","25.1118216666667","6501200","瑞芳區"
"224007","275-VK","2018/10/11 18:48:03","新北市瑞芳區大埔路148號","121.761891666667","25.101025","6501200","瑞芳區"
"224009","273-VK","2018/10/11 18:47:57","新北市瑞芳區五號路253-1號","121.856116666667","25.1126583333333","6501200","瑞芳區"
"224005","271-BY","2018/10/11 18:48:10","新北市瑞芳區瑞濱路3-2號","121.827603333333","25.1216","6501200","瑞芳區"
"227004","642-TC","2018/10/11 18:47:54","新北市雙溪區平林里梅竹蹊16號","121.861945","25.0359366666667","6502500","雙溪區"
"227010","400-TW","2018/10/11 18:48:07","新北市雙溪區牡丹里下坑11號","121.851185","25.0561516666667","6502500","雙溪區"
"253006","032-BX","2018/10/11 18:47:57","新北市石門區下員坑15號","121.511645","25.2849883333333","6502200","石門區"
"253005","295-VK","2018/10/11 18:47:57","新北市石門區中山路28-15號","121.565578333333","25.2897983333333","6502200","石門區"
"222001","KEA-2212","2018/10/11 18:47:50","新北市深坑區松柏街34號","121.63873","25.01136","6501800","深坑區"
"208002","KEA-2872","2018/10/11 18:48:05","新北市金山區仁愛路37-9號","121.636176666667","25.219255","6502700","金山區"
"208003","665-BX","2018/10/11 18:47:51","新北市金山區中山路346號","121.633411666667","25.22532","6502700","金山區"
"208001","761-BX","2018/10/11 18:47:58","新北市金山區文化三路66巷1號","121.634235","25.2256583333333","6502700","金山區"
"251013","KEA-2871","2018/10/11 18:47:56","新北市淡水區小坑子頭2-2號","121.482873333333","25.2127633333333","6501000","淡水區"
"251016","179-VK","2018/10/11 18:47:56","新北市淡水區下圭柔山71-3號","121.447","25.2062116666667","6501000","淡水區"
"251015","180-VK","2018/10/11 18:48:05","新北市淡水區興福寮66巷40號","121.486763333333","25.16269","6501000","淡水區"
"251010","413-VK","2018/10/11 18:47:58","新北市淡水區沙崙路11號","121.421083333333","25.18133","6501000","淡水區"
"251012","441-VK","2018/10/11 18:48:02","新北市淡水區新興街7號","121.443758333333","25.1804183333333","6501000","淡水區"
"251007","442-VK","2018/10/11 18:47:53","新北市淡水區中正東路二段143巷2弄1號","121.460795","25.14732","6501000","淡水區"
"251001","559-UM","2018/10/11 18:47:56","新北市淡水區自強路341號","121.463781666667","25.132685","6501000","淡水區"
"251006","561-UM","2018/10/11 18:47:57","新北市淡水區崁頂64號","121.438771666667","25.2008466666667","6501000","淡水區"
"251011","650-BX","2018/10/11 18:48:10","新北市淡水區學府路28號","121.447723333333","25.1684016666667","6501000","淡水區"
"251002","672-BX","2018/10/11 18:47:55","新北市淡水區學府路19號","121.447698333333","25.1686516666667","6501000","淡水區"
"251003","766-UM","2018/10/11 18:47:55","新北市淡水區中山北路一段186巷27弄5號","121.446116666667","25.1789466666667","6501000","淡水區"
"207003","550-UM","2018/10/11 18:48:01","新北市萬里區野柳里八斗60號","121.660363333333","25.2072133333333","6502800","萬里區"
"207004","225-TW","2018/10/11 18:48:08","新北市萬里區萬里里獅頭路23號","121.693288333333","25.1782683333333","6502800","萬里區"
"252002","178-VK","2018/10/11 18:47:57","新北市三芝區智成街70號","121.504806666667","25.256015","6502100","三芝區"
"252003","249-BX","2018/10/11 18:48:07","新北市三芝區後厝里大片頭104號","121.457606666667","25.2406466666667","6502100","三芝區"
"252001","292-VK","2018/10/11 18:47:57","新北市三芝區中正路三段9號","121.502923333333","25.2539116666667","6502100","三芝區"
"237004","KEA-2597","2018/10/11 18:47:57","新北市三峽區插角230號","121.414703333333","24.8686983333333","6500900","三峽區"
"237007","153-BY","2018/10/11 18:48:01","新北市三峽區中正路二段399號","121.365046666667","24.9075483333333","6500900","三峽區"
"237009","210-TH","2018/10/11 18:47:58","新北市三峽區民權街203號","121.367753333333","24.9285033333333","6500900","三峽區"
"237013","252-BX","2018/10/11 18:48:07","新北市三峽區光明路69巷25號","121.376601666667","24.929215","6500900","三峽區"
"237012","275-BY","2018/10/11 18:48:02","新北市三峽區三樹路358號","121.383871666667","24.9435266666667","6500900","三峽區"
"237008","302-VK","2018/10/11 18:48:01","新北市三峽區白雞39-1號","121.38063","24.9113583333333","6500900","三峽區"
"237014","433-BY","2018/10/11 18:47:56","新北市三峽區復興路480巷51-1號","121.360763333333","24.940275","6500900","三峽區"
"237006","5529-G3","2018/10/11 18:48:07","新北市三峽區溪東路211巷31弄1號","121.405493333333","24.9340133333333","6500900","三峽區"
"237011","KEA-2596","2018/10/11 18:47:59","新北市三峽區溪東路1號","121.399238333333","24.9352566666667","6500900","三峽區"
"237016","649-BX","2018/10/11 18:48:07","新北市三峽區建安77-1號","121.45089","24.92463","6500900","三峽區"
"237010","706-TV","2018/10/11 18:48:04","新北市三峽區復興路487號","121.361266666667","24.93847","6500900","三峽區"
"237005","AKY-6261","2018/10/11 18:47:53","新北市三峽區文化路205號","121.366391666667","24.9356966666667","6500900","三峽區"
"236070","105-UM","2018/10/11 18:48:14","新北市土城區立德路101號","121.463301666667","24.9876233333333","6501300","土城區"
"236042","107-UM","2018/10/11 18:48:11","新北市土城區裕民路92巷25弄14號","121.45","24.9855033333333","6501300","土城區"
"236078","166-UM","2018/10/11 18:47:58","新北市土城區中央路四段176號","121.416561666667","24.957885","6501300","土城區"
"236030","253-BX","2018/10/11 18:48:05","新北市土城區忠義路26巷10號","121.439826666667","24.9698966666667","6501300","土城區"
"236026","269-VK","2018/10/11 18:48:04","新北市土城區和平路12號","121.442851666667","24.9739133333333","6501300","土城區"
"236014","270-VK","2018/10/11 18:48:01","新北市土城區清水路235巷3弄2號","121.460931666667","24.9834516666667","6501300","土城區"
"236038","271-VK","2018/10/11 18:48:12","新北市土城區明德路一段239號","121.46274","24.9782816666667","6501300","土城區"
"236021","401-BY","2018/10/11 18:47:59","新北市土城區延吉街253巷17號","121.468001666667","24.98417","6501300","土城區"
"236055","752-BX","2018/10/11 18:47:57","新北市土城區裕民路162號","121.452115","24.9857466666667","6501300","土城區"
"236059","912-UM","2018/10/11 18:48:00","新北市土城區和平路51-1號","121.44334","24.9718233333333","6501300","土城區"
"236049","913-UM","2018/10/11 18:47:54","新北市土城區廣福街68巷26-3號","121.459","24.9903316666667","6501300","土城區"
"236063","915-UM","2018/10/11 18:47:54","新北市土城區金城路三段207巷6弄15號","121.470688333333","24.9903583333333","6501300","土城區"
"242046","400-BY","2018/10/11 18:48:08","新北市新莊區富國路66巷5號","121.419828333333","25.0254033333333","6500500","新莊區"
"242042","133-UY","2018/10/11 18:47:51","新北市新莊區天祥街120巷3弄2號","121.41477","25.03023","6500500","新莊區"
"242007","176-VK","2018/10/11 18:47:59","新北市樹林區八德街588號","121.39785","24.9692633333333","6500500","新莊區"
"242004","349-TH","2018/10/11 18:48:08","新北市新莊區三和路12-21號","121.442176666667","25.0383116666667","6500500","新莊區"
"238023","601-UM","2018/10/11 18:47:58","新北市樹林區工興街14巷1號","121.398821666667","25.013805","6500700","樹林區"
"238019","599-UM","2018/10/11 18:47:54","新北市樹林區中華路190-6號","121.41068","24.9807283333333","6500700","樹林區"
"238024","5061-A6","2018/10/11 18:48:07","新北市樹林區太平路148號","121.418566666667","24.978075","6500700","樹林區"
"238022","KEA-2213","2018/10/11 18:48:07","新北市樹林區中華路379巷39-2號","121.414248333333","24.9771633333333","6500700","樹林區"
"238025","303-VK","2018/10/11 18:48:09","新北市樹林區中山路三段22號","121.395623333333","24.9729683333333","6500700","樹林區"
"238026","172-UY","2018/10/11 18:48:02","新北市樹林區信和街6巷13號","121.390018333333","24.971645","6500700","樹林區"
"238016","169-UY","2018/10/11 18:47:55","新北市樹林區文化街28號","121.41933","24.9877116666667","6500700","樹林區"
"239007","AAC-297","2018/10/11 18:48:11","新北市鶯歌區中正一路建德巷38號","121.364501666667","24.957825","6500800","鶯歌區"
"239008","527-UM","2018/10/11 18:48:11","新北市鶯歌區國際一路179號","121.336226666667","24.9765433333333","6500800","鶯歌區"
"239005","526-UM","2018/10/11 18:47:59","新北市鶯歌區鳳吉二街112號","121.327671666667","24.97439","6500800","鶯歌區"
"239001","417-VK","2018/10/11 18:48:00","新北市鶯歌區中正二路183號","121.34167","24.9480883333333","6500800","鶯歌區"
"239003","360-BY","2018/10/11 18:48:03","新北市鶯歌區鶯桃路622號","121.329946666667","24.9685983333333","6500800","鶯歌區"
"239004","193-VK","2018/10/11 18:47:56","新北市鶯歌區尖山路388巷2號","121.341905","24.9434183333333","6500800","鶯歌區"
"221008","489-VK","2018/10/11 18:47:58","新北市汐止區康寧街901號","121.651343333333","25.0749983333333","6501100","汐止區"
"221036","130-UY","2018/10/11 18:48:00","新北市汐止區南昌街22號","121.663136666667","25.0683533333333","6501100","汐止區"
"221015","131-UY","2018/10/11 18:48:06","新北市汐止區吉祥街12巷23號","121.668816666667","25.08063","6501100","汐止區"
"221010","269-BY","2018/10/11 18:47:58","新北市汐止區康寧街901號","121.651605","25.0750283333333","6501100","汐止區"
"221012","278-VK","2018/10/11 18:47:55","新北市汐止區汐萬路一段116號","121.65384","25.07133","6501100","汐止區"
"221023","279-VK","2018/10/11 18:48:01","新北市汐止區康寧街627號","121.637276666667","25.0720066666667","6501100","汐止區"
"221032","280-BY","2018/10/11 18:48:11","新北市汐止區民權街二段79號","121.619188333333","25.04809","6501100","汐止區"
"221027","281-BY","2018/10/11 18:48:07","新北市汐止區汐萬路一段256巷3號","121.652445","25.0745966666667","6501100","汐止區"
"221029","298-VK","2018/10/11 18:47:58","新北市汐止區樟樹一路93號","121.642103333333","25.0635066666667","6501100","汐止區"
"221021","299-VK","2018/10/11 18:48:07","新北市汐止區大同路二段132-2號","121.651705","25.06391","6501100","汐止區"
"221031","353-TW","2018/10/11 18:48:10","新北市汐止區福德一路274號","121.63207","25.0639983333333","6501100","汐止區"
"221035","622-UM","2018/10/11 18:47:55","新北市汐止區大同路二段276號","121.654823333333","25.066255","6501100","汐止區"
"221025","623-UM","2018/10/11 18:47:51","新北市汐止區仁愛路119巷27號","121.661921666667","25.0645283333333","6501100","汐止區"
"221038","646-BX","2018/10/11 18:47:58","新北市汐止區汐萬路一段312號","121.65069","25.07528","6501100","汐止區"
"221002","707-TV","2018/10/11 18:47:57","新北市汐止區大同路一段161號","121.632616666667","25.0566366666667","6501100","汐止區"
"221018","753-BX","2018/10/11 18:48:07","新北市汐止區茄福街10號","121.672786666667","25.0675716666667","6501100","汐止區"
"220079","145-BY","2018/10/11 18:48:04","新北市板橋區民權路202巷5弄2號","121.459968333333","25.0145366666667","6500100","板橋區"
"220080","200-UY","2018/10/11 18:43:14","新北市板橋區大觀路二段393號","121.441058333333","24.9972466666667","6500100","板橋區"
"220082","610-BX","2018/10/11 18:48:05","新北市板橋區篤行路三段21號","121.42895","24.9871966666667","6500100","板橋區"
"220101","245-BX","2018/10/11 18:47:56","新北市板橋區民生路二段120號","121.470585","25.0197233333333","6500100","板橋區"
"220056","276-BY","2018/10/11 18:48:07","新北市板橋區四川路二段23-3號","121.454723333333","24.99577","6500100","板橋區"
"220072","277-BY","2018/10/11 18:48:00","新北市板橋區大觀路三段63號","121.433686666667","24.99543","6500100","板橋區"
"220094","283-UM","2018/10/11 18:48:10","新北市板橋區莊敬路208巷8弄6號","121.47066","25.020705","6500100","板橋區"
"220071","283-VK","2018/10/11 18:47:54","新北市板橋區四川路一段387號","121.458068333333","24.9991433333333","6500100","板橋區"
"220083","286-VK","2018/10/11 18:48:00","新北市板橋區僑中二街120巷2號","121.445526666667","25.0057433333333","6500100","板橋區"
"220081","287-VK","2018/10/11 18:48:07","新北市板橋區光華街13巷54號","121.452588333333","25.011205","6500100","板橋區"
"220061","293-UM","2018/10/11 18:47:59","新北市板橋區民生路二段56-6號","121.470786666667","25.01881","6500100","板橋區"
"220084","296-UM","2018/10/11 18:48:06","新北市板橋區大觀路二段150巷33號","121.44158","24.99988","6500100","板橋區"
"220053","299-UM","2018/10/11 18:48:10","新北市板橋區民生路二段120號","121.470441666667","25.0198133333333","6500100","板橋區"
"220075","303-R5","2018/10/11 18:47:57","新北市板橋區南興路30號","121.45475","25.0077266666667","6500100","板橋區"
"220062","305-R5","2018/10/11 18:48:06","新北市板橋區中山路二段25號","121.472465","25.0152716666667","6500100","板橋區"
"220064","486-VK","2018/10/11 18:48:04","新北市板橋區觀光街12巷1弄2號","121.472035","25.01664","6500100","板橋區"
"220088","491-VK","2018/10/11 18:47:54","新北市板橋區民生路二段161巷1號","121.469966666667","25.02002","6500100","板橋區"
"220063","609-BX","2018/10/11 18:48:03","新北市板橋區民生路二段123號","121.47068","25.01855","6500100","板橋區"
"220057","686-BX","2018/10/11 18:48:02","新北市板橋區大觀路二段11-12號","121.448815","24.99622","6500100","板橋區"
"220077","687-BX","2018/10/11 18:47:52","新北市板橋區龍興街103巷1號","121.444463333333","25.0033483333333","6500100","板橋區"
"220054","741-BX","2018/10/11 18:48:11","新北市板橋區後埔街13號","121.460473333333","25.0067866666667","6500100","板橋區"
"220102","KEA-2699","2018/10/11 18:47:57","新北市板橋區民生路二段161巷1號","121.470203333333","25.0200483333333","6500100","板橋區"
"220055","827-TW","2018/10/11 18:47:53","新北市板橋區板城路421號","121.448036666667","24.9956166666667","6500100","板橋區"
"220067","829-TW","2018/10/11 18:48:04","新北市板橋區民生路一段55號","121.475345","25.0129233333333","6500100","板橋區"
"220074","895-R6","2018/10/11 18:48:09","新北市板橋區館前西路263號","121.453916666667","25.0087333333333","6500100","板橋區"
"220073","985-R7","2018/10/11 18:48:07","新北市板橋區館前西路121號","121.456655","25.0075833333333","6500100","板橋區"
"220070","AAC-253","2018/10/11 18:47:59","新北市板橋區館前西路31號","121.4584","25.0068566666667","6500100","板橋區"
"235068","KEA-2873","2018/10/11 18:48:05","新北市中和區中正路216號","121.49686","24.9938433333333","6500300","中和區"
"235061","KEA-2875","2018/10/11 18:48:04","新北市中和區民享街47號","121.474073333333","25.002805","6500300","中和區"
