"lineid","car","time","location","longitude","latitude","cityid","cityname"
"234046","148-BY","2018/10/11 18:58:02","新北市永和區得和路373巷16弄3號","121.52528","25.00019","6500400","永和區"
"234007","207-UY","2018/10/11 18:58:12","新北市永和區永和路二段116號","121.515145","25.0121183333333","6500400","永和區"
"234081","298-R6","2018/10/11 18:58:03","新北市永和區福和路57巷14弄1號","121.522758333333","25.0068783333333","6500400","永和區"
"234038","336-UY","2018/10/11 18:58:01","新北市永和區成功路二段203號","121.526578333333","24.9959833333333","6500400","永和區"
"234064","337-UY","2018/10/11 18:58:11","新北市永和區中正路387號","121.51728","25.0039683333333","6500400","永和區"
"234086","338-UY","2018/10/11 18:57:59","新北市永和區中正路125巷6號","121.515483333333","24.9977083333333","6500400","永和區"
"234070","552-UM","2018/10/11 18:57:55","新北市永和區中興街84巷8號","121.51848","25.01162","6500400","永和區"
"234017","745-BX","2018/10/11 18:57:57","新北市永和區永和路二段297號","121.516006666667","25.0160616666667","6500400","永和區"
"234030","746-BX","2018/10/11 18:57:53","新北市永和區得和路420號","121.52618","24.9987983333333","6500400","永和區"
"234054","KEA-2590","2018/10/11 18:58:00","新北市永和區竹林路64號","121.518341666667","25.013525","6500400","永和區"
"234013","KEA-2591","2018/10/11 18:58:07","新北市永和區信義路17巷14號","121.513628333333","25.0114866666667","6500400","永和區"
"234061","AAD-866","2018/10/11 18:58:00","新北市永和區福和路309巷5號","121.516311666667","25.00685","6500400","永和區"
"234042","862-TW","2018/10/11 18:58:10","新北市永和區永貞路306號","121.511835","25.004835","6500400","永和區"
"234050","863-TW","2018/10/11 18:57:52","新北市永和區文化路194號","121.510731666667","25.0162883333333","6500400","永和區"
"234011","9372-KE","2018/10/11 18:58:03","新北市永和區忠孝街34巷16號","121.514528333333","25.0167866666667","6500400","永和區"
"234026","9371-KE","2018/10/11 18:57:55","新北市永和區自由街58號","121.513761666667","25.005915","6500400","永和區"
"249005","172-UM","2018/10/11 18:58:11","新北市八里區長道坑13-1號","121.394603333333","25.1227266666667","6502300","八里區"
"249001","173-UM","2018/10/11 18:57:59","新北市八里區渡船頭街3-1號","121.434406666667","25.1583533333333","6502300","八里區"
"248016","026-BX","2018/10/11 18:57:55","新北市五股區成泰路三段543巷16號","121.450915","25.1022233333333","6501500","五股區"
"248006","077-UY","2018/10/11 18:58:08","新北市五股區中興路一段2號","121.46966","25.0724116666667","6501500","五股區"
"248008","095-VK","2018/10/11 18:57:59","新北市五股區中興路一段124號","121.465585","25.07344","6501500","五股區"
"248020","225-UY","2018/10/11 18:58:07","新北市五股區凌雲路三段57號","121.425311666667","25.1250216666667","6501500","五股區"
"248012","247-BX","2018/10/11 18:57:52","新北市五股區工商路63號","121.439001666667","25.0842983333333","6501500","五股區"
"248014","261-SL","2018/10/11 18:58:09","新北市五股區工商路130號","121.435893333333","25.086045","6501500","五股區"
"248004","677-BX","2018/10/11 18:57:59","新北市五股區民義路二段42號","121.414798333333","25.1007233333333","6501500","五股區"
"248002","678-BX","2018/10/11 18:58:10","新北市五股區凌雲路一段74號","121.451005","25.101305","6501500","五股區"
"248010","682-TV","2018/10/11 18:58:03","新北市五股區水碓一路23號","121.430575","25.07133","6501500","五股區"
"234023","9380-KE","2018/10/11 18:58:12","新北市永和區竹林路75巷33弄1號","121.520633333333","25.0142583333333","6500400","永和區"
"234077","969-R7","2018/10/11 18:57:56","新北市永和區中正路286巷12號","121.517545","24.9984583333333","6500400","永和區"
"234074","AAC-211","2018/10/11 18:58:05","新北市永和區福和路1號","121.525996666667","25.0096383333333","6500400","永和區"
"234067","AAC-212","2018/10/11 18:58:03","新北市永和區中和路625號","121.513008333333","25.0049766666667","6500400","永和區"
"234003","AAC-295","2018/10/11 18:58:01","新北市永和區永和路一段175號","121.514011666667","25.0099166666667","6500400","永和區"
"244023","069-UM","2018/10/11 18:58:06","新北市林口區民權路12巷1號","121.371531666667","25.0799333333333","6501700","林口區"
"244007","080-UY","2018/10/11 18:58:09","新北市林口區太平嶺17號","121.377843333333","25.1148533333333","6501700","林口區"
"244019","403-UM","2018/10/11 18:58:04","新北市林口區麗園二街1巷9-1號","121.378925","25.070115","6501700","林口區"
"244013","KEA-2802","2018/10/11 18:58:11","新北市林口區麗園二街1巷7-3號","121.37832","25.07043","6501700","林口區"
"244017","485-VK","2018/10/11 18:58:08","新北市林口區文化二路一段68巷13號","121.366555","25.06886","6501700","林口區"
"244009","656-BX","2018/10/11 18:58:09","新北市林口區林口路83-1號","121.389661666667","25.07994","6501700","林口區"
"244011","701-TV","2018/10/11 18:57:54","新北市林口區仁愛路一段285巷116號","121.395108333333","25.0757416666667","6501700","林口區"
"244025","837-TS","2018/10/11 18:57:47","新北市林口區南勢一街6號","121.360558333333","25.0746333333333","6501700","林口區"
"243016","KEA-2801","2018/10/11 18:57:55","新北市泰山區明志路二段135號","121.427735","25.0508","6501600","泰山區"
"243015","421-VK","2018/10/11 18:58:05","新北市泰山區美寧街2號","121.430058333333","25.063275","6501600","泰山區"
"243011","KEA-2215","2018/10/11 18:57:57","新北市泰山區明志路二段246-1號","121.427096666667","25.0481666666667","6501600","泰山區"
"243010","KEA-2216","2018/10/11 18:58:03","新北市泰山區辭修路24號","121.429023333333","25.0581566666667","6501600","泰山區"
"243012","646-TV","2018/10/11 18:58:07","新北市泰山區仁德路114號","121.432808333333","25.0570566666667","6501600","泰山區"
"243014","680-BX","2018/10/11 18:58:04","新北市泰山區黎明路13號","121.420998333333","25.0632266666667","6501600","泰山區"
"222003","436-BY","2018/10/11 18:58:11","新北市深坑區深南路51-1號","121.621501666667","25.0100883333333","6501800","深坑區"
"222002","659-BX","2018/10/11 18:58:12","新北市深坑區文山路一段33號","121.629591666667","25.003735","6501800","深坑區"
"231059","001-UM","2018/10/11 18:57:57","新北市新店區安華路28-1號","121.519558333333","24.96099","6500600","新店區"
"231041","002-UM","2018/10/11 18:58:01","新北市新店區環河路42-1號","121.537108333333","24.962335","6500600","新店區"
"231040","047-UY","2018/10/11 18:58:00","新北市新店區中央路45號","121.532778333333","24.9776733333333","6500600","新店區"
"231044","106-UY","2018/10/11 18:58:01","新北市新店區寶中路72號","121.547883333333","24.9806016666667","6500600","新店區"
"231046","107-UY","2018/10/11 18:57:51","新北市新店區直潭五街58號","121.532911666667","24.9408716666667","6500600","新店區"
"231047","187-VK","2018/10/11 18:58:08","新北市新店區德正街23巷1號","121.544176666667","24.9719716666667","6500600","新店區"
"231062","188-VK","2018/10/11 18:58:10","新北市新店區安豐路22巷18-1號","121.501931666667","24.9544283333333","6500600","新店區"
"231052","189-VK","2018/10/11 18:58:05","新北市新店區櫻花街120號","121.54732","24.922785","6500600","新店區"
"231054","KEA-2219","2018/10/11 18:57:52","新北市新店區新店路13號","121.540281666667","24.9528333333333","6500600","新店區"
"231042","268-BY","2018/10/11 18:58:11","新北市新店區北新路一段126巷27號","121.54341","24.969565","6500600","新店區"
"231051","278-BY","2018/10/11 18:58:06","新北市新店區中正路366號","121.535218333333","24.976195","6500600","新店區"
"231050","AAD-862","2018/10/11 18:58:04","新北市新店區北宜路二段30巷5弄2號","121.548028333333","24.950865","6500600","新店區"
"231061","355-BY","2018/10/11 18:57:53","新北市新店區安華路28-1號","121.519186666667","24.96093","6500600","新店區"
"231058","3713-VJ","2018/10/11 18:58:01","新北市新店區檳榔路29巷2號","121.54204","24.9635633333333","6500600","新店區"
"231066","4716-K9","2018/10/11 18:57:57","新北市新店區安豐路22巷18-1號","121.502336666667","24.95442","6500600","新店區"
"231056","4715-K9","2018/10/11 18:58:00","新北市新店區建國路218號","121.537983333333","24.9810783333333","6500600","新店區"
"231067","4772-VM","2018/10/11 18:58:09","新北市新店區安康路一段293號","121.522768333333","24.9636783333333","6500600","新店區"
"231065","512-UM","2018/10/11 18:58:10","新北市新店區建業路90-1號","121.479476666667","24.9567433333333","6500600","新店區"
"231049","513-UM","2018/10/11 18:58:03","新北市新店區中正路454-5號","121.534448333333","24.9790383333333","6500600","新店區"
"231063","616-UM","2018/10/11 18:58:09","新北市新店區安華路30巷1號","121.51905","24.959265","6500600","新店區"
"231045","617-UM","2018/10/11 18:57:51","新北市新店區北新路一段69號","121.538321666667","24.9601966666667","6500600","新店區"
"231064","719-UM","2018/10/11 18:57:57","新北市新店區安一路一段1-1號","121.519543333333","24.9614666666667","6500600","新店區"
"231060","897-TW","2018/10/11 18:58:12","新北市新店區安忠路57巷11弄14號","121.515548333333","24.9579516666667","6500600","新店區"
"231043","899-TW","2018/10/11 18:58:01","新北市新店區北新路一段273號","121.541056666667","24.9666516666667","6500600","新店區"
"231055","AKT-0513","2018/10/11 18:57:59","新北市新店區力行路14巷12號","121.539193333333","24.96522","6500600","新店區"
"251014","742-BX","2018/10/11 18:58:09","新北市淡水區小中寮22號","121.48934","25.22918","6501000","淡水區"
"241035","KEA-2210","2018/10/11 18:57:59","新北市三重區重陽路一段43巷24號","121.488063333333","25.0582933333333","6500200","三重區"
"235066","003-UY","2018/10/11 18:57:57","新北市中和區中山路二段131巷11號","121.502841666667","25.0023766666667","6500300","中和區"
"235064","005-UY","2018/10/11 18:58:02","新北市中和區泰和街46巷4號","121.498618333333","25.0001483333333","6500300","中和區"
"235063","006-UY","2018/10/11 18:58:03","新北市中和區連城路319巷5弄1號","121.489181666667","24.995455","6500300","中和區"
"235056","096-UM","2018/10/11 18:58:10","新北市中和區員山路466巷17弄25號","121.480476666667","25.0072833333333","6500300","中和區"
"235039","097-UM","2018/10/11 18:57:54","新北市永和區中正路129巷7號","121.515495","24.9982216666667","6500300","中和區"
"235065","098-UM","2018/10/11 18:58:08","新北市中和區勝利路35巷2號","121.498826666667","25.00775","6500300","中和區"
"235040","150-BY","2018/10/11 18:58:08","新北市中和區宜安路1巷27號","121.51258","24.994265","6500300","中和區"
"235058","151-BY","2018/10/11 18:58:00","新北市中和區連城路585號","121.478666666667","24.9939683333333","6500300","中和區"
"235055","183-VK","2018/10/11 18:57:53","新北市中和區民德路12號","121.46877","25.002705","6500300","中和區"
"235038","185-VK","2018/10/11 18:58:10","新北市中和區立人街24-5號","121.518816666667","24.994145","6500300","中和區"
"235049","186-VK","2018/10/11 18:58:07","新北市中和區景安路167巷26號","121.506685","24.9949","6500300","中和區"
"235067","255-BX","2018/10/11 18:58:07","新北市中和區民樂路78號","121.48453","25.001235","6500300","中和區"
"235044","293-VK","2018/10/11 18:58:01","新北市中和區復興路280巷33弄5號","121.501491666667","24.991425","6500300","中和區"
"235072","301-VK","2018/10/11 18:57:55","新北市中和區中山路二段46號","121.504233333333","25.0049116666667","6500300","中和區"
"235043","352-BY","2018/10/11 18:57:58","新北市中和區秀朗路三段103號","121.526435","24.99474","6500300","中和區"
"235042","KEA-2878","2018/10/11 18:58:01","新北市中和區秀朗路三段128巷38弄2號","121.524688333333","24.99398","6500300","中和區"
"235050","4979-A6","2018/10/11 18:57:55","新北市中和區忠孝街37巷3號","121.510823333333","24.9834116666667","6500300","中和區"
"235069","4980-A6","2018/10/11 18:57:59","新北市中和區中和路71號","121.500708333333","25.000945","6500300","中和區"
"235070","558-UM","2018/10/11 18:58:09","新北市中和區安和路163號","121.50612","24.9974733333333","6500300","中和區"
"235045","565-BX","2018/10/11 18:58:10","新北市中和區景新街467巷22號","121.514231666667","24.9883866666667","6500300","中和區"
"235054","640-BX","2018/10/11 18:58:10","新北市中和區民享街2巷2號","121.473786666667","25.0058433333333","6500300","中和區"
"235047","732-UM","2018/10/11 18:58:06","新北市中和區興南路二段34巷22弄4號","121.506033333333","24.9864683333333","6500300","中和區"
"235046","733-UM","2018/10/11 18:58:09","新北市中和區興南路一段152號","121.508403333333","24.9869666666667","6500300","中和區"
"235062","800-TS","2018/10/11 18:58:03","新北市中和區中山路二段284號","121.49618","25.0023633333333","6500300","中和區"
"235057","801-TS","2018/10/11 18:58:03","新北市中和區民安街65巷5號","121.478808333333","24.9992866666667","6500300","中和區"
"235041","802-TS","2018/10/11 18:58:07","新北市中和區安平路147號","121.512061666667","24.9980083333333","6500300","中和區"
"235052","805-TS","2018/10/11 18:57:54","新北市中和區興南路二段342-10號","121.49964","24.9801233333333","6500300","中和區"
"235048","896-TW","2018/10/11 18:58:03","新北市中和區華新街97號","121.508635","24.9829816666667","6500300","中和區"
"235053","900-TW","2018/10/11 18:58:10","新北市中和區華福街4巷12號","121.465443333333","24.9963966666667","6500300","中和區"
"235060","911-UM","2018/10/11 18:58:04","新北市中和區民治街7巷2號","121.475095","25.0046733333333","6500300","中和區"
"235051","157-BY","2018/10/11 18:57:51","新北市中和區忠孝街106巷43號","121.513718333333","24.98427","6500300","中和區"
"235037","AAC-213","2018/10/11 18:58:04","新北市中和區自立路99巷13號","121.52279","24.9948383333333","6500300","中和區"
"235059","AAC-215","2018/10/11 18:58:11","新北市中和區圓通路367巷8號","121.491578333333","24.989105","6500300","中和區"
"220068","013-TV","2018/10/11 18:58:00","新北市板橋區三民路一段31巷57號","121.480821666667","25.0231233333333","6500100","板橋區"
"220035","015-TV","2018/10/11 18:58:00","新北市板橋區中正路280號","121.455066666667","25.0201933333333","6500100","板橋區"
"220065","072-UY","2018/10/11 18:58:06","新北市板橋區漢生東路342號","121.471801666667","25.007445","6500100","板橋區"
"220086","073-UY","2018/10/11 18:58:10","新北市板橋區中正路80巷5號","121.456973333333","25.0146683333333","6500100","板橋區"
"220106","075-UY","2018/10/11 18:58:04","新北市板橋區文化路二段92-1號","121.469736666667","25.0259416666667","6500100","板橋區"
"220069","AAD-861","2018/10/11 18:58:08","新北市板橋區華興街76號","121.457053333333","25.00512","6500100","板橋區"
"226004","312-R5","2018/10/11 18:57:59","新北市平溪區平溪里平溪街45號","121.738348333333","25.02661","6502400","平溪區"
"228003","097-TW","2018/10/11 18:58:05","新北市貢寮區和美里龍洞街60-2號","121.91486","25.116825","6502600","貢寮區"
"228001","212-TW","2018/10/11 18:57:54","新北市貢寮區仁理村研海街12-1號","121.92383","25.0517066666667","6502600","貢寮區"
"228002","663-BX","2018/10/11 18:57:55","新北市貢寮區福隆里東興街106巷25弄1號","121.946445","25.0183","6502600","貢寮區"
"224010","AGQ-8101","2018/10/11 18:58:01","新北市瑞芳區基山街27號","121.8454","25.1093083333333","6501200","瑞芳區"
"224006","676-BX","2018/10/11 18:58:02","新北市瑞芳區民族街31號","121.806831666667","25.1069583333333","6501200","瑞芳區"
"224002","639-TC","2018/10/11 18:58:13","新北市瑞芳區八分寮路21號","121.79321","25.0849","6501200","瑞芳區"
"224008","285-BY","2018/10/11 18:58:02","新北市瑞芳區逢甲路335號","121.80099","25.1121766666667","6501200","瑞芳區"
"224007","275-VK","2018/10/11 18:58:03","新北市瑞芳區中央路48巷180號","121.758465","25.102755","6501200","瑞芳區"
"224009","273-VK","2018/10/11 18:57:57","新北市瑞芳區長仁路50-2號","121.866283333333","25.1185666666667","6501200","瑞芳區"
"224005","271-BY","2018/10/11 18:58:09","新北市瑞芳區海濱路87-1號","121.830641666667","25.1225716666667","6501200","瑞芳區"
"227004","642-TC","2018/10/11 18:57:54","新北市雙溪區平林里康福家園17號","121.85891","25.03746","6502500","雙溪區"
"227010","400-TW","2018/10/11 18:57:55","新北市雙溪區牡丹里中正路58巷23號","121.86643","25.0415466666667","6502500","雙溪區"
"253006","032-BX","2018/10/11 18:57:57","新北市石門區下員坑30-3號","121.51994","25.282445","6502200","石門區"
"253005","295-VK","2018/10/11 18:57:57","新北市石門區中山路33號","121.567068333333","25.29091","6502200","石門區"
"222001","KEA-2212","2018/10/11 18:58:11","新北市深坑區北深路一段170號","121.634038333333","25.0107233333333","6501800","深坑區"
"208002","KEA-2872","2018/10/11 18:58:05","新北市金山區信義路72號","121.635176666667","25.2195916666667","6502700","金山區"
"208003","665-BX","2018/10/11 18:58:09","新北市金山區中正路26號","121.635811666667","25.2222483333333","6502700","金山區"
"208001","761-BX","2018/10/11 18:57:59","新北市金山區中山路85號","121.640243333333","25.2187716666667","6502700","金山區"
"251009","008-UM","2018/10/11 18:58:07","新北市淡水區重建街125-4號","121.440228333333","25.17305","6501000","淡水區"
"251013","KEA-2871","2018/10/11 18:57:56","新北市淡水區安子內12-1號","121.481508333333","25.219095","6501000","淡水區"
"251016","179-VK","2018/10/11 18:57:56","新北市淡水區淡金路三段331巷3號","121.448555","25.2061866666667","6501000","淡水區"
"251015","180-VK","2018/10/11 18:58:05","新北市淡水區糞箕湖60號","121.485216666667","25.1723066666667","6501000","淡水區"
"251010","413-VK","2018/10/11 18:57:58","新北市淡水區沙崙路25巷18號","121.421068333333","25.18213","6501000","淡水區"
"251007","442-VK","2018/10/11 18:57:53","新北市淡水區民生路113巷1弄32號","121.463365","25.1387083333333","6501000","淡水區"
"251001","559-UM","2018/10/11 18:58:10","新北市淡水區自強路68號","121.46315","25.1277283333333","6501000","淡水區"
"251002","672-BX","2018/10/11 18:57:55","新北市淡水區中正東路71號","121.447395","25.16765","6501000","淡水區"
"251003","766-UM","2018/10/11 18:57:55","新北市淡水區中山北路一段149巷24號","121.442853333333","25.17798","6501000","淡水區"
"207003","550-UM","2018/10/11 18:58:01","新北市萬里區大鵬里頂社55-1號","121.654726666667","25.2115733333333","6502800","萬里區"
"207004","225-TW","2018/10/11 18:58:08","新北市萬里區萬里里獅頭路23號","121.693301666667","25.178255","6502800","萬里區"
"252002","178-VK","2018/10/11 18:57:57","新北市三芝區中正路一段82號","121.504191666667","25.2572816666667","6502100","三芝區"
"252003","249-BX","2018/10/11 18:58:07","新北市三芝區後厝里北勢子45-33號","121.470463333333","25.251275","6502100","三芝區"
"252001","292-VK","2018/10/11 18:57:57","新北市三芝區中興街二段260號","121.501746666667","25.25303","6502100","三芝區"
"237004","KEA-2597","2018/10/11 18:57:57","新北市三峽區有木194-1號","121.447326666667","24.8453566666667","6500900","三峽區"
"237007","153-BY","2018/10/11 18:58:01","新北市三峽區中正路二段346號","121.36583","24.9101583333333","6500900","三峽區"
"237013","252-BX","2018/10/11 18:58:07","新北市三峽區光明路69巷25號","121.376625","24.929245","6500900","三峽區"
"237012","275-BY","2018/10/11 18:58:02","新北市三峽區三樹路222巷236弄8-1號","121.391228333333","24.94269","6500900","三峽區"
"237008","302-VK","2018/10/11 18:58:01","新北市三峽區正義街153號","121.3682","24.9152733333333","6500900","三峽區"
"237014","433-BY","2018/10/11 18:57:56","新北市三峽區隆恩街158巷68號","121.365223333333","24.945195","6500900","三峽區"
"237006","5529-G3","2018/10/11 18:58:07","新北市三峽區溪東路233巷45弄16號","121.40994","24.933935","6500900","三峽區"
"237011","KEA-2596","2018/10/11 18:57:59","新北市三峽區介壽路三段233-5號","121.406583333333","24.9476633333333","6500900","三峽區"
"237016","649-BX","2018/10/11 18:58:07","新北市三峽區建安88-3號","121.455003333333","24.92101","6500900","三峽區"
"237010","706-TV","2018/10/11 18:58:04","新北市三峽區復興路485號","121.361596666667","24.9385033333333","6500900","三峽區"
"237005","AKY-6261","2018/10/11 18:58:12","新北市三峽區中山路459巷163-3號","121.348645","24.9329383333333","6500900","三峽區"
"236070","105-UM","2018/10/11 18:57:54","新北市土城區明德路二段65號","121.451551666667","24.98101","6501300","土城區"
"236042","107-UM","2018/10/11 18:58:11","新北市土城區學府路一段229巷11號","121.451801666667","24.98382","6501300","土城區"
"236078","166-UM","2018/10/11 18:57:58","新北市土城區中央路四段125巷2弄1號","121.416625","24.9572116666667","6501300","土城區"
"236030","253-BX","2018/10/11 18:58:05","新北市土城區慶利街18號","121.439618333333","24.9737066666667","6501300","土城區"
"236026","269-VK","2018/10/11 18:58:11","新北市土城區光明街30號","121.442091666667","24.9737833333333","6501300","土城區"
"236014","270-VK","2018/10/11 18:58:01","新北市土城區永豐路21號","121.462885","24.9881816666667","6501300","土城區"
"236038","271-VK","2018/10/11 18:58:12","新北市土城區明德路一段240巷9號","121.459816666667","24.9780616666667","6501300","土城區"
"236021","401-BY","2018/10/11 18:57:59","新北市土城區金城路三段156號","121.467363333333","24.9870683333333","6501300","土城區"
"236055","752-BX","2018/10/11 18:57:37","新北市土城區裕民路66號","121.449463333333","24.98754","6501300","土城區"
"236059","912-UM","2018/10/11 18:58:04","新北市土城區金城路二段206號","121.455196666667","24.9820016666667","6501300","土城區"
"236049","913-UM","2018/10/11 18:57:54","新北市土城區青雲路316號","121.458946666667","24.9785216666667","6501300","土城區"
"236063","915-UM","2018/10/11 18:57:54","新北市土城區金城路三段149巷7號","121.46815","24.98874","6501300","土城區"
"242046","400-BY","2018/10/11 18:58:08","新北市新莊區富國路66巷5號","121.419805","25.0254066666667","6500500","新莊區"
"242004","349-TH","2018/10/11 18:58:08","新北市新莊區三和路12-21號","121.442121666667","25.03839","6500500","新莊區"
"238023","601-UM","2018/10/11 18:57:58","新北市樹林區大慶街156號","121.39683","25.013105","6500700","樹林區"
"238019","599-UM","2018/10/11 18:58:01","新北市樹林區東榮街143號","121.414521666667","24.9816816666667","6500700","樹林區"
"238024","5061-A6","2018/10/11 18:58:07","新北市樹林區育德街78-1號","121.387436666667","24.9681433333333","6500700","樹林區"
"238022","KEA-2213","2018/10/11 18:58:07","新北市樹林區東興街8-1號","121.409795","24.9788933333333","6500700","樹林區"
"238021","KEA-2539","2018/10/11 18:58:11","新北市樹林區柑園街二段276巷40號","121.371588333333","24.9537966666667","6500700","樹林區"
"238025","303-VK","2018/10/11 18:58:09","新北市樹林區中山路三段22號","121.395548333333","24.9729416666667","6500700","樹林區"
"238017","283-BY","2018/10/11 18:58:08","新北市樹林區中山路三段68號","121.393848333333","24.9723783333333","6500700","樹林區"
"238014","282-BY","2018/10/11 18:58:08","新北市樹林區潭興街22號","121.425141666667","24.9989533333333","6500700","樹林區"
"238026","172-UY","2018/10/11 18:58:02","新北市樹林區中和街12號","121.391481666667","24.9731783333333","6500700","樹林區"
"238016","169-UY","2018/10/11 18:57:55","新北市樹林區文化街28號","121.41924","24.9876816666667","6500700","樹林區"
"239007","AAC-297","2018/10/11 18:57:52","新北市鶯歌區成功街20巷19號","121.359381666667","24.95772","6500800","鶯歌區"
"239008","527-UM","2018/10/11 18:58:11","新北市鶯歌區國際二路70巷33號","121.336561666667","24.9750916666667","6500800","鶯歌區"
"239005","526-UM","2018/10/11 18:57:59","新北市鶯歌區鳳吉二街34號","121.326021666667","24.9733483333333","6500800","鶯歌區"
"239001","417-VK","2018/10/11 18:58:00","新北市鶯歌區永明街55號","121.339828333333","24.95618","6500800","鶯歌區"
"239003","360-BY","2018/10/11 18:58:03","新北市鶯歌區鶯桃路573號","121.329843333333","24.968485","6500800","鶯歌區"
"239004","193-VK","2018/10/11 18:57:56","新北市鶯歌區中正三路194巷30號","121.330943333333","24.9415333333333","6500800","鶯歌區"
"221008","489-VK","2018/10/11 18:57:58","新北市汐止區連峰街3巷1號","121.647525","25.0761633333333","6501100","汐止區"
"221036","130-UY","2018/10/11 18:58:00","新北市汐止區仁愛路1號","121.658528333333","25.0644366666667","6501100","汐止區"
"221015","131-UY","2018/10/11 18:58:06","新北市汐止區鄉長路一段55巷22號","121.664741666667","25.0763416666667","6501100","汐止區"
"221010","269-BY","2018/10/11 18:57:58","新北市汐止區康寧街901號","121.651425","25.075065","6501100","汐止區"
"221012","278-VK","2018/10/11 18:57:55","新北市汐止區康寧街901號","121.650776666667","25.075255","6501100","汐止區"
"221023","279-VK","2018/10/11 18:58:01","新北市汐止區汐萬路一段256巷3號","121.652851666667","25.0744166666667","6501100","汐止區"
"221032","280-BY","2018/10/11 18:57:51","新北市汐止區橫科路322巷24弄6-1號","121.620323333333","25.050245","6501100","汐止區"
"221027","281-BY","2018/10/11 18:58:07","新北市汐止區康寧街901號","121.651448333333","25.0750016666667","6501100","汐止區"
"221029","298-VK","2018/10/11 18:57:58","新北市汐止區樟樹一路230號","121.642231666667","25.0666733333333","6501100","汐止區"
"221021","299-VK","2018/10/11 18:58:07","新北市汐止區康寧街901號","121.65144","25.0750183333333","6501100","汐止區"
"221031","353-TW","2018/10/11 18:58:09","新北市汐止區福德二路156巷27號","121.62994","25.065495","6501100","汐止區"
"221035","622-UM","2018/10/11 18:58:09","新北市汐止區汐萬路一段119號","121.654136666667","25.0710183333333","6501100","汐止區"
"221025","623-UM","2018/10/11 18:58:11","新北市汐止區秀峰路6巷12號","121.658766666667","25.0661716666667","6501100","汐止區"
"221038","646-BX","2018/10/11 18:57:58","新北市汐止區康寧街901號","121.650706666667","25.0752983333333","6501100","汐止區"
"221002","707-TV","2018/10/11 18:57:57","新北市汐止區大同路一段2號","121.620975","25.0550633333333","6501100","汐止區"
"221018","753-BX","2018/10/11 18:57:58","新北市汐止區茄苳路66號","121.666598333333","25.07068","6501100","汐止區"
"220079","145-BY","2018/10/11 18:58:05","新北市板橋區民權路202巷9弄20號","121.459666666667","25.0156533333333","6500100","板橋區"
"220080","200-UY","2018/10/11 18:57:34","新北市板橋區大觀路二段265巷1弄20號","121.443796666667","24.9983916666667","6500100","板橋區"
"220082","610-BX","2018/10/11 18:58:09","新北市板橋區滿平街123號","121.428685","24.9884633333333","6500100","板橋區"
"220101","245-BX","2018/10/11 18:57:56","新北市板橋區文化路二段84號","121.469695","25.0258583333333","6500100","板橋區"
"220091","267-BY","2018/10/11 18:58:10","新北市板橋區萬板路141號","121.473465","25.0234233333333","6500100","板橋區"
"220056","276-BY","2018/10/11 18:58:04","新北市板橋區信義路147號","121.45807","24.992925","6500100","板橋區"
"220072","277-BY","2018/10/11 18:58:00","新北市板橋區篤行路二段31號","121.431756666667","24.992715","6500100","板橋區"
"220094","283-UM","2018/10/11 18:57:50","新北市板橋區莒光路16巷21號","121.469375","25.0237483333333","6500100","板橋區"
"220071","283-VK","2018/10/11 18:57:54","新北市板橋區四川路一段240號","121.459223333333","25.0015983333333","6500100","板橋區"
"220083","286-VK","2018/10/11 18:58:00","新北市板橋區大觀路一段38巷156弄9號","121.442396666667","25.0050483333333","6500100","板橋區"
"220081","287-VK","2018/10/11 18:58:07","新北市板橋區南雅西路二段98-5號","121.452385","25.01149","6500100","板橋區"
"220090","288-VK","2018/10/11 18:57:53","新北市板橋區民生路三段50號","121.467035","25.0250683333333","6500100","板橋區"
"220061","293-UM","2018/10/11 18:57:59","新北市板橋區永豐街119號","121.47445","25.01964","6500100","板橋區"
"220084","296-UM","2018/10/11 18:58:06","新北市板橋區龍興街28號","121.443016666667","25.0003766666667","6500100","板橋區"
"220053","299-UM","2018/10/11 18:58:10","新北市板橋區中山路二段149號","121.475486666667","25.0168283333333","6500100","板橋區"
"220075","303-R5","2018/10/11 18:57:57","新北市板橋區後菜園街34號","121.456726666667","25.010295","6500100","板橋區"
"220062","305-R5","2018/10/11 18:58:06","新北市板橋區民享街85號","121.476906666667","25.0156616666667","6500100","板橋區"
"220092","307-R5","2018/10/11 18:58:01","新北市板橋區介壽街114號","121.469478333333","25.0175233333333","6500100","板橋區"
"220098","317-R6","2018/10/11 18:57:59","新北市板橋區民生路三段46號","121.467206666667","25.0249833333333","6500100","板橋區"
"220064","486-VK","2018/10/11 18:58:04","新北市板橋區漢生東路166號","121.46696","25.01472","6500100","板橋區"
"220089","487-VK","2018/10/11 18:57:57","新北市板橋區文化路二段76號","121.469238333333","25.0250366666667","6500100","板橋區"
"220088","491-VK","2018/10/11 18:57:54","新北市板橋區民生路二段120號","121.470911666667","25.01957","6500100","板橋區"
"220103","561-BX","2018/10/11 18:58:07","新北市板橋區介壽街122號","121.469735","25.0177316666667","6500100","板橋區"
"220063","609-BX","2018/10/11 18:58:03","新北市板橋區中山路二段113-1號","121.474701666667","25.016265","6500100","板橋區"
"220057","686-BX","2018/10/11 18:58:02","新北市板橋區館前東路2-2號","121.459543333333","25.00709","6500100","板橋區"
"220077","687-BX","2018/10/11 18:58:13","新北市板橋區龍興街12號","121.442843333333","24.99973","6500100","板橋區"
"220093","689-BX","2018/10/11 18:57:55","新北市板橋區民生路三段46號","121.467325","25.0250266666667","6500100","板橋區"
"220054","741-BX","2018/10/11 18:58:11","新北市板橋區重慶路141號","121.462353333333","25.00458","6500100","板橋區"
"220102","KEA-2699","2018/10/11 18:57:57","新北市板橋區萬板路476號","121.479915","25.0259933333333","6500100","板橋區"
"220055","827-TW","2018/10/11 18:57:53","新北市板橋區縣民大道一段275號","121.460635","25.00977","6500100","板橋區"
"220067","829-TW","2018/10/11 18:58:04","新北市板橋區三民路二段正隆巷12弄8號","121.478023333333","25.01315","6500100","板橋區"
"220096","831-TW","2018/10/11 18:58:10","新北市板橋區莒光路75號","121.471666666667","25.0242216666667","6500100","板橋區"
"220074","895-R6","2018/10/11 18:58:09","新北市板橋區後菜園街54號","121.456046666667","25.0100683333333","6500100","板橋區"
"220073","985-R7","2018/10/11 18:58:07","新北市板橋區中正路163號","121.456465","25.01613","6500100","板橋區"
"220097","AAC-210","2018/10/11 18:58:05","新北市板橋區縣民大道二段198號","121.469218333333","25.0174266666667","6500100","板橋區"
"220070","AAC-253","2018/10/11 18:57:59","新北市板橋區四川路一段206號","121.45949","25.0021583333333","6500100","板橋區"
"235068","KEA-2873","2018/10/11 18:58:05","新北市中和區中正路211巷33號","121.498051666667","24.9926933333333","6500300","中和區"
"235061","KEA-2875","2018/10/11 18:58:04","新北市中和區民享街6-2號","121.474001666667","25.0047633333333","6500300","中和區"
