"lineid","car","time","location","longitude","latitude","cityid","cityname"
"234046","148-BY","2018/10/11 19:08:01","新北市永和區永元路18巷9號","121.523166666667","25.0002883333333","6500400","永和區"
"234007","207-UY","2018/10/11 19:08:12","新北市永和區中山路一段153號","121.509891666667","25.0094233333333","6500400","永和區"
"234081","298-R6","2018/10/11 19:08:03","新北市永和區福和路158號","121.521566666667","25.0079866666667","6500400","永和區"
"234038","336-UY","2018/10/11 19:08:08","新北市永和區民樂街90巷2號","121.527336666667","24.9975166666667","6500400","永和區"
"234064","337-UY","2018/10/11 19:08:11","新北市永和區秀朗路二段1號","121.520658333333","25.0030116666667","6500400","永和區"
"234086","338-UY","2018/10/11 19:07:59","新北市永和區永利路18號","121.518045","25.0057983333333","6500400","永和區"
"234070","552-UM","2018/10/11 19:08:14","新北市永和區豫溪街137巷1弄18號","121.518703333333","25.010555","6500400","永和區"
"234017","745-BX","2018/10/11 19:07:57","新北市永和區忠孝街27號","121.513895","25.0155416666667","6500400","永和區"
"234030","746-BX","2018/10/11 19:08:04","新北市永和區四維街64號","121.52424","24.998225","6500400","永和區"
"234054","KEA-2590","2018/10/11 19:08:00","新北市永和區中興街133巷12號","121.518395","25.012725","6500400","永和區"
"234013","KEA-2591","2018/10/11 19:08:07","新北市永和區保福路二段6號","121.510998333333","25.0110716666667","6500400","永和區"
"234061","AAD-866","2018/10/11 19:08:01","新北市永和區安樂路304巷18號","121.514768333333","25.005375","6500400","永和區"
"234042","862-TW","2018/10/11 19:08:10","新北市永和區永和路一段49巷3弄65號","121.511991666667","25.0062183333333","6500400","永和區"
"234050","863-TW","2018/10/11 19:08:12","新北市永和區保福路二段150巷18號","121.510371666667","25.0149983333333","6500400","永和區"
"234011","9372-KE","2018/10/11 19:08:03","新北市永和區保福路二段44巷2弄10號","121.51164","25.01188","6500400","永和區"
"234026","9371-KE","2018/10/11 19:07:55","新北市永和區安樂路272巷9弄7號","121.515123333333","25.0046016666667","6500400","永和區"
"249005","172-UM","2018/10/11 19:07:51","新北市八里區中華路三段89-3號","121.393555","25.1394216666667","6502300","八里區"
"249001","173-UM","2018/10/11 19:07:59","新北市八里區龍米路二段228-1號","121.432758333333","25.1584516666667","6502300","八里區"
"248016","026-BX","2018/10/11 19:07:55","新北市五股區成泰路三段543巷32號","121.45066","25.1026783333333","6501500","五股區"
"248006","077-UY","2018/10/11 19:08:08","新北市五股區四維路112號","121.467651666667","25.0738166666667","6501500","五股區"
"248008","095-VK","2018/10/11 19:07:59","新北市五股區中興路二段9巷28號","121.463238333333","25.0726483333333","6501500","五股區"
"248020","225-UY","2018/10/11 19:08:07","新北市五股區凌雲路三段57號","121.425293333333","25.1250333333333","6501500","五股區"
"248012","247-BX","2018/10/11 19:08:12","新北市五股區中興路四段48巷16號","121.438641666667","25.0834933333333","6501500","五股區"
"248004","677-BX","2018/10/11 19:08:03","新北市五股區五福路8號","121.434356666667","25.08848","6501500","五股區"
"248002","678-BX","2018/10/11 19:08:10","新北市五股區凌雲路一段163號","121.448805","25.1026116666667","6501500","五股區"
"248010","682-TV","2018/10/11 19:08:03","新北市五股區水碓一路23號","121.430613333333","25.0713","6501500","五股區"
"234023","9380-KE","2018/10/11 19:08:12","新北市永和區中興街10巷7號","121.51546","25.0113033333333","6500400","永和區"
"234077","969-R7","2018/10/11 19:08:10","新北市永和區民權路44號","121.520175","24.9986433333333","6500400","永和區"
"234074","AAC-211","2018/10/11 19:08:05","新北市永和區福和路74號","121.523","25.008025","6500400","永和區"
"234067","AAC-212","2018/10/11 19:08:08","新北市永和區保平路28號","121.512168333333","25.0074333333333","6500400","永和區"
"234003","AAC-295","2018/10/11 19:08:07","新北市永和區中山路一段87號","121.511925","25.0106366666667","6500400","永和區"
"244023","069-UM","2018/10/11 19:08:02","新北市林口區文林六街13巷24號","121.370111666667","25.08087","6501700","林口區"
"244019","403-UM","2018/10/11 19:08:04","新北市林口區文化二路一段490-6號","121.375975","25.0782416666667","6501700","林口區"
"244013","KEA-2802","2018/10/11 19:07:51","新北市林口區麗園一街5號","121.37625","25.0721533333333","6501700","林口區"
"244017","485-VK","2018/10/11 19:08:08","新北市林口區公園路127號","121.369195","25.0701816666667","6501700","林口區"
"244011","701-TV","2018/10/11 19:07:54","新北市林口區竹林路55號","121.387455","25.078145","6501700","林口區"
"244025","837-TS","2018/10/11 19:08:07","新北市林口區民族路82巷20號","121.366525","25.07499","6501700","林口區"
"243013","AAD-798","2018/10/11 19:07:54","新北市泰山區明志路三段277號","121.423113333333","25.0368233333333","6501600","泰山區"
"243009","297-R6","2018/10/11 19:07:53","新北市泰山區明志路一段120號","121.433206666667","25.0636366666667","6501600","泰山區"
"243016","KEA-2801","2018/10/11 19:07:55","新北市泰山區新民路14巷2弄2-1號","121.426066666667","25.04501","6501600","泰山區"
"243015","421-VK","2018/10/11 19:08:05","新北市泰山區明志路一段431號","121.43074","25.05646","6501600","泰山區"
"243011","KEA-2215","2018/10/11 19:07:57","新北市泰山區明志路二段318號","121.426085","25.0460783333333","6501600","泰山區"
"243010","KEA-2216","2018/10/11 19:08:03","新北市泰山區仁愛路39巷23號","121.431051666667","25.0553016666667","6501600","泰山區"
"243012","646-TV","2018/10/11 19:08:07","新北市泰山區辭修路36巷8弄5號","121.42789","25.058585","6501600","泰山區"
"243014","680-BX","2018/10/11 19:08:05","新北市泰山區泰林路二段416號","121.427266666667","25.0643333333333","6501600","泰山區"
"222003","436-BY","2018/10/11 19:08:11","新北市深坑區深南路138號","121.623113333333","25.0143916666667","6501800","深坑區"
"222002","659-BX","2018/10/11 19:07:58","新北市深坑區紅葉街14巷3號","121.632881666667","25.012095","6501800","深坑區"
"231059","001-UM","2018/10/11 19:07:57","新北市新店區安康路一段355號","121.519896666667","24.9637666666667","6500600","新店區"
"231041","002-UM","2018/10/11 19:07:58","新北市新店區溪園路397號","121.523605","24.97771","6500600","新店區"
"231040","047-UY","2018/10/11 19:08:09","新北市新店區三民路100號","121.533975","24.973755","6500600","新店區"
"231044","106-UY","2018/10/11 19:08:03","新北市新店區中興路三段160號","121.544345","24.980485","6500600","新店區"
"231046","107-UY","2018/10/11 19:08:11","新北市新店區新潭路一段12號","121.523095","24.9433633333333","6500600","新店區"
"231047","187-VK","2018/10/11 19:08:09","新北市新店區德正街27巷29弄85號","121.545721666667","24.9724516666667","6500600","新店區"
"231062","188-VK","2018/10/11 19:08:10","新北市新店區安和路二段71號","121.5184","24.96866","6500600","新店區"
"231052","189-VK","2018/10/11 19:08:05","新北市新店區屈尺路87巷2號","121.545558333333","24.9227733333333","6500600","新店區"
"231054","KEA-2219","2018/10/11 19:08:12","新北市新店區新店路101號","121.537185","24.9540116666667","6500600","新店區"
"231042","268-BY","2018/10/11 19:08:11","新北市新店區中興路一段203號","121.54363","24.9656216666667","6500600","新店區"
"231051","278-BY","2018/10/11 19:08:06","新北市新店區中正路382巷25號","121.535565","24.9782116666667","6500600","新店區"
"231050","AAD-862","2018/10/11 19:08:04","新北市新店區竹林路2巷27弄2號","121.550051666667","24.9506683333333","6500600","新店區"
"231061","355-BY","2018/10/11 19:08:13","新北市新店區安康路一段351-1號","121.519571666667","24.9639083333333","6500600","新店區"
"231058","3713-VJ","2018/10/11 19:08:01","新北市新店區光明街168巷5弄1號","121.540376666667","24.96179","6500600","新店區"
"231066","4716-K9","2018/10/11 19:07:57","新北市新店區安祥路30號","121.493195","24.9560683333333","6500600","新店區"
"231056","4715-K9","2018/10/11 19:08:00","新北市新店區民權路107-4號","121.536273333333","24.9821583333333","6500600","新店區"
"231067","4772-VM","2018/10/11 19:08:09","新北市新店區安康路一段281巷11號","121.523663333333","24.9629933333333","6500600","新店區"
"231065","512-UM","2018/10/11 19:08:10","新北市新店區安祥路109巷6弄55號","121.475675","24.9570233333333","6500600","新店區"
"231049","513-UM","2018/10/11 19:08:03","新北市新店區二十張路24號","121.538443333333","24.9818533333333","6500600","新店區"
"231063","616-UM","2018/10/11 19:08:09","新北市新店區車子路121號","121.505285","24.9508183333333","6500600","新店區"
"231045","617-UM","2018/10/11 19:08:11","新北市新店區北宜路一段140巷1號","121.539816666667","24.9547166666667","6500600","新店區"
"231064","719-UM","2018/10/11 19:08:14","新北市新店區安康路二段85巷44號","121.514193333333","24.96116","6500600","新店區"
"231060","897-TW","2018/10/11 19:07:52","新北市新店區安康路二段338號","121.503431666667","24.9576983333333","6500600","新店區"
"231043","899-TW","2018/10/11 19:08:01","新北市新店區寶橋路56號","121.54604","24.975425","6500600","新店區"
"241026","066-VK","2018/10/11 19:07:54","新北市三重區泉州街63-2號","121.49465","25.0544883333333","6500200","三重區"
"251014","742-BX","2018/10/11 19:08:09","新北市淡水區小中寮39號","121.487176666667","25.227345","6501000","淡水區"
"241035","KEA-2210","2018/10/11 19:07:59","新北市三重區大智街12號","121.495346666667","25.0644966666667","6500200","三重區"
"241029","942-UM","2018/10/11 19:08:10","新北市三重區集美街222號","121.491906666667","25.0554016666667","6500200","三重區"
"235066","003-UY","2018/10/11 19:07:57","新北市中和區廣福路2號","121.506056666667","25.0031666666667","6500300","中和區"
"235064","005-UY","2018/10/11 19:08:02","新北市中和區泰和街38巷35號","121.498438333333","25.0012466666667","6500300","中和區"
"235063","006-UY","2018/10/11 19:08:03","新北市中和區中正路552號","121.486965","24.99455","6500300","中和區"
"235056","096-UM","2018/10/11 19:08:10","新北市板橋區三民路二段206號","121.478871666667","25.0121066666667","6500300","中和區"
"235039","097-UM","2018/10/11 19:08:07","新北市中和區景平路64巷14弄15號","121.522866666667","24.99136","6500300","中和區"
"235065","098-UM","2018/10/11 19:08:08","新北市中和區中山路二段136巷70號","121.500538333333","25.0045416666667","6500300","中和區"
"235040","150-BY","2018/10/11 19:08:08","新北市中和區宜安路20號","121.513226666667","24.9958083333333","6500300","中和區"
"235058","151-BY","2018/10/11 19:08:00","新北市中和區員山路143巷14號","121.480358333333","24.9961833333333","6500300","中和區"
"235055","183-VK","2018/10/11 19:07:53","新北市中和區德光路16號","121.471246666667","25.0045416666667","6500300","中和區"
"235038","185-VK","2018/10/11 19:08:10","新北市中和區大仁街20巷25弄19號","121.518498333333","24.9936133333333","6500300","中和區"
"235049","186-VK","2018/10/11 19:08:06","新北市中和區明禮街8號","121.505103333333","24.9958166666667","6500300","中和區"
"235067","255-BX","2018/10/11 19:08:07","新北市中和區新生街166巷19號","121.482721666667","25.0001966666667","6500300","中和區"
"235044","293-VK","2018/10/11 19:08:01","新北市中和區中興街202巷2號","121.499443333333","24.990075","6500300","中和區"
"235072","301-VK","2018/10/11 19:07:55","新北市中和區中山路二段136號","121.50212","25.0031466666667","6500300","中和區"
"235043","352-BY","2018/10/11 19:07:58","新北市中和區景平路100-3號","121.520061666667","24.9914966666667","6500300","中和區"
"235042","KEA-2878","2018/10/11 19:08:01","新北市中和區自立路20巷10號","121.521668333333","24.9935133333333","6500300","中和區"
"235050","4979-A6","2018/10/11 19:07:55","新北市中和區復興路249巷11弄3號","121.503555","24.9896966666667","6500300","中和區"
"235069","4980-A6","2018/10/11 19:08:09","新北市中和區圓通路109巷11號","121.500085","24.996285","6500300","中和區"
"235070","558-UM","2018/10/11 19:08:09","新北市中和區中和路51號","121.50048","25.001175","6500300","中和區"
"235045","565-BX","2018/10/11 19:07:50","新北市中和區景新街467巷15弄12號","121.513851666667","24.9888466666667","6500300","中和區"
"235054","640-BX","2018/10/11 19:08:10","新北市中和區國光街114號","121.469846666667","25.000715","6500300","中和區"
"235047","732-UM","2018/10/11 19:08:06","新北市中和區興南路二段97號","121.506098333333","24.984735","6500300","中和區"
"235046","733-UM","2018/10/11 19:08:08","新北市中和區興南路二段31巷8號","121.507881666667","24.9855233333333","6500300","中和區"
"235071","783-BX","2018/10/11 19:07:53","新北市中和區連城路469巷2號","121.483515","24.9956783333333","6500300","中和區"
"235062","800-TS","2018/10/11 19:08:03","新北市中和區中山路二段436號","121.489331666667","25.0041616666667","6500300","中和區"
"235057","801-TS","2018/10/11 19:08:03","新北市中和區民利街58巷5弄13號","121.478018333333","24.9992033333333","6500300","中和區"
"235041","802-TS","2018/10/11 19:08:10","新北市中和區中和路228號","121.506528333333","24.9994416666667","6500300","中和區"
"235052","805-TS","2018/10/11 19:07:54","新北市中和區興南路二段128巷7弄6號","121.50314","24.983965","6500300","中和區"
"235048","896-TW","2018/10/11 19:08:03","新北市中和區華新街113巷4弄14號","121.507395","24.9810633333333","6500300","中和區"
"235053","900-TW","2018/10/11 19:08:10","新北市中和區和平路250號","121.46465","24.9970633333333","6500300","中和區"
"235060","911-UM","2018/10/11 19:08:04","新北市中和區中山路三段145號","121.473831666667","25.006145","6500300","中和區"
"235051","157-BY","2018/10/11 19:07:51","新北市中和區忠孝街11巷8號","121.51008","24.9832266666667","6500300","中和區"
"235037","AAC-213","2018/10/11 19:08:04","新北市中和區秀朗路三段128巷33弄2號","121.524721666667","24.9945716666667","6500300","中和區"
"235059","AAC-215","2018/10/11 19:07:51","新北市中和區圓通路294巷13號","121.488883333333","24.9899933333333","6500300","中和區"
"220068","013-TV","2018/10/11 19:08:00","新北市板橋區中山路二段443巷2號","121.48102","25.02055","6500100","板橋區"
"220035","015-TV","2018/10/11 19:08:00","新北市板橋區中正路381號","121.454123333333","25.0215116666667","6500100","板橋區"
"220065","072-UY","2018/10/11 19:08:06","新北市板橋區民族路219巷50號","121.469301666667","25.0087416666667","6500100","板橋區"
"220086","073-UY","2018/10/11 19:08:10","新北市板橋區中正路250巷87號","121.459198333333","25.01996","6500100","板橋區"
"220106","075-UY","2018/10/11 19:08:04","新北市板橋區文化路二段107號","121.469671666667","25.0260216666667","6500100","板橋區"
"220069","AAD-861","2018/10/11 19:08:08","新北市板橋區四川路一段104號","121.459496666667","25.0046183333333","6500100","板橋區"
"226004","312-R5","2018/10/11 19:07:59","新北市平溪區嶺腳里嶺腳寮1號","121.746491666667","25.0289216666667","6502400","平溪區"
"228003","097-TW","2018/10/11 19:08:05","新北市貢寮區和美里和美街49號","121.919866666667","25.1048983333333","6502600","貢寮區"
"228001","212-TW","2018/10/11 19:07:54","新北市貢寮區真理里新港街10號","121.92548","25.0543766666667","6502600","貢寮區"
"228002","663-BX","2018/10/11 19:07:35","新北市貢寮區龍門里復興街8-2號","121.926925","25.02717","6502600","貢寮區"
"224010","AGQ-8101","2018/10/11 19:08:01","新北市瑞芳區汽車路9-7號","121.845166666667","25.1098533333333","6501200","瑞芳區"
"224006","676-BX","2018/10/11 19:08:00","新北市瑞芳區中山路46號","121.803346666667","25.1063366666667","6501200","瑞芳區"
"224002","639-TC","2018/10/11 19:07:53","新北市平溪區新寮里五分寮10-2號","121.799878333333","25.0739933333333","6501200","瑞芳區"
"224008","285-BY","2018/10/11 19:08:02","新北市瑞芳區逢甲路402號","121.796553333333","25.1125833333333","6501200","瑞芳區"
"224007","275-VK","2018/10/11 19:08:03","新北市瑞芳區瑞竹路46號","121.763465","25.103375","6501200","瑞芳區"
"224009","273-VK","2018/10/11 19:08:07","新北市瑞芳區洞頂路101號","121.861426666667","25.1189716666667","6501200","瑞芳區"
"227004","642-TC","2018/10/11 19:07:54","新北市雙溪區平林里外平林9-4號","121.859183333333","25.03801","6502500","雙溪區"
"227010","400-TW","2018/10/11 19:07:55","新北市雙溪區牡丹里中正路25號","121.864445","25.0378033333333","6502500","雙溪區"
"253006","032-BX","2018/10/11 19:07:57","新北市石門區崁子腳58-1號","121.52842","25.2855116666667","6502200","石門區"
"253005","295-VK","2018/10/11 19:07:57","新北市石門區阿里磅1號","121.591416666667","25.2909266666667","6502200","石門區"
"222001","KEA-2212","2018/10/11 19:08:11","新北市深坑區北深路一段300號","121.624238333333","25.0056466666667","6501800","深坑區"
"208002","KEA-2872","2018/10/11 19:08:05","新北市金山區仁愛路67巷26號","121.634211666667","25.2209583333333","6502700","金山區"
"208003","665-BX","2018/10/11 19:07:51","新北市金山區中正路120號","121.6325","25.2216216666667","6502700","金山區"
"208001","761-BX","2018/10/11 19:07:58","新北市金山區金包里街68號","121.639088333333","25.2215333333333","6502700","金山區"
"251009","008-UM","2018/10/11 19:08:07","新北市淡水區重建街36號","121.439948333333","25.17125","6501000","淡水區"
"251005","010-UM","2018/10/11 19:08:01","新北市淡水區中山路132號","121.441593333333","25.17107","6501000","淡水區"
"251013","KEA-2871","2018/10/11 19:07:56","新北市淡水區安子內12-1號","121.481513333333","25.2190933333333","6501000","淡水區"
"251016","179-VK","2018/10/11 19:07:56","新北市淡水區淡金路三段196號","121.448915","25.2035533333333","6501000","淡水區"
"251015","180-VK","2018/10/11 19:08:04","新北市淡水區南勢埔31號","121.483908333333","25.179405","6501000","淡水區"
"251010","413-VK","2018/10/11 19:07:58","新北市淡水區中正路一段156巷3號","121.421123333333","25.180345","6501000","淡水區"
"251007","442-VK","2018/10/11 19:07:53","新北市淡水區民生路137號","121.465618333333","25.1388033333333","6501000","淡水區"
"251001","559-UM","2018/10/11 19:07:56","新北市淡水區民權路92巷35-1號","121.46252","25.1262366666667","6501000","淡水區"
"251006","561-UM","2018/10/11 19:07:57","新北市淡水區中山北路三段165-1號","121.445276666667","25.1967466666667","6501000","淡水區"
"251002","672-BX","2018/10/11 19:07:55","新北市淡水區中山路77號","121.442735","25.1704333333333","6501000","淡水區"
"251003","766-UM","2018/10/11 19:07:55","新北市淡水區大義街3號","121.443796666667","25.1779816666667","6501000","淡水區"
"207003","550-UM","2018/10/11 19:08:01","新北市萬里區大鵬里萬里加投35-1號","121.646166666667","25.2110233333333","6502800","萬里區"
"207004","225-TW","2018/10/11 19:08:08","新北市萬里區萬里里瑪鋉下街33號","121.691383333333","25.17909","6502800","萬里區"
"252002","178-VK","2018/10/11 19:07:57","新北市三芝區智成街98號","121.50542","25.2555116666667","6502100","三芝區"
"252003","249-BX","2018/10/11 19:08:07","新北市三芝區錫板里海尾14-33號","121.478198333333","25.2599766666667","6502100","三芝區"
"252001","292-VK","2018/10/11 19:07:57","新北市三芝區長勤街82號","121.50016","25.2551366666667","6502100","三芝區"
"237004","KEA-2597","2018/10/11 19:07:57","新北市三峽區有木201號","121.441733333333","24.8504316666667","6500900","三峽區"
"237007","153-BY","2018/10/11 19:08:01","新北市三峽區中園街156-7號","121.36643","24.919465","6500900","三峽區"
"237013","252-BX","2018/10/11 19:08:07","新北市三峽區光明路69巷25號","121.37665","24.92919","6500900","三峽區"
"237012","275-BY","2018/10/11 19:08:02","新北市三峽區三樹路222巷236弄23號","121.39142","24.943065","6500900","三峽區"
"237008","302-VK","2018/10/11 19:08:01","新北市三峽區中正路一段207號","121.372233333333","24.9275","6500900","三峽區"
"237014","433-BY","2018/10/11 19:07:56","新北市三峽區隆恩街246號","121.35755","24.9410033333333","6500900","三峽區"
"237006","5529-G3","2018/10/11 19:08:07","新北市三峽區溪東路205巷2號","121.40466","24.933635","6500900","三峽區"
"237011","KEA-2596","2018/10/11 19:07:59","新北市三峽區介壽路三段131-1號","121.39926","24.9422316666667","6500900","三峽區"
"237016","649-BX","2018/10/11 19:08:07","新北市三峽區建安67-6號","121.447543333333","24.9267716666667","6500900","三峽區"
"237010","706-TV","2018/10/11 19:08:04","新北市三峽區復興路311-2號","121.365236666667","24.938835","6500900","三峽區"
"237005","AKY-6261","2018/10/11 19:07:52","新北市三峽區中山路459巷163-3號","121.348661666667","24.9329316666667","6500900","三峽區"
"236070","105-UM","2018/10/11 19:07:54","新北市土城區裕生路84巷2號","121.44731","24.9854016666667","6501300","土城區"
"236078","166-UM","2018/10/11 19:07:58","新北市土城區龍泉路13-1號","121.410815","24.9479666666667","6501300","土城區"
"236030","253-BX","2018/10/11 19:08:05","新北市土城區城林路6巷80號","121.43843","24.9796966666667","6501300","土城區"
"236026","269-VK","2018/10/11 19:08:04","新北市土城區中正路74巷3弄2號","121.444886666667","24.97466","6501300","土城區"
"236014","270-VK","2018/10/11 19:08:01","新北市土城區學府路一段37巷8號","121.457853333333","24.9880216666667","6501300","土城區"
"236038","271-VK","2018/10/11 19:08:12","新北市土城區清水路141巷7號","121.458261666667","24.9818916666667","6501300","土城區"
"236021","401-BY","2018/10/11 19:07:59","新北市土城區延吉街217巷13號","121.469058333333","24.9843183333333","6501300","土城區"
"236055","752-BX","2018/10/11 19:07:57","新北市土城區學成路10號","121.453435","24.9866483333333","6501300","土城區"
"236059","912-UM","2018/10/11 19:08:00","新北市土城區金城路二段48號","121.451156666667","24.9789633333333","6501300","土城區"
"236049","913-UM","2018/10/11 19:07:54","新北市土城區明德路一段365-1號","121.453638333333","24.9790633333333","6501300","土城區"
"236063","915-UM","2018/10/11 19:07:54","新北市土城區延和路88巷6號","121.46663","24.9891733333333","6501300","土城區"
"242046","400-BY","2018/10/11 19:08:08","新北市新莊區富國路66巷5號","121.419841666667","25.0254083333333","6500500","新莊區"
"242013","173-VK","2018/10/11 19:07:50","新北市新莊區三和路12-21號","121.44207","25.03865","6500500","新莊區"
"242004","349-TH","2018/10/11 19:08:08","新北市新莊區三和路12-21號","121.44224","25.0383616666667","6500500","新莊區"
"238023","601-UM","2018/10/11 19:07:58","新北市樹林區大慶街19號","121.397091666667","25.0144266666667","6500700","樹林區"
"238019","599-UM","2018/10/11 19:07:54","新北市樹林區東榮街91巷4弄2號","121.416223333333","24.9820016666667","6500700","樹林區"
"238022","KEA-2213","2018/10/11 19:08:07","新北市樹林區中山路二段151巷8弄41號","121.4059","24.9775033333333","6500700","樹林區"
"238021","KEA-2539","2018/10/11 19:07:51","新北市樹林區柑園街二段370號","121.370243333333","24.9503866666667","6500700","樹林區"
"238025","303-VK","2018/10/11 19:08:09","新北市樹林區民和街50號","121.38426","24.96935","6500700","樹林區"
"238017","283-BY","2018/10/11 19:08:07","新北市樹林區保安街一段339號","121.41731","24.998745","6500700","樹林區"
"238014","282-BY","2018/10/11 19:08:08","新北市樹林區千歲街92巷1號","121.426826666667","24.9977333333333","6500700","樹林區"
"238026","172-UY","2018/10/11 19:08:02","新北市樹林區中山路三段160-1號","121.389518333333","24.9705333333333","6500700","樹林區"
"238016","169-UY","2018/10/11 19:07:55","新北市樹林區文化街30號","121.419046666667","24.98798","6500700","樹林區"
"239007","AAC-297","2018/10/11 19:07:52","新北市鶯歌區中正一路225號","121.35409","24.957515","6500800","鶯歌區"
"239008","527-UM","2018/10/11 19:07:53","新北市鶯歌區國際二路16巷1號","121.337411666667","24.97473","6500800","鶯歌區"
"239005","526-UM","2018/10/11 19:07:59","新北市鶯歌區鳳吉一街210-1號","121.33016","24.97631","6500800","鶯歌區"
"239001","417-VK","2018/10/11 19:08:00","新北市鶯歌區永安街74號","121.33839","24.9561283333333","6500800","鶯歌區"
"239003","360-BY","2018/10/11 19:08:03","新北市鶯歌區德昌街11號","121.333535","24.9602183333333","6500800","鶯歌區"
"239004","193-VK","2018/10/11 19:07:56","新北市鶯歌區中正三路230巷12號","121.330058333333","24.93918","6500800","鶯歌區"
"221008","489-VK","2018/10/11 19:07:58","新北市汐止區康寧街476號","121.632145","25.0682783333333","6501100","汐止區"
"221036","130-UY","2018/10/11 19:08:00","新北市汐止區康寧街901號","121.651325","25.0750566666667","6501100","汐止區"
"221015","131-UY","2018/10/11 19:08:06","新北市汐止區大同路二段701號","121.66512","25.0727116666667","6501100","汐止區"
"221010","269-BY","2018/10/11 19:07:58","新北市汐止區康寧街901號","121.651328333333","25.0750266666667","6501100","汐止區"
"221012","278-VK","2018/10/11 19:07:55","新北市汐止區康寧街901號","121.650825","25.07528","6501100","汐止區"
"221023","279-VK","2018/10/11 19:08:01","新北市汐止區康寧街901號","121.650993333333","25.075225","6501100","汐止區"
"221032","280-BY","2018/10/11 19:08:11","新北市汐止區橫科路407巷30弄28-5號","121.627398333333","25.0484566666667","6501100","汐止區"
"221027","281-BY","2018/10/11 19:08:07","新北市汐止區康寧街901號","121.651405","25.0749833333333","6501100","汐止區"
"221029","298-VK","2018/10/11 19:07:58","新北市汐止區連峰街1巷1號","121.646828333333","25.0761","6501100","汐止區"
"221021","299-VK","2018/10/11 19:08:07","新北市汐止區康寧街901號","121.651421666667","25.074965","6501100","汐止區"
"221031","353-TW","2018/10/11 19:08:10","新北市汐止區福德三路129巷2號","121.633413333333","25.0675683333333","6501100","汐止區"
"221035","622-UM","2018/10/11 19:07:55","新北市汐止區汐萬路一段256巷3號","121.652441666667","25.074615","6501100","汐止區"
"221025","623-UM","2018/10/11 19:08:11","新北市汐止區汐萬路一段256巷3號","121.653313333333","25.074635","6501100","汐止區"
"221038","646-BX","2018/10/11 19:07:58","新北市汐止區汐萬路一段312號","121.650655","25.07526","6501100","汐止區"
"221002","707-TV","2018/10/11 19:07:57","新北市汐止區大同路一段255號","121.635876666667","25.0581833333333","6501100","汐止區"
"220079","145-BY","2018/10/11 19:08:07","新北市板橋區民權路260巷34號","121.459015","25.0152633333333","6500100","板橋區"
"220080","200-UY","2018/10/11 19:07:14","新北市板橋區大觀路二段3巷22號","121.447905","25.0036233333333","6500100","板橋區"
"220082","610-BX","2018/10/11 19:08:05","新北市板橋區溪崑二街63號","121.42803","24.990335","6500100","板橋區"
"220101","245-BX","2018/10/11 19:07:56","新北市板橋區萬板路53巷2號","121.471416666667","25.0216216666667","6500100","板橋區"
"220091","267-BY","2018/10/11 19:08:10","新北市板橋區萬板路558-1號","121.480758333333","25.02653","6500100","板橋區"
"220056","276-BY","2018/10/11 19:08:10","新北市板橋區信義路74巷2弄1號","121.457053333333","24.9931183333333","6500100","板橋區"
"220072","277-BY","2018/10/11 19:08:00","新北市板橋區溪城路89號","121.427021666667","24.98326","6500100","板橋區"
"220094","283-UM","2018/10/11 19:08:10","新北市板橋區光武街123巷1號","121.466186666667","25.0283133333333","6500100","板橋區"
"220071","283-VK","2018/10/11 19:07:54","新北市板橋區重慶路196號","121.462575","25.0029166666667","6500100","板橋區"
"220083","286-VK","2018/10/11 19:08:09","新北市板橋區大觀路二段174巷176弄9號","121.442623333333","25.00339","6500100","板橋區"
"220081","287-VK","2018/10/11 19:08:08","新北市板橋區南雅西路二段110巷35號","121.452955","25.0128016666667","6500100","板橋區"
"220090","288-VK","2018/10/11 19:07:58","新北市板橋區四維路269巷16號","121.462351666667","25.02824","6500100","板橋區"
"220061","293-UM","2018/10/11 19:07:59","新北市板橋區中山路二段295巷17號","121.477853333333","25.0187416666667","6500100","板橋區"
"220084","296-UM","2018/10/11 19:08:06","新北市板橋區篤行路二段128-2號","121.430965","24.9906433333333","6500100","板橋區"
"220053","299-UM","2018/10/11 19:08:10","新北市板橋區永豐街46號","121.474441666667","25.019545","6500100","板橋區"
"220075","303-R5","2018/10/11 19:08:05","新北市板橋區南雅南路一段5巷5號","121.456043333333","25.0055466666667","6500100","板橋區"
"220062","305-R5","2018/10/11 19:08:06","新北市板橋區三民路二段居仁巷1弄25號","121.47998","25.013625","6500100","板橋區"
"220092","307-R5","2018/10/11 19:08:08","新北市板橋區文化路一段136巷8弄2-3號","121.465435","25.01839","6500100","板橋區"
"220098","317-R6","2018/10/11 19:07:59","新北市板橋區四維路103巷9號","121.465041666667","25.024275","6500100","板橋區"
"220064","486-VK","2018/10/11 19:08:04","新北市板橋區民生路一段33號","121.476105","25.0118716666667","6500100","板橋區"
"220089","487-VK","2018/10/11 19:07:56","新北市板橋區文化路二段453號","121.475521666667","25.03353","6500100","板橋區"
"220088","491-VK","2018/10/11 19:07:54","新北市板橋區文化路二段173號","121.470571666667","25.02766","6500100","板橋區"
"220103","561-BX","2018/10/11 19:08:07","新北市板橋區文化路一段188巷9弄126號","121.469121666667","25.0191283333333","6500100","板橋區"
"220063","609-BX","2018/10/11 19:08:10","新北市板橋區三民路二段117號","121.479191666667","25.015765","6500100","板橋區"
"220057","686-BX","2018/10/11 19:08:02","新北市板橋區重慶路89巷2-1號","121.46206","25.0061016666667","6500100","板橋區"
"220077","687-BX","2018/10/11 19:08:13","新北市板橋區大觀路二段155號","121.445493333333","25.0007633333333","6500100","板橋區"
"220093","689-BX","2018/10/11 19:08:06","新北市板橋區民生路三段251號","121.464581666667","25.0291583333333","6500100","板橋區"
"220054","741-BX","2018/10/11 19:07:51","新北市板橋區重慶路89巷15號","121.462641666667","25.006515","6500100","板橋區"
"220102","KEA-2699","2018/10/11 19:08:06","新北市板橋區萬板路818巷9號","121.483008333333","25.02668","6500100","板橋區"
"220055","827-TW","2018/10/11 19:07:53","新北市板橋區中山路一段156號","121.465198333333","25.0116733333333","6500100","板橋區"
"220067","829-TW","2018/10/11 19:08:05","新北市板橋區中山路二段90巷43弄20號","121.477031666667","25.0152216666667","6500100","板橋區"
"220096","831-TW","2018/10/11 19:08:10","新北市板橋區雙十路二段39-1號","121.476706666667","25.0260666666667","6500100","板橋區"
"220074","895-R6","2018/10/11 19:08:09","新北市板橋區中正路自強新村45-1號","121.454781666667","25.0138783333333","6500100","板橋區"
"220073","985-R7","2018/10/11 19:08:10","新北市板橋區中正路203號","121.456221666667","25.0174183333333","6500100","板橋區"
"220097","AAC-210","2018/10/11 19:08:11","新北市板橋區中正路216巷150弄7號","121.46092","25.0192383333333","6500100","板橋區"
"220070","AAC-253","2018/10/11 19:07:59","新北市板橋區四川路一段353號","121.458321666667","24.9998633333333","6500100","板橋區"
"235068","KEA-2873","2018/10/11 19:08:05","新北市中和區圓通路267號","121.495895","24.9932433333333","6500300","中和區"
"235061","KEA-2875","2018/10/11 19:08:04","新北市中和區中山路三段89號","121.475461666667","25.0058016666667","6500300","中和區"
