"lineid","car","time","location","longitude","latitude","cityid","cityname"
"234046","148-BY","2018/10/11 19:28:01","新北市永和區秀朗路二段181巷6號","121.526461666667","25.0012816666667","6500400","永和區"
"234007","207-UY","2018/10/11 19:27:53","新北市永和區永和路二段35號","121.514333333333","25.0103266666667","6500400","永和區"
"234081","298-R6","2018/10/11 19:28:03","新北市永和區環河東路三段58號","121.526945","25.006105","6500400","永和區"
"234038","336-UY","2018/10/11 19:28:01","新北市永和區民樂街38號","121.527465","25.0006816666667","6500400","永和區"
"234064","337-UY","2018/10/11 19:28:11","新北市永和區永元路17巷25弄7號","121.520915","25.0016816666667","6500400","永和區"
"234086","338-UY","2018/10/11 19:27:59","新北市永和區永利路54號","121.519241666667","25.0051216666667","6500400","永和區"
"234070","552-UM","2018/10/11 19:27:55","新北市永和區警光街12號","121.519698333333","25.00956","6500400","永和區"
"234017","745-BX","2018/10/11 19:27:57","新北市永和區環河西路一段87-1號","121.512508333333","25.0180216666667","6500400","永和區"
"234030","746-BX","2018/10/11 19:28:13","新北市永和區四維街93號","121.524376666667","24.9981433333333","6500400","永和區"
"234054","KEA-2590","2018/10/11 19:28:00","新北市永和區復興街1巷4號","121.515815","25.0129033333333","6500400","永和區"
"234013","KEA-2591","2018/10/11 19:28:07","新北市永和區中山路一段47號","121.513113333333","25.01057","6500400","永和區"
"234061","AAD-866","2018/10/11 19:28:02","新北市永和區中正路570號","121.517108333333","25.0062266666667","6500400","永和區"
"234042","862-TW","2018/10/11 19:28:10","新北市永和區永貞路302號","121.51204","25.004715","6500400","永和區"
"234050","863-TW","2018/10/11 19:28:12","新北市永和區仁愛路119號","121.512051666667","25.0130333333333","6500400","永和區"
"234011","9372-KE","2018/10/11 19:28:06","新北市永和區保福路二段116號","121.509915","25.0138133333333","6500400","永和區"
"234026","9371-KE","2018/10/11 19:27:55","新北市中和區安樂路161-1號","121.5147","24.99732","6500400","永和區"
"249003","593-UM","2018/10/11 19:28:07","新北市八里區商港路52巷1弄2號","121.395611666667","25.1481066666667","6502300","八里區"
"248016","026-BX","2018/10/11 19:28:10","新北市五股區凌雲路一段50號","121.451656666667","25.1008733333333","6501500","五股區"
"248008","095-VK","2018/10/11 19:28:00","新北市五股區中興路一段93號","121.466608333333","25.0727766666667","6501500","五股區"
"248020","225-UY","2018/10/11 19:28:07","新北市五股區凌雲路三段100-2號","121.426548333333","25.1231516666667","6501500","五股區"
"248012","247-BX","2018/10/11 19:28:12","新北市五股區中興路四段48巷16號","121.4387","25.0835433333333","6501500","五股區"
"248014","261-SL","2018/10/11 19:28:02","新北市五股區民義路一段185-15號","121.431606666667","25.087265","6501500","五股區"
"248004","677-BX","2018/10/11 19:27:59","新北市五股區五福路8號","121.434316666667","25.0884716666667","6501500","五股區"
"248002","678-BX","2018/10/11 19:28:10","新北市五股區凌雲路一段158巷14-1號","121.447796666667","25.103475","6501500","五股區"
"248010","682-TV","2018/10/11 19:28:03","新北市五股區水碓二路1號","121.430615","25.0712383333333","6501500","五股區"
"234023","9380-KE","2018/10/11 19:28:12","新北市永和區竹林路91巷45號","121.521355","25.0128383333333","6500400","永和區"
"234077","969-R7","2018/10/11 19:28:01","新北市永和區民權路21號","121.519998333333","24.99799","6500400","永和區"
"234074","AAC-211","2018/10/11 19:28:05","新北市永和區光復街60巷25號","121.517783333333","25.01753","6500400","永和區"
"234067","AAC-212","2018/10/11 19:28:02","新北市永和區保平路176號","121.510816666667","25.0067566666667","6500400","永和區"
"234003","AAC-295","2018/10/11 19:28:01","新北市永和區永和路一段178號","121.514248333333","25.0088883333333","6500400","永和區"
"244023","069-UM","2018/10/11 19:28:02","新北市林口區民有街73號","121.372893333333","25.0772783333333","6501700","林口區"
"244019","403-UM","2018/10/11 19:27:04","新北市林口區寶斗厝坑67-5號","121.338755","25.1109916666667","6501700","林口區"
"243013","AAD-798","2018/10/11 19:27:54","新北市泰山區明志路三段145巷5弄19號","121.42563","25.0405716666667","6501600","泰山區"
"243009","297-R6","2018/10/11 19:27:53","新北市泰山區半山雅2號","121.431828333333","25.06738","6501600","泰山區"
"243016","KEA-2801","2018/10/11 19:27:55","新北市泰山區明志路三段191號","121.424256666667","25.03887","6501600","泰山區"
"243015","421-VK","2018/10/11 19:28:05","新北市泰山區民權街17號","121.428446666667","25.0507916666667","6501600","泰山區"
"243011","KEA-2215","2018/10/11 19:27:57","新北市泰山區貴子路120號","121.428275","25.040645","6501600","泰山區"
"243010","KEA-2216","2018/10/11 19:28:03","新北市泰山區民生路17巷63號","121.429245","25.050895","6501600","泰山區"
"243012","646-TV","2018/10/11 19:28:12","新北市泰山區仁愛路130號","121.434048333333","25.055835","6501600","泰山區"
"243014","680-BX","2018/10/11 19:28:05","新北市泰山區仁愛路6巷49號","121.431425","25.0535766666667","6501600","泰山區"
"222003","436-BY","2018/10/11 19:27:51","新北市深坑區深南路88巷1號","121.620983333333","25.0117083333333","6501800","深坑區"
"222002","659-BX","2018/10/11 19:27:52","新北市深坑區北深路一段177號","121.632548333333","25.0109016666667","6501800","深坑區"
"231059","001-UM","2018/10/11 19:27:57","新北市新店區安和路三段29號","121.517905","24.9812466666667","6500600","新店區"
"231041","002-UM","2018/10/11 19:27:58","新北市新店區中正路616號","121.533935","24.98864","6500600","新店區"
"231040","047-UY","2018/10/11 19:28:00","新北市新店區北新路一段295號","121.540895","24.9674533333333","6500600","新店區"
"231044","106-UY","2018/10/11 19:28:01","新北市新店區中興路三段175號","121.544205","24.9807783333333","6500600","新店區"
"231046","107-UY","2018/10/11 19:28:11","新北市新店區環河路92號","121.536985","24.9638383333333","6500600","新店區"
"231047","187-VK","2018/10/11 19:28:09","新北市新店區五峰路70巷1號","121.546336666667","24.9680966666667","6500600","新店區"
"231062","188-VK","2018/10/11 19:28:10","新北市新店區莒光路87巷10號","121.523931666667","24.955665","6500600","新店區"
"231052","189-VK","2018/10/11 19:28:05","新北市新店區新烏路二段200巷11號","121.547638333333","24.9166066666667","6500600","新店區"
"231054","KEA-2219","2018/10/11 19:27:52","新北市新店區文中路58號","121.540356666667","24.9565533333333","6500600","新店區"
"231057","256-BX","2018/10/11 19:27:52","新北市新店區花園一路三段57號","121.549495","24.932935","6500600","新店區"
"231042","268-BY","2018/10/11 19:28:11","新北市新店區北宜路一段3號","121.538295","24.9584283333333","6500600","新店區"
"231051","278-BY","2018/10/11 19:28:06","新北市新店區中央五街67號","121.527123333333","24.9758383333333","6500600","新店區"
"231050","AAD-862","2018/10/11 19:28:04","新北市新店區竹林路94號","121.553746666667","24.950075","6500600","新店區"
"231061","355-BY","2018/10/11 19:28:13","新北市新店區安康路一段226號","121.523495","24.96364","6500600","新店區"
"231058","3713-VJ","2018/10/11 19:28:11","新北市新店區寶橋路85巷19號","121.545513333333","24.9761683333333","6500600","新店區"
"231066","4716-K9","2018/10/11 19:27:57","新北市新店區安康路三段355巷18號","121.48488","24.9499683333333","6500600","新店區"
"231067","4772-VM","2018/10/11 19:28:09","新北市新店區安德街148巷37號","121.507265","24.9613116666667","6500600","新店區"
"231065","512-UM","2018/10/11 19:28:10","新北市新店區安祥路109巷1弄75號","121.478503333333","24.9605616666667","6500600","新店區"
"231049","513-UM","2018/10/11 19:28:03","新北市新店區北新路三段65巷12弄17號","121.540696666667","24.9815416666667","6500600","新店區"
"231063","616-UM","2018/10/11 19:28:09","新北市新店區達觀路16號","121.503268333333","24.9405316666667","6500600","新店區"
"231045","617-UM","2018/10/11 19:27:51","新北市新店區北宜路二段209號","121.553183333333","24.953365","6500600","新店區"
"231064","719-UM","2018/10/11 19:25:57","新北市新店區安忠路57巷26弄33號","121.512196666667","24.957925","6500600","新店區"
"231060","897-TW","2018/10/11 19:27:52","新北市新店區安康路二段66號","121.514775","24.963665","6500600","新店區"
"231043","899-TW","2018/10/11 19:28:08","新北市新店區北新路二段182號","121.542941666667","24.9761033333333","6500600","新店區"
"231055","AKT-0513","2018/10/11 19:27:59","新北市新店區中華路83巷67號","121.538283333333","24.9671233333333","6500600","新店區"
"241028","022-UY","2018/10/11 19:28:12","新北市三重區中寮街66號","121.493013333333","25.0583383333333","6500200","三重區"
"241008","059-VK","2018/10/11 19:28:05","新北市三重區永福街135巷32弄7號","121.477098333333","25.0770333333333","6500200","三重區"
"241022","060-VK","2018/10/11 19:28:06","新北市三重區三民街107號","121.485126666667","25.0635816666667","6500200","三重區"
"241031","061-VK","2018/10/11 19:27:54","新北市三重區重新路四段184巷40號","121.48822","25.05512","6500200","三重區"
"241017","063-VK","2018/10/11 19:28:00","新北市三重區大仁街86號","121.492753333333","25.0653583333333","6500200","三重區"
"241026","066-VK","2018/10/11 19:27:54","新北市三重區文化南路47巷6號","121.499645","25.0612083333333","6500200","三重區"
"251014","742-BX","2018/10/11 19:28:09","新北市淡水區小中寮19-7號","121.484736666667","25.229665","6501000","淡水區"
"241009","265-UM","2018/10/11 19:27:55","新北市三重區溪尾街242巷50號","121.486515","25.0815366666667","6500200","三重區"
"241032","269-UM","2018/10/11 19:28:03","新北市三重區三陽路39號","121.48527","25.0587866666667","6500200","三重區"
"241025","271-UM","2018/10/11 19:27:57","新北市三重區頂崁街210巷27號","121.475745","25.068125","6500200","三重區"
"241007","398-BY","2018/10/11 19:27:56","新北市三重區溪尾街154號","121.488926666667","25.08003","6500200","三重區"
"241035","KEA-2210","2018/10/11 19:27:59","新北市三重區正義北路86號","121.49704","25.0644716666667","6500200","三重區"
"241020","478-VK","2018/10/11 19:27:54","新北市三重區三和路四段42號","121.490298333333","25.074435","6500200","三重區"
"241030","480-VK","2018/10/11 19:27:51","新北市三重區成功路41巷21號","121.490496666667","25.0518183333333","6500200","三重區"
"241006","AAD-863","2018/10/11 19:27:59","新北市三重區自強路三段75號","121.486935","25.0739033333333","6500200","三重區"
"241029","942-UM","2018/10/11 19:28:10","新北市三重區中正南路260-1號","121.493186666667","25.053025","6500200","三重區"
"235066","003-UY","2018/10/11 19:28:14","新北市中和區中和路108號","121.502911666667","24.99966","6500300","中和區"
"235064","005-UY","2018/10/11 19:28:02","新北市中和區景新街132巷18號","121.504385","24.9976883333333","6500300","中和區"
"235063","006-UY","2018/10/11 19:28:03","新北市中和區連勝街121巷16號","121.495018333333","24.9945083333333","6500300","中和區"
"235056","096-UM","2018/10/11 19:28:10","新北市中和區民富街36號","121.476715","25.006625","6500300","中和區"
"235039","097-UM","2018/10/11 19:27:54","新北市中和區秀峰街103巷7弄2號","121.520016666667","24.9895366666667","6500300","中和區"
"235065","098-UM","2018/10/11 19:28:08","新北市中和區中山路二段2巷5弄6號","121.504348333333","25.0061766666667","6500300","中和區"
"235040","150-BY","2018/10/11 19:28:08","新北市中和區保健路46巷20弄2號","121.508961666667","24.9962066666667","6500300","中和區"
"235058","151-BY","2018/10/11 19:28:00","新北市中和區員山路36巷16-2號","121.485303333333","24.9916383333333","6500300","中和區"
"235055","183-VK","2018/10/11 19:28:10","新北市中和區莒光路120巷34號","121.471586666667","25.0014733333333","6500300","中和區"
"235038","185-VK","2018/10/11 19:28:10","新北市中和區立人街19號","121.521386666667","24.9941","6500300","中和區"
"235049","186-VK","2018/10/11 19:28:10","新北市中和區安和路15號","121.511351666667","24.993805","6500300","中和區"
"235067","255-BX","2018/10/11 19:28:07","新北市中和區中正路673號","121.485163333333","24.9965783333333","6500300","中和區"
"235044","293-VK","2018/10/11 19:28:01","新北市中和區景安路194號","121.504213333333","24.991595","6500300","中和區"
"235072","301-VK","2018/10/11 19:27:55","新北市中和區景平路668號","121.49722","25.0009916666667","6500300","中和區"
"235043","352-BY","2018/10/11 19:27:58","新北市中和區南華路77號","121.505221666667","24.9973666666667","6500300","中和區"
"235042","KEA-2878","2018/10/11 19:28:01","新北市中和區中和路350巷15弄4號","121.510693333333","25.0009683333333","6500300","中和區"
"235050","4979-A6","2018/10/11 19:27:55","新北市中和區中正路366號","121.493366666667","24.99415","6500300","中和區"
"235069","4980-A6","2018/10/11 19:27:59","新北市中和區福祥路87號","121.498913333333","25.0057883333333","6500300","中和區"
"235070","558-UM","2018/10/11 19:28:09","新北市中和區圓通路39號","121.50085","24.9976333333333","6500300","中和區"
"235045","565-BX","2018/10/11 19:28:10","新北市中和區景新街397號","121.512561666667","24.989785","6500300","中和區"
"235054","640-BX","2018/10/11 19:28:10","新北市中和區國光街112巷16弄2號","121.469878333333","25.0013983333333","6500300","中和區"
"235047","732-UM","2018/10/11 19:28:06","新北市中和區景平路239巷57號","121.508645","24.9922366666667","6500300","中和區"
"235046","733-UM","2018/10/11 19:28:08","新北市中和區忠孝街37巷20號","121.510971666667","24.98401","6500300","中和區"
"235071","783-BX","2018/10/11 19:27:53","新北市中和區中正路637巷11號","121.48482","24.995285","6500300","中和區"
"235057","801-TS","2018/10/11 19:28:03","新北市中和區員山路376號","121.480751666667","25.0042","6500300","中和區"
"235041","802-TS","2018/10/11 19:28:07","新北市中和區中和路350巷15弄1號","121.510508333333","25.0009916666667","6500300","中和區"
"235052","805-TS","2018/10/11 19:27:54","新北市中和區華新街143巷65弄2號","121.50667","24.978945","6500300","中和區"
"235048","896-TW","2018/10/11 19:28:03","新北市中和區景新街469號","121.513463333333","24.9879833333333","6500300","中和區"
"235053","900-TW","2018/10/11 19:28:10","新北市中和區華順街57號","121.466455","24.9985233333333","6500300","中和區"
"235060","911-UM","2018/10/11 19:28:04","新北市中和區新生街52號","121.483168333333","25.0029883333333","6500300","中和區"
"235051","157-BY","2018/10/11 19:28:11","新北市中和區景平路390號","121.510393333333","24.99287","6500300","中和區"
"235037","AAC-213","2018/10/11 19:28:04","新北市中和區秀朗路三段10巷14弄29號","121.524401666667","24.9964333333333","6500300","中和區"
"235059","AAC-215","2018/10/11 19:28:11","新北市中和區圓通路252巷18弄1號","121.492296666667","24.9925483333333","6500300","中和區"
"220068","013-TV","2018/10/11 19:28:00","新北市板橋區萬安街135號","121.483376666667","25.0253433333333","6500100","板橋區"
"220035","015-TV","2018/10/11 19:28:00","新北市板橋區中正路399巷13弄2號","121.453271666667","25.0225666666667","6500100","板橋區"
"220065","072-UY","2018/10/11 19:28:06","新北市板橋區國泰街111巷4-2號","121.465691666667","25.0061416666667","6500100","板橋區"
"220086","073-UY","2018/10/11 19:28:10","新北市板橋區中正路216巷9號","121.456353333333","25.018495","6500100","板橋區"
"220106","075-UY","2018/10/11 19:28:04","新北市板橋區江寧路三段119號","121.473335","25.0331966666667","6500100","板橋區"
"220069","AAD-861","2018/10/11 19:28:08","新北市板橋區稚暉街41號","121.457291666667","25.004035","6500100","板橋區"
"247004","002-UY","2018/10/11 19:28:03","新北市蘆洲區長安街196號","121.45878","25.0839066666667","6501400","蘆洲區"
"226004","312-R5","2018/10/11 19:28:01","新北市平溪區十分里十分街138號","121.77744","25.04332","6502400","平溪區"
"228003","097-TW","2018/10/11 19:28:05","新北市貢寮區和美里和美街22-1號","121.912825","25.082655","6502600","貢寮區"
"228001","212-TW","2018/10/11 19:27:54","新北市貢寮區真理里延平街66號","121.925395","25.0573483333333","6502600","貢寮區"
"228002","663-BX","2018/10/11 19:27:55","新北市貢寮區龍門里龍門街78號","121.931003333333","25.0265933333333","6502600","貢寮區"
"224010","AGQ-8101","2018/10/11 19:28:03","新北市瑞芳區基山街159號","121.843548333333","25.108115","6501200","瑞芳區"
"224002","639-TC","2018/10/11 19:28:13","新北市瑞芳區三爪子坑路43號","121.813145","25.107405","6501200","瑞芳區"
"227004","642-TC","2018/10/11 19:27:54","新北市雙溪區雙溪里太平路6號","121.864083333333","25.0350533333333","6502500","雙溪區"
"227010","400-TW","2018/10/11 19:27:55","新北市雙溪區新基里新基北街43號","121.868188333333","25.0397","6502500","雙溪區"
"253006","032-BX","2018/10/11 19:27:57","新北市石門區老梅路52巷25弄2-1號","121.545951666667","25.2874466666667","6502200","石門區"
"222001","KEA-2212","2018/10/11 19:27:50","新北市深坑區北深路二段121號","121.616675","25.003105","6501800","深坑區"
"208002","KEA-2872","2018/10/11 19:28:05","新北市金山區仁愛路78巷1號","121.634618333333","25.2216016666667","6502700","金山區"
"208003","665-BX","2018/10/11 19:28:11","新北市金山區中山路263巷10號","121.636351666667","25.2216166666667","6502700","金山區"
"208001","761-BX","2018/10/11 19:28:07","新北市金山區南勢48號","121.628063333333","25.2206816666667","6502700","金山區"
"251009","008-UM","2018/10/11 19:28:07","新北市淡水區中正路28號","121.44435","25.1690833333333","6501000","淡水區"
"251005","010-UM","2018/10/11 19:27:40","新北市淡水區水源街一段47巷22號","121.444011666667","25.1730066666667","6501000","淡水區"
"251013","KEA-2871","2018/10/11 19:27:56","新北市淡水區安子內16-1號","121.47827","25.2188316666667","6501000","淡水區"
"251016","179-VK","2018/10/11 19:27:56","新北市淡水區下圭柔山119-51號","121.450715","25.2085183333333","6501000","淡水區"
"251015","180-VK","2018/10/11 19:28:04","新北市淡水區山子頂24號","121.492221666667","25.18819","6501000","淡水區"
"251008","181-VK","2018/10/11 19:28:07","新北市淡水區中正路一段156巷1號","121.42102","25.1797516666667","6501000","淡水區"
"251010","413-VK","2018/10/11 19:27:58","新北市淡水區淡海路218號","121.420195","25.1857566666667","6501000","淡水區"
"251012","441-VK","2018/10/11 19:28:02","新北市淡水區崁頂145號","121.430451666667","25.205955","6501000","淡水區"
"251007","442-VK","2018/10/11 19:27:53","新北市淡水區大同路113巷6號","121.463645","25.1413583333333","6501000","淡水區"
"251001","559-UM","2018/10/11 19:27:56","新北市淡水區民權路179-1號","121.459596666667","25.134935","6501000","淡水區"
"251006","561-UM","2018/10/11 19:27:57","新北市淡水區大義街40號","121.442011666667","25.1783716666667","6501000","淡水區"
"251003","766-UM","2018/10/11 19:27:55","新北市淡水區中山北路三段116號","121.443871666667","25.1939166666667","6501000","淡水區"
"207003","550-UM","2018/10/11 19:28:01","新北市萬里區大鵬里萬里加投191-3號","121.644841666667","25.2141816666667","6502800","萬里區"
"207004","225-TW","2018/10/11 19:28:08","新北市萬里區萬里里瑪鋉路81號","121.688338333333","25.1766516666667","6502800","萬里區"
"252002","178-VK","2018/10/11 19:27:57","新北市三芝區淡金路二段18-1號","121.502678333333","25.2595233333333","6502100","三芝區"
"252001","292-VK","2018/10/11 19:27:57","新北市三芝區長勤街46號","121.500526666667","25.2555383333333","6502100","三芝區"
"237004","KEA-2597","2018/10/11 19:27:57","新北市三峽區有木206號","121.439131666667","24.8514733333333","6500900","三峽區"
"237007","153-BY","2018/10/11 19:28:01","新北市三峽區二鬮路136巷18弄7號","121.35901","24.9080783333333","6500900","三峽區"
"237009","210-TH","2018/10/11 19:27:59","新北市三峽區中山路24號","121.369081666667","24.934375","6500900","三峽區"
"237013","252-BX","2018/10/11 19:28:06","新北市三峽區介壽路一段276巷90號","121.379825","24.928865","6500900","三峽區"
"237012","275-BY","2018/10/11 19:28:02","新北市三峽區三樹路128-1號","121.378355","24.93969","6500900","三峽區"
"237008","302-VK","2018/10/11 19:28:01","新北市三峽區光明路106巷84號","121.374616666667","24.9264916666667","6500900","三峽區"
"237014","433-BY","2018/10/11 19:27:56","新北市三峽區中山路270號","121.36158","24.9377316666667","6500900","三峽區"
"237006","5529-G3","2018/10/11 19:28:07","新北市三峽區中正路一段336巷15弄2號","121.36998","24.92495","6500900","三峽區"
"237011","KEA-2596","2018/10/11 19:27:59","新北市三峽區介壽路一段383-1號","121.387723333333","24.9339316666667","6500900","三峽區"
"237016","649-BX","2018/10/11 19:28:07","新北市三峽區安坑48-1號","121.458948333333","24.932195","6500900","三峽區"
"237010","706-TV","2018/10/11 19:28:04","新北市三峽區國光街20號","121.375303333333","24.9372816666667","6500900","三峽區"
"237005","AKY-6261","2018/10/11 19:27:52","新北市三峽區復興路367巷1弄13號","121.364005","24.938225","6500900","三峽區"
"236070","105-UM","2018/10/11 19:27:53","新北市土城區裕民路185巷36弄10號","121.454348333333","24.9845983333333","6501300","土城區"
"236078","166-UM","2018/10/11 19:28:03","新北市土城區中州路3巷50號","121.413503333333","24.956525","6501300","土城區"
"236030","253-BX","2018/10/11 19:28:09","新北市土城區中央路一段318巷21號","121.442421666667","24.9819183333333","6501300","土城區"
"236026","269-VK","2018/10/11 19:28:04","新北市土城區中央路二段86號","121.442335","24.978795","6501300","土城區"
"236021","401-BY","2018/10/11 19:27:59","新北市土城區峰廷街3號","121.46902","24.9873316666667","6501300","土城區"
"236055","752-BX","2018/10/11 19:27:57","新北市土城區學府路一段276號","121.450248333333","24.9833033333333","6501300","土城區"
"236059","912-UM","2018/10/11 19:28:00","新北市土城區中央路二段63號","121.442708333333","24.9789233333333","6501300","土城區"
"236049","913-UM","2018/10/11 19:27:54","新北市土城區青雲路216號","121.458953333333","24.9815233333333","6501300","土城區"
"242048","497-BY","2018/10/11 19:28:07","新北市新莊區後港一路3號","121.424096666667","25.0263783333333","6500500","新莊區"
"242046","400-BY","2018/10/11 19:28:08","新北市新莊區富國路66巷5號","121.419776666667","25.0253866666667","6500500","新莊區"
"242013","173-VK","2018/10/11 19:28:10","新北市新莊區三和路12-12號","121.442255","25.0371","6500500","新莊區"
"242031","348-TH","2018/10/11 19:28:07","新北市新莊區新泰路225巷24號","121.445135","25.03912","6500500","新莊區"
"242004","349-TH","2018/10/11 19:28:08","新北市新莊區復興路二段200號","121.459523333333","25.0444033333333","6500500","新莊區"
"238015","755-BX","2018/10/11 19:27:57","新北市樹林區大安路523號","121.41396","24.985935","6500700","樹林區"
"238023","601-UM","2018/10/11 19:27:58","新北市樹林區三福街4-1號","121.408858333333","25.0168183333333","6500700","樹林區"
"238019","599-UM","2018/10/11 19:27:54","新北市樹林區東榮街90號","121.415925","24.98269","6500700","樹林區"
"238018","571-TV","2018/10/11 19:28:08","新北市樹林區中華路122號","121.417818333333","24.9805416666667","6500700","樹林區"
"238024","5061-A6","2018/10/11 19:28:07","新北市樹林區中山路三段125-9號","121.397845","24.97379","6500700","樹林區"
"238022","KEA-2213","2018/10/11 19:28:07","新北市樹林區名園街39號","121.41961","24.9789033333333","6500700","樹林區"
"238021","KEA-2539","2018/10/11 19:27:51","新北市樹林區學勤路526號","121.38293","24.9476533333333","6500700","樹林區"
"238025","303-VK","2018/10/11 19:28:09","新北市樹林區中山路二段80-1號","121.414938333333","24.9837383333333","6500700","樹林區"
"238017","283-BY","2018/10/11 19:28:07","新北市樹林區光興街63巷8號","121.410663333333","25.0020616666667","6500700","樹林區"
"238014","282-BY","2018/10/11 19:28:08","新北市樹林區保安二街64巷19號","121.424416666667","24.9965566666667","6500700","樹林區"
"238026","172-UY","2018/10/11 19:28:02","新北市樹林區佳園路二段96號","121.390068333333","24.9578933333333","6500700","樹林區"
"238016","169-UY","2018/10/11 19:27:55","新北市樹林區中山路一段156-8號","121.412525","24.983175","6500700","樹林區"
"239007","AAC-297","2018/10/11 19:28:11","新北市鶯歌區大湖路余厝巷5號","121.342178333333","24.9613166666667","6500800","鶯歌區"
"239006","891-R6","2018/10/11 19:27:54","新北市鶯歌區鶯桃路137號","121.337845","24.9548283333333","6500800","鶯歌區"
"239008","527-UM","2018/10/11 19:28:11","新北市鶯歌區大湖路468巷9號","121.339596666667","24.9725266666667","6500800","鶯歌區"
"239005","526-UM","2018/10/11 19:27:59","新北市鶯歌區中湖街41號","121.349188333333","24.97316","6500800","鶯歌區"
"239001","417-VK","2018/10/11 19:28:00","新北市鶯歌區建國路439號","121.338043333333","24.9512716666667","6500800","鶯歌區"
"239003","360-BY","2018/10/11 19:28:03","新北市鶯歌區中正一路350號","121.357813333333","24.9569983333333","6500800","鶯歌區"
"239004","193-VK","2018/10/11 19:27:56","新北市鶯歌區中正三路鄭厝巷65號","121.331706666667","24.9337583333333","6500800","鶯歌區"
"221008","489-VK","2018/10/11 19:27:58","新北市汐止區康寧街241號","121.6247","25.066835","6501100","汐止區"
"221036","130-UY","2018/10/11 19:28:00","新北市汐止區康寧街901號","121.651685","25.074945","6501100","汐止區"
"221015","131-UY","2018/10/11 19:28:06","新北市汐止區康寧街901號","121.651568333333","25.0749466666667","6501100","汐止區"
"221010","269-BY","2018/10/11 19:27:58","新北市汐止區連峰街1巷1號","121.646936666667","25.0760966666667","6501100","汐止區"
"221012","278-VK","2018/10/11 19:27:55","新北市汐止區保一街79號","121.674465","25.0793933333333","6501100","汐止區"
"221023","279-VK","2018/10/11 19:28:01","新北市汐止區康寧街861巷1號","121.645373333333","25.07592","6501100","汐止區"
"221027","281-BY","2018/10/11 19:28:07","新北市汐止區忠孝東路9號","121.658323333333","25.0659233333333","6501100","汐止區"
"221029","298-VK","2018/10/11 19:27:58","新北市汐止區康寧街901號","121.651481666667","25.0749433333333","6501100","汐止區"
"221021","299-VK","2018/10/11 19:28:07","新北市汐止區康寧街901號","121.651351666667","25.0750233333333","6501100","汐止區"
"221031","353-TW","2018/10/11 19:28:09","新北市汐止區康寧街901號","121.650843333333","25.0752616666667","6501100","汐止區"
"221025","623-UM","2018/10/11 19:28:11","新北市汐止區大同路二段341-1號","121.656165","25.0672116666667","6501100","汐止區"
"221038","646-BX","2018/10/11 19:27:58","新北市汐止區汐萬路一段22號","121.655838333333","25.06786","6501100","汐止區"
"221002","707-TV","2018/10/11 19:27:57","新北市汐止區大同路一段215-1號","121.634003333333","25.05751","6501100","汐止區"
"220079","145-BY","2018/10/11 19:28:03","新北市板橋區民權路255號","121.457128333333","25.015855","6500100","板橋區"
"220080","200-UY","2018/10/11 19:28:09","新北市板橋區大觀路二段37巷252號","121.449833333333","25.0021166666667","6500100","板橋區"
"220082","610-BX","2018/10/11 19:28:04","新北市板橋區金門街96-2號","121.433118333333","24.9924183333333","6500100","板橋區"
"220101","245-BX","2018/10/11 19:28:00","新北市板橋區縣民大道三段121巷17號","121.47656","25.0233633333333","6500100","板橋區"
"220091","267-BY","2018/10/11 19:28:10","新北市板橋區文聖街149巷20號","121.479348333333","25.028375","6500100","板橋區"
"220056","276-BY","2018/10/11 19:28:03","新北市板橋區國慶路27號","121.458705","24.9956633333333","6500100","板橋區"
"220072","277-BY","2018/10/11 19:28:00","新北市板橋區金門街253巷16弄13號","121.432665","24.987905","6500100","板橋區"
"220094","283-UM","2018/10/11 19:28:10","新北市板橋區吳鳳路50巷5號","121.467845","25.03054","6500100","板橋區"
"220071","283-VK","2018/10/11 19:27:56","新北市板橋區重慶路269巷59號","121.465073333333","24.9990416666667","6500100","板橋區"
"220083","286-VK","2018/10/11 19:28:00","新北市板橋區龍興街73巷51號","121.441925","25.00297","6500100","板橋區"
"220081","287-VK","2018/10/11 19:28:07","新北市板橋區南雅南路一段106號","121.45493","25.004405","6500100","板橋區"
"220090","288-VK","2018/10/11 19:28:04","新北市板橋區長江路一段106巷20弄11號","121.460135","25.0282716666667","6500100","板橋區"
"220061","293-UM","2018/10/11 19:27:59","新北市板橋區中山路二段305號","121.47876","25.0184416666667","6500100","板橋區"
"220084","296-UM","2018/10/11 19:28:06","新北市板橋區篤行路三段67-3號","121.4279","24.9853983333333","6500100","板橋區"
"220053","299-UM","2018/10/11 19:28:10","新北市板橋區富山街85巷2弄1號","121.476646666667","25.0215233333333","6500100","板橋區"
"220075","303-R5","2018/10/11 19:27:57","新北市板橋區中正路253巷74號","121.452668333333","25.01718","6500100","板橋區"
"220062","305-R5","2018/10/11 19:28:06","新北市板橋區三民路二段123巷29號","121.48054","25.015665","6500100","板橋區"
"220092","307-R5","2018/10/11 19:28:08","新北市板橋區松江街72巷28號","121.46967","25.0278433333333","6500100","板橋區"
"220098","317-R6","2018/10/11 19:28:00","新北市板橋區四維路266巷5弄2號","121.463986666667","25.0287566666667","6500100","板橋區"
"220064","486-VK","2018/10/11 19:28:13","新北市板橋區民族路80號","121.463151666667","25.0092316666667","6500100","板橋區"
"220089","487-VK","2018/10/11 19:28:10","新北市板橋區文化路一段61號","121.460881666667","25.0136966666667","6500100","板橋區"
"220088","491-VK","2018/10/11 19:27:54","新北市板橋區雙十路二段95號","121.475171666667","25.0278","6500100","板橋區"
"220103","561-BX","2018/10/11 19:28:07","新北市板橋區文化路一段270巷2號","121.467405","25.0204883333333","6500100","板橋區"
"220063","609-BX","2018/10/11 19:28:03","新北市板橋區三民路一段5巷22-1號","121.480083333333","25.0234183333333","6500100","板橋區"
"220057","686-BX","2018/10/11 19:28:02","新北市板橋區重慶路323號","121.46388","24.9984716666667","6500100","板橋區"
"220077","687-BX","2018/10/11 19:28:12","新北市板橋區僑中二街102巷1號","121.445958333333","25.008065","6500100","板橋區"
"220093","689-BX","2018/10/11 19:27:59","新北市板橋區漢生西路117號","121.462696666667","25.020395","6500100","板橋區"
"220054","741-BX","2018/10/11 19:28:12","新北市板橋區實踐路124號","121.464148333333","25.00317","6500100","板橋區"
"220102","KEA-2699","2018/10/11 19:27:57","新北市板橋區雙十路二段112號","121.474581666667","25.0288316666667","6500100","板橋區"
"220055","827-TW","2018/10/11 19:27:53","新北市板橋區忠孝路131號","121.463151666667","25.0023533333333","6500100","板橋區"
"220067","829-TW","2018/10/11 19:28:04","新北市板橋區漢生東路337號","121.47202","25.0076033333333","6500100","板橋區"
"220096","831-TW","2018/10/11 19:28:10","新北市板橋區雙十路二段18號","121.47663","25.02711","6500100","板橋區"
"220074","895-R6","2018/10/11 19:28:09","新北市板橋區宮口街38號","121.457445","25.0106","6500100","板橋區"
"220073","985-R7","2018/10/11 19:28:07","新北市板橋區瑞安街1號","121.454653333333","25.0234166666667","6500100","板橋區"
"220097","AAC-210","2018/10/11 19:28:05","新北市板橋區陽明街239號","121.463133333333","25.0245516666667","6500100","板橋區"
"220070","AAC-253","2018/10/11 19:27:59","新北市板橋區忠孝路136號","121.463585","25.002345","6500100","板橋區"
"235068","KEA-2873","2018/10/11 19:28:05","新北市中和區連勝街38巷26號","121.497638333333","24.99817","6500300","中和區"
"235061","KEA-2875","2018/10/11 19:28:04","新北市中和區民利街69號","121.478745","24.9982633333333","6500300","中和區"
