"lineid","car","time","location","longitude","latitude","cityid","cityname"
"234046","148-BY","2018/10/11 19:57:41","新北市永和區永亨路127號","121.52445","25.004175","6500400","永和區"
"234007","207-UY","2018/10/11 19:57:33","新北市永和區保生路22巷8號","121.507276666667","25.0079716666667","6500400","永和區"
"234081","298-R6","2018/10/11 19:57:43","新北市永和區永利路81巷19號","121.522208333333","25.003835","6500400","永和區"
"234038","336-UY","2018/10/11 19:57:41","新北市永和區成功路二段152-2號","121.526555","24.9966266666667","6500400","永和區"
"234064","337-UY","2018/10/11 19:57:31","新北市永和區中正路368巷1弄43號","121.519038333333","25.0010583333333","6500400","永和區"
"234086","338-UY","2018/10/11 19:57:43","新北市永和區永利路42號","121.518706666667","25.0054233333333","6500400","永和區"
"234070","552-UM","2018/10/11 19:57:35","新北市永和區國光路6號","121.519741666667","25.00844","6500400","永和區"
"234017","745-BX","2018/10/11 19:57:37","新北市永和區文化路57號","121.514185","25.0150416666667","6500400","永和區"
"234030","746-BX","2018/10/11 19:57:33","新北市永和區四維街89巷2弄3號","121.524373333333","24.9976916666667","6500400","永和區"
"234054","KEA-2590","2018/10/11 19:57:40","新北市永和區竹林路39巷30號","121.51944","25.0149766666667","6500400","永和區"
"234013","KEA-2591","2018/10/11 19:57:27","新北市永和區保生路55號","121.504743333333","25.0106683333333","6500400","永和區"
"234061","AAD-866","2018/10/11 19:57:40","新北市永和區得和路45巷2號","121.51648","25.00016","6500400","永和區"
"234042","862-TW","2018/10/11 19:57:30","新北市永和區中和路381號","121.508531666667","24.9999666666667","6500400","永和區"
"234050","863-TW","2018/10/11 19:57:32","新北市永和區保安路168號","121.508075","25.014355","6500400","永和區"
"234011","9372-KE","2018/10/11 19:57:43","新北市永和區仁愛路352巷112弄10號","121.501088333333","25.008555","6500400","永和區"
"234026","9371-KE","2018/10/11 19:57:35","新北市永和區水源街33巷5號","121.510825","25.0041483333333","6500400","永和區"
"249005","172-UM","2018/10/11 19:57:31","新北市八里區楓林路2-3號","121.38339","25.1304383333333","6502300","八里區"
"249001","173-UM","2018/10/11 19:57:38","新北市八里區中華路二段290號","121.40438","25.14886","6502300","八里區"
"249004","303-UY","2018/10/11 19:57:30","新北市八里區中山路一段215號","121.411385","25.15783","6502300","八里區"
"249002","305-UY","2018/10/11 19:57:28","新北市八里區頂寮一街42號","121.450571666667","25.1239416666667","6502300","八里區"
"249003","593-UM","2018/10/11 19:57:07","新北市八里區中華路二段558號","121.398576666667","25.1452816666667","6502300","八里區"
"248016","026-BX","2018/10/11 19:57:34","新北市五股區成泰路三段577巷80弄54號","121.4497","25.1050883333333","6501500","五股區"
"248008","095-VK","2018/10/11 19:57:40","新北市五股區中興路一段68號","121.467371666667","25.072925","6501500","五股區"
"248020","225-UY","2018/10/11 19:57:27","新北市五股區中直路20-3號","121.425161666667","25.1117883333333","6501500","五股區"
"248012","247-BX","2018/10/11 19:57:32","新北市五股區民義路一段128號","121.434636666667","25.0859933333333","6501500","五股區"
"248014","261-SL","2018/10/11 19:57:22","新北市五股區五福路22巷6號","121.434628333333","25.0890483333333","6501500","五股區"
"248004","677-BX","2018/10/11 19:57:39","新北市五股區成泰路一段32巷62號","121.435001666667","25.0669583333333","6501500","五股區"
"248002","678-BX","2018/10/11 19:57:30","新北市五股區成泰路三段472號","121.451746666667","25.1013116666667","6501500","五股區"
"248010","682-TV","2018/10/11 19:57:43","新北市五股區登林路76-9號","121.429755","25.0694083333333","6501500","五股區"
"234023","9380-KE","2018/10/11 19:57:32","新北市永和區豫溪街57巷8弄9號","121.517966666667","25.0104216666667","6500400","永和區"
"234077","969-R7","2018/10/11 19:57:16","新北市永和區民有街23巷19號","121.517238333333","24.9966333333333","6500400","永和區"
"234074","AAC-211","2018/10/11 19:57:37","新北市永和區豫溪街156號","121.523003333333","25.0099216666667","6500400","永和區"
"234067","AAC-212","2018/10/11 19:57:42","新北市永和區保平路236巷48號","121.507703333333","25.0068633333333","6500400","永和區"
"234003","AAC-295","2018/10/11 19:57:21","新北市永和區永和路二段3號","121.514265","25.0098833333333","6500400","永和區"
"243013","AAD-798","2018/10/11 19:40:27","新北市泰山區應化街7號","121.423856666667","25.0437216666667","6501600","泰山區"
"243009","297-R6","2018/10/11 19:57:33","新北市泰山區楓江路16巷8號","121.433846666667","25.0620016666667","6501600","泰山區"
"243016","KEA-2801","2018/10/11 19:57:16","新北市泰山區新北大道六段319號","121.423603333333","25.0335233333333","6501600","泰山區"
"243015","421-VK","2018/10/11 19:57:25","新北市泰山區明志路二段214巷16弄5號","121.426731666667","25.0494483333333","6501600","泰山區"
"243011","KEA-2215","2018/10/11 19:57:37","新北市泰山區明志路三段196巷37號","121.42198","25.0397433333333","6501600","泰山區"
"243010","KEA-2216","2018/10/11 19:57:23","新北市泰山區中華街10巷1號","121.427858333333","25.0525","6501600","泰山區"
"243012","646-TV","2018/10/11 19:57:26","新北市泰山區全興路83號","121.433041666667","25.0578983333333","6501600","泰山區"
"243014","680-BX","2018/10/11 19:57:24","新北市泰山區泰林路二段171號","121.433691666667","25.0606516666667","6501600","泰山區"
"222003","436-BY","2018/10/11 19:57:31","新北市深坑區深南路1號","121.622023333333","25.0049166666667","6501800","深坑區"
"222002","659-BX","2018/10/11 19:57:32","新北市深坑區北深路二段81巷8弄1號","121.618316666667","25.003065","6501800","深坑區"
"231059","001-UM","2018/10/11 19:57:37","新北市新店區安和路二段1號","121.517728333333","24.9668933333333","6500600","新店區"
"231041","002-UM","2018/10/11 19:57:38","新北市新店區中正路331-1號","121.536136666667","24.9752633333333","6500600","新店區"
"231040","047-UY","2018/10/11 19:57:40","新北市新店區中正路75巷71號","121.543098333333","24.9688","6500600","新店區"
"231044","106-UY","2018/10/11 19:57:41","新北市新店區復興路51-8號","121.536588333333","24.98713","6500600","新店區"
"231046","107-UY","2018/10/11 19:57:31","新北市新店區三民路159巷19弄1號","121.53286","24.9740833333333","6500600","新店區"
"231047","187-VK","2018/10/11 19:57:29","新北市新店區寶興路64巷1號","121.550648333333","24.971625","6500600","新店區"
"231062","188-VK","2018/10/11 19:57:30","新北市新店區永業路121號","121.528443333333","24.9478933333333","6500600","新店區"
"231052","189-VK","2018/10/11 19:57:24","新北市新店區新烏路三段寶島巷4號","121.55156","24.89926","6500600","新店區"
"231054","KEA-2219","2018/10/11 19:57:32","新北市新店區光明街96巷3號","121.539481666667","24.9600166666667","6500600","新店區"
"231057","256-BX","2018/10/11 19:57:31","新北市新店區花園二路一段11號","121.555451666667","24.9324816666667","6500600","新店區"
"231042","268-BY","2018/10/11 19:57:31","新北市新店區中興路一段280號","121.545475","24.9683933333333","6500600","新店區"
"231051","278-BY","2018/10/11 19:57:26","新北市新店區中央一街18號","121.528448333333","24.9730533333333","6500600","新店區"
"231050","AAD-862","2018/10/11 19:57:44","新北市新店區北宜路二段360號","121.563285","24.9536483333333","6500600","新店區"
"231061","355-BY","2018/10/11 19:57:33","新北市新店區安民街315號","121.517525","24.97418","6500600","新店區"
"231066","4716-K9","2018/10/11 19:57:38","新北市新店區薏仁坑路自強巷6號","121.496655","24.9585033333333","6500600","新店區"
"231056","4715-K9","2018/10/11 19:57:40","新北市新店區北新路二段189號","121.542545","24.9777733333333","6500600","新店區"
"231067","4772-VM","2018/10/11 19:57:29","新北市新店區秀山路11巷24號","121.531481666667","24.958675","6500600","新店區"
"231065","512-UM","2018/10/11 19:57:31","新北市新店區安祥路108巷3號","121.475116666667","24.958695","6500600","新店區"
"231049","513-UM","2018/10/11 19:57:23","新北市新店區民權路100號","121.536275","24.9829233333333","6500600","新店區"
"231063","616-UM","2018/10/11 19:57:29","新北市新店區車子路11號","121.503046666667","24.9520216666667","6500600","新店區"
"231045","617-UM","2018/10/11 19:57:39","新北市新店區北宜路二段361-3號","121.558541666667","24.95422","6500600","新店區"
"231064","719-UM","2018/10/11 19:56:57","新北市新店區光華街5巷2號","121.517788333333","24.9689916666667","6500600","新店區"
"231068","719-UY","2018/10/11 19:57:39","新北市新店區安華路28-1號","121.519118333333","24.960775","6500600","新店區"
"231060","897-TW","2018/10/11 19:57:32","新北市新店區安康路二段357號","121.495788333333","24.954885","6500600","新店區"
"231043","899-TW","2018/10/11 19:57:41","新北市新店區中正路263-3號","121.538301666667","24.9736716666667","6500600","新店區"
"231055","AKT-0513","2018/10/11 19:57:39","新北市新店區中華路85號","121.539246666667","24.9685966666667","6500600","新店區"
"241011","013-R5","2018/10/11 19:57:25","新北市三重區介壽路12號","121.498735","25.069635","6500200","三重區"
"241028","022-UY","2018/10/11 19:57:32","新北市三重區中正南路54號","121.493945","25.05987","6500200","三重區"
"241008","059-VK","2018/10/11 19:57:21","新北市三重區力行路二段136巷49弄2號","121.4793","25.0751533333333","6500200","三重區"
"241022","060-VK","2018/10/11 19:57:27","新北市三重區新北大道一段11號","121.488446666667","25.060635","6500200","三重區"
"241031","061-VK","2018/10/11 19:57:35","新北市三重區重新路四段184巷16號","121.487096666667","25.0549816666667","6500200","三重區"
"241015","062-VK","2018/10/11 19:57:35","新北市三重區三和路二段6-1號","121.501366666667","25.0666366666667","6500200","三重區"
"241017","063-VK","2018/10/11 19:57:40","新北市三重區重陽路三段99號","121.490385","25.06819","6500200","三重區"
"241026","066-VK","2018/10/11 19:57:34","新北市三重區仁慈街11號","121.501831666667","25.0630383333333","6500200","三重區"
"241002","090-VK","2018/10/11 19:57:35","新北市三重區仁愛街269巷36號","121.494","25.0794166666667","6500200","三重區"
"241003","091-VK","2018/10/11 19:57:39","新北市三重區仁愛街445巷7號","121.490191666667","25.08252","6500200","三重區"
"251014","742-BX","2018/10/11 19:57:29","新北市淡水區石頭厝1-16號","121.457213333333","25.2362533333333","6501000","淡水區"
"241005","262-UM","2018/10/11 19:57:35","新北市三重區溪尾街325巷40弄1號","121.48879","25.0833416666667","6500200","三重區"
"241009","265-UM","2018/10/11 19:57:34","新北市三重區三和路四段390巷25號","121.480778333333","25.0787233333333","6500200","三重區"
"241016","266-UM","2018/10/11 19:57:33","新北市三重區正義北路48巷41-3號","121.49609","25.0636116666667","6500200","三重區"
"241018","268-UM","2018/10/11 19:57:44","新北市三重區自強路一段173號","121.493041666667","25.06736","6500200","三重區"
"241032","269-UM","2018/10/11 19:57:40","新北市三重區朝陽街46號","121.483301666667","25.05704","6500200","三重區"
"241013","270-UM","2018/10/11 19:57:42","新北市三重區三和路三段125巷7號","121.493243333333","25.073505","6500200","三重區"
"241025","271-UM","2018/10/11 19:57:37","新北市三重區頂崁街210巷16號","121.476423333333","25.067735","6500200","三重區"
"241007","398-BY","2018/10/11 19:57:36","新北市三重區慈愛街1號","121.484566666667","25.0783783333333","6500200","三重區"
"241035","KEA-2210","2018/10/11 19:57:39","新北市三重區重新路二段13巷6號","121.498276666667","25.0628016666667","6500200","三重區"
"241004","475-VK","2018/10/11 19:57:28","新北市三重區仁愛街377巷132號","121.49354","25.081925","6500200","三重區"
"241020","478-VK","2018/10/11 19:57:34","新北市三重區忠孝路一段101號","121.489518333333","25.0721433333333","6500200","三重區"
"241030","480-VK","2018/10/11 19:57:31","新北市三重區成功路143號","121.486796666667","25.0521333333333","6500200","三重區"
"241014","543-UM","2018/10/11 19:57:28","新北市三重區三和路二段36號","121.500103333333","25.06781","6500200","三重區"
"241023","545-UM","2018/10/11 19:57:27","新北市三重區頂崁街172號","121.477516666667","25.0659416666667","6500200","三重區"
"241001","547-UM","2018/10/11 19:57:36","新北市三重區仁愛街283巷33號","121.49412","25.0796916666667","6500200","三重區"
"241019","KEA-2593","2018/10/11 19:57:39","新北市三重區重陽路四段38號","121.4914","25.0696933333333","6500200","三重區"
"241006","AAD-863","2018/10/11 19:57:39","新北市三重區車路頭街137號","121.48399","25.0761716666667","6500200","三重區"
"241024","887-TS","2018/10/11 19:57:33","新北市三重區大勇街49號","121.48154","25.0718483333333","6500200","三重區"
"241012","941-UM","2018/10/11 19:57:42","新北市三重區仁興街39巷12號","121.499606666667","25.075965","6500200","三重區"
"241029","942-UM","2018/10/11 19:57:30","新北市三重區重安街8號","121.490193333333","25.0582733333333","6500200","三重區"
"241033","AAC-255","2018/10/11 19:57:41","新北市三重區中興北街61號","121.469516666667","25.0474183333333","6500200","三重區"
"235066","003-UY","2018/10/11 19:57:37","新北市中和區光華街22號","121.504383333333","25.0042616666667","6500300","中和區"
"235056","096-UM","2018/10/11 19:57:30","新北市中和區中山路三段170巷15號","121.472701666667","25.006995","6500300","中和區"
"235039","097-UM","2018/10/11 19:57:34","新北市中和區景平路278巷14弄4號","121.514261666667","24.9930033333333","6500300","中和區"
"235065","098-UM","2018/10/11 19:57:34","新北市中和區福美路230號","121.49918","25.0054766666667","6500300","中和區"
"235040","150-BY","2018/10/11 19:57:28","新北市中和區景安路79巷19弄15號","121.507456666667","24.9973483333333","6500300","中和區"
"235058","151-BY","2018/10/11 19:57:40","新北市中和區員山路179號","121.481135","24.9968933333333","6500300","中和區"
"235055","183-VK","2018/10/11 19:57:39","新北市中和區民生街23巷2弄1號","121.470943333333","25.0052033333333","6500300","中和區"
"235038","185-VK","2018/10/11 19:57:30","新北市中和區自強路60號","121.520073333333","24.9944433333333","6500300","中和區"
"235049","186-VK","2018/10/11 19:57:27","新北市中和區景安路132巷35號","121.50369","24.994275","6500300","中和區"
"235067","255-BX","2018/10/11 19:57:27","新北市中和區中正路751巷3弄11號","121.484525","24.999205","6500300","中和區"
"235044","293-VK","2018/10/11 19:57:41","新北市中和區板南路114號","121.503306666667","24.99253","6500300","中和區"
"235043","352-BY","2018/10/11 19:57:38","新北市中和區興南路二段159巷7號","121.505223333333","24.9831816666667","6500300","中和區"
"235050","4979-A6","2018/10/11 19:57:34","新北市中和區景平路241巷64弄11號","121.50745","24.9924066666667","6500300","中和區"
"235069","4980-A6","2018/10/11 19:57:39","新北市中和區圓通路156號","121.497926666667","24.9956566666667","6500300","中和區"
"235070","558-UM","2018/10/11 19:57:29","新北市中和區圓通路154號","121.498018333333","24.995705","6500300","中和區"
"235054","640-BX","2018/10/11 19:57:30","新北市中和區莒光路167號","121.472748333333","25.0000266666667","6500300","中和區"
"235047","732-UM","2018/10/11 19:57:26","新北市中和區和平街78號","121.507793333333","24.9911983333333","6500300","中和區"
"235046","733-UM","2018/10/11 19:57:28","新北市中和區興南路一段93巷8弄1號","121.509906666667","24.987895","6500300","中和區"
"235041","802-TS","2018/10/11 19:57:26","新北市中和區中安街192號","121.511376666667","24.9993883333333","6500300","中和區"
"235052","805-TS","2018/10/11 19:57:44","新北市中和區華新街50巷5弄30號","121.507443333333","24.98331","6500300","中和區"
"235048","896-TW","2018/10/11 19:57:23","新北市中和區興南路一段61號","121.510461666667","24.9897116666667","6500300","中和區"
"235053","900-TW","2018/10/11 19:57:29","新北市中和區民德路230號","121.46805","24.9976233333333","6500300","中和區"
"235051","157-BY","2018/10/11 19:57:31","新北市中和區中興街180巷52弄2號","121.4988","24.9886266666667","6500300","中和區"
"235037","AAC-213","2018/10/11 19:57:24","新北市中和區自立路36-8號","121.522726666667","24.9926316666667","6500300","中和區"
"235059","AAC-215","2018/10/11 19:57:31","新北市中和區圓通路335巷3弄20號","121.493448333333","24.990255","6500300","中和區"
"220068","013-TV","2018/10/11 19:57:29","新北市板橋區中山路二段412巷12號","121.48327","25.0202733333333","6500100","板橋區"
"220035","015-TV","2018/10/11 19:57:39","新北市板橋區新生街53巷16號","121.45758","25.0215366666667","6500100","板橋區"
"220065","072-UY","2018/10/11 19:57:26","新北市板橋區中山路一段154巷25號","121.465381666667","25.0104933333333","6500100","板橋區"
"220106","075-UY","2018/10/11 19:57:24","新北市板橋區民治街57巷24弄7號","121.480468333333","25.033685","6500100","板橋區"
"220069","AAD-861","2018/10/11 19:57:28","新北市板橋區大明街13號","121.458871666667","25.00255","6500100","板橋區"
"247002","893-R6","2018/10/11 19:57:38","新北市蘆洲區永樂街31巷9號","121.45814","25.087135","6501400","蘆洲區"
"247016","546-UM","2018/10/11 19:57:28","新北市蘆洲區中正路85號","121.469973333333","25.0836216666667","6501400","蘆洲區"
"247024","500-BY","2018/10/11 19:57:30","新北市蘆洲區光榮路120巷22弄26-1號","121.464658333333","25.087205","6501400","蘆洲區"
"247014","339-TH","2018/10/11 19:57:31","新北市蘆洲區成功路136號","121.471951666667","25.08282","6501400","蘆洲區"
"247006","337-TH","2018/10/11 19:57:40","新北市蘆洲區九芎街139巷21號","121.466248333333","25.078965","6501400","蘆洲區"
"247008","336-TH","2018/10/11 19:57:35","新北市蘆洲區信義路119巷11號","121.478325","25.0804916666667","6501400","蘆洲區"
"247020","057-VK","2018/10/11 19:57:33","新北市蘆洲區民權路113號","121.472365","25.0893783333333","6501400","蘆洲區"
"247018","007-UY","2018/10/11 19:57:30","新北市蘆洲區民族路292號","121.47794","25.0896566666667","6501400","蘆洲區"
"247004","002-UY","2018/10/11 19:57:43","新北市蘆洲區永康街77號","121.455773333333","25.085185","6501400","蘆洲區"
"226004","312-R5","2018/10/11 19:57:39","新北市平溪區十分里十分街263號","121.778276666667","25.0453333333333","6502400","平溪區"
"228003","097-TW","2018/10/11 19:57:25","新北市貢寮區仁理村仁和路67號","121.924138333333","25.0544516666667","6502600","貢寮區"
"224010","AGQ-8101","2018/10/11 19:57:41","新北市瑞芳區金光路334號","121.848523333333","25.110005","6501200","瑞芳區"
"224002","639-TC","2018/10/11 19:57:33","新北市瑞芳區員山子路員山巷3-3號","121.817213333333","25.103725","6501200","瑞芳區"
"227004","642-TC","2018/10/11 19:57:34","新北市雙溪區雙溪里長安街16號","121.865005","25.0346866666667","6502500","雙溪區"
"227010","400-TW","2018/10/11 19:57:35","新北市雙溪區新基里新基南街25號","121.866226666667","25.03815","6502500","雙溪區"
"253006","032-BX","2018/10/11 19:57:37","新北市石門區尖子鹿76號","121.572043333333","25.2970133333333","6502200","石門區"
"222001","KEA-2212","2018/10/11 19:57:30","新北市深坑區北深路三段69號","121.606516666667","25.001355","6501800","深坑區"
"208002","KEA-2872","2018/10/11 19:57:26","新北市金山區環金路178號","121.634936666667","25.217095","6502700","金山區"
"208003","665-BX","2018/10/11 19:57:42","新北市金山區永興里濆水路7-2號","121.629586666667","25.2650483333333","6502700","金山區"
"208001","761-BX","2018/10/11 19:57:37","新北市金山區南勢41-1號","121.629101666667","25.219865","6502700","金山區"
"251009","008-UM","2018/10/11 19:57:27","新北市淡水區英專路23號","121.445338333333","25.1697166666667","6501000","淡水區"
"251005","010-UM","2018/10/11 19:57:40","新北市淡水區學府路136巷15號","121.451158333333","25.1728916666667","6501000","淡水區"
"251013","KEA-2871","2018/10/11 19:57:36","新北市淡水區奎柔山路63號","121.45169","25.2061833333333","6501000","淡水區"
"251016","179-VK","2018/10/11 19:57:35","新北市淡水區番子田16-13號","121.453676666667","25.2317366666667","6501000","淡水區"
"251015","180-VK","2018/10/11 19:57:25","新北市淡水區商工路141號","121.447173333333","25.188295","6501000","淡水區"
"251008","181-VK","2018/10/11 19:57:27","新北市淡水區淡海路63巷22號","121.422325","25.1804233333333","6501000","淡水區"
"251010","413-VK","2018/10/11 19:57:38","新北市淡水區下圭柔山91-2號","121.430585","25.2093433333333","6501000","淡水區"
"251012","441-VK","2018/10/11 19:57:41","新北市淡水區下圭柔山93-3號","121.435998333333","25.2091066666667","6501000","淡水區"
"251007","442-VK","2018/10/11 19:57:33","新北市淡水區竿蓁二街68號","121.455451666667","25.1637983333333","6501000","淡水區"
"251004","443-VK","2018/10/11 19:57:29","新北市淡水區民族路50巷30號","121.460921666667","25.135745","6501000","淡水區"
"251001","559-UM","2018/10/11 19:57:36","新北市淡水區淡金路一段164-1號","121.454468333333","25.17952","6501000","淡水區"
"251006","561-UM","2018/10/11 19:57:37","新北市淡水區水碓街28號","121.444083333333","25.1773416666667","6501000","淡水區"
"251011","650-BX","2018/10/11 19:57:25","新北市淡水區崁頂55-3號","121.442301666667","25.19663","6501000","淡水區"
"251003","766-UM","2018/10/11 19:57:35","新北市淡水區中山北路二段381巷117號","121.44332","25.18592","6501000","淡水區"
"207003","550-UM","2018/10/11 19:57:41","新北市萬里區大鵬里萬里加投64號","121.641478333333","25.2128683333333","6502800","萬里區"
"207004","225-TW","2018/10/11 19:57:28","新北市萬里區北基里忠二街35號","121.685653333333","25.17573","6502800","萬里區"
"252002","178-VK","2018/10/11 19:57:37","新北市三芝區忠孝街112-3號","121.50552","25.2576383333333","6502100","三芝區"
"252001","292-VK","2018/10/11 19:57:37","新北市三芝區公正街9號","121.499745","25.2574833333333","6502100","三芝區"
"237004","KEA-2597","2018/10/11 19:57:37","新北市三峽區添福107號","121.37345","24.90268","6500900","三峽區"
"237007","153-BY","2018/10/11 19:57:21","新北市三峽區麻園36-6號","121.363781666667","24.9206083333333","6500900","三峽區"
"237009","210-TH","2018/10/11 19:57:37","新北市三峽區民族街78巷8號","121.36865","24.9294766666667","6500900","三峽區"
"237012","275-BY","2018/10/11 19:57:41","新北市三峽區中華路72巷5號","121.371036666667","24.9294783333333","6500900","三峽區"
"237008","302-VK","2018/10/11 19:57:41","新北市三峽區中正路一段292巷12弄4號","121.371023333333","24.9260966666667","6500900","三峽區"
"237014","433-BY","2018/10/11 19:57:36","新北市三峽區添福59-5號","121.37453","24.9033716666667","6500900","三峽區"
"237006","5529-G3","2018/10/11 19:57:27","新北市三峽區正義街11-5號","121.36968","24.9195533333333","6500900","三峽區"
"237011","KEA-2596","2018/10/11 19:57:39","新北市三峽區大智路55號","121.360453333333","24.9363033333333","6500900","三峽區"
"237016","649-BX","2018/10/11 19:57:27","新北市三峽區溪東路218巷2-1號","121.407533333333","24.9320466666667","6500900","三峽區"
"237010","706-TV","2018/10/11 19:57:24","新北市三峽區復興路19號","121.374075","24.9363133333333","6500900","三峽區"
"237005","AKY-6261","2018/10/11 19:57:32","新北市三峽區民生街1巷27-1號","121.379585","24.934145","6500900","三峽區"
"236070","105-UM","2018/10/11 19:57:34","新北市土城區忠義路95號","121.443621666667","24.9642466666667","6501300","土城區"
"236042","107-UM","2018/10/11 19:57:33","新北市土城區學府路一段143巷2號","121.453778333333","24.9859933333333","6501300","土城區"
"236078","166-UM","2018/10/11 19:57:38","新北市土城區中州路30巷3號","121.413186666667","24.9585083333333","6501300","土城區"
"236030","253-BX","2018/10/11 19:57:25","新北市土城區中華路一段203號","121.442948333333","24.9849433333333","6501300","土城區"
"236026","269-VK","2018/10/11 19:57:28","新北市土城區員林街74號","121.444543333333","24.9771133333333","6501300","土城區"
"236014","270-VK","2018/10/11 19:57:41","新北市土城區廣福街123號","121.45627","24.9928916666667","6501300","土城區"
"236038","271-VK","2018/10/11 19:57:32","新北市土城區國際路86號","121.467028333333","24.9760316666667","6501300","土城區"
"236021","401-BY","2018/10/11 19:57:39","新北市土城區延吉街30號","121.472061666667","24.987335","6501300","土城區"
"236055","752-BX","2018/10/11 19:57:37","新北市土城區延和路9號","121.463843333333","24.9878183333333","6501300","土城區"
"236059","912-UM","2018/10/11 19:57:20","新北市土城區中央路一段269-6號","121.444833333333","24.9849366666667","6501300","土城區"
"236049","913-UM","2018/10/11 19:57:34","新北市土城區金城路三段192號","121.46842","24.9879283333333","6501300","土城區"
"236063","915-UM","2018/10/11 19:57:34","新北市土城區金城路三段73巷11弄1號","121.46626","24.987955","6501300","土城區"
"242036","AAC-296","2018/10/11 19:57:36","新北市新莊區建安街57巷3號","121.42865","25.024835","6500500","新莊區"
"242058","986-R7","2018/10/11 19:57:31","新北市新莊區民安西路1號","121.426646666667","25.0220133333333","6500500","新莊區"
"242056","751-BX","2018/10/11 19:57:35","新北市新莊區中正路347巷22號","121.447046666667","25.0342416666667","6500500","新莊區"
"242029","705-TV","2018/10/11 19:57:42","新北市新莊區中平路377巷1-6號","121.444626666667","25.052465","6500500","新莊區"
"242025","613-BX","2018/10/11 19:57:40","新北市新莊區五工二路86巷32號","121.460583333333","25.067245","6500500","新莊區"
"242044","566-BX","2018/10/11 19:57:39","新北市新莊區新北大道七段726號","121.412331666667","25.0259016666667","6500500","新莊區"
"242048","497-BY","2018/10/11 19:57:27","新北市新莊區富國路109巷2號","121.423795","25.02512","6500500","新莊區"
"242015","442-UM","2018/10/11 19:57:34","新北市新莊區泰安街46號","121.446935","25.0424283333333","6500500","新莊區"
"242009","413-TV","2018/10/11 19:57:29","新北市新莊區昌盛街12號","121.45355","25.049925","6500500","新莊區"
"242046","400-BY","2018/10/11 19:57:28","新北市新莊區富國路66巷5號","121.41982","25.025425","6500500","新莊區"
"242023","362-BY","2018/10/11 19:57:29","新北市新莊區化成路386號","121.465878333333","25.050215","6500500","新莊區"
"242061","353-BY","2018/10/11 19:57:33","新北市新莊區瓊泰路7-1號","121.444713333333","25.0283016666667","6500500","新莊區"
"242011","132-UY","2018/10/11 19:57:41","新北市新莊區中港路531巷66號","121.450415","25.051545","6500500","新莊區"
"242034","135-UY","2018/10/11 19:57:39","新北市新莊區建中街85號","121.447013333333","25.036635","6500500","新莊區"
"242051","172-VK","2018/10/11 19:57:38","新北市新莊區西盛街186號","121.428055","25.0185683333333","6500500","新莊區"
"242013","173-VK","2018/10/11 19:57:30","新北市新莊區中華路二段83號","121.452515","25.0479083333333","6500500","新莊區"
"242019","175-VK","2018/10/11 19:57:21","新北市新莊區民生街19號","121.455983333333","25.0421916666667","6500500","新莊區"
"242007","176-VK","2018/10/11 19:57:39","新北市新莊區思源路539號","121.459695","25.0565633333333","6500500","新莊區"
"242017","346-TH","2018/10/11 19:56:04","新北市新莊區自強街26巷3弄1號","121.455283333333","25.046115","6500500","新莊區"
"242002","347-TH","2018/10/11 19:57:29","新北市新莊區中正路190號","121.449711666667","25.0354866666667","6500500","新莊區"
"242031","348-TH","2018/10/11 19:57:27","新北市新莊區公園一路53號","121.443138333333","25.0359916666667","6500500","新莊區"
"242004","349-TH","2018/10/11 19:57:28","新北市新莊區化成路209-1號","121.465975","25.0515516666667","6500500","新莊區"
"242021","350-TH","2018/10/11 19:57:40","新北市新莊區建中街16巷8號","121.449461666667","25.0380583333333","6500500","新莊區"
"238015","755-BX","2018/10/11 19:57:37","新北市樹林區大安路630號","121.41103","24.9825183333333","6500700","樹林區"
"238021","KEA-2539","2018/10/11 19:57:33","新北市樹林區田尾街192巷7號","121.400111666667","24.9493683333333","6500700","樹林區"
"238017","283-BY","2018/10/11 19:57:27","新北市樹林區保安街一段378號","121.417415","24.9987466666667","6500700","樹林區"
"239006","891-R6","2018/10/11 19:57:34","新北市鶯歌區重慶街49號","121.351525","24.9524583333333","6500800","鶯歌區"
"221008","489-VK","2018/10/11 19:57:37","新北市汐止區康寧街44號","121.618495","25.0667033333333","6501100","汐止區"
"221036","130-UY","2018/10/11 19:57:40","新北市汐止區新台五路二段50號","121.661188333333","25.0654833333333","6501100","汐止區"
"221015","131-UY","2018/10/11 19:57:26","新北市汐止區橋東街15號","121.666633333333","25.0756966666667","6501100","汐止區"
"221010","269-BY","2018/10/11 19:57:40","新北市汐止區連峰街227號","121.645006666667","25.081115","6501100","汐止區"
"221012","278-VK","2018/10/11 19:57:35","新北市汐止區大同路三段449號","121.678448333333","25.0712616666667","6501100","汐止區"
"221023","279-VK","2018/10/11 19:57:41","新北市汐止區明峰街179-1號","121.628546666667","25.0699316666667","6501100","汐止區"
"221032","280-BY","2018/10/11 19:57:31","新北市汐止區橫科路4巷1弄10號","121.617821666667","25.050785","6501100","汐止區"
"221027","281-BY","2018/10/11 19:57:27","新北市汐止區中正路74號","121.661573333333","25.06973","6501100","汐止區"
"221029","298-VK","2018/10/11 19:57:38","新北市汐止區樟樹一路137巷24號","121.641065","25.0659866666667","6501100","汐止區"
"221021","299-VK","2018/10/11 19:57:27","新北市汐止區水源路一段143號","121.655983333333","25.0622966666667","6501100","汐止區"
"221031","353-TW","2018/10/11 19:57:29","新北市汐止區福德一路176巷2號","121.635686666667","25.06629","6501100","汐止區"
"221035","622-UM","2018/10/11 19:57:44","新北市汐止區長江街39巷21號","121.655326666667","25.07199","6501100","汐止區"
"221025","623-UM","2018/10/11 19:57:30","新北市汐止區秀峰路81巷46號","121.661671666667","25.0647883333333","6501100","汐止區"
"221038","646-BX","2018/10/11 19:57:37","新北市汐止區忠孝東路477號","121.666101666667","25.0731033333333","6501100","汐止區"
"221033","647-BX","2018/10/11 19:57:44","新北市汐止區東勢街100號","121.633626666667","25.041465","6501100","汐止區"
"221002","707-TV","2018/10/11 19:57:37","新北市汐止區工建路504號","121.633186666667","25.0583766666667","6501100","汐止區"
"221018","753-BX","2018/10/11 19:57:38","新北市汐止區大同路二段613號","121.664135","25.070835","6501100","汐止區"
"220079","145-BY","2018/10/11 19:57:23","新北市板橋區大智街45號","121.454378333333","25.0152666666667","6500100","板橋區"
"220080","200-UY","2018/10/11 19:57:40","新北市板橋區大觀路二段169巷12號","121.445781666667","24.9999716666667","6500100","板橋區"
"220082","610-BX","2018/10/11 19:57:28","新北市板橋區篤行路二段6號","121.43172","24.9930783333333","6500100","板橋區"
"220101","245-BX","2018/10/11 19:57:37","新北市板橋區莊敬路245號","121.473073333333","25.021465","6500100","板橋區"
"220091","267-BY","2018/10/11 19:57:30","新北市板橋區文聖街95號","121.477561666667","25.0296783333333","6500100","板橋區"
"220072","277-BY","2018/10/11 19:57:40","新北市板橋區金門街111-3號","121.433138333333","24.9920866666667","6500100","板橋區"
"220094","283-UM","2018/10/11 19:57:30","新北市板橋區雨農路11號","121.462248333333","25.0247416666667","6500100","板橋區"
"220071","283-VK","2018/10/11 19:57:34","新北市板橋區四川路一段367號","121.458273333333","24.99978","6500100","板橋區"
"220083","286-VK","2018/10/11 19:57:40","新北市板橋區僑中二街10巷1號","121.446826666667","25.0109733333333","6500100","板橋區"
"220081","287-VK","2018/10/11 19:57:27","新北市板橋區大觀路一段28巷101號","121.450023333333","25.0119433333333","6500100","板橋區"
"220090","288-VK","2018/10/11 19:57:33","新北市板橋區幸福路32巷2弄33號","121.460885","25.0219133333333","6500100","板橋區"
"220061","293-UM","2018/10/11 19:57:39","新北市板橋區觀光街1巷2號","121.472065","25.0155333333333","6500100","板橋區"
"220084","296-UM","2018/10/11 19:57:26","新北市樹林區水源街213號","121.424045","24.9872616666667","6500100","板橋區"
"220053","299-UM","2018/10/11 19:57:30","新北市板橋區永豐街27號","121.474566666667","25.017105","6500100","板橋區"
"242039","281-VK","2018/10/11 19:57:24","新北市新莊區民安路287-5號","121.428796666667","25.0230766666667","6500500","新莊區"
"220075","303-R5","2018/10/11 19:57:39","新北市板橋區金華街10巷78號","121.45776","25.0203183333333","6500100","板橋區"
"220062","305-R5","2018/10/11 19:57:26","新北市板橋區萬安街85巷18號","121.484253333333","25.0254016666667","6500100","板橋區"
"220092","307-R5","2018/10/11 19:57:42","新北市板橋區四維路259巷26號","121.462061666667","25.0276683333333","6500100","板橋區"
"220098","317-R6","2018/10/11 19:57:39","新北市板橋區英士路192-1號","121.45846","25.0235166666667","6500100","板橋區"
"220064","486-VK","2018/10/11 19:57:23","新北市板橋區實踐路38號","121.46364","25.0068783333333","6500100","板橋區"
"220089","487-VK","2018/10/11 19:57:37","新北市板橋區龍泉街55巷12號","121.457348333333","25.0255133333333","6500100","板橋區"
"220088","491-VK","2018/10/11 19:57:34","新北市板橋區大同街79號","121.479685","25.02813","6500100","板橋區"
"220103","561-BX","2018/10/11 19:57:27","新北市板橋區陽明街29巷1弄6號","121.46486","25.0215066666667","6500100","板橋區"
"220063","609-BX","2018/10/11 19:57:28","新北市板橋區中山路二段237號","121.477028333333","25.0173183333333","6500100","板橋區"
"220057","686-BX","2018/10/11 19:57:42","新北市板橋區和平路安樂巷36號","121.461763333333","24.993375","6500100","板橋區"
"220077","687-BX","2018/10/11 19:57:32","新北市板橋區僑中一街124巷17弄2號","121.446091666667","25.01384","6500100","板橋區"
"220093","689-BX","2018/10/11 19:57:35","新北市板橋區文化路二段652號","121.478381666667","25.03607","6500100","板橋區"
"220054","741-BX","2018/10/11 19:57:31","新北市板橋區實踐路93巷68號","121.466425","25.004875","6500100","板橋區"
"220102","KEA-2699","2018/10/11 19:57:37","新北市板橋區文聖街20號","121.475853333333","25.031885","6500100","板橋區"
"220055","827-TW","2018/10/11 19:57:33","新北市板橋區仁愛路64號","121.459866666667","24.9994216666667","6500100","板橋區"
"220067","829-TW","2018/10/11 19:57:27","新北市板橋區漢生東路193巷69弄1號","121.472258333333","25.0121883333333","6500100","板橋區"
"220096","831-TW","2018/10/11 19:57:30","新北市板橋區莒光路16巷19號","121.469466666667","25.0239533333333","6500100","板橋區"
"220074","895-R6","2018/10/11 19:57:37","新北市板橋區府中路24號","121.459561666667","25.0097466666667","6500100","板橋區"
"220073","985-R7","2018/10/11 19:57:26","新北市板橋區南雅西路二段255號","121.451695","25.0147266666667","6500100","板橋區"
"220097","AAC-210","2018/10/11 19:57:25","新北市板橋區漢生西路56號","121.463031666667","25.0188316666667","6500100","板橋區"
"220070","AAC-253","2018/10/11 19:57:38","新北市板橋區民族路131號","121.467541666667","25.0078966666667","6500100","板橋區"
"235068","KEA-2873","2018/10/11 19:57:35","新北市中和區莊敬路16巷15弄4號","121.50029","25.0036516666667","6500300","中和區"
