"lineid","car","time","location","longitude","latitude","cityid","cityname"
"234046","148-BY","2018/10/11 20:17:41","新北市永和區永元路68號","121.522338333333","25.0014583333333","6500400","永和區"
"234007","207-UY","2018/10/11 20:17:33","新北市永和區環河西路二段229巷3號","121.501463333333","25.0099466666667","6500400","永和區"
"234081","298-R6","2018/10/11 20:17:43","新北市永和區國中路156號","121.522626666667","25.0066566666667","6500400","永和區"
"234038","336-UY","2018/10/11 20:17:41","新北市永和區成功路一段93巷11-1號","121.527671666667","25.002735","6500400","永和區"
"234064","337-UY","2018/10/11 20:17:31","新北市永和區得和路130號","121.519093333333","25.0000083333333","6500400","永和區"
"234086","338-UY","2018/10/11 20:17:39","新北市永和區福和路71號","121.522615","25.007875","6500400","永和區"
"234070","552-UM","2018/10/11 20:17:35","新北市永和區永寧街113號","121.518103333333","25.0061316666667","6500400","永和區"
"234017","745-BX","2018/10/11 20:17:37","新北市永和區仁愛路37號","121.514128333333","25.01337","6500400","永和區"
"234030","746-BX","2018/10/11 20:17:33","新北市永和區民族街67巷8號","121.518928333333","24.9971466666667","6500400","永和區"
"234054","KEA-2590","2018/10/11 20:17:40","新北市永和區光復街2巷16弄1號","121.517085","25.0163583333333","6500400","永和區"
"234013","KEA-2591","2018/10/11 20:17:27","新北市永和區保生路3號","121.506331666667","25.00734","6500400","永和區"
"234061","AAD-866","2018/10/11 20:17:40","新北市中和區安平路222號","121.51403","25.0002433333333","6500400","永和區"
"234042","862-TW","2018/10/11 20:17:42","新北市永和區中和路467號","121.51001","25.0017483333333","6500400","永和區"
"234050","863-TW","2018/10/11 20:17:32","新北市永和區環河西路二段101號","121.506455","25.0147466666667","6500400","永和區"
"249005","172-UM","2018/10/11 20:17:31","新北市八里區下罟子6-3號","121.386305","25.141305","6502300","八里區"
"249001","173-UM","2018/10/11 20:17:38","新北市八里區中華路二段466號","121.400906666667","25.14616","6502300","八里區"
"249004","303-UY","2018/10/11 20:17:30","新北市八里區中山路一段129巷19-1號","121.413948333333","25.15859","6502300","八里區"
"249002","305-UY","2018/10/11 20:17:28","新北市八里區龍米路一段100巷8號","121.453696666667","25.1249983333333","6502300","八里區"
"249003","593-UM","2018/10/11 20:17:27","新北市八里區訊埔路20號","121.397616666667","25.1453316666667","6502300","八里區"
"248012","247-BX","2018/10/11 20:17:32","新北市五股區民義路一段208號","121.430575","25.0893016666667","6501500","五股區"
"248014","261-SL","2018/10/11 20:17:22","新北市五股區凌雲路三段24巷22號","121.432521666667","25.107905","6501500","五股區"
"248004","677-BX","2018/10/11 20:17:39","新北市五股區中興路四段17-4號","121.439463333333","25.0824333333333","6501500","五股區"
"248002","678-BX","2018/10/11 20:17:30","新北市五股區新城八路313號","121.445711666667","25.09228","6501500","五股區"
"248010","682-TV","2018/10/11 20:17:23","新北市五股區新五路二段2巷10號","121.438541666667","25.0666433333333","6501500","五股區"
"234023","9380-KE","2018/10/11 20:17:32","新北市永和區勵行街30號","121.516336666667","25.0138466666667","6500400","永和區"
"234077","969-R7","2018/10/11 20:17:36","新北市永和區民享街2巷1號","121.51483","24.99572","6500400","永和區"
"234074","AAC-211","2018/10/11 20:17:45","新北市永和區竹林路201巷41號","121.522198333333","25.0099716666667","6500400","永和區"
"234067","AAC-212","2018/10/11 20:17:42","新北市永和區保平路214巷1弄11號","121.50913","25.0057566666667","6500400","永和區"
"234003","AAC-295","2018/10/11 20:17:41","新北市永和區自強街19巷2號","121.514958333333","25.0080466666667","6500400","永和區"
"243013","AAD-798","2018/10/11 20:17:40","新北市泰山區新民路14巷1號","121.426536666667","25.0446333333333","6501600","泰山區"
"243009","297-R6","2018/10/11 20:17:33","新北市泰山區福泰街44號","121.433988333333","25.059535","6501600","泰山區"
"243016","KEA-2801","2018/10/11 20:17:35","新北市泰山區明志路三段94號","121.424955","25.0412916666667","6501600","泰山區"
"243015","421-VK","2018/10/11 20:17:25","新北市泰山區仁愛路72號","121.432563333333","25.05512","6501600","泰山區"
"243011","KEA-2215","2018/10/11 20:17:37","新北市泰山區中山路三段69號","121.418726666667","25.0320166666667","6501600","泰山區"
"243010","KEA-2216","2018/10/11 20:17:43","新北市泰山區明志路二段254巷6號","121.426661666667","25.04762","6501600","泰山區"
"243012","646-TV","2018/10/11 20:17:42","新北市泰山區楓江路142號","121.439716666667","25.0650133333333","6501600","泰山區"
"243014","680-BX","2018/10/11 20:17:44","新北市泰山區泰林路二段395號","121.42711","25.064135","6501600","泰山區"
"222003","436-BY","2018/10/11 20:17:31","新北市深坑區文化街82號","121.617795","25.00195","6501800","深坑區"
"222002","659-BX","2018/10/11 20:17:32","新北市深坑區萬福路75巷8號","121.601091666667","25.0093366666667","6501800","深坑區"
"231059","001-UM","2018/10/11 20:17:37","新北市新店區安德街60巷35號","121.511215","24.9635","6500600","新店區"
"231041","002-UM","2018/10/11 20:17:38","新北市新店區民權路85號","121.53817","24.98288","6500600","新店區"
"231040","047-UY","2018/10/11 20:17:40","新北市新店區中正路110號","121.542978333333","24.9705833333333","6500600","新店區"
"231044","106-UY","2018/10/11 20:17:41","新北市新店區北新路三段179號","121.540906666667","24.9843366666667","6500600","新店區"
"231047","187-VK","2018/10/11 20:17:29","新北市新店區寶橋路80號","121.54616","24.9754983333333","6500600","新店區"
"231062","188-VK","2018/10/11 20:17:30","新北市新店區安康路二段101號","121.51293","24.9625966666667","6500600","新店區"
"231052","189-VK","2018/10/11 20:17:24","新北市新店區新烏路二段321號","121.54987","24.910915","6500600","新店區"
"231054","KEA-2219","2018/10/11 20:17:32","新北市新店區檳榔路57號","121.543456666667","24.9625033333333","6500600","新店區"
"231057","256-BX","2018/10/11 20:17:32","新北市新店區花園十路二段7-6號","121.554128333333","24.9343833333333","6500600","新店區"
"231042","268-BY","2018/10/11 20:17:31","新北市新店區中正路2號","121.545858333333","24.9694316666667","6500600","新店區"
"231051","278-BY","2018/10/11 20:17:26","新北市新店區中央六街69號","121.5274","24.9761983333333","6500600","新店區"
"231061","355-BY","2018/10/11 20:17:33","新北市新店區安興路33-1號","121.515833333333","24.9704316666667","6500600","新店區"
"231058","3713-VJ","2018/10/11 20:17:41","新北市新店區中央路230號","121.529571666667","24.9726483333333","6500600","新店區"
"231066","4716-K9","2018/10/11 20:17:37","新北市新店區柴埕路60巷1-1號","121.510088333333","24.9637933333333","6500600","新店區"
"231056","4715-K9","2018/10/11 20:17:20","新北市新店區中正路328巷42弄10號","121.538436666667","24.9760233333333","6500600","新店區"
"231067","4772-VM","2018/10/11 20:17:29","新北市新店區溪洲路8巷42號","121.533388333333","24.9621633333333","6500600","新店區"
"231065","512-UM","2018/10/11 20:17:31","新北市新店區安祥路104-6號","121.479786666667","24.9622516666667","6500600","新店區"
"231049","513-UM","2018/10/11 20:17:43","新北市新店區北新路二段51號","121.542708333333","24.9730433333333","6500600","新店區"
"231063","616-UM","2018/10/11 20:17:29","新北市新店區安康路二段269號","121.50461","24.95754","6500600","新店區"
"231045","617-UM","2018/10/11 20:17:31","新北市新店區五峰路145巷7號","121.54599","24.9649016666667","6500600","新店區"
"231064","719-UM","2018/10/11 20:16:17","新北市新店區安和路二段148號","121.519725","24.9728716666667","6500600","新店區"
"231068","719-UY","2018/10/11 20:17:39","新北市新店區民權路21號","121.54196","24.9828783333333","6500600","新店區"
"231060","897-TW","2018/10/11 20:17:32","新北市新店區錦秀路11巷96弄2號","121.480053333333","24.9419383333333","6500600","新店區"
"231043","899-TW","2018/10/11 20:17:41","新北市新店區建國路131號","121.539428333333","24.97816","6500600","新店區"
"231055","AKT-0513","2018/10/11 20:17:39","新北市新店區環河路29巷1號","121.536615","24.9613683333333","6500600","新店區"
"241011","013-R5","2018/10/11 20:17:25","新北市三重區龍濱路190號","121.501138333333","25.0733033333333","6500200","三重區"
"241028","022-UY","2018/10/11 20:17:32","新北市三重區中正南路113號","121.494171666667","25.0576866666667","6500200","三重區"
"241008","059-VK","2018/10/11 20:17:21","新北市三重區永福街211巷19號","121.479266666667","25.0740616666667","6500200","三重區"
"241022","060-VK","2018/10/11 20:17:28","新北市三重區市前街2號","121.48899","25.0619366666667","6500200","三重區"
"241031","061-VK","2018/10/11 20:17:37","新北市三重區三寧街15號","121.489503333333","25.059825","6500200","三重區"
"241015","062-VK","2018/10/11 20:17:35","新北市三重區重新路一段98號","121.501376666667","25.0634066666667","6500200","三重區"
"241017","063-VK","2018/10/11 20:17:40","新北市三重區長壽西街180號","121.492948333333","25.0663316666667","6500200","三重區"
"241026","066-VK","2018/10/11 20:17:34","新北市三重區中央南路120號","121.501625","25.0601083333333","6500200","三重區"
"241002","090-VK","2018/10/11 20:17:35","新北市三重區五華街7巷53號","121.496166666667","25.08058","6500200","三重區"
"241003","091-VK","2018/10/11 20:17:39","新北市三重區富華街13號","121.490211666667","25.0828533333333","6500200","三重區"
"251014","742-BX","2018/10/11 20:17:29","新北市淡水區石頭厝1號","121.458738333333","25.2355266666667","6501000","淡水區"
"241005","262-UM","2018/10/11 20:17:35","新北市三重區碧華街231號","121.489028333333","25.0828016666667","6500200","三重區"
"241009","265-UM","2018/10/11 20:17:34","新北市三重區三和路四段382巷57號","121.481061666667","25.0784566666667","6500200","三重區"
"241016","266-UM","2018/10/11 20:17:33","新北市三重區大同北路54巷7號","121.49395","25.0634333333333","6500200","三重區"
"241018","268-UM","2018/10/11 20:17:44","新北市三重區正義北路256巷80號","121.49422","25.06804","6500200","三重區"
"241032","269-UM","2018/10/11 20:17:40","新北市三重區捷運路19巷6弄3號","121.484811666667","25.05699","6500200","三重區"
"241013","270-UM","2018/10/11 20:17:42","新北市三重區三和路三段163號","121.491975","25.0740833333333","6500200","三重區"
"241025","271-UM","2018/10/11 20:17:37","新北市三重區自由街17巷18號","121.479975","25.0668716666667","6500200","三重區"
"241007","398-BY","2018/10/11 20:17:36","新北市三重區三和路四段117巷54號","121.486526666667","25.0779483333333","6500200","三重區"
"241035","KEA-2210","2018/10/11 20:17:39","新北市三重區大榮街37號","121.498818333333","25.0634566666667","6500200","三重區"
"241004","475-VK","2018/10/11 20:17:28","新北市三重區慈愛街193號","121.490585","25.0804333333333","6500200","三重區"
"241020","478-VK","2018/10/11 20:17:37","新北市三重區三和路三段170巷10號","121.492378333333","25.0729983333333","6500200","三重區"
"241030","480-VK","2018/10/11 20:17:31","新北市三重區集美街89巷6號","121.48868","25.0530133333333","6500200","三重區"
"241014","543-UM","2018/10/11 20:17:28","新北市三重區龍濱路163號","121.502743333333","25.0697616666667","6500200","三重區"
"241023","545-UM","2018/10/11 20:17:27","新北市三重區頂崁街199號","121.477461666667","25.0667516666667","6500200","三重區"
"241001","547-UM","2018/10/11 20:17:36","新北市三重區自強路四段3巷19號","121.489516666667","25.0763066666667","6500200","三重區"
"241019","KEA-2593","2018/10/11 20:17:39","新北市三重區忠孝路一段68號","121.490113333333","25.0718566666667","6500200","三重區"
"241006","AAD-863","2018/10/11 20:17:39","新北市三重區車路頭街139巷14號","121.484308333333","25.07626","6500200","三重區"
"241024","887-TS","2018/10/11 20:17:33","新北市三重區中正北路258號","121.481336666667","25.0682066666667","6500200","三重區"
"241012","941-UM","2018/10/11 20:17:42","新北市三重區仁厚街88號","121.500911666667","25.076955","6500200","三重區"
"241029","942-UM","2018/10/11 20:17:30","新北市三重區中正南路129巷22號","121.493226666667","25.05676","6500200","三重區"
"241033","AAC-255","2018/10/11 20:17:41","新北市三重區五谷王北街42巷2號","121.475585","25.0492316666667","6500200","三重區"
"235066","003-UY","2018/10/11 20:17:37","新北市中和區光華街69號","121.50659","25.0028316666667","6500300","中和區"
"235039","097-UM","2018/10/11 20:17:34","新北市中和區大勇街27巷8號","121.517061666667","24.9938116666667","6500300","中和區"
"235065","098-UM","2018/10/11 20:17:28","新北市中和區永和路124號","121.496593333333","25.0066266666667","6500300","中和區"
"235038","185-VK","2018/10/11 20:17:30","新北市新店區薏仁坑路自強巷1號","121.497748333333","24.957525","6500300","中和區"
"247012","KEA-2869","2018/10/11 20:17:28","新北市蘆洲區中興街15巷8號","121.48055","25.0873266666667","6501400","蘆洲區"
"235050","4979-A6","2018/10/11 20:17:34","新北市中和區景平路404號","121.509051666667","24.9932033333333","6500300","中和區"
"235069","4980-A6","2018/10/11 20:17:39","新北市中和區圓通路123號","121.499151666667","24.9960783333333","6500300","中和區"
"235070","558-UM","2018/10/11 20:17:29","新北市土城區大暖路41號","121.424751666667","24.959065","6500300","中和區"
"235054","640-BX","2018/10/11 20:17:30","新北市土城區忠承路29巷12號","121.441775","24.96663","6500300","中和區"
"235051","157-BY","2018/10/11 20:17:31","新北市中和區捷運路48號","121.508096666667","24.99035","6500300","中和區"
"235037","AAC-213","2018/10/11 20:17:44","新北市中和區秀朗路三段103號","121.526503333333","24.994735","6500300","中和區"
"235059","AAC-215","2018/10/11 20:17:31","新北市中和區圓通路290-1號","121.49055","24.9894066666667","6500300","中和區"
"220068","013-TV","2018/10/11 20:17:40","新北市板橋區中山路二段337號","121.47953","25.0188566666667","6500100","板橋區"
"220065","072-UY","2018/10/11 20:17:26","新北市五股區中直路21號","121.421075","25.1120133333333","6500100","板橋區"
"247002","893-R6","2018/10/11 20:17:38","新北市蘆洲區長安街331巷34號","121.455933333333","25.0866616666667","6501400","蘆洲區"
"247016","546-UM","2018/10/11 20:17:28","新北市蘆洲區光華路162巷8弄3號","121.465253333333","25.0828366666667","6501400","蘆洲區"
"247024","500-BY","2018/10/11 20:17:30","新北市蘆洲區光榮路120巷8弄39號","121.464608333333","25.0879133333333","6501400","蘆洲區"
"247014","339-TH","2018/10/11 20:17:31","新北市蘆洲區中山二路130號","121.471851666667","25.0816183333333","6501400","蘆洲區"
"247006","337-TH","2018/10/11 20:17:40","新北市蘆洲區九芎街153巷15號","121.46579","25.0787","6501400","蘆洲區"
"247008","336-TH","2018/10/11 20:17:35","新北市蘆洲區集賢路300號","121.481573333333","25.085015","6501400","蘆洲區"
"247020","057-VK","2018/10/11 20:17:33","新北市蘆洲區仁愛街20號","121.472265","25.0927816666667","6501400","蘆洲區"
"247010","056-VK","2018/10/11 20:17:41","新北市蘆洲區信義路188巷25弄1號","121.480298333333","25.084605","6501400","蘆洲區"
"247018","007-UY","2018/10/11 20:17:30","新北市蘆洲區民族路402號","121.474796666667","25.0913766666667","6501400","蘆洲區"
"247004","002-UY","2018/10/11 20:17:30","新北市蘆洲區長安街220巷10號","121.458925","25.0847783333333","6501400","蘆洲區"
"247022","001-UY","2018/10/11 20:17:24","新北市蘆洲區中正路192巷2弄1號","121.467641666667","25.0884666666667","6501400","蘆洲區"
"222001","KEA-2212","2018/10/11 20:17:31","新北市深坑區北深路三段223號","121.600181666667","25.0039666666667","6501800","深坑區"
"251009","008-UM","2018/10/11 20:17:27","新北市淡水區中山路178號","121.441396666667","25.1743333333333","6501000","淡水區"
"251013","KEA-2871","2018/10/11 20:17:36","新北市淡水區奎柔山路752巷1號","121.472701666667","25.2054","6501000","淡水區"
"251016","179-VK","2018/10/11 20:17:35","新北市淡水區淡金路五段20號","121.453241666667","25.232415","6501000","淡水區"
"251015","180-VK","2018/10/11 20:17:25","新北市淡水區淡金路三段446號","121.45069","25.21431","6501000","淡水區"
"251008","181-VK","2018/10/11 20:17:27","新北市淡水區淡海路150巷6號","121.422073333333","25.1839366666667","6501000","淡水區"
"251010","413-VK","2018/10/11 20:17:37","新北市淡水區新民街一段134號","121.427638333333","25.1889183333333","6501000","淡水區"
"251012","441-VK","2018/10/11 20:17:41","新北市淡水區下圭柔山431-1號","121.4498","25.2102316666667","6501000","淡水區"
"251004","443-VK","2018/10/11 20:17:29","新北市淡水區民權路119號","121.460226666667","25.1369133333333","6501000","淡水區"
"251001","559-UM","2018/10/11 20:17:36","新北市淡水區新市二路四段265號","121.445925","25.1924933333333","6501000","淡水區"
"251006","561-UM","2018/10/11 20:17:37","新北市淡水區北新路169巷61號","121.448395","25.1806533333333","6501000","淡水區"
"251011","650-BX","2018/10/11 20:17:25","新北市淡水區下圭柔山90-8號","121.431266666667","25.2101766666667","6501000","淡水區"
"251002","672-BX","2018/10/11 20:17:34","新北市淡水區中正路232號","121.43898","25.1708916666667","6501000","淡水區"
"251003","766-UM","2018/10/11 20:17:35","新北市淡水區中山北路一段229號","121.44445","25.1795233333333","6501000","淡水區"
"207004","225-TW","2018/10/11 20:17:28","新北市萬里區北基里仁七街2號","121.681191666667","25.1749966666667","6502800","萬里區"
"252002","178-VK","2018/10/11 20:17:37","新北市三芝區中正路一段23號","121.502958333333","25.2586083333333","6502100","三芝區"
"252001","292-VK","2018/10/11 20:17:37","新北市三芝區中山路一段31號","121.500625","25.2580466666667","6502100","三芝區"
"237008","302-VK","2018/10/11 20:17:41","新北市三峽區中正路一段174巷9號","121.371885","24.928905","6500900","三峽區"
"237006","5529-G3","2018/10/11 20:17:26","新北市三峽區中正路二段245號","121.365956666667","24.912405","6500900","三峽區"
"237011","KEA-2596","2018/10/11 20:17:39","新北市樹林區柑園街二段276巷12弄15號","121.374305","24.9536383333333","6500900","三峽區"
"237016","649-BX","2018/10/11 20:17:27","新北市三峽區介壽路二段138巷47號","121.395346666667","24.9332866666667","6500900","三峽區"
"236070","105-UM","2018/10/11 20:17:34","新北市土城區中山路36號","121.425206666667","24.9641266666667","6501300","土城區"
"236078","166-UM","2018/10/11 20:17:38","新北市土城區福安街2號","121.420403333333","24.9653233333333","6501300","土城區"
"236030","253-BX","2018/10/11 20:17:25","新北市土城區中央路一段45巷11號","121.449058333333","24.9900283333333","6501300","土城區"
"236026","269-VK","2018/10/11 20:17:24","新北市土城區裕生路71號","121.447053333333","24.9847116666667","6501300","土城區"
"236014","270-VK","2018/10/11 20:17:41","新北市土城區廣明街92號","121.454813333333","24.9943033333333","6501300","土城區"
"236059","912-UM","2018/10/11 20:17:40","新北市土城區中央路三段142號","121.432998333333","24.965515","6501300","土城區"
"242036","AAC-296","2018/10/11 20:10:10","新北市新莊區建安街9巷16號","121.429626666667","25.0267066666667","6500500","新莊區"
"242058","986-R7","2018/10/11 20:17:31","新北市新莊區八德街169號","121.423326666667","25.01907","6500500","新莊區"
"242056","751-BX","2018/10/11 20:17:35","新北市新莊區豐年街20巷13號","121.445846666667","25.0323933333333","6500500","新莊區"
"242029","705-TV","2018/10/11 20:17:42","新北市新莊區中原路249號","121.448986666667","25.0546833333333","6500500","新莊區"
"242027","615-BX","2018/10/11 20:17:36","新北市新莊區幸福路563號","121.454275","25.0492966666667","6500500","新莊區"
"242025","613-BX","2018/10/11 20:17:40","新北市新莊區五工二路70巷2號","121.460311666667","25.0658483333333","6500500","新莊區"
"242044","566-BX","2018/10/11 20:17:37","新北市新莊區中正路895號","121.412373333333","25.0220766666667","6500500","新莊區"
"242048","497-BY","2018/10/11 20:17:27","新北市新莊區龍安路214號","121.420091666667","25.0198616666667","6500500","新莊區"
"242015","442-UM","2018/10/11 20:17:34","新北市新莊區中和街31巷22號","121.447208333333","25.0438666666667","6500500","新莊區"
"242053","441-UM","2018/10/11 20:17:42","新北市新莊區民安西路245巷10弄13號","121.426901666667","25.0131066666667","6500500","新莊區"
"242009","413-TV","2018/10/11 20:17:29","新北市新莊區昌盛街52號","121.454956666667","25.0499116666667","6500500","新莊區"
"242046","400-BY","2018/10/11 20:17:28","新北市新莊區中正路新生巷50號","121.417333333333","25.0233266666667","6500500","新莊區"
"242023","362-BY","2018/10/11 20:17:41","新北市新莊區化成路758號","121.465366666667","25.0585083333333","6500500","新莊區"
"242061","353-BY","2018/10/11 20:17:33","新北市新莊區瓊林路206-6號","121.435491666667","25.02219","6500500","新莊區"
"242011","132-UY","2018/10/11 20:17:41","新北市新莊區中信街37巷2弄2號","121.450276666667","25.0505666666667","6500500","新莊區"
"242042","133-UY","2018/10/11 20:17:31","新北市新莊區壽山路45號","121.414863333333","25.0309966666667","6500500","新莊區"
"242034","135-UY","2018/10/11 20:17:39","新北市新莊區建中街90巷3弄8號","121.446496666667","25.0371916666667","6500500","新莊區"
"242051","172-VK","2018/10/11 20:17:38","新北市新莊區民安西路212巷1弄9號","121.42569","25.0144983333333","6500500","新莊區"
"242013","173-VK","2018/10/11 20:17:30","新北市新莊區中信街63巷4弄2號","121.449018333333","25.0502816666667","6500500","新莊區"
"242019","175-VK","2018/10/11 20:17:45","新北市新莊區復興路二段181號","121.458955","25.0444833333333","6500500","新莊區"
"242007","176-VK","2018/10/11 20:17:39","新北市新莊區福壽街112巷24號","121.459278333333","25.050625","6500500","新莊區"
"242017","346-TH","2018/10/11 20:17:33","新北市新莊區中港一街114號","121.44871","25.0452466666667","6500500","新莊區"
"242002","347-TH","2018/10/11 20:17:29","新北市三重區重新路五段673號","121.466126666667","25.042555","6500500","新莊區"
"242031","348-TH","2018/10/11 20:17:27","新北市新莊區義豐街1號","121.440973333333","25.034515","6500500","新莊區"
"242004","349-TH","2018/10/11 20:17:28","新北市三重區中興北街60巷12號","121.4681","25.0518716666667","6500500","新莊區"
"242021","350-TH","2018/10/11 20:17:40","新北市新莊區新泰路285號","121.445616666667","25.0406116666667","6500500","新莊區"
"221008","489-VK","2018/10/11 20:17:37","台北市內湖區康樂街201巷2號","121.62136","25.0761816666667","6501100","汐止區"
"221036","130-UY","2018/10/11 20:17:40","新北市汐止區福安街59巷16號","121.664585","25.06389","6501100","汐止區"
"221015","131-UY","2018/10/11 20:17:26","新北市汐止區建成路160巷31號","121.661678333333","25.074015","6501100","汐止區"
"221010","269-BY","2018/10/11 20:17:38","新北市汐止區八連路二段337巷3號","121.629751666667","25.101305","6501100","汐止區"
"221012","278-VK","2018/10/11 20:17:35","新北市汐止區保新街133-1號","121.688093333333","25.0705166666667","6501100","汐止區"
"221023","279-VK","2018/10/11 20:17:40","新北市汐止區明峰街307號","121.625081666667","25.0675666666667","6501100","汐止區"
"221032","280-BY","2018/10/11 20:17:31","新北市汐止區民權街二段70號","121.619036666667","25.0482383333333","6501100","汐止區"
"221027","281-BY","2018/10/11 20:17:43","新北市汐止區大同路二段460號","121.659971666667","25.0677483333333","6501100","汐止區"
"221029","298-VK","2018/10/11 20:17:38","新北市汐止區樟樹一路99巷7弄1號","121.641196666667","25.0636033333333","6501100","汐止區"
"221021","299-VK","2018/10/11 20:17:27","新北市汐止區水源路一段262號","121.654066666667","25.0597083333333","6501100","汐止區"
"221031","353-TW","2018/10/11 20:17:29","新北市汐止區中興路150巷13號","121.632991666667","25.0650233333333","6501100","汐止區"
"221035","622-UM","2018/10/11 20:17:35","新北市汐止區長江街97號","121.658163333333","25.0727816666667","6501100","汐止區"
"221025","623-UM","2018/10/11 20:17:30","新北市汐止區水源路一段268號","121.65412","25.0587783333333","6501100","汐止區"
"221038","646-BX","2018/10/11 20:17:37","新北市汐止區忠孝東路468號","121.66626","25.0731633333333","6501100","汐止區"
"221033","647-BX","2018/10/11 20:17:30","新北市汐止區東勢街201巷129弄2號","121.633475","25.04283","6501100","汐止區"
"221002","707-TV","2018/10/11 20:17:37","新北市汐止區福德三路22號","121.637121666667","25.0693233333333","6501100","汐止區"
"221018","753-BX","2018/10/11 20:17:38","新北市汐止區茄興街20巷1弄1號","121.673571666667","25.067155","6501100","汐止區"
"220101","245-BX","2018/10/11 20:17:37","新北市板橋區雙十路二段167號","121.474113333333","25.0283016666667","6500100","板橋區"
"220071","283-VK","2018/10/11 20:17:34","新北市板橋區和平路153號","121.463403333333","24.9956683333333","6500100","板橋區"
"220083","286-VK","2018/10/11 20:17:40","新北市板橋區大觀路一段38巷156弄147號","121.443761666667","25.0089033333333","6500100","板橋區"
"220081","287-VK","2018/10/11 20:17:27","新北市板橋區僑中一街102巷7弄14號","121.446333333333","25.012925","6500100","板橋區"
"220061","293-UM","2018/10/11 20:17:39","新北市板橋區館前東路3號","121.459646666667","25.0074083333333","6500100","板橋區"
"242039","281-VK","2018/10/11 20:17:28","新北市新莊區成功街78-1號","121.424195","25.01892","6500500","新莊區"
"220092","307-R5","2018/10/11 20:17:42","新北市板橋區文化路一段35號","121.460425","25.01301","6500100","板橋區"
"220098","317-R6","2018/10/11 20:17:39","新北市板橋區新海路432號","121.458091666667","25.0276183333333","6500100","板橋區"
"220089","487-VK","2018/10/11 20:17:37","新北市板橋區四維路163號","121.464768333333","25.0259183333333","6500100","板橋區"
"220103","561-BX","2018/10/11 20:17:27","新北市板橋區陽明街239號","121.463008333333","25.0244983333333","6500100","板橋區"
"220102","KEA-2699","2018/10/11 20:17:37","新北市板橋區文化路一段383號","121.467223333333","25.0217166666667","6500100","板橋區"
"220097","AAC-210","2018/10/11 20:17:34","新北市板橋區建國街125號","121.4609","25.0176883333333","6500100","板橋區"
"220070","AAC-253","2018/10/11 20:17:38","新北市板橋區德興街16號","121.453401666667","24.994375","6500100","板橋區"
"235068","KEA-2873","2018/10/11 20:17:35","新北市中和區福祥路85巷2弄2號","121.498773333333","25.0057633333333","6500300","中和區"
