"lineid","car","time","location","longitude","latitude","cityid","cityname"
"234081","298-R6","2018/10/11 20:27:23","新北市永和區國中路146號","121.523108333333","25.0069966666667","6500400","永和區"
"234038","336-UY","2018/10/11 20:27:41","新北市永和區民樂街31巷8弄12號","121.528913333333","25.0012033333333","6500400","永和區"
"234064","337-UY","2018/10/11 20:27:35","新北市永和區中正路417號","121.517176666667","25.00475","6500400","永和區"
"234086","338-UY","2018/10/11 20:27:39","新北市永和區中正路615號","121.5161","25.0098516666667","6500400","永和區"
"234070","552-UM","2018/10/11 20:27:35","新北市永和區永亨路7號","121.519423333333","25.0057183333333","6500400","永和區"
"234030","746-BX","2018/10/11 20:27:33","新北市永和區民有街67巷8弄4號","121.51816","24.9961833333333","6500400","永和區"
"234054","KEA-2590","2018/10/11 20:27:20","新北市永和區光復街60巷20弄2號","121.517731666667","25.0175066666667","6500400","永和區"
"234013","KEA-2591","2018/10/11 20:27:27","新北市永和區仁愛路282巷16號","121.503078333333","25.00883","6500400","永和區"
"234061","AAD-866","2018/10/11 20:27:40","新北市永和區安樂路194巷19號","121.515858333333","25.00104","6500400","永和區"
"234042","862-TW","2018/10/11 20:27:30","新北市永和區安樂路248號","121.514705","25.0032816666667","6500400","永和區"
"234050","863-TW","2018/10/11 20:27:32","新北市永和區文化路224號","121.509875","25.0168866666667","6500400","永和區"
"249001","173-UM","2018/10/11 20:27:38","新北市八里區商港路46號","121.396241666667","25.14515","6502300","八里區"
"249004","303-UY","2018/10/11 20:27:30","新北市八里區中山路一段129巷19-1號","121.413975","25.1586233333333","6502300","八里區"
"249002","305-UY","2018/10/11 20:27:28","新北市八里區龍米路二段80號","121.447511666667","25.1426133333333","6502300","八里區"
"249003","593-UM","2018/10/11 20:27:44","新北市八里區華峰一街27-1號","121.399238333333","25.146665","6502300","八里區"
"248002","678-BX","2018/10/11 20:27:30","新北市五股區成泰路三段17-1號","121.441706666667","25.088095","6501500","五股區"
"234023","9380-KE","2018/10/11 20:27:32","新北市永和區博愛街32巷12號","121.518798333333","25.0152633333333","6500400","永和區"
"234074","AAC-211","2018/10/11 20:27:25","新北市永和區竹林路179巷38號","121.522138333333","25.010205","6500400","永和區"
"234067","AAC-212","2018/10/11 20:27:42","新北市永和區保平路292巷46弄25號","121.507066666667","25.0063","6500400","永和區"
"234003","AAC-295","2018/10/11 20:27:41","新北市永和區大新街68號","121.516473333333","25.0082416666667","6500400","永和區"
"243013","AAD-798","2018/10/11 20:27:39","新北市泰山區貴子路9-1號","121.425436666667","25.0420533333333","6501600","泰山區"
"243009","297-R6","2018/10/11 20:27:33","新北市泰山區憲訓路36號","121.429081666667","25.06495","6501600","泰山區"
"243016","KEA-2801","2018/10/11 20:27:42","新北市泰山區明志路二段315號","121.426466666667","25.0462533333333","6501600","泰山區"
"243015","421-VK","2018/10/11 20:27:25","新北市泰山區泰林路二段108號","121.434713333333","25.0591116666667","6501600","泰山區"
"243011","KEA-2215","2018/10/11 20:27:37","新北市泰山區中山路二段678號","121.426986666667","25.0370283333333","6501600","泰山區"
"243010","KEA-2216","2018/10/11 20:27:43","新北市泰山區新生路33號","121.427576666667","25.0452883333333","6501600","泰山區"
"243012","646-TV","2018/10/11 20:27:26","新北市泰山區楓江路8號","121.433498333333","25.0624783333333","6501600","泰山區"
"243014","680-BX","2018/10/11 20:27:04","新北市泰山區泰林路二段2-2號","121.419471666667","25.0651416666667","6501600","泰山區"
"222003","436-BY","2018/10/11 20:27:44","新北市深坑區深坑街37號","121.615756666667","25.00217","6501800","深坑區"
"222002","659-BX","2018/10/11 20:26:12","新北市深坑區萬福路16巷26號","121.607688333333","25.0083433333333","6501800","深坑區"
"231059","001-UM","2018/10/11 20:27:37","新北市新店區安德街153號","121.508308333333","24.95971","6500600","新店區"
"231041","002-UM","2018/10/11 20:27:39","新北市新店區中正路501-2號","121.533591666667","24.9837116666667","6500600","新店區"
"231040","047-UY","2018/10/11 20:27:40","新北市新店區三民路157-1號","121.533916666667","24.9736866666667","6500600","新店區"
"231044","106-UY","2018/10/11 20:27:41","新北市新店區建國路149號","121.538818333333","24.9787316666667","6500600","新店區"
"231047","187-VK","2018/10/11 20:27:29","新北市新店區寶慶街58巷21-1號","121.542021666667","24.98733","6500600","新店區"
"231062","188-VK","2018/10/11 20:27:30","新北市新店區安泰路7巷16號","121.485681666667","24.9509866666667","6500600","新店區"
"231052","189-VK","2018/10/11 20:27:24","新北市新店區松林路38號","121.54628","24.91023","6500600","新店區"
"231054","KEA-2219","2018/10/11 20:27:32","新北市新店區檳榔路109號","121.544556666667","24.9616","6500600","新店區"
"231057","256-BX","2018/10/11 20:27:31","新北市新店區花園五路二段3號","121.553566666667","24.934175","6500600","新店區"
"231042","268-BY","2018/10/11 20:27:31","新北市新店區中興路二段231-2號","121.547708333333","24.97494","6500600","新店區"
"231051","278-BY","2018/10/11 20:27:26","新北市新店區中央七街62號","121.527893333333","24.9762183333333","6500600","新店區"
"231061","355-BY","2018/10/11 20:27:33","新北市新店區安和路三段50號","121.518098333333","24.9822266666667","6500600","新店區"
"231058","3713-VJ","2018/10/11 20:27:41","新北市新店區自由街42號","121.534688333333","24.9740383333333","6500600","新店區"
"231066","4716-K9","2018/10/11 20:27:37","新北市新店區安興路105-1號","121.514678333333","24.97773","6500600","新店區"
"231056","4715-K9","2018/10/11 20:27:40","新北市新店區民生路75巷225-2號","121.533233333333","24.981","6500600","新店區"
"231067","4772-VM","2018/10/11 20:27:28","新北市新店區安華路28-1號","121.519756666667","24.9607616666667","6500600","新店區"
"231065","512-UM","2018/10/11 20:27:31","新北市新店區安祥路102巷30弄25號","121.48484","24.9632483333333","6500600","新店區"
"231049","513-UM","2018/10/11 20:27:23","新北市新店區華潭街31號","121.53007","24.9548933333333","6500600","新店區"
"231063","616-UM","2018/10/11 20:27:29","新北市新店區安康路二段337-1號","121.498076666667","24.9557383333333","6500600","新店區"
"231045","617-UM","2018/10/11 20:27:31","新北市新店區新坡一街46號","121.549426666667","24.962695","6500600","新店區"
"231064","719-UM","2018/10/11 20:27:37","新北市新店區新和街34號","121.519133333333","24.9847616666667","6500600","新店區"
"231068","719-UY","2018/10/11 20:27:39","新北市新店區民權路13號","121.542401666667","24.982775","6500600","新店區"
"231060","897-TW","2018/10/11 20:27:32","新北市新店區錦秀路53號","121.479105","24.9433933333333","6500600","新店區"
"231043","899-TW","2018/10/11 20:27:41","新北市新店區民族路33號","121.540861666667","24.9787233333333","6500600","新店區"
"231055","AKT-0513","2018/10/11 20:27:39","新北市新店區薏仁坑路自強巷6號","121.496568333333","24.958455","6500600","新店區"
"241011","013-R5","2018/10/11 20:27:45","新北市三重區龍門路104號","121.497575","25.0728266666667","6500200","三重區"
"241028","022-UY","2018/10/11 20:27:32","新北市三重區大同南路87-2號","121.496086666667","25.0590433333333","6500200","三重區"
"241008","059-VK","2018/10/11 20:27:42","新北市三重區下竹圍街91號","121.481095","25.0748516666667","6500200","三重區"
"241022","060-VK","2018/10/11 20:27:27","新北市三重區民生街61巷18弄6號","121.487675","25.062895","6500200","三重區"
"241031","061-VK","2018/10/11 20:27:35","新北市三重區三寧街22號","121.489508333333","25.0598916666667","6500200","三重區"
"241015","062-VK","2018/10/11 20:27:35","新北市三重區信義西街4號","121.499041666667","25.0647383333333","6500200","三重區"
"241017","063-VK","2018/10/11 20:27:40","新北市三重區自強路一段290號","121.491471666667","25.0682416666667","6500200","三重區"
"241026","066-VK","2018/10/11 20:27:34","新北市三重區福德南路38號","121.502878333333","25.06264","6500200","三重區"
"241002","090-VK","2018/10/11 20:27:35","新北市三重區仁義街211巷45號","121.498006666667","25.082535","6500200","三重區"
"241003","091-VK","2018/10/11 20:27:39","新北市三重區富華街107號","121.492271666667","25.0842883333333","6500200","三重區"
"251014","742-BX","2018/10/11 20:27:29","新北市淡水區石頭厝8-4號","121.460276666667","25.2378116666667","6501000","淡水區"
"241005","262-UM","2018/10/11 20:27:35","新北市三重區分子尾街111號","121.488625","25.082985","6500200","三重區"
"241009","265-UM","2018/10/11 20:27:34","新北市三重區永福街60號","121.481045","25.0778816666667","6500200","三重區"
"241016","266-UM","2018/10/11 20:27:33","新北市三重區信義西街90號","121.496615","25.0643816666667","6500200","三重區"
"241018","268-UM","2018/10/11 20:27:44","新北市三重區自強路一段155-1號","121.493703333333","25.0672666666667","6500200","三重區"
"241032","269-UM","2018/10/11 20:27:40","新北市三重區重陽路一段120巷48號","121.485008333333","25.0601883333333","6500200","三重區"
"241013","270-UM","2018/10/11 20:27:42","新北市三重區溪尾街5巷44號","121.49297","25.0748233333333","6500200","三重區"
"241025","271-UM","2018/10/11 20:27:37","新北市三重區頂崁街210巷27號","121.475765","25.068215","6500200","三重區"
"241007","398-BY","2018/10/11 20:27:36","新北市三重區自強路四段60號","121.489896666667","25.078315","6500200","三重區"
"241035","KEA-2210","2018/10/11 20:27:39","新北市三重區重新路二段34號","121.499003333333","25.06252","6500200","三重區"
"241004","475-VK","2018/10/11 20:27:28","新北市三重區慈愛街179號","121.490041666667","25.0803083333333","6500200","三重區"
"241020","478-VK","2018/10/11 20:27:34","新北市三重區三和路三段170巷8弄22號","121.492691666667","25.0724316666667","6500200","三重區"
"241030","480-VK","2018/10/11 20:27:31","新北市三重區成功路62號","121.488605","25.05092","6500200","三重區"
"241014","543-UM","2018/10/11 20:27:28","新北市三重區龍濱路64號","121.502456666667","25.0692566666667","6500200","三重區"
"241023","545-UM","2018/10/11 20:27:27","新北市三重區自由街16號","121.479836666667","25.06647","6500200","三重區"
"241001","547-UM","2018/10/11 20:27:36","新北市三重區自強路四段45-1號","121.48985","25.0778316666667","6500200","三重區"
"241019","KEA-2593","2018/10/11 20:27:39","新北市三重區重陽路四段77號","121.492518333333","25.07101","6500200","三重區"
"241006","AAD-863","2018/10/11 20:27:39","新北市三重區車路頭街139巷14號","121.48428","25.0762383333333","6500200","三重區"
"241024","887-TS","2018/10/11 20:27:33","新北市三重區忠孝路三段15巷28號","121.480395","25.0678133333333","6500200","三重區"
"241012","941-UM","2018/10/11 20:27:42","新北市三重區龍濱路198號","121.500755","25.0735083333333","6500200","三重區"
"241029","942-UM","2018/10/11 20:27:30","新北市三重區集美街225號","121.492033333333","25.05511","6500200","三重區"
"241033","AAC-255","2018/10/11 20:27:41","新北市三重區五谷王北街137號","121.476158333333","25.052035","6500200","三重區"
"235066","003-UY","2018/10/11 20:27:37","新北市中和區保平路362巷13號","121.505781666667","25.0039566666667","6500300","中和區"
"235065","098-UM","2018/10/11 20:27:28","新北市中和區福美路314號","121.496741666667","25.00485","6500300","中和區"
"235038","185-VK","2018/10/11 20:27:30","新北市新店區安忠路57巷13號","121.513586666667","24.95726","6500300","中和區"
"247012","KEA-2869","2018/10/11 20:27:25","新北市蘆洲區民族路193號","121.47853","25.0890216666667","6501400","蘆洲區"
"235050","4979-A6","2018/10/11 20:27:39","新北市中和區景安路82巷8弄3號","121.504851666667","24.9965333333333","6500300","中和區"
"235069","4980-A6","2018/10/11 20:27:39","新北市中和區中正路432巷20號","121.491003333333","24.995285","6500300","中和區"
"235059","AAC-215","2018/10/11 20:27:31","新北市中和區員山路7-3號","121.482751666667","24.9851916666667","6500300","中和區"
"220065","072-UY","2018/10/11 20:27:26","新北市林口區太平里180號","121.3684","25.1344883333333","6500100","板橋區"
"247002","893-R6","2018/10/11 20:27:38","新北市蘆洲區長安街347巷32號","121.455408333333","25.0870566666667","6501400","蘆洲區"
"247016","546-UM","2018/10/11 20:27:28","新北市蘆洲區光華路121號","121.466648333333","25.082425","6501400","蘆洲區"
"247024","500-BY","2018/10/11 20:27:30","新北市蘆洲區長樂路1號","121.464333333333","25.08421","6501400","蘆洲區"
"247014","339-TH","2018/10/11 20:27:31","新北市蘆洲區和平路78號","121.469663333333","25.0791083333333","6501400","蘆洲區"
"247006","337-TH","2018/10/11 20:27:40","新北市蘆洲區和平路121巷14弄24號","121.466446666667","25.0800616666667","6501400","蘆洲區"
"247008","336-TH","2018/10/11 20:27:36","新北市蘆洲區永安北路二段76巷1-1號","121.483625","25.08474","6501400","蘆洲區"
"247020","057-VK","2018/10/11 20:27:33","新北市蘆洲區仁愛街72號","121.471083333333","25.0940766666667","6501400","蘆洲區"
"247010","056-VK","2018/10/11 20:27:40","新北市蘆洲區集賢路300號","121.481616666667","25.085145","6501400","蘆洲區"
"247018","007-UY","2018/10/11 20:27:32","新北市蘆洲區民族路257巷2號","121.476436666667","25.0906","6501400","蘆洲區"
"247004","002-UY","2018/10/11 20:27:43","新北市蘆洲區長安街299巷25號","121.45687","25.0845516666667","6501400","蘆洲區"
"247022","001-UY","2018/10/11 20:27:24","新北市蘆洲區中正路357號","121.464963333333","25.09015","6501400","蘆洲區"
"222001","KEA-2212","2018/10/11 20:27:31","新北市深坑區北深路三段329號","121.597265","25.0050066666667","6501800","深坑區"
"251013","KEA-2871","2018/10/11 20:27:36","新北市淡水區奎柔山路451號","121.465465","25.2050333333333","6501000","淡水區"
"251016","179-VK","2018/10/11 20:27:35","新北市淡水區新埔子11-7號","121.447431666667","25.2284916666667","6501000","淡水區"
"251015","180-VK","2018/10/11 20:27:25","新北市淡水區淡金路四段542巷17號","121.452701666667","25.22707","6501000","淡水區"
"251008","181-VK","2018/10/11 20:27:27","新北市淡水區淡海路206巷18號","121.421176666667","25.1856083333333","6501000","淡水區"
"251010","413-VK","2018/10/11 20:27:42","新北市淡水區沙崙路214號","121.424931666667","25.1841716666667","6501000","淡水區"
"251012","441-VK","2018/10/11 20:27:21","新北市淡水區頂田寮路141號","121.460875","25.2161866666667","6501000","淡水區"
"251001","559-UM","2018/10/11 20:27:36","新北市淡水區中山北路一段305號","121.444531666667","25.182915","6501000","淡水區"
"251006","561-UM","2018/10/11 20:27:37","新北市淡水區商工路356號","121.46841","25.1854083333333","6501000","淡水區"
"251011","650-BX","2018/10/11 20:27:24","新北市淡水區崁頂78-5號","121.429106666667","25.2075883333333","6501000","淡水區"
"251002","672-BX","2018/10/11 20:27:34","新北市淡水區中正路25號","121.442591666667","25.1696066666667","6501000","淡水區"
"251003","766-UM","2018/10/11 20:27:35","新北市淡水區新生街108巷2號","121.440123333333","25.1747133333333","6501000","淡水區"
"207004","225-TW","2018/10/11 20:27:28","新北市萬里區北基里孝一街9號","121.684323333333","25.1770166666667","6502800","萬里區"
"252002","178-VK","2018/10/11 20:27:37","新北市三芝區淡金路二段47-2號","121.503685","25.2605633333333","6502100","三芝區"
"252001","292-VK","2018/10/11 20:27:37","新北市三芝區中山路一段31號","121.500601666667","25.258025","6502100","三芝區"
"237011","KEA-2596","2018/10/11 20:27:39","新北市三峽區中山路459巷92號","121.35457","24.9360466666667","6500900","三峽區"
"236014","270-VK","2018/10/11 20:27:41","新北市土城區廣明街66號","121.455076666667","24.9936516666667","6501300","土城區"
"242036","AAC-296","2018/10/11 20:10:10","新北市新莊區建安街9巷16號","121.429626666667","25.0267066666667","6500500","新莊區"
"242058","986-R7","2018/10/11 20:27:31","新北市新莊區四維路219號","121.421566666667","25.0198516666667","6500500","新莊區"
"242056","751-BX","2018/10/11 20:27:35","新北市新莊區瓊泰路140號","121.443223333333","25.0320233333333","6500500","新莊區"
"242029","705-TV","2018/10/11 20:27:42","新北市新莊區中華路二段149號","121.452945","25.05135","6500500","新莊區"
"242027","615-BX","2018/10/11 20:27:36","新北市新莊區幸福路2號","121.459565","25.049525","6500500","新莊區"
"242025","613-BX","2018/10/11 20:27:46","新北市新莊區五工二路57號","121.460578333333","25.0654683333333","6500500","新莊區"
"242044","566-BX","2018/10/11 20:27:37","新北市新莊區中正路新建巷55號","121.414776666667","25.0213933333333","6500500","新莊區"
"242048","497-BY","2018/10/11 20:27:27","新北市新莊區富國路86號","121.420283333333","25.0255883333333","6500500","新莊區"
"242015","442-UM","2018/10/11 20:27:34","新北市新莊區中平路46巷11號","121.445358333333","25.0438533333333","6500500","新莊區"
"242053","441-UM","2018/10/11 20:27:27","新北市新莊區民安西路229巷9號","121.426626666667","25.0142016666667","6500500","新莊區"
"242009","413-TV","2018/10/11 20:27:29","新北市新莊區幸福路64巷3弄8號","121.45678","25.0499916666667","6500500","新莊區"
"242046","400-BY","2018/10/11 20:27:28","新北市新莊區裕民街72巷7號","121.418196666667","25.0241916666667","6500500","新莊區"
"242023","362-BY","2018/10/11 20:27:29","新北市新莊區化成路495-1號","121.46497","25.0633083333333","6500500","新莊區"
"242061","353-BY","2018/10/11 20:27:33","新北市新莊區民安路396巷18號","121.430933333333","25.0222716666667","6500500","新莊區"
"242011","132-UY","2018/10/11 20:27:41","新北市新莊區中義街5號","121.451423333333","25.051155","6500500","新莊區"
"242042","133-UY","2018/10/11 20:27:34","新北市新莊區中正路694巷34號","121.418133333333","25.0289266666667","6500500","新莊區"
"242034","135-UY","2018/10/11 20:27:39","新北市新莊區中正路327號","121.447698333333","25.0350783333333","6500500","新莊區"
"242051","172-VK","2018/10/11 20:27:38","新北市新莊區民安西路265號","121.426156666667","25.0129783333333","6500500","新莊區"
"242013","173-VK","2018/10/11 20:27:30","新北市新莊區中平路270巷7弄33號","121.446155","25.0509466666667","6500500","新莊區"
"242019","175-VK","2018/10/11 20:27:41","新北市新莊區銘德街49巷13號","121.45735","25.0429183333333","6500500","新莊區"
"242007","176-VK","2018/10/11 20:27:41","新北市新莊區思源路287巷1弄21號","121.459395","25.04747","6500500","新莊區"
"242017","346-TH","2018/10/11 20:27:24","新北市新莊區中港三街5號","121.451245","25.046525","6500500","新莊區"
"242002","347-TH","2018/10/11 20:27:29","新北市新莊區中正路147-2號","121.457715","25.0372933333333","6500500","新莊區"
"242031","348-TH","2018/10/11 20:27:26","新北市新莊區三和路60-22號","121.437875","25.0421116666667","6500500","新莊區"
"242004","349-TH","2018/10/11 20:27:45","新北市新莊區化成路403巷34號","121.46359","25.058705","6500500","新莊區"
"242021","350-TH","2018/10/11 20:27:40","新北市新莊區公園路10巷2號","121.447818333333","25.0387366666667","6500500","新莊區"
"221008","489-VK","2018/10/11 20:27:37","新北市汐止區康寧街137號","121.621183333333","25.066555","6501100","汐止區"
"221036","130-UY","2018/10/11 20:27:40","新北市汐止區新台五路二段126巷13弄1號","121.66369","25.065965","6501100","汐止區"
"221015","131-UY","2018/10/11 20:27:26","新北市汐止區建成路142巷19弄17號","121.661803333333","25.0738316666667","6501100","汐止區"
"221010","269-BY","2018/10/11 20:27:38","新北市汐止區八連路二段450號","121.628538333333","25.104515","6501100","汐止區"
"221012","278-VK","2018/10/11 20:27:35","新北市汐止區保新街6號","121.683801666667","25.0732883333333","6501100","汐止區"
"221023","279-VK","2018/10/11 20:27:20","新北市汐止區湖東街5巷22號","121.634608333333","25.0733166666667","6501100","汐止區"
"221032","280-BY","2018/10/11 20:27:31","新北市汐止區弘道街53巷12號","121.618718333333","25.0489583333333","6501100","汐止區"
"221027","281-BY","2018/10/11 20:27:27","新北市汐止區中正路239號","121.657736666667","25.06854","6501100","汐止區"
"221029","298-VK","2018/10/11 20:27:45","新北市汐止區樟樹二路106巷9-1號","121.640365","25.0646","6501100","汐止區"
"221021","299-VK","2018/10/11 20:27:41","新北市汐止區水源路一段284號","121.65421","25.0583366666667","6501100","汐止區"
"221031","353-TW","2018/10/11 20:27:29","新北市汐止區中興路110巷36號","121.634351666667","25.064665","6501100","汐止區"
"221035","622-UM","2018/10/11 20:27:35","新北市汐止區長江街101-5號","121.658625","25.0731416666667","6501100","汐止區"
"221025","623-UM","2018/10/11 20:27:30","新北市汐止區水源路二段78號","121.656201666667","25.0563783333333","6501100","汐止區"
"221038","646-BX","2018/10/11 20:27:37","新北市汐止區水源路一段56號","121.65757","25.0656066666667","6501100","汐止區"
"221033","647-BX","2018/10/11 20:27:30","新北市汐止區林森街124號","121.624641666667","25.0406083333333","6501100","汐止區"
"221002","707-TV","2018/10/11 20:27:37","新北市汐止區福德二路28號","121.63476","25.06767","6501100","汐止區"
"221018","753-BX","2018/10/11 20:27:38","新北市汐止區茄苳路242號","121.671308333333","25.0684716666667","6501100","汐止區"
"220083","286-VK","2018/10/11 20:27:40","新北市板橋區僑中二街104巷48號","121.444118333333","25.00831","6500100","板橋區"
"220061","293-UM","2018/10/11 20:27:39","新北市板橋區文華街28號","121.45719","25.0007633333333","6500100","板橋區"
"242039","281-VK","2018/10/11 20:27:44","新北市新莊區民安西路23號","121.427228333333","25.0211283333333","6500500","新莊區"
"220098","317-R6","2018/10/11 20:27:39","新北市五股區中興路三段2-3號","121.453071666667","25.07445","6500100","板橋區"
"220089","487-VK","2018/10/11 20:27:37","新北市板橋區四維路301號","121.463181666667","25.0284916666667","6500100","板橋區"
"220103","561-BX","2018/10/11 20:27:33","新北市板橋區漢生東路23巷56弄9號","121.466333333333","25.0181883333333","6500100","板橋區"
"220070","AAC-253","2018/10/11 20:27:38","新北市板橋區四川路二段245巷18號","121.451076666667","24.9929683333333","6500100","板橋區"
"235068","KEA-2873","2018/10/11 20:27:35","新北市中和區福美路253號","121.498775","25.005135","6500300","中和區"
