"lineid","car","time","location","longitude","latitude","cityid","cityname"
"232003","290-BY","2018/10/12 06:47:38","新北市坪林區九芎林14-1號","121.70723","24.9311416666667","6502000","坪林區"
"232015","291-BY","2018/10/12 06:47:42","新北市坪林區北宜路八段375號","121.708853333333","24.9322466666667","6502000","坪林區"
"232019","705-BZ","2018/10/12 06:47:41","新北市坪林區北宜路八段453號","121.70645","24.9235116666667","6502000","坪林區"
"232008","758-BX","2018/10/12 06:47:39","新北市坪林區鶯子瀨1-2號","121.708141666667","24.9181866666667","6502000","坪林區"
"223006","022-BY","2018/10/12 06:47:55","新北市石碇區碇坪路一段52號","121.65682","24.991765","6501900","石碇區"
"223002","KEA-2673","2018/10/12 06:47:50","新北市石碇區烏塗窟55號","121.654046666667","24.9720916666667","6501900","石碇區"
"223003","205-TH","2018/10/12 06:47:49","新北市石碇區湳窟41號","121.663386666667","24.9959066666667","6501900","石碇區"
"223008","406-TH","2018/10/12 06:47:48","新北市石碇區石崁1號","121.651743333333","25.00172","6501900","石碇區"
"223004","437-BY","2018/10/12 06:47:47","新北市石碇區小粗坑(潭邊里)2號","121.6694","24.982835","6501900","石碇區"
"223001","592-UM","2018/10/12 06:47:43","新北市石碇區湳窟37-1號","121.662623333333","24.9957366666667","6501900","石碇區"
"223007","661-BX","2018/10/12 06:47:47","新北市石碇區雙溪41號","121.651148333333","25.00753","6501900","石碇區"
"223005","677-TV","2018/10/12 06:47:39","新北市石碇區小粗坑(潭邊里)2號","121.670678333333","24.9829083333333","6501900","石碇區"
"227005","282-VK","2018/10/12 06:47:47","新北市雙溪區新基里自強路5號","121.866335","25.0390483333333","6502500","雙溪區"
