"lineid","car","time","location","longitude","latitude","cityid","cityname"
"248005","653-BX","2018/02/26 07:59:24","新北市五股區明德路12巷3號","121.433308333333","25.0717983333333","6501500","五股區"
"232001","290-BY","2018/02/26 07:59:29","新北市坪林區下坑子口12號","121.721163333333","24.9415433333333","6502000","坪林區"
"232012","291-BY","2018/02/26 07:59:20","新北市坪林區金瓜寮24號","121.677661666667","24.9090266666667","6502000","坪林區"
"232017","705-BZ","2018/02/26 07:59:12","新北市坪林區坪雙路二段115號","121.75307","24.966045","6502000","坪林區"
"232005","758-BX","2018/02/26 07:59:26","新北市坪林區九芎林34號","121.702315","24.9213283333333","6502000","坪林區"
"244001","248-BX","2018/02/26 07:59:33","新北市林口區嘉溪雅坑18號","121.33965","25.107755","6501700","林口區"
"244024","742-UY","2018/02/26 07:59:16","新北市林口區粉寮路二段160巷28號","121.405213333333","25.0907766666667","6501700","林口區"
"244010","701-TV","2018/02/26 07:59:25","新北市林口區粉寮路一段77-2號","121.39716","25.0794566666667","6501700","林口區"
"244022","837-TS","2018/02/26 07:59:28","新北市林口區粉寮路二段160巷28號","121.405166666667","25.0908033333333","6501700","林口區"
"244020","838-TS","2018/02/26 07:59:21","新北市林口區粉寮69號","121.404831666667","25.09086","6501700","林口區"
"222005","289-BY","2018/02/26 07:59:15","新北市深坑區文化街102號","121.616755","25.0018316666667","6501800","深坑區"
"231007","189-VK","2018/02/26 07:59:22","新北市新店區安康路一段75-1號","121.530071666667","24.9610883333333","6500600","新店區"
"231008","192-VK","2018/02/26 07:59:15","新北市新店區安華路28-1號","121.518973333333","24.96101","6500600","新店區"
"235001","611-BX","2018/02/26 07:59:13","新北市中和區圓通路367巷6號","121.491395","24.9892083333333","6500300","中和區"
"226005","5620-A6","2018/02/26 07:59:33","新北市平溪區石底里公園街18-3號","121.733473333333","25.0256133333333","6502400","平溪區"
"226001","7418-A5","2018/02/26 07:59:24","新北市平溪區靜安路三段375號","121.781223333333","25.0467116666667","6502400","平溪區"
"226003","AGD-0702","2018/02/26 07:59:34","新北市平溪區新寮里頂寮子4號","121.773701666667","25.05189","6502400","平溪區"
"223006","022-BY","2018/02/26 07:59:12","新北市石碇區靜安路一段239號","121.684273333333","25.0091183333333","6501900","石碇區"
"223001","205-TH","2018/02/26 07:59:21","新北市石碇區月扇湖1號","121.656016666667","24.9544133333333","6501900","石碇區"
"223008","406-TH","2018/02/26 07:59:22","新北市石碇區大溪墘6號","121.697961666667","25.007275","6501900","石碇區"
"223001","592-UM","2018/02/26 07:59:30","新北市石碇區小粗坑(格頭里)1號","121.65506","24.95448","6501900","石碇區"
"223004","660-BX","2018/02/26 07:59:21","新北市石碇區楓子林61號","121.644783333333","25.0109433333333","6501900","石碇區"
"223007","661-BX","2018/02/26 07:59:28","新北市石碇區靜安路一段325號","121.696925","25.0065633333333","6501900","石碇區"
"223005","677-TV","2018/02/26 07:59:26","新北市石碇區雙溪33-7號","121.650183333333","25.0081183333333","6501900","石碇區"
"227005","282-VK","2018/02/26 07:59:13","新北市雙溪區平林里梅竹蹊16號","121.862055","25.0359133333333","6502500","雙溪區"
"252006","073-UM","2018/02/26 07:59:14","新北市三芝區後厝里芝麻三街2號","121.474853333333","25.2452","6502100","三芝區"
"252004","249-BX","2018/02/26 07:59:15","新北市三芝區店子里店子72-3號","121.508995","25.2020566666667","6502100","三芝區"
"237001","159-UY","2018/02/26 07:59:27","新北市三峽區三樹路112號","121.378123333333","24.939275","6500900","三峽區"
"236007","165-UM","2018/02/26 07:59:17","新北市土城區青雲路316號","121.458933333333","24.978385","6501300","土城區"
"236001","339-SR","2018/02/26 07:59:15","新北市土城區龍泉路155號","121.449516666667","24.9448466666667","6501300","土城區"
"242028","986-R7","2018/02/26 07:59:17","新北市新莊區復興路二段176號","121.458771666667","25.0442633333333","6500500","新莊區"
"242049","751-BX","2018/02/26 07:59:33","新北市新莊區新樹路447號","121.432701666667","25.0134816666667","6500500","新莊區"
"242024","615-BX","2018/02/26 07:59:17","新北市新莊區中港路278號","121.453045","25.04404","6500500","新莊區"
"242022","613-BX","2018/02/26 07:59:27","新北市新莊區公園路154號","121.453256666667","25.0401083333333","6500500","新莊區"
"242026","612-BX","2018/02/26 07:59:15","新北市新莊區思源路32號","121.460253333333","25.0410666666667","6500500","新莊區"
"242038","566-BX","2018/02/26 07:59:18","新北市新莊區民安路272號","121.427613333333","25.0214083333333","6500500","新莊區"
"242043","497-BY","2018/02/26 07:59:32","新北市新莊區富國路58號","121.419053333333","25.026095","6500500","新莊區"
"242047","441-UM","2018/02/26 07:59:32","新北市新莊區四維路210號","121.421303333333","25.0201266666667","6500500","新莊區"
"242052","440-UM","2018/02/26 07:59:17","新北市新莊區瓊林南路305巷23號","121.435343333333","25.005115","6500500","新莊區"
"242033","415-TV","2018/02/26 07:59:21","新北市新莊區新莊路457號","121.44954","25.03343","6500500","新莊區"
"242003","413-TV","2018/02/26 07:59:19","新北市新莊區中港路293號","121.452908333333","25.04416","6500500","新莊區"
"242040","400-BY","2018/02/26 07:59:21","新北市新莊區新樹路115號","121.437411666667","25.0266416666667","6500500","新莊區"
"242059","362-BY","2018/02/26 07:59:16","新北市新莊區瓊林南路12-2號","121.436265","25.0189433333333","6500500","新莊區"
"242057","353-BY","2018/02/26 07:59:20","新北市新莊區中正路530號","121.431006666667","25.031625","6500500","新莊區"
"242006","132-UY","2018/02/26 07:59:19","新北市新莊區自信街52號","121.455043333333","25.0481883333333","6500500","新莊區"
"242035","133-UY","2018/02/26 07:59:14","新北市新莊區建國二路5-3號","121.434853333333","25.02368","6500500","新莊區"
"242020","135-UY","2018/02/26 07:59:31","新北市新莊區中華路一段18號","121.452081666667","25.0371533333333","6500500","新莊區"
"242045","172-VK","2018/02/26 07:59:24","新北市新莊區新樹路65-6號","121.439525","25.0307283333333","6500500","新莊區"
"242014","175-VK","2018/02/26 07:59:24","新北市新莊區新泰路225號","121.446393333333","25.0391533333333","6500500","新莊區"
"242001","176-VK","2018/02/26 07:59:30","新北市新莊區新莊路154號","121.455246666667","25.035425","6500500","新莊區"
"242012","346-TH","2018/02/26 07:59:19","新北市新莊區中誠街16巷1號","121.451663333333","25.0484283333333","6500500","新莊區"
"242055","347-TH","2018/02/26 07:59:30","新北市新莊區新泰路33號","121.44956","25.0330583333333","6500500","新莊區"
"242018","348-TH","2018/02/26 07:59:29","新北市新莊區中港路72號","121.45547","25.038945","6500500","新莊區"
"242016","350-TH","2018/02/26 07:59:20","新北市新莊區復興路一段189號","121.451715","25.0436733333333","6500500","新莊區"
"242010","351-TH","2018/02/26 07:59:23","新北市新莊區中港路408號","121.452231666667","25.0501033333333","6500500","新莊區"
"239006","661-UM","2018/02/26 07:59:17","新北市鶯歌區文化路55號","121.359138333333","24.9553216666667","6500800","鶯歌區"
"220064","282-UM","2018/02/26 07:59:12","新北市板橋區大觀路二段153巷46弄11-7號","121.449093333333","24.99746","6500100","板橋區"
"242030","280-VK","2018/02/26 07:59:25","新北市新莊區新泰路401巷29-1號","121.442403333333","25.0437983333333","6500500","新莊區"
