"lineid","car","time","location","longitude","latitude","cityid","cityname"
"248005","653-BX","2018/02/26 08:58:59","新北市五股區明德路12巷3號","121.433295","25.0718083333333","6501500","五股區"
"232001","290-BY","2018/02/26 08:59:29","新北市坪林區九芎坑15號","121.738633333333","24.94927","6502000","坪林區"
"232012","291-BY","2018/02/26 08:59:19","新北市坪林區北宜路七段338號","121.696888333333","24.9348783333333","6502000","坪林區"
"244012","069-UM","2018/02/26 08:59:16","新北市林口區中山路248號","121.386505","25.0793216666667","6501700","林口區"
"244006","080-UY","2018/02/26 08:59:29","新北市林口區林口路84號","121.389061666667","25.0808316666667","6501700","林口區"
"244001","248-BX","2018/02/26 08:59:13","新北市林口區竹林路320巷2號","121.390625","25.08229","6501700","林口區"
"244018","402-UM","2018/02/26 08:59:16","新北市林口區文化一路一段124號","121.374943333333","25.0723183333333","6501700","林口區"
"244024","742-UY","2018/02/26 08:59:16","新北市林口區南勢街163號","121.35944","25.07502","6501700","林口區"
"244016","485-VK","2018/02/26 08:59:28","新北市林口區八德路78號","121.365585","25.0655216666667","6501700","林口區"
"244008","657-BX","2018/02/26 08:59:23","新北市林口區文林二街16號","121.376768333333","25.0888316666667","6501700","林口區"
"244010","701-TV","2018/02/26 08:59:25","新北市林口區新寮1-66號","121.39271","25.0767283333333","6501700","林口區"
"244022","837-TS","2018/02/26 08:59:28","新北市林口區東湖一街16號","121.384485","25.0721633333333","6501700","林口區"
"244020","838-TS","2018/02/26 08:59:20","新北市林口區粉寮路一段77-1號","121.397051666667","25.0791183333333","6501700","林口區"
"222005","289-BY","2018/02/26 08:59:15","新北市深坑區風格街31巷2號","121.627816666667","25.0167466666667","6501800","深坑區"
"231007","189-VK","2018/02/26 08:59:22","新北市新店區新潭路三段211號","121.505463333333","24.9044166666667","6500600","新店區"
"231008","192-VK","2018/02/26 08:59:16","新北市新店區廣興路5巷15號","121.545903333333","24.912755","6500600","新店區"
"235001","611-BX","2018/02/26 08:59:33","新北市中和區民德路173號","121.468656666667","24.9996166666667","6500300","中和區"
"226005","5620-A6","2018/02/26 08:59:13","新北市平溪區南山里南山坪5號","121.762213333333","25.033075","6502400","平溪區"
"226001","7418-A5","2018/02/26 08:52:04","新北市平溪區東勢里番仔坑16號","121.754385","24.9910933333333","6502400","平溪區"
"226003","AGD-0702","2018/02/26 08:59:14","新北市平溪區十分里十分街246號","121.777571666667","25.0444916666667","6502400","平溪區"
"223006","022-BY","2018/02/26 08:59:12","新北市石碇區溪邊寮1-1號","121.658501666667","24.97862","6501900","石碇區"
"223001","205-TH","2018/02/26 08:59:21","新北市石碇區北宜路六段十三股巷1號","121.649025","24.9489483333333","6501900","石碇區"
"223008","406-TH","2018/02/26 08:59:22","新北市石碇區光明路15號","121.680073333333","25.0337283333333","6501900","石碇區"
"223001","592-UM","2018/02/26 08:59:30","新北市石碇區北宜路五段65-1號","121.637413333333","24.9541666666667","6501900","石碇區"
"223004","660-BX","2018/02/26 08:59:21","新北市石碇區崩山51-2號","121.680855","24.96902","6501900","石碇區"
"223007","661-BX","2018/02/26 08:59:20","新北市石碇區碇南路二段10號","121.666555","25.0308766666667","6501900","石碇區"
"223005","677-TV","2018/02/26 08:59:27","新北市石碇區崩山42-2號","121.679993333333","24.96519","6501900","石碇區"
"227005","282-VK","2018/02/26 08:59:33","新北市雙溪區泰平里料角坑13-1號","121.816813333333","24.972985","6502500","雙溪區"
"252006","073-UM","2018/02/26 08:59:14","新北市三芝區古庄里四棧橋18號","121.489626666667","25.2603116666667","6502100","三芝區"
"252004","249-BX","2018/02/26 08:59:15","新北市三芝區興華里田心子32-2號","121.491131666667","25.1997133333333","6502100","三芝區"
"236007","165-UM","2018/02/26 08:59:17","新北市土城區大安路2號","121.43275","24.96555","6501300","土城區"
"236001","339-SR","2018/02/26 08:59:15","新北市土城區金城路一段40號","121.441973333333","24.9694266666667","6501300","土城區"
"236005","498-BY","2018/02/26 08:59:30","新北市土城區承天路8巷9號","121.436886666667","24.9640116666667","6501300","土城區"
"242028","986-R7","2018/02/26 08:59:17","新北市新莊區中原路512號","121.446431666667","25.0547533333333","6500500","新莊區"
"242049","751-BX","2018/02/26 08:59:34","新北市新莊區民安西路256號","121.425815","25.0134816666667","6500500","新莊區"
"242024","615-BX","2018/02/26 08:59:21","新北市新莊區五工三路70巷32號","121.460233333333","25.0659","6500500","新莊區"
"242022","613-BX","2018/02/26 08:59:27","新北市新莊區化成路752-6號","121.465501666667","25.058105","6500500","新莊區"
"242026","612-BX","2018/02/26 08:59:21","新北市新莊區立信三街7巷1號","121.444138333333","25.0503633333333","6500500","新莊區"
"242038","566-BX","2018/02/26 08:59:18","新北市新莊區民安西路90號","121.426995","25.0193116666667","6500500","新莊區"
"242043","497-BY","2018/02/26 08:59:32","新北市新莊區雙鳳路104-1號","121.41406","25.0280966666667","6500500","新莊區"
"242047","441-UM","2018/02/26 08:59:32","新北市新莊區富國路109巷3號","121.423728333333","25.0251783333333","6500500","新莊區"
"242052","440-UM","2018/02/26 08:59:17","新北市新莊區西盛街390號","121.427685","25.0128133333333","6500500","新莊區"
"242033","415-TV","2018/02/26 08:59:21","新北市新莊區建中街81巷8號","121.4473","25.03612","6500500","新莊區"
"242003","413-TV","2018/02/26 08:59:16","新北市新莊區化成路182號","121.465538333333","25.0458366666667","6500500","新莊區"
"242040","400-BY","2018/02/26 08:59:21","新北市新莊區青山路一段26號","121.410978333333","25.0274833333333","6500500","新莊區"
"242059","362-BY","2018/02/26 08:59:32","新北市新莊區瓊泰路1號","121.445088333333","25.0285433333333","6500500","新莊區"
"242057","353-BY","2018/02/26 08:59:20","新北市新莊區富國路154號","121.42323","25.0249033333333","6500500","新莊區"
"242006","132-UY","2018/02/26 08:59:21","新北市新莊區福壽街136巷37號","121.459258333333","25.05164","6500500","新莊區"
"242035","133-UY","2018/02/26 08:59:14","新北市新莊區建安街71巷19號","121.428205","25.0246616666667","6500500","新莊區"
"242020","135-UY","2018/02/26 08:59:30","新北市新莊區建中街50號","121.448501666667","25.037285","6500500","新莊區"
"242045","172-VK","2018/02/26 08:59:24","新北市新莊區裕民街37巷6弄1號","121.41941","25.02488","6500500","新莊區"
"242008","173-VK","2018/02/26 08:59:31","新北市新莊區昌隆街96號","121.456281666667","25.05078","6500500","新莊區"
"242014","175-VK","2018/02/26 08:59:29","新北市新莊區中和街31巷28號","121.446745","25.0441466666667","6500500","新莊區"
"242001","176-VK","2018/02/26 08:59:31","新北市新莊區化成路5-12號","121.46462","25.0423366666667","6500500","新莊區"
"242012","346-TH","2018/02/26 08:59:34","新北市新莊區中和街186巷6弄2號","121.44802","25.0497233333333","6500500","新莊區"
"242055","347-TH","2018/02/26 08:59:31","新北市新莊區新泰路87號","121.448778333333","25.034315","6500500","新莊區"
"242018","348-TH","2018/02/26 08:59:29","新北市新莊區民樂街66號","121.45798","25.0422366666667","6500500","新莊區"
"242016","350-TH","2018/02/26 08:59:14","新北市新莊區中港二街43號","121.450585","25.0458983333333","6500500","新莊區"
"242010","351-TH","2018/02/26 08:59:29","新北市新莊區中信街67巷2號","121.448786666667","25.05086","6500500","新莊區"
"239006","661-UM","2018/02/26 08:59:17","桃園市龜山區明興街300號","121.332458333333","24.9807066666667","6500800","鶯歌區"
"239008","527-UM","2018/02/26 08:44:21","新北市鶯歌區永和街69號","121.332956666667","24.9680033333333","6500800","鶯歌區"
"242030","280-VK","2018/02/26 08:59:12","新北市新莊區新泰路225巷22弄5號","121.444936666667","25.039255","6500500","新莊區"
