"lineid","car","time","location","longitude","latitude","cityid","cityname"
"248005","653-BX","2018/02/26 09:19:15","新北市五股區水碓一路18號","121.432278333333","25.0728783333333","6501500","五股區"
"244012","069-UM","2018/02/26 09:19:16","新北市林口區文化一路一段120號","121.374196666667","25.0720216666667","6501700","林口區"
"244006","080-UY","2018/02/26 09:19:30","新北市林口區竹林路462號","121.387725","25.0848633333333","6501700","林口區"
"244018","402-UM","2018/02/26 09:19:16","新北市林口區忠孝路616巷21號","121.377238333333","25.06752","6501700","林口區"
"244024","742-UY","2018/02/26 09:19:16","新北市林口區中山路11號","121.396245","25.0782183333333","6501700","林口區"
"244016","485-VK","2018/02/26 09:19:28","新北市林口區文化二路一段120巷5號","121.367881666667","25.0699733333333","6501700","林口區"
"244008","657-BX","2018/02/26 09:19:23","新北市林口區竹林路278巷17號","121.390915","25.0812166666667","6501700","林口區"
"244010","701-TV","2018/02/26 09:19:25","新北市林口區竹林路48號","121.387201666667","25.0777166666667","6501700","林口區"
"244022","837-TS","2018/02/26 09:19:27","新北市林口區仁愛路二段62巷14號","121.383993333333","25.0761283333333","6501700","林口區"
"222005","289-BY","2018/02/26 09:05:22","新北市深坑區土庫尖路75-1號","121.631175","25.018225","6501800","深坑區"
"231007","189-VK","2018/02/26 09:19:22","新北市新店區新潭路三段215巷25號","121.508131666667","24.9040983333333","6500600","新店區"
"231008","192-VK","2018/02/26 09:19:16","新北市新店區廣興路80號","121.538788333333","24.912735","6500600","新店區"
"235001","611-BX","2018/02/26 09:19:33","新北市中和區華福街3號","121.465313333333","24.9970483333333","6500300","中和區"
"226003","AGD-0702","2018/02/26 09:19:33","新北市平溪區嶺腳里嶺腳寮111號","121.746598333333","25.0342266666667","6502400","平溪區"
"223001","205-TH","2018/02/26 09:19:01","新北市石碇區北宜路四段26號","121.623125","24.957955","6501900","石碇區"
"223008","406-TH","2018/02/26 09:18:02","新北市石碇區光明路耳空龜巷18-3號","121.691763333333","25.0346866666667","6501900","石碇區"
"223001","592-UM","2018/02/26 09:19:30","新北市石碇區北宜路四段23號","121.62135","24.958015","6501900","石碇區"
"223004","660-BX","2018/02/26 09:19:21","新北市石碇區磨石坑24號","121.690031666667","24.9721266666667","6501900","石碇區"
"223007","661-BX","2018/02/26 09:12:20","新北市石碇區光明路17-2號","121.684683333333","25.0319616666667","6501900","石碇區"
"223005","677-TV","2018/02/26 09:19:27","新北市石碇區磨石坑28-1號","121.690793333333","24.969255","6501900","石碇區"
"227005","282-VK","2018/02/26 09:19:33","新北市雙溪區泰平里溪尾寮2號","121.819326666667","24.9659366666667","6502500","雙溪區"
"252004","249-BX","2018/02/26 09:19:15","新北市三芝區店子里店子57號","121.502703333333","25.205795","6502100","三芝區"
"252006","AAC-283","2018/02/26 09:19:30","新北市三芝區埔坪里埔頭坑41號","121.504573333333","25.2644766666667","6502100","三芝區"
"236001","339-SR","2018/02/26 09:19:15","新北市土城區中央路二段89號","121.442408333333","24.9781016666667","6501300","土城區"
"236005","498-BY","2018/02/26 09:19:30","新北市土城區中央路三段126巷12號","121.434571666667","24.9668733333333","6501300","土城區"
"242028","986-R7","2018/02/26 09:19:17","新北市新莊區昌平街31巷9號","121.454255","25.0514733333333","6500500","新莊區"
"242049","751-BX","2018/02/26 09:19:33","新北市新莊區民安西路135號","121.426408333333","25.017755","6500500","新莊區"
"242024","615-BX","2018/02/26 09:18:57","新北市新莊區化成路579巷1號","121.464366666667","25.0659766666667","6500500","新莊區"
"242022","613-BX","2018/02/26 09:19:27","新北市新莊區化成路45號","121.465053333333","25.0445933333333","6500500","新莊區"
"242026","612-BX","2018/02/26 09:19:30","新北市新莊區思源路221號","121.459921666667","25.0462516666667","6500500","新莊區"
"242038","566-BX","2018/02/26 09:19:30","新北市新莊區民安路302號","121.428256666667","25.0218633333333","6500500","新莊區"
"242043","497-BY","2018/02/26 09:19:32","新北市新莊區中正路新建巷28弄73號","121.413668333333","25.021165","6500500","新莊區"
"242047","441-UM","2018/02/26 09:19:32","新北市新莊區成功街145號","121.423335","25.016785","6500500","新莊區"
"242052","440-UM","2018/02/26 09:19:30","新北市新莊區民安西路229巷13號","121.42689","25.0141816666667","6500500","新莊區"
"242033","415-TV","2018/02/26 09:19:21","新北市新莊區新泰路98號","121.448573333333","25.0359316666667","6500500","新莊區"
"242003","413-TV","2018/02/26 09:19:27","新北市新莊區化成路554巷53號","121.467916666667","25.0542316666667","6500500","新莊區"
"242040","400-BY","2018/02/26 09:19:21","新北市新莊區中正路694巷3弄2號","121.418388333333","25.028345","6500500","新莊區"
"242059","362-BY","2018/02/26 09:19:30","新北市新莊區新樹路234巷17號","121.43175","25.0200216666667","6500500","新莊區"
"242057","353-BY","2018/02/26 09:19:31","新北市新莊區龍安路333號","121.422505","25.01919","6500500","新莊區"
"242006","132-UY","2018/02/26 09:19:19","新北市新莊區思源路287巷2弄1號","121.45934","25.0483133333333","6500500","新莊區"
"242035","133-UY","2018/02/26 09:19:35","新北市新莊區建安街89號","121.427103333333","25.02452","6500500","新莊區"
"242020","135-UY","2018/02/26 09:19:29","新北市新莊區公園路10巷1號","121.44788","25.0387566666667","6500500","新莊區"
"242045","172-VK","2018/02/26 09:19:27","新北市新莊區中正路881-16號","121.417546666667","25.02465","6500500","新莊區"
"242014","175-VK","2018/02/26 09:19:24","新北市新莊區中和街1號","121.448418333333","25.0428666666667","6500500","新莊區"
"242001","176-VK","2018/02/26 09:19:30","新北市新莊區明中街12-3號","121.458351666667","25.0386283333333","6500500","新莊區"
"242055","347-TH","2018/02/26 09:19:30","新北市新莊區新莊路649巷26弄1號","121.444518333333","25.0319583333333","6500500","新莊區"
"242018","348-TH","2018/02/26 09:19:33","新北市新莊區銘德街49巷2弄1號","121.457283333333","25.0433133333333","6500500","新莊區"
"242016","350-TH","2018/02/26 09:19:14","新北市新莊區環漢路三段1號","121.442265","25.0242","6500500","新莊區"
"242010","351-TH","2018/02/26 09:19:23","新北市新莊區中榮街104巷5號","121.447193333333","25.0531683333333","6500500","新莊區"
"239006","661-UM","2018/02/26 09:19:17","新北市鶯歌區大湖路361巷15弄3號","121.331323333333","24.9777516666667","6500800","鶯歌區"
"242030","280-VK","2018/02/26 09:19:25","新北市新莊區公園一路39號","121.443205","25.0355766666667","6500500","新莊區"
