"lineid","car","time","location","longitude","latitude","cityid","cityname"
"248005","653-BX","2018/02/26 09:49:15","新北市五股區明德路1號","121.435133333333","25.0712766666667","6501500","五股區"
"244012","069-UM","2018/02/26 09:49:24","新北市林口區麗園一街4巷2號","121.376603333333","25.0706433333333","6501700","林口區"
"244018","402-UM","2018/02/26 09:49:16","新北市林口區麗園二街42巷22號","121.381403333333","25.0669433333333","6501700","林口區"
"244010","701-TV","2018/02/26 09:49:05","新北市林口區嘉寶里15鄰43號","121.341301666667","25.1066533333333","6501700","林口區"
"244022","837-TS","2018/02/26 09:49:28","新北市林口區文林六街36號","121.371593333333","25.0811766666667","6501700","林口區"
"231007","189-VK","2018/02/26 09:49:22","新北市新店區新潭路三段215巷25號","121.508171666667","24.90411","6500600","新店區"
"231008","192-VK","2018/02/26 09:44:36","新北市新店區平廣路一段256號","121.507823333333","24.8883066666667","6500600","新店區"
"235001","611-BX","2018/02/26 09:49:33","新北市中和區員山路72號","121.480873333333","24.9936166666667","6500300","中和區"
"223008","406-TH","2018/02/26 09:40:42","新北市石碇區南勢坑2-2號","121.698528333333","24.9891916666667","6501900","石碇區"
"223007","661-BX","2018/02/26 09:45:20","新北市石碇區南勢坑4-1號","121.697666666667","24.9832266666667","6501900","石碇區"
"223005","677-TV","2018/02/26 09:49:13","新北市石碇區小粗坑(潭邊里)9-2號","121.67907","24.9863","6501900","石碇區"
"227005","282-VK","2018/02/26 09:48:53","新北市雙溪區泰平里烏山路40-1號","121.833841666667","24.93844","6502500","雙溪區"
"252004","249-BX","2018/02/26 09:49:15","新北市三芝區福德里土地公埔47-1號","121.515926666667","25.2253033333333","6502100","三芝區"
"252006","AAC-283","2018/02/26 09:49:30","新北市三芝區新庄里新庄子78-2號","121.507783333333","25.27262","6502100","三芝區"
"237001","159-UY","2018/02/26 09:49:36","新北市三峽區隆恩街158巷46號","121.367263333333","24.9450433333333","6500900","三峽區"
"236005","498-BY","2018/02/26 09:49:30","新北市土城區中央路二段396巷6號","121.439193333333","24.9709483333333","6501300","土城區"
"242003","413-TV","2018/02/26 09:49:16","新北市新莊區頭前路165號","121.460721666667","25.0526316666667","6500500","新莊區"
"242059","362-BY","2018/02/26 09:49:15","新北市樹林區八德街247巷24-3號","121.420328333333","24.9735833333333","6500500","新莊區"
"242057","353-BY","2018/02/26 09:49:20","新北市新莊區四維路3號","121.424018333333","25.0250016666667","6500500","新莊區"
"242055","347-TH","2018/02/26 09:49:30","新北市板橋區金門街215巷119號","121.434173333333","24.98687","6500500","新莊區"
"239006","661-UM","2018/02/26 09:49:26","新北市鶯歌區中正一路473-1號","121.372186666667","24.9591","6500800","鶯歌區"
"242030","280-VK","2018/02/26 09:49:25","新北市新莊區三泰路32-3號","121.437808333333","25.0353283333333","6500500","新莊區"
