"lineid","car","time","location","longitude","latitude","cityid","cityname"
"231007","189-VK","2018/02/26 10:29:22","新北市新店區新潭路三段131號","121.510788333333","24.9108766666667","6500600","新店區"
"231008","192-VK","2018/02/26 10:29:36","新北市新店區小坑一路35巷1號","121.528833333333","24.908145","6500600","新店區"
"227005","282-VK","2018/02/26 10:09:13","新北市雙溪區泰平里灣潭路36號","121.812335","24.9289483333333","6502500","雙溪區"
"252006","AAC-283","2018/02/26 10:29:30","新北市三芝區埔頭里埔頭46號","121.501381666667","25.2638566666667","6502100","三芝區"
"237001","159-UY","2018/02/26 10:29:36","新北市三峽區國際二街21-5號","121.373228333333","24.9436566666667","6500900","三峽區"
