"lineid","car","time","location","longitude","latitude","cityid","cityname"
"234044","148-BY","2018/02/26 13:09:16","新北市永和區永元路18巷38弄1號","121.52407","25.0002366666667","6500400","永和區"
"234066","149-BY","2018/02/26 13:09:17","新北市永和區保平路32號","121.511916666667","25.00725","6500400","永和區"
"234005","207-UY","2018/02/26 13:09:21","新北市永和區中山路一段195號","121.509163333333","25.0087816666667","6500400","永和區"
"234078","298-R6","2018/02/26 13:09:37","新北市永和區福和路57巷4弄1號","121.522951666667","25.0072616666667","6500400","永和區"
"234036","336-UY","2018/02/26 13:09:28","新北市永和區民樂街71巷1號","121.527346666667","24.99753","6500400","永和區"
"234062","337-UY","2018/02/26 13:09:36","新北市永和區秀朗路二段33號","121.521351666667","25.0024166666667","6500400","永和區"
"234084","338-UY","2018/02/26 13:09:27","新北市永和區永貞路75號","121.518686666667","25.00443","6500400","永和區"
"234068","552-UM","2018/02/26 13:09:36","新北市永和區豫溪街137巷1弄22號","121.518531666667","25.0104716666667","6500400","永和區"
"234015","745-BX","2018/02/26 13:09:26","新北市永和區文化路90巷15弄1號","121.513785","25.01601","6500400","永和區"
"234028","746-BX","2018/02/26 13:09:21","新北市永和區民生路21號","121.522853333333","24.99886","6500400","永和區"
"234052","KEA-2590","2018/02/26 13:09:25","新北市永和區中興街133巷12號","121.518566666667","25.0126733333333","6500400","永和區"
"234012","KEA-2591","2018/02/26 13:09:30","新北市永和區保福路二段14-1號","121.51092","25.01134","6500400","永和區"
"234060","AAD-866","2018/02/26 13:09:26","新北市永和區安樂路304巷7號","121.51452","25.0051266666667","6500400","永和區"
"234040","862-TW","2018/02/26 13:09:23","新北市永和區永貞路334號","121.511231666667","25.00557","6500400","永和區"
"234048","863-TW","2018/02/26 13:09:31","新北市永和區文化路135巷9號","121.51073","25.0144633333333","6500400","永和區"
"234025","9371-KE","2018/02/26 13:09:32","新北市永和區秀朗路一段10巷21號","121.513308333333","25.0062216666667","6500400","永和區"
"234010","9373-KE","2018/02/26 13:09:27","新北市永和區仁愛路31巷2弄9號","121.513671666667","25.0128866666667","6500400","永和區"
"248013","025-BX","2018/02/26 13:09:34","新北市五股區成泰路一段189巷16號","121.433888333333","25.0765133333333","6501500","五股區"
"248015","026-BX","2018/02/26 13:09:21","新北市五股區新五路二段265號","121.441231666667","25.0831166666667","6501500","五股區"
"248005","077-UY","2018/02/26 13:09:28","新北市五股區中興路二段77-1號","121.46105","25.077155","6501500","五股區"
"248007","095-VK","2018/02/26 13:09:21","新北市五股區更洲路32巷15弄9號","121.458466666667","25.0804","6501500","五股區"
"248019","225-UY","2018/02/26 13:09:18","新北市五股區成泰路三段544-1號","121.454258333333","25.1023866666667","6501500","五股區"
"248011","247-BX","2018/02/26 13:09:27","新北市五股區中興路三段198號","121.441121666667","25.082895","6501500","五股區"
"248009","272-BY","2018/02/26 13:09:39","新北市五股區新五路二段139號","121.439143333333","25.0804816666667","6501500","五股區"
"248003","677-BX","2018/02/26 13:09:38","新北市五股區成泰路二段61號","121.437936666667","25.0834983333333","6501500","五股區"
"248001","678-BX","2018/02/26 13:09:32","新北市五股區新五路三段9號","121.444423333333","25.0890816666667","6501500","五股區"
"234022","9380-KE","2018/02/26 13:09:30","新北市永和區中興街10巷29號","121.51639","25.0110033333333","6500400","永和區"
"234076","969-R7","2018/02/26 13:09:18","新北市永和區民光街5號","121.515383333333","24.9963533333333","6500400","永和區"
"234072","AAC-211","2018/02/26 13:09:38","新北市永和區竹林路133號","121.520106666667","25.0108883333333","6500400","永和區"
"234001","AAC-295","2018/02/26 13:09:22","新北市永和區中山路一段149號","121.510218333333","25.0094066666667","6500400","永和區"
"244001","248-BX","2018/02/26 13:09:30","新北市林口區頂福里6鄰32號","121.361386666667","25.096835","6501700","林口區"
"243005","646-TV","2018/02/26 13:09:22","新北市泰山區南林路93號","121.415541666667","25.0511883333333","6501600","泰山區"
"231029","001-UM","2018/02/26 13:09:22","新北市新店區安華路28-1號","121.519555","24.9609766666667","6500600","新店區"
"231002","002-UM","2018/02/26 13:09:34","新北市新店區安華路28-1號","121.519565","24.9609283333333","6500600","新店區"
"231025","0293-UT","2018/02/26 13:09:25","新北市新店區安華路1-1號","121.519585","24.960465","6500600","新店區"
"231028","046-UY","2018/02/26 13:09:35","新北市新店區安華路28-1號","121.519685","24.9608566666667","6500600","新店區"
"231030","047-UY","2018/02/26 13:09:23","新北市新店區安華路28-1號","121.519275","24.9610083333333","6500600","新店區"
"231018","107-UY","2018/02/26 13:09:25","新北市新店區安華路28-1號","121.51939","24.9612883333333","6500600","新店區"
"231011","108-UY","2018/02/26 13:09:38","新北市新店區安華路28-1號","121.519851666667","24.96067","6500600","新店區"
"231019","187-VK","2018/02/26 13:09:36","新北市新店區安華路28-1號","121.51969","24.96126","6500600","新店區"
"231014","KEA-2219","2018/02/26 13:09:35","新北市新店區安華路28-1號","121.519658333333","24.9613416666667","6500600","新店區"
"231026","256-BX","2018/02/26 13:09:21","新北市新店區安華路28-1號","121.519821666667","24.96131","6500600","新店區"
"231023","AAD-862","2018/02/26 13:09:35","新北市新店區安華路28-1號","121.51981","24.9612683333333","6500600","新店區"
"231024","4716-K9","2018/02/26 13:09:36","新北市新店區安華路28-1號","121.51966","24.9610416666667","6500600","新店區"
"231038","4715-K9","2018/02/26 13:09:38","新北市新店區安華路1-1號","121.51939","24.96049","6500600","新店區"
"231036","512-UM","2018/02/26 13:09:20","新北市新店區安華路28-1號","121.519256666667","24.9612133333333","6500600","新店區"
"231003","641-BX","2018/02/26 13:09:31","新北市新店區安華路28-1號","121.519576666667","24.9606033333333","6500600","新店區"
"231034","645-TV","2018/02/26 13:09:29","新北市新店區安華路28-1號","121.519371666667","24.960665","6500600","新店區"
"231013","719-UM","2018/02/26 13:09:35","新北市新店區安華路28-1號","121.519575","24.9612816666667","6500600","新店區"
"231031","720-UM","2018/02/26 13:09:23","新北市新店區安華路28-1號","121.519348333333","24.9612033333333","6500600","新店區"
"231005","897-TW","2018/02/26 13:09:20","新北市新店區安華路28-1號","121.51972","24.9607116666667","6500600","新店區"
"231006","898-TW","2018/02/26 13:09:24","新北市新店區安華路28-1號","121.51937","24.9609116666667","6500600","新店區"
"231004","899-TW","2018/02/26 13:09:28","新北市新店區安華路28-1號","121.519205","24.96092","6500600","新店區"
"231037","AKT-0513","2018/02/26 13:09:31","新北市新店區安華路1-1號","121.519405","24.96042","6500600","新店區"
"235030","003-UY","2018/02/26 13:09:28","新北市中和區圓通路221號","121.496608333333","24.9943466666667","6500300","中和區"
"235028","005-UY","2018/02/26 13:09:20","新北市中和區中正路277號","121.495366666667","24.993765","6500300","中和區"
"235027","006-UY","2018/02/26 13:09:35","新北市中和區員山路36巷16-3號","121.485048333333","24.9913066666667","6500300","中和區"
"235029","098-UM","2018/02/26 13:09:34","新北市中和區莊敬路49巷20弄22號","121.502715","25.0058683333333","6500300","中和區"
"235004","150-BY","2018/02/26 13:09:30","新北市中和區和城路一段271巷1號","121.485423333333","24.9917033333333","6500300","中和區"
"235022","151-BY","2018/02/26 13:09:19","新北市中和區圓通路367巷62-5號","121.492285","24.9829583333333","6500300","中和區"
"235002","185-VK","2018/02/26 13:09:34","新北市中和區景平路83號","121.517831666667","24.9919666666667","6500300","中和區"
"235031","255-BX","2018/02/26 13:09:40","新北市中和區中山路二段449號","121.483903333333","25.00501","6500300","中和區"
"235007","352-BY","2018/02/26 13:09:27","新北市中和區中正路637巷52弄1號","121.48542","24.993485","6500300","中和區"
"235032","377-QA","2018/02/26 13:08:07","新北市中和區員山路36巷16-3號","121.484948333333","24.991315","6500300","中和區"
"235025","378-QA","2018/02/26 13:09:40","新北市中和區連城路607號","121.477818333333","24.9929366666667","6500300","中和區"
"235035","269-TV","2018/02/26 13:09:37","新北市中和區立德街216號","121.483925","25.0097383333333","6500300","中和區"
"235006","551-UM","2018/02/26 13:09:25","新北市中和區景平路279-4號","121.507685","24.9931433333333","6500300","中和區"
"235001","611-BX","2018/02/26 13:09:27","新北市中和區中山路三段136巷75號","121.473661666667","25.0078266666667","6500300","中和區"
"235018","640-BX","2018/02/26 13:09:26","新北市土城區金城路三段257號","121.47179","24.99008","6500300","中和區"
"235024","647-TV","2018/02/26 13:09:26","新北市中和區員山路36巷16-3號","121.484781666667","24.9916433333333","6500300","中和區"
"235010","733-UM","2018/02/26 13:09:35","新北市中和區員山路36巷13號","121.484161666667","24.9909316666667","6500300","中和區"
"235026","800-TS","2018/02/26 13:09:29","新北市中和區中山路二段359號","121.488936666667","25.0042366666667","6500300","中和區"
"235021","801-TS","2018/02/26 13:09:35","新北市中和區員山路36巷16-3號","121.484755","24.9915933333333","6500300","中和區"
"235017","900-TW","2018/02/26 13:09:39","新北市中和區員山路36巷16-3號","121.484936666667","24.9917916666667","6500300","中和區"
"235034","911-UM","2018/02/26 13:09:27","新北市中和區圓通路189號","121.497266666667","24.99452","6500300","中和區"
"235015","157-BY","2018/02/26 13:09:22","新北市中和區南山路146巷29號","121.502915","24.992495","6500300","中和區"
"235001","AAC-213","2018/02/26 13:09:37","新北市中和區景平路145號","121.514091666667","24.9921233333333","6500300","中和區"
"235023","AAC-215","2018/02/26 12:58:34","新北市中和區員山路36巷20號","121.485013333333","24.9907183333333","6500300","中和區"
"235005","251-BX","2018/02/26 13:09:35","新北市中和區和城路一段271巷1號","121.485405","24.9919233333333","6500300","中和區"
"227008","400-TW","2018/02/26 13:09:24","新北市雙溪區三貂里政光路3-1號","121.850836666667","25.0630416666667","6502500","雙溪區"
"253003","6232-TK","2018/02/26 13:09:16","新北市石門區石崩山27號","121.564998333333","25.2815566666667","6502200","石門區"
"253001","6251-TK","2018/02/26 13:09:20","新北市石門區老梅路43-2號","121.545378333333","25.2896016666667","6502200","石門區"
"253002","637-UY","2018/02/26 13:09:26","新北市石門區九芎林1號","121.556576666667","25.2758416666667","6502200","石門區"
"253004","8270-PC","2018/02/26 13:09:32","新北市石門區小坑12號","121.592361666667","25.2882716666667","6502200","石門區"
"252005","073-UM","2018/02/26 13:09:29","新北市三芝區八賢里八連溪18號","121.51085","25.2419316666667","6502100","三芝區"
"207001","662-BX","2018/02/26 13:09:29","新北市萬里區萬里里瑪鋉路70號","121.689831666667","25.1781433333333","6502800","萬里區"
"236005","498-BY","2018/02/26 13:09:24","新北市土城區亞洲路15號","121.434185","24.97219","6501300","土城區"
"242045","172-VK","2018/02/26 13:09:38","新北市新莊區裕民街7號","121.419328333333","25.0258733333333","6500500","新莊區"
"221032","280-BY","2018/02/26 13:09:25","新北市汐止區大同路二段387號","121.657688333333","25.0672716666667","6501100","汐止區"
