"lineid","car","time","location","longitude","latitude","cityid","cityname"
"234005","207-UY","2018/02/26 14:29:41","新北市永和區中正路736號","121.515361666667","25.0102533333333","6500400","永和區"
"234078","298-R6","2018/02/26 14:29:37","新北市永和區永貞路54號","121.520866666667","25.0057633333333","6500400","永和區"
"234062","337-UY","2018/02/26 14:29:39","新北市永和區中正路435號","121.517108333333","25.0051366666667","6500400","永和區"
"234084","338-UY","2018/02/26 14:29:39","新北市永和區永和路二段326號","121.516275","25.016455","6500400","永和區"
"234068","552-UM","2018/02/26 14:29:38","新北市永和區永亨路39號","121.519973333333","25.0062816666667","6500400","永和區"
"234028","746-BX","2018/02/26 14:29:20","新北市中和區中正路38號","121.502255","24.9936583333333","6500400","永和區"
"234052","KEA-2590","2018/02/26 14:29:25","新北市永和區光復街2巷23號","121.517135","25.0166966666667","6500400","永和區"
"234012","KEA-2591","2018/02/26 14:27:24","新北市板橋區萬安街85巷2弄11號","121.4848","25.024715","6500400","永和區"
"234060","AAD-866","2018/02/26 14:29:46","新北市永和區秀朗路一段120號","121.51698","25.0036033333333","6500400","永和區"
"234040","862-TW","2018/02/26 14:29:43","新北市永和區安樂路348號","121.514505","25.00648","6500400","永和區"
"234048","863-TW","2018/02/26 14:29:31","新北市永和區新生路118巷3弄17號","121.506551666667","25.014475","6500400","永和區"
"234025","9371-KE","2018/02/26 14:29:26","新北市中和區安樂路255號","121.514061666667","24.9999133333333","6500400","永和區"
"248013","025-BX","2018/02/26 14:29:35","新北市五股區民義路一段161號","121.432575","25.0874966666667","6501500","五股區"
"248015","026-BX","2018/02/26 14:29:41","新北市五股區成泰路四段88號","121.457225","25.1112516666667","6501500","五股區"
"248007","095-VK","2018/02/26 14:29:41","新北市五股區中興路一段95巷9號","121.466618333333","25.07241","6501500","五股區"
"248019","225-UY","2018/02/26 14:29:34","新北市五股區凌雲路三段57號","121.425336666667","25.1250216666667","6501500","五股區"
"248011","247-BX","2018/02/26 14:29:27","新北市五股區蓬萊路6巷2號","121.43565","25.0796583333333","6501500","五股區"
"248009","272-BY","2018/02/26 14:29:39","新北市五股區自強路90巷72號","121.430796666667","25.0713266666667","6501500","五股區"
"248003","677-BX","2018/02/26 14:29:38","新北市五股區五福路50號","121.433655","25.0895616666667","6501500","五股區"
"248001","678-BX","2018/02/26 14:29:32","新北市五股區成泰路三段487號","121.450796666667","25.099275","6501500","五股區"
"234022","9380-KE","2018/02/26 14:29:39","新北市永和區保生路55-1號","121.504531666667","25.01095","6500400","永和區"
"234072","AAC-211","2018/02/26 14:29:38","新北市永和區環河東路一段122號","121.520625","25.0155433333333","6500400","永和區"
"234001","AAC-295","2018/02/26 14:29:41","新北市永和區永和路一段123巷5號","121.51394","25.008195","6500400","永和區"
"243004","AAD-798","2018/02/26 14:29:44","新北市泰山區全興路13號","121.432335","25.05899","6501600","泰山區"
"243003","297-R6","2018/02/26 14:29:40","新北市泰山區中山路二段567號","121.429491666667","25.0400666666667","6501600","泰山區"
"243007","380-SR","2018/02/26 14:29:34","新北市泰山區明志路二段123號","121.428065","25.05148","6501600","泰山區"
"243006","421-VK","2018/02/26 14:29:28","新北市泰山區中港西路420號","121.433883333333","25.053865","6501600","泰山區"
"243002","KEA-2215","2018/02/26 14:29:46","新北市泰山區民生路17巷6號","121.429868333333","25.0522416666667","6501600","泰山區"
"243001","KEA-2216","2018/02/26 14:29:42","新北市泰山區半山雅40號","121.430786666667","25.0676066666667","6501600","泰山區"
"243005","646-TV","2018/02/26 14:29:33","新北市泰山區貴子路7號","121.425443333333","25.0423183333333","6501600","泰山區"
"243008","680-BX","2018/02/26 14:29:32","新北市泰山區新北大道七段2號","121.420583333333","25.0322966666667","6501600","泰山區"
"231029","001-UM","2018/02/26 14:29:42","新北市新店區安康路二段416號","121.496501666667","24.9552","6500600","新店區"
"231002","002-UM","2018/02/26 14:29:34","新北市新店區中央四街5-1號","121.530183333333","24.97381","6500600","新店區"
"231025","0293-UT","2018/02/26 14:29:44","新北市新店區民族路161號","121.537746666667","24.9767883333333","6500600","新店區"
"231028","046-UY","2018/02/26 14:29:35","新北市新店區安康路二段147號","121.511286666667","24.960005","6500600","新店區"
"231030","047-UY","2018/02/26 14:29:43","新北市新店區安民街65巷15-3號","121.516021666667","24.96677","6500600","新店區"
"231018","107-UY","2018/02/26 14:29:25","新北市新店區中央三街74號","121.526341666667","24.9752233333333","6500600","新店區"
"231011","108-UY","2018/02/26 14:29:38","新北市新店區中興路二段196號","121.5484","24.97385","6500600","新店區"
"231019","187-VK","2018/02/26 14:29:36","新北市新店區新烏路一段141-1號","121.54943","24.9214533333333","6500600","新店區"
"231014","KEA-2219","2018/02/26 14:29:34","新北市新店區北宜路三段251號","121.594748333333","24.952555","6500600","新店區"
"231023","AAD-862","2018/02/26 14:29:35","新北市新店區光明街137號","121.539525","24.9620066666667","6500600","新店區"
"231027","3712-VJ","2018/02/26 14:29:34","新北市新店區寶橋路85巷21號","121.545506666667","24.9762","6500600","新店區"
"231038","4715-K9","2018/02/26 14:29:37","新北市新店區溪洲路8巷114號","121.533275","24.9629166666667","6500600","新店區"
"231036","512-UM","2018/02/26 14:29:41","新北市新店區安祥路109巷151弄12號","121.478103333333","24.9589266666667","6500600","新店區"
"231035","515-UM","2018/02/26 14:29:32","新北市新店區安光路10-1號","121.513773333333","24.9641866666667","6500600","新店區"
"231001","619-UM","2018/02/26 14:29:30","新北市新店區北新路一段96巷23號","121.542991666667","24.9687883333333","6500600","新店區"
"231003","641-BX","2018/02/26 14:29:31","新北市新店區中興路一段268-3號","121.545235","24.9678983333333","6500600","新店區"
"231034","645-TV","2018/02/26 14:29:33","新北市新店區黎明路53巷2號","121.502416666667","24.9484516666667","6500600","新店區"
"231013","719-UM","2018/02/26 14:29:35","新北市新店區民權路108-2號","121.53615","24.9834566666667","6500600","新店區"
"231031","720-UM","2018/02/26 14:29:23","新北市新店區安業街33號","121.517478333333","24.9772316666667","6500600","新店區"
"231005","897-TW","2018/02/26 14:29:37","新北市新店區北新路二段268號","121.542821666667","24.9786033333333","6500600","新店區"
"231006","898-TW","2018/02/26 14:29:42","新北市新店區北宜路二段417號","121.560118333333","24.954515","6500600","新店區"
"231004","899-TW","2018/02/26 14:29:28","新北市新店區中正路263-4號","121.538336666667","24.9738716666667","6500600","新店區"
"231037","AKT-0513","2018/02/26 14:29:30","新北市新店區安康路二段320巷6號","121.504513333333","24.95869","6500600","新店區"
"235030","003-UY","2018/02/26 14:29:28","新北市中和區景新街45號","121.504041666667","24.9991016666667","6500300","中和區"
"235028","005-UY","2018/02/26 14:29:40","新北市中和區南華路17號","121.502765","24.9957583333333","6500300","中和區"
"235027","006-UY","2018/02/26 14:29:35","新北市中和區連城路203巷10弄21號","121.495135","24.9966766666667","6500300","中和區"
"235020","096-UM","2018/02/26 14:29:40","新北市中和區員山路514巷13號","121.47949","25.0096766666667","6500300","中和區"
"235003","097-UM","2018/02/26 14:29:45","新北市中和區秀峰街78號","121.520176666667","24.99076","6500300","中和區"
"235029","098-UM","2018/02/26 14:29:34","新北市中和區永和路8巷6號","121.500185","25.0030266666667","6500300","中和區"
"235004","150-BY","2018/02/26 14:29:30","新北市中和區保健路106巷15號","121.51227","24.9956416666667","6500300","中和區"
"235022","151-BY","2018/02/26 14:29:39","新北市中和區和城路一段271巷1號","121.48554","24.9920433333333","6500300","中和區"
"235019","183-VK","2018/02/26 14:29:45","新北市中和區莒光路37巷2號","121.472111666667","25.0051016666667","6500300","中和區"
"235002","185-VK","2018/02/26 14:29:34","新北市中和區自立路99巷1號","121.522036666667","24.9950583333333","6500300","中和區"
"235013","186-VK","2018/02/26 14:29:43","新北市中和區景新街254號","121.509396666667","24.9934333333333","6500300","中和區"
"235031","255-BX","2018/02/26 14:29:40","新北市中和區連城路322號","121.483423333333","24.99601","6500300","中和區"
"235008","293-VK","2018/02/26 14:29:29","新北市中和區捷運路149-1號","121.5067","24.9910466666667","6500300","中和區"
"235036","301-VK","2018/02/26 14:29:39","新北市中和區中山路二段3巷22弄1號","121.50649","25.0054083333333","6500300","中和區"
"235007","352-BY","2018/02/26 14:29:46","新北市中和區景平路334號","121.511953333333","24.992785","6500300","中和區"
"235032","377-QA","2018/02/26 14:29:27","新北市中和區中山路二段136巷3弄8號","121.501203333333","25.003955","6500300","中和區"
"235025","378-QA","2018/02/26 14:26:00","新北市中和區民安街2巷20號","121.48018","25.0017283333333","6500300","中和區"
"235035","269-TV","2018/02/26 14:29:32","新北市中和區連城路469巷37號","121.483558333333","24.994515","6500300","中和區"
"235014","4979-A6","2018/02/26 14:29:34","新北市中和區中正路589巷15號","121.486031666667","24.9937833333333","6500300","中和區"
"235033","4980-A6","2018/02/26 14:29:34","新北市中和區連城路134巷16號","121.495516666667","24.9997033333333","6500300","中和區"
"235006","551-UM","2018/02/26 14:29:24","新北市中和區中和路378巷14弄2號","121.51115","25.0017083333333","6500300","中和區"
"235009","565-BX","2018/02/26 14:29:38","新北市中和區景新街399巷11號","121.513005","24.9899433333333","6500300","中和區"
"235018","640-BX","2018/02/26 14:29:26","新北市中和區國光街112巷16弄1號","121.469746666667","25.0016733333333","6500300","中和區"
"235024","647-TV","2018/02/26 14:29:35","新北市中和區新生街114巷2號","121.483295","25.002465","6500300","中和區"
"235011","732-UM","2018/02/26 14:29:29","新北市中和區景平路241巷66號","121.50773","24.9922433333333","6500300","中和區"
"235010","733-UM","2018/02/26 14:29:35","新北市中和區忠孝街37巷52號","121.511173333333","24.984935","6500300","中和區"
"235026","800-TS","2018/02/26 14:29:29","新北市中和區中山路二段488-1號","121.487508333333","25.0049283333333","6500300","中和區"
"235021","801-TS","2018/02/26 14:29:35","新北市中和區中山路三段13號","121.479608333333","25.00601","6500300","中和區"
"235016","805-TS","2018/02/26 14:29:33","新北市中和區華新街143巷15號","121.506716666667","24.9810033333333","6500300","中和區"
"235012","896-TW","2018/02/26 14:29:31","新北市中和區忠孝街60巷7號","121.511698333333","24.9837666666667","6500300","中和區"
"235017","900-TW","2018/02/26 14:29:39","新北市中和區華順街30巷1號","121.466858333333","24.99894","6500300","中和區"
"235015","157-BY","2018/02/26 14:29:42","新北市中和區捷運路3號","121.5097","24.989335","6500300","中和區"
"235001","AAC-213","2018/02/26 14:29:37","新北市中和區秀朗路三段10巷14弄34號","121.524638333333","24.99654","6500300","中和區"
"235023","AAC-215","2018/02/26 14:29:34","新北市中和區圓通路252-3號","121.493676666667","24.9911633333333","6500300","中和區"
"220016","013-TV","2018/02/26 14:29:31","新北市板橋區中山路二段505巷2號","121.48258","25.0213816666667","6500100","板橋區"
"220013","072-UY","2018/02/26 14:29:28","新北市板橋區國泰街75巷28弄19號","121.467766666667","25.00488","6500100","板橋區"
"220034","073-UY","2018/02/26 14:29:44","新北市板橋區國光路177號","121.460726666667","25.018365","6500100","板橋區"
"220105","075-UY","2018/02/26 14:29:29","新北市板橋區文化路二段417巷6號","121.474533333333","25.0332433333333","6500100","板橋區"
"220017","AAD-861","2018/02/26 14:29:39","新北市板橋區貴興路35號","121.457583333333","25.0038383333333","6500100","板橋區"
"247021","893-R6","2018/02/26 14:29:39","新北市蘆洲區水湳街36-1號","121.47079","25.0895","6501400","蘆洲區"
"247019","500-BY","2018/02/26 14:29:29","新北市蘆洲區仁愛街101巷6號","121.47082","25.0943016666667","6501400","蘆洲區"
"247009","339-TH","2018/02/26 14:29:45","新北市蘆洲區鷺江街16-3號","121.478618333333","25.0824666666667","6501400","蘆洲區"
"247001","337-TH","2018/02/26 14:29:27","新北市蘆洲區永樂街38巷33弄46號","121.456935","25.0898466666667","6501400","蘆洲區"
"247003","336-TH","2018/02/26 14:29:45","新北市蘆洲區長安街220巷11弄1號","121.459453333333","25.0851683333333","6501400","蘆洲區"
"247011","335-TH","2018/02/26 14:29:25","新北市蘆洲區三民路88號","121.473806666667","25.0853083333333","6501400","蘆洲區"
"247015","057-VK","2018/02/26 14:29:40","新北市蘆洲區中正路185巷68弄21號","121.46628","25.0852133333333","6501400","蘆洲區"
"247005","056-VK","2018/02/26 14:29:45","新北市蘆洲區長安街66號","121.462746666667","25.080095","6501400","蘆洲區"
"247007","053-VK","2018/02/26 14:29:42","新北市蘆洲區信義路78號","121.476895","25.07962","6501400","蘆洲區"
"247013","007-UY","2018/02/26 14:29:31","新北市蘆洲區成功路92號","121.47292","25.0815583333333","6501400","蘆洲區"
"247023","002-UY","2018/02/26 14:29:43","新北市蘆洲區中正路156-1號","121.468873333333","25.0855133333333","6501400","蘆洲區"
"247017","001-UY","2018/02/26 14:29:28","新北市蘆洲區復興路231號","121.480023333333","25.08989","6501400","蘆洲區"
"235005","251-BX","2018/02/26 14:29:35","新北市中和區宜安路153號","121.509043333333","24.9988316666667","6500300","中和區"
"227008","400-TW","2018/02/26 14:29:24","新北市雙溪區三貂里政光路3-1號","121.850825","25.0630566666667","6502500","雙溪區"
"253003","6232-TK","2018/02/26 14:29:36","新北市石門區尖子鹿42號","121.580593333333","25.2663433333333","6502200","石門區"
"253001","6251-TK","2018/02/26 14:29:40","新北市石門區八甲3-2號","121.521195","25.2836933333333","6502200","石門區"
"253002","637-UY","2018/02/26 14:29:26","新北市石門區大溪墘2-4號","121.549911666667","25.2873983333333","6502200","石門區"
"253004","8270-PC","2018/02/26 14:29:32","新北市石門區內阿里磅1號","121.592108333333","25.2535783333333","6502200","石門區"
"252005","073-UM","2018/02/26 14:29:29","新北市三芝區茂長里陳厝坑61-4號","121.512765","25.25511","6502100","三芝區"
"207001","662-BX","2018/02/26 14:29:28","新北市萬里區磺潭里清水2-2號","121.643263333333","25.2016066666667","6502800","萬里區"
"236064","105-UM","2018/02/26 14:29:37","新北市土城區永豐路255巷27弄43號","121.477018333333","24.9736966666667","6501300","土城區"
"236040","107-UM","2018/02/26 14:29:38","新北市土城區裕民路61巷12號","121.44962","24.988195","6501300","土城區"
"236074","166-UM","2018/02/26 14:29:14","新北市土城區大暖路10號","121.423463333333","24.9604066666667","6501300","土城區"
"236028","253-BX","2018/02/26 14:29:43","新北市土城區順風路8號","121.440095","24.976285","6501300","土城區"
"236024","269-VK","2018/02/26 14:29:28","新北市土城區承天路87巷1-1號","121.4419","24.962055","6501300","土城區"
"236012","270-VK","2018/02/26 14:29:31","新北市土城區青雲路39巷7號","121.46037","24.9875833333333","6501300","土城區"
"236032","271-VK","2018/02/26 14:29:34","新北市土城區青雲路453號","121.458821666667","24.974655","6501300","土城區"
"236016","401-BY","2018/02/26 14:29:39","新北市土城區永豐路135巷1號","121.466615","24.9834183333333","6501300","土城區"
"236005","498-BY","2018/02/26 14:29:39","新北市土城區中華路一段79號","121.444965","24.9876783333333","6501300","土城區"
"236044","752-BX","2018/02/26 14:29:02","新北市土城區青雲路503號","121.458771666667","24.973315","6501300","土城區"
"236056","912-UM","2018/02/26 14:29:31","新北市土城區中央路四段390號","121.412706666667","24.9541833333333","6501300","土城區"
"236060","915-UM","2018/02/26 14:29:28","新北市土城區延壽路109巷2號","121.469211666667","24.993485","6501300","土城區"
"236052","AAC-216","2018/02/26 14:29:31","新北市土城區中華路二段61號","121.439463333333","24.978655","6501300","土城區"
"221032","280-BY","2018/02/26 14:29:45","新北市新店區車子路115-11號","121.508121666667","24.9545066666667","6501100","汐止區"
"220027","145-BY","2018/02/26 14:29:34","新北市板橋區民權路202巷26號","121.460678333333","25.01718","6500100","板橋區"
"220028","200-UY","2018/02/26 14:29:42","新北市板橋區大觀路二段37巷254號","121.449973333333","25.0021333333333","6500100","板橋區"
"220030","610-BX","2018/02/26 14:29:44","新北市板橋區溪城路95號","121.427265","24.9828783333333","6500100","板橋區"
"220050","245-BX","2018/02/26 14:29:46","新北市板橋區縣民大道三段121巷22號","121.476576666667","25.0233766666667","6500100","板橋區"
"220045","257-TC","2018/02/26 14:29:36","新北市板橋區莒光路165巷14-1號","121.474101666667","25.0243","6500100","板橋區"
"220004","276-BY","2018/02/26 14:29:33","新北市板橋區干城路141號","121.459845","24.9931416666667","6500100","板橋區"
"220020","277-BY","2018/02/26 14:29:33","新北市板橋區金門街325號","121.429546666667","24.985955","6500100","板橋區"
"220019","283-VK","2018/02/26 14:29:41","新北市板橋區四川路一段283巷5號","121.459801666667","25.0013266666667","6500100","板橋區"
"220043","285-UM","2018/02/26 14:29:32","新北市板橋區雙十路三段22-1號","121.471201666667","25.03077","6500100","板橋區"
"220001","285-VK","2018/02/26 14:29:36","新北市板橋區富山街96-3號","121.476495","25.0219316666667","6500100","板橋區"
"220031","286-VK","2018/02/26 14:29:40","新北市板橋區龍興街73巷53號","121.44175","25.00305","6500100","板橋區"
"220029","287-VK","2018/02/26 14:29:38","新北市板橋區南雅西路一段21巷5號","121.453828333333","25.00385","6500100","板橋區"
"220009","293-UM","2018/02/26 14:29:38","新北市板橋區中山路一段265巷1-1號","121.468338333333","25.0141466666667","6500100","板橋區"
"220032","296-UM","2018/02/26 14:29:42","新北市板橋區篤行路三段玉平巷76弄8號","121.427748333333","24.9857083333333","6500100","板橋區"
"220023","303-R5","2018/02/26 14:29:34","新北市板橋區南雅西路一段10巷12號","121.454651666667","25.0047516666667","6500100","板橋區"
"220010","305-R5","2018/02/26 14:29:37","新北市板橋區三民路二段181巷12號","121.479815","25.0143333333333","6500100","板橋區"
"220041","307-R5","2018/02/26 14:29:41","新北市板橋區文化路二段125巷4號","121.469263333333","25.0264933333333","6500100","板橋區"
"220047","317-R6","2018/02/26 14:29:37","新北市板橋區民生路三段263巷2弄4號","121.463898333333","25.0295066666667","6500100","板橋區"
"220012","486-VK","2018/02/26 14:29:29","新北市板橋區中山路一段24號","121.46024","25.0083183333333","6500100","板橋區"
"220038","487-VK","2018/02/26 14:29:28","新北市板橋區文化路一段145號","121.462388333333","25.0154383333333","6500100","板橋區"
"220037","491-VK","2018/02/26 14:29:41","新北市板橋區雙十路二段4-6號","121.47696","25.02583","6500100","板橋區"
"220104","560-BX","2018/02/26 14:29:23","新北市板橋區中正路413巷6號","121.453775","25.022685","6500100","板橋區"
"220052","561-BX","2018/02/26 14:29:30","新北市板橋區文化路一段186號","121.466131666667","25.0195633333333","6500100","板橋區"
"220011","609-BX","2018/02/26 14:29:46","新北市板橋區三民路二段253-1號","121.478971666667","25.011845","6500100","板橋區"
"220040","637-BX","2018/02/26 14:29:34","新北市板橋區文聖街149巷27號","121.479583333333","25.0286816666667","6500100","板橋區"
"220005","686-BX","2018/02/26 14:29:38","新北市板橋區五權街43號","121.464523333333","24.9938566666667","6500100","板橋區"
"220025","687-BX","2018/02/26 14:29:43","新北市板橋區大觀路一段28巷6號","121.450021666667","25.008815","6500100","板橋區"
"220042","689-BX","2018/02/26 14:29:41","新北市板橋區雨農路50號","121.461143333333","25.0243783333333","6500100","板橋區"
"220002","741-BX","2018/02/26 14:29:34","新北市板橋區光明街52號","121.460748333333","25.0025966666667","6500100","板橋區"
"220051","KEA-2699","2018/02/26 14:29:26","新北市板橋區雙十路二段112號","121.474551666667","25.0288816666667","6500100","板橋區"
"220003","827-TW","2018/02/26 14:29:28","新北市板橋區重慶路278巷16號","121.462431666667","24.99964","6500100","板橋區"
"220014","829-TW","2018/02/26 14:29:31","新北市板橋區漢生東路339號","121.47221","25.0073416666667","6500100","板橋區"
"220039","830-TW","2018/02/26 14:29:33","新北市板橋區長江路一段106巷12弄2號","121.459951666667","25.029","6500100","板橋區"
"220022","895-R6","2018/02/26 14:29:38","新北市板橋區北門街2號","121.45791","25.0104066666667","6500100","板橋區"
"220021","985-R7","2018/02/26 14:29:27","新北市板橋區中正路328號","121.454491666667","25.0213333333333","6500100","板橋區"
"220046","AAC-210","2018/02/26 14:29:31","新北市板橋區漢生西路139巷7號","121.462698333333","25.02188","6500100","板橋區"
"220018","AAC-253","2018/02/26 14:29:38","新北市板橋區四川路一段159號","121.459995","25.0040016666667","6500100","板橋區"
