"lineid","car","time","location","longitude","latitude","cityid","cityname"
"234005","207-UY","2018/02/26 14:39:21","新北市永和區中正路486號","121.517508333333","25.0038283333333","6500400","永和區"
"234062","337-UY","2018/02/26 14:39:19","新北市中和區環河西路三段123號","121.489883333333","25.0098633333333","6500400","永和區"
"234028","746-BX","2018/02/26 14:39:20","新北市三重區光復路二段143巷8-3號","121.474308333333","25.06028","6500400","永和區"
"234052","KEA-2590","2018/02/26 14:39:05","新北市永和區環河東路一段80號","121.519588333333","25.0164783333333","6500400","永和區"
"234012","KEA-2591","2018/02/26 14:38:04","新北市五股區中直路31號","121.420428333333","25.1123833333333","6500400","永和區"
"234025","9371-KE","2018/02/26 14:39:26","新北市永和區雙和街7巷6號","121.509516666667","25.0015483333333","6500400","永和區"
"248013","025-BX","2018/02/26 14:39:15","新北市五股區五福路32巷23號","121.434956666667","25.0900316666667","6501500","五股區"
"248015","026-BX","2018/02/26 14:39:21","新北市五股區成泰路三段577巷33號","121.451208333333","25.1030166666667","6501500","五股區"
"248007","095-VK","2018/02/26 14:39:21","新北市五股區四維路118巷9號","121.46883","25.0743633333333","6501500","五股區"
"248019","225-UY","2018/02/26 14:39:28","新北市五股區凌雲路三段39號","121.431761666667","25.1171716666667","6501500","五股區"
"248011","247-BX","2018/02/26 14:39:27","新北市五股區民義路一段36號","121.437098333333","25.0838133333333","6501500","五股區"
"248009","272-BY","2018/02/26 14:39:26","新北市五股區登林路貿商巷5弄3號","121.429456666667","25.0701133333333","6501500","五股區"
"248003","677-BX","2018/02/26 14:39:18","新北市五股區成泰路二段156號","121.438301666667","25.084025","6501500","五股區"
"248001","678-BX","2018/02/26 14:39:32","新北市五股區成泰路三段243號","121.44649","25.0934","6501500","五股區"
"234072","AAC-211","2018/02/26 14:39:18","新北市永和區竹林路75巷4弄34號","121.521593333333","25.0142283333333","6500400","永和區"
"234001","AAC-295","2018/02/26 14:39:22","新北市永和區中正路616巷1號","121.517246666667","25.0077866666667","6500400","永和區"
"244001","248-BX","2018/02/26 14:39:11","新北市林口區林口路76號","121.389686666667","25.0807166666667","6501700","林口區"
"243004","AAD-798","2018/02/26 14:39:24","新北市泰山區明志路一段289號","121.431976666667","25.059665","6501600","泰山區"
"243003","297-R6","2018/02/26 14:39:20","新北市泰山區新北大道六段100號","121.427781666667","25.0381116666667","6501600","泰山區"
"243007","380-SR","2018/02/26 14:39:14","新北市泰山區文程路18巷33號","121.428228333333","25.048305","6501600","泰山區"
"243006","421-VK","2018/02/26 14:39:28","新北市泰山區泰林路二段33-7號","121.435348333333","25.0565833333333","6501600","泰山區"
"243002","KEA-2215","2018/02/26 14:39:27","新北市泰山區中華街25號","121.42743","25.05193","6501600","泰山區"
"243001","KEA-2216","2018/02/26 14:39:27","新北市泰山區明志路一段122巷31號","121.432601666667","25.063835","6501600","泰山區"
"243005","646-TV","2018/02/26 14:39:12","新北市泰山區明志路三段6巷16號","121.42397","25.0436416666667","6501600","泰山區"
"243008","680-BX","2018/02/26 14:39:32","新北市泰山區貴鳳街3號","121.421575","25.0313916666667","6501600","泰山區"
"231029","001-UM","2018/02/26 14:39:22","新北市新店區安康路三段263號","121.486543333333","24.951905","6500600","新店區"
"231002","002-UM","2018/02/26 14:39:14","新北市新店區中央路21號","121.533163333333","24.978135","6500600","新店區"
"231025","0293-UT","2018/02/26 14:39:24","新北市新店區民族路161號","121.537675","24.9767283333333","6500600","新店區"
"231028","046-UY","2018/02/26 14:39:15","新北市新店區安德街60巷13號","121.510601666667","24.9624133333333","6500600","新店區"
"231030","047-UY","2018/02/26 14:39:23","新北市新店區安民街189-1號","121.516895","24.9711016666667","6500600","新店區"
"231018","107-UY","2018/02/26 14:39:25","新北市新店區中央二街1號","121.529343333333","24.97303","6500600","新店區"
"231011","108-UY","2018/02/26 14:39:18","新北市新店區寶宏路3-4號","121.549225","24.9765616666667","6500600","新店區"
"231019","187-VK","2018/02/26 14:39:16","新北市新店區永福路42號","121.55558","24.9292783333333","6500600","新店區"
"231014","KEA-2219","2018/02/26 14:39:15","新北市新店區北宜路三段221號","121.59235","24.953295","6500600","新店區"
"231023","AAD-862","2018/02/26 14:39:15","新北市新店區檳榔路21號","121.541618333333","24.9638066666667","6500600","新店區"
"231027","3712-VJ","2018/02/26 14:39:13","新北市新店區中正路328巷3號","121.536956666667","24.97532","6500600","新店區"
"231038","4715-K9","2018/02/26 14:39:17","新北市新店區溪洲路145號","121.529271666667","24.9632966666667","6500600","新店區"
"231036","512-UM","2018/02/26 14:39:20","新北市新店區安祥路106巷8弄1號","121.478801666667","24.9626566666667","6500600","新店區"
"231035","515-UM","2018/02/26 14:39:12","新北市新店區安康路二段1-5號","121.51722","24.96392","6500600","新店區"
"231001","619-UM","2018/02/26 14:39:10","新北市新店區中正路2號","121.545778333333","24.9694433333333","6500600","新店區"
"231003","641-BX","2018/02/26 14:39:26","新北市新店區中興路二段22-2號","121.546825","24.970375","6500600","新店區"
"231034","645-TV","2018/02/26 14:39:09","新北市新店區黎明路51巷4號","121.502096666667","24.9489866666667","6500600","新店區"
"231039","718-UY","2018/02/26 14:39:26","新北市新店區中興路三段1-16號","121.54673","24.976375","6500600","新店區"
"231013","719-UM","2018/02/26 14:39:15","新北市新店區北新路二段171巷9號","121.542155","24.9764283333333","6500600","新店區"
"231005","897-TW","2018/02/26 14:39:17","新北市新店區北新路三段179號","121.541108333333","24.98425","6500600","新店區"
"231006","898-TW","2018/02/26 14:39:24","新北市新店區北宜路二段131號","121.551031666667","24.9530533333333","6500600","新店區"
"231004","899-TW","2018/02/26 14:39:27","新北市新店區中正路283號","121.537405","24.974505","6500600","新店區"
"231037","AKT-0513","2018/02/26 14:39:10","新北市新店區柴埕路52巷20號","121.510215","24.9657483333333","6500600","新店區"
"235030","003-UY","2018/02/26 14:39:28","新北市中和區景新街133號","121.505845","24.9971583333333","6500300","中和區"
"235028","005-UY","2018/02/26 14:39:20","新北市中和區南華路43號","121.503636666667","24.9966933333333","6500300","中和區"
"235027","006-UY","2018/02/26 14:39:15","新北市中和區連城路174巷37號","121.49411","25.0000883333333","6500300","中和區"
"235020","096-UM","2018/02/26 14:39:20","新北市中和區中山路三段114巷67號","121.475785","25.00772","6500300","中和區"
"235003","097-UM","2018/02/26 14:39:24","新北市中和區景平路274-1號","121.514386666667","24.99251","6500300","中和區"
"235029","098-UM","2018/02/26 14:39:29","新北市中和區福祥路118號","121.49897","25.00642","6500300","中和區"
"235004","150-BY","2018/02/26 14:39:10","新北市中和區宜安路7號","121.513351666667","24.99546","6500300","中和區"
"235022","151-BY","2018/02/26 14:39:19","新北市中和區連城路374巷13號","121.48146","24.995965","6500300","中和區"
"235019","183-VK","2018/02/26 14:39:25","新北市中和區民生街12巷1號","121.470548333333","25.00563","6500300","中和區"
"235002","185-VK","2018/02/26 14:39:13","新北市中和區大智街55巷30弄17號","121.521431666667","24.9932466666667","6500300","中和區"
"235013","186-VK","2018/02/26 14:39:21","新北市中和區景安路139號","121.505695","24.9955933333333","6500300","中和區"
"235031","255-BX","2018/02/26 14:39:20","新北市中和區新生街186巷12號","121.48307","24.9996983333333","6500300","中和區"
"235008","293-VK","2018/02/26 14:39:09","新北市中和區興南路一段173號","121.508356666667","24.986675","6500300","中和區"
"235036","301-VK","2018/02/26 14:39:19","新北市中和區泰和街2號","121.500091666667","25.0013883333333","6500300","中和區"
"235007","352-BY","2018/02/26 14:39:26","新北市中和區景平路526號","121.502948333333","24.9945083333333","6500300","中和區"
"235032","377-QA","2018/02/26 14:39:27","新北市中和區福美路301巷16號","121.497523333333","25.00418","6500300","中和區"
"235035","269-TV","2018/02/26 14:39:12","新北市中和區連城路469巷11號","121.483635","24.9955566666667","6500300","中和區"
"235014","4979-A6","2018/02/26 14:39:14","新北市中和區員山路36巷16-3號","121.484986666667","24.9914933333333","6500300","中和區"
"235006","551-UM","2018/02/26 14:39:24","新北市中和區景安路2號","121.507785","24.9992616666667","6500300","中和區"
"235009","565-BX","2018/02/26 14:39:18","新北市中和區安樂路8-1號","121.51172","24.99183","6500300","中和區"
"235018","640-BX","2018/02/26 14:39:26","新北市中和區德光路84號","121.468973333333","25.0036416666667","6500300","中和區"
"235024","647-TV","2018/02/26 14:39:26","新北市中和區新生街30巷31號","121.48209","25.0037783333333","6500300","中和區"
"235011","732-UM","2018/02/26 14:39:20","新北市中和區南山路283巷12號","121.50459","24.9924733333333","6500300","中和區"
"235010","733-UM","2018/02/26 14:39:15","新北市中和區四維街28號","121.512745","24.9872183333333","6500300","中和區"
"235026","800-TS","2018/02/26 14:39:09","新北市中和區錦和路3號","121.485961666667","25.0042116666667","6500300","中和區"
"235021","801-TS","2018/02/26 14:39:15","新北市中和區員山路202號","121.481418333333","25.00063","6500300","中和區"
"235016","805-TS","2018/02/26 14:39:13","新北市中和區華新街143巷63弄2號","121.506413333333","24.9791983333333","6500300","中和區"
"235012","896-TW","2018/02/26 14:39:31","新北市中和區景新街493號","121.513903333333","24.987145","6500300","中和區"
"235017","900-TW","2018/02/26 14:39:18","新北市中和區國光街189巷29號","121.467708333333","25.0005366666667","6500300","中和區"
"235015","157-BY","2018/02/26 14:39:21","新北市中和區板南路132號","121.502461666667","24.99258","6500300","中和區"
"235001","AAC-213","2018/02/26 14:39:17","新北市中和區秀朗路三段10巷29弄1號","121.524993333333","24.99613","6500300","中和區"
"235023","AAC-215","2018/02/26 14:39:14","新北市中和區圓通路256號","121.49329","24.9910116666667","6500300","中和區"
"220016","013-TV","2018/02/26 14:39:11","新北市板橋區中山路二段416巷1弄4號","121.483323333333","25.0207733333333","6500100","板橋區"
"220013","072-UY","2018/02/26 14:39:28","新北市板橋區國泰街104號","121.466678333333","25.00644","6500100","板橋區"
"220034","073-UY","2018/02/26 14:39:30","新北市板橋區中正路37號","121.456328333333","25.01322","6500100","板橋區"
"220105","075-UY","2018/02/26 14:39:28","新北市板橋區文化路二段464號","121.47471","25.032495","6500100","板橋區"
"220017","AAD-861","2018/02/26 14:39:26","新北市板橋區稚暉街1號","121.455936666667","25.0045716666667","6500100","板橋區"
"247021","893-R6","2018/02/26 14:39:19","新北市蘆洲區三民路126號","121.471138333333","25.087545","6501400","蘆洲區"
"247019","500-BY","2018/02/26 14:39:29","新北市蘆洲區民權路131巷8號","121.471466666667","25.0899883333333","6501400","蘆洲區"
"247009","339-TH","2018/02/26 14:39:25","新北市蘆洲區信義路222巷32弄1號","121.480468333333","25.085485","6501400","蘆洲區"
"247001","337-TH","2018/02/26 14:39:27","新北市蘆洲區永樂街38巷2號","121.458126666667","25.08853","6501400","蘆洲區"
"247003","336-TH","2018/02/26 14:39:25","新北市蘆洲區永安南路二段328巷2號","121.457016666667","25.0830616666667","6501400","蘆洲區"
"247011","335-TH","2018/02/26 14:39:25","新北市蘆洲區集賢路224巷66號","121.48073","25.0881066666667","6501400","蘆洲區"
"247015","057-VK","2018/02/26 14:39:20","新北市蘆洲區正和街25號","121.469856666667","25.0821","6501400","蘆洲區"
"247005","056-VK","2018/02/26 14:39:25","新北市蘆洲區長安街68巷7號","121.46299","25.0804683333333","6501400","蘆洲區"
"247007","053-VK","2018/02/26 14:39:25","新北市蘆洲區中山一路275號","121.472226666667","25.0796366666667","6501400","蘆洲區"
"247013","007-UY","2018/02/26 14:39:11","新北市蘆洲區中山二路130號","121.471726666667","25.0816966666667","6501400","蘆洲區"
"247023","002-UY","2018/02/26 14:39:23","新北市蘆洲區正和街61號","121.468813333333","25.0812133333333","6501400","蘆洲區"
"247017","001-UY","2018/02/26 14:39:28","新北市蘆洲區復興路323巷368號","121.47413","25.0939816666667","6501400","蘆洲區"
"235005","251-BX","2018/02/26 14:39:15","新北市中和區中和路250-1號","121.507513333333","24.9996166666667","6500300","中和區"
"227008","400-TW","2018/02/26 14:39:24","新北市雙溪區三貂里政光路3-1號","121.850828333333","25.0630533333333","6502500","雙溪區"
"253003","6232-TK","2018/02/26 14:39:16","新北市石門區尖子鹿84號","121.576306666667","25.294965","6502200","石門區"
"253001","6251-TK","2018/02/26 14:39:20","新北市石門區崁子腳89-1號","121.535225","25.27382","6502200","石門區"
"253002","637-UY","2018/02/26 14:39:26","新北市三芝區橫山里橫山35號","121.544845","25.25798","6502200","石門區"
"253004","8270-PC","2018/02/26 14:39:23","新北市石門區內阿里磅55號","121.579018333333","25.249385","6502200","石門區"
"252005","073-UM","2018/02/26 14:39:29","新北市三芝區埔坪里埔頭坑107-1號","121.514415","25.2470716666667","6502100","三芝區"
"207001","662-BX","2018/02/26 14:39:28","新北市萬里區雙興里豐稟路26號","121.641453333333","25.1877133333333","6502800","萬里區"
"236064","105-UM","2018/02/26 14:39:17","新北市土城區永豐路185號","121.470231666667","24.9782133333333","6501300","土城區"
"236040","107-UM","2018/02/26 14:39:13","新北市土城區學成路108巷13弄2號","121.450213333333","24.9897683333333","6501300","土城區"
"236074","166-UM","2018/02/26 14:39:14","新北市土城區中央路四段52巷48號","121.418581666667","24.9602516666667","6501300","土城區"
"236028","253-BX","2018/02/26 14:39:17","新北市土城區中華路二段175號","121.438505","24.9749733333333","6501300","土城區"
"236024","269-VK","2018/02/26 14:39:28","新北市土城區和平路7號","121.442795","24.9743183333333","6501300","土城區"
"236012","270-VK","2018/02/26 14:39:32","新北市土城區清水路196號","121.460333333333","24.981815","6501300","土城區"
"236032","271-VK","2018/02/26 14:39:15","新北市土城區明德路一段313巷3弄13號","121.46017","24.9765683333333","6501300","土城區"
"236016","401-BY","2018/02/26 14:39:19","新北市土城區延吉街251號","121.467541666667","24.9847916666667","6501300","土城區"
"236005","498-BY","2018/02/26 14:39:19","新北市土城區中華路一段301號","121.43974","24.9796833333333","6501300","土城區"
"236044","752-BX","2018/02/26 14:39:22","新北市土城區明德路一段95號","121.465625","24.983185","6501300","土城區"
"236056","912-UM","2018/02/26 14:39:11","新北市土城區中興路1號","121.424915","24.96275","6501300","土城區"
"236060","915-UM","2018/02/26 14:39:28","新北市土城區延壽路32-7號","121.470921666667","24.991435","6501300","土城區"
"236052","AAC-216","2018/02/26 14:39:11","新北市土城區中華路一段45號","121.445821666667","24.9883616666667","6501300","土城區"
"238006","599-UM","2018/02/26 14:39:18","新北市樹林區育德街78號","121.387573333333","24.9683266666667","6500700","樹林區"
"221032","280-BY","2018/02/26 14:39:25","台北市文山區老泉街45巷18-1號","121.574091666667","24.9759783333333","6501100","汐止區"
"220027","145-BY","2018/02/26 14:39:34","新北市板橋區復興街62號","121.458951666667","25.0175916666667","6500100","板橋區"
"220028","200-UY","2018/02/26 14:39:22","新北市板橋區大觀路二段37巷280號","121.44978","25.00099","6500100","板橋區"
"220030","610-BX","2018/02/26 14:39:24","新北市板橋區金門街293號","121.430305","24.9867","6500100","板橋區"
"220050","245-BX","2018/02/26 14:39:28","新北市板橋區莊敬路220巷19號","121.472475","25.0206233333333","6500100","板橋區"
"220045","257-TC","2018/02/26 14:39:16","新北市板橋區民生路二段240巷25號","121.469133333333","25.0231766666667","6500100","板橋區"
"220004","276-BY","2018/02/26 14:39:27","新北市板橋區四川路一段485號","121.457355","24.9970866666667","6500100","板橋區"
"220020","277-BY","2018/02/26 14:39:16","新北市板橋區金門街253巷12號","121.432895","24.9882383333333","6500100","板橋區"
"220019","283-VK","2018/02/26 14:39:19","新北市板橋區信義路279巷11號","121.462075","24.9895033333333","6500100","板橋區"
"220043","285-UM","2018/02/26 14:39:17","新北市板橋區宏國路75號","121.469033333333","25.03209","6500100","板橋區"
"220001","285-VK","2018/02/26 14:39:26","新北市板橋區懷仁街81號","121.477478333333","25.0185383333333","6500100","板橋區"
"220031","286-VK","2018/02/26 14:39:20","新北市板橋區龍興街65巷70號","121.44211","25.0020766666667","6500100","板橋區"
"220029","287-VK","2018/02/26 14:39:18","新北市板橋區大觀路一段29巷10弄39號","121.449893333333","25.0055516666667","6500100","板橋區"
"220009","293-UM","2018/02/26 14:39:18","新北市板橋區板新路200巷16號","121.468871666667","25.0164416666667","6500100","板橋區"
"220032","296-UM","2018/02/26 14:39:21","新北市板橋區滿平二街2巷1弄24號","121.424973333333","24.986955","6500100","板橋區"
"220023","303-R5","2018/02/26 14:39:14","新北市板橋區中正路289巷33號","121.454503333333","25.01879","6500100","板橋區"
"220010","305-R5","2018/02/26 14:39:33","新北市板橋區三民路二段95巷21號","121.480528333333","25.0164866666667","6500100","板橋區"
"220041","307-R5","2018/02/26 14:39:21","新北市板橋區文化路一段362-3號","121.4684","25.0234933333333","6500100","板橋區"
"220047","317-R6","2018/02/26 14:39:27","新北市板橋區四維路269巷46-2號","121.461331666667","25.0275066666667","6500100","板橋區"
"220012","486-VK","2018/02/26 14:39:29","新北市板橋區民權路12號","121.463328333333","25.0098016666667","6500100","板橋區"
"220038","487-VK","2018/02/26 14:39:28","新北市板橋區陽明街251號","121.46269","25.025125","6500100","板橋區"
"220037","491-VK","2018/02/26 14:39:21","新北市板橋區雙十路二段83-3號","121.475775","25.0273533333333","6500100","板橋區"
"220104","560-BX","2018/02/26 14:39:23","新北市板橋區金華街145號","121.459738333333","25.021","6500100","板橋區"
"220052","561-BX","2018/02/26 14:39:30","新北市板橋區文化路一段286巷13號","121.468001666667","25.0214266666667","6500100","板橋區"
"220011","609-BX","2018/02/26 14:39:15","新北市板橋區三民路二段113號","121.479196666667","25.015845","6500100","板橋區"
"220040","637-BX","2018/02/26 14:39:17","新北市板橋區懷德街201巷20號","121.481726666667","25.029635","6500100","板橋區"
"220005","686-BX","2018/02/26 14:39:14","新北市板橋區和平路13號","121.459681666667","24.9944883333333","6500100","板橋區"
"220025","687-BX","2018/02/26 14:39:23","新北市板橋區僑中二街102巷1號","121.44606","25.00807","6500100","板橋區"
"220042","689-BX","2018/02/26 14:39:21","新北市板橋區新海路332號","121.460343333333","25.0243183333333","6500100","板橋區"
"220002","741-BX","2018/02/26 14:39:14","新北市板橋區忠孝路235號","121.466045","25.002895","6500100","板橋區"
"220051","KEA-2699","2018/02/26 14:39:26","新北市板橋區雙十路二段46巷45號","121.475815","25.0291916666667","6500100","板橋區"
"220003","827-TW","2018/02/26 14:39:28","新北市板橋區國慶路149巷2弄1-4號","121.461315","24.99658","6500100","板橋區"
"220014","829-TW","2018/02/26 14:39:27","新北市板橋區漢生東路299巷21-1號","121.47269","25.0088583333333","6500100","板橋區"
"220039","830-TW","2018/02/26 14:39:13","新北市板橋區長江路一段115號","121.459905","25.0298216666667","6500100","板橋區"
"220022","895-R6","2018/02/26 14:39:18","新北市板橋區倉後街2-1號","121.455848333333","25.0084083333333","6500100","板橋區"
"220021","985-R7","2018/02/26 14:39:27","新北市板橋區新生街45號","121.457075","25.0210116666667","6500100","板橋區"
"220046","AAC-210","2018/02/26 14:39:26","新北市板橋區漢生西路89巷2弄26號","121.461718333333","25.0198833333333","6500100","板橋區"
"220018","AAC-253","2018/02/26 14:39:30","新北市板橋區館前東路108-1號","121.463131666667","25.0077","6500100","板橋區"
