"lineid","car","time","location","longitude","latitude","cityid","cityname"
"234012","KEA-2591","2018/02/26 14:59:24","新北市八里區中山路三段275號","121.379186666667","25.139165","6500400","永和區"
"234025","9371-KE","2018/02/26 14:59:26","新北市永和區保生路2號","121.506818333333","25.0072883333333","6500400","永和區"
"248013","025-BX","2018/02/26 14:59:35","新北市五股區成泰路三段43-1號","121.442256666667","25.088785","6501500","五股區"
"248015","026-BX","2018/02/26 14:59:41","新北市五股區凌雲路一段158巷39弄12號","121.446533333333","25.1041","6501500","五股區"
"248007","095-VK","2018/02/26 14:59:41","新北市五股區四維路30巷15號","121.468245","25.07152","6501500","五股區"
"248019","225-UY","2018/02/26 14:59:34","新北市五股區凌雲路三段3-1號","121.431333333333","25.1069616666667","6501500","五股區"
"248011","247-BX","2018/02/26 14:59:27","新北市五股區六合街42號","121.432805","25.0894033333333","6501500","五股區"
"248003","677-BX","2018/02/26 14:59:38","新北市五股區成泰路一段32巷62號","121.435048333333","25.0669233333333","6501500","五股區"
"234072","AAC-211","2018/02/26 14:59:38","新北市三重區後埔街61-1號","121.479588333333","25.0475233333333","6500400","永和區"
"244001","248-BX","2018/02/26 14:59:30","新北市林口區竹林路266號","121.389661666667","25.08079","6501700","林口區"
"243004","AAD-798","2018/02/26 14:59:24","新北市泰山區楓江路53號","121.435711666667","25.062655","6501600","泰山區"
"243003","297-R6","2018/02/26 14:59:40","新北市新莊區壽山路3號","121.420773333333","25.0289183333333","6501600","泰山區"
"243007","380-SR","2018/02/26 14:59:43","新北市泰山區仁德路2號","121.434985","25.05714","6501600","泰山區"
"243006","421-VK","2018/02/26 14:59:08","新北市泰山區明志路一段152號","121.43331","25.0629816666667","6501600","泰山區"
"243002","KEA-2215","2018/02/26 14:59:34","新北市泰山區新生路33-5號","121.427668333333","25.0456483333333","6501600","泰山區"
"243001","KEA-2216","2018/02/26 14:59:22","新北市泰山區明志路一段191號","121.432978333333","25.0617066666667","6501600","泰山區"
"243005","646-TV","2018/02/26 14:59:40","新北市泰山區中央路5巷46號","121.428418333333","25.0427183333333","6501600","泰山區"
"243008","680-BX","2018/02/26 14:59:33","新北市泰山區明志路二段390號","121.425351666667","25.04449","6501600","泰山區"
"231029","001-UM","2018/02/26 14:59:42","新北市新店區錦秀路50號","121.479048333333","24.9434016666667","6500600","新店區"
"231002","002-UM","2018/02/26 14:59:38","新北市新店區民權路46號","121.540135","24.98305","6500600","新店區"
"231025","0293-UT","2018/02/26 14:59:24","新北市新店區大同街42號","121.538705","24.980755","6500600","新店區"
"231028","046-UY","2018/02/26 14:59:35","新北市新店區安豐路49號","121.500046666667","24.9549016666667","6500600","新店區"
"231030","047-UY","2018/02/26 14:59:23","新北市新店區安興路83-8號","121.515271666667","24.9756366666667","6500600","新店區"
"231018","107-UY","2018/02/26 14:59:25","新北市新店區中央七街6號","121.530405","24.974595","6500600","新店區"
"231011","108-UY","2018/02/26 14:59:38","新北市新店區中興路三段205巷7弄1號","121.543206666667","24.981475","6500600","新店區"
"231019","187-VK","2018/02/26 14:59:36","新北市新店區永福路54-2號","121.558153333333","24.9287016666667","6500600","新店區"
"231014","KEA-2219","2018/02/26 14:59:34","新北市新店區銀河路88號","121.580586666667","24.9595116666667","6500600","新店區"
"231026","256-BX","2018/02/26 14:59:40","新北市新店區中正路198號","121.540735","24.972755","6500600","新店區"
"231023","AAD-862","2018/02/26 14:59:35","新北市新店區檳榔路105號","121.544748333333","24.9616183333333","6500600","新店區"
"231036","512-UM","2018/02/26 14:59:20","新北市新店區安祥路102巷42弄37號","121.485303333333","24.963415","6500600","新店區"
"231035","515-UM","2018/02/26 14:59:35","新北市新店區永安街56巷19號","121.51887","24.98585","6500600","新店區"
"231001","619-UM","2018/02/26 14:59:30","新北市新店區中正路274號","121.538893333333","24.97364","6500600","新店區"
"231003","641-BX","2018/02/26 14:59:31","新北市新店區中興路二段226號","121.547948333333","24.9751516666667","6500600","新店區"
"231034","645-TV","2018/02/26 14:59:29","新北市新店區玫瑰路4-1號","121.493618333333","24.951405","6500600","新店區"
"231039","718-UY","2018/02/26 14:59:26","新北市新店區民權路8號","121.542523333333","24.9829816666667","6500600","新店區"
"231031","720-UM","2018/02/26 14:59:43","新北市新店區安泰路60巷134弄46號","121.48416","24.9439016666667","6500600","新店區"
"231005","897-TW","2018/02/26 14:59:37","新北市新店區建國路299號","121.537443333333","24.9868433333333","6500600","新店區"
"231006","898-TW","2018/02/26 14:59:44","新北市新店區新坡一街78號","121.548006666667","24.964625","6500600","新店區"
"231004","899-TW","2018/02/26 14:59:30","新北市新店區民族路14-1號","121.541416666667","24.9788483333333","6500600","新店區"
"231037","AKT-0513","2018/02/26 14:59:30","新北市新店區安康路二段320巷15弄2號","121.504075","24.95962","6500600","新店區"
"235030","003-UY","2018/02/26 14:59:42","新北市中和區中山路二段59號","121.504238333333","25.004755","6500300","中和區"
"235020","096-UM","2018/02/26 14:59:44","新北市中和區中山路三段136巷7號","121.473461666667","25.0071716666667","6500300","中和區"
"235003","097-UM","2018/02/26 14:59:45","新北市永和區中正路65號","121.514578333333","24.9967783333333","6500300","中和區"
"235029","098-UM","2018/02/26 14:59:34","新北市中和區橋和路318號","121.497316666667","25.0071366666667","6500300","中和區"
"235004","150-BY","2018/02/26 14:59:30","新北市中和區景安路79巷21號","121.507043333333","24.9967533333333","6500300","中和區"
"235022","151-BY","2018/02/26 14:59:39","新北市中和區員山路148巷19號","121.482025","24.997165","6500300","中和區"
"235013","186-VK","2018/02/26 14:59:41","新北市中和區景平路520號","121.50329","24.994045","6500300","中和區"
"235007","352-BY","2018/02/26 14:59:26","新北市中和區興南路二段159巷31號","121.505548333333","24.9826766666667","6500300","中和區"
"235032","377-QA","2018/02/26 14:59:27","新北市中和區勝利路35巷1弄36號","121.500311666667","25.0078666666667","6500300","中和區"
"235035","269-TV","2018/02/26 14:59:32","新北市中和區中正路786號","121.485245","25.0009116666667","6500300","中和區"
"235014","4979-A6","2018/02/26 14:59:34","新北市中和區景平路155巷2弄1號","121.513431666667","24.99185","6500300","中和區"
"235033","4980-A6","2018/02/26 14:59:33","新北市中和區景平路477號","121.500193333333","24.9971133333333","6500300","中和區"
"235018","640-BX","2018/02/26 14:59:26","新北市中和區莒光路76號","121.4723","25.0029566666667","6500300","中和區"
"235010","733-UM","2018/02/26 14:59:35","新北市中和區興南路一段105巷20弄4號","121.510293333333","24.985755","6500300","中和區"
"235016","805-TS","2018/02/26 14:59:33","新北市中和區忠孝街1號","121.508866666667","24.983015","6500300","中和區"
"235012","896-TW","2018/02/26 14:59:31","新北市中和區忠孝街2-8號","121.509193333333","24.9830233333333","6500300","中和區"
"235017","900-TW","2018/02/26 14:59:39","新北市中和區民德路208號","121.468255","24.998335","6500300","中和區"
"235034","911-UM","2018/02/26 14:59:27","新北市中和區中山路二段234號","121.498295","25.0026116666667","6500300","中和區"
"235015","157-BY","2018/02/26 14:59:42","新北市中和區景安路212號","121.503983333333","24.9907983333333","6500300","中和區"
"235001","AAC-213","2018/02/26 14:59:37","新北市中和區自立路141巷2號","121.522345","24.9933433333333","6500300","中和區"
"235023","AAC-215","2018/02/26 14:59:34","新北市中和區圓通路365號","121.491416666667","24.9897066666667","6500300","中和區"
"220016","013-TV","2018/02/26 14:59:31","新北市板橋區中山路二段光榮巷30弄24號","121.484183333333","25.020425","6500100","板橋區"
"220013","072-UY","2018/02/26 14:59:28","新北市板橋區海山路39號","121.467276666667","25.00972","6500100","板橋區"
"220105","075-UY","2018/02/26 14:59:29","新北市板橋區仁化街150巷5-1號","121.47809","25.0330166666667","6500100","板橋區"
"220017","AAD-861","2018/02/26 14:59:26","新北市板橋區貴興路60號","121.456753333333","25.0030733333333","6500100","板橋區"
"247013","007-UY","2018/02/26 14:59:30","新北市蘆洲區中央路56號","121.4733","25.0836716666667","6501400","蘆洲區"
"227008","400-TW","2018/02/26 14:59:44","新北市雙溪區三貂里政光路3-1號","121.850825","25.0630166666667","6502500","雙溪區"
"253003","6232-TK","2018/02/26 14:59:36","新北市石門區小坑9號","121.594468333333","25.2892033333333","6502200","石門區"
"253001","6251-TK","2018/02/26 14:59:40","新北市石門區崁子腳30-1號","121.536173333333","25.2876333333333","6502200","石門區"
"253002","637-UY","2018/02/26 14:59:26","新北市石門區楓林46號","121.542991666667","25.2786933333333","6502200","石門區"
"253004","8270-PC","2018/02/26 14:59:32","新北市石門區茂林社區86號","121.592781666667","25.2695983333333","6502200","石門區"
"252005","073-UM","2018/02/26 14:59:28","新北市三芝區埔頭里埔頭11號","121.501785","25.2519316666667","6502100","三芝區"
"207001","662-BX","2018/02/26 14:59:28","新北市萬里區雙興里豐稟路6-1號","121.649083333333","25.1852316666667","6502800","萬里區"
"236064","105-UM","2018/02/26 14:59:37","新北市土城區明德路二段207號","121.44646","24.983715","6501300","土城區"
"236040","107-UM","2018/02/26 14:59:33","新北市土城區學府路一段229巷11號","121.451798333333","24.9837883333333","6501300","土城區"
"236074","166-UM","2018/02/26 14:59:37","新北市土城區中州路3巷50號","121.413463333333","24.9565","6501300","土城區"
"236028","253-BX","2018/02/26 14:59:37","新北市土城區順風路34號","121.441213333333","24.9767783333333","6501300","土城區"
"236024","269-VK","2018/02/26 14:59:42","新北市土城區中正路76號","121.44463","24.97536","6501300","土城區"
"236012","270-VK","2018/02/26 14:59:31","新北市土城區延和路13巷1號","121.46352","24.9884566666667","6501300","土城區"
"236032","271-VK","2018/02/26 14:59:34","新北市土城區仁愛路4號","121.459838333333","24.9812366666667","6501300","土城區"
"236016","401-BY","2018/02/26 14:59:39","新北市土城區延吉街166號","121.468448333333","24.9853516666667","6501300","土城區"
"236044","752-BX","2018/02/26 14:59:41","新北市土城區青雲路256號","121.459066666667","24.9797066666667","6501300","土城區"
"236056","912-UM","2018/02/26 14:59:31","新北市土城區清水路7號","121.45312","24.9803833333333","6501300","土城區"
"236060","915-UM","2018/02/26 14:59:28","新北市土城區延和路110號","121.46713","24.98989","6501300","土城區"
"236052","AAC-216","2018/02/26 14:59:31","新北市土城區裕民路45-1號","121.448518333333","24.988175","6501300","土城區"
"238010","601-UM","2018/02/26 14:59:23","新北市樹林區育德街78號","121.38805","24.96834","6500700","樹林區"
"238006","599-UM","2018/02/26 14:59:38","新北市樹林區育德街78號","121.387548333333","24.9684233333333","6500700","樹林區"
"238018","571-TV","2018/02/26 14:54:43","新北市樹林區育德街78-1號","121.388661666667","24.96774","6500700","樹林區"
"238012","303-VK","2018/02/26 14:59:33","新北市樹林區育德街78號","121.388225","24.9683216666667","6500700","樹林區"
"238001","283-BY","2018/02/26 14:59:25","新北市樹林區育德街78號","121.38751","24.9685016666667","6500700","樹林區"
"238001","282-BY","2018/02/26 14:59:32","新北市樹林區育德街78-1號","121.387676666667","24.9681616666667","6500700","樹林區"
"238013","172-UY","2018/02/26 14:59:25","新北市樹林區育德街78-1號","121.388188333333","24.9682666666667","6500700","樹林區"
"221002","707-TV","2018/02/26 14:59:30","新北市汐止區莊敬街29巷9弄13號","121.657683333333","25.0611033333333","6501100","汐止區"
"220027","145-BY","2018/02/26 14:59:34","新北市板橋區南雅西路二段145巷4號","121.451771666667","25.0117183333333","6500100","板橋區"
"220028","200-UY","2018/02/26 14:59:42","新北市板橋區大觀路二段169巷17號","121.44616","24.9999083333333","6500100","板橋區"
"220030","610-BX","2018/02/26 14:59:24","新北市板橋區大觀路三段160巷36號","121.42992","24.99408","6500100","板橋區"
"220050","245-BX","2018/02/26 14:59:29","新北市板橋區縣民大道三段91號","121.475793333333","25.02204","6500100","板橋區"
"220045","257-TC","2018/02/26 14:59:36","新北市板橋區莒光路79巷2-1號","121.471951666667","25.0243333333333","6500100","板橋區"
"220020","277-BY","2018/02/26 14:59:33","新北市板橋區金門街161號","121.43298","24.99045","6500100","板橋區"
"220019","283-VK","2018/02/26 14:59:39","新北市中和區和平路200巷1-8號","121.464426666667","24.9953216666667","6500100","板橋區"
"220043","285-UM","2018/02/26 14:59:32","新北市板橋區文德路12號","121.462755","25.0245233333333","6500100","板橋區"
"220001","285-VK","2018/02/26 14:59:34","新北市板橋區永豐街95號","121.473778333333","25.019225","6500100","板橋區"
"220031","286-VK","2018/02/26 14:59:40","新北市板橋區僑中二街48巷4-4號","121.446086666667","25.0103783333333","6500100","板橋區"
"220029","287-VK","2018/02/26 14:59:38","新北市板橋區僑中一街80巷6弄1號","121.4477","25.0121283333333","6500100","板橋區"
"220009","293-UM","2018/02/26 14:59:38","新北市板橋區中山路二段17號","121.472238333333","25.015035","6500100","板橋區"
"220032","296-UM","2018/02/26 14:59:42","新北市樹林區博愛街179號","121.424996666667","24.98924","6500100","板橋區"
"220023","303-R5","2018/02/26 14:59:34","新北市板橋區金華街5號","121.455621666667","25.0201866666667","6500100","板橋區"
"220010","305-R5","2018/02/26 14:59:37","新北市板橋區光復街110號","121.483718333333","25.0180883333333","6500100","板橋區"
"220041","307-R5","2018/02/26 14:59:41","新北市板橋區四維路259巷67號","121.460718333333","25.0267766666667","6500100","板橋區"
"220047","317-R6","2018/02/26 14:59:32","新北市板橋區漢生西路161號","121.462948333333","25.02315","6500100","板橋區"
"220012","486-VK","2018/02/26 14:59:29","新北市板橋區實踐路40號","121.46369","25.006735","6500100","板橋區"
"220038","487-VK","2018/02/26 14:59:28","新北市板橋區龍泉街110號","121.456805","25.024535","6500100","板橋區"
"220037","491-VK","2018/02/26 14:59:41","新北市板橋區文聖街94號","121.476403333333","25.031465","6500100","板橋區"
"220052","561-BX","2018/02/26 14:59:30","新北市板橋區自由路40號","121.465653333333","25.023225","6500100","板橋區"
"220011","609-BX","2018/02/26 14:59:34","新北市板橋區中山路二段531巷30號","121.482963333333","25.0222683333333","6500100","板橋區"
"220040","637-BX","2018/02/26 14:59:34","新北市板橋區文聖街147號","121.478543333333","25.0280883333333","6500100","板橋區"
"220005","686-BX","2018/02/26 14:59:34","新北市板橋區四川路二段2號","121.456618333333","24.9965366666667","6500100","板橋區"
"220025","687-BX","2018/02/26 14:59:23","新北市板橋區僑中一街124巷1弄2號","121.445903333333","25.0122433333333","6500100","板橋區"
"220042","689-BX","2018/02/26 14:59:41","新北市板橋區長江路二段59號","121.4646","25.031395","6500100","板橋區"
"220002","741-BX","2018/02/26 14:59:34","新北市板橋區實踐路93巷10號","121.464535","25.0054166666667","6500100","板橋區"
"220051","KEA-2699","2018/02/26 14:59:25","新北市板橋區文聖街42號","121.4765","25.0312966666667","6500100","板橋區"
"220003","827-TW","2018/02/26 14:59:34","新北市板橋區仁愛路86巷20號","121.461113333333","24.9987333333333","6500100","板橋區"
"220014","829-TW","2018/02/26 14:59:35","新北市板橋區漢生東路193巷69弄1號","121.47221","25.0122883333333","6500100","板橋區"
"220039","830-TW","2018/02/26 14:59:33","新北市板橋區龍泉街90巷1號","121.456301666667","25.0250283333333","6500100","板橋區"
"220022","895-R6","2018/02/26 14:59:38","新北市板橋區文化路一段52巷29號","121.461448333333","25.01109","6500100","板橋區"
"220021","985-R7","2018/02/26 14:59:27","新北市板橋區大仁街107號","121.452556666667","25.01565","6500100","板橋區"
"220046","AAC-210","2018/02/26 14:59:44","新北市板橋區文化路一段221巷16號","121.463136666667","25.01782","6500100","板橋區"
"220018","AAC-253","2018/02/26 14:59:30","新北市板橋區民族路107號","121.46678","25.008205","6500100","板橋區"
