"lineid","car","time","location","longitude","latitude","cityid","cityname"
"234012","KEA-2591","2018/02/26 15:09:24","新北市五股區凌雲路二段66號","121.438491666667","25.1062833333333","6500400","永和區"
"248007","095-VK","2018/02/26 15:09:21","新北市五股區中興路一段1巷15號","121.469721666667","25.0711616666667","6501500","五股區"
"248019","225-UY","2018/02/26 15:09:23","新北市五股區凌雲路二段48號","121.439461666667","25.1028833333333","6501500","五股區"
"248003","677-BX","2018/02/26 15:09:33","新北市五股區成泰路一段149號","121.435446666667","25.0732333333333","6501500","五股區"
"244001","248-BX","2018/02/26 15:09:30","新北市林口區竹林路266號","121.389666666667","25.0808","6501700","林口區"
"243004","AAD-798","2018/02/26 15:09:24","新北市泰山區忠孝街17巷2號","121.427555","25.0653833333333","6501600","泰山區"
"243003","297-R6","2018/02/26 15:09:20","新北市泰山區明志路三段515號","121.421331666667","25.0321833333333","6501600","泰山區"
"243007","380-SR","2018/02/26 15:09:14","新北市泰山區全興路109號","121.433621666667","25.0567","6501600","泰山區"
"243006","421-VK","2018/02/26 15:09:28","新北市泰山區黎明里35號","121.411146666667","25.0701866666667","6501600","泰山區"
"243002","KEA-2215","2018/02/26 15:09:26","新北市泰山區犁頭窠6號","121.421748333333","25.05897","6501600","泰山區"
"243001","KEA-2216","2018/02/26 15:09:28","新北市泰山區忠孝街41巷2號","121.428565","25.0654866666667","6501600","泰山區"
"243005","646-TV","2018/02/26 15:09:23","新北市泰山區犁頭窠8號","121.421793333333","25.0585616666667","6501600","泰山區"
"243008","680-BX","2018/02/26 15:09:32","新北市泰山區明志路二段220號","121.427235","25.048555","6501600","泰山區"
"231029","001-UM","2018/02/26 15:09:22","新北市新店區安康路三段738號","121.47381","24.9420166666667","6500600","新店區"
"231002","002-UM","2018/02/26 15:09:14","新北市新店區中正路501-4號","121.533656666667","24.9837783333333","6500600","新店區"
"231025","0293-UT","2018/02/26 15:09:24","新北市新店區二十張路46巷37弄1號","121.53652","24.9820966666667","6500600","新店區"
"231028","046-UY","2018/02/26 15:09:15","新北市新店區僑愛三路30號","121.499041666667","24.9447233333333","6500600","新店區"
"231030","047-UY","2018/02/26 15:09:24","新北市新店區安民街339號","121.516965","24.9748116666667","6500600","新店區"
"231018","107-UY","2018/02/26 15:09:25","新北市新店區中央六街85號","121.526593333333","24.976655","6500600","新店區"
"231011","108-UY","2018/02/26 15:09:18","新北市新店區寶元路一段65號","121.542256666667","24.985875","6500600","新店區"
"231019","187-VK","2018/02/26 15:09:16","新北市新店區湖興路128-7號","121.560563333333","24.93045","6500600","新店區"
"231026","256-BX","2018/02/26 15:09:20","新北市新店區建興街5號","121.540158333333","24.9764783333333","6500600","新店區"
"231023","AAD-862","2018/02/26 15:09:15","新北市新店區檳榔路74號","121.54276","24.9633133333333","6500600","新店區"
"231024","4716-K9","2018/02/26 15:09:16","新北市新店區中華路42巷20號","121.540738333333","24.9688","6500600","新店區"
"231036","512-UM","2018/02/26 15:09:35","新北市新店區安祥路102巷87號","121.48713","24.9635033333333","6500600","新店區"
"231035","515-UM","2018/02/26 15:09:32","新北市新店區安和路三段111巷4弄2號","121.51711","24.9847566666667","6500600","新店區"
"231001","619-UM","2018/02/26 15:09:33","新北市新店區博愛街1號","121.54053","24.9724816666667","6500600","新店區"
"231003","641-BX","2018/02/26 15:09:31","新北市新店區寶橋路236號","121.551545","24.9788833333333","6500600","新店區"
"231034","645-TV","2018/02/26 15:09:29","新北市新店區玫瑰路4-1號","121.493645","24.951415","6500600","新店區"
"231039","718-UY","2018/02/26 15:09:26","新北市新店區中興路三段223號","121.542925","24.9829866666667","6500600","新店區"
"231031","720-UM","2018/02/26 15:09:23","新北市新店區安泰路103號","121.48654","24.9439083333333","6500600","新店區"
"231005","897-TW","2018/02/26 15:09:17","新北市新店區北新路三段141號","121.541323333333","24.9832933333333","6500600","新店區"
"231006","898-TW","2018/02/26 15:09:24","新北市新店區新坡一街18巷5弄8-1號","121.55072","24.9617916666667","6500600","新店區"
"231004","899-TW","2018/02/26 15:09:27","新北市新店區建國路6-1號","121.539921666667","24.973465","6500600","新店區"
"231037","AKT-0513","2018/02/26 15:09:30","新北市新店區安民街341-1號","121.516555","24.97504","6500600","新店區"
"235030","003-UY","2018/02/26 15:09:28","新北市中和區水源路154巷2號","121.508125","25.0033266666667","6500300","中和區"
"235020","096-UM","2018/02/26 15:09:20","新北市板橋區長江路二段35號","121.4638","25.0317066666667","6500300","中和區"
"235003","097-UM","2018/02/26 15:09:05","新北市中和區安樂路143巷20號","121.513175","24.9967716666667","6500300","中和區"
"235004","150-BY","2018/02/26 15:09:10","新北市中和區中和路262號","121.50849","24.999395","6500300","中和區"
"235007","352-BY","2018/02/26 15:09:26","新北市中和區興南路二段159巷12號","121.505205","24.98317","6500300","中和區"
"235035","269-TV","2018/02/26 15:09:32","新北市中和區中正路998號","121.482441666667","25.0088683333333","6500300","中和區"
"235014","4979-A6","2018/02/26 15:09:34","新北市中和區景新街323-1號","121.511328333333","24.9921166666667","6500300","中和區"
"235033","4980-A6","2018/02/26 15:09:33","新北市中和區景新街45號","121.504185","24.999045","6500300","中和區"
"235012","896-TW","2018/02/26 15:09:31","新北市中和區興南路二段47號","121.50736","24.9855583333333","6500300","中和區"
"235034","911-UM","2018/02/26 15:09:27","新北市中和區景平路634-1號","121.50014","24.9982633333333","6500300","中和區"
"235015","157-BY","2018/02/26 15:09:21","新北市中和區景安路220巷20號","121.502743333333","24.9913966666667","6500300","中和區"
"235001","AAC-213","2018/02/26 15:09:17","新北市中和區自強路52號","121.5201","24.9948383333333","6500300","中和區"
"235023","AAC-215","2018/02/26 15:09:13","新北市中和區圓通路335巷37弄2號","121.493898333333","24.98938","6500300","中和區"
"220016","013-TV","2018/02/26 15:09:31","新北市板橋區中山路二段398號","121.482565","25.0207966666667","6500100","板橋區"
"220017","AAD-861","2018/02/26 15:09:26","新北市板橋區大明街25巷2弄22號","121.457563333333","25.0026033333333","6500100","板橋區"
"227008","400-TW","2018/02/26 15:09:24","新北市雙溪區三貂里政光路3-1號","121.85087","25.06305","6502500","雙溪區"
"253003","6232-TK","2018/02/26 15:09:16","新北市石門區小坑9號","121.594423333333","25.2883966666667","6502200","石門區"
"253001","6251-TK","2018/02/26 15:09:20","新北市石門區中央路14-1號","121.567071666667","25.29164","6502200","石門區"
"253002","637-UY","2018/02/26 15:09:26","新北市石門區楓林28-2號","121.54209","25.2890716666667","6502200","石門區"
"253004","8270-PC","2018/02/26 15:09:22","新北市石門區坪林6-1號","121.592263333333","25.2742266666667","6502200","石門區"
"252005","073-UM","2018/02/26 15:09:28","新北市三芝區淡金路一段57號","121.50002","25.259005","6502100","三芝區"
"207001","662-BX","2018/02/26 15:09:28","新北市萬里區磺潭里員潭路46號","121.645685","25.1927733333333","6502800","萬里區"
"236064","105-UM","2018/02/26 15:09:17","新北市土城區學成路151號","121.44839","24.989365","6501300","土城區"
"236040","107-UM","2018/02/26 15:09:33","新北市土城區學士路31號","121.452906666667","24.9822533333333","6501300","土城區"
"236074","166-UM","2018/02/26 15:09:14","新北市土城區中州路27巷5號","121.41359","24.9576133333333","6501300","土城區"
"236028","253-BX","2018/02/26 15:09:17","新北市土城區福祥街55號","121.440858333333","24.980095","6501300","土城區"
"236024","269-VK","2018/02/26 15:09:28","新北市土城區中央路二段162號","121.441993333333","24.9765333333333","6501300","土城區"
"236012","270-VK","2018/02/26 15:09:31","新北市土城區學府路一段115巷7號","121.456423333333","24.9873783333333","6501300","土城區"
"236032","271-VK","2018/02/26 15:09:34","新北市土城區仁愛路25號","121.462596666667","24.9784733333333","6501300","土城區"
"236016","401-BY","2018/02/26 15:09:19","新北市土城區延峰街23號","121.469026666667","24.9858833333333","6501300","土城區"
"236044","752-BX","2018/02/26 15:08:41","新北市土城區清水路24號","121.454693333333","24.9803233333333","6501300","土城區"
"236056","912-UM","2018/02/26 15:09:31","新北市土城區金城路二段23-1號","121.448416666667","24.9768483333333","6501300","土城區"
"236052","AAC-216","2018/02/26 15:09:31","新北市土城區裕民路174號","121.452456666667","24.9853116666667","6501300","土城區"
"238002","755-BX","2018/02/26 15:09:30","新北市樹林區八德街600號","121.39741","24.97019","6500700","樹林區"
"238010","601-UM","2018/02/26 15:09:23","新北市樹林區福德街3號","121.40164","24.9756083333333","6500700","樹林區"
"238006","599-UM","2018/02/26 15:09:18","新北市樹林區八德街212巷2號","121.417208333333","24.9728733333333","6500700","樹林區"
"238005","571-TV","2018/02/26 14:54:43","新北市樹林區育德街78-1號","121.388661666667","24.96774","6500700","樹林區"
"238011","5061-A6","2018/02/26 15:09:13","新北市樹林區八德街365-5號","121.418001666667","24.9723166666667","6500700","樹林區"
"238009","KEA-2213","2018/02/26 15:09:15","新北市樹林區八德街226-5號","121.415175","24.9713316666667","6500700","樹林區"
"238003","KEA-2539","2018/02/26 15:09:30","新北市樹林區西圳街一段165巷20弄28號","121.395675","24.9601283333333","6500700","樹林區"
"238012","303-VK","2018/02/26 15:09:33","新北市樹林區中山路三段27號","121.401598333333","24.9755516666667","6500700","樹林區"
"238001","283-BY","2018/02/26 15:09:25","新北市樹林區中山路二段237號","121.402266666667","24.9759716666667","6500700","樹林區"
"238001","282-BY","2018/02/26 15:09:12","新北市樹林區中山路三段67-5號","121.40074","24.975105","6500700","樹林區"
"238007","268-VK","2018/02/26 15:09:15","新北市樹林區中山路三段67-5號","121.400678333333","24.9750883333333","6500700","樹林區"
"238013","172-UY","2018/02/26 15:09:25","新北市樹林區八德街226-6號","121.414936666667","24.971415","6500700","樹林區"
"238003","169-UY","2018/02/26 15:09:25","新北市樹林區中洲街24號","121.397181666667","24.9719366666667","6500700","樹林區"
"220030","610-BX","2018/02/26 15:09:24","新北市板橋區溪崑二街40號","121.428268333333","24.9908733333333","6500100","板橋區"
"220050","245-BX","2018/02/26 15:09:28","新北市板橋區莒光路180巷23號","121.473135","25.02263","6500100","板橋區"
"220019","283-VK","2018/02/26 15:09:19","新北市板橋區四川路二段14號","121.45613","24.9963183333333","6500100","板橋區"
"220031","286-VK","2018/02/26 15:09:34","新北市板橋區僑中二街92巷10號","121.445841666667","25.0089933333333","6500100","板橋區"
"220029","287-VK","2018/02/26 15:09:18","新北市板橋區僑中一街124巷18弄43號","121.447843333333","25.0135716666667","6500100","板橋區"
"220009","293-UM","2018/02/26 15:09:29","新北市板橋區四川路一段274巷3-3號","121.457948333333","25.0013766666667","6500100","板橋區"
"220023","303-R5","2018/02/26 15:09:14","新北市板橋區金華街10巷48弄85號","121.459988333333","25.0204283333333","6500100","板橋區"
"220041","307-R5","2018/02/26 15:09:21","新北市板橋區裕民街128巷3號","121.458816666667","25.0277133333333","6500100","板橋區"
"220012","486-VK","2018/02/26 15:09:29","新北市板橋區漢生東路193巷23-4號","121.47103","25.012175","6500100","板橋區"
"220038","487-VK","2018/02/26 15:09:28","新北市板橋區龍泉街56-1號","121.457115","25.026025","6500100","板橋區"
"220037","491-VK","2018/02/26 15:09:20","新北市板橋區懷德街127巷2號","121.478986666667","25.0306933333333","6500100","板橋區"
"220052","561-BX","2018/02/26 15:09:30","新北市板橋區英士路58巷5號","121.460711666667","25.0250833333333","6500100","板橋區"
"220011","609-BX","2018/02/26 15:09:15","新北市板橋區中山路二段387號","121.480253333333","25.019315","6500100","板橋區"
"220040","637-BX","2018/02/26 15:09:34","新北市板橋區文聖街127號","121.478051666667","25.0287666666667","6500100","板橋區"
"220025","687-BX","2018/02/26 15:09:23","新北市板橋區僑中一街124巷62-9號","121.44677","25.01718","6500100","板橋區"
"220042","689-BX","2018/02/26 15:09:24","新北市板橋區長江路三段31-2號","121.473006666667","25.0338933333333","6500100","板橋區"
"220051","KEA-2699","2018/02/26 15:09:25","新北市板橋區民治街124號","121.477921666667","25.031125","6500100","板橋區"
"220003","827-TW","2018/02/26 15:09:28","新北市板橋區國慶路167巷35-3號","121.461476666667","24.9981333333333","6500100","板橋區"
"220014","829-TW","2018/02/26 15:09:27","新北市板橋區中山路一段206巷89號","121.472001666667","25.013275","6500100","板橋區"
"220039","830-TW","2018/02/26 15:09:33","新北市板橋區幸福路32巷42號","121.460726666667","25.0218883333333","6500100","板橋區"
"220022","895-R6","2018/02/26 15:08:58","新北市板橋區明德街12號","121.459951666667","25.01045","6500100","板橋區"
"220021","985-R7","2018/02/26 15:09:27","新北市板橋區南雅西路二段2-1號","121.45325","25.00874","6500100","板橋區"
"220046","AAC-210","2018/02/26 15:09:23","新北市板橋區光正街56號","121.46173","25.0178116666667","6500100","板橋區"
"220018","AAC-253","2018/02/26 15:09:30","新北市板橋區成都街103號","121.463476666667","25.0053666666667","6500100","板橋區"
