"lineid","car","time","location","longitude","latitude","cityid","cityname"
"234012","KEA-2591","2018/02/26 15:29:24","新北市永和區環河東路二段90號","121.52399","25.010605","6500400","永和區"
"231029","001-UM","2018/02/26 15:29:31","新北市新店區安康路三段525巷43號","121.481665","24.9447516666667","6500600","新店區"
"231002","002-UM","2018/02/26 15:29:34","新北市新店區環河路150-8號","121.534438333333","24.9679316666667","6500600","新店區"
"231025","0293-UT","2018/02/26 15:29:24","新北市新店區環河路105-12號","121.531896666667","24.97007","6500600","新店區"
"231028","046-UY","2018/02/26 15:29:15","新北市新店區僑信路25號","121.499503333333","24.9512416666667","6500600","新店區"
"231030","047-UY","2018/02/26 15:29:24","新北市新店區新和街54號","121.519806666667","24.9853483333333","6500600","新店區"
"231018","107-UY","2018/02/26 15:29:25","新北市新店區中央五街35號","121.528655","24.97496","6500600","新店區"
"231011","108-UY","2018/02/26 15:29:18","新北市新店區寶元路一段109號","121.545741666667","24.9831566666667","6500600","新店區"
"231019","187-VK","2018/02/26 15:29:36","新北市新店區新烏路一段87巷3號","121.546198333333","24.9419","6500600","新店區"
"231026","256-BX","2018/02/26 15:29:20","新北市新店區三民路117巷6弄1號","121.534076666667","24.9712166666667","6500600","新店區"
"231023","AAD-862","2018/02/26 15:29:15","新北市新店區北新路一段96巷23號","121.542881666667","24.9687083333333","6500600","新店區"
"231036","512-UM","2018/02/26 15:29:20","新北市新店區安祥路69巷54弄43號","121.482801666667","24.9587283333333","6500600","新店區"
"231035","515-UM","2018/02/26 15:29:12","新北市新店區安興路83-3號","121.515436666667","24.9756266666667","6500600","新店區"
"231003","641-BX","2018/02/26 15:29:31","新北市新店區寶高路120巷1號","121.554598333333","24.976","6500600","新店區"
"231034","645-TV","2018/02/26 15:29:29","新北市新店區富貴街11巷1號","121.494133333333","24.94901","6500600","新店區"
"231039","718-UY","2018/02/26 15:29:26","新北市新店區寶元路一段89號","121.543288333333","24.9851166666667","6500600","新店區"
"231031","720-UM","2018/02/26 15:29:23","新北市新店區雙城路115號","121.492536666667","24.94736","6500600","新店區"
"231005","897-TW","2018/02/26 15:29:24","新北市新店區建國路297號","121.53713","24.9861516666667","6500600","新店區"
"231006","898-TW","2018/02/26 15:29:24","新北市新店區安華路1-1號","121.51957","24.960495","6500600","新店區"
"231004","899-TW","2018/02/26 15:29:28","新北市新店區民族路108號","121.53818","24.97727","6500600","新店區"
"231037","AKT-0513","2018/02/26 15:29:30","新北市新店區安興路105-1號","121.514631666667","24.9776933333333","6500600","新店區"
"241013","270-UM","2018/02/26 15:29:13","新北市三重區忠孝路三段2號","121.481963333333","25.0677166666667","6500200","三重區"
"241029","942-UM","2018/02/26 15:29:19","新北市三重區成功路6號","121.490121666667","25.0501433333333","6500200","三重區"
"241033","AAC-255","2018/02/26 15:29:24","新北市三重區重新路四段121號","121.484931666667","25.0518266666667","6500200","三重區"
"235014","4979-A6","2018/02/26 15:29:34","新北市中和區景平路385巷8號","121.502513333333","24.9942033333333","6500300","中和區"
"235033","4980-A6","2018/02/26 15:29:13","新北市中和區連城路347巷18弄30號","121.487371666667","24.994785","6500300","中和區"
"235034","911-UM","2018/02/26 15:29:27","新北市中和區景平路517號","121.499266666667","24.99888","6500300","中和區"
"235001","AAC-213","2018/02/26 15:29:17","新北市五股區中興路三段163號","121.44894","25.0806766666667","6500300","中和區"
"235023","AAC-215","2018/02/26 15:29:36","新北市中和區員山路28-5號","121.482193333333","24.9869166666667","6500300","中和區"
"247004","336-TH","2018/02/26 15:26:28","新北市五股區中興路三段163號","121.44927","25.0805966666667","6501400","蘆洲區"
"227008","400-TW","2018/02/26 15:29:24","新北市雙溪區三貂里政光路3-1號","121.850903333333","25.06305","6502500","雙溪區"
"253003","6232-TK","2018/02/26 15:29:16","新北市石門區小坑9號","121.594078333333","25.2886783333333","6502200","石門區"
"253001","6251-TK","2018/02/26 15:29:20","新北市石門區小坑9號","121.594391666667","25.2891033333333","6502200","石門區"
"253002","637-UY","2018/02/26 15:29:26","新北市石門區小坑9號","121.594541666667","25.289205","6502200","石門區"
"253004","8270-PC","2018/02/26 15:29:22","新北市石門區小坑9號","121.594283333333","25.288935","6502200","石門區"
"207001","662-BX","2018/02/26 15:29:28","新北市萬里區龜吼里玉田路4-2號","121.680538333333","25.1842133333333","6502800","萬里區"
"236064","105-UM","2018/02/26 15:29:17","新北市土城區中央路二段193號","121.442061666667","24.97528","6501300","土城區"
"236040","107-UM","2018/02/26 15:29:33","新北市土城區學府路一段94號","121.45627","24.98801","6501300","土城區"
"236074","166-UM","2018/02/26 15:29:34","新北市土城區中央路四段293巷21號","121.411675","24.9514533333333","6501300","土城區"
"236028","253-BX","2018/02/26 15:29:20","新北市土城區中央路一段242巷8弄1號","121.443773333333","24.9853133333333","6501300","土城區"
"236024","269-VK","2018/02/26 15:29:28","新北市土城區明德路二段102巷8號","121.44554","24.9844433333333","6501300","土城區"
"236012","270-VK","2018/02/26 15:29:31","新北市土城區廣明街2號","121.456063333333","24.9916933333333","6501300","土城區"
"236032","271-VK","2018/02/26 15:29:14","新北市土城區延吉街296巷1弄1號","121.464476666667","24.9843033333333","6501300","土城區"
"236016","401-BY","2018/02/26 15:29:19","新北市土城區金城路三段200-11號","121.469303333333","24.98752","6501300","土城區"
"236044","752-BX","2018/02/26 15:29:21","新北市土城區明德路一段236號","121.460365","24.9773983333333","6501300","土城區"
"236056","912-UM","2018/02/26 15:29:32","新北市土城區中央路二段37號","121.442811666667","24.9799266666667","6501300","土城區"
"236060","915-UM","2018/02/26 15:29:28","新北市土城區金城路三段149巷4弄8號","121.468715","24.9890133333333","6501300","土城區"
"236052","AAC-216","2018/02/26 15:29:31","新北市土城區延和路63號","121.466818333333","24.9897583333333","6501300","土城區"
"238002","755-BX","2018/02/26 15:29:30","新北市樹林區復興路196號","121.420051666667","24.9910533333333","6500700","樹林區"
"238010","601-UM","2018/02/26 15:29:23","新北市樹林區中正路439-1號","121.415205","25.009","6500700","樹林區"
"238006","599-UM","2018/02/26 15:29:18","新北市樹林區太平路77號","121.419083333333","24.98165","6500700","樹林區"
"238005","571-TV","2018/02/26 15:25:23","新北市樹林區樹新路135號","121.428318333333","24.9962633333333","6500700","樹林區"
"238011","5061-A6","2018/02/26 15:29:13","新北市樹林區太平路225巷2號","121.418536666667","24.9769333333333","6500700","樹林區"
"238009","KEA-2213","2018/02/26 15:29:35","新北市樹林區信義街28號","121.423341666667","24.9822433333333","6500700","樹林區"
"238003","KEA-2539","2018/02/26 15:29:30","新北市樹林區西圳街一段135號","121.39735","24.9635366666667","6500700","樹林區"
"238012","303-VK","2018/02/26 15:29:33","新北市樹林區中山路一段163號","121.421828333333","24.9886983333333","6500700","樹林區"
"238001","283-BY","2018/02/26 15:29:25","新北市樹林區保安街二段335號","121.412291666667","25.0078216666667","6500700","樹林區"
"238001","282-BY","2018/02/26 15:29:32","新北市樹林區中正路55巷13號","121.426288333333","24.9993883333333","6500700","樹林區"
"238007","268-VK","2018/02/26 15:29:15","新北市樹林區俊英街116巷41弄33號","121.42823","25.0070766666667","6500700","樹林區"
"238013","172-UY","2018/02/26 15:29:25","新北市樹林區新興街21號","121.400336666667","24.9727183333333","6500700","樹林區"
"238003","169-UY","2018/02/26 15:29:30","新北市樹林區長壽街28巷4弄1-2號","121.423358333333","24.9944016666667","6500700","樹林區"
"220050","245-BX","2018/02/26 15:29:28","新北市板橋區莒光路64號","121.471221666667","25.0242166666667","6500100","板橋區"
"220031","286-VK","2018/02/26 15:29:20","新北市板橋區僑中二街108巷17號","121.444976666667","25.0072766666667","6500100","板橋區"
"220029","287-VK","2018/02/26 15:29:18","新北市板橋區大觀路三段54號","121.433508333333","24.995555","6500100","板橋區"
"220038","487-VK","2018/02/26 15:29:28","新北市板橋區四維路154號","121.464911666667","25.0258383333333","6500100","板橋區"
"220052","561-BX","2018/02/26 15:29:30","新北市板橋區漢生東路43巷28號","121.466421666667","25.017575","6500100","板橋區"
"220042","689-BX","2018/02/26 15:29:21","新北市板橋區長江路二段8號","121.464728333333","25.0312816666667","6500100","板橋區"
"220022","895-R6","2018/02/26 15:29:18","新北市泰山區新五路一段123號","121.440218333333","25.0622366666667","6500100","板橋區"
"220018","AAC-253","2018/02/26 15:29:30","新北市板橋區四川路二段245巷71號","121.452811666667","24.9920283333333","6500100","板橋區"
