"lineid","car","time","location","longitude","latitude","cityid","cityname"
"231029","001-UM","2018/02/26 15:39:22","新北市新店區安康路三段83號","121.49189","24.9519466666667","6500600","新店區"
"231025","0293-UT","2018/02/26 15:39:24","新北市新店區環河路105-12號","121.531801666667","24.9701733333333","6500600","新店區"
"231028","046-UY","2018/02/26 15:39:15","新北市新店區安豐路30-1號","121.500683333333","24.95694","6500600","新店區"
"231030","047-UY","2018/02/26 15:39:23","新北市新店區永安街109巷11號","121.521315","24.985995","6500600","新店區"
"231018","107-UY","2018/02/26 15:39:25","新北市新店區民生路156巷4號","121.528695","24.9810133333333","6500600","新店區"
"231011","108-UY","2018/02/26 15:39:18","新北市新店區文化路90號","121.545016666667","24.9825966666667","6500600","新店區"
"231019","187-VK","2018/02/26 15:39:36","新北市新店區新烏路一段87巷19-2號","121.547625","24.94201","6500600","新店區"
"231014","KEA-2219","2018/02/26 15:39:32","新北市新店區北宜路二段8號","121.547763333333","24.9518383333333","6500600","新店區"
"231026","256-BX","2018/02/26 15:39:20","新北市新店區三民路75巷4弄2號","121.535565","24.9709216666667","6500600","新店區"
"231046","278-BY","2018/02/26 15:39:29","新北市新店區安華路28-1號","121.519656666667","24.961085","6500600","新店區"
"231023","AAD-862","2018/02/26 15:39:15","新北市新店區中興路一段285號","121.545311666667","24.9685816666667","6500600","新店區"
"231038","4715-K9","2018/02/26 15:39:17","新北市新店區吉安街2-1號","121.517101666667","24.9656583333333","6500600","新店區"
"231036","512-UM","2018/02/26 15:39:22","新北市新店區安祥路63號","121.484003333333","24.9603133333333","6500600","新店區"
"231035","515-UM","2018/02/26 15:39:32","新北市新店區安興路83-3號","121.515341666667","24.9755083333333","6500600","新店區"
"231003","641-BX","2018/02/26 15:39:31","新北市新店區寶興路49-1號","121.549401666667","24.973015","6500600","新店區"
"231034","645-TV","2018/02/26 15:39:29","新北市新店區玫瑰路58巷2號","121.495378333333","24.9466483333333","6500600","新店區"
"231039","718-UY","2018/02/26 15:39:06","新北市新店區寶元路二段29號","121.54651","24.981905","6500600","新店區"
"231013","719-UM","2018/02/26 15:39:28","新北市新店區永業路81巷9弄2號","121.530965","24.9501883333333","6500600","新店區"
"231031","720-UM","2018/02/26 15:39:23","新北市新店區雙城路137號","121.494466666667","24.944955","6500600","新店區"
"231005","897-TW","2018/02/26 15:39:17","新北市新店區建國路132號","121.53906","24.97881","6500600","新店區"
"231004","899-TW","2018/02/26 15:39:27","新北市新店區民族路108號","121.53815","24.9773466666667","6500600","新店區"
"231037","AKT-0513","2018/02/26 15:39:30","新北市新店區安興路105-1號","121.514651666667","24.9777083333333","6500600","新店區"
"241011","013-R5","2018/02/26 15:39:17","新北市三重區龍濱路285號","121.501036666667","25.0734183333333","6500200","三重區"
"241015","062-VK","2018/02/26 15:39:05","新北市三重區重新路四段121號","121.485138333333","25.05205","6500200","三重區"
"241017","063-VK","2018/02/26 15:39:20","新北市三重區大仁街1號","121.491628333333","25.0636133333333","6500200","三重區"
"241003","156-TC","2018/02/26 15:39:29","新北市三重區重新路四段121號","121.485045","25.052135","6500200","三重區"
"241013","270-UM","2018/02/26 15:39:33","新北市三重區正義北路291號","121.495048333333","25.070555","6500200","三重區"
"241023","545-UM","2018/02/26 15:39:18","新北市三重區重新路四段121號","121.484801666667","25.0525116666667","6500200","三重區"
"241029","942-UM","2018/02/26 15:39:19","新北市三重區大同南路202號","121.4968","25.0567183333333","6500200","三重區"
"241033","AAC-255","2018/02/26 15:39:24","新北市三重區後埔街61-1號","121.47905","25.0472333333333","6500200","三重區"
"235033","4980-A6","2018/02/26 15:39:33","新北市中和區員山路359巷1弄8號","121.48096","25.0017033333333","6500300","中和區"
"235026","800-TS","2018/02/26 15:39:29","新北市中和區橋和路91號","121.490423333333","25.0055366666667","6500300","中和區"
"235034","911-UM","2018/02/26 15:39:27","新北市中和區圓通路172號","121.497375","24.9947283333333","6500300","中和區"
"235023","AAC-215","2018/02/26 15:39:34","新北市中和區員山路23號","121.480476666667","24.98514","6500300","中和區"
"247004","336-TH","2018/02/26 15:26:28","新北市五股區中興路三段163號","121.44927","25.0805966666667","6501400","蘆洲區"
"227001","642-TC","2018/02/26 15:39:18","新北市雙溪區牡丹里中正路39號","121.86451","25.0386016666667","6502500","雙溪區"
"227008","400-TW","2018/02/26 15:39:24","新北市雙溪區三貂里政光路3-1號","121.850843333333","25.06315","6502500","雙溪區"
"236064","105-UM","2018/02/26 15:39:17","新北市土城區中央路三段92-2號","121.435881666667","24.96668","6501300","土城區"
"236040","107-UM","2018/02/26 15:39:33","新北市土城區學成路3號","121.453436666667","24.9863833333333","6501300","土城區"
"236074","166-UM","2018/02/26 15:39:34","新北市土城區民族街68號","121.418143333333","24.9643266666667","6501300","土城區"
"236028","253-BX","2018/02/26 15:39:17","新北市土城區中央路一段121巷8弄2號","121.447551666667","24.9880783333333","6501300","土城區"
"236024","269-VK","2018/02/26 15:39:31","新北市土城區裕生路83巷24號","121.447666666667","24.9839983333333","6501300","土城區"
"236012","270-VK","2018/02/26 15:39:31","新北市土城區廣明街90巷18號","121.45541","24.9945066666667","6501300","土城區"
"236016","401-BY","2018/02/26 15:39:19","新北市土城區延吉街137巷15號","121.471006666667","24.985645","6501300","土城區"
"236044","752-BX","2018/02/26 15:39:21","新北市土城區金城路三段103號","121.467486666667","24.9876866666667","6501300","土城區"
"236056","912-UM","2018/02/26 15:39:31","新北市土城區中央路一段136號","121.446275","24.9876033333333","6501300","土城區"
"236060","915-UM","2018/02/26 15:39:28","新北市土城區延和路18巷12號","121.46446","24.9879783333333","6501300","土城區"
"236052","AAC-216","2018/02/26 15:39:31","新北市土城區學府路一段2號","121.459766666667","24.98847","6501300","土城區"
"238002","755-BX","2018/02/26 15:39:30","新北市樹林區日新街95號","121.421516666667","24.990125","6500700","樹林區"
"238010","601-UM","2018/02/26 15:39:23","新北市樹林區三福街114號","121.406508333333","25.0163333333333","6500700","樹林區"
"238006","599-UM","2018/02/26 15:39:18","新北市樹林區太平路225巷2號","121.418495","24.9769266666667","6500700","樹林區"
"238005","571-TV","2018/02/26 15:36:43","新北市樹林區太平路57-1號","121.419363333333","24.9822466666667","6500700","樹林區"
"238011","5061-A6","2018/02/26 15:39:33","新北市樹林區東豐街85號","121.410373333333","24.97374","6500700","樹林區"
"238009","KEA-2213","2018/02/26 15:39:15","新北市樹林區中華路187巷13號","121.420756666667","24.9810733333333","6500700","樹林區"
"238003","KEA-2539","2018/02/26 15:39:30","新北市樹林區柑園街一段21巷2號","121.40467","24.96057","6500700","樹林區"
"238012","303-VK","2018/02/26 15:39:33","新北市樹林區中山路二段110-4號","121.413935","24.9832633333333","6500700","樹林區"
"238004","283-BY","2018/02/26 15:39:25","新北市樹林區保安街二段297號","121.412308333333","25.0063733333333","6500700","樹林區"
"238001","282-BY","2018/02/26 15:39:32","新北市樹林區潭興街143巷28弄2號","121.424983333333","24.9996733333333","6500700","樹林區"
"238007","268-VK","2018/02/26 15:39:15","新北市樹林區俊英街210號","121.425306666667","25.0092966666667","6500700","樹林區"
"238013","172-UY","2018/02/26 15:39:25","新北市樹林區新興街19巷6號","121.400576666667","24.97262","6500700","樹林區"
"238003","169-UY","2018/02/26 15:39:25","新北市樹林區復興路236號","121.418671666667","24.9894333333333","6500700","樹林區"
"220050","245-BX","2018/02/26 15:39:29","新北市板橋區漢生東路83巷1號","121.466366666667","25.0159683333333","6500100","板橋區"
"220029","287-VK","2018/02/26 15:39:18","新北市樹林區八德街682號","121.396085","24.9689866666667","6500100","板橋區"
"220038","487-VK","2018/02/26 15:39:28","新北市板橋區四維路319號","121.462821666667","25.0290066666667","6500100","板橋區"
"220022","895-R6","2018/02/26 15:39:18","新北市五股區中直路11-21號","121.426955","25.109585","6500100","板橋區"
