"lineid","car","time","location","longitude","latitude","cityid","cityname"
"243016","680-BX","2018/02/26 16:01:15","新北市泰山區犁頭窠3-1號","121.42202","25.060485","6501600","泰山區"
"231046","278-BY","2018/02/26 16:29:29","新北市新店區灣潭路3-3號","121.538248333333","24.9507683333333","6500600","新店區"
"241011","013-R5","2018/02/26 16:29:17","新北市三重區龍濱路170號","121.501233333333","25.072675","6500200","三重區"
"241028","022-UY","2018/02/26 16:29:15","新北市三重區同安街114巷25號","121.494076666667","25.055525","6500200","三重區"
"241008","059-VK","2018/02/26 16:29:30","新北市三重區永福街122-2號","121.479043333333","25.075365","6500200","三重區"
"241009","060-VK","2018/02/26 16:29:28","新北市三重區三和路四段181巷106號","121.484808333333","25.0799016666667","6500200","三重區"
"241031","061-VK","2018/02/26 16:29:23","新北市三重區重陽路一段68號","121.486606666667","25.05872","6500200","三重區"
"241015","062-VK","2018/02/26 16:29:25","新北市三重區福德北路36-1號","121.501781666667","25.065215","6500200","三重區"
"241017","063-VK","2018/02/26 16:29:22","新北市三重區大同北路52號","121.495195","25.0630733333333","6500200","三重區"
"241026","066-VK","2018/02/26 16:29:23","新北市三重區光興街1號","121.500353333333","25.060395","6500200","三重區"
"241002","090-VK","2018/02/26 16:29:16","新北市三重區五華街7巷12號","121.495663333333","25.0803166666667","6500200","三重區"
"241003","156-TC","2018/02/26 16:29:29","新北市三重區仁義街228巷13號","121.494296666667","25.08456","6500200","三重區"
"241005","262-UM","2018/02/26 16:29:24","新北市三重區溪尾街305號","121.487476666667","25.0837533333333","6500200","三重區"
"241016","265-UM","2018/02/26 16:29:28","新北市三重區大智街21號","121.494273333333","25.0657966666667","6500200","三重區"
"241022","267-UM","2018/02/26 16:29:31","新北市三重區新北大道一段86巷7號","121.486046666667","25.0618966666667","6500200","三重區"
"241018","268-UM","2018/02/26 16:29:27","新北市三重區重陽路四段51號","121.491803333333","25.0700883333333","6500200","三重區"
"241032","269-UM","2018/02/26 16:29:33","新北市三重區三陽路100巷3弄13號","121.483031666667","25.0580666666667","6500200","三重區"
"241013","270-UM","2018/02/26 16:29:33","新北市三重區仁愛街52號","121.495825","25.07271","6500200","三重區"
"241025","271-UM","2018/02/26 16:29:15","新北市三重區中正北路560巷100弄2號","121.472531666667","25.0682283333333","6500200","三重區"
"241007","398-BY","2018/02/26 16:29:28","新北市三重區三和路四段167巷127號","121.487661666667","25.0802116666667","6500200","三重區"
"241020","413-TH","2018/02/26 16:29:27","新北市三重區後竹圍街205巷1號","121.485018333333","25.0717016666667","6500200","三重區"
"241004","475-VK","2018/02/26 16:29:32","新北市三重區仁愛街377巷52號","121.49244","25.08089","6500200","三重區"
"241024","478-VK","2018/02/26 16:29:32","新北市三重區中正北路315巷20號","121.474911666667","25.0714566666667","6500200","三重區"
"241030","480-VK","2018/02/26 16:29:29","新北市三重區成功路106-1號","121.487598333333","25.0514983333333","6500200","三重區"
"241014","543-UM","2018/02/26 16:29:26","新北市三重區河邊北街82號","121.504275","25.06901","6500200","三重區"
"241023","545-UM","2018/02/26 16:29:18","新北市三重區忠孝路三段50巷47號","121.482973333333","25.0644016666667","6500200","三重區"
"241001","547-UM","2018/02/26 16:29:22","新北市三重區福隆路52號","121.492643333333","25.0785633333333","6500200","三重區"
"241019","KEA-2593","2018/02/26 16:29:31","新北市三重區重陽路三段154號","121.489675","25.0674333333333","6500200","三重區"
"241006","887-TS","2018/02/26 16:29:15","新北市三重區力行路二段202號","121.483356666667","25.0776833333333","6500200","三重區"
"241012","941-UM","2018/02/26 16:29:17","新北市三重區河邊北街375號","121.501796666667","25.0762966666667","6500200","三重區"
"241029","942-UM","2018/02/26 16:29:19","新北市三重區集美街122號","121.488973333333","25.0535833333333","6500200","三重區"
"241033","AAC-255","2018/02/26 16:29:24","新北市三重區重新路五段440號","121.47483","25.0472716666667","6500200","三重區"
"235034","911-UM","2018/02/26 16:29:27","新北市中和區中正路637巷52弄1號","121.485431666667","24.9934033333333","6500300","中和區"
"247006","056-VK","2018/02/26 16:29:20","新北市五股區中興路三段163號","121.449135","25.08052","6501400","蘆洲區"
"224006","676-BX","2018/02/26 16:29:27","新北市瑞芳區大寮路356-1號","121.784995","25.1033283333333","6501200","瑞芳區"
"224008","275-VK","2018/02/26 16:29:23","新北市瑞芳區中山路26號","121.803955","25.1062166666667","6501200","瑞芳區"
"224007","273-VK","2018/02/26 16:29:26","新北市瑞芳區大埔路58號","121.763788333333","25.1022","6501200","瑞芳區"
"224005","271-BY","2018/02/26 16:29:30","新北市瑞芳區海濱路33號","121.831016666667","25.1238916666667","6501200","瑞芳區"
"227001","642-TC","2018/02/26 16:29:17","新北市雙溪區上林里內平林120-2號","121.824325","25.026215","6502500","雙溪區"
"227008","400-TW","2018/02/26 16:29:24","新北市雙溪區三港里雙澳路38-2號","121.872378333333","25.0508866666667","6502500","雙溪區"
"251013","179-VK","2018/02/26 16:29:28","新北市淡水區大溪8號","121.495648333333","25.1903483333333","6501000","淡水區"
"251008","181-VK","2018/02/26 16:29:26","新北市淡水區樹梅坑15號","121.47114","25.143605","6501000","淡水區"
"251015","182-VK","2018/02/26 16:29:16","新北市淡水區中正路二段28號","121.419835","25.1817216666667","6501000","淡水區"
"251012","441-VK","2018/02/26 16:29:23","新北市淡水區中正路二段31號","121.419423333333","25.1815966666667","6501000","淡水區"
"238001","282-BY","2018/02/26 16:29:32","新北市樹林區中正路22-1號","121.427806666667","24.999545","6500700","樹林區"
"238007","268-VK","2018/02/26 16:29:35","新北市樹林區俊英街280號","121.4238","25.0132483333333","6500700","樹林區"
"238013","172-UY","2018/02/26 16:29:25","新北市樹林區中和街11號","121.392028333333","24.972935","6500700","樹林區"
"220022","895-R6","2018/02/26 16:29:18","新北市新莊區三和路12-18號","121.442035","25.0376583333333","6500100","板橋區"
