"lineid","car","time","location","longitude","latitude","cityid","cityname"
"249005","172-UM","2018/02/26 17:29:18","新北市八里區荖阡坑路28-1號","121.40389","25.1296366666667","6502300","八里區"
"249001","173-UM","2018/02/26 17:29:24","新北市八里區中華路一段5號","121.422798333333","25.1583783333333","6502300","八里區"
"249004","303-UY","2018/02/26 17:29:13","新北市八里區民有街76號","121.415205","25.1563616666667","6502300","八里區"
"249002","305-UY","2018/02/26 17:29:19","新北市八里區烏山頭1-10號","121.447393333333","25.1403183333333","6502300","八里區"
"249003","593-UM","2018/02/26 17:29:15","新北市八里區中山路二段398號","121.400571666667","25.1478316666667","6502300","八里區"
"244013","069-UM","2018/02/26 17:29:21","新北市林口區中山路150-1號","121.391121666667","25.0786933333333","6501700","林口區"
"244007","080-UY","2018/02/26 17:29:15","新北市林口區湖子6號","121.390575","25.09242","6501700","林口區"
"244019","402-UM","2018/02/26 17:29:29","新北市林口區文化一路一段135巷12號","121.373323333333","25.0722483333333","6501700","林口區"
"244025","742-UY","2018/02/26 17:29:20","新北市林口區民族路67-1號","121.36547","25.0751033333333","6501700","林口區"
"244009","657-BX","2018/02/26 17:29:22","新北市林口區中華路225號","121.385263333333","25.0898883333333","6501700","林口區"
"244011","701-TV","2018/02/26 17:29:25","新北市林口區仁愛路一段386巷2號","121.387936666667","25.0772366666667","6501700","林口區"
"244023","837-TS","2018/02/26 17:29:20","新北市林口區興林一街96巷23號","121.391031666667","25.0717966666667","6501700","林口區"
"244021","838-TS","2018/02/26 17:29:27","新北市林口區粉寮路一段181號","121.399743333333","25.08203","6501700","林口區"
"243012","AAD-798","2018/02/26 17:29:23","新北市泰山區大科路403號","121.402213333333","25.0565133333333","6501600","泰山區"
"231046","278-BY","2018/02/26 17:29:09","新北市新店區直潭路92號","121.530923333333","24.9376583333333","6500600","新店區"
"241011","013-R5","2018/02/26 17:29:22","新北市三重區河邊北街110巷19號","121.503411666667","25.07081","6500200","三重區"
"241015","062-VK","2018/02/26 17:29:25","新北市三重區長元街65巷16弄15號","121.503506666667","25.06624","6500200","三重區"
"241017","063-VK","2018/02/26 17:29:20","新北市三重區大同北路34巷52號","121.493563333333","25.0619566666667","6500200","三重區"
"241003","156-TC","2018/02/26 17:29:29","新北市三重區富福街4號","121.489923333333","25.0831466666667","6500200","三重區"
"241005","262-UM","2018/02/26 17:29:24","新北市三重區永安北路二段25巷1號","121.482203333333","25.0817716666667","6500200","三重區"
"241016","265-UM","2018/02/26 17:29:27","新北市三重區信義西街148號","121.495278333333","25.0639233333333","6500200","三重區"
"241018","268-UM","2018/02/26 17:29:27","新北市三重區中正北路25巷1號","121.492466666667","25.0620166666667","6500200","三重區"
"241032","269-UM","2018/02/26 17:29:13","新北市三重區名源街31號","121.48179","25.06047","6500200","三重區"
"241025","271-UM","2018/02/26 17:29:15","新北市三重區中正北路209號","121.4764","25.0700283333333","6500200","三重區"
"241007","398-BY","2018/02/26 17:29:28","新北市三重區三和路四段145巷81號","121.486348333333","25.0787633333333","6500200","三重區"
"241020","413-TH","2018/02/26 17:29:26","新北市三重區忠孝路一段101號","121.48961","25.0721516666667","6500200","三重區"
"241030","480-VK","2018/02/26 17:29:29","新北市三重區新興路1號","121.492893333333","25.0529833333333","6500200","三重區"
"241014","543-UM","2018/02/26 17:29:26","新北市三重區長壽街61-1號","121.5015","25.0682033333333","6500200","三重區"
"241023","545-UM","2018/02/26 17:29:18","新北市三重區三民街146巷14號","121.481703333333","25.064555","6500200","三重區"
"241019","KEA-2593","2018/02/26 17:29:11","新北市三重區自強路二段50巷17號","121.48837","25.0695333333333","6500200","三重區"
"241012","941-UM","2018/02/26 17:29:30","新北市三重區仁福街68號","121.498095","25.074895","6500200","三重區"
"241033","AAC-255","2018/02/26 17:29:24","新北市三重區興德路139號","121.469796666667","25.0525466666667","6500200","三重區"
"247022","893-R6","2018/02/26 17:29:25","新北市蘆洲區三民路262號","121.467441666667","25.0902283333333","6501400","蘆洲區"
"247020","500-BY","2018/02/26 17:29:20","新北市蘆洲區仁愛街101巷3號","121.470771666667","25.0939583333333","6501400","蘆洲區"
"247010","339-TH","2018/02/26 17:29:12","新北市蘆洲區中山一路120巷17號","121.47782","25.0819233333333","6501400","蘆洲區"
"247002","337-TH","2018/02/26 17:29:24","新北市蘆洲區永樂街38巷57弄6號","121.458185","25.0904033333333","6501400","蘆洲區"
"247004","336-TH","2018/02/26 17:29:30","新北市蘆洲區長安街233巷29號","121.458346666667","25.0823266666667","6501400","蘆洲區"
"247012","335-TH","2018/02/26 17:29:24","新北市蘆洲區民族路94號","121.47806","25.0850716666667","6501400","蘆洲區"
"247016","057-VK","2018/02/26 17:29:12","新北市蘆洲區光華路22巷4號","121.469423333333","25.0836216666667","6501400","蘆洲區"
"247006","056-VK","2018/02/26 17:29:28","新北市蘆洲區九芎街90巷19號","121.464848333333","25.0811283333333","6501400","蘆洲區"
"247008","053-VK","2018/02/26 17:29:16","新北市蘆洲區信義路34巷46號","121.475031666667","25.0782","6501400","蘆洲區"
"247014","007-UY","2018/02/26 17:29:24","新北市蘆洲區三民路33號","121.475431666667","25.0829516666667","6501400","蘆洲區"
"247018","001-UY","2018/02/26 17:29:28","新北市蘆洲區民權路109號","121.47256","25.0892733333333","6501400","蘆洲區"
"228003","097-TW","2018/02/26 17:29:21","新北市貢寮區仁理村研海街42號","121.925793333333","25.0428433333333","6502600","貢寮區"
"228002","585-TW","2018/02/26 17:29:22","新北市貢寮區福隆里福隆街16號","121.944986666667","25.0164083333333","6502600","貢寮區"
"228001","670-TC","2018/02/26 17:29:14","新北市貢寮區仁理村仁愛路52號","121.925368333333","25.0533583333333","6502600","貢寮區"
"224010","AGQ-8101","2018/02/26 17:29:28","新北市瑞芳區逢甲路61號","121.808016666667","25.109375","6501200","瑞芳區"
"224006","676-BX","2018/02/26 17:29:26","新北市瑞芳區傑魚坑路165號","121.789775","25.1094333333333","6501200","瑞芳區"
"224009","285-BY","2018/02/26 17:29:31","新北市瑞芳區汽車路9-12號","121.846085","25.111035","6501200","瑞芳區"
"224008","275-VK","2018/02/26 17:29:23","新北市瑞芳區侯硐路320號","121.831388333333","25.0886733333333","6501200","瑞芳區"
"224005","271-BY","2018/02/26 17:29:18","新北市瑞芳區海濱路8-6號","121.831658333333","25.1261183333333","6501200","瑞芳區"
"227001","642-TC","2018/02/26 17:29:17","新北市雙溪區平林里外平林57號","121.846556666667","25.034855","6502500","雙溪區"
"251009","008-UM","2018/02/26 17:29:21","新北市淡水區新生街88號","121.439535","25.17474","6501000","淡水區"
"251004","009-UM","2018/02/26 17:29:13","新北市淡水區中正東路二段88巷15號","121.458948333333","25.15055","6501000","淡水區"
"251005","010-UM","2018/02/26 17:29:23","新北市淡水區鄧公路31巷1號","121.451321666667","25.1708883333333","6501000","淡水區"
"251001","011-UM","2018/02/26 17:29:09","新北市淡水區民權路92巷35-1號","121.462141666667","25.126625","6501000","淡水區"
"251013","179-VK","2018/02/26 17:29:20","新北市淡水區水尾子5-2號","121.462841666667","25.1958616666667","6501000","淡水區"
"251014","180-VK","2018/02/26 17:29:18","新北市淡水區公埔子20-3號","121.469516666667","25.2288516666667","6501000","淡水區"
"251008","181-VK","2018/02/26 17:29:26","新北市淡水區大同路122巷18號","121.463366666667","25.1397816666667","6501000","淡水區"
"251015","182-VK","2018/02/26 17:29:16","新北市淡水區三空泉16-10號","121.471216666667","25.1650116666667","6501000","淡水區"
"251010","413-VK","2018/02/26 17:29:19","新北市淡水區中正路二段211號","121.426206666667","25.1891233333333","6501000","淡水區"
"251012","441-VK","2018/02/26 17:29:23","新北市淡水區北新路100號","121.447351666667","25.17848","6501000","淡水區"
"251016","442-VK","2018/02/26 17:29:13","新北市淡水區社厝坑13號","121.465078333333","25.1918","6501000","淡水區"
"251006","561-UM","2018/02/26 17:29:29","新北市淡水區大仁街69號","121.442916666667","25.1762416666667","6501000","淡水區"
"251007","577-R6","2018/02/26 17:29:12","新北市淡水區民生路47-4號","121.462095","25.137995","6501000","淡水區"
"251011","650-BX","2018/02/26 17:29:17","新北市淡水區坪頂路712號","121.4825","25.15849","6501000","淡水區"
"251002","672-BX","2018/02/26 17:29:27","新北市淡水區中正路437號","121.431971666667","25.1747633333333","6501000","淡水區"
"251003","766-UM","2018/02/26 17:29:14","新北市淡水區中山路157-3號","121.440721666667","25.1729066666667","6501000","淡水區"
"207003","550-UM","2018/02/26 17:29:19","新北市萬里區龜吼里日光路6巷16號","121.683505","25.1864516666667","6502800","萬里區"
"207004","225-TW","2018/02/26 17:29:19","新北市萬里區萬里里景美路11-2號","121.685305","25.1731716666667","6502800","萬里區"
"252002","178-VK","2018/02/26 17:29:21","新北市三芝區忠孝街1-14號","121.505496666667","25.2539883333333","6502100","三芝區"
"252001","292-VK","2018/02/26 17:29:11","新北市三芝區長安街119號","121.498053333333","25.2596516666667","6502100","三芝區"
"242029","986-R7","2018/02/26 17:29:12","新北市新莊區復興路二段184號","121.459006666667","25.04425","6500500","新莊區"
"242050","751-BX","2018/02/26 17:29:22","新北市新莊區新樹路441號","121.432821666667","25.0136183333333","6500500","新莊區"
"242025","615-BX","2018/02/26 17:29:19","新北市新莊區中港路281號","121.45316","25.0437833333333","6500500","新莊區"
"242023","613-BX","2018/02/26 17:29:26","新北市新莊區公園路35號","121.453013333333","25.040235","6500500","新莊區"
"242027","612-BX","2018/02/26 17:29:27","新北市新莊區思源路102號","121.459965","25.04628","6500500","新莊區"
"242039","566-BX","2018/02/26 17:29:19","新北市新莊區民安路272號","121.427671666667","25.021295","6500500","新莊區"
"242044","497-BY","2018/02/26 17:29:23","新北市新莊區富國路57號","121.419555","25.0261083333333","6500500","新莊區"
"242048","441-UM","2018/02/26 17:29:18","新北市新莊區四維路212巷2號","121.421221666667","25.0201766666667","6500500","新莊區"
"242053","440-UM","2018/02/26 17:29:10","新北市新莊區瓊林南路305巷35號","121.435903333333","25.0052216666667","6500500","新莊區"
"242034","415-TV","2018/02/26 17:29:11","新北市新莊區新莊路457號","121.449526666667","25.0333866666667","6500500","新莊區"
"242004","413-TV","2018/02/26 17:29:25","新北市新莊區中港路272號","121.453151666667","25.0439516666667","6500500","新莊區"
"242042","400-BY","2018/02/26 17:29:18","新北市新莊區建國一路46號","121.434015","25.0312283333333","6500500","新莊區"
"242060","362-BY","2018/02/26 17:29:15","新北市新莊區瓊林南路12-2號","121.436295","25.019155","6500500","新莊區"
"242058","353-BY","2018/02/26 17:28:57","新北市新莊區中正路502號","121.435996666667","25.032905","6500500","新莊區"
"242007","132-UY","2018/02/26 17:29:27","新北市新莊區自強街30號","121.454766666667","25.046185","6500500","新莊區"
"242036","133-UY","2018/02/26 17:29:17","新北市新莊區建國二路19號","121.434201666667","25.0239766666667","6500500","新莊區"
"242021","135-UY","2018/02/26 17:29:27","新北市新莊區中正路211號","121.452246666667","25.03613","6500500","新莊區"
"242046","172-VK","2018/02/26 17:29:12","新北市新莊區新樹路65-5號","121.43941","25.030865","6500500","新莊區"
"242015","175-VK","2018/02/26 17:29:31","新北市新莊區新泰路192號","121.447126666667","25.0382266666667","6500500","新莊區"
"242002","176-VK","2018/02/26 17:29:12","新北市新莊區新莊路154號","121.455195","25.03549","6500500","新莊區"
"242013","346-TH","2018/02/26 17:29:24","新北市新莊區中誠街16巷2號","121.452036666667","25.0482833333333","6500500","新莊區"
"242019","348-TH","2018/02/26 17:29:21","新北市新莊區中港路70號","121.455521666667","25.03885","6500500","新莊區"
"242056","349-TH","2018/02/26 17:29:28","新北市新莊區新泰路47號","121.44954","25.033595","6500500","新莊區"
"242017","350-TH","2018/02/26 17:29:17","新北市新莊區中華路一段246號","121.45269","25.0435783333333","6500500","新莊區"
"242011","351-TH","2018/02/26 17:29:15","新北市新莊區中港路404號","121.452286666667","25.0500483333333","6500500","新莊區"
"238015","755-BX","2018/02/26 17:29:16","新北市樹林區大安路267號","121.419015","24.9937766666667","6500700","樹林區"
"238023","601-UM","2018/02/26 17:29:23","新北市樹林區中正路288-50號","121.414581666667","25.0102416666667","6500700","樹林區"
"238019","599-UM","2018/02/26 17:29:18","新北市樹林區太平路127巷12號","121.419806666667","24.980585","6500700","樹林區"
"238018","571-TV","2018/02/26 17:29:23","新北市樹林區鎮前街235號","121.420913333333","24.98646","6500700","樹林區"
"238024","5061-A6","2018/02/26 17:29:12","新北市樹林區忠孝街67巷15號","121.424945","24.9818983333333","6500700","樹林區"
"238022","KEA-2213","2018/02/26 17:29:22","新北市樹林區仁愛街18號","121.42225","24.981885","6500700","樹林區"
"238026","KEA-2539","2018/02/26 17:29:26","新北市樹林區民權街48號","121.399013333333","24.9596766666667","6500700","樹林區"
"238025","303-VK","2018/02/26 17:29:17","新北市樹林區保安街一段175號","121.421795","24.9955783333333","6500700","樹林區"
"238017","283-BY","2018/02/26 17:29:27","新北市樹林區中正路246號","121.417991666667","25.0075083333333","6500700","樹林區"
"238014","282-BY","2018/02/26 17:29:11","新北市樹林區長壽街70巷35弄9號","121.421311666667","24.9951883333333","6500700","樹林區"
"238020","268-VK","2018/02/26 17:29:15","新北市樹林區俊英街48號","121.428788333333","25.0027016666667","6500700","樹林區"
"238026","172-UY","2018/02/26 17:29:21","新北市樹林區中山路三段27巷2號","121.401575","24.9746066666667","6500700","樹林區"
"238016","169-UY","2018/02/26 17:29:25","新北市樹林區長壽街28巷4弄16號","121.42377","24.9941383333333","6500700","樹林區"
"239007","AAC-297","2018/02/26 17:29:20","新北市鶯歌區忠孝街6號","121.354913333333","24.9564983333333","6500800","鶯歌區"
"239006","891-R6","2018/02/26 17:29:28","新北市鶯歌區鳳鳴路79號","121.334096666667","24.965865","6500800","鶯歌區"
"239008","527-UM","2018/02/26 17:29:17","新北市鶯歌區大湖路578號","121.336255","24.973455","6500800","鶯歌區"
"239005","526-UM","2018/02/26 17:29:17","新北市鶯歌區福德一路24號","121.329785","24.9668283333333","6500800","鶯歌區"
"239001","417-VK","2018/02/26 17:29:16","新北市鶯歌區中正三路82號","121.338368333333","24.941055","6500800","鶯歌區"
"239003","360-BY","2018/02/26 17:29:12","新北市鶯歌區德昌街201號","121.33003","24.9602966666667","6500800","鶯歌區"
"239004","193-VK","2018/02/26 17:29:16","新北市鶯歌區三鶯路12號","121.356478333333","24.941275","6500800","鶯歌區"
"221025","623-UM","2018/02/26 17:29:29","新北市汐止區康寧街901號","121.651673333333","25.0749516666667","6501100","汐止區"
"221033","647-BX","2018/02/26 17:29:26","新北市汐止區新江北路30巷15號","121.652625","25.0684","6501100","汐止區"
"242031","281-VK","2018/02/26 17:29:20","新北市新莊區新泰路401巷29-1號","121.442445","25.0438283333333","6500500","新莊區"
