"lineid","car","time","location","longitude","latitude","cityid","cityname"
"234026","9371-KE","2018/02/26 17:39:32","新北市永和區中正路742-1號","121.515111666667","25.01024","6500400","永和區"
"249005","172-UM","2018/02/26 17:39:38","新北市八里區荖阡坑路34號","121.402746666667","25.12977","6502300","八里區"
"249001","173-UM","2018/02/26 17:39:44","新北市八里區龍米路二段156號","121.435303333333","25.1574983333333","6502300","八里區"
"249004","303-UY","2018/02/26 17:39:33","新北市八里區中山路一段157巷27號","121.413385","25.15764","6502300","八里區"
"249002","305-UY","2018/02/26 17:39:34","新北市八里區頂寮二街121巷22號","121.446495","25.1280816666667","6502300","八里區"
"249003","593-UM","2018/02/26 17:39:36","新北市八里區中山路二段181號","121.404723333333","25.1501616666667","6502300","八里區"
"248006","077-UY","2018/02/26 17:39:40","新北市五股區中興路二段37巷28號","121.460243333333","25.0749033333333","6501500","五股區"
"248010","272-BY","2018/02/26 17:39:32","新北市五股區中興路二段83巷26-6號","121.460033333333","25.0751433333333","6501500","五股區"
"232011","375-UM","2018/02/26 17:39:48","新北市坪林區北宜路八段231號","121.709106666667","24.935035","6502000","坪林區"
"244013","069-UM","2018/02/26 17:39:40","新北市林口區中正路555號","121.381143333333","25.0768616666667","6501700","林口區"
"244007","080-UY","2018/02/26 17:39:35","新北市林口區林口路272巷2號","121.386495","25.0846916666667","6501700","林口區"
"244019","402-UM","2018/02/26 17:39:49","新北市林口區文化一路一段89-5號","121.371936666667","25.070385","6501700","林口區"
"244025","742-UY","2018/02/26 17:39:40","新北市林口區忠孝路308巷20號","121.36671","25.0724416666667","6501700","林口區"
"244017","485-VK","2018/02/26 17:39:41","新北市林口區忠孝路407號","121.370383333333","25.0706266666667","6501700","林口區"
"244009","657-BX","2018/02/26 17:39:42","新北市林口區中北三街298號","121.382555","25.0829733333333","6501700","林口區"
"244011","701-TV","2018/02/26 17:39:45","新北市林口區佳林路221號","121.384221666667","25.07702","6501700","林口區"
"244023","837-TS","2018/02/26 17:39:20","新北市林口區東明一街121巷13號","121.390146666667","25.070165","6501700","林口區"
"244021","838-TS","2018/02/26 17:39:47","新北市林口區粉寮路一段48號","121.396503333333","25.07691","6501700","林口區"
"243012","AAD-798","2018/02/26 17:39:43","新北市泰山區大科路686號","121.390545","25.0654716666667","6501600","泰山區"
"231046","278-BY","2018/02/26 17:39:49","新北市新店區直潭路92號","121.530916666667","24.9376616666667","6500600","新店區"
"241011","013-R5","2018/02/26 17:39:37","新北市三重區河邊北街122-1號","121.503626666667","25.0714133333333","6500200","三重區"
"241017","063-VK","2018/02/26 17:39:40","新北市三重區大同北路22號","121.49533","25.0623566666667","6500200","三重區"
"241005","262-UM","2018/02/26 17:39:44","新北市三重區仁愛街550號","121.485925","25.081665","6500200","三重區"
"241016","265-UM","2018/02/26 17:39:48","新北市三重區重新路二段23號","121.497901666667","25.06265","6500200","三重區"
"241007","398-BY","2018/02/26 17:39:49","新北市三重區三和路四段145巷60號","121.48569","25.078895","6500200","三重區"
"241024","462-BY","2018/02/26 17:39:36","新北市三重區車路頭街34巷27號","121.483201666667","25.0716816666667","6500200","三重區"
"241014","543-UM","2018/02/26 17:39:46","新北市三重區河邊北街70號","121.504468333333","25.0682916666667","6500200","三重區"
"241023","545-UM","2018/02/26 17:39:37","新北市三重區中華路125號","121.483608333333","25.064145","6500200","三重區"
"241019","KEA-2593","2018/02/26 17:39:51","新北市三重區六張街156號","121.489471666667","25.0687416666667","6500200","三重區"
"241012","941-UM","2018/02/26 17:39:37","新北市三重區仁興街33巷62號","121.500605","25.076155","6500200","三重區"
"241033","AAC-255","2018/02/26 17:39:44","新北市三重區光復路一段49號","121.472173333333","25.04879","6500200","三重區"
"235062","800-TS","2018/02/26 17:39:28","新北市中和區員山路36巷16-3號","121.48472","24.9913683333333","6500300","中和區"
"247022","893-R6","2018/02/26 17:39:45","新北市蘆洲區三民路285-1號","121.466865","25.090145","6501400","蘆洲區"
"247020","500-BY","2018/02/26 17:39:38","新北市蘆洲區民族路446號","121.473006666667","25.0920883333333","6501400","蘆洲區"
"247010","339-TH","2018/02/26 17:39:32","新北市蘆洲區中山一路76號","121.478575","25.0811083333333","6501400","蘆洲區"
"247002","337-TH","2018/02/26 17:39:47","新北市蘆洲區環堤大道212號","121.457513333333","25.0920333333333","6501400","蘆洲區"
"247004","336-TH","2018/02/26 17:39:50","新北市蘆洲區長安街170號","121.45921","25.0832666666667","6501400","蘆洲區"
"247012","335-TH","2018/02/26 17:39:44","新北市蘆洲區民權路30號","121.476456666667","25.0862316666667","6501400","蘆洲區"
"247016","057-VK","2018/02/26 17:39:48","新北市蘆洲區光華路80-1號","121.467771666667","25.0827183333333","6501400","蘆洲區"
"247006","056-VK","2018/02/26 17:39:39","新北市蘆洲區長安街46巷1弄1號","121.463485","25.0797783333333","6501400","蘆洲區"
"247008","053-VK","2018/02/26 17:39:36","新北市蘆洲區民生街133號","121.472631666667","25.0791466666667","6501400","蘆洲區"
"247014","007-UY","2018/02/26 17:39:44","新北市蘆洲區中山二路87巷10號","121.473453333333","25.0817533333333","6501400","蘆洲區"
"247018","001-UY","2018/02/26 17:39:28","新北市蘆洲區民權路136-2號","121.473183333333","25.0889233333333","6501400","蘆洲區"
"228003","097-TW","2018/02/26 17:39:41","新北市貢寮區仁理村仁和路35號","121.923993333333","25.0538583333333","6502600","貢寮區"
"228002","585-TW","2018/02/26 17:39:42","新北市貢寮區福隆里龜壽谷街12號","121.956095","25.0061733333333","6502600","貢寮區"
"228001","670-TC","2018/02/26 17:39:34","新北市貢寮區仁理村仁愛路95-1號","121.92769","25.055495","6502600","貢寮區"
"224010","AGQ-8101","2018/02/26 17:39:08","新北市瑞芳區岳王路42號","121.808703333333","25.1110816666667","6501200","瑞芳區"
"224006","676-BX","2018/02/26 17:39:46","新北市瑞芳區中山路320號","121.796598333333","25.1100633333333","6501200","瑞芳區"
"224009","285-BY","2018/02/26 17:39:31","新北市瑞芳區崙頂路2-2號","121.846521666667","25.1070733333333","6501200","瑞芳區"
"224008","275-VK","2018/02/26 17:39:43","新北市瑞芳區瑞柑新村37號","121.829296666667","25.1070233333333","6501200","瑞芳區"
"224005","271-BY","2018/02/26 17:39:38","新北市瑞芳區海濱路38-1號","121.83111","25.123505","6501200","瑞芳區"
"251009","008-UM","2018/02/26 17:39:41","新北市淡水區中正路130號","121.441333333333","25.1696033333333","6501000","淡水區"
"251004","009-UM","2018/02/26 17:39:33","新北市淡水區中正東路二段88巷37-23號","121.459411666667","25.1436133333333","6501000","淡水區"
"251005","010-UM","2018/02/26 17:39:43","新北市淡水區鄧公路33巷1號","121.451416666667","25.1711483333333","6501000","淡水區"
"251001","011-UM","2018/02/26 17:39:49","新北市淡水區民權路92巷35-1號","121.462033333333","25.1265966666667","6501000","淡水區"
"251013","179-VK","2018/02/26 17:39:40","新北市淡水區演戲埔腳6-1號","121.472656666667","25.1932283333333","6501000","淡水區"
"251014","180-VK","2018/02/26 17:39:18","新北市淡水區公埔子15-1號","121.479546666667","25.226115","6501000","淡水區"
"251008","181-VK","2018/02/26 17:39:46","新北市淡水區八勢路73巷12號","121.463468333333","25.1539066666667","6501000","淡水區"
"251015","182-VK","2018/02/26 17:35:36","新北市淡水區樹林口168號","121.475251666667","25.1668016666667","6501000","淡水區"
"251010","413-VK","2018/02/26 17:39:39","新北市淡水區淡海路276號","121.420005","25.1884216666667","6501000","淡水區"
"251012","441-VK","2018/02/26 17:39:43","新北市淡水區北新路200巷6號","121.45164","25.1797866666667","6501000","淡水區"
"251016","442-VK","2018/02/26 17:39:33","新北市淡水區埤島39-15號","121.452723333333","25.1958866666667","6501000","淡水區"
"251006","561-UM","2018/02/26 17:39:49","新北市淡水區大信街5號","121.441588333333","25.1763033333333","6501000","淡水區"
"251007","577-R6","2018/02/26 17:39:32","新北市淡水區民生路52巷43號","121.463483333333","25.137925","6501000","淡水區"
"251011","650-BX","2018/02/26 17:39:37","新北市淡水區小坪頂13-3號","121.486593333333","25.1561666666667","6501000","淡水區"
"251002","672-BX","2018/02/26 17:39:27","新北市淡水區清水街250號","121.440456666667","25.1722183333333","6501000","淡水區"
"251003","766-UM","2018/02/26 17:39:34","新北市淡水區中山北路一段50號","121.441871666667","25.1755866666667","6501000","淡水區"
"207003","550-UM","2018/02/26 17:39:39","新北市萬里區龜吼里漁澳路63-1號","121.687423333333","25.1954833333333","6502800","萬里區"
"207004","225-TW","2018/02/26 17:39:39","新北市萬里區中幅里中福路8-1號","121.685518333333","25.16477","6502800","萬里區"
"252002","178-VK","2018/02/26 17:39:41","新北市三芝區中正路二段1號","121.504765","25.255845","6502100","三芝區"
"252001","292-VK","2018/02/26 17:39:31","新北市三芝區育英街1號","121.501811666667","25.2587966666667","6502100","三芝區"
"237013","252-BX","2018/02/26 17:39:47","新北市三峽區愛國路33-8號","121.37447","24.93342","6500900","三峽區"
"237014","433-BY","2018/02/26 17:39:46","新北市三峽區中山路459巷121號","121.351641666667","24.9352133333333","6500900","三峽區"
"237006","5529-G3","2018/02/26 17:39:49","新北市三峽區介壽路一段552巷3號","121.3874","24.9330966666667","6500900","三峽區"
"237011","KEA-2596","2018/02/26 17:39:43","新北市三峽區中山路80號","121.366895","24.9351733333333","6500900","三峽區"
"237010","706-TV","2018/02/26 17:39:35","新北市三峽區中山路154號","121.364843333333","24.9364033333333","6500900","三峽區"
"236078","166-UM","2018/02/26 17:39:48","新北市土城區城林路6巷80號","121.438291666667","24.9795333333333","6501300","土城區"
"236026","269-VK","2018/02/26 17:39:44","新北市土城區城林路6巷80號","121.438495","24.9795916666667","6501300","土城區"
"236014","270-VK","2018/02/26 17:39:32","新北市土城區城林路6巷80號","121.438541666667","24.9795916666667","6501300","土城區"
"236058","912-UM","2018/02/26 17:39:49","新北市土城區城林路6巷80號","121.438403333333","24.9795483333333","6501300","土城區"
"242029","986-R7","2018/02/26 17:39:33","新北市新莊區復興路一段183號","121.451523333333","25.0435416666667","6500500","新莊區"
"242050","751-BX","2018/02/26 17:39:42","新北市新莊區西盛街171號","121.42808","25.0174083333333","6500500","新莊區"
"242025","615-BX","2018/02/26 17:39:39","新北市新莊區思源路118號","121.46005","25.0470133333333","6500500","新莊區"
"242023","613-BX","2018/02/26 17:39:46","新北市新莊區公園路129-5號","121.457503333333","25.0408583333333","6500500","新莊區"
"242027","612-BX","2018/02/26 17:39:47","新北市新莊區福壽街128號","121.4576","25.0514133333333","6500500","新莊區"
"242039","566-BX","2018/02/26 17:39:38","新北市新莊區民全街7號","121.428891666667","25.02132","6500500","新莊區"
"242044","497-BY","2018/02/26 17:39:43","新北市新莊區富國路65巷7號","121.419901666667","25.02652","6500500","新莊區"
"242048","441-UM","2018/02/26 17:39:38","新北市新莊區萬安街137巷1號","121.42068","25.0220716666667","6500500","新莊區"
"242053","440-UM","2018/02/26 17:39:30","新北市新莊區新樹路699巷5號","121.432636666667","25.0019366666667","6500500","新莊區"
"242034","415-TV","2018/02/26 17:39:51","新北市新莊區新莊路621號","121.4456","25.032875","6500500","新莊區"
"242004","413-TV","2018/02/26 17:39:44","新北市新莊區自立街109號","121.45547","25.0454666666667","6500500","新莊區"
"242042","400-BY","2018/02/26 17:39:37","新北市泰山區漢口街36號","121.426125","25.0352716666667","6500500","新莊區"
"242060","362-BY","2018/02/26 17:39:47","新北市新莊區瓊林南路269號","121.434423333333","25.0072433333333","6500500","新莊區"
"242058","353-BY","2018/02/26 17:39:38","新北市新莊區中正路618號","121.423685","25.029375","6500500","新莊區"
"242007","132-UY","2018/02/26 17:39:50","新北市新莊區福樂街122號","121.456985","25.047845","6500500","新莊區"
"242036","133-UY","2018/02/26 17:39:37","新北市新莊區後港一路122號","121.429035","25.0270516666667","6500500","新莊區"
"242021","135-UY","2018/02/26 17:39:47","新北市新莊區中華路一段118號","121.452521666667","25.0405583333333","6500500","新莊區"
"242046","172-VK","2018/02/26 17:39:36","新北市新莊區建國一路23號","121.434066666667","25.0315283333333","6500500","新莊區"
"242015","175-VK","2018/02/26 17:39:31","新北市新莊區新泰路341號","121.444818333333","25.04195","6500500","新莊區"
"242002","176-VK","2018/02/26 17:39:39","新北市新莊區新莊路379號","121.451583333333","25.0338066666667","6500500","新莊區"
"242013","346-TH","2018/02/26 17:39:44","新北市新莊區中誠街95巷2號","121.44996","25.04752","6500500","新莊區"
"242019","348-TH","2018/02/26 17:39:41","新北市新莊區中港路203號","121.45486","25.041935","6500500","新莊區"
"242056","349-TH","2018/02/26 17:39:48","新北市新莊區新泰路3巷35號","121.449031666667","25.0319266666667","6500500","新莊區"
"242017","350-TH","2018/02/26 17:39:45","新北市新莊區復興路一段149巷21弄11號","121.449706666667","25.0440816666667","6500500","新莊區"
"242011","351-TH","2018/02/26 17:39:35","新北市新莊區中港路645號","121.45102","25.0549583333333","6500500","新莊區"
"238015","755-BX","2018/02/26 17:39:36","新北市樹林區啟智街25號","121.420925","24.9933266666667","6500700","樹林區"
"238023","601-UM","2018/02/26 17:39:43","新北市樹林區三福街114號","121.406435","25.016335","6500700","樹林區"
"238019","599-UM","2018/02/26 17:39:38","新北市樹林區太平路104號","121.418538333333","24.9790166666667","6500700","樹林區"
"238018","571-TV","2018/02/26 17:39:43","新北市樹林區鎮前街117號","121.42425","24.9896633333333","6500700","樹林區"
"238022","KEA-2213","2018/02/26 17:39:41","新北市樹林區中華路185-2號","121.420216666667","24.981735","6500700","樹林區"
"238026","KEA-2539","2018/02/26 17:39:46","新北市樹林區佳園路二段169號","121.389808333333","24.9564983333333","6500700","樹林區"
"238025","303-VK","2018/02/26 17:39:37","新北市樹林區保安街二段48號","121.415381666667","25.0022916666667","6500700","樹林區"
"238017","283-BY","2018/02/26 17:39:50","新北市樹林區中正路448號","121.413236666667","25.0119533333333","6500700","樹林區"
"238014","282-BY","2018/02/26 17:39:51","新北市樹林區保安街一段294巷2-1號","121.41938","24.9976816666667","6500700","樹林區"
"238020","268-VK","2018/02/26 17:39:35","新北市樹林區俊英街116巷1弄34號","121.427796666667","25.0057516666667","6500700","樹林區"
"238026","172-UY","2018/02/26 17:39:41","新北市樹林區新興街19巷36弄5號","121.402415","24.9733316666667","6500700","樹林區"
"238016","169-UY","2018/02/26 17:39:45","新北市樹林區復興路244號","121.41863","24.989175","6500700","樹林區"
"239007","AAC-297","2018/02/26 17:39:40","新北市鶯歌區鶯桃路182巷96弄19號","121.340206666667","24.9573133333333","6500800","鶯歌區"
"239006","891-R6","2018/02/26 17:39:48","新北市鶯歌區鶯桃路514號","121.331645","24.9665083333333","6500800","鶯歌區"
"239008","527-UM","2018/02/26 17:39:37","桃園市龜山區宏德司法新村4號","121.331163333333","24.97936","6500800","鶯歌區"
"239005","526-UM","2018/02/26 17:39:37","桃園市桃園區大仁路95號","121.32347","24.9712033333333","6500800","鶯歌區"
"239001","417-VK","2018/02/26 17:39:36","新北市鶯歌區中正三路273巷4號","121.3326","24.9379766666667","6500800","鶯歌區"
"239003","360-BY","2018/02/26 17:39:32","新北市鶯歌區鶯桃路179號","121.337825","24.9586216666667","6500800","鶯歌區"
"239004","193-VK","2018/02/26 17:39:36","新北市鶯歌區三鶯路111號","121.359556666667","24.9442566666667","6500800","鶯歌區"
"221008","489-VK","2018/02/26 17:39:38","新北市汐止區康寧街901號","121.651375","25.0751","6501100","汐止區"
"221036","130-UY","2018/02/26 17:39:37","新北市汐止區康寧街901號","121.651443333333","25.0750466666667","6501100","汐止區"
"221015","131-UY","2018/02/26 17:39:45","新北市汐止區汐萬路一段312號","121.650468333333","25.0754116666667","6501100","汐止區"
"221010","269-BY","2018/02/26 17:39:34","新北市汐止區汐萬路一段418巷25號","121.649971666667","25.078875","6501100","汐止區"
"221023","279-VK","2018/02/26 17:39:34","新北市汐止區康寧街901號","121.651321666667","25.07506","6501100","汐止區"
"221032","280-BY","2018/02/26 17:39:45","新北市汐止區樟樹二路351-1號","121.64341","25.073835","6501100","汐止區"
"221021","299-VK","2018/02/26 17:39:33","新北市汐止區康寧街901號","121.650966666667","25.0752566666667","6501100","汐止區"
"221025","623-UM","2018/02/26 17:39:29","新北市汐止區康寧街901號","121.65118","25.0751433333333","6501100","汐止區"
"221033","647-BX","2018/02/26 17:39:46","新北市汐止區林森街73巷1號","121.623263333333","25.0408766666667","6501100","汐止區"
"221018","753-BX","2018/02/26 17:39:34","新北市汐止區汐萬路一段310號","121.650328333333","25.0746766666667","6501100","汐止區"
"242031","281-VK","2018/02/26 17:39:40","新北市新莊區新泰路382號","121.444063333333","25.0432883333333","6500500","新莊區"
