"lineid","car","time","location","longitude","latitude","cityid","cityname"
"234026","9371-KE","2018/02/26 17:49:12","新北市永和區和平街98號","121.51083","25.00994","6500400","永和區"
"249005","172-UM","2018/02/26 17:49:18","新北市八里區荖阡坑路41-10號","121.402356666667","25.1330566666667","6502300","八里區"
"249001","173-UM","2018/02/26 17:49:03","新北市八里區龍米路二段133-1號","121.444881666667","25.1479233333333","6502300","八里區"
"249004","303-UY","2018/02/26 17:49:13","新北市八里區中華路一段79巷9號","121.420778333333","25.1564633333333","6502300","八里區"
"249002","305-UY","2018/02/26 17:49:14","新北市八里區龍形二街17號","121.450606666667","25.1316266666667","6502300","八里區"
"249003","593-UM","2018/02/26 17:49:15","新北市八里區中山路二段123號","121.405448333333","25.1519","6502300","八里區"
"248006","077-UY","2018/02/26 17:49:20","新北市五股區中興路二段37巷28號","121.460113333333","25.074945","6501500","五股區"
"248008","095-VK","2018/02/26 17:49:10","新北市五股區中興路二段37巷28號","121.460171666667","25.07506","6501500","五股區"
"248010","272-BY","2018/02/26 17:49:13","新北市五股區中興路二段83巷26-6號","121.460041666667","25.07509","6501500","五股區"
"248002","678-BX","2018/02/26 17:49:13","新北市五股區中興路二段37巷28號","121.460203333333","25.074955","6501500","五股區"
"232011","375-UM","2018/02/26 17:49:08","新北市坪林區北宜路八段186號","121.707858333333","24.9346266666667","6502000","坪林區"
"244013","069-UM","2018/02/26 17:49:21","新北市林口區中正路451號","121.384503333333","25.0777333333333","6501700","林口區"
"244007","080-UY","2018/02/26 17:49:15","新北市林口區佳林路1號","121.387311666667","25.0823916666667","6501700","林口區"
"244019","402-UM","2018/02/26 17:49:09","新北市林口區忠孝路542巷11弄2號","121.373141666667","25.0669966666667","6501700","林口區"
"244025","742-UY","2018/02/26 17:49:20","新北市林口區文化三路一段181號","121.36217","25.0700716666667","6501700","林口區"
"244017","485-VK","2018/02/26 17:49:21","新北市林口區文化二路一段230巷68號","121.371695","25.07261","6501700","林口區"
"244009","657-BX","2018/02/26 17:49:22","新北市林口區中山路270號","121.383226666667","25.081025","6501700","林口區"
"244011","701-TV","2018/02/26 17:49:05","新北市林口區佳林路217號","121.38386","25.0765633333333","6501700","林口區"
"244023","837-TS","2018/02/26 17:49:20","新北市林口區興林路151巷2號","121.389021666667","25.0732166666667","6501700","林口區"
"244021","838-TS","2018/02/26 17:49:07","新北市林口區仁愛路一段123巷22-1號","121.397638333333","25.0711816666667","6501700","林口區"
"243012","AAD-798","2018/02/26 17:49:03","新北市泰山區黎明路25號","121.422006666667","25.0608016666667","6501600","泰山區"
"222003","436-BY","2018/02/26 17:49:14","新北市深坑區文山路三段110號","121.608241666667","24.9988466666667","6501800","深坑區"
"231046","278-BY","2018/02/26 17:49:09","新北市新店區下石厝路1號","121.531136666667","24.9298916666667","6500600","新店區"
"241016","265-UM","2018/02/26 17:49:07","新北市三重區重新路三段45-1號","121.493105","25.0613183333333","6500200","三重區"
"241024","462-BY","2018/02/26 17:49:16","新北市三重區車路頭街62巷14號","121.48346","25.0724133333333","6500200","三重區"
"241019","KEA-2593","2018/02/26 17:49:11","新北市三重區六張街234號","121.487615","25.0683133333333","6500200","三重區"
"241033","AAC-255","2018/02/26 17:49:24","新北市三重區重新路五段537號","121.47093","25.0459783333333","6500200","三重區"
"235062","800-TS","2018/02/26 17:49:08","新北市中和區員山路36巷16-3號","121.484863333333","24.9917133333333","6500300","中和區"
"247022","893-R6","2018/02/26 17:49:25","新北市蘆洲區中正路312號","121.464673333333","25.0908016666667","6501400","蘆洲區"
"247020","500-BY","2018/02/26 17:49:18","新北市蘆洲區民義街71巷13號","121.472756666667","25.09054","6501400","蘆洲區"
"247010","339-TH","2018/02/26 17:49:12","新北市蘆洲區民族路36號","121.476501666667","25.084325","6501400","蘆洲區"
"247002","337-TH","2018/02/26 17:49:23","新北市蘆洲區永平街32巷21弄35號","121.457681666667","25.092445","6501400","蘆洲區"
"247004","336-TH","2018/02/26 17:49:10","新北市蘆洲區中原路12巷27號","121.460471666667","25.0838433333333","6501400","蘆洲區"
"247012","335-TH","2018/02/26 17:49:24","新北市蘆洲區復興路88號","121.475346666667","25.086775","6501400","蘆洲區"
"247016","057-VK","2018/02/26 17:49:12","新北市蘆洲區中正路185巷25弄10號","121.466996666667","25.0841","6501400","蘆洲區"
"247006","056-VK","2018/02/26 17:49:20","新北市蘆洲區九芎街90巷10號","121.465531666667","25.0804483333333","6501400","蘆洲區"
"247008","053-VK","2018/02/26 17:49:16","新北市蘆洲區中山一路234號","121.472865","25.0802633333333","6501400","蘆洲區"
"247014","007-UY","2018/02/26 17:49:24","新北市蘆洲區保和街87號","121.468873333333","25.0860316666667","6501400","蘆洲區"
"247018","001-UY","2018/02/26 17:49:08","新北市蘆洲區復興路227巷2弄2號","121.47999","25.0900483333333","6501400","蘆洲區"
"228003","097-TW","2018/02/26 17:49:21","新北市貢寮區真理里美艷山街5-1號","121.926346666667","25.0596516666667","6502600","貢寮區"
"228002","585-TW","2018/02/26 17:49:01","新北市貢寮區福隆里外隆林街15號","121.95876","25.0035333333333","6502600","貢寮區"
"228001","670-TC","2018/02/26 17:49:14","新北市貢寮區仁理村仁愛路95-1號","121.927661666667","25.0554833333333","6502600","貢寮區"
"224006","676-BX","2018/02/26 17:49:11","新北市瑞芳區傑魚坑路134-1號","121.79124","25.1102733333333","6501200","瑞芳區"
"224009","285-BY","2018/02/26 17:49:15","新北市瑞芳區金光路338號","121.84987","25.1100616666667","6501200","瑞芳區"
"224008","275-VK","2018/02/26 17:49:23","新北市瑞芳區明燈路一段183號","121.819136666667","25.1078616666667","6501200","瑞芳區"
"224007","273-VK","2018/02/26 17:49:04","新北市平溪區新寮里五分寮10-2號","121.799876666667","25.07411","6501200","瑞芳區"
"224005","271-BY","2018/02/26 17:49:18","新北市瑞芳區建基路一段60-1號","121.817103333333","25.127545","6501200","瑞芳區"
"253006","295-VK","2018/02/26 17:49:21","新北市石門區中山路33號","121.567048333333","25.2909683333333","6502200","石門區"
"208003","665-BX","2018/02/26 17:49:12","新北市金山區磺清路135號","121.639343333333","25.2277416666667","6502700","金山區"
"251009","008-UM","2018/02/26 17:49:21","新北市淡水區長興街20號","121.443933333333","25.1709283333333","6501000","淡水區"
"251004","009-UM","2018/02/26 17:49:13","新北市淡水區民權一街27號","121.45906","25.13638","6501000","淡水區"
"251005","010-UM","2018/02/26 17:49:03","新北市淡水區學府路102巷12號","121.450698333333","25.1718033333333","6501000","淡水區"
"251001","011-UM","2018/02/26 17:49:09","新北市淡水區民權路92巷35-1號","121.462203333333","25.1267283333333","6501000","淡水區"
"251013","179-VK","2018/02/26 17:46:28","新北市淡水區泉洲厝31號","121.479606666667","25.1910416666667","6501000","淡水區"
"251014","180-VK","2018/02/26 17:49:18","新北市淡水區公埔子16-6號","121.481013333333","25.22459","6501000","淡水區"
"251008","181-VK","2018/02/26 17:49:06","新北市淡水區八勢路一段133號","121.46721","25.1577516666667","6501000","淡水區"
"251015","182-VK","2018/02/26 17:49:16","新北市淡水區興福寮3-1號","121.491238333333","25.165635","6501000","淡水區"
"251010","413-VK","2018/02/26 17:49:20","新北市淡水區中正路二段55號","121.41733","25.1861983333333","6501000","淡水區"
"251012","441-VK","2018/02/26 17:49:03","新北市淡水區北新路二段61號","121.478741666667","25.1856633333333","6501000","淡水區"
"251016","442-VK","2018/02/26 17:49:13","新北市淡水區埤島39-15號","121.452736666667","25.1958883333333","6501000","淡水區"
"251006","561-UM","2018/02/26 17:49:09","新北市淡水區中山北路一段45巷13號","121.440996666667","25.17573","6501000","淡水區"
"251011","650-BX","2018/02/26 17:47:57","新北市淡水區吳(仔)厝38號","121.479545","25.1496083333333","6501000","淡水區"
"251002","672-BX","2018/02/26 17:49:07","新北市淡水區中山路42號","121.444241666667","25.1700483333333","6501000","淡水區"
"251003","766-UM","2018/02/26 17:49:14","新北市淡水區大忠街5巷2號","121.443168333333","25.176335","6501000","淡水區"
"207003","550-UM","2018/02/26 17:49:19","新北市萬里區野柳里東澳路66號","121.692778333333","25.2009766666667","6502800","萬里區"
"207004","225-TW","2018/02/26 17:49:19","新北市萬里區萬里里瑪鋉頂街98號","121.687705","25.1803916666667","6502800","萬里區"
"252002","178-VK","2018/02/26 17:49:21","新北市三芝區中山路一段88巷16號","121.502775","25.2567866666667","6502100","三芝區"
"252001","292-VK","2018/02/26 17:49:11","新北市三芝區淡金路一段6號","121.499125","25.2595633333333","6502100","三芝區"
"237004","KEA-2597","2018/02/26 17:49:16","新北市三峽區中山路59號","121.367631666667","24.93478","6500900","三峽區"
"237009","210-TH","2018/02/26 17:49:22","新北市三峽區大勇路15號","121.367228333333","24.9368133333333","6500900","三峽區"
"237013","252-BX","2018/02/26 17:49:07","新北市三峽區愛國路34巷1號","121.374645","24.9327783333333","6500900","三峽區"
"237012","275-BY","2018/02/26 17:49:17","新北市三峽區文化路121號","121.370081666667","24.9359166666667","6500900","三峽區"
"237014","433-BY","2018/02/26 17:49:05","新北市三峽區文化路120巷21弄2號","121.371043333333","24.936875","6500900","三峽區"
"237006","5529-G3","2018/02/26 17:49:09","新北市三峽區介壽路二段136巷106弄2號","121.391885","24.9333083333333","6500900","三峽區"
"237011","KEA-2596","2018/02/26 17:49:03","新北市三峽區光明路69巷10號","121.376268333333","24.9286333333333","6500900","三峽區"
"237010","706-TV","2018/02/26 17:49:15","新北市三峽區和平街59號","121.370226666667","24.9363466666667","6500900","三峽區"
"237005","AKY-6261","2018/02/26 17:49:21","新北市三峽區中山路459巷82號","121.35425","24.9365283333333","6500900","三峽區"
"236069","105-UM","2018/02/26 17:49:17","新北市土城區城林路6巷80號","121.438403333333","24.9797183333333","6501300","土城區"
"236042","107-UM","2018/02/26 17:49:10","新北市土城區城林路6巷80號","121.43847","24.9797483333333","6501300","土城區"
"236078","166-UM","2018/02/26 17:49:08","新北市土城區永寧路2號","121.430448333333","24.9642733333333","6501300","土城區"
"236030","253-BX","2018/02/26 17:49:20","新北市土城區城林路6巷80號","121.43848","24.9797866666667","6501300","土城區"
"236026","269-VK","2018/02/26 17:49:24","新北市土城區員福街6號","121.441825","24.9784666666667","6501300","土城區"
"236014","270-VK","2018/02/26 17:49:12","新北市土城區城林路6巷80號","121.438505","24.9795966666667","6501300","土城區"
"236020","401-BY","2018/02/26 17:49:16","新北市土城區城林路6巷80號","121.438563333333","24.9796966666667","6501300","土城區"
"236048","752-BX","2018/02/26 17:49:08","新北市土城區城林路6巷80號","121.438613333333","24.9798616666667","6501300","土城區"
"236058","912-UM","2018/02/26 17:49:09","新北市土城區城林路6巷80號","121.438438333333","24.97953","6501300","土城區"
"236062","915-UM","2018/02/26 17:49:07","新北市土城區城林路6巷80號","121.43844","24.9797183333333","6501300","土城區"
"236053","AAC-216","2018/02/26 17:49:10","新北市土城區城林路6巷80號","121.43873","24.9796633333333","6501300","土城區"
"242029","986-R7","2018/02/26 17:49:21","新北市新莊區復興路一段37號","121.446596666667","25.0421066666667","6500500","新莊區"
"242050","751-BX","2018/02/26 17:49:22","新北市新莊區西盛街311巷19號","121.42869","25.0152766666667","6500500","新莊區"
"242025","615-BX","2018/02/26 17:49:19","新北市三重區新北大道二段37號","121.471023333333","25.0612433333333","6500500","新莊區"
"242023","613-BX","2018/02/26 17:49:14","新北市新莊區福樂街52號","121.457633333333","25.04595","6500500","新莊區"
"242027","612-BX","2018/02/26 17:49:07","新北市新莊區福壽街173號","121.457958333333","25.053845","6500500","新莊區"
"242039","566-BX","2018/02/26 17:49:20","新北市新莊區民安路170號","121.42507","25.0241133333333","6500500","新莊區"
"242044","497-BY","2018/02/26 17:49:16","新北市新莊區雙鳳路12號","121.417115","25.026885","6500500","新莊區"
"242048","441-UM","2018/02/26 17:49:18","新北市新莊區萬安街102巷16號","121.420395","25.022895","6500500","新莊區"
"242053","440-UM","2018/02/26 17:49:10","新北市新莊區民安西路468-1號","121.431706666667","25.0079233333333","6500500","新莊區"
"242034","415-TV","2018/02/26 17:49:11","新北市新莊區新樹路6號","121.440603333333","25.032765","6500500","新莊區"
"242004","413-TV","2018/02/26 17:49:15","新北市新莊區思源路177巷4號","121.45941","25.0453166666667","6500500","新莊區"
"242042","400-BY","2018/02/26 17:49:18","新北市新莊區中正路626號","121.422166666667","25.0287566666667","6500500","新莊區"
"242060","362-BY","2018/02/26 17:49:15","新北市新莊區新樹路493號","121.432688333333","25.0122783333333","6500500","新莊區"
"242058","353-BY","2018/02/26 17:49:18","新北市新莊區中正路702-3號","121.417431666667","25.0259983333333","6500500","新莊區"
"242007","132-UY","2018/02/26 17:49:10","新北市新莊區福樂街112號","121.457328333333","25.0477583333333","6500500","新莊區"
"242036","133-UY","2018/02/26 17:49:17","新北市新莊區後港一路96號","121.427725","25.0266483333333","6500500","新莊區"
"242021","135-UY","2018/02/26 17:49:07","新北市新莊區公園路97號","121.454866666667","25.0404316666667","6500500","新莊區"
"242046","172-VK","2018/02/26 17:49:12","新北市新莊區福營路167號","121.431818333333","25.0311783333333","6500500","新莊區"
"242015","175-VK","2018/02/26 17:49:11","新北市新莊區新泰路488號","121.442603333333","25.0458383333333","6500500","新莊區"
"242002","176-VK","2018/02/26 17:49:22","新北市新莊區景德路119號","121.451343333333","25.0342466666667","6500500","新莊區"
"242013","346-TH","2018/02/26 17:49:03","新北市新莊區中誠街168號","121.448055","25.047605","6500500","新莊區"
"242019","348-TH","2018/02/26 17:49:20","新北市新莊區復興路二段137號","121.457256666667","25.0445116666667","6500500","新莊區"
"242056","349-TH","2018/02/26 17:49:08","新北市新莊區瓊林路40巷17號","121.447088333333","25.03005","6500500","新莊區"
"242017","350-TH","2018/02/26 17:49:17","新北市新莊區永安街35號","121.451758333333","25.0447033333333","6500500","新莊區"
"242011","351-TH","2018/02/26 17:49:15","新北市新莊區富貴路161號","121.450106666667","25.0569766666667","6500500","新莊區"
"238015","755-BX","2018/02/26 17:49:16","新北市樹林區復興路41號","121.422036666667","24.99347","6500700","樹林區"
"238023","601-UM","2018/02/26 17:49:23","新北市樹林區龍興街13巷9號","121.403468333333","25.0164883333333","6500700","樹林區"
"238019","599-UM","2018/02/26 17:49:18","新北市樹林區中華路73號","121.42315","24.9829566666667","6500700","樹林區"
"238018","571-TV","2018/02/26 17:49:03","新北市樹林區博愛街29巷10號","121.427406666667","24.99251","6500700","樹林區"
"238022","KEA-2213","2018/02/26 17:49:01","新北市樹林區太順街62巷3弄30號","121.416643333333","24.97925","6500700","樹林區"
"238026","KEA-2539","2018/02/26 17:49:06","新北市樹林區柑園街一段188號","121.39547","24.9565283333333","6500700","樹林區"
"238025","303-VK","2018/02/26 17:49:17","新北市樹林區保安街三段71-3號","121.412591666667","25.0123483333333","6500700","樹林區"
"238017","283-BY","2018/02/26 17:49:24","新北市樹林區三德街30巷27號","121.414728333333","25.01231","6500700","樹林區"
"238014","282-BY","2018/02/26 17:49:11","新北市樹林區保安街一段313巷27號","121.417076666667","24.9974183333333","6500700","樹林區"
"238020","268-VK","2018/02/26 17:49:15","新北市樹林區俊英街284號","121.42372","25.0136066666667","6500700","樹林區"
"238026","172-UY","2018/02/26 17:49:21","新北市樹林區八德街500號","121.39985","24.970255","6500700","樹林區"
"238016","169-UY","2018/02/26 17:49:04","新北市樹林區復興路312號","121.416795","24.9869733333333","6500700","樹林區"
"239007","AAC-297","2018/02/26 17:49:20","新北市鶯歌區永安街28號","121.337553333333","24.95563","6500800","鶯歌區"
"239006","891-R6","2018/02/26 17:49:07","新北市鶯歌區永和街115巷66號","121.33336","24.9698133333333","6500800","鶯歌區"
"239008","527-UM","2018/02/26 17:49:17","新北市鶯歌區大湖路700巷22弄1號","121.333713333333","24.97693","6500800","鶯歌區"
"239005","526-UM","2018/02/26 17:49:17","新北市鶯歌區鳳吉四街32號","121.327195","24.972905","6500800","鶯歌區"
"239001","417-VK","2018/02/26 17:49:16","新北市鶯歌區中正三路387號","121.326681666667","24.934505","6500800","鶯歌區"
"239003","360-BY","2018/02/26 17:49:12","新北市鶯歌區鶯桃路288號","121.33504","24.96024","6500800","鶯歌區"
"239004","193-VK","2018/02/26 17:49:16","新北市鶯歌區文化路136巷46號","121.35124","24.950675","6500800","鶯歌區"
"221008","489-VK","2018/02/26 17:49:18","新北市汐止區康寧街901號","121.651371666667","25.075105","6501100","汐止區"
"221036","130-UY","2018/02/26 17:49:17","新北市汐止區長江街256巷1號","121.665145","25.0802","6501100","汐止區"
"221015","131-UY","2018/02/26 17:49:05","新北市汐止區長江街249-1號","121.662836666667","25.0793683333333","6501100","汐止區"
"221010","269-BY","2018/02/26 17:49:14","新北市汐止區汐萬路二段66巷3弄11號","121.64929","25.08241","6501100","汐止區"
"221012","278-VK","2018/02/26 17:49:11","新北市汐止區長江街43號","121.655906666667","25.07135","6501100","汐止區"
"221023","279-VK","2018/02/26 17:49:14","新北市汐止區民族二街9號","121.634933333333","25.0709133333333","6501100","汐止區"
"221032","280-BY","2018/02/26 17:49:05","新北市汐止區大同路一段89-2號","121.624315","25.0549183333333","6501100","汐止區"
"221027","281-BY","2018/02/26 17:49:20","新北市汐止區康寧街901號","121.651078333333","25.0751166666667","6501100","汐止區"
"221038","297-VK","2018/02/26 17:49:08","新北市汐止區汐萬路一段191號","121.652503333333","25.0716183333333","6501100","汐止區"
"221029","298-VK","2018/02/26 17:49:07","新北市汐止區康寧街901號","121.651616666667","25.0749116666667","6501100","汐止區"
"221021","299-VK","2018/02/26 17:49:13","新北市汐止區水源路一段27號","121.657188333333","25.0665666666667","6501100","汐止區"
"221031","353-TW","2018/02/26 17:49:09","新北市汐止區工建路202號","121.636828333333","25.0626533333333","6501100","汐止區"
"221035","622-UM","2018/02/26 17:49:19","新北市汐止區汐萬路一段211巷15號","121.651421666667","25.071765","6501100","汐止區"
"221025","623-UM","2018/02/26 17:49:09","新北市汐止區大同路二段187巷1號","121.651705","25.06459","6501100","汐止區"
"221033","647-BX","2018/02/26 17:49:07","台北市南港區舊莊街一段145巷8弄24號","121.621473333333","25.0403066666667","6501100","汐止區"
"221018","753-BX","2018/02/26 17:49:14","新北市汐止區忠孝東路348號","121.665611666667","25.0696916666667","6501100","汐止區"
"242031","281-VK","2018/02/26 17:49:20","新北市新莊區新泰路357巷3弄7號","121.442376666667","25.04107","6500500","新莊區"
