"lineid","car","time","location","longitude","latitude","cityid","cityname"
"234007","207-UY","2018/02/26 18:09:23","新北市永和區仁愛路273號","121.506031666667","25.00986","6500400","永和區"
"234026","9371-KE","2018/02/26 18:09:32","新北市永和區秀朗路一段10巷24號","121.513173333333","25.0063233333333","6500400","永和區"
"249005","172-UM","2018/02/26 18:09:18","新北市八里區荖阡坑路15號","121.401705","25.13989","6502300","八里區"
"249001","173-UM","2018/02/26 18:09:24","新北市八里區龍米路二段28號","121.44877","25.1396266666667","6502300","八里區"
"249004","303-UY","2018/02/26 18:09:33","新北市八里區龍米路二段159號","121.439108333333","25.1539166666667","6502300","八里區"
"249002","305-UY","2018/02/26 18:09:34","新北市八里區龍米路一段386巷20號","121.452248333333","25.1314333333333","6502300","八里區"
"249003","593-UM","2018/02/26 18:09:35","新北市八里區中華路二段322號","121.403366666667","25.1480216666667","6502300","八里區"
"248014","025-BX","2018/02/26 18:09:16","新北市五股區成泰路一段189巷5號","121.434613333333","25.0765683333333","6501500","五股區"
"248016","026-BX","2018/02/26 18:09:22","新北市五股區成泰路三段152號","121.444708333333","25.0911883333333","6501500","五股區"
"248006","077-UY","2018/02/26 18:09:20","新北市五股區中興路二段82號","121.460861666667","25.0772266666667","6501500","五股區"
"248008","095-VK","2018/02/26 18:09:30","新北市五股區更洲路32巷8弄14號","121.459248333333","25.079645","6501500","五股區"
"248018","225-UY","2018/02/26 18:09:19","新北市五股區成泰路三段74號","121.444293333333","25.0897483333333","6501500","五股區"
"248012","247-BX","2018/02/26 18:09:17","新北市五股區芳洲一路23號","121.443216666667","25.0861333333333","6501500","五股區"
"248010","272-BY","2018/02/26 18:09:32","新北市五股區成泰路一段229-1號","121.434231666667","25.0776483333333","6501500","五股區"
"248004","677-BX","2018/02/26 18:09:21","新北市五股區成泰路二段186號","121.438748333333","25.0846516666667","6501500","五股區"
"248002","678-BX","2018/02/26 18:09:33","新北市五股區成泰路三段93號","121.443873333333","25.0902383333333","6501500","五股區"
"232011","375-UM","2018/02/26 18:09:28","新北市坪林區國中路3號","121.712825","24.9369383333333","6502000","坪林區"
"244013","069-UM","2018/02/26 18:09:21","新北市林口區中山路56號","121.39471","25.0785283333333","6501700","林口區"
"244007","080-UY","2018/02/26 18:09:35","新北市林口區林口路124巷13號","121.388946666667","25.0819066666667","6501700","林口區"
"244019","402-UM","2018/02/26 18:09:29","新北市林口區麗園路54號","121.373701666667","25.06967","6501700","林口區"
"244025","742-UY","2018/02/26 18:09:20","新北市林口區南勢二街152-5號","121.358771666667","25.0732366666667","6501700","林口區"
"244017","485-VK","2018/02/26 18:09:21","新北市林口區忠孝路502號","121.370751666667","25.0700916666667","6501700","林口區"
"244009","657-BX","2018/02/26 18:09:22","新北市林口區竹林路606巷21弄2號","121.384935","25.082855","6501700","林口區"
"244011","701-TV","2018/02/26 18:09:25","新北市林口區中正路100號","121.393938333333","25.077285","6501700","林口區"
"244023","837-TS","2018/02/26 18:09:20","新北市林口區東湖路105巷26號","121.383875","25.0720583333333","6501700","林口區"
"244021","838-TS","2018/02/26 18:09:27","新北市林口區自強八街23號","121.399903333333","25.075835","6501700","林口區"
"243012","AAD-798","2018/02/26 17:49:35","新北市泰山區黎明路25號","121.422006666667","25.0608033333333","6501600","泰山區"
"243013","646-TV","2018/02/26 18:09:28","新北市泰山區南林路93號","121.415521666667","25.0511933333333","6501600","泰山區"
"222003","436-BY","2018/02/26 18:09:34","新北市深坑區腳坑2號","121.61135","24.9962866666667","6501800","深坑區"
"222002","659-BX","2018/02/26 18:09:21","新北市深坑區文化街52號","121.61895","25.0016116666667","6501800","深坑區"
"231059","046-UY","2018/02/26 18:09:18","新北市新店區安華路28-1號","121.519558333333","24.9608066666667","6500600","新店區"
"231061","047-UY","2018/02/26 18:09:19","新北市新店區安華路28-1號","121.519285","24.9608983333333","6500600","新店區"
"231051","107-UY","2018/02/26 18:09:35","新北市新店區安華路28-1號","121.5195","24.961175","6500600","新店區"
"231052","187-VK","2018/02/26 18:09:28","新北市新店區安華路28-1號","121.51953","24.961295","6500600","新店區"
"231050","KEA-2219","2018/02/26 18:09:22","新北市新店區安華路28-1號","121.519783333333","24.96138","6500600","新店區"
"231046","278-BY","2018/02/26 18:09:29","新北市新店區直潭路109號","121.531786666667","24.9366133333333","6500600","新店區"
"231058","3712-VJ","2018/02/26 18:09:27","新北市新店區安華路1-1號","121.519103333333","24.9605866666667","6500600","新店區"
"231056","3713-VJ","2018/02/26 18:09:19","新北市新店區安華路28-1號","121.519826666667","24.9614416666667","6500600","新店區"
"231055","4716-K9","2018/02/26 18:09:25","新北市新店區安華路28-1號","121.519578333333","24.96141","6500600","新店區"
"231064","515-UM","2018/02/26 18:09:25","新北市新店區安華路28-1號","121.51964","24.961385","6500600","新店區"
"231042","641-BX","2018/02/26 18:09:31","新北市新店區安華路28-1號","121.519728333333","24.96056","6500600","新店區"
"231045","898-TW","2018/02/26 18:09:36","新北市新店區安華路28-1號","121.519396666667","24.96072","6500600","新店區"
"231043","899-TW","2018/02/26 18:09:33","新北市新店區安華路28-1號","121.51918","24.9608733333333","6500600","新店區"
"231066","AKT-0513","2018/02/26 18:09:18","新北市新店區安華路28-1號","121.51933","24.960595","6500600","新店區"
"241033","AAC-255","2018/02/26 18:09:24","新北市三重區中興北街56-1號","121.469076666667","25.05129","6500200","三重區"
"235066","003-UY","2018/02/26 18:09:33","新北市中和區圓通路177號","121.497581666667","24.9949816666667","6500300","中和區"
"235064","005-UY","2018/02/26 18:09:27","新北市中和區中正路305號","121.492426666667","24.993915","6500300","中和區"
"235063","006-UY","2018/02/26 18:09:34","新北市中和區員山路36巷16-3號","121.485031666667","24.9913333333333","6500300","中和區"
"235065","098-UM","2018/02/26 18:09:24","新北市中和區中山路二段2巷81弄1號","121.501123333333","25.007575","6500300","中和區"
"235058","151-BY","2018/02/26 18:09:17","新北市中和區圓通路367巷33弄17號","121.495331666667","24.9850333333333","6500300","中和區"
"235038","185-VK","2018/02/26 18:09:24","新北市中和區景平路110號","121.519781666667","24.9918533333333","6500300","中和區"
"235043","352-BY","2018/02/26 18:09:22","新北市中和區錦和路350-1號","121.490251666667","24.993525","6500300","中和區"
"235061","378-QA","2018/02/26 18:09:32","新北市中和區員山路82巷10弄8號","121.481418333333","24.9936783333333","6500300","中和區"
"235050","4979-A6","2018/02/26 18:09:33","新北市中和區錦和路350-1號","121.49055","24.99356","6500300","中和區"
"235045","565-BX","2018/02/26 18:09:22","新北市中和區錦和路350-1號","121.490441666667","24.9935566666667","6500300","中和區"
"235054","640-BX","2018/02/26 18:09:27","新北市中和區連城路583巷15號","121.479221666667","24.9934416666667","6500300","中和區"
"235060","647-TV","2018/02/26 18:09:25","新北市中和區員山路36巷16-3號","121.484795","24.9916666666667","6500300","中和區"
"235062","800-TS","2018/02/26 18:09:28","新北市中和區中山路二段389號","121.486706666667","25.004855","6500300","中和區"
"235052","805-TS","2018/02/26 18:09:27","新北市中和區中正路277-4號","121.495393333333","24.9935533333333","6500300","中和區"
"235053","900-TW","2018/02/26 18:09:32","新北市中和區員山路36巷16-2號","121.48524","24.9914516666667","6500300","中和區"
"235051","157-BY","2018/02/26 18:09:34","新北市中和區南山路287號","121.504323333333","24.9921116666667","6500300","中和區"
"235037","AAC-213","2018/02/26 18:09:16","新北市中和區景平路155號","121.513678333333","24.992385","6500300","中和區"
"235059","AAC-215","2018/02/26 18:09:19","新北市中和區員山路36巷16-3號","121.48493","24.9911483333333","6500300","中和區"
"247012","335-TH","2018/02/26 18:09:24","新北市蘆洲區民族路150號","121.479516666667","25.08599","6501400","蘆洲區"
"226004","205-ST","2018/02/26 18:09:33","新北市平溪區菁桐里菁桐街20號","121.725965","25.0238216666667","6502400","平溪區"
"235041","251-BX","2018/02/26 18:09:22","新北市中和區員山路36巷16-2號","121.485118333333","24.99168","6500300","中和區"
"228003","097-TW","2018/02/26 18:09:21","新北市貢寮區真理里美艷山街6-2號","121.92877","25.0607883333333","6502600","貢寮區"
"228002","585-TW","2018/02/26 18:09:22","新北市貢寮區福連里福興街37-2號","121.992161666667","25.011535","6502600","貢寮區"
"228001","670-TC","2018/02/26 18:09:34","新北市貢寮區真理里新港街26巷55弄2-1號","121.927365","25.0528783333333","6502600","貢寮區"
"224006","676-BX","2018/02/26 18:09:31","新北市瑞芳區中山路251號","121.797623333333","25.1096416666667","6501200","瑞芳區"
"224002","639-TC","2018/02/26 18:09:37","新北市瑞芳區三爪子坑路32巷124號","121.809296666667","25.1063233333333","6501200","瑞芳區"
"224009","285-BY","2018/02/26 18:09:31","新北市瑞芳區金光路288號","121.851886666667","25.1067333333333","6501200","瑞芳區"
"224008","275-VK","2018/02/26 18:09:23","新北市瑞芳區員山子路23號","121.821376666667","25.103015","6501200","瑞芳區"
"224007","273-VK","2018/02/26 18:09:24","新北市瑞芳區四腳亭埔路18號","121.778003333333","25.1026266666667","6501200","瑞芳區"
"224005","271-BY","2018/02/26 18:09:18","新北市瑞芳區深澳路1號","121.816513333333","25.1285516666667","6501200","瑞芳區"
"227001","642-TC","2018/02/26 18:09:17","新北市雙溪區共和里東榮街31號","121.866241666667","25.0335666666667","6502500","雙溪區"
"227008","400-TW","2018/02/26 18:09:24","新北市雙溪區三貂里政光路3-1號","121.850776666667","25.0632466666667","6502500","雙溪區"
"253005","032-BX","2018/02/26 18:09:25","新北市石門區福安街13號","121.56853","25.2926733333333","6502200","石門區"
"253006","295-VK","2018/02/26 18:09:21","新北市石門區老梅路52巷25弄2-1號","121.546658333333","25.287485","6502200","石門區"
"222001","KEA-2212","2018/02/26 18:09:28","新北市深坑區北深路二段151號","121.614113333333","25.002205","6501800","深坑區"
"208003","665-BX","2018/02/26 18:09:32","新北市金山區民生路31號","121.643016666667","25.2215583333333","6502700","金山區"
"208001","761-BX","2018/02/26 18:09:19","新北市金山區磺港里磺港路112號","121.646245","25.2267066666667","6502700","金山區"
"251009","008-UM","2018/02/26 18:09:21","新北市淡水區大忠街34巷7號","121.443636666667","25.1754583333333","6501000","淡水區"
"251004","009-UM","2018/02/26 18:09:13","新北市淡水區民族路110巷41號","121.461715","25.1352083333333","6501000","淡水區"
"251005","010-UM","2018/02/26 18:09:27","新北市淡水區水源街一段139號","121.44709","25.172","6501000","淡水區"
"251001","011-UM","2018/02/26 18:09:29","新北市淡水區自立路15巷3號","121.462745","25.1300883333333","6501000","淡水區"
"251013","179-VK","2018/02/26 18:09:24","新北市淡水區竹圍子10號","121.476215","25.194115","6501000","淡水區"
"251014","180-VK","2018/02/26 18:09:18","新北市淡水區南平14-3號","121.486556666667","25.2204433333333","6501000","淡水區"
"251008","181-VK","2018/02/26 18:09:26","新北市淡水區中正東路二段7號","121.458106666667","25.1587966666667","6501000","淡水區"
"251015","182-VK","2018/02/26 18:09:16","新北市淡水區興福寮88巷1號","121.485555","25.1651083333333","6501000","淡水區"
"251010","413-VK","2018/02/26 18:09:19","新北市淡水區中正路二段50巷10號","121.419891666667","25.183315","6501000","淡水區"
"251012","441-VK","2018/02/26 18:09:23","新北市淡水區北新路三段157號","121.48892","25.1903816666667","6501000","淡水區"
"251016","442-VK","2018/02/26 18:09:34","新北市淡水區下圭柔山15號","121.453071666667","25.202215","6501000","淡水區"
"251006","561-UM","2018/02/26 18:09:29","新北市淡水區真理街3巷24-1號","121.43793","25.1765666666667","6501000","淡水區"
"251011","650-BX","2018/02/26 18:09:37","新北市淡水區三空泉9-1號","121.474863333333","25.1627733333333","6501000","淡水區"
"251002","672-BX","2018/02/26 18:09:27","新北市淡水區中正東路一段129號","121.45551","25.1592683333333","6501000","淡水區"
"251003","766-UM","2018/02/26 18:09:34","新北市淡水區大忠街113巷20號","121.447291666667","25.17764","6501000","淡水區"
"207003","550-UM","2018/02/26 18:09:19","新北市萬里區野柳里港西路70號","121.685275","25.204575","6502800","萬里區"
"207004","225-TW","2018/02/26 18:09:19","新北市萬里區中幅里中福路112-1號","121.67613","25.1678183333333","6502800","萬里區"
"252002","178-VK","2018/02/26 18:09:21","新北市三芝區中山路二段33號","121.502823333333","25.2552366666667","6502100","三芝區"
"252003","249-BX","2018/02/26 18:09:28","新北市三芝區埔頭里埔頭37號","121.49841","25.2603516666667","6502100","三芝區"
"252001","292-VK","2018/02/26 18:09:31","新北市三芝區中興街二段2號","121.498391666667","25.256625","6502100","三芝區"
"237004","KEA-2597","2018/02/26 18:09:16","新北市三峽區大埔路150-2號","121.364996666667","24.8971533333333","6500900","三峽區"
"237007","153-BY","2018/02/26 18:09:26","新北市三峽區中正路二段206-1號","121.365938333333","24.9144533333333","6500900","三峽區"
"237009","210-TH","2018/02/26 18:09:22","新北市三峽區大仁路34巷11號","121.365955","24.9380333333333","6500900","三峽區"
"237013","252-BX","2018/02/26 18:09:27","新北市三峽區長泰街55號","121.377385","24.932935","6500900","三峽區"
"237012","275-BY","2018/02/26 18:09:37","新北市三峽區民生街19巷7弄37號","121.377345","24.9355416666667","6500900","三峽區"
"237008","302-VK","2018/02/26 18:09:33","新北市三峽區白雞44-10號","121.378621666667","24.9093416666667","6500900","三峽區"
"237014","433-BY","2018/02/26 18:09:25","新北市三峽區復興路159號","121.370531666667","24.9382416666667","6500900","三峽區"
"237006","5529-G3","2018/02/26 18:09:29","新北市三峽區溪東路213號","121.405416666667","24.9330666666667","6500900","三峽區"
"237011","KEA-2596","2018/02/26 18:09:31","新北市三峽區溪北街2號","121.396015","24.9362166666667","6500900","三峽區"
"237015","649-BX","2018/02/26 18:09:28","新北市三峽區三十股路11巷14號","121.428163333333","24.9064666666667","6500900","三峽區"
"237010","706-TV","2018/02/26 18:09:15","新北市三峽區中園街3號","121.368608333333","24.927455","6500900","三峽區"
"237005","AKY-6261","2018/02/26 18:09:21","新北市三峽區文化路65巷10號","121.372025","24.9356683333333","6500900","三峽區"
"236069","105-UM","2018/02/26 18:09:17","新北市土城區明德路一段375-1號","121.454915","24.978115","6501300","土城區"
"236042","107-UM","2018/02/26 18:09:31","新北市土城區城林路6巷80號","121.438363333333","24.97946","6501300","土城區"
"236078","166-UM","2018/02/26 18:09:28","新北市土城區永寧路30-1號","121.429458333333","24.9608266666667","6501300","土城區"
"236030","253-BX","2018/02/26 18:09:20","新北市土城區城林路6巷80號","121.43848","24.9797866666667","6501300","土城區"
"236026","269-VK","2018/02/26 18:09:24","新北市土城區承天路18號","121.439485","24.963495","6501300","土城區"
"236014","270-VK","2018/02/26 18:09:32","新北市土城區學府路二段171-1號","121.446346666667","24.9789366666667","6501300","土城區"
"236036","271-VK","2018/02/26 18:09:35","新北市土城區金城路二段36號","121.450888333333","24.978545","6501300","土城區"
"236020","401-BY","2018/02/26 18:09:36","新北市土城區城林路6巷80號","121.438546666667","24.97969","6501300","土城區"
"236048","752-BX","2018/02/26 18:09:31","新北市土城區明德路一段398號","121.453233333333","24.9793583333333","6501300","土城區"
"236058","912-UM","2018/02/26 18:09:29","新北市土城區中央路四段144號","121.417355","24.9584483333333","6501300","土城區"
"236062","915-UM","2018/02/26 18:09:27","新北市土城區金城路二段39巷2-1號","121.450088333333","24.9779283333333","6501300","土城區"
"236053","AAC-216","2018/02/26 18:09:30","新北市土城區中華路二段80號","121.43864","24.97561","6501300","土城區"
"242029","986-R7","2018/02/26 18:09:32","新北市新莊區中平路122號","121.44483","25.0464816666667","6500500","新莊區"
"242050","751-BX","2018/02/26 18:09:22","新北市新莊區民本街53巷19號","121.429","25.0181483333333","6500500","新莊區"
"242025","615-BX","2018/02/26 18:09:19","新北市新莊區五權一路96號","121.459541666667","25.0674633333333","6500500","新莊區"
"242023","613-BX","2018/02/26 18:09:26","新北市新莊區幸福路763-6號","121.447463333333","25.0491216666667","6500500","新莊區"
"242027","612-BX","2018/02/26 18:09:27","新北市新莊區幸福路554號","121.454855","25.04934","6500500","新莊區"
"242039","566-BX","2018/02/26 18:09:18","新北市新莊區民安西路40號","121.4272","25.0209366666667","6500500","新莊區"
"242044","497-BY","2018/02/26 18:09:23","新北市新莊區天泉二街11號","121.414983333333","25.02499","6500500","新莊區"
"242048","441-UM","2018/02/26 18:09:37","新北市新莊區民安路98巷5號","121.423675","25.0255966666667","6500500","新莊區"
"242053","440-UM","2018/02/26 18:09:30","新北市新莊區民安西路327巷4弄1號","121.428093333333","25.0115166666667","6500500","新莊區"
"242034","415-TV","2018/02/26 18:09:32","新北市新莊區景德路245號","121.448588333333","25.03365","6500500","新莊區"
"242004","413-TV","2018/02/26 18:09:25","新北市新莊區自立街108號","121.455046666667","25.0453866666667","6500500","新莊區"
"242042","400-BY","2018/02/26 18:09:18","新北市新莊區雙鳳路116巷20號","121.413556666667","25.0288833333333","6500500","新莊區"
"242060","362-BY","2018/02/26 18:09:35","新北市新莊區建國二路1號","121.435025","25.0237666666667","6500500","新莊區"
"242058","353-BY","2018/02/26 18:09:30","新北市新莊區壽山路160巷21號","121.417391666667","25.0319233333333","6500500","新莊區"
"242007","132-UY","2018/02/26 18:09:30","新北市新莊區中華路二段88號","121.453631666667","25.046995","6500500","新莊區"
"242036","133-UY","2018/02/26 18:09:17","新北市新莊區後港一路68號","121.426651666667","25.026475","6500500","新莊區"
"242021","135-UY","2018/02/26 18:09:27","新北市新莊區新興街104號","121.450633333333","25.038995","6500500","新莊區"
"242046","172-VK","2018/02/26 18:09:23","新北市新莊區福營路364號","121.421018333333","25.0266716666667","6500500","新莊區"
"242009","173-VK","2018/02/26 18:09:18","新北市新莊區昌平街59巷11弄1號","121.454016666667","25.0530266666667","6500500","新莊區"
"242015","175-VK","2018/02/26 18:09:31","新北市新莊區中和街59巷18號","121.446631666667","25.0467566666667","6500500","新莊區"
"242002","176-VK","2018/02/26 18:09:32","新北市新莊區新莊路90號","121.456735","25.0362833333333","6500500","新莊區"
"242019","348-TH","2018/02/26 18:09:20","新北市新莊區公園路129-10號","121.457526666667","25.040985","6500500","新莊區"
"242056","349-TH","2018/02/26 18:09:29","新北市新莊區瓊林路38巷11號","121.447563333333","25.030475","6500500","新莊區"
"242011","351-TH","2018/02/26 18:09:15","新北市新莊區中榮街17號","121.450761666667","25.0527866666667","6500500","新莊區"
"238015","755-BX","2018/02/26 18:09:36","新北市樹林區大安路323巷10弄20號","121.416856666667","24.9910683333333","6500700","樹林區"
"238023","601-UM","2018/02/26 18:09:23","新北市樹林區福興街18號","121.403971666667","25.0161216666667","6500700","樹林區"
"238019","599-UM","2018/02/26 18:09:17","新北市樹林區八德街99號","121.420288333333","24.9810333333333","6500700","樹林區"
"238018","571-TV","2018/02/26 18:09:24","新北市板橋區大觀路三段160巷48號","121.429431666667","24.9940933333333","6500700","樹林區"
"238024","5061-A6","2018/02/26 18:09:33","新北市樹林區中山路一段213號","121.420896666667","24.987115","6500700","樹林區"
"238022","KEA-2213","2018/02/26 18:09:21","新北市樹林區太平路180號","121.418221666667","24.9767833333333","6500700","樹林區"
"238026","KEA-2539","2018/02/26 18:09:26","新北市樹林區柑園街一段244號","121.391951666667","24.9563883333333","6500700","樹林區"
"238025","303-VK","2018/02/26 18:09:37","新北市樹林區中正路592號","121.410781666667","25.0153516666667","6500700","樹林區"
"238017","283-BY","2018/02/26 18:09:24","新北市樹林區中正路825號","121.409266666667","25.0173383333333","6500700","樹林區"
"238014","282-BY","2018/02/26 18:09:31","新北市樹林區中正路85號","121.426026666667","25.0003783333333","6500700","樹林區"
"238020","268-VK","2018/02/26 18:09:31","新北市樹林區俊興街277號","121.41839","25.0181816666667","6500700","樹林區"
"238026","172-UY","2018/02/26 18:09:21","新北市樹林區育德街2號","121.392821666667","24.9706183333333","6500700","樹林區"
"238016","169-UY","2018/02/26 18:09:25","新北市樹林區文化街30號","121.418941666667","24.9878533333333","6500700","樹林區"
"239007","AAC-297","2018/02/26 18:09:34","新北市鶯歌區尖山埔路199號","121.345285","24.9505283333333","6500800","鶯歌區"
"239006","891-R6","2018/02/26 18:09:28","新北市鶯歌區鶯桃路381巷2弄13號","121.332913333333","24.9637566666667","6500800","鶯歌區"
"239008","527-UM","2018/02/26 18:09:37","新北市鶯歌區朝陽路五柳巷2號","121.336773333333","24.977015","6500800","鶯歌區"
"239005","526-UM","2018/02/26 18:09:17","新北市鶯歌區鶯桃路668巷73號","121.329916666667","24.9718116666667","6500800","鶯歌區"
"239001","417-VK","2018/02/26 18:09:15","新北市鶯歌區尖山路卓厝巷7號","121.341525","24.9451916666667","6500800","鶯歌區"
"239003","360-BY","2018/02/26 18:09:32","新北市鶯歌區鶯桃路392號","121.334036666667","24.9637783333333","6500800","鶯歌區"
"221008","489-VK","2018/02/26 18:09:18","新北市汐止區康寧街315號","121.627065","25.0679783333333","6501100","汐止區"
"221036","130-UY","2018/02/26 18:09:17","新北市汐止區大同路三段143號","121.66949","25.07773","6501100","汐止區"
"221015","131-UY","2018/02/26 18:08:45","新北市汐止區鄉長路二段124-1號","121.664438333333","25.0860783333333","6501100","汐止區"
"221010","269-BY","2018/02/26 18:09:34","新北市汐止區汐萬路二段263號","121.646191666667","25.0887","6501100","汐止區"
"221012","278-VK","2018/02/26 18:09:31","新北市汐止區保一街107號","121.674833333333","25.0802966666667","6501100","汐止區"
"221023","279-VK","2018/02/26 18:09:34","新北市汐止區明峰街180號","121.628503333333","25.0700216666667","6501100","汐止區"
"221032","280-BY","2018/02/26 18:09:31","新北市汐止區橫科路61號","121.618665","25.0508666666667","6501100","汐止區"
"221027","281-BY","2018/02/26 18:09:20","新北市汐止區大同路二段518號","121.661055","25.0684083333333","6501100","汐止區"
"221038","297-VK","2018/02/26 18:09:28","新北市汐止區莊敬街119巷10號","121.655011666667","25.060205","6501100","汐止區"
"221029","298-VK","2018/02/26 18:09:28","新北市汐止區樟樹二路134號","121.639968333333","25.0656483333333","6501100","汐止區"
"221021","299-VK","2018/02/26 18:09:33","新北市汐止區龍安路202巷10號","121.652653333333","25.063365","6501100","汐止區"
"221031","353-TW","2018/02/26 18:09:30","新北市汐止區中興路218號","121.630941666667","25.066365","6501100","汐止區"
"221035","622-UM","2018/02/26 18:09:19","新北市汐止區大同路二段207號","121.652808333333","25.0644","6501100","汐止區"
"221025","623-UM","2018/02/26 18:09:29","新北市汐止區勤進路3巷27號","121.661003333333","25.061845","6501100","汐止區"
"221033","647-BX","2018/02/26 18:09:26","新北市汐止區宜興街40巷22弄2號","121.622618333333","25.0410916666667","6501100","汐止區"
"221002","707-TV","2018/02/26 18:09:24","新北市汐止區福德一路206巷3號","121.634328333333","25.06527","6501100","汐止區"
"221018","753-BX","2018/02/26 18:09:34","新北市汐止區忠孝東路397號","121.665778333333","25.0708216666667","6501100","汐止區"
"242031","281-VK","2018/02/26 18:09:20","新北市新莊區新泰路277巷11號","121.445185","25.0401533333333","6500500","新莊區"
