"lineid","car","time","location","longitude","latitude","cityid","cityname"
"234046","148-BY","2018/02/26 18:59:14","新北市永和區得和路373巷16弄11號","121.525586666667","25.0000633333333","6500400","永和區"
"234067","149-BY","2018/02/26 18:59:18","新北市永和區永和路一段22號","121.51301","25.00486","6500400","永和區"
"234007","207-UY","2018/02/26 18:59:23","新北市永和區中山路一段47號","121.513038333333","25.0105116666667","6500400","永和區"
"234081","298-R6","2018/02/26 18:59:22","新北市永和區永亨路61號","121.521068333333","25.0060483333333","6500400","永和區"
"234038","336-UY","2018/02/26 18:59:29","新北市中和區秀朗路三段38號","121.526473333333","24.99594","6500400","永和區"
"234064","337-UY","2018/02/26 18:59:23","新北市永和區秀朗路一段170號","121.518591666667","25.003345","6500400","永和區"
"234086","338-UY","2018/02/26 18:59:21","新北市永和區永寧街129巷2號","121.518046666667","25.0053566666667","6500400","永和區"
"234070","552-UM","2018/02/26 18:59:33","新北市永和區竹林路124巷38號","121.517915","25.0115416666667","6500400","永和區"
"234017","745-BX","2018/02/26 18:59:31","新北市永和區永和路二段299號","121.516021666667","25.0161533333333","6500400","永和區"
"234030","746-BX","2018/02/26 18:59:26","新北市永和區秀朗路二段276號","121.52608","24.9979083333333","6500400","永和區"
"234054","KEA-2590","2018/02/26 18:59:28","新北市永和區竹林路66巷2號","121.518298333333","25.0133733333333","6500400","永和區"
"234013","KEA-2591","2018/02/26 18:59:30","新北市永和區中山路一段93號","121.511406666667","25.0106933333333","6500400","永和區"
"234061","AAD-866","2018/02/26 18:59:31","新北市永和區福和路307號","121.516263333333","25.0072283333333","6500400","永和區"
"234042","862-TW","2018/02/26 18:59:30","新北市永和區永貞路328號","121.51132","25.0053566666667","6500400","永和區"
"234050","863-TW","2018/02/26 18:59:33","新北市永和區文化路194號","121.510738333333","25.016235","6500400","永和區"
"234026","9371-KE","2018/02/26 18:59:32","新北市永和區安樂路451號","121.514345","25.0049416666667","6500400","永和區"
"234011","9373-KE","2018/02/26 18:59:25","新北市永和區仁愛路141巷5弄10號","121.512138333333","25.01214","6500400","永和區"
"249005","172-UM","2018/02/26 18:59:18","新北市八里區長道坑13-1號","121.394301666667","25.1227016666667","6502300","八里區"
"249001","173-UM","2018/02/26 18:59:24","新北市八里區龍米路二段228-1號","121.432706666667","25.15845","6502300","八里區"
"248016","026-BX","2018/02/26 18:59:22","新北市五股區成泰路三段543巷22號","121.45081","25.1023233333333","6501500","五股區"
"248006","077-UY","2018/02/26 18:59:26","新北市五股區中興路一段56號","121.467843333333","25.072645","6501500","五股區"
"248008","095-VK","2018/02/26 18:59:30","新北市五股區中興路一段118巷6弄34-1號","121.466418333333","25.07509","6501500","五股區"
"248018","225-UY","2018/02/26 18:59:19","新北市五股區民義路一段328巷12號","121.422848333333","25.0978216666667","6501500","五股區"
"248012","247-BX","2018/02/26 18:59:18","新北市五股區中興路四段48巷16號","121.438645","25.0834266666667","6501500","五股區"
"248010","272-BY","2018/02/26 18:59:32","新北市五股區水碓三路43號","121.430348333333","25.07147","6501500","五股區"
"248004","677-BX","2018/02/26 18:59:21","新北市五股區民義路二段38號","121.418028333333","25.0981933333333","6501500","五股區"
"248002","678-BX","2018/02/26 18:59:33","新北市五股區凌雲路一段158巷6號","121.447786666667","25.1027816666667","6501500","五股區"
"234023","9380-KE","2018/02/26 18:59:14","新北市永和區竹林路75巷47號","121.520915","25.0144266666667","6500400","永和區"
"234077","969-R7","2018/02/26 18:59:18","新北市永和區中正路286巷7號","121.517711666667","24.9986416666667","6500400","永和區"
"234074","AAC-211","2018/02/26 18:59:35","新北市永和區環河東路二段98號","121.524095","25.0103283333333","6500400","永和區"
"234003","AAC-295","2018/02/26 18:59:31","新北市永和區和平街19號","121.51355","25.0099466666667","6500400","永和區"
"232011","375-UM","2018/02/26 18:59:21","新北市坪林區坪林街96號","121.711998333333","24.9364833333333","6502000","坪林區"
"244013","069-UM","2018/02/26 18:59:21","新北市林口區麗園一街6巷5-1號","121.375576666667","25.0703433333333","6501700","林口區"
"244019","402-UM","2018/02/26 18:59:29","新北市林口區麗園二街10-6號","121.378198333333","25.0695616666667","6501700","林口區"
"244025","742-UY","2018/02/26 18:59:20","新北市林口區文化北路一段530號","121.367743333333","25.07911","6501700","林口區"
"244017","485-VK","2018/02/26 18:59:21","新北市林口區文化二路一段120巷7號","121.367836666667","25.0699316666667","6501700","林口區"
"244009","657-BX","2018/02/26 18:59:22","新北市林口區竹林路326巷102號","121.393046666667","25.08332","6501700","林口區"
"244011","701-TV","2018/02/26 18:59:25","新北市林口區仁愛路一段330號","121.391463333333","25.0764366666667","6501700","林口區"
"244023","837-TS","2018/02/26 18:59:20","新北市林口區文林六街30號","121.371303333333","25.0808566666667","6501700","林口區"
"243012","AAD-798","2018/02/26 18:59:24","新北市泰山區仁德路106號","121.432498333333","25.0569233333333","6501600","泰山區"
"243011","297-R6","2018/02/26 18:59:25","新北市泰山區明志路二段239號","121.427223333333","25.0480916666667","6501600","泰山區"
"243015","380-SR","2018/02/26 18:59:32","新北市泰山區泰林路二段328號","121.430036666667","25.0630816666667","6501600","泰山區"
"243014","421-VK","2018/02/26 18:59:31","新北市泰山區泰林路二段599巷1-1號","121.421338333333","25.0633983333333","6501600","泰山區"
"243010","KEA-2215","2018/02/26 18:59:18","新北市泰山區辭修路28號","121.429016666667","25.058225","6501600","泰山區"
"243009","KEA-2216","2018/02/26 18:59:31","新北市泰山區福德街18號","121.432153333333","25.0627","6501600","泰山區"
"243013","646-TV","2018/02/26 18:59:31","新北市泰山區明志路三段351巷9號","121.422393333333","25.0350466666667","6501600","泰山區"
"243016","680-BX","2018/02/26 18:59:23","新北市泰山區明志路二段152-1號","121.42749","25.0506966666667","6501600","泰山區"
"222003","436-BY","2018/02/26 18:59:14","新北市深坑區深南路51-1號","121.621318333333","25.0102516666667","6501800","深坑區"
"222002","659-BX","2018/02/26 18:59:21","新北市深坑區文山路一段33號","121.6295","25.0038","6501800","深坑區"
"222001","696-SL","2018/02/26 18:59:30","新北市深坑區北深路一段68號","121.636806666667","25.0107533333333","6501800","深坑區"
"231060","001-UM","2018/02/26 18:59:29","新北市新店區安豐路30-1號","121.5007","24.9568433333333","6500600","新店區"
"231041","002-UM","2018/02/26 18:59:30","新北市新店區環河路76號","121.537021666667","24.9631983333333","6500600","新店區"
"231059","046-UY","2018/02/26 18:59:18","新北市新店區安康路一段266巷4號","121.519955","24.9639766666667","6500600","新店區"
"231061","047-UY","2018/02/26 18:59:19","新北市新店區安康路一段353號","121.51901","24.963915","6500600","新店區"
"231051","107-UY","2018/02/26 18:59:35","新北市新店區百忍街8號","121.535023333333","24.9755733333333","6500600","新店區"
"231047","108-UY","2018/02/26 18:59:21","新北市新店區德正街27巷29弄28號","121.545828333333","24.97224","6500600","新店區"
"231052","187-VK","2018/02/26 18:59:28","新北市新店區屈尺路12號","121.548916666667","24.9226266666667","6500600","新店區"
"231050","KEA-2219","2018/02/26 18:59:22","新北市新店區北宜路二段30巷5弄8號","121.548168333333","24.9507716666667","6500600","新店區"
"231046","278-BY","2018/02/26 18:59:29","新北市新店區直潭五街28號","121.534193333333","24.9414266666667","6500600","新店區"
"231054","AAD-862","2018/02/26 18:59:17","新北市新店區新店路13號","121.54031","24.952865","6500600","新店區"
"231058","3712-VJ","2018/02/26 18:59:27","新北市新店區中興路一段284號","121.545723333333","24.9688866666667","6500600","新店區"
"231056","3713-VJ","2018/02/26 18:59:19","新北市新店區大同街8巷17號","121.539098333333","24.9807133333333","6500600","新店區"
"231055","4716-K9","2018/02/26 18:59:25","新北市新店區新生街35號","121.539475","24.966865","6500600","新店區"
"231067","4772-VM","2018/02/26 18:59:37","新北市新店區安康路一段247巷29號","121.524605","24.96197","6500600","新店區"
"231065","512-UM","2018/02/26 18:59:16","新北市新店區安祥路190巷1號","121.478345","24.9563933333333","6500600","新店區"
"231064","515-UM","2018/02/26 18:59:24","新北市新店區安忠路16號","121.514591666667","24.9622066666667","6500600","新店區"
"231040","619-UM","2018/02/26 18:59:27","新北市新店區中正路396號","121.534575","24.97737","6500600","新店區"
"231042","641-BX","2018/02/26 18:59:31","新北市新店區中興路一段285-1號","121.545426666667","24.9686283333333","6500600","新店區"
"231063","645-TV","2018/02/26 18:59:25","新北市新店區車子路110號","121.505198333333","24.95209","6500600","新店區"
"231049","719-UM","2018/02/26 18:59:31","新北市新店區中正路454-5號","121.534435","24.9790883333333","6500600","新店區"
"231062","720-UM","2018/02/26 18:59:17","新北市新店區吉安街2號","121.517161666667","24.9656883333333","6500600","新店區"
"231044","897-TW","2018/02/26 18:59:25","新北市新店區寶中路72號","121.547928333333","24.9806183333333","6500600","新店區"
"231045","898-TW","2018/02/26 18:59:30","新北市新店區光明街7號","121.538133333333","24.95927","6500600","新店區"
"231043","899-TW","2018/02/26 18:59:33","新北市新店區北新路二段1號","121.542643333333","24.971215","6500600","新店區"
"231066","AKT-0513","2018/02/26 18:59:18","新北市新店區安祥路35-2號","121.490718333333","24.9568066666667","6500600","新店區"
"241029","942-UM","2018/02/26 18:59:24","新北市三重區重安街15-1號","121.490325","25.0574683333333","6500200","三重區"
"235066","003-UY","2018/02/26 18:59:33","新北市中和區中山路二段131巷5弄4號","121.502928333333","25.0028383333333","6500300","中和區"
"235064","005-UY","2018/02/26 18:59:27","新北市中和區泰和街44巷3號","121.49862","25.0002083333333","6500300","中和區"
"235063","006-UY","2018/02/26 18:59:34","新北市中和區錦和路117號","121.490526666667","24.9942133333333","6500300","中和區"
"235056","096-UM","2018/02/26 18:59:23","新北市中和區員山路466巷17弄17號","121.48053","25.0072116666667","6500300","中和區"
"235039","097-UM","2018/02/26 18:59:17","新北市中和區安樂路217巷51號","121.513126666667","24.99761","6500300","中和區"
"235065","098-UM","2018/02/26 18:59:24","新北市中和區勝利路35巷20號","121.499071666667","25.0071333333333","6500300","中和區"
"235040","150-BY","2018/02/26 18:59:28","新北市中和區宜安路21號","121.512903333333","24.99588","6500300","中和區"
"235058","151-BY","2018/02/26 18:59:17","新北市中和區連城路569巷9弄13號","121.479791666667","24.994115","6500300","中和區"
"235055","183-VK","2018/02/26 18:59:21","新北市中和區民德路23號","121.46897","25.0026733333333","6500300","中和區"
"235038","185-VK","2018/02/26 18:59:24","新北市中和區立人街24-5號","121.518851666667","24.9942083333333","6500300","中和區"
"235049","186-VK","2018/02/26 18:59:17","新北市中和區景新街210巷2弄10號","121.506883333333","24.9941783333333","6500300","中和區"
"235067","255-BX","2018/02/26 18:59:20","新北市中和區民樂路78號","121.484548333333","25.001175","6500300","中和區"
"235044","293-VK","2018/02/26 18:59:23","新北市中和區中興街161巷4弄1號","121.500626666667","24.9908733333333","6500300","中和區"
"235072","301-VK","2018/02/26 18:59:22","新北市中和區永和路8巷4號","121.500233333333","25.0028066666667","6500300","中和區"
"235043","352-BY","2018/02/26 18:59:22","新北市中和區成功路53號","121.526185","24.99284","6500300","中和區"
"235068","377-QA","2018/02/26 18:58:15","新北市中和區圓通路265巷47號","121.496338333333","24.99248","6500300","中和區"
"235061","378-QA","2018/02/26 18:59:32","新北市中和區民享街69巷8號","121.474711666667","25.0021683333333","6500300","中和區"
"235071","269-TV","2018/02/26 18:59:36","新北市中和區員山路36巷16-3號","121.484945","24.9913283333333","6500300","中和區"
"235050","4979-A6","2018/02/26 18:59:33","新北市中和區忠孝街58巷5號","121.511995","24.9833983333333","6500300","中和區"
"235069","4980-A6","2018/02/26 18:59:19","新北市中和區景平路459巷2弄3號","121.500248333333","24.996425","6500300","中和區"
"235042","551-UM","2018/02/26 18:59:23","新北市中和區秀朗路三段128巷25弄2號","121.524561666667","24.9939283333333","6500300","中和區"
"235045","565-BX","2018/02/26 18:59:22","新北市中和區景新街469號","121.513576666667","24.9881166666667","6500300","中和區"
"235054","640-BX","2018/02/26 18:59:27","新北市中和區民享街29巷1號","121.474085","25.0045","6500300","中和區"
"235060","647-TV","2018/02/26 18:59:25","新北市中和區民治街13巷1號","121.475236666667","25.00411","6500300","中和區"
"235047","732-UM","2018/02/26 18:59:26","新北市中和區興南路二段54巷9弄2號","121.505953333333","24.9855883333333","6500300","中和區"
"235046","733-UM","2018/02/26 18:59:17","新北市中和區興南路一段117巷5弄2號","121.50957","24.9870766666667","6500300","中和區"
"235062","800-TS","2018/02/26 18:59:28","新北市中和區中山路二段339號","121.492388333333","25.0026833333333","6500300","中和區"
"235057","801-TS","2018/02/26 18:59:28","新北市中和區民安街53-3號","121.479155","24.99991","6500300","中和區"
"235052","805-TS","2018/02/26 18:59:27","新北市中和區興南路二段347-2號","121.501185","24.9806383333333","6500300","中和區"
"235048","896-TW","2018/02/26 18:59:19","新北市中和區華新街73號","121.50821","24.9838366666667","6500300","中和區"
"235053","900-TW","2018/02/26 18:59:32","新北市中和區民德路358號","121.466421666667","24.9940066666667","6500300","中和區"
"235070","911-UM","2018/02/26 18:59:29","新北市中和區中和路170號","121.504465","24.999655","6500300","中和區"
"235051","157-BY","2018/02/26 18:59:34","新北市中和區忠孝街4號","121.509961666667","24.9827233333333","6500300","中和區"
"235037","AAC-213","2018/02/26 18:59:16","新北市中和區自立路17號","121.522291666667","24.99607","6500300","中和區"
"235059","AAC-215","2018/02/26 18:59:19","新北市中和區圓通路367巷18-3號","121.491833333333","24.98871","6500300","中和區"
"220068","013-TV","2018/02/26 18:59:19","新北市板橋區三民路一段31巷42號","121.481125","25.0229616666667","6500100","板橋區"
"220065","072-UY","2018/02/26 18:59:23","新北市板橋區民族路287巷10號","121.471225","25.0071216666667","6500100","板橋區"
"220086","073-UY","2018/02/26 18:59:35","新北市板橋區中正路80巷5號","121.456913333333","25.0146783333333","6500100","板橋區"
"220106","075-UY","2018/02/26 18:59:17","新北市板橋區文化路二段124巷3號","121.470531666667","25.025995","6500100","板橋區"
"220069","AAD-861","2018/02/26 18:59:21","新北市板橋區華興街76號","121.457096666667","25.0051016666667","6500100","板橋區"
"226004","205-ST","2018/02/26 18:59:33","新北市平溪區平溪里平溪街40號","121.738695","25.0259116666667","6502400","平溪區"
"235041","251-BX","2018/02/26 18:59:22","新北市中和區安平路145巷6號","121.511803333333","24.9982133333333","6500300","中和區"
"228003","097-TW","2018/02/26 18:59:21","新北市貢寮區和美里龍洞街46號","121.913305","25.1117583333333","6502600","貢寮區"
"228002","585-TW","2018/02/26 18:59:21","新北市貢寮區福隆里東興街106巷21弄2號","121.946125","25.017955","6502600","貢寮區"
"228001","670-TC","2018/02/26 18:59:14","新北市貢寮區仁理村保健街73號","121.923681666667","25.0516833333333","6502600","貢寮區"
"224010","AGQ-8101","2018/02/26 18:59:28","新北市瑞芳區基山街36號","121.84481","25.10839","6501200","瑞芳區"
"224006","676-BX","2018/02/26 18:59:26","新北市瑞芳區中正路2號","121.808946666667","25.10703","6501200","瑞芳區"
"224009","285-BY","2018/02/26 18:59:30","新北市瑞芳區五號路314號","121.857816666667","25.11135","6501200","瑞芳區"
"224008","275-VK","2018/02/26 18:59:23","新北市瑞芳區逢甲路412-2號","121.797911666667","25.1142616666667","6501200","瑞芳區"
"224007","273-VK","2018/02/26 18:59:24","新北市瑞芳區大埔路192-1號","121.76156","25.101205","6501200","瑞芳區"
"224005","271-BY","2018/02/26 18:59:18","新北市瑞芳區海濱路87-2號","121.830515","25.1224583333333","6501200","瑞芳區"
"227001","642-TC","2018/02/26 18:59:17","新北市雙溪區平林里康福家園10號","121.858788333333","25.0373566666667","6502500","雙溪區"
"227008","400-TW","2018/02/26 18:59:24","新北市雙溪區牡丹里中正路58巷18號","121.866358333333","25.0415816666667","6502500","雙溪區"
"253005","032-BX","2018/02/26 18:59:25","新北市石門區中央路37-5號","121.570006666667","25.2965566666667","6502200","石門區"
"253006","295-VK","2018/02/26 18:59:21","新北市石門區八甲4-6號","121.521388333333","25.2822983333333","6502200","石門區"
"208003","665-BX","2018/02/26 18:59:32","新北市金山區中正路53號","121.634511666667","25.22197","6502700","金山區"
"208001","761-BX","2018/02/26 18:59:19","新北市金山區中山路91號","121.640158333333","25.2188466666667","6502700","金山區"
"251009","008-UM","2018/02/26 18:59:21","新北市淡水區重建街38號","121.43991","25.171335","6501000","淡水區"
"251001","011-UM","2018/02/26 18:59:29","新北市淡水區自強路58-1號","121.463298333333","25.1275383333333","6501000","淡水區"
"251013","179-VK","2018/02/26 18:59:24","新北市淡水區安子內3號","121.487505","25.2156533333333","6501000","淡水區"
"251014","180-VK","2018/02/26 18:59:18","新北市淡水區小中寮32-1號","121.491656666667","25.226655","6501000","淡水區"
"251015","182-VK","2018/02/26 18:59:16","新北市淡水區糞箕湖60號","121.485215","25.1723","6501000","淡水區"
"251010","413-VK","2018/02/26 18:59:19","新北市淡水區淡海路111號","121.421743333333","25.182705","6501000","淡水區"
"251016","442-VK","2018/02/26 18:59:32","新北市淡水區埤島23-1號","121.446685","25.1995966666667","6501000","淡水區"
"251002","672-BX","2018/02/26 18:59:27","新北市淡水區中正東路61號","121.446895","25.1678116666667","6501000","淡水區"
"251003","766-UM","2018/02/26 18:59:14","新北市淡水區中山北路一段149巷31號","121.443045","25.1779183333333","6501000","淡水區"
"207003","550-UM","2018/02/26 18:59:19","新北市萬里區大鵬里頂社24號","121.657171666667","25.2104016666667","6502800","萬里區"
"207004","225-TW","2018/02/26 18:59:19","新北市萬里區萬里里獅頭路23號","121.693195","25.1782816666667","6502800","萬里區"
"252002","178-VK","2018/02/26 18:59:21","新北市三芝區中正路一段67-1號","121.503906666667","25.257285","6502100","三芝區"
"252003","249-BX","2018/02/26 18:59:28","新北市三芝區後厝里北勢子42-2號","121.472091666667","25.2523616666667","6502100","三芝區"
"252001","292-VK","2018/02/26 18:59:31","新北市三芝區中興街二段260號","121.501693333333","25.2530566666667","6502100","三芝區"
"237004","KEA-2597","2018/02/26 18:59:16","新北市三峽區有木206號","121.439071666667","24.8514666666667","6500900","三峽區"
"237007","153-BY","2018/02/26 18:59:26","新北市三峽區大埔路30號","121.365955","24.9092033333333","6500900","三峽區"
"237009","210-TH","2018/02/26 18:59:22","新北市三峽區弘園街67號","121.366263333333","24.92715","6500900","三峽區"
"237013","252-BX","2018/02/26 18:59:27","新北市三峽區光明路69巷25號","121.376528333333","24.9291866666667","6500900","三峽區"
"237012","275-BY","2018/02/26 18:59:17","新北市三峽區三樹路212-1號","121.37916","24.9420533333333","6500900","三峽區"
"237008","302-VK","2018/02/26 18:59:33","新北市三峽區中正路一段283-1號","121.37168","24.9258166666667","6500900","三峽區"
"237014","433-BY","2018/02/26 18:59:25","新北市三峽區隆恩街168-10號","121.363211666667","24.9431516666667","6500900","三峽區"
"237006","5529-G3","2018/02/26 18:59:29","新北市三峽區溪東路233巷47弄2號","121.4113","24.9352666666667","6500900","三峽區"
"237011","KEA-2596","2018/02/26 18:59:23","新北市三峽區介壽路三段233號","121.40584","24.946935","6500900","三峽區"
"237015","649-BX","2018/02/26 18:59:27","新北市三峽區建安166-2號","121.467308333333","24.9118783333333","6500900","三峽區"
"237010","706-TV","2018/02/26 18:59:14","新北市三峽區國光街362號","121.371063333333","24.939855","6500900","三峽區"
"237005","AKY-6261","2018/02/26 18:59:21","新北市三峽區中山路459巷163-3號","121.348638333333","24.932935","6500900","三峽區"
"236069","105-UM","2018/02/26 18:59:29","新北市土城區清水路105號","121.456781666667","24.98221","6501300","土城區"
"236042","107-UM","2018/02/26 18:59:31","新北市土城區學府路一段229巷7號","121.451546666667","24.983795","6501300","土城區"
"236078","166-UM","2018/02/26 18:59:28","新北市土城區中央路四段218號","121.415645","24.9573283333333","6501300","土城區"
"236030","253-BX","2018/02/26 18:59:20","新北市土城區慶利街18號","121.439603333333","24.9736583333333","6501300","土城區"
"236026","269-VK","2018/02/26 18:59:29","新北市土城區中正路68號","121.444358333333","24.9755083333333","6501300","土城區"
"236014","270-VK","2018/02/26 18:59:33","新北市土城區立德路22號","121.462875","24.9878366666667","6501300","土城區"
"236036","271-VK","2018/02/26 18:59:35","新北市土城區青仁路47號","121.461396666667","24.9793583333333","6501300","土城區"
"236020","401-BY","2018/02/26 18:59:16","新北市土城區延吉街168巷3號","121.46826","24.9856416666667","6501300","土城區"
"236048","752-BX","2018/02/26 18:59:31","新北市土城區青雲路322巷2弄4號","121.45835","24.9772316666667","6501300","土城區"
"236058","912-UM","2018/02/26 18:59:29","新北市土城區明德路一段385-1號","121.452405","24.9797533333333","6501300","土城區"
"236062","915-UM","2018/02/26 18:59:31","新北市土城區延和路41巷15號","121.465918333333","24.9897983333333","6501300","土城區"
"236053","AAC-216","2018/02/26 18:59:30","新北市土城區學成路164號","121.448081666667","24.9890916666667","6501300","土城區"
"238023","601-UM","2018/02/26 18:59:23","新北市樹林區工興街33號","121.4007","25.01323","6500700","樹林區"
"238019","599-UM","2018/02/26 18:59:17","新北市樹林區東榮街91巷2弄6號","121.415773333333","24.9824033333333","6500700","樹林區"
"238018","571-TV","2018/02/26 18:59:23","新北市樹林區八德街37-3號","121.418891666667","24.98306","6500700","樹林區"
"238022","KEA-2213","2018/02/26 18:59:21","新北市樹林區東興街14-2號","121.410025","24.9784916666667","6500700","樹林區"
"238026","KEA-2539","2018/02/26 18:59:26","新北市樹林區西圳街二段123巷6弄2號","121.384383333333","24.9572966666667","6500700","樹林區"
"238025","303-VK","2018/02/26 18:59:17","新北市樹林區中山路三段22號","121.395621666667","24.9729733333333","6500700","樹林區"
"238017","283-BY","2018/02/26 18:59:24","新北市樹林區中山路三段210-2號","121.381476666667","24.9655416666667","6500700","樹林區"
"238014","282-BY","2018/02/26 18:59:31","新北市樹林區潭興街107巷2弄7號","121.424813333333","24.9994083333333","6500700","樹林區"
"238020","268-VK","2018/02/26 18:59:15","新北市樹林區俊英街79號","121.426075","25.0075683333333","6500700","樹林區"
"238026","172-UY","2018/02/26 18:59:21","新北市樹林區中和街12號","121.391493333333","24.97317","6500700","樹林區"
"238016","169-UY","2018/02/26 18:59:24","新北市樹林區文化街25巷21號","121.418226666667","24.986625","6500700","樹林區"
"239007","AAC-297","2018/02/26 18:59:20","新北市鶯歌區中正一路461-2號","121.363268333333","24.9566266666667","6500800","鶯歌區"
"239008","527-UM","2018/02/26 18:59:17","新北市鶯歌區晨曦街2巷1號","121.336716666667","24.9763633333333","6500800","鶯歌區"
"239005","526-UM","2018/02/26 18:59:36","新北市鶯歌區鳳吉一街86號","121.327035","24.9743916666667","6500800","鶯歌區"
"239001","417-VK","2018/02/26 18:59:15","新北市鶯歌區鶯桃路134號","121.338198333333","24.955","6500800","鶯歌區"
"239003","360-BY","2018/02/26 18:59:32","新北市鶯歌區鶯桃路660號","121.329151666667","24.9692466666667","6500800","鶯歌區"
"239004","193-VK","2018/02/26 18:59:36","新北市鶯歌區中正三路156巷1號","121.334096666667","24.938875","6500800","鶯歌區"
"221008","489-VK","2018/02/26 18:59:32","新北市汐止區康寧街815巷1號","121.641156666667","25.07511","6501100","汐止區"
"221036","130-UY","2018/02/26 18:59:17","新北市汐止區南昌街21號","121.66332","25.0693816666667","6501100","汐止區"
"221015","131-UY","2018/02/26 18:59:25","新北市汐止區鄉長路一段43號","121.665313333333","25.074975","6501100","汐止區"
"221010","269-BY","2018/02/26 18:59:34","新北市汐止區康寧街901號","121.651486666667","25.075","6501100","汐止區"
"221012","278-VK","2018/02/26 18:59:31","新北市汐止區康寧街901號","121.650771666667","25.0752983333333","6501100","汐止區"
"221023","279-VK","2018/02/26 18:59:34","新北市汐止區康寧街901號","121.650936666667","25.07519","6501100","汐止區"
"221032","280-BY","2018/02/26 18:59:25","新北市汐止區橫科路385巷11號","121.624526666667","25.0476983333333","6501100","汐止區"
"221027","281-BY","2018/02/26 18:59:20","新北市汐止區康寧街901號","121.651436666667","25.0749966666667","6501100","汐止區"
"221038","297-VK","2018/02/26 18:59:28","新北市汐止區汐萬路一段312號","121.650651666667","25.0752916666667","6501100","汐止區"
"221029","298-VK","2018/02/26 18:59:28","新北市汐止區樟樹一路254號","121.642416666667","25.06723","6501100","汐止區"
"221031","353-TW","2018/02/26 18:59:30","新北市汐止區中興路181巷23號","121.629663333333","25.0660666666667","6501100","汐止區"
"221035","622-UM","2018/02/26 18:59:19","新北市汐止區汐萬路一段273號","121.650446666667","25.07455","6501100","汐止區"
"221025","623-UM","2018/02/26 18:59:29","新北市汐止區秀峰路57號","121.659761666667","25.0651016666667","6501100","汐止區"
"221033","647-BX","2018/02/26 18:59:26","新北市汐止區南勢街1巷1號","121.627058333333","25.037485","6501100","汐止區"
"221002","707-TV","2018/02/26 18:59:24","新北市汐止區大同路一段2號","121.62104","25.05508","6501100","汐止區"
"220079","145-BY","2018/02/26 18:59:29","新北市板橋區民權路202巷14弄1號","121.460685","25.0159","6500100","板橋區"
"220080","200-UY","2018/02/26 18:59:22","新北市板橋區大觀路二段265巷1弄12號","121.443438333333","24.99844","6500100","板橋區"
"220082","610-BX","2018/02/26 18:59:34","新北市板橋區滿平街123號","121.428691666667","24.9883166666667","6500100","板橋區"
"220101","245-BX","2018/02/26 18:59:25","新北市板橋區文化路二段182巷5弄2號","121.471686666667","25.0269083333333","6500100","板橋區"
"220096","257-TC","2018/02/26 18:59:34","新北市板橋區莒光路129號","121.47288","25.0239916666667","6500100","板橋區"
"220056","276-BY","2018/02/26 18:59:33","新北市板橋區信義路148號","121.458775","24.991795","6500100","板橋區"
"220072","277-BY","2018/02/26 18:59:22","新北市板橋區篤行路一段18號","121.432025","24.9948233333333","6500100","板橋區"
"220071","283-VK","2018/02/26 18:59:32","新北市板橋區重慶路243號","121.463173333333","25.0005983333333","6500100","板橋區"
"220094","285-UM","2018/02/26 18:59:27","新北市板橋區莒光路5號","121.46968","25.0249033333333","6500100","板橋區"
"220053","285-VK","2018/02/26 18:59:33","新北市板橋區中山路二段89巷37號","121.473721666667","25.0170733333333","6500100","板橋區"
"220083","286-VK","2018/02/26 18:59:31","新北市板橋區大觀路一段38巷158號","121.442256666667","25.00455","6500100","板橋區"
"220081","287-VK","2018/02/26 18:59:32","新北市板橋區南雅西路二段102號","121.45238","25.0117666666667","6500100","板橋區"
"220061","293-UM","2018/02/26 18:59:31","新北市板橋區富山街109巷69號","121.475265","25.0212233333333","6500100","板橋區"
"220084","296-UM","2018/02/26 18:59:32","新北市板橋區大觀路二段174巷118弄4號","121.442488333333","25.0012383333333","6500100","板橋區"
"220075","303-R5","2018/02/26 18:59:00","新北市板橋區文昌街1巷4號","121.45602","25.009915","6500100","板橋區"
"220062","305-R5","2018/02/26 18:59:15","新北市板橋區民享街115-2號","121.477735","25.0161833333333","6500100","板橋區"
"220092","307-R5","2018/02/26 18:59:26","新北市板橋區漢生東路7號","121.464555","25.01718","6500100","板橋區"
"220098","317-R6","2018/02/26 18:59:30","新北市板橋區民有街19號","121.466023333333","25.0249566666667","6500100","板橋區"
"220064","486-VK","2018/02/26 18:59:29","新北市板橋區漢生東路178號","121.467096666667","25.0145266666667","6500100","板橋區"
"220089","487-VK","2018/02/26 18:59:32","新北市板橋區文化路二段262號","121.471443333333","25.028605","6500100","板橋區"
"220088","491-VK","2018/02/26 18:59:28","新北市板橋區民生路二段216號","121.469371666667","25.0215066666667","6500100","板橋區"
"220035","560-BX","2018/02/26 18:59:17","新北市板橋區中正路273-1號","121.455475","25.0188466666667","6500100","板橋區"
"220103","561-BX","2018/02/26 18:59:31","新北市板橋區民生路二段123號","121.47059","25.0185816666667","6500100","板橋區"
"220063","609-BX","2018/02/26 18:59:21","新北市板橋區中山路二段110號","121.475905","25.0166733333333","6500100","板橋區"
"220091","637-BX","2018/02/26 18:59:27","新北市板橋區雙十路二段47巷61號","121.474788333333","25.0252683333333","6500100","板橋區"
"220057","686-BX","2018/02/26 18:59:25","新北市板橋區館前東路78號","121.461603333333","25.0072833333333","6500100","板橋區"
"220077","687-BX","2018/02/26 18:59:35","新北市板橋區大觀路二段142-6號","121.442293333333","24.9988816666667","6500100","板橋區"
"220093","689-BX","2018/02/26 18:59:28","新北市板橋區民生路二段236號","121.46821","25.0228983333333","6500100","板橋區"
"220054","741-BX","2018/02/26 18:59:19","新北市板橋區後埔街43號","121.460538333333","25.0060433333333","6500100","板橋區"
"220102","KEA-2699","2018/02/26 18:59:24","新北市板橋區雙十路一段44巷36號","121.477303333333","25.0247766666667","6500100","板橋區"
"220055","827-TW","2018/02/26 18:59:21","新北市板橋區中山路一段158巷18號","121.466323333333","25.0113816666667","6500100","板橋區"
"220067","829-TW","2018/02/26 18:59:21","新北市板橋區三民路二段正隆巷51號","121.47685","25.013255","6500100","板橋區"
"220090","830-TW","2018/02/26 18:59:23","新北市板橋區四維路177巷1弄2號","121.464036666667","25.0262066666667","6500100","板橋區"
"220074","895-R6","2018/02/26 18:59:19","新北市板橋區林園街52號","121.453641666667","25.0107183333333","6500100","板橋區"
"220073","985-R7","2018/02/26 18:59:30","新北市板橋區民權路258-6號","121.45794","25.0151383333333","6500100","板橋區"
"220097","AAC-210","2018/02/26 18:59:32","新北市板橋區陽明街164巷8號","121.463786666667","25.0243733333333","6500100","板橋區"
"220070","AAC-253","2018/02/26 18:59:28","新北市板橋區四川路一段343號","121.458578333333","25.0000916666667","6500100","板橋區"
