"lineid","car","time","location","longitude","latitude","cityid","cityname"
"234046","148-BY","2018/02/26 19:09:36","新北市永和區永元路18巷7號","121.522901666667","25.0003333333333","6500400","永和區"
"234067","149-BY","2018/02/26 19:09:38","新北市永和區永和路一段65巷4號","121.512735","25.0073216666667","6500400","永和區"
"234007","207-UY","2018/02/26 19:09:23","新北市永和區中山路一段242號","121.507796666667","25.0077733333333","6500400","永和區"
"234081","298-R6","2018/02/26 19:09:42","新北市永和區永貞路37號","121.521273333333","25.0064516666667","6500400","永和區"
"234038","336-UY","2018/02/26 19:09:29","新北市永和區民樂街71巷1號","121.527396666667","24.9975533333333","6500400","永和區"
"234064","337-UY","2018/02/26 19:09:24","新北市永和區秀朗路二段31號","121.5212","25.0024783333333","6500400","永和區"
"234086","338-UY","2018/02/26 19:09:41","新北市永和區永貞路150號","121.517878333333","25.00448","6500400","永和區"
"234070","552-UM","2018/02/26 19:09:33","新北市永和區豫溪街137巷1弄22號","121.51848","25.0104366666667","6500400","永和區"
"234017","745-BX","2018/02/26 19:09:31","新北市永和區忠孝街17-1號","121.514428333333","25.0156116666667","6500400","永和區"
"234030","746-BX","2018/02/26 19:09:26","新北市永和區民生路27號","121.5228","24.9986883333333","6500400","永和區"
"234054","KEA-2590","2018/02/26 19:09:28","新北市永和區竹林路74號","121.519178333333","25.0128783333333","6500400","永和區"
"234013","KEA-2591","2018/02/26 19:09:30","新北市永和區信義路14號","121.514416666667","25.0120783333333","6500400","永和區"
"234061","AAD-866","2018/02/26 19:09:34","新北市永和區安樂路304巷24號","121.51496","25.0055","6500400","永和區"
"234042","862-TW","2018/02/26 19:09:41","新北市永和區保平路262號","121.508873333333","25.0051333333333","6500400","永和區"
"234050","863-TW","2018/02/26 19:09:33","新北市永和區仁愛路104巷7弄62號","121.510801666667","25.014185","6500400","永和區"
"234026","9371-KE","2018/02/26 19:09:32","新北市永和區安樂路270號","121.514511666667","25.0040533333333","6500400","永和區"
"234011","9373-KE","2018/02/26 19:09:25","新北市永和區中山路一段64號","121.512756666667","25.0106816666667","6500400","永和區"
"249005","172-UM","2018/02/26 19:09:38","新北市八里區中華路三段101號","121.393513333333","25.138535","6502300","八里區"
"249001","173-UM","2018/02/26 19:09:44","新北市八里區龍米路三段2號","121.429535","25.1589783333333","6502300","八里區"
"248016","026-BX","2018/02/26 19:09:42","新北市五股區成泰路三段577巷56號","121.450586666667","25.1032516666667","6501500","五股區"
"248018","225-UY","2018/02/26 19:09:39","新北市五股區民義路一段287巷9號","121.424908333333","25.0918466666667","6501500","五股區"
"248012","247-BX","2018/02/26 19:09:38","新北市五股區中興路四段48巷16號","121.438665","25.083445","6501500","五股區"
"248010","272-BY","2018/02/26 19:09:32","新北市五股區水碓一路23號","121.430595","25.0713216666667","6501500","五股區"
"248004","677-BX","2018/02/26 19:09:40","新北市五股區六合街3號","121.432005","25.0885466666667","6501500","五股區"
"248002","678-BX","2018/02/26 19:09:33","新北市五股區凌雲路一段158巷14-1號","121.447828333333","25.10346","6501500","五股區"
"234023","9380-KE","2018/02/26 19:09:34","新北市永和區中興街17號","121.515921666667","25.0119433333333","6500400","永和區"
"234077","969-R7","2018/02/26 19:09:18","新北市永和區得和路237-1號","121.520286666667","25.0001783333333","6500400","永和區"
"234074","AAC-211","2018/02/26 19:09:42","新北市永和區竹林路217號","121.5207","25.0086366666667","6500400","永和區"
"234003","AAC-295","2018/02/26 19:09:31","新北市永和區保福路一段78號","121.51242","25.01018","6500400","永和區"
"244013","069-UM","2018/02/26 19:09:40","新北市林口區麗園一街11巷11號","121.378866666667","25.07055","6501700","林口區"
"244019","402-UM","2018/02/26 19:09:29","新北市林口區麗園一街35號","121.377691666667","25.0687783333333","6501700","林口區"
"244009","657-BX","2018/02/26 19:09:42","新北市林口區台電新村30號","121.386845","25.086315","6501700","林口區"
"244011","701-TV","2018/02/26 19:09:25","新北市林口區竹林路56號","121.38745","25.07811","6501700","林口區"
"244023","837-TS","2018/02/26 19:09:39","新北市林口區文化三路一段617巷185號","121.371241666667","25.0778866666667","6501700","林口區"
"243012","AAD-798","2018/02/26 19:09:24","新北市泰山區吳厝窠1號","121.427936666667","25.05857","6501600","泰山區"
"243011","297-R6","2018/02/26 19:09:27","新北市泰山區明志路二段322號","121.426105","25.0460283333333","6501600","泰山區"
"243015","380-SR","2018/02/26 19:09:35","新北市泰山區明志路一段412號","121.43071","25.056825","6501600","泰山區"
"243014","421-VK","2018/02/26 19:09:30","新北市泰山區泰林路二段376號","121.428358333333","25.063925","6501600","泰山區"
"243010","KEA-2215","2018/02/26 19:09:38","新北市泰山區明志路一段483巷1弄1號","121.431061666667","25.05549","6501600","泰山區"
"243009","KEA-2216","2018/02/26 19:09:11","新北市泰山區楓樹街15巷1-2號","121.43501","25.0630533333333","6501600","泰山區"
"243013","646-TV","2018/02/26 19:09:39","新北市泰山區明志路三段231巷2弄1號","121.424048333333","25.0377083333333","6501600","泰山區"
"243016","680-BX","2018/02/26 19:09:23","新北市泰山區明志路二段379號","121.425126666667","25.043855","6501600","泰山區"
"222003","436-BY","2018/02/26 19:09:34","新北市深坑區深南路162號","121.626071666667","25.0149983333333","6501800","深坑區"
"222002","659-BX","2018/02/26 19:09:41","新北市深坑區烏月路1號","121.633268333333","25.0084266666667","6501800","深坑區"
"222001","696-SL","2018/02/26 19:09:29","新北市深坑區北深路一段300號","121.624176666667","25.0057766666667","6501800","深坑區"
"231060","001-UM","2018/02/26 19:09:38","新北市新店區安康路二段174號","121.511748333333","24.96043","6500600","新店區"
"231041","002-UM","2018/02/26 19:09:30","新北市新店區溪園路389-6號","121.523906666667","24.979115","6500600","新店區"
"231059","046-UY","2018/02/26 19:09:38","新北市新店區安和路二段148號","121.519678333333","24.9728183333333","6500600","新店區"
"231061","047-UY","2018/02/26 19:09:39","新北市新店區安康路一段65號","121.530365","24.9610583333333","6500600","新店區"
"231051","107-UY","2018/02/26 19:09:35","新北市新店區中正路382巷20號","121.53534","24.9776866666667","6500600","新店區"
"231047","108-UY","2018/02/26 19:09:42","新北市新店區中興路二段67巷15號","121.545883333333","24.9711716666667","6500600","新店區"
"231052","187-VK","2018/02/26 19:09:28","新北市新店區自強路109號","121.546155","24.92321","6500600","新店區"
"231050","KEA-2219","2018/02/26 19:09:42","新北市新店區竹林路2巷29弄5號","121.550305","24.950415","6500600","新店區"
"231046","278-BY","2018/02/26 19:09:29","新北市新店區華潭街1巷47號","121.528308333333","24.9478316666667","6500600","新店區"
"231054","AAD-862","2018/02/26 19:09:37","新北市新店區新店路162-1號","121.537183333333","24.9556266666667","6500600","新店區"
"231058","3712-VJ","2018/02/26 19:09:27","新北市新店區光明街138巷13弄5號","121.540198333333","24.96144","6500600","新店區"
"231056","3713-VJ","2018/02/26 19:09:39","新北市新店區二十張路46巷37弄21-1號","121.535768333333","24.9814833333333","6500600","新店區"
"231067","4772-VM","2018/02/26 19:09:37","新北市新店區安康路一段266巷4號","121.520108333333","24.9639883333333","6500600","新店區"
"231065","512-UM","2018/02/26 19:09:36","新北市新店區安祥路145巷42號","121.475741666667","24.9569","6500600","新店區"
"231064","515-UM","2018/02/26 19:09:44","新北市新店區安忠路90號","121.511478333333","24.9580733333333","6500600","新店區"
"231040","619-UM","2018/02/26 19:09:27","新北市新店區三民路98-3號","121.53398","24.9734483333333","6500600","新店區"
"231042","641-BX","2018/02/26 19:09:31","新北市新店區中興路一段107號","121.54132","24.9625733333333","6500600","新店區"
"231063","645-TV","2018/02/26 19:09:25","新北市新店區車子路134號","121.50512","24.9489583333333","6500600","新店區"
"231049","719-UM","2018/02/26 19:09:39","新北市新店區二十張路25巷18弄9號","121.539311666667","24.9816133333333","6500600","新店區"
"231062","720-UM","2018/02/26 19:09:37","新北市新店區安康路一段222號","121.523761666667","24.9636116666667","6500600","新店區"
"231044","897-TW","2018/02/26 19:09:44","新北市新店區中興路三段133號","121.544666666667","24.97943","6500600","新店區"
"231045","898-TW","2018/02/26 19:09:45","新北市新店區北宜路一段178號","121.540823333333","24.95296","6500600","新店區"
"231043","899-TW","2018/02/26 19:09:33","新北市新店區寶橋路132號","121.547306666667","24.976105","6500600","新店區"
"231066","AKT-0513","2018/02/26 19:09:38","新北市新店區安康路三段359巷12弄16號","121.484186666667","24.9495333333333","6500600","新店區"
"241026","066-VK","2018/02/26 19:09:36","新北市三重區泉州街72號","121.494928333333","25.0548616666667","6500200","三重區"
"241035","743-BX","2018/02/26 19:09:43","新北市三重區重新路四段206號","121.48625","25.0546433333333","6500200","三重區"
"241029","942-UM","2018/02/26 19:09:24","新北市三重區集美街257號","121.49237","25.0554516666667","6500200","三重區"
"235066","003-UY","2018/02/26 19:09:33","新北市中和區廣福路14號","121.505255","25.00266","6500300","中和區"
"235064","005-UY","2018/02/26 19:09:27","新北市中和區泰和街38巷21號","121.498718333333","25.0008033333333","6500300","中和區"
"235063","006-UY","2018/02/26 19:09:34","新北市中和區連城路268-6號","121.486468333333","24.996315","6500300","中和區"
"235056","096-UM","2018/02/26 19:09:23","新北市中和區中正路1226號","121.479358333333","25.0109383333333","6500300","中和區"
"235039","097-UM","2018/02/26 19:09:37","新北市永和區民有街18號","121.516515","24.9966983333333","6500300","中和區"
"235065","098-UM","2018/02/26 19:09:24","新北市中和區中山路二段136巷40號","121.501223333333","25.004455","6500300","中和區"
"235040","150-BY","2018/02/26 19:09:28","新北市中和區宜安路96號","121.5107","24.9976083333333","6500300","中和區"
"235058","151-BY","2018/02/26 19:09:37","新北市中和區員山路133號","121.480811666667","24.99589","6500300","中和區"
"235055","183-VK","2018/02/26 19:09:41","新北市中和區德光路26號","121.470861666667","25.0043933333333","6500300","中和區"
"235038","185-VK","2018/02/26 19:09:43","新北市中和區大仁街10巷27弄4號","121.519248333333","24.9927233333333","6500300","中和區"
"235049","186-VK","2018/02/26 19:09:37","新北市中和區明禮街3號","121.505255","24.99566","6500300","中和區"
"235067","255-BX","2018/02/26 19:09:40","新北市中和區新生街176巷9號","121.483093333333","24.9999133333333","6500300","中和區"
"235044","293-VK","2018/02/26 19:09:43","新北市中和區中興街235巷2號","121.500676666667","24.989415","6500300","中和區"
"235072","301-VK","2018/02/26 19:09:42","新北市中和區永和路7號","121.499331666667","25.0038983333333","6500300","中和區"
"235043","352-BY","2018/02/26 19:09:42","新北市中和區景平路124號","121.519176666667","24.9917533333333","6500300","中和區"
"235068","377-QA","2018/02/26 19:09:35","新北市中和區圓通路162巷2弄2號","121.497113333333","24.9956266666667","6500300","中和區"
"235061","378-QA","2018/02/26 19:09:32","新北市中和區民享街2巷2號","121.473736666667","25.0058733333333","6500300","中和區"
"235071","269-TV","2018/02/26 19:09:36","新北市中和區連城路322號","121.483361666667","24.9959983333333","6500300","中和區"
"235050","4979-A6","2018/02/26 19:09:33","新北市中和區復興路249巷11弄3-1號","121.503663333333","24.9896966666667","6500300","中和區"
"235069","4980-A6","2018/02/26 19:09:39","新北市中和區中和路217巷12號","121.504433333333","25.000495","6500300","中和區"
"235042","551-UM","2018/02/26 19:09:43","新北市中和區自立路115號","121.522178333333","24.9944233333333","6500300","中和區"
"235045","565-BX","2018/02/26 19:09:42","新北市中和區景新街467巷35弄1號","121.51464","24.9890816666667","6500300","中和區"
"235054","640-BX","2018/02/26 19:09:27","新北市中和區國光街102巷2號","121.470285","25.0004133333333","6500300","中和區"
"235060","647-TV","2018/02/26 19:09:45","新北市中和區中山路三段147號","121.473758333333","25.0060416666667","6500300","中和區"
"235047","732-UM","2018/02/26 19:09:26","新北市中和區興南路一段106-1號","121.509445","24.98839","6500300","中和區"
"235046","733-UM","2018/02/26 19:09:37","新北市中和區華新街110號","121.508515","24.9827883333333","6500300","中和區"
"235062","800-TS","2018/02/26 19:09:28","新北市中和區中山路二段526巷23號","121.485773333333","25.0056816666667","6500300","中和區"
"235057","801-TS","2018/02/26 19:09:28","新北市中和區民利街100巷6弄11號","121.477048333333","24.9985083333333","6500300","中和區"
"235052","805-TS","2018/02/26 19:09:27","新北市中和區興南路二段142巷19弄13號","121.502741666667","24.983515","6500300","中和區"
"235048","896-TW","2018/02/26 19:09:39","新北市中和區華新街143巷71弄11號","121.508336666667","24.9787533333333","6500300","中和區"
"235053","900-TW","2018/02/26 19:09:33","新北市中和區華福街69號","121.467033333333","24.9966083333333","6500300","中和區"
"235070","911-UM","2018/02/26 19:09:29","新北市中和區中和路212號","121.505941666667","24.9994866666667","6500300","中和區"
"235051","157-BY","2018/02/26 19:09:34","新北市中和區興南路一段93巷58弄8號","121.510326666667","24.9858816666667","6500300","中和區"
"235037","AAC-213","2018/02/26 19:09:37","新北市中和區秀朗路三段60巷34號","121.52521","24.994985","6500300","中和區"
"235059","AAC-215","2018/02/26 19:09:39","新北市中和區圓通路294巷17-5號","121.488831666667","24.9902733333333","6500300","中和區"
"220068","013-TV","2018/02/26 19:09:39","新北市板橋區中山路二段443巷74號","121.48089","25.0221566666667","6500100","板橋區"
"220065","072-UY","2018/02/26 19:09:43","新北市板橋區民族路219巷25號","121.469368333333","25.0086766666667","6500100","板橋區"
"220086","073-UY","2018/02/26 19:09:26","新北市板橋區中正路250巷90號","121.458913333333","25.0198883333333","6500100","板橋區"
"220106","075-UY","2018/02/26 19:09:37","新北市板橋區文化路二段315號","121.472158333333","25.0297183333333","6500100","板橋區"
"220069","AAD-861","2018/02/26 19:09:41","新北市板橋區四川路一段104號","121.45955","25.0046533333333","6500100","板橋區"
"226004","205-ST","2018/02/26 19:09:33","新北市平溪區嶺腳里嶺腳寮13號","121.747965","25.0299033333333","6502400","平溪區"
"235041","251-BX","2018/02/26 19:09:42","新北市中和區景安路55號","121.507278333333","24.9981866666667","6500300","中和區"
"228003","097-TW","2018/02/26 19:09:41","新北市貢寮區和美里和美街32-2號","121.913626666667","25.0838083333333","6502600","貢寮區"
"228002","585-TW","2018/02/26 19:09:41","新北市貢寮區福隆里福隆街32-1號","121.945115","25.0174183333333","6502600","貢寮區"
"228001","670-TC","2018/02/26 19:09:34","新北市貢寮區真理里新港街10號","121.925511666667","25.05439","6502600","貢寮區"
"224006","676-BX","2018/02/26 19:09:26","新北市瑞芳區三爪子坑路106巷1-2號","121.808021666667","25.1048883333333","6501200","瑞芳區"
"224009","285-BY","2018/02/26 19:09:30","新北市瑞芳區長仁路50-1號","121.866258333333","25.118695","6501200","瑞芳區"
"224008","275-VK","2018/02/26 19:09:23","新北市瑞芳區瑞芳街118號","121.801528333333","25.110885","6501200","瑞芳區"
"224007","273-VK","2018/02/26 19:09:24","新北市瑞芳區中央路48巷174號","121.759096666667","25.1033066666667","6501200","瑞芳區"
"224005","271-BY","2018/02/26 19:09:38","新北市瑞芳區明燈路二段66號","121.809408333333","25.1075866666667","6501200","瑞芳區"
"227001","642-TC","2018/02/26 19:09:36","新北市雙溪區平林里外平林8號","121.859723333333","25.0380233333333","6502500","雙溪區"
"227008","400-TW","2018/02/26 19:09:43","新北市雙溪區牡丹里中正路37號","121.864776666667","25.0383716666667","6502500","雙溪區"
"253005","032-BX","2018/02/26 19:09:45","新北市石門區阿里荖35-2號","121.606216666667","25.2806716666667","6502200","石門區"
"253006","295-VK","2018/02/26 19:09:41","新北市石門區崁子腳58-10號","121.530946666667","25.287055","6502200","石門區"
"208003","665-BX","2018/02/26 19:09:32","新北市金山區中正路57號","121.634291666667","25.2218833333333","6502700","金山區"
"208001","761-BX","2018/02/26 19:09:39","新北市金山區溫泉路4號","121.639611666667","25.2219683333333","6502700","金山區"
"251009","008-UM","2018/02/26 19:09:41","新北市淡水區清水街152號","121.441141666667","25.170365","6501000","淡水區"
"251005","010-UM","2018/02/26 19:09:43","新北市淡水區原德路11號","121.442143333333","25.1712283333333","6501000","淡水區"
"251001","011-UM","2018/02/26 19:09:29","新北市淡水區民權路92巷35-1號","121.462146666667","25.1266216666667","6501000","淡水區"
"251013","179-VK","2018/02/26 19:09:44","新北市淡水區安子內12號","121.481543333333","25.2190933333333","6501000","淡水區"
"251014","180-VK","2018/02/26 19:09:37","新北市淡水區小中寮19-9號","121.485173333333","25.2284516666667","6501000","淡水區"
"251015","182-VK","2018/02/26 19:09:36","新北市淡水區南勢埔32巷2號","121.484301666667","25.1801766666667","6501000","淡水區"
"251010","413-VK","2018/02/26 19:09:39","新北市淡水區中正路一段156巷3號","121.421176666667","25.180355","6501000","淡水區"
"251016","442-VK","2018/02/26 19:09:33","新北市淡水區下圭柔山119-51號","121.450775","25.2083983333333","6501000","淡水區"
"251006","561-UM","2018/02/26 19:09:28","新北市淡水區中山北路二段191號","121.444171666667","25.1853683333333","6501000","淡水區"
"251007","577-R6","2018/02/26 19:09:32","新北市淡水區民生路145巷36-16號","121.467203333333","25.138955","6501000","淡水區"
"251002","672-BX","2018/02/26 19:09:27","新北市淡水區中山路87巷1號","121.442528333333","25.1705466666667","6501000","淡水區"
"251003","766-UM","2018/02/26 19:09:34","新北市淡水區中山北路一段96號","121.442476666667","25.176425","6501000","淡水區"
"207003","550-UM","2018/02/26 19:09:39","新北市萬里區大鵬里萬里加投24-2號","121.649121666667","25.2073516666667","6502800","萬里區"
"207004","225-TW","2018/02/26 19:09:39","新北市萬里區萬里里瑪鋉下街2號","121.691046666667","25.1783333333333","6502800","萬里區"
"252003","249-BX","2018/02/26 19:09:28","新北市三芝區錫板里海尾11-7號","121.478726666667","25.260795","6502100","三芝區"
"252001","292-VK","2018/02/26 19:09:31","新北市三芝區長勤街82號","121.500291666667","25.2550733333333","6502100","三芝區"
"237004","KEA-2597","2018/02/26 19:09:36","新北市三峽區有木206號","121.43911","24.85147","6500900","三峽區"
"237007","153-BY","2018/02/26 19:09:26","新北市三峽區中正路二段46-1號","121.36678","24.9190416666667","6500900","三峽區"
"237009","210-TH","2018/02/26 19:09:42","新北市三峽區文化路212-6號","121.36837","24.9359566666667","6500900","三峽區"
"237013","252-BX","2018/02/26 19:09:27","新北市三峽區光明路69巷25號","121.376561666667","24.9291616666667","6500900","三峽區"
"237012","275-BY","2018/02/26 19:09:37","新北市三峽區三樹路222巷24-2號","121.380111666667","24.9426066666667","6500900","三峽區"
"237008","302-VK","2018/02/26 19:09:33","新北市三峽區大同路107號","121.374461666667","24.9269166666667","6500900","三峽區"
"237014","433-BY","2018/02/26 19:09:25","新北市三峽區復興路480巷30號","121.359726666667","24.9388083333333","6500900","三峽區"
"237006","5529-G3","2018/02/26 19:09:29","新北市三峽區溪東路205巷4號","121.404713333333","24.9337483333333","6500900","三峽區"
"237011","KEA-2596","2018/02/26 19:09:43","新北市三峽區介壽路二段155號","121.393633333333","24.9358366666667","6500900","三峽區"
"237015","649-BX","2018/02/26 19:09:27","新北市三峽區建安80-2號","121.451501666667","24.9230933333333","6500900","三峽區"
"237010","706-TV","2018/02/26 19:09:34","新北市三峽區國光街26號","121.375116666667","24.93738","6500900","三峽區"
"237005","AKY-6261","2018/02/26 19:09:41","新北市三峽區中山路459巷163-3號","121.348653333333","24.9329333333333","6500900","三峽區"
"236069","105-UM","2018/02/26 19:09:37","新北市土城區裕生路84巷12號","121.446786666667","24.9856433333333","6501300","土城區"
"236078","166-UM","2018/02/26 19:09:29","新北市土城區龍泉路38-2號","121.412138333333","24.9456566666667","6501300","土城區"
"236026","269-VK","2018/02/26 19:09:44","新北市土城區中正路67巷14號","121.444458333333","24.976205","6501300","土城區"
"236014","270-VK","2018/02/26 19:09:32","新北市土城區學府路一段37巷7號","121.457958333333","24.98801","6501300","土城區"
"236036","271-VK","2018/02/26 19:09:35","新北市土城區清水路143號","121.458436666667","24.98162","6501300","土城區"
"236020","401-BY","2018/02/26 19:09:36","新北市土城區延峰街32巷2號","121.469353333333","24.9851683333333","6501300","土城區"
"236048","752-BX","2018/02/26 19:09:31","新北市土城區明德路一段398-1號","121.453648333333","24.9791066666667","6501300","土城區"
"236058","912-UM","2018/02/26 19:09:33","新北市土城區金城路二段246號","121.456928333333","24.9831466666667","6501300","土城區"
"236053","AAC-216","2018/02/26 19:09:30","新北市土城區學府路一段167號","121.45282","24.9856533333333","6501300","土城區"
"238015","755-BX","2018/02/26 19:09:33","新北市樹林區備內街105號","121.40694","24.9895833333333","6500700","樹林區"
"238023","601-UM","2018/02/26 19:09:43","新北市樹林區大慶街31號","121.397011666667","25.0139533333333","6500700","樹林區"
"238019","599-UM","2018/02/26 19:09:36","新北市樹林區鎮前街347巷6號","121.416771666667","24.9835533333333","6500700","樹林區"
"238018","571-TV","2018/02/26 19:09:23","新北市樹林區太平路48號","121.41902","24.9825433333333","6500700","樹林區"
"238024","5061-A6","2018/02/26 19:09:32","新北市樹林區味王街10-1號","121.402951666667","24.976075","6500700","樹林區"
"238022","KEA-2213","2018/02/26 19:09:41","新北市樹林區中山路二段151巷12號","121.406811666667","24.9783233333333","6500700","樹林區"
"238026","KEA-2539","2018/02/26 19:09:26","新北市樹林區柑園街二段320號","121.37323","24.9517133333333","6500700","樹林區"
"238025","303-VK","2018/02/26 19:09:37","新北市樹林區民和街59號","121.381636666667","24.9706416666667","6500700","樹林區"
"238017","283-BY","2018/02/26 19:09:24","新北市樹林區大安路220號","121.418776666667","24.9934816666667","6500700","樹林區"
"238014","282-BY","2018/02/26 19:09:31","新北市樹林區中正路22-1號","121.427766666667","24.99946","6500700","樹林區"
"238020","268-VK","2018/02/26 19:09:35","新北市樹林區俊英街200號","121.425441666667","25.0089133333333","6500700","樹林區"
"238026","172-UY","2018/02/26 19:09:41","新北市樹林區地政街8巷10弄2號","121.393661666667","24.9715383333333","6500700","樹林區"
"238016","169-UY","2018/02/26 19:09:24","新北市樹林區中山路一段217號","121.421181666667","24.9870083333333","6500700","樹林區"
"239007","AAC-297","2018/02/26 19:09:40","新北市鶯歌區成功街20巷11號","121.358868333333","24.957755","6500800","鶯歌區"
"239006","891-R6","2018/02/26 19:09:28","新北市鶯歌區鶯桃路296巷102號","121.33702","24.9622433333333","6500800","鶯歌區"
"239008","527-UM","2018/02/26 19:09:37","新北市鶯歌區國際二路18巷35號","121.338018333333","24.9756866666667","6500800","鶯歌區"
"239005","526-UM","2018/02/26 19:09:37","新北市鶯歌區大湖路361巷24弄28號","121.329705","24.97743","6500800","鶯歌區"
"239001","417-VK","2018/02/26 19:09:36","新北市鶯歌區永安街37號","121.337923333333","24.9561166666667","6500800","鶯歌區"
"239003","360-BY","2018/02/26 19:09:32","新北市鶯歌區鶯桃路346號","121.333878333333","24.9624866666667","6500800","鶯歌區"
"239004","193-VK","2018/02/26 19:09:37","新北市鶯歌區中正三路230巷1號","121.330908333333","24.9379416666667","6500800","鶯歌區"
"221008","489-VK","2018/02/26 19:09:35","新北市汐止區康寧街452號","121.631418333333","25.0681933333333","6501100","汐止區"
"221036","130-UY","2018/02/26 19:09:37","新北市汐止區仁愛路333號","121.663996666667","25.0680633333333","6501100","汐止區"
"221015","131-UY","2018/02/26 19:09:25","新北市汐止區汐萬路一段306號","121.650416666667","25.0746783333333","6501100","汐止區"
"221010","269-BY","2018/02/26 19:09:34","新北市汐止區康寧街901號","121.651481666667","25.07499","6501100","汐止區"
"221012","278-VK","2018/02/26 19:09:31","新北市汐止區康寧街901號","121.650786666667","25.075275","6501100","汐止區"
"221023","279-VK","2018/02/26 19:09:34","新北市汐止區康寧街901號","121.650926666667","25.0751933333333","6501100","汐止區"
"221032","280-BY","2018/02/26 19:09:45","新北市汐止區橫科路407巷30弄21號","121.626901666667","25.04855","6501100","汐止區"
"221027","281-BY","2018/02/26 19:09:40","新北市汐止區康寧街901號","121.651421666667","25.07498","6501100","汐止區"
"221038","297-VK","2018/02/26 19:09:28","新北市汐止區汐萬路一段312號","121.65066","25.07528","6501100","汐止區"
"221029","298-VK","2018/02/26 19:09:27","新北市汐止區汐萬路一段256巷3號","121.653203333333","25.0743833333333","6501100","汐止區"
"221031","353-TW","2018/02/26 19:09:29","新北市汐止區福德三路75號","121.636345","25.0691316666667","6501100","汐止區"
"221025","623-UM","2018/02/26 19:09:29","新北市汐止區汐萬路一段256巷3號","121.652496666667","25.0745433333333","6501100","汐止區"
"221033","647-BX","2018/02/26 19:09:26","新北市汐止區南勢街1巷1號","121.627048333333","25.0374483333333","6501100","汐止區"
"221002","707-TV","2018/02/26 19:09:44","新北市汐止區環河街207號","121.626213333333","25.054","6501100","汐止區"
"220079","145-BY","2018/02/26 19:09:44","新北市板橋區民權路302巷2號","121.457353333333","25.0164433333333","6500100","板橋區"
"220080","200-UY","2018/02/26 19:09:42","新北市板橋區大觀路二段7巷22號","121.44784","25.0033983333333","6500100","板橋區"
"220082","610-BX","2018/02/26 19:09:44","新北市板橋區溪崑二街31號","121.42857","24.9911616666667","6500100","板橋區"
"220101","245-BX","2018/02/26 19:09:45","新北市板橋區萬板路11號","121.470466666667","25.0209583333333","6500100","板橋區"
"220096","257-TC","2018/02/26 19:09:34","新北市板橋區雙十路二段6-11號","121.476665","25.026405","6500100","板橋區"
"220056","276-BY","2018/02/26 19:09:41","新北市板橋區信義路110巷2弄1號","121.45796","24.9921816666667","6500100","板橋區"
"220072","277-BY","2018/02/26 19:09:42","新北市板橋區金門街369巷54號","121.428235","24.982145","6500100","板橋區"
"220071","283-VK","2018/02/26 19:09:11","新北市中和區華安街2號","121.465365","24.9985566666667","6500100","板橋區"
"220094","285-UM","2018/02/26 19:09:26","新北市板橋區光武街133號","121.46563","25.02919","6500100","板橋區"
"220053","285-VK","2018/02/26 19:09:33","新北市板橋區懷仁街37號","121.476676666667","25.0194766666667","6500100","板橋區"
"220083","286-VK","2018/02/26 19:09:31","新北市板橋區大觀路二段174巷176弄4號","121.442348333333","25.0033716666667","6500100","板橋區"
"220081","287-VK","2018/02/26 19:09:32","新北市板橋區南雅西路二段110巷24號","121.452698333333","25.0126483333333","6500100","板橋區"
"220061","293-UM","2018/02/26 19:09:32","新北市板橋區懷仁街91號","121.477531666667","25.0181433333333","6500100","板橋區"
"220084","296-UM","2018/02/26 19:09:32","新北市板橋區篤行路二段92-3號","121.431515","24.9914733333333","6500100","板橋區"
"220075","303-R5","2018/02/26 19:09:40","新北市板橋區南雅南路一段1巷34號","121.457235","25.006635","6500100","板橋區"
"220062","305-R5","2018/02/26 19:09:38","新北市中和區環中路120號","121.481888333333","25.01249","6500100","板橋區"
"220092","307-R5","2018/02/26 19:09:26","新北市板橋區文化路二段225巷1號","121.470691666667","25.0282183333333","6500100","板橋區"
"220098","317-R6","2018/02/26 19:09:35","新北市板橋區自由路51巷24弄6號","121.464413333333","25.0236066666667","6500100","板橋區"
"220064","486-VK","2018/02/26 19:09:39","新北市板橋區板新路8號","121.474838333333","25.0130333333333","6500100","板橋區"
"220089","487-VK","2018/02/26 19:09:12","新北市板橋區文化路二段421號","121.474738333333","25.0327766666667","6500100","板橋區"
"220088","491-VK","2018/02/26 19:09:42","新北市板橋區雙十路二段223號","121.473208333333","25.0292333333333","6500100","板橋區"
"220035","560-BX","2018/02/26 19:09:37","新北市板橋區中正路379巷1弄19號","121.453108333333","25.0218216666667","6500100","板橋區"
"220103","561-BX","2018/02/26 19:09:31","新北市板橋區文化路一段188巷9弄23號","121.46859","25.0194266666667","6500100","板橋區"
"220063","609-BX","2018/02/26 19:09:41","新北市板橋區三民路二段151號","121.479256666667","25.01502","6500100","板橋區"
"220091","637-BX","2018/02/26 19:09:27","新北市板橋區縣民大道三段247巷29號","121.481793333333","25.0264466666667","6500100","板橋區"
"220057","686-BX","2018/02/26 19:09:44","新北市板橋區重慶路253-3號","121.463453333333","25.00024","6500100","板橋區"
"220077","687-BX","2018/02/26 19:09:32","新北市板橋區大觀路二段57號","121.446595","25.002785","6500100","板橋區"
"220093","689-BX","2018/02/26 19:09:31","新北市板橋區民生路三段261號","121.464401666667","25.0295366666667","6500100","板橋區"
"220054","741-BX","2018/02/26 19:09:39","新北市板橋區重慶路93巷8號","121.46251","25.00577","6500100","板橋區"
"220102","KEA-2699","2018/02/26 19:09:44","新北市板橋區萬板路810-1號","121.482855","25.0275383333333","6500100","板橋區"
"220055","827-TW","2018/02/26 19:09:40","新北市板橋區新民街7巷4號","121.463658333333","25.0100133333333","6500100","板橋區"
"220067","829-TW","2018/02/26 19:09:41","新北市板橋區民享街116巷1-3號","121.478136666667","25.015665","6500100","板橋區"
"220090","830-TW","2018/02/26 19:09:23","新北市板橋區裕民街58號","121.461335","25.0286383333333","6500100","板橋區"
"220074","895-R6","2018/02/26 19:09:39","新北市板橋區文昌街24巷9號","121.456185","25.0109133333333","6500100","板橋區"
"220073","985-R7","2018/02/26 19:09:30","新北市板橋區中正路302號","121.454823333333","25.0206566666667","6500100","板橋區"
"220097","AAC-210","2018/02/26 19:09:32","新北市板橋區新海路135巷33號","121.459915","25.02281","6500100","板橋區"
"220070","AAC-253","2018/02/26 19:09:28","新北市板橋區忠孝路40號","121.460356666667","25.001875","6500100","板橋區"
