"lineid","car","time","location","longitude","latitude","cityid","cityname"
"234046","148-BY","2018/02/26 19:39:34","新北市永和區秀朗路二段84號","121.523311666667","25.00167","6500400","永和區"
"234067","149-BY","2018/02/26 19:39:38","新北市永和區中山路一段191巷16弄2號","121.509658333333","25.0079516666667","6500400","永和區"
"234007","207-UY","2018/02/26 19:39:23","新北市中和區中和路456號","121.512163333333","25.0037933333333","6500400","永和區"
"234081","298-R6","2018/02/26 19:39:42","新北市永和區林森路20巷7號","121.5259","25.0056616666667","6500400","永和區"
"234038","336-UY","2018/02/26 19:39:49","新北市永和區民樂街21號","121.527618333333","25.0019966666667","6500400","永和區"
"234064","337-UY","2018/02/26 19:39:43","新北市永和區秀朗路一段192巷6弄12號","121.519066666667","25.00236","6500400","永和區"
"234086","338-UY","2018/02/26 19:39:41","新北市永和區永亨路134號","121.524786666667","25.003975","6500400","永和區"
"234070","552-UM","2018/02/26 19:39:33","新北市永和區永和路二段216號","121.515768333333","25.0140816666667","6500400","永和區"
"234017","745-BX","2018/02/26 19:39:52","新北市永和區環河西路一段5-1號","121.515011666667","25.0179066666667","6500400","永和區"
"234030","746-BX","2018/02/26 19:39:46","新北市永和區民生路37巷5號","121.523588333333","24.9980766666667","6500400","永和區"
"234054","KEA-2590","2018/02/26 19:39:52","新北市永和區竹林路39巷14號","121.518483333333","25.0145883333333","6500400","永和區"
"234013","KEA-2591","2018/02/26 19:39:30","新北市永和區永平路203巷5弄1號","121.50914","25.0097666666667","6500400","永和區"
"234061","AAD-866","2018/02/26 19:39:31","新北市永和區永貞路180號","121.516353333333","25.0042766666667","6500400","永和區"
"234042","862-TW","2018/02/26 19:39:51","新北市永和區中和路305巷2弄1號","121.506713333333","25.0000833333333","6500400","永和區"
"234050","863-TW","2018/02/26 19:39:34","新北市永和區保安路47號","121.509588333333","25.0159616666667","6500400","永和區"
"234026","9371-KE","2018/02/26 19:39:32","新北市永和區中和路501巷2號","121.510555","25.0025066666667","6500400","永和區"
"249004","303-UY","2018/02/26 19:39:36","新北市八里區忠孝路462號","121.414818333333","25.1612733333333","6502300","八里區"
"249002","305-UY","2018/02/26 19:39:17","新北市八里區頂寮二街77號","121.450076666667","25.1252583333333","6502300","八里區"
"249003","593-UM","2018/02/26 19:39:37","新北市八里區中華路二段532號","121.399215","25.1457566666667","6502300","八里區"
"248014","025-BX","2018/02/26 19:39:45","新北市五股區五福路23巷8號","121.433341666667","25.0888316666667","6501500","五股區"
"248016","026-BX","2018/02/26 19:39:30","新北市五股區成泰路三段553號","121.452051666667","25.10186","6501500","五股區"
"248008","095-VK","2018/02/26 19:39:30","新北市五股區四維路118巷10弄1號","121.46883","25.074325","6501500","五股區"
"248018","225-UY","2018/02/26 19:27:19","新北市五股區壟路16號","121.415358333333","25.0858716666667","6501500","五股區"
"248012","247-BX","2018/02/26 19:39:38","新北市五股區成泰路二段51-1號","121.437801666667","25.0832666666667","6501500","五股區"
"248010","272-BY","2018/02/26 19:39:32","新北市五股區自強路91號","121.432538333333","25.071745","6501500","五股區"
"248004","677-BX","2018/02/26 19:39:40","新北市五股區成泰路二段82號","121.437473333333","25.0822333333333","6501500","五股區"
"248002","678-BX","2018/02/26 19:39:33","新北市五股區成泰路三段577巷49號","121.450726666667","25.1031933333333","6501500","五股區"
"234077","969-R7","2018/02/26 19:39:38","新北市永和區民族街67巷6號","121.518833333333","24.9971983333333","6500400","永和區"
"234074","AAC-211","2018/02/26 19:39:35","新北市永和區竹林路221號","121.520818333333","25.0085933333333","6500400","永和區"
"234003","AAC-295","2018/02/26 19:39:31","新北市永和區永和路一段23號","121.512911666667","25.0057683333333","6500400","永和區"
"243012","AAD-798","2018/02/26 19:39:44","新北市泰山區仁愛路100巷42號","121.433635","25.0545383333333","6501600","泰山區"
"243011","297-R6","2018/02/26 19:39:45","新北市泰山區明志路三段204巷1號","121.42141","25.0383233333333","6501600","泰山區"
"243015","380-SR","2018/02/26 19:39:32","新北市泰山區民權街41巷6-1號","121.42952","25.0502166666667","6501600","泰山區"
"243014","421-VK","2018/02/26 19:39:30","新北市泰山區泰林路二段33-8號","121.435201666667","25.05653","6501600","泰山區"
"243010","KEA-2215","2018/02/26 19:39:38","新北市泰山區明志路二段7巷9號","121.43057","25.0534033333333","6501600","泰山區"
"243009","KEA-2216","2018/02/26 19:39:51","新北市泰山區美寧街60號","121.430998333333","25.0647266666667","6501600","泰山區"
"243013","646-TV","2018/02/26 19:39:38","新北市泰山區應化街7號","121.423918333333","25.043695","6501600","泰山區"
"243016","680-BX","2018/02/26 19:39:43","新北市泰山區新北大道七段93號","121.417936666667","25.0319466666667","6501600","泰山區"
"222003","436-BY","2018/02/26 19:32:33","新北市深坑區深南路51-1號","121.621091666667","25.00999","6501800","深坑區"
"222002","659-BX","2018/02/26 19:39:41","新北市深坑區北深路一段177號","121.632551666667","25.010895","6501800","深坑區"
"222001","696-SL","2018/02/26 19:39:49","新北市深坑區北深路二段204號","121.612911666667","25.0015266666667","6501800","深坑區"
"231060","001-UM","2018/02/26 19:39:49","新北市新店區安康路二段153號","121.510706666667","24.9596383333333","6500600","新店區"
"231041","002-UM","2018/02/26 19:39:50","新北市新店區中正路485號","121.533935","24.982045","6500600","新店區"
"231059","046-UY","2018/02/26 19:39:38","新北市新店區安和路二段251號","121.516555","24.97784","6500600","新店區"
"231061","047-UY","2018/02/26 19:39:45","新北市新店區安民街189-1號","121.516831666667","24.971125","6500600","新店區"
"231051","107-UY","2018/02/26 19:39:35","新北市新店區中央四街74號","121.526658333333","24.9756133333333","6500600","新店區"
"231047","108-UY","2018/02/26 19:39:40","新北市新店區五峰路61巷5號","121.54877","24.9695933333333","6500600","新店區"
"231052","187-VK","2018/02/26 19:39:48","新北市新店區新烏路二段474-3號","121.55286","24.908065","6500600","新店區"
"231050","KEA-2219","2018/02/26 19:39:42","新北市新店區郵政路4巷31號","121.556325","24.9517366666667","6500600","新店區"
"231057","256-BX","2018/02/26 19:39:50","新北市新店區橘園一路11號","121.547965","24.9339983333333","6500600","新店區"
"231046","278-BY","2018/02/26 19:39:49","新北市新店區中正路329巷9弄2號","121.535","24.9738066666667","6500600","新店區"
"231054","AAD-862","2018/02/26 19:39:37","新北市新店區文中路40號","121.539645","24.9564933333333","6500600","新店區"
"231058","3712-VJ","2018/02/26 19:39:47","新北市新店區中正路102巷8弄2號","121.54334","24.971055","6500600","新店區"
"231055","4716-K9","2018/02/26 19:39:45","新北市新店區中華路83巷67號","121.538355","24.9674533333333","6500600","新店區"
"231067","4772-VM","2018/02/26 19:39:37","新北市新店區精忠路10-1號","121.53262","24.9590566666667","6500600","新店區"
"231065","512-UM","2018/02/26 19:39:46","新北市新店區安祥路109巷29號","121.47641","24.95939","6500600","新店區"
"231064","515-UM","2018/02/26 19:39:44","新北市新店區安和路二段111號","121.518563333333","24.970125","6500600","新店區"
"231040","619-UM","2018/02/26 19:39:47","新北市新店區北新路一段96巷23號","121.542853333333","24.9687233333333","6500600","新店區"
"231042","641-BX","2018/02/26 19:39:31","新北市新店區中興路一段216號","121.543881666667","24.9659","6500600","新店區"
"231063","645-TV","2018/02/26 19:39:45","新北市新店區達觀路41號","121.502255","24.9384316666667","6500600","新店區"
"231049","719-UM","2018/02/26 19:39:47","新北市新店區建國路128巷3-1號","121.539008333333","24.9793533333333","6500600","新店區"
"231062","720-UM","2018/02/26 19:39:37","新北市新店區永業路6號","121.533856666667","24.9562","6500600","新店區"
"231044","897-TW","2018/02/26 19:39:44","新北市新店區北新路三段109號","121.541238333333","24.98222","6500600","新店區"
"231045","898-TW","2018/02/26 19:39:50","新北市新店區北宜路二段431-1號","121.56084","24.9543516666667","6500600","新店區"
"231043","899-TW","2018/02/26 19:39:33","新北市新店區北新路二段6號","121.542786666667","24.97108","6500600","新店區"
"231066","AKT-0513","2018/02/26 19:39:38","新北市新店區安康路二段341巷28號","121.497036666667","24.9545983333333","6500600","新店區"
"241011","013-R5","2018/02/26 19:39:46","新北市三重區秀江街160號","121.498461666667","25.0717583333333","6500200","三重區"
"241028","022-UY","2018/02/26 19:39:33","新北市三重區中正南路190號","121.494003333333","25.0560666666667","6500200","三重區"
"241008","059-VK","2018/02/26 19:39:44","新北市三重區永福街123號","121.47898","25.0770683333333","6500200","三重區"
"241009","060-VK","2018/02/26 19:39:48","新北市三重區三和路四段416號","121.480871666667","25.0798583333333","6500200","三重區"
"241031","061-VK","2018/02/26 19:39:42","新北市三重區重新路四段244巷4號","121.486106666667","25.0535633333333","6500200","三重區"
"241015","062-VK","2018/02/26 19:39:42","新北市三重區福德北路34號","121.50203","25.065135","6500200","三重區"
"241017","063-VK","2018/02/26 19:39:39","新北市三重區重陽路三段5巷30號","121.491305","25.0653966666667","6500200","三重區"
"241026","066-VK","2018/02/26 19:39:36","新北市三重區文化南路65巷25號","121.49924","25.06078","6500200","三重區"
"241032","269-UM","2018/02/26 19:39:50","新北市三重區重陽路一段60巷76號","121.484275","25.0581733333333","6500200","三重區"
"241013","270-UM","2018/02/26 19:39:31","新北市三重區仁賢街3號","121.49579","25.0745633333333","6500200","三重區"
"241025","271-UM","2018/02/26 19:39:45","新北市三重區頂崁街141號","121.477935","25.06499","6500200","三重區"
"241007","398-BY","2018/02/26 19:39:31","新北市三重區仁美街63號","121.486646666667","25.0783683333333","6500200","三重區"
"241020","413-TH","2018/02/26 19:39:37","新北市三重區三和路四段20巷32號","121.489666666667","25.0736066666667","6500200","三重區"
"241030","480-VK","2018/02/26 19:39:48","新北市三重區新興路29號","121.492096666667","25.053455","6500200","三重區"
"241014","543-UM","2018/02/26 19:39:48","新北市三重區河邊北街80號","121.504356666667","25.0687466666667","6500200","三重區"
"241023","545-UM","2018/02/26 19:39:37","新北市三重區忠孝路三段99巷20號","121.479515","25.064245","6500200","三重區"
"241019","KEA-2593","2018/02/26 19:39:32","新北市三重區六張街194巷1弄17號","121.488041666667","25.0681483333333","6500200","三重區"
"241035","743-BX","2018/02/26 19:39:46","新北市三重區正義北路63號","121.497468333333","25.064555","6500200","三重區"
"241006","887-TS","2018/02/26 19:39:46","新北市三重區聯華街105號","121.485273333333","25.07518","6500200","三重區"
"241012","941-UM","2018/02/26 19:39:37","新北市三重區仁義街17號","121.500158333333","25.0758366666667","6500200","三重區"
"241029","942-UM","2018/02/26 19:39:44","新北市三重區重安街102號","121.493003333333","25.0559266666667","6500200","三重區"
"235066","003-UY","2018/02/26 19:39:33","新北市中和區中和路196巷9弄1號","121.505223333333","24.9992083333333","6500300","中和區"
"235064","005-UY","2018/02/26 19:39:47","新北市中和區南山路127巷32弄2號","121.503991666667","24.9976266666667","6500300","中和區"
"235063","006-UY","2018/02/26 19:39:34","新北市中和區安邦街16號","121.496075","24.997945","6500300","中和區"
"235056","096-UM","2018/02/26 19:39:43","新北市中和區員山路581巷31弄22號","121.476553333333","25.0103966666667","6500300","中和區"
"235039","097-UM","2018/02/26 19:39:37","新北市中和區秀峰街119巷8弄14號","121.519075","24.9899433333333","6500300","中和區"
"235065","098-UM","2018/02/26 19:39:44","新北市中和區永和路24號","121.499555","25.0036133333333","6500300","中和區"
"235040","150-BY","2018/02/26 19:39:28","新北市中和區宜安路65號","121.51131","24.9970616666667","6500300","中和區"
"235058","151-BY","2018/02/26 19:39:37","新北市中和區連城路372-3號","121.481495","24.9952733333333","6500300","中和區"
"235055","183-VK","2018/02/26 19:39:41","新北市中和區中山路三段181巷14號","121.472913333333","25.0055833333333","6500300","中和區"
"235038","185-VK","2018/02/26 19:39:43","新北市中和區大智街55巷30弄58-1號","121.5222","24.9934533333333","6500300","中和區"
"235049","186-VK","2018/02/26 19:39:37","新北市中和區安平路16號","121.509223333333","24.99417","6500300","中和區"
"235067","255-BX","2018/02/26 19:39:40","新北市中和區新生街229號","121.483883333333","24.999225","6500300","中和區"
"235044","293-VK","2018/02/26 19:39:42","新北市中和區南山路286號","121.507883333333","24.9875116666667","6500300","中和區"
"235072","301-VK","2018/02/26 19:39:42","新北市中和區錦和路93巷2弄1號","121.490321666667","24.9957416666667","6500300","中和區"
"235043","352-BY","2018/02/26 19:39:42","新北市中和區興南路一段21號","121.511398333333","24.990835","6500300","中和區"
"235068","377-QA","2018/02/26 19:39:35","新北市中和區景平路493巷11號","121.499575","24.9972316666667","6500300","中和區"
"235061","378-QA","2018/02/26 19:36:11","新北市中和區民利街93巷1號","121.478131666667","24.9977716666667","6500300","中和區"
"235071","269-TV","2018/02/26 19:39:36","新北市中和區新生街114巷1號","121.483468333333","25.0023383333333","6500300","中和區"
"235050","4979-A6","2018/02/26 19:39:33","新北市中和區中正路637巷52弄1號","121.485586666667","24.9935583333333","6500300","中和區"
"235042","551-UM","2018/02/26 19:39:44","新北市中和區宜安路119巷12號","121.509193333333","24.99836","6500300","中和區"
"235045","565-BX","2018/02/26 19:39:42","新北市中和區景新街557號","121.515396666667","24.9864283333333","6500300","中和區"
"235054","640-BX","2018/02/26 19:39:47","新北市中和區國光街102巷6號","121.47035","25.0004566666667","6500300","中和區"
"235060","647-TV","2018/02/26 19:39:45","新北市中和區中山路二段479號","121.483108333333","25.0048083333333","6500300","中和區"
"235047","732-UM","2018/02/26 19:39:46","新北市中和區景安路172巷2號","121.504458333333","24.9929266666667","6500300","中和區"
"235046","733-UM","2018/02/26 19:39:36","新北市中和區景新街496巷17號","121.513446666667","24.98663","6500300","中和區"
"235057","801-TS","2018/02/26 19:39:48","新北市中和區員山路256號","121.481491666667","25.0016083333333","6500300","中和區"
"235052","805-TS","2018/02/26 19:39:47","新北市中和區華新街232巷24號","121.505596666667","24.98257","6500300","中和區"
"235048","896-TW","2018/02/26 19:39:39","新北市中和區忠孝街1巷2-1號","121.509093333333","24.9830933333333","6500300","中和區"
"235053","900-TW","2018/02/26 19:39:32","新北市中和區國光街184巷20號","121.467458333333","25.0020516666667","6500300","中和區"
"235070","911-UM","2018/02/26 19:39:49","新北市中和區景平路634-9號","121.498795","24.9995116666667","6500300","中和區"
"235051","157-BY","2018/02/26 19:39:34","新北市中和區南山路130號","121.503598333333","24.9928","6500300","中和區"
"235037","AAC-213","2018/02/26 19:39:47","新北市中和區秀朗路三段10巷21弄8號","121.525206666667","24.9961266666667","6500300","中和區"
"235059","AAC-215","2018/02/26 19:39:39","新北市中和區錦和路175號","121.490691666667","24.9912933333333","6500300","中和區"
"220068","013-TV","2018/02/26 19:39:19","新北市板橋區萬安街18號","121.484638333333","25.02269","6500100","板橋區"
"220065","072-UY","2018/02/26 19:39:43","新北市板橋區國泰街29號","121.468881666667","25.0067483333333","6500100","板橋區"
"220086","073-UY","2018/02/26 19:39:46","新北市板橋區中正路236巷69號","121.45878","25.0195816666667","6500100","板橋區"
"220106","075-UY","2018/02/26 19:39:37","新北市板橋區文化路二段410巷2號","121.473955","25.031695","6500100","板橋區"
"220069","AAD-861","2018/02/26 19:39:41","新北市板橋區縣民大道一段64巷3號","121.455468333333","25.0037483333333","6500100","板橋區"
"247004","336-TH","2018/02/26 19:39:38","新北市蘆洲區長安街98巷21號","121.462995","25.0819616666667","6501400","蘆洲區"
"247008","053-VK","2018/02/26 19:39:34","新北市蘆洲區中山一路124號","121.476658333333","25.0815983333333","6501400","蘆洲區"
"226004","205-ST","2018/02/26 19:39:33","新北市平溪區靜安路三段392巷3號","121.784368333333","25.0495083333333","6502400","平溪區"
"235041","251-BX","2018/02/26 19:39:42","新北市永和區中和路593號","121.51226","25.004135","6500300","中和區"
"228003","097-TW","2018/02/26 19:39:40","新北市貢寮區真理里美艷山街15-3號","121.923721666667","25.067985","6502600","貢寮區"
"228001","670-TC","2018/02/26 19:39:34","新北市貢寮區真理里大澳街3號","121.92478","25.0556733333333","6502600","貢寮區"
"224002","639-TC","2018/02/26 19:39:48","新北市瑞芳區民享新村15號","121.816323333333","25.1058533333333","6501200","瑞芳區"
"227001","642-TC","2018/02/26 19:39:36","新北市雙溪區雙溪里太平路35號","121.86465","25.0354616666667","6502500","雙溪區"
"227008","400-TW","2018/02/26 19:39:43","新北市雙溪區新基里新基北街18號","121.867173333333","25.0385666666667","6502500","雙溪區"
"208003","665-BX","2018/02/26 19:39:32","新北市金山區仁愛路1巷1號","121.638601666667","25.2200633333333","6502700","金山區"
"208001","761-BX","2018/02/26 19:39:48","新北市金山區六股里下六股65號","121.614456666667","25.2234566666667","6502700","金山區"
"251009","008-UM","2018/02/26 19:39:41","新北市淡水區中山北路一段196號","121.444495","25.1793733333333","6501000","淡水區"
"251004","009-UM","2018/02/26 19:39:38","新北市淡水區民權路49號","121.459681666667","25.139575","6501000","淡水區"
"251005","010-UM","2018/02/26 19:39:43","新北市淡水區原德路110號","121.443491666667","25.1737916666667","6501000","淡水區"
"251001","011-UM","2018/02/26 19:39:49","新北市淡水區民權路41號","121.459726666667","25.1404383333333","6501000","淡水區"
"251013","179-VK","2018/02/26 19:39:47","新北市淡水區頂田寮路145號","121.461515","25.2161966666667","6501000","淡水區"
"251014","180-VK","2018/02/26 19:39:37","新北市淡水區北勢子12號","121.479181666667","25.23184","6501000","淡水區"
"251008","181-VK","2018/02/26 19:39:46","新北市淡水區中正路一段8巷1弄11號","121.428285","25.1764233333333","6501000","淡水區"
"251015","182-VK","2018/02/26 19:39:35","新北市淡水區大埤頭1-3號","121.492376666667","25.19508","6501000","淡水區"
"251010","413-VK","2018/02/26 19:39:39","新北市淡水區崁頂92號","121.42933","25.2018266666667","6501000","淡水區"
"251012","441-VK","2018/02/26 19:39:43","新北市淡水區中山北路三段156號","121.445605","25.1958166666667","6501000","淡水區"
"251016","442-VK","2018/02/26 19:39:32","新北市淡水區淡金路三段350巷18號","121.450798333333","25.2083666666667","6501000","淡水區"
"251006","561-UM","2018/02/26 19:39:49","新北市淡水區中山北路一段207巷26號","121.443426666667","25.179235","6501000","淡水區"
"251007","577-R6","2018/02/26 19:39:32","新北市淡水區中正東路一段111巷27-1號","121.455555","25.1607433333333","6501000","淡水區"
"251011","650-BX","2018/02/26 19:39:43","新北市淡水區中正東路二段5巷38號","121.460633333333","25.1581983333333","6501000","淡水區"
"207003","550-UM","2018/02/26 19:39:39","新北市萬里區大鵬里下社17-4號","121.6482","25.2177066666667","6502800","萬里區"
"207004","225-TW","2018/02/26 19:39:39","新北市萬里區萬里里瑪鋉路5-1號","121.686848333333","25.17529","6502800","萬里區"
"252002","178-VK","2018/02/26 19:39:40","新北市三芝區中正路一段18巷56號","121.504335","25.258745","6502100","三芝區"
"252001","292-VK","2018/02/26 19:39:31","新北市三芝區長安街89號","121.49967","25.2574683333333","6502100","三芝區"
"237004","KEA-2597","2018/02/26 19:39:36","新北市三峽區插角25號","121.403705","24.87306","6500900","三峽區"
"237007","153-BY","2018/02/26 19:39:46","新北市三峽區二鬮路136巷24弄67號","121.357441666667","24.91058","6500900","三峽區"
"237009","210-TH","2018/02/26 19:39:42","新北市三峽區和平街2號","121.370618333333","24.935215","6500900","三峽區"
"237013","252-BX","2018/02/26 19:39:47","新北市三峽區介壽路一段420號","121.384258333333","24.9311666666667","6500900","三峽區"
"237012","275-BY","2018/02/26 19:39:37","新北市三峽區民生街3號","121.37467","24.9354183333333","6500900","三峽區"
"237008","302-VK","2018/02/26 19:39:33","新北市三峽區永安街133號","121.37381","24.9283933333333","6500900","三峽區"
"237014","433-BY","2018/02/26 19:39:45","新北市三峽區中園街118號","121.36718","24.922535","6500900","三峽區"
"237006","5529-G3","2018/02/26 19:39:49","新北市三峽區中正路一段336巷15弄2號","121.36995","24.9249816666667","6500900","三峽區"
"237015","649-BX","2018/02/26 19:39:47","新北市三峽區成福路84號","121.420683333333","24.9299283333333","6500900","三峽區"
"237005","AKY-6261","2018/02/26 19:39:41","新北市三峽區中山路219巷17弄7號","121.363556666667","24.9362583333333","6500900","三峽區"
"236069","105-UM","2018/02/26 19:39:37","新北市土城區學士路81-5號","121.45036","24.97988","6501300","土城區"
"236042","107-UM","2018/02/26 19:39:50","新北市土城區學士路11號","121.453723333333","24.982945","6501300","土城區"
"236078","166-UM","2018/02/26 19:39:48","新北市土城區中州路27巷8號","121.413481666667","24.9575316666667","6501300","土城區"
"236030","253-BX","2018/02/26 19:39:40","新北市土城區福祥街64號","121.441551666667","24.98152","6501300","土城區"
"236026","269-VK","2018/02/26 19:39:44","新北市土城區中央路二段61巷20號","121.443168333333","24.978815","6501300","土城區"
"236036","271-VK","2018/02/26 19:39:35","新北市土城區青雲路257巷1號","121.459283333333","24.9808366666667","6501300","土城區"
"236020","401-BY","2018/02/26 19:39:36","新北市土城區峰廷街3號","121.469106666667","24.9873966666667","6501300","土城區"
"236048","752-BX","2018/02/26 19:39:51","新北市土城區明德路一段93巷2號","121.465783333333","24.9830283333333","6501300","土城區"
"236062","915-UM","2018/02/26 19:39:47","新北市土城區延平街65號","121.46779","24.9927866666667","6501300","土城區"
"236053","AAC-216","2018/02/26 19:39:50","新北市土城區學府路一段50號","121.45765","24.9884383333333","6501300","土城區"
"242027","612-BX","2018/02/26 19:39:37","新北市新莊區新泰路357巷3弄57號","121.442218333333","25.0393033333333","6500500","新莊區"
"242044","497-BY","2018/02/26 19:39:43","新北市新莊區新北大道七段712號","121.41226","25.02652","6500500","新莊區"
"242004","413-TV","2018/02/26 19:39:44","新北市新莊區化成路43巷2號","121.464803333333","25.0446133333333","6500500","新莊區"
"242036","133-UY","2018/02/26 19:39:37","新北市新莊區民安路207巷12弄1號","121.426906666667","25.0230933333333","6500500","新莊區"
"242009","173-VK","2018/02/26 19:39:38","新北市新莊區三和路12-21號","121.442043333333","25.0387033333333","6500500","新莊區"
"242013","346-TH","2018/02/26 19:39:51","新北市新莊區中誠街121巷11號","121.449526666667","25.0469783333333","6500500","新莊區"
"242017","350-TH","2018/02/26 19:39:31","新北市新莊區新泰路277巷17號","121.445083333333","25.04028","6500500","新莊區"
"238015","755-BX","2018/02/26 19:39:48","新北市樹林區日新街83號","121.421725","24.9904033333333","6500700","樹林區"
"238023","601-UM","2018/02/26 19:39:43","新北市樹林區三福街114號","121.406475","25.0163266666667","6500700","樹林區"
"238024","5061-A6","2018/02/26 19:39:32","新北市樹林區育德街19巷30號","121.392626666667","24.9699183333333","6500700","樹林區"
"238022","KEA-2213","2018/02/26 19:39:41","新北市樹林區名園街78巷2號","121.420105","24.9778266666667","6500700","樹林區"
"238026","KEA-2539","2018/02/26 19:39:46","新北市樹林區學勤路524號","121.383055","24.9478133333333","6500700","樹林區"
"238025","303-VK","2018/02/26 19:39:41","新北市樹林區保安二街29號","121.424606666667","24.9937133333333","6500700","樹林區"
"238017","283-BY","2018/02/26 19:39:44","新北市樹林區光興街18號","121.412406666667","25.0028733333333","6500700","樹林區"
"238014","282-BY","2018/02/26 19:39:31","新北市樹林區千歲街17號","121.424931666667","24.9956333333333","6500700","樹林區"
"238020","268-VK","2018/02/26 19:39:35","新北市樹林區俊英街111巷1-7號","121.424056666667","25.00945","6500700","樹林區"
"238026","172-UY","2018/02/26 19:39:41","新北市樹林區佳園路二段15巷30號","121.394435","24.9627883333333","6500700","樹林區"
"239007","AAC-297","2018/02/26 19:39:40","新北市鶯歌區大湖路余厝巷11號","121.341971666667","24.961505","6500800","鶯歌區"
"239006","891-R6","2018/02/26 19:39:47","新北市鶯歌區建國路512巷31號","121.339641666667","24.95118","6500800","鶯歌區"
"239001","417-VK","2018/02/26 19:39:36","新北市鶯歌區尖山埔路二段15號","121.342681666667","24.9491916666667","6500800","鶯歌區"
"239003","360-BY","2018/02/26 19:39:32","新北市鶯歌區中正一路497號","121.374818333333","24.9607916666667","6500800","鶯歌區"
"239004","193-VK","2018/02/26 19:39:36","新北市鶯歌區二甲路43-3號","121.339955","24.9359033333333","6500800","鶯歌區"
"221008","489-VK","2018/02/26 19:39:52","新北市汐止區康寧街61巷26號","121.619523333333","25.067425","6501100","汐止區"
"221036","130-UY","2018/02/26 19:39:37","新北市汐止區康寧街901號","121.651391666667","25.074865","6501100","汐止區"
"221015","131-UY","2018/02/26 19:39:45","新北市汐止區康寧街901號","121.65137","25.07499","6501100","汐止區"
"221010","269-BY","2018/02/26 19:39:34","新北市汐止區汐萬路二段1號","121.649236666667","25.07975","6501100","汐止區"
"221012","278-VK","2018/02/26 19:39:31","新北市汐止區茄安路198號","121.67831","25.070525","6501100","汐止區"
"221023","279-VK","2018/02/26 19:39:34","新北市汐止區中興路284號","121.62828","25.0694516666667","6501100","汐止區"
"221032","280-BY","2018/02/26 19:39:45","新北市汐止區汐萬路一段310號","121.650345","25.0746733333333","6501100","汐止區"
"221027","281-BY","2018/02/26 19:39:40","新北市汐止區忠孝東路9號","121.658368333333","25.06603","6501100","汐止區"
"221038","297-VK","2018/02/26 19:39:48","新北市汐止區忠孝東路227號","121.662466666667","25.0670466666667","6501100","汐止區"
"221029","298-VK","2018/02/26 19:39:48","新北市汐止區康寧街901號","121.651333333333","25.074985","6501100","汐止區"
"221021","299-VK","2018/02/26 19:39:53","新北市汐止區南興路6巷3號","121.65179","25.0632933333333","6501100","汐止區"
"221031","353-TW","2018/02/26 19:39:30","新北市汐止區康寧街901號","121.650825","25.0752833333333","6501100","汐止區"
"221025","623-UM","2018/02/26 19:39:48","新北市汐止區秀峰路81巷43號","121.661638333333","25.0648883333333","6501100","汐止區"
"221033","647-BX","2018/02/26 19:39:49","台北市南港區舊莊街二段9號","121.624983333333","25.0376133333333","6501100","汐止區"
"220079","145-BY","2018/02/26 19:39:44","新北市板橋區建國街111號","121.460325","25.0176116666667","6500100","板橋區"
"220080","200-UY","2018/02/26 19:39:42","新北市板橋區大觀路二段153巷46弄10號","121.449046666667","24.9996483333333","6500100","板橋區"
"220082","610-BX","2018/02/26 19:39:49","新北市板橋區篤行路一段46號","121.431893333333","24.9937333333333","6500100","板橋區"
"220101","245-BX","2018/02/26 19:39:45","新北市板橋區莊敬路257號","121.473581666667","25.021665","6500100","板橋區"
"220096","257-TC","2018/02/26 19:39:44","新北市板橋區民生路二段232-9號","121.468976666667","25.022695","6500100","板橋區"
"220056","276-BY","2018/02/26 19:39:41","新北市板橋區四川路二段47巷3弄2號","121.454285","24.9945966666667","6500100","板橋區"
"220072","277-BY","2018/02/26 19:39:42","新北市板橋區金門街253巷17弄9號","121.433495","24.989055","6500100","板橋區"
"220071","283-VK","2018/02/26 19:39:31","新北市板橋區信義路29號","121.456935","24.9964683333333","6500100","板橋區"
"220094","285-UM","2018/02/26 19:39:46","新北市板橋區銘傳街78號","121.46911","25.0313283333333","6500100","板橋區"
"220053","285-VK","2018/02/26 19:39:33","新北市板橋區民享街93號","121.477093333333","25.015965","6500100","板橋區"
"220083","286-VK","2018/02/26 19:39:51","新北市板橋區大觀路二段174巷135號","121.441195","25.0022566666667","6500100","板橋區"
"220081","287-VK","2018/02/26 19:39:32","新北市板橋區大觀路一段75巷9號","121.447628333333","25.0044833333333","6500100","板橋區"
"220061","293-UM","2018/02/26 19:39:32","新北市板橋區中山路一段265巷7-4號","121.46844","25.01453","6500100","板橋區"
"220084","296-UM","2018/02/26 19:39:32","新北市板橋區滿平二街32號","121.425263333333","24.987465","6500100","板橋區"
"242031","281-VK","2018/02/26 19:39:39","新北市新莊區新泰路209號","121.445866666667","25.0386733333333","6500500","新莊區"
"220075","303-R5","2018/02/26 19:39:40","新北市板橋區中正路253巷52號","121.45382","25.0176433333333","6500100","板橋區"
"220062","305-R5","2018/02/26 19:39:34","新北市板橋區三民路二段81巷41號","121.480623333333","25.016995","6500100","板橋區"
"220092","307-R5","2018/02/26 19:39:46","新北市板橋區文化路二段28號","121.469215","25.0248983333333","6500100","板橋區"
"220098","317-R6","2018/02/26 19:39:50","新北市板橋區四維路269巷47號","121.461271666667","25.027375","6500100","板橋區"
"220064","486-VK","2018/02/26 19:39:50","新北市板橋區民權路33號","121.46228","25.0111066666667","6500100","板橋區"
"220089","487-VK","2018/02/26 19:39:32","新北市板橋區文化路一段33號","121.460385","25.0128383333333","6500100","板橋區"
"220088","491-VK","2018/02/26 19:39:35","新北市板橋區仁化街64巷3號","121.476016666667","25.0317633333333","6500100","板橋區"
"220035","560-BX","2018/02/26 19:39:37","新北市板橋區中正路413巷2弄2號","121.454003333333","25.0226416666667","6500100","板橋區"
"220103","561-BX","2018/02/26 19:39:51","新北市板橋區文化路一段286巷10-2號","121.467885","25.0213616666667","6500100","板橋區"
"220063","609-BX","2018/02/26 19:39:41","新北市板橋區中山路二段553巷4弄6號","121.483531666667","25.0225916666667","6500100","板橋區"
"220091","637-BX","2018/02/26 19:39:47","新北市板橋區懷德街127巷16號","121.479571666667","25.031245","6500100","板橋區"
"220057","686-BX","2018/02/26 19:39:44","新北市板橋區國慶路49巷1號","121.459525","24.9956083333333","6500100","板橋區"
"220077","687-BX","2018/02/26 19:39:44","新北市板橋區僑中一街100號","121.446725","25.0117116666667","6500100","板橋區"
"220093","689-BX","2018/02/26 19:39:48","新北市板橋區長江路一段42號","121.45851","25.02908","6500100","板橋區"
"220054","741-BX","2018/02/26 19:39:39","新北市中和區德光路102號","121.468435","25.00338","6500100","板橋區"
"220102","KEA-2699","2018/02/26 19:39:44","新北市板橋區文化路二段410巷40號","121.47461","25.0305016666667","6500100","板橋區"
"220055","827-TW","2018/02/26 19:39:37","新北市板橋區國慶路149巷13弄2號","121.460951666667","24.997155","6500100","板橋區"
"220067","829-TW","2018/02/26 19:39:41","新北市板橋區長安街138巷25號","121.473175","25.008915","6500100","板橋區"
"220090","830-TW","2018/02/26 19:39:43","新北市板橋區長江路一段51號","121.458696666667","25.0291533333333","6500100","板橋區"
"220074","895-R6","2018/02/26 19:39:39","新北市板橋區館前西路150-4號","121.455655","25.00865","6500100","板橋區"
"220073","985-R7","2018/02/26 19:39:50","新北市板橋區國光路67巷14號","121.458956666667","25.0187283333333","6500100","板橋區"
"220097","AAC-210","2018/02/26 19:39:52","新北市板橋區幸福路32巷2弄3號","121.46176","25.020815","6500100","板橋區"
"220070","AAC-253","2018/02/26 19:39:49","新北市板橋區民族路275號","121.470945","25.0066883333333","6500100","板橋區"
