"lineid","car","time","location","longitude","latitude","cityid","cityname"
"247003","336-TH","2018/02/26 22:09:37","新北市五股區中興路三段163號","121.449163333333","25.0809766666667","6501400","蘆洲區"
"247008","053-VK","2018/02/26 22:09:34","新北市五股區中直路13-7號","121.424373333333","25.1105216666667","6501400","蘆洲區"
"251004","009-UM","2018/02/26 22:09:37","新北市淡水區民族路72號","121.462295","25.1356466666667","6501000","淡水區"
"251008","181-VK","2018/02/26 22:09:26","新北市淡水區學府路104號","121.449823333333","25.171805","6501000","淡水區"
"251010","413-VK","2018/02/26 22:09:39","新北市淡水區沙崙路200號","121.424713333333","25.1838966666667","6501000","淡水區"
"251007","577-R6","2018/02/26 22:09:27","新北市淡水區北新路186-3號","121.449518333333","25.178745","6501000","淡水區"
"251011","650-BX","2018/02/26 22:09:43","新北市淡水區水碓街7號","121.443185","25.1770766666667","6501000","淡水區"
