"lineid","car","time","location","longitude","latitude","cityid","cityname"
"248005","653-BX","2018/02/27 06:59:34","新北市五股區更洲路47號","121.456908333333","25.07894","6501500","五股區"
"232002","290-BY","2018/02/27 06:59:30","新北市坪林區下坑子口15-1號","121.717285","24.9484766666667","6502000","坪林區"
"232013","291-BY","2018/02/27 06:59:35","新北市坪林區灣潭7-2號","121.67681","24.9343016666667","6502000","坪林區"
"232006","758-BX","2018/02/27 06:59:04","新北市坪林區北宜路九段86號","121.736345","24.8945033333333","6502000","坪林區"
"244002","248-BX","2018/02/27 06:59:23","新北市林口區中山路516號","121.378958333333","25.0831383333333","6501700","林口區"
"231054","AAD-862","2018/02/27 06:59:22","新北市新店區新和街33號","121.519025","24.9847266666667","6500600","新店區"
"235043","352-BY","2018/02/27 06:59:29","新北市中和區和平街84號","121.507546666667","24.9911883333333","6500300","中和區"
"235001","611-BX","2018/02/27 06:59:32","新北市中和區圓通路367巷4號","121.491406666667","24.9893516666667","6500300","中和區"
"220072","015-TV","2018/02/27 06:55:33","新北市板橋區國光路49巷17號","121.45895","25.0187333333333","6500100","板橋區"
"223006","022-BY","2018/02/27 06:57:34","新北市石碇區石碇東街3號","121.662138333333","24.9902933333333","6501900","石碇區"
"223008","406-TH","2018/02/27 06:59:37","新北市石碇區十八重溪90-3號","121.670238333333","25.007455","6501900","石碇區"
"223001","592-UM","2018/02/27 06:59:30","新北市石碇區石崁35-5號","121.657828333333","24.9927033333333","6501900","石碇區"
"223004","660-BX","2018/02/27 06:59:28","新北市石碇區碇坪路一段62號","121.657218333333","24.9915416666667","6501900","石碇區"
"223005","677-TV","2018/02/27 06:59:26","新北市石碇區碇坪路一段66號","121.65726","24.9915266666667","6501900","石碇區"
"227006","282-VK","2018/02/27 06:59:22","新北市雙溪區新基里自強路7號","121.866278333333","25.0390666666667","6502500","雙溪區"
"252004","249-BX","2018/02/27 06:59:30","新北市三芝區埔坪里埔頭坑41號","121.504756666667","25.2644183333333","6502100","三芝區"
"252007","AAC-283","2018/02/27 06:59:35","新北市三芝區中興街一段33號","121.497541666667","25.257985","6502100","三芝區"
"237001","159-UY","2018/02/27 06:59:22","新北市三峽區中山路459巷163-1號","121.349311666667","24.93339","6500900","三峽區"
"236008","165-UM","2018/02/27 06:59:32","新北市土城區永平街51號","121.428006666667","24.9591583333333","6501300","土城區"
