"lineid","car","time","location","longitude","latitude","cityid","cityname"
"248005","653-BX","2018/02/27 07:09:34","新北市五股區成泰路一段98巷3號","121.436611666667","25.0725066666667","6501500","五股區"
"232002","290-BY","2018/02/27 07:09:30","新北市坪林區桶盤嶼6號","121.712345","24.9538433333333","6502000","坪林區"
"232013","291-BY","2018/02/27 07:09:38","新北市坪林區灣潭4-3號","121.676983333333","24.9324883333333","6502000","坪林區"
"232006","758-BX","2018/02/27 07:09:28","新北市坪林區北宜路九段7號","121.720066666667","24.90239","6502000","坪林區"
"244002","248-BX","2018/02/27 07:09:23","新北市林口區南勢里76-12號","121.34915","25.0770716666667","6501700","林口區"
"231054","AAD-862","2018/02/27 07:09:22","新北市新店區新和街33號","121.518951666667","24.9847433333333","6500600","新店區"
"235043","352-BY","2018/02/27 07:09:29","新北市中和區和平街84號","121.50758","24.9911866666667","6500300","中和區"
"235001","611-BX","2018/02/27 07:09:32","新北市中和區圓通路367巷4號","121.491383333333","24.9893833333333","6500300","中和區"
"220072","015-TV","2018/02/27 07:09:10","新北市板橋區國光路49巷2號","121.458136666667","25.018035","6500100","板橋區"
"226005","5620-A6","2018/02/27 07:09:25","新北市平溪區菁桐里菁桐街32號","121.725891666667","25.0238133333333","6502400","平溪區"
"226002","7418-A5","2018/02/27 07:09:23","新北市平溪區石底里公園街18-3號","121.733971666667","25.025185","6502400","平溪區"
"226003","AGD-0702","2018/02/27 07:09:37","新北市平溪區嶺腳里中華街7-1號","121.742595","25.02549","6502400","平溪區"
"223006","022-BY","2018/02/27 07:09:34","新北市石碇區崩山12-1號","121.674351666667","24.9728566666667","6501900","石碇區"
"223008","406-TH","2018/02/27 07:09:17","新北市石碇區靜安路一段299號","121.695333333333","25.0069616666667","6501900","石碇區"
"223001","592-UM","2018/02/27 07:09:30","新北市石碇區溪邊寮1號","121.658226666667","24.97964","6501900","石碇區"
"223004","660-BX","2018/02/27 07:09:28","新北市石碇區碇坪路一段16號","121.651683333333","25.00595","6501900","石碇區"
"223005","677-TV","2018/02/27 07:09:26","新北市石碇區碇坪路一段18號","121.65186","25.0050816666667","6501900","石碇區"
"227006","282-VK","2018/02/27 07:09:22","新北市雙溪區新基里自強路5號","121.866293333333","25.0390883333333","6502500","雙溪區"
"252004","249-BX","2018/02/27 07:09:30","新北市三芝區錫板里小坑子11-1號","121.502071666667","25.236225","6502100","三芝區"
"252007","AAC-283","2018/02/27 07:09:35","新北市三芝區錫板里小坑子2-1號","121.492241666667","25.2474966666667","6502100","三芝區"
"237001","159-UY","2018/02/27 07:09:22","新北市三峽區中山路459巷163-1號","121.349308333333","24.9333866666667","6500900","三峽區"
"236008","165-UM","2018/02/27 07:09:32","新北市土城區中華路一段87號","121.444866666667","24.987475","6501300","土城區"
"236002","339-SR","2018/02/27 07:09:24","新北市土城區承天路7號","121.436115","24.965945","6501300","土城區"
