"lineid","car","time","location","longitude","latitude","cityid","cityname"
"248005","653-BX","2018/02/27 07:29:28","新北市五股區明德路12巷3號","121.433248333333","25.071815","6501500","五股區"
"232002","290-BY","2018/02/27 07:29:30","新北市坪林區桶盤嶼6號","121.712283333333","24.9535883333333","6502000","坪林區"
"244002","248-BX","2018/02/27 07:29:23","新北市林口區南勢里71-131號","121.342835","25.0843883333333","6501700","林口區"
"222004","289-BY","2018/02/27 07:18:44","新北市深坑區文化街39巷1號","121.619001666667","25.00113","6501800","深坑區"
"231054","AAD-862","2018/02/27 07:29:22","新北市新店區新和街33號","121.518915","24.9848116666667","6500600","新店區"
"235043","352-BY","2018/02/27 07:29:29","新北市中和區和平街84號","121.50757","24.9911833333333","6500300","中和區"
"235001","611-BX","2018/02/27 07:29:32","新北市中和區圓通路367巷6號","121.49144","24.9891883333333","6500300","中和區"
"220072","015-TV","2018/02/27 07:29:40","新北市板橋區國光路31巷14號","121.45779","25.018085","6500100","板橋區"
"226005","5620-A6","2018/02/27 07:29:25","新北市平溪區靜安路二段180號","121.723031666667","25.0218366666667","6502400","平溪區"
"226002","7418-A5","2018/02/27 07:22:03","新北市平溪區望古里灰4-2號","121.763588333333","25.02879","6502400","平溪區"
"226003","AGD-0702","2018/02/27 07:29:37","新北市平溪區嶺腳里嶺腳寮85號","121.749361666667","25.035345","6502400","平溪區"
"223006","022-BY","2018/02/27 07:29:34","新北市坪林區坪碇路171號","121.698698333333","24.94971","6501900","石碇區"
"223001","205-TH","2018/02/27 07:29:24","新北市石碇區蓬菜寮17號","121.649128333333","24.97208","6501900","石碇區"
"223008","406-TH","2018/02/27 07:29:37","新北市石碇區靜安路一段337號","121.698955","25.0137733333333","6501900","石碇區"
"223001","592-UM","2018/02/27 07:29:30","新北市石碇區烏塗窟29-1號","121.655901666667","24.9748933333333","6501900","石碇區"
"223004","660-BX","2018/02/27 07:29:28","新北市石碇區新興坑29-3號","121.646068333333","25.01604","6501900","石碇區"
"223005","677-TV","2018/02/27 07:29:29","新北市石碇區新興坑23號","121.648935","25.0224533333333","6501900","石碇區"
"227006","282-VK","2018/02/27 07:29:22","新北市雙溪區新基里自強路5號","121.866315","25.0390766666667","6502500","雙溪區"
"252004","249-BX","2018/02/27 07:29:30","新北市三芝區店子里龜子山1-1號","121.504381666667","25.22091","6502100","三芝區"
"252007","AAC-283","2018/02/27 07:29:35","新北市三芝區古庄里茂興店71-1號","121.491585","25.265315","6502100","三芝區"
"237001","159-UY","2018/02/27 07:29:22","新北市三峽區大義路382號","121.376415","24.9488133333333","6500900","三峽區"
"236008","165-UM","2018/02/27 07:29:32","新北市土城區金城路三段271號","121.472793333333","24.99041","6501300","土城區"
"236002","339-SR","2018/02/27 07:29:24","新北市土城區南天母路139號","121.452196666667","24.950695","6501300","土城區"
