"lineid","car","time","location","longitude","latitude","cityid","cityname"
"248005","653-BX","2018/02/27 07:46:51","新北市五股區明德路12巷16號","121.433335","25.07194","6501500","五股區"
"244002","248-BX","2018/02/27 07:49:23","新北市林口區下福里10-1號","121.313248333333","25.111425","6501700","林口區"
"222004","289-BY","2018/02/27 07:49:29","新北市深坑區文化街45號","121.61686","25.00171","6501800","深坑區"
"231054","AAD-862","2018/02/27 07:49:22","新北市新店區新和街33號","121.519055","24.9847433333333","6500600","新店區"
"235043","352-BY","2018/02/27 07:49:29","新北市中和區和平街84號","121.50763","24.9912283333333","6500300","中和區"
"235001","611-BX","2018/02/27 07:49:32","新北市中和區圓通路367巷4號","121.491373333333","24.9892066666667","6500300","中和區"
"220072","015-TV","2018/02/27 07:49:32","新北市板橋區新興路4號","121.456363333333","25.00722","6500100","板橋區"
"226005","5620-A6","2018/02/27 07:49:25","新北市平溪區石底里公園街18-3號","121.733328333333","25.02577","6502400","平溪區"
"226002","7418-A5","2018/02/27 07:49:23","新北市平溪區南山里南山坪94號","121.777783333333","25.0407616666667","6502400","平溪區"
"226003","AGD-0702","2018/02/27 07:49:18","新北市平溪區新寮里頂寮子4號","121.773623333333","25.0518366666667","6502400","平溪區"
"223006","022-BY","2018/02/27 07:49:34","新北市坪林區北宜路八段558號","121.717245","24.9094533333333","6501900","石碇區"
"223001","205-TH","2018/02/27 07:42:58","新北市石碇區樟空子10-2號","121.666903333333","24.9621783333333","6501900","石碇區"
"223008","406-TH","2018/02/27 07:30:59","新北市石碇區靜安路一段337號","121.699018333333","25.0146233333333","6501900","石碇區"
"223001","592-UM","2018/02/27 07:49:30","新北市石碇區橫坪2號","121.669446666667","24.9697266666667","6501900","石碇區"
"223004","660-BX","2018/02/27 07:49:28","新北市石碇區楓子林36-3號","121.64236","25.009535","6501900","石碇區"
"223005","677-TV","2018/02/27 07:49:29","新北市石碇區楓子林30號","121.642315","25.0095866666667","6501900","石碇區"
"227006","282-VK","2018/02/27 07:49:22","新北市雙溪區雙溪里太平路54號","121.864765","25.035485","6502500","雙溪區"
"252004","249-BX","2018/02/27 07:49:30","新北市三芝區興華里車埕36-21號","121.505851666667","25.193015","6502100","三芝區"
"252007","AAC-283","2018/02/27 07:49:35","新北市三芝區後厝里芝麻四街31號","121.474161666667","25.2457266666667","6502100","三芝區"
"237001","159-UY","2018/02/27 07:49:27","新北市三峽區大學路77號","121.376123333333","24.941645","6500900","三峽區"
"236008","165-UM","2018/02/27 07:49:32","新北市土城區清水路175號","121.459395","24.9815766666667","6501300","土城區"
"236002","339-SR","2018/02/27 07:49:25","新北市土城區龍泉路79-1號","121.430456666667","24.9425966666667","6501300","土城區"
