"lineid","car","time","location","longitude","latitude","cityid","cityname"
"248005","653-BX","2018/09/17 07:29:09","新北市五股區明德路10號","121.433385","25.07176","6501500","五股區"
"232001","290-BY","2018/09/17 07:29:18","新北市坪林區上坑子口11-2號","121.702081666667","24.96354","6502000","坪林區"
"232012","291-BY","2018/09/17 07:29:23","新北市坪林區金瓜寮3-2號","121.681065","24.9185566666667","6502000","坪林區"
"232010","375-UM","2018/09/17 07:29:17","新北市坪林區苦苓腳2號","121.714133333333","24.936375","6502000","坪林區"
"232017","705-BZ","2018/09/17 07:29:24","新北市坪林區樟空子4號","121.726763333333","24.9679583333333","6502000","坪林區"
"232005","758-BX","2018/09/17 07:29:16","新北市坪林區魚堀48-3號","121.701816666667","24.9335183333333","6502000","坪林區"
"244001","248-BX","2018/09/17 07:29:09","新北市林口區頂福里73-6號","121.340103333333","25.08977","6501700","林口區"
"222005","289-BY","2018/09/17 07:29:08","新北市深坑區深坑街43號","121.615626666667","25.0016483333333","6501800","深坑區"
"231008","192-VK","2018/09/17 07:29:19","新北市新店區安一路一段1-1號","121.519208333333","24.9613183333333","6500600","新店區"
"235001","611-BX","2018/09/17 07:29:15","新北市中和區圓通路367巷6號","121.491491666667","24.9892166666667","6500300","中和區"
"226005","5620-A6","2018/09/17 07:29:16","新北市平溪區薯榔里雙菁路42號","121.720743333333","25.02446","6502400","平溪區"
"226001","7418-A5","2018/09/17 07:21:53","新北市平溪區望古里灰4-2號","121.763416666667","25.0293116666667","6502400","平溪區"
"226003","AGD-0702","2018/09/17 07:29:23","新北市平溪區嶺腳里嶺腳寮111號","121.74707","25.0334883333333","6502400","平溪區"
"223006","022-BY","2018/09/17 07:29:07","新北市石碇區靜安路一段29號","121.642401666667","25.0116083333333","6501900","石碇區"
"223002","KEA-2673","2018/09/17 07:26:37","新北市石碇區北宜路五段竹坑巷11號","121.625796666667","24.9433166666667","6501900","石碇區"
"223003","205-TH","2018/09/17 07:29:11","新北市石碇區蓬菜寮11號","121.650641666667","24.9734016666667","6501900","石碇區"
"223008","406-TH","2018/09/17 07:29:14","新北市石碇區番子坑24-6號","121.677751666667","25.00873","6501900","石碇區"
"223004","437-BY","2018/09/17 07:29:10","新北市石碇區新興坑33號","121.647166666667","25.01558","6501900","石碇區"
"223001","592-UM","2018/09/17 07:29:12","新北市石碇區蓬菜寮11-2號","121.650185","24.9732916666667","6501900","石碇區"
"223007","661-BX","2018/09/17 07:29:13","新北市石碇區大溪墘58號","121.693895","25.0069633333333","6501900","石碇區"
"223005","677-TV","2018/09/17 07:29:17","新北市石碇區新興坑30號","121.647525","25.0187416666667","6501900","石碇區"
"227005","282-VK","2018/09/17 07:29:15","新北市雙溪區新基里中華路90-1號","121.86597","25.03908","6502500","雙溪區"
"252006","073-UM","2018/09/17 07:29:19","新北市三芝區古庄里山豬堀14-2號","121.492128333333","25.2600983333333","6502100","三芝區"
"252004","249-BX","2018/09/17 07:29:10","新北市三芝區興華里楓子林50-2號","121.501885","25.2102633333333","6502100","三芝區"
"237001","159-UY","2018/09/17 07:29:24","新北市三峽區隆恩街245號","121.357633333333","24.9408566666667","6500900","三峽區"
"236001","165-UM","2018/09/17 07:29:06","新北市土城區青雲路1-1號","121.460416666667","24.9900933333333","6501300","土城區"
"236001","KEA-2877","2018/09/17 07:29:19","新北市土城區和平路108-5號","121.447835","24.963305","6501300","土城區"
"242055","751-BX","2018/09/17 07:29:09","新北市新莊區新泰路357巷3弄57號","121.442065","25.0391466666667","6500500","新莊區"
"242026","615-BX","2018/09/17 07:29:13","新北市新莊區新泰路255巷83號","121.442206666667","25.0387833333333","6500500","新莊區"
"242047","497-BY","2018/09/17 07:29:07","新北市新莊區新泰路255巷83號","121.442291666667","25.0391683333333","6500500","新莊區"
"242038","415-TV","2018/09/17 07:26:48","新北市新莊區新泰路357巷3弄57號","121.442236666667","25.03935","6500500","新莊區"
"242045","400-BY","2018/09/17 07:29:12","新北市新莊區新泰路357巷3弄57號","121.442221666667","25.0394516666667","6500500","新莊區"
"242022","362-BY","2018/09/17 07:29:27","新北市新莊區新泰路255巷83號","121.442215","25.038775","6500500","新莊區"
"242059","353-BY","2018/09/17 07:29:13","新北市新莊區三和路12-21號","121.442188333333","25.03864","6500500","新莊區"
"242018","175-VK","2018/09/17 07:29:14","新北市新莊區三和路12-21號","121.442041666667","25.0387666666667","6500500","新莊區"
"242001","233-RS","2018/09/17 07:29:22","新北市新莊區中港路301號","121.45295","25.0444983333333","6500500","新莊區"
"242030","348-TH","2018/09/17 07:29:10","新北市新莊區新泰路357巷3弄57號","121.44204","25.0394633333333","6500500","新莊區"
"242020","350-TH","2018/09/17 07:29:20","新北市新莊區新泰路255巷83號","121.441981666667","25.03897","6500500","新莊區"
"242014","351-TH","2018/09/17 07:29:20","新北市新莊區新泰路357巷3弄57號","121.441931666667","25.0394466666667","6500500","新莊區"
"242016","281-VK","2018/09/17 07:29:25","新北市新莊區三和路12-18號","121.442313333333","25.037665","6500500","新莊區"
