"lineid","car","time","location","longitude","latitude","cityid","cityname"
"248005","653-BX","2018/01/29 08:49:25","新北市五股區明德路12巷6號","121.433428333333","25.0718716666667","6501500","五股區"
"232001","290-BY","2018/01/29 08:49:24","新北市坪林區九芎坑16-2號","121.741071666667","24.9497283333333","6502000","坪林區"
"232012","291-BY","2018/01/29 08:49:18","新北市坪林區金瓜寮7-2號","121.67988","24.9139666666667","6502000","坪林區"
"232017","705-BZ","2018/01/29 08:49:12","新北市坪林區中心崙2-1號","121.785316666667","24.9529233333333","6502000","坪林區"
"232005","758-BX","2018/01/29 08:49:23","新北市坪林區魚堀14-1號","121.704381666667","24.9077816666667","6502000","坪林區"
"244012","069-UM","2018/01/29 08:49:15","新北市林口區中山路138號","121.391756666667","25.0786866666667","6501700","林口區"
"244006","080-UY","2018/01/29 08:49:20","新北市林口區竹林路77-5號","121.388473333333","25.07954","6501700","林口區"
"244018","402-UM","2018/01/29 08:49:25","新北市林口區忠孝路552-1號","121.373878333333","25.0680183333333","6501700","林口區"
"244008","410-SL","2018/01/29 08:49:23","新北市林口區佳林路97號","121.38592","25.080415","6501700","林口區"
"244022","483-VK","2018/01/29 08:49:26","新北市林口區東湖路12巷40號","121.38896","25.0749866666667","6501700","林口區"
"244016","485-VK","2018/01/29 08:49:17","新北市林口區忠孝路508號","121.370901666667","25.06994","6501700","林口區"
"244010","656-BX","2018/01/29 08:49:16","新北市林口區中正路70號","121.394728333333","25.0774216666667","6501700","林口區"
"244020","657-BX","2018/01/29 08:49:13","新北市林口區自強二街22號","121.397958333333","25.07806","6501700","林口區"
"244024","837-TS","2018/01/29 08:49:17","新北市林口區南勢四街349號","121.356953333333","25.0755333333333","6501700","林口區"
"222005","289-BY","2018/01/29 08:39:53","新北市深坑區土庫尖路75-1號","121.631203333333","25.0182016666667","6501800","深坑區"
"231007","189-VK","2018/01/29 08:49:26","新北市新店區新潭路二段140巷1號","121.512483333333","24.9215016666667","6500600","新店區"
"231008","192-VK","2018/01/29 08:49:16","新北市新店區新烏路三段310號","121.547385","24.8967616666667","6500600","新店區"
"235001","611-BX","2018/01/29 08:49:15","新北市中和區民安街42巷36號","121.47902","25.0011966666667","6500300","中和區"
"235010","733-UM","2018/01/29 08:49:17","新北市中和區華新街232巷24號","121.505573333333","24.9825416666667","6500300","中和區"
"226005","5620-A6","2018/01/29 08:49:23","新北市平溪區南山里乾坑2-5號","121.787481666667","25.0452066666667","6502400","平溪區"
"226003","AGD-0702","2018/01/29 08:49:18","新北市平溪區十分里十分街53號","121.775186666667","25.0413983333333","6502400","平溪區"
"223006","022-BY","2018/01/29 08:49:13","新北市石碇區碇坪路一段18號","121.651766666667","25.0038266666667","6501900","石碇區"
"223002","198-BX","2018/01/29 08:49:14","新北市深坑區文山路一段64號","121.623923333333","25.0006966666667","6501900","石碇區"
"223001","205-TH","2018/01/29 08:49:17","新北市石碇區北宜路六段水底寮巷18號","121.662728333333","24.9420733333333","6501900","石碇區"
"223008","406-TH","2018/01/29 08:49:17","新北市石碇區光明路10-3號","121.681365","25.0295533333333","6501900","石碇區"
"223001","437-BY","2018/01/29 08:49:22","新北市石碇區北宜路六段水底寮巷7號","121.663688333333","24.9502466666667","6501900","石碇區"
"223007","592-UM","2018/01/29 08:49:17","新北市石碇區碇南路二段鹿窟巷8號","121.672408333333","25.028085","6501900","石碇區"
"223004","660-BX","2018/01/29 08:49:13","新北市石碇區崩山24-2號","121.679588333333","24.96852","6501900","石碇區"
"223005","677-TV","2018/01/29 08:49:27","新北市石碇區崩山45號","121.679908333333","24.9676516666667","6501900","石碇區"
"227005","282-VK","2018/01/29 08:49:03","新北市雙溪區泰平里泰平17號","121.84252","24.981525","6502500","雙溪區"
"252006","073-UM","2018/01/29 08:49:22","新北市三芝區古庄里四棧橋27-1號","121.485073333333","25.2624283333333","6502100","三芝區"
"252004","249-BX","2018/01/29 08:49:28","新北市三芝區興華里田心子16號","121.493375","25.2043133333333","6502100","三芝區"
"237001","159-UY","2018/01/29 08:49:27","新北市三峽區大德路121號","121.376261666667","24.94448","6500900","三峽區"
"236007","165-UM","2018/01/29 08:49:24","新北市土城區石門路36號","121.457736666667","24.96468","6501300","土城區"
"236001","339-SR","2018/01/29 08:49:25","新北市土城區興城路30號","121.441931666667","24.972865","6501300","土城區"
"236005","498-BY","2018/01/29 08:49:19","新北市土城區承天路18-1號","121.436098333333","24.9603816666667","6501300","土城區"
"242030","AAC-296","2018/01/29 08:49:27","新北市新莊區新泰路255巷67號","121.44347","25.0393716666667","6500500","新莊區"
"242028","986-R7","2018/01/29 08:49:27","新北市新莊區中榮街103號","121.444858333333","25.0526466666667","6500500","新莊區"
"242024","615-BX","2018/01/29 08:49:15","新北市新莊區五工二路86巷29號","121.460325","25.0672133333333","6500500","新莊區"
"242022","613-BX","2018/01/29 08:49:29","新北市新莊區化成路402號","121.465985","25.0506233333333","6500500","新莊區"
"242026","612-BX","2018/01/29 08:49:19","新北市新莊區中平路377巷45號","121.443108333333","25.052465","6500500","新莊區"
"242038","566-BX","2018/01/29 08:49:20","新北市新莊區民安路299巷25弄2號","121.429025","25.0232383333333","6500500","新莊區"
"242043","442-UM","2018/01/29 08:49:23","新北市新莊區中正路新旺巷38號","121.416328333333","25.022475","6500500","新莊區"
"242052","440-UM","2018/01/29 08:49:18","新北市新莊區光華街46號","121.428733333333","25.01166","6500500","新莊區"
"242033","415-TV","2018/01/29 08:49:25","新北市新莊區公園一路126號","121.445643333333","25.0379283333333","6500500","新莊區"
"242003","413-TV","2018/01/29 08:49:11","新北市新莊區化成路11巷58弄8號","121.46262","25.0440016666667","6500500","新莊區"
"242040","400-BY","2018/01/29 08:49:30","新北市新莊區青山路一段8號","121.411786666667","25.0275266666667","6500500","新莊區"
"242059","362-BY","2018/01/29 08:49:23","新北市新莊區四維路11號","121.423951666667","25.024035","6500500","新莊區"
"242057","353-BY","2018/01/29 08:49:22","新北市新莊區中正路897-10號","121.411615","25.0216016666667","6500500","新莊區"
"242006","132-UY","2018/01/29 08:49:09","新北市新莊區中原路55號","121.457965","25.0548033333333","6500500","新莊區"
"242035","133-UY","2018/01/29 08:49:19","新北市新莊區民安路207巷6號","121.426566666667","25.0226233333333","6500500","新莊區"
"242045","172-VK","2018/01/29 08:49:19","新北市新莊區中正路829巷83號","121.421873333333","25.02728","6500500","新莊區"
"242008","173-VK","2018/01/29 08:49:13","新北市新莊區昌盛街35巷3弄1號","121.45409","25.0504166666667","6500500","新莊區"
"242014","175-VK","2018/01/29 08:49:04","新北市新莊區泰安街46號","121.446955","25.04242","6500500","新莊區"
"242001","176-VK","2018/01/29 08:49:28","新北市新莊區中正路261號","121.449805","25.0355116666667","6500500","新莊區"
"242012","346-TH","2018/01/29 08:49:15","新北市新莊區幸福路670巷2弄1號","121.451113333333","25.049645","6500500","新莊區"
"242049","347-TH","2018/01/29 08:49:27","新北市新莊區民安西路150巷5號","121.425718333333","25.0165216666667","6500500","新莊區"
"242018","348-TH","2018/01/29 08:49:18","新北市新莊區民樂街65巷31號","121.45697","25.04175","6500500","新莊區"
"242055","349-TH","2018/01/29 08:49:23","新北市新莊區泰豐街30巷14號","121.448803333333","25.031985","6500500","新莊區"
"242016","350-TH","2018/01/29 08:49:11","新北市新莊區中港一街92號","121.44932","25.0453016666667","6500500","新莊區"
"242010","351-TH","2018/01/29 08:49:25","新北市新莊區中港路531巷15號","121.45084","25.0515116666667","6500500","新莊區"
"239006","661-UM","2018/01/29 08:49:12","桃園市龜山區明興街300號","121.332483333333","24.980915","6500800","鶯歌區"
"220089","146-RM","2018/01/29 08:49:17","新北市林口區汕頭32號","121.366611666667","25.13496","6500100","板橋區"
"220064","282-UM","2018/01/29 08:49:18","新北市板橋區篤行路二段23-3號","121.431863333333","24.992875","6500100","板橋區"
"242047","281-VK","2018/01/29 08:49:18","新北市新莊區建安街76巷5弄15號","121.425618333333","25.0249866666667","6500500","新莊區"
"242020","280-VK","2018/01/29 08:49:14","新北市新莊區建中街17號","121.44916","25.0374383333333","6500500","新莊區"
"220057","686-BX","2018/01/29 08:49:20","新北市板橋區大智街89號","121.453098333333","25.0157733333333","6500100","板橋區"
"220093","689-BX","2018/01/29 08:49:20","新北市板橋區長安街48巷1號","121.468283333333","25.00905","6500100","板橋區"
