"lineid","car","time","location","longitude","latitude","cityid","cityname"
"248005","653-BX","2018/01/29 08:59:25","新北市五股區明德路12巷8號","121.43341","25.0719216666667","6501500","五股區"
"232012","291-BY","2018/01/29 08:59:17","新北市坪林區黃舉皮寮14-1號","121.68812","24.93427","6502000","坪林區"
"232005","758-BX","2018/01/29 08:59:23","新北市坪林區魚堀9-2號","121.704275","24.9055333333333","6502000","坪林區"
"244012","069-UM","2018/01/29 08:59:15","新北市林口區佳林路101巷34號","121.386953333333","25.0799966666667","6501700","林口區"
"244006","080-UY","2018/01/29 08:59:20","新北市林口區林口路231號","121.387015","25.08339","6501700","林口區"
"244018","402-UM","2018/01/29 08:59:25","新北市林口區文化一路一段126號","121.375333333333","25.0724483333333","6501700","林口區"
"244008","410-SL","2018/01/29 08:59:23","新北市林口區民生路115號","121.376861666667","25.0887966666667","6501700","林口區"
"244022","483-VK","2018/01/29 08:59:26","新北市林口區東湖路93巷84號","121.385363333333","25.0711","6501700","林口區"
"244016","485-VK","2018/01/29 08:59:17","新北市林口區公園路37號","121.367106666667","25.0680533333333","6501700","林口區"
"244010","656-BX","2018/01/29 08:59:16","新北市林口區中正路267號","121.390175","25.0776433333333","6501700","林口區"
"244020","657-BX","2018/01/29 08:59:12","新北市林口區工六路98號","121.401111666667","25.0766466666667","6501700","林口區"
"244024","837-TS","2018/01/29 08:59:17","新北市林口區南勢街198號","121.360158333333","25.0747816666667","6501700","林口區"
"222005","289-BY","2018/01/29 08:58:01","新北市深坑區土庫尖路75-1號","121.63129","25.01821","6501800","深坑區"
"231007","189-VK","2018/01/29 08:59:26","新北市新店區新潭路三段231巷13號","121.504415","24.904385","6500600","新店區"
"231008","192-VK","2018/01/29 08:59:18","新北市新店區廣興路2-1號","121.546436666667","24.911785","6500600","新店區"
"235001","611-BX","2018/01/29 08:59:15","新北市中和區國光街102巷2號","121.470273333333","25.0004116666667","6500300","中和區"
"235010","733-UM","2018/01/29 08:59:17","新北市新店區光華街29號","121.515505","24.9697316666667","6500300","中和區"
"226005","5620-A6","2018/01/29 08:59:23","新北市平溪區十分里十分街195號","121.778498333333","25.0438316666667","6502400","平溪區"
"226003","AGD-0702","2018/01/29 08:59:18","新北市平溪區新寮里月桃寮路3-7號","121.784851666667","25.0514716666667","6502400","平溪區"
"223006","022-BY","2018/01/29 08:59:13","新北市石碇區烏塗窟14號","121.655941666667","24.97507","6501900","石碇區"
"223002","198-BX","2018/01/29 08:59:14","新北市石碇區員潭子坑4號","121.636876666667","24.9861066666667","6501900","石碇區"
"223001","205-TH","2018/01/29 08:59:17","新北市石碇區北宜路六段水底寮巷1號","121.658813333333","24.9448633333333","6501900","石碇區"
"223008","406-TH","2018/01/29 08:59:17","新北市石碇區光明路13號","121.680106666667","25.0336116666667","6501900","石碇區"
"223001","437-BY","2018/01/29 08:59:02","新北市石碇區北宜路五段74號","121.644023333333","24.9533616666667","6501900","石碇區"
"223007","592-UM","2018/01/29 08:59:17","新北市石碇區碇南路二段鹿窟巷2號","121.673276666667","25.0305033333333","6501900","石碇區"
"223004","660-BX","2018/01/29 08:59:13","新北市石碇區崩山53號","121.682416666667","24.96891","6501900","石碇區"
"223005","677-TV","2018/01/29 08:59:27","新北市石碇區崩山57-3號","121.681721666667","24.966045","6501900","石碇區"
"227005","282-VK","2018/01/29 08:58:23","新北市雙溪區泰平里料角坑13-1號","121.817631666667","24.9715983333333","6502500","雙溪區"
"252006","073-UM","2018/01/29 08:59:22","新北市三芝區樂全街1號","121.487683333333","25.2589833333333","6502100","三芝區"
"252004","249-BX","2018/01/29 08:59:28","新北市三芝區興華里田心子31號","121.488858333333","25.2004383333333","6502100","三芝區"
"237001","159-UY","2018/01/29 08:59:27","新北市鶯歌區中正一路113-1號","121.370651666667","24.9584","6500900","三峽區"
"236007","165-UM","2018/01/29 08:59:24","新北市土城區清水路32巷12號","121.457035","24.9812","6501300","土城區"
"236001","339-SR","2018/01/29 08:59:25","新北市土城區中正路5號","121.442491666667","24.9750566666667","6501300","土城區"
"236005","498-BY","2018/01/29 08:59:19","新北市土城區承天路8巷9號","121.436905","24.9638366666667","6501300","土城區"
"242030","AAC-296","2018/01/29 08:59:27","新北市新莊區新泰路225巷20號","121.445345","25.03912","6500500","新莊區"
"242028","986-R7","2018/01/29 08:59:27","新北市新莊區中原路349號","121.445085","25.0543066666667","6500500","新莊區"
"242024","615-BX","2018/01/29 08:59:15","新北市新莊區五工路68巷5號","121.458408333333","25.06377","6500500","新莊區"
"242022","613-BX","2018/01/29 08:59:09","新北市新莊區化成路652號","121.466038333333","25.0557016666667","6500500","新莊區"
"242026","612-BX","2018/01/29 08:59:19","新北市新莊區立信三街12巷12號","121.444253333333","25.0510366666667","6500500","新莊區"
"242038","566-BX","2018/01/29 08:59:28","新北市新莊區民安西路79號","121.427165","25.0194716666667","6500500","新莊區"
"242043","442-UM","2018/01/29 08:59:26","新北市新莊區中正路746巷25號","121.410623333333","25.0243783333333","6500500","新莊區"
"242052","440-UM","2018/01/29 08:59:29","新北市新莊區西盛街395巷26號","121.428553333333","25.0124266666667","6500500","新莊區"
"242033","415-TV","2018/01/29 08:59:26","新北市新莊區建中街81巷1號","121.447335","25.0365233333333","6500500","新莊區"
"242003","413-TV","2018/01/29 08:59:11","新北市新莊區化成路63巷24弄15號","121.46271","25.0460083333333","6500500","新莊區"
"242040","400-BY","2018/01/29 08:59:09","新北市新莊區壽山路49-10號","121.413756666667","25.03121","6500500","新莊區"
"242059","362-BY","2018/01/29 08:59:23","新北市新莊區民安路445號","121.434233333333","25.0225966666667","6500500","新莊區"
"242057","353-BY","2018/01/29 08:59:22","新北市新莊區富國路144號","121.422963333333","25.0249616666667","6500500","新莊區"
"242006","132-UY","2018/01/29 08:59:24","新北市新莊區福壽街124巷37號","121.459208333333","25.05136","6500500","新莊區"
"242035","133-UY","2018/01/29 08:59:24","新北市新莊區民安路207巷30弄7號","121.428065","25.0240583333333","6500500","新莊區"
"242045","172-VK","2018/01/29 08:59:19","新北市新莊區裕民街55巷8號","121.41936","25.02435","6500500","新莊區"
"242008","173-VK","2018/01/29 08:59:13","新北市新莊區昌隆街58巷1弄12號","121.455488333333","25.05064","6500500","新莊區"
"242014","175-VK","2018/01/29 08:59:30","新北市新莊區永樂街231號","121.44684","25.0443","6500500","新莊區"
"242001","176-VK","2018/01/29 08:59:10","新北市新莊區中正路113號","121.46014","25.0386633333333","6500500","新莊區"
"242012","346-TH","2018/01/29 08:59:15","新北市新莊區中和街186巷13號","121.44808","25.0497616666667","6500500","新莊區"
"242049","347-TH","2018/01/29 08:59:27","新北市新莊區民安西路212巷8號","121.425288333333","25.014915","6500500","新莊區"
"242018","348-TH","2018/01/29 08:59:29","新北市新莊區博愛路1巷2號","121.456523333333","25.042745","6500500","新莊區"
"242055","349-TH","2018/01/29 08:59:09","新北市新莊區瓊泰路77巷16號","121.442663333333","25.029095","6500500","新莊區"
"242016","350-TH","2018/01/29 08:59:11","新北市新莊區中港三街11號","121.451061666667","25.04651","6500500","新莊區"
"242010","351-TH","2018/01/29 08:59:25","新北市新莊區中和街177號","121.447625","25.0506133333333","6500500","新莊區"
"239006","661-UM","2018/01/29 08:59:12","桃園市龜山區明興街275-1號","121.332751666667","24.9813066666667","6500800","鶯歌區"
"220089","146-RM","2018/01/29 08:59:17","新北市八里區荖阡坑路34-1號","121.400266666667","25.131535","6500100","板橋區"
"242047","281-VK","2018/01/29 08:59:17","新北市新莊區民安路207巷2號","121.42648","25.022415","6500500","新莊區"
"242020","280-VK","2018/01/29 08:59:13","新北市新莊區建中街48巷6弄1號","121.448381666667","25.0377766666667","6500500","新莊區"
"220057","686-BX","2018/01/29 08:59:20","新北市板橋區大仁街89-1號","121.45345","25.0159866666667","6500100","板橋區"
"220093","689-BX","2018/01/29 08:59:20","新北市板橋區長安街48巷1號","121.468301666667","25.00907","6500100","板橋區"
