"lineid","car","time","location","longitude","latitude","cityid","cityname"
"248005","653-BX","2018/01/29 09:39:25","新北市五股區成泰路一段7巷50號","121.432333333333","25.0672166666667","6501500","五股區"
"244012","069-UM","2018/01/29 09:39:14","新北市林口區麗園二街1巷3-2號","121.377225","25.0703366666667","6501700","林口區"
"244006","080-UY","2018/01/29 09:39:20","新北市林口區竹林路320巷21號","121.391455","25.0817583333333","6501700","林口區"
"244018","402-UM","2018/01/29 09:39:25","新北市林口區麗園二街62-7號","121.381098333333","25.0679966666667","6501700","林口區"
"244008","410-SL","2018/01/29 09:39:23","新北市林口區台電新村4-2號","121.388218333333","25.086615","6501700","林口區"
"244022","483-VK","2018/01/29 09:39:26","新北市林口區文化二路二段112號","121.37915","25.0818733333333","6501700","林口區"
"244016","485-VK","2018/01/29 09:35:57","新北市林口區文化二路一段413號","121.372106666667","25.0749316666667","6501700","林口區"
"244010","656-BX","2018/01/29 09:39:16","新北市林口區中山路97巷7號","121.389546666667","25.078335","6501700","林口區"
"222005","289-BY","2018/01/29 09:39:26","新北市深坑區文化街42號","121.619111666667","25.0016416666667","6501800","深坑區"
"231007","189-VK","2018/01/29 09:39:26","新北市新店區新潭路三段215巷25號","121.508151666667","24.904075","6500600","新店區"
"231008","192-VK","2018/01/29 09:39:16","新北市新店區平廣路一段180號","121.51847","24.8895083333333","6500600","新店區"
"235001","611-BX","2018/01/29 09:39:15","新北市中和區連城路569巷6弄5號","121.479123333333","24.993975","6500300","中和區"
"223002","198-BX","2018/01/29 09:39:14","新北市石碇區小粗坑(潭邊里)9-2號","121.679225","24.9860516666667","6501900","石碇區"
"223008","406-TH","2018/01/29 09:37:57","新北市石碇區南勢坑2-3號","121.699043333333","24.98983","6501900","石碇區"
"223007","592-UM","2018/01/29 09:39:17","新北市石碇區南勢坑5-9號","121.698953333333","24.9803716666667","6501900","石碇區"
"223005","677-TV","2018/01/29 09:39:26","新北市石碇區大崙2-1號","121.687385","24.976465","6501900","石碇區"
"227005","282-VK","2018/01/29 09:27:43","新北市雙溪區泰平里溪尾寮2-2號","121.819428333333","24.963955","6502500","雙溪區"
"252004","249-BX","2018/01/29 09:39:28","新北市三芝區福德里大水堀21號","121.512303333333","25.2200283333333","6502100","三芝區"
"252006","AAC-283","2018/01/29 09:39:21","新北市三芝區新庄里新庄子111號","121.51924","25.26621","6502100","三芝區"
"237001","159-UY","2018/01/29 09:39:27","新北市三峽區國際一街19號","121.373716666667","24.9427283333333","6500900","三峽區"
"236005","498-BY","2018/01/29 09:39:19","新北市土城區忠義路45巷2號","121.44116","24.9693016666667","6501300","土城區"
"242030","AAC-296","2018/01/29 09:39:27","新北市新莊區三和路13-30號","121.439731666667","25.0369516666667","6500500","新莊區"
"242022","613-BX","2018/01/29 09:39:09","新北市新莊區瓊林路13-3號","121.448843333333","25.0309183333333","6500500","新莊區"
"242038","566-BX","2018/01/29 09:39:12","新北市新莊區瓊林路170-1號","121.44121","25.0235966666667","6500500","新莊區"
"242043","442-UM","2018/01/29 09:39:26","新北市新莊區龍安路112號","121.418563333333","25.0203883333333","6500500","新莊區"
"242033","415-TV","2018/01/29 09:39:25","新北市新莊區瓊林路59-87號","121.44267","25.02458","6500500","新莊區"
"242003","413-TV","2018/01/29 09:39:11","新北市新莊區化成路748號","121.46573","25.0577866666667","6500500","新莊區"
"242059","362-BY","2018/01/29 09:39:23","新北市新莊區新樹路258巷3號","121.432173333333","25.01552","6500500","新莊區"
"242057","353-BY","2018/01/29 09:39:23","新北市新莊區四維路169號","121.422385","25.021535","6500500","新莊區"
"242035","133-UY","2018/01/29 09:39:19","新北市新莊區後港一路169號","121.432383333333","25.02817","6500500","新莊區"
"242055","349-TH","2018/01/29 09:39:29","新北市新莊區瓊泰路136號","121.443203333333","25.0319683333333","6500500","新莊區"
"239006","661-UM","2018/01/29 09:39:12","新北市鶯歌區中正一路阿四巷7-1號","121.368803333333","24.95767","6500800","鶯歌區"
"242047","281-VK","2018/01/29 09:39:17","新北市新莊區中正路671號","121.426581666667","25.0301433333333","6500500","新莊區"
"220057","686-BX","2018/01/29 09:39:19","新北市板橋區民權路182號","121.45959","25.0136133333333","6500100","板橋區"
"220093","689-BX","2018/01/29 09:39:20","新北市板橋區三民路二段99號","121.479216666667","25.01627","6500100","板橋區"
