"lineid","car","time","location","longitude","latitude","cityid","cityname"
"248005","653-BX","2018/01/29 09:59:25","新北市五股區成泰路一段235-12號","121.435901666667","25.0801783333333","6501500","五股區"
"244012","069-UM","2018/01/29 09:59:14","新北市林口區文化一路一段126號","121.375663333333","25.072325","6501700","林口區"
"244018","402-UM","2018/01/29 09:59:25","新北市林口區忠孝路605號","121.378325","25.0686116666667","6501700","林口區"
"244022","483-VK","2018/01/29 09:59:26","新北市林口區文林六街30號","121.371468333333","25.0810183333333","6501700","林口區"
"244010","656-BX","2018/01/29 09:57:16","新北市林口區嘉寶里22號","121.339685","25.10857","6501700","林口區"
"231007","189-VK","2018/01/29 09:59:26","新北市新店區新潭路三段256號","121.508218333333","24.9040166666667","6500600","新店區"
"231008","192-VK","2018/01/29 09:44:57","新北市新店區平廣路一段250號","121.508323333333","24.8884916666667","6500600","新店區"
"223007","592-UM","2018/01/29 09:58:57","新北市石碇區小粗坑(潭邊里)9-2號","121.678555","24.9857733333333","6501900","石碇區"
"223005","677-TV","2018/01/29 09:59:24","新北市石碇區小粗坑(潭邊里)9-1號","121.677226666667","24.9844816666667","6501900","石碇區"
"227005","282-VK","2018/01/29 09:59:23","新北市雙溪區泰平里灣潭路36號","121.811408333333","24.928815","6502500","雙溪區"
"252004","249-BX","2018/01/29 09:59:28","新北市三芝區福德里埔尾38號","121.510378333333","25.23481","6502100","三芝區"
"252006","AAC-283","2018/01/29 09:59:21","新北市三芝區新庄里新庄子56-2號","121.506648333333","25.276315","6502100","三芝區"
"237001","159-UY","2018/01/29 09:59:27","新北市三峽區國學街28號","121.373136666667","24.94205","6500900","三峽區"
"242030","AAC-296","2018/01/29 09:59:27","新北市新莊區中正路539號","121.435531666667","25.0327383333333","6500500","新莊區"
"242055","349-TH","2018/01/29 09:59:28","新北市新莊區瓊林路108號","121.442336666667","25.0262366666667","6500500","新莊區"
"239006","661-UM","2018/01/29 09:59:20","新北市樹林區中山路三段210-2號","121.381435","24.9655066666667","6500800","鶯歌區"
"220057","686-BX","2018/01/29 09:59:19","新北市土城區城林路6巷80號","121.438131666667","24.9799766666667","6500100","板橋區"
"220093","689-BX","2018/01/29 09:59:20","新北市板橋區光復街143號","121.48533","25.0199133333333","6500100","板橋區"
