"lineid","car","time","location","longitude","latitude","cityid","cityname"
"244019","402-UM","2018/01/29 10:39:25","新北市林口區粉寮69號","121.405085","25.0908033333333","6501700","林口區"
"231007","189-VK","2018/01/29 10:39:26","新北市新店區新潭路三段116號","121.506941666667","24.9099016666667","6500600","新店區"
"231008","192-VK","2018/01/29 10:39:16","新北市新店區廣興路110號","121.536443333333","24.91193","6500600","新店區"
"227005","282-VK","2018/01/29 10:39:23","新北市雙溪區泰平里溪尾寮46號","121.821378333333","24.9675583333333","6502500","雙溪區"
"237001","159-UY","2018/01/29 10:39:27","新北市三峽區中山路459巷121號","121.351275","24.9360433333333","6500900","三峽區"
