"lineid","car","time","location","longitude","latitude","cityid","cityname"
"234044","148-BY","2018/01/29 13:49:17","新北市永和區永利路137號","121.524003333333","25.003395","6500400","永和區"
"234005","207-UY","2018/01/29 13:49:27","新北市中和區中和路464號","121.512338333333","25.0038383333333","6500400","永和區"
"234078","298-R6","2018/01/29 13:49:31","新北市永和區林森路112巷10弄1號","121.52242","25.0040783333333","6500400","永和區"
"234036","336-UY","2018/01/29 13:49:33","新北市永和區民樂街39巷18弄2號","121.528473333333","24.999555","6500400","永和區"
"234062","337-UY","2018/01/29 13:49:21","新北市永和區中正路368巷27號","121.518496666667","25.000785","6500400","永和區"
"234084","338-UY","2018/01/29 13:49:11","新北市永和區永利路46號","121.518758333333","25.0053483333333","6500400","永和區"
"234068","552-UM","2018/01/29 13:49:18","新北市永和區竹林路61號","121.518448333333","25.0137433333333","6500400","永和區"
"234015","745-BX","2018/01/29 13:49:28","新北市永和區永和路二段297號","121.515968333333","25.0160433333333","6500400","永和區"
"234028","746-BX","2018/01/29 13:49:23","新北市永和區民生路49號","121.522896666667","24.9978216666667","6500400","永和區"
"234052","KEA-2590","2018/01/29 13:49:21","新北市永和區竹林路39巷28弄1號","121.519391666667","25.01487","6500400","永和區"
"234012","KEA-2591","2018/01/29 13:49:19","新北市永和區保安路153號","121.506745","25.0128283333333","6500400","永和區"
"234060","AAD-866","2018/01/29 13:49:19","新北市永和區中正路88號","121.514003333333","24.9953183333333","6500400","永和區"
"234040","862-TW","2018/01/29 13:49:32","新北市永和區中和路389巷11弄1號","121.50808","25.0009166666667","6500400","永和區"
"234048","863-TW","2018/01/29 13:49:24","新北市永和區保福路二段163巷14號","121.508778333333","25.01476","6500400","永和區"
"234010","9373-KE","2018/01/29 13:49:15","新北市永和區保福路二段67號","121.510766666667","25.01246","6500400","永和區"
"248015","026-BX","2018/01/29 13:49:25","新北市五股區凌雲路一段149巷13-1號","121.448605","25.1008733333333","6501500","五股區"
"248005","077-UY","2018/01/29 13:49:19","新北市五股區四維路117號","121.467518333333","25.07356","6501500","五股區"
"248007","095-VK","2018/01/29 13:49:25","新北市五股區中興路一段151巷32號","121.465095","25.072825","6501500","五股區"
"248019","225-UY","2018/01/29 13:49:14","新北市五股區凌雲路三段82-3號","121.431153333333","25.11813","6501500","五股區"
"248011","247-BX","2018/01/29 13:49:13","新北市五股區成泰路二段195巷1號","121.440415","25.0874133333333","6501500","五股區"
"248003","677-BX","2018/01/29 13:49:21","新北市五股區民義路二段75號","121.409215","25.105405","6501500","五股區"
"248001","678-BX","2018/01/29 13:49:19","新北市五股區成泰路三段456-1號","121.451471666667","25.1004133333333","6501500","五股區"
"248009","682-TV","2018/01/29 13:49:29","新北市五股區水碓九路22號","121.428101666667","25.0717833333333","6501500","五股區"
"234022","9380-KE","2018/01/29 13:49:27","新北市永和區中正路702巷20弄1號","121.516503333333","25.0105883333333","6500400","永和區"
"234076","969-R7","2018/01/29 13:49:15","新北市永和區民族街27巷15號","121.519675","24.999505","6500400","永和區"
"234072","AAC-211","2018/01/29 13:49:27","新北市永和區竹林路179巷20-1號","121.52152","25.0099833333333","6500400","永和區"
"234066","AAC-212","2018/01/29 13:49:19","新北市永和區永貞路355巷24號","121.508628333333","25.0072683333333","6500400","永和區"
"234001","AAC-295","2018/01/29 13:49:23","新北市永和區自由街73號","121.513325","25.005175","6500400","永和區"
"244001","248-BX","2018/01/29 13:49:34","新北市林口區汕頭18號","121.36351","25.1344583333333","6501700","林口區"
"243003","267-VK","2018/01/29 13:49:32","新北市泰山區黎明路26號","121.420918333333","25.0606066666667","6501600","泰山區"
"243004","AAD-798","2018/01/29 13:49:31","新北市泰山區泰林路二段73巷29號","121.43441","25.0578383333333","6501600","泰山區"
"243007","380-SR","2018/01/29 13:49:24","新北市泰山區美寧街58號","121.43073","25.0645883333333","6501600","泰山區"
"243002","KEA-2215","2018/01/29 13:49:14","新北市泰山區泰林路二段504號","121.424518333333","25.0639733333333","6501600","泰山區"
"243001","KEA-2216","2018/01/29 13:49:25","新北市泰山區黎明路26號","121.421115","25.0604466666667","6501600","泰山區"
"243005","646-TV","2018/01/29 13:49:15","新北市泰山區明志路三段206巷3號","121.423276666667","25.037925","6501600","泰山區"
"243008","680-BX","2018/01/29 13:49:12","新北市泰山區明志路一段453-1號","121.430683333333","25.0563883333333","6501600","泰山區"
"231002","002-UM","2018/01/29 13:49:28","新北市新店區溪園路417號","121.524453333333","24.9787216666667","6500600","新店區"
"231025","0293-UT","2018/01/29 13:49:22","新北市新店區中央路79號","121.532393333333","24.9766533333333","6500600","新店區"
"231030","047-UY","2018/01/29 13:49:18","新北市新店區安康路一段302-6號","121.51791","24.9641033333333","6500600","新店區"
"231029","106-UY","2018/01/29 13:49:23","新北市新店區安康路二段125-1號","121.512396666667","24.9609316666667","6500600","新店區"
"231018","107-UY","2018/01/29 13:49:29","新北市新店區中正路400巷8號","121.534941666667","24.9777566666667","6500600","新店區"
"231011","108-UY","2018/01/29 13:49:18","新北市新店區德正街31號","121.54467","24.971235","6500600","新店區"
"231019","110-UY","2018/01/29 13:49:23","新北市新店區新烏路二段40號","121.544786666667","24.928345","6500600","新店區"
"231014","KEA-2219","2018/01/29 13:49:31","新北市新店區竹林路71-7號","121.553605","24.9512816666667","6500600","新店區"
"231026","256-BX","2018/01/29 13:49:21","新北市新店區福園街15-1號","121.532901666667","24.9728566666667","6500600","新店區"
"231010","278-BY","2018/01/29 13:49:28","新北市新店區三民路60巷8號","121.53559","24.972645","6500600","新店區"
"231023","AAD-862","2018/01/29 13:49:29","新北市新店區國校路4號","121.537816666667","24.9563883333333","6500600","新店區"
"231027","3712-VJ","2018/01/29 13:49:15","新北市新店區中興路一段24號","121.538641666667","24.9583683333333","6500600","新店區"
"231024","4716-K9","2018/01/29 13:49:17","新北市新店區新生街13巷36號","121.539111666667","24.9668483333333","6500600","新店區"
"231038","4715-K9","2018/01/29 13:49:19","新北市新店區安康路一段293號","121.522765","24.96369","6500600","新店區"
"231036","512-UM","2018/01/29 13:49:30","新北市新店區安祥路113號","121.475226666667","24.95697","6500600","新店區"
"231035","515-UM","2018/01/29 13:49:17","新北市新店區安忠路102-1號","121.510205","24.955955","6500600","新店區"
"231003","616-UM","2018/01/29 13:49:31","新北市新店區中興路一段110-1號","121.541226666667","24.9623383333333","6500600","新店區"
"231028","618-UM","2018/01/29 13:49:32","新北市新店區安和路三段9巷8號","121.517265","24.9807933333333","6500600","新店區"
"231001","619-UM","2018/01/29 13:49:28","新北市新店區三民路123號","121.534701666667","24.9723833333333","6500600","新店區"
"231034","645-TV","2018/01/29 13:49:22","新北市新店區達觀路16號","121.502903333333","24.9411083333333","6500600","新店區"
"231013","719-UM","2018/01/29 13:49:30","新北市新店區二十張路25巷3號","121.53902","24.9820966666667","6500600","新店區"
"231031","720-UM","2018/01/29 13:49:20","新北市新店區莒光路44巷21弄11-6號","121.51841","24.9522883333333","6500600","新店區"
"231005","897-TW","2018/01/29 13:49:34","新北市新店區寶中路110號","121.549935","24.978905","6500600","新店區"
"231006","898-TW","2018/01/29 13:49:17","新北市新店區北宜路一段260號","121.5457","24.9527583333333","6500600","新店區"
"231004","899-TW","2018/01/29 13:49:21","新北市新店區寶橋路56號","121.54614","24.9754216666667","6500600","新店區"
"231037","AKT-0513","2018/01/29 13:49:32","新北市新店區安康路二段422-1號","121.496141666667","24.9555883333333","6500600","新店區"
"235030","003-UY","2018/01/29 13:49:32","新北市中和區水源路29巷12號","121.504221666667","25.0040816666667","6500300","中和區"
"235028","005-UY","2018/01/29 13:49:12","新北市中和區連城路75巷1號","121.497478333333","25.0000266666667","6500300","中和區"
"235020","096-UM","2018/01/29 13:49:30","新北市中和區新民街94巷18號","121.481416666667","25.0091516666667","6500300","中和區"
"235003","097-UM","2018/01/29 13:49:29","新北市中和區大勇街27巷24號","121.516288333333","24.99413","6500300","中和區"
"235029","098-UM","2018/01/29 13:49:20","新北市中和區中山路二段2巷31號","121.502963333333","25.0068883333333","6500300","中和區"
"235004","150-BY","2018/01/29 13:49:25","新北市中和區保健路71號","121.509976666667","24.99707","6500300","中和區"
"235022","151-BY","2018/01/29 13:49:19","新北市中和區連城路518巷8號","121.476571666667","24.9924766666667","6500300","中和區"
"235019","183-VK","2018/01/29 13:49:29","新北市中和區德光路77巷1號","121.469508333333","25.0035216666667","6500300","中和區"
"235002","185-VK","2018/01/29 13:49:33","新北市中和區大勇街31巷23號","121.517068333333","24.9945633333333","6500300","中和區"
"235013","186-VK","2018/01/29 13:49:19","新北市中和區景安路173號","121.505253333333","24.9944066666667","6500300","中和區"
"235031","255-BX","2018/01/29 13:49:19","新北市中和區新生街220巷13號","121.482973333333","24.9984566666667","6500300","中和區"
"235008","293-VK","2018/01/29 13:49:17","新北市中和區中興街204號","121.499843333333","24.9903033333333","6500300","中和區"
"235036","301-VK","2018/01/29 13:49:29","新北市中和區中山路二段47號","121.504433333333","25.0049316666667","6500300","中和區"
"235007","352-BY","2018/01/29 13:49:33","新北市中和區成功路139號","121.525998333333","24.9900683333333","6500300","中和區"
"235032","377-QA","2018/01/29 13:48:14","新北市中和區中正路211巷38-3號","121.497701666667","24.9924616666667","6500300","中和區"
"235025","378-QA","2018/01/29 13:48:43","新北市中和區民享街46號","121.473918333333","25.0027016666667","6500300","中和區"
"235035","269-TV","2018/01/29 13:49:28","新北市中和區中山路二段486號","121.487653333333","25.0051216666667","6500300","中和區"
"235014","4979-A6","2018/01/29 13:49:16","新北市中和區忠孝街62巷9弄10號","121.51315","24.9839516666667","6500300","中和區"
"235033","4980-A6","2018/01/29 13:49:27","新北市中和區泰和街5號","121.499765","25.0007033333333","6500300","中和區"
"235034","558-UM","2018/01/29 13:34:39","新北市中和區南華路9號","121.502158333333","24.9956433333333","6500300","中和區"
"235009","565-BX","2018/01/29 13:49:12","新北市中和區復興路65號","121.503911666667","24.9901433333333","6500300","中和區"
"235018","640-BX","2018/01/29 13:49:18","新北市中和區民享街53號","121.47411","25.0026333333333","6500300","中和區"
"235024","647-TV","2018/01/29 13:49:19","新北市中和區中山路三段33號","121.479053333333","25.0059133333333","6500300","中和區"
"235011","732-UM","2018/01/29 13:49:27","新北市中和區興南路二段34巷57弄2號","121.504926666667","24.9856116666667","6500300","中和區"
"235010","733-UM","2018/01/29 13:49:16","新北市中和區仁愛街36巷42號","121.511325","24.9863716666667","6500300","中和區"
"235026","800-TS","2018/01/29 13:49:30","新北市中和區景平路701號","121.496385","25.00348","6500300","中和區"
"235005","802-TS","2018/01/29 13:49:33","新北市中和區永貞路280號","121.513136666667","25.0039916666667","6500300","中和區"
"235016","805-TS","2018/01/29 13:49:32","新北市中和區興南路二段399巷11號","121.49885","24.979185","6500300","中和區"
"235012","896-TW","2018/01/29 13:49:13","新北市中和區南山路393號","121.50662","24.9902316666667","6500300","中和區"
"235017","900-TW","2018/01/29 13:49:20","新北市中和區華福街42巷5號","121.466336666667","24.99614","6500300","中和區"
"235027","911-UM","2018/01/29 13:49:20","新北市中和區連城路319巷11弄10號","121.489563333333","24.9949566666667","6500300","中和區"
"235015","157-BY","2018/01/29 13:49:26","新北市中和區華新街143巷106弄23號","121.506661666667","24.9784116666667","6500300","中和區"
"235001","AAC-213","2018/01/29 13:49:22","新北市中和區秀朗路三段128巷2號","121.524661666667","24.9923316666667","6500300","中和區"
"235023","AAC-215","2018/01/29 13:49:14","新北市中和區圓通路385號","121.490261666667","24.9892833333333","6500300","中和區"
"220016","013-TV","2018/01/29 13:49:15","新北市板橋區民生路二段123號","121.470698333333","25.0187033333333","6500100","板橋區"
"220013","072-UY","2018/01/29 13:49:17","新北市板橋區漢生東路282號","121.471088333333","25.008955","6500100","板橋區"
"220034","073-UY","2018/01/29 13:49:29","新北市板橋區大智街71巷3弄4號","121.453455","25.0151683333333","6500100","板橋區"
"220105","075-UY","2018/01/29 13:49:22","新北市板橋區民生路二段161巷9號","121.470281666667","25.01964","6500100","板橋區"
"220017","AAD-861","2018/01/29 13:49:30","新北市板橋區大華街1號","121.458728333333","25.006625","6500100","板橋區"
"220039","120-SR","2018/01/29 13:49:30","新北市板橋區民生路二段120號","121.470405","25.0194933333333","6500100","板橋區"
"247019","500-BY","2018/01/29 13:49:21","新北市蘆洲區民族路408巷48號","121.474808333333","25.0932783333333","6501400","蘆洲區"
"247007","341-TH","2018/01/29 13:49:14","新北市蘆洲區重陽街48號","121.481393333333","25.083135","6501400","蘆洲區"
"247003","336-TH","2018/01/29 13:49:31","新北市蘆洲區長安街108巷9號","121.461465","25.0821233333333","6501400","蘆洲區"
"247005","056-VK","2018/01/29 13:49:30","新北市蘆洲區和平路72號","121.469841666667","25.0790566666667","6501400","蘆洲區"
"247013","007-UY","2018/01/29 13:49:28","新北市蘆洲區三民路121號","121.472513333333","25.086","6501400","蘆洲區"
"235021","251-BX","2018/01/29 13:49:18","新北市中和區民安街22巷10號","121.480156666667","25.00102","6500300","中和區"
"253003","6232-TK","2018/01/29 13:49:25","新北市石門區尖子鹿8-1號","121.575233333333","25.2799466666667","6502200","石門區"
"253001","6251-TK","2018/01/29 13:49:15","新北市石門區下員坑16-20號","121.509221666667","25.2791016666667","6502200","石門區"
"253002","637-UY","2018/01/29 13:49:18","新北市石門區尖山湖55號","121.565343333333","25.2490566666667","6502200","石門區"
"253004","8270-PC","2018/01/29 13:49:17","新北市石門區阿里荖63號","121.607831666667","25.26766","6502200","石門區"
"208004","AAC-292","2018/01/29 13:49:23","新北市金山區重和里三重橋18號","121.589176666667","25.1884283333333","6502700","金山區"
"207002","749-BX","2018/01/29 13:49:24","新北市萬里區崁腳里崁腳路166號","121.645061666667","25.155885","6502800","萬里區"
"252005","073-UM","2018/01/29 13:49:15","新北市三芝區圓山里內柑宅25號","121.539208333333","25.218305","6502100","三芝區"
"207001","662-BX","2018/01/29 13:49:25","新北市萬里區磺潭里公館崙47-2號","121.629031666667","25.205085","6502800","萬里區"
"236064","105-UM","2018/01/29 13:49:18","新北市土城區城林路6巷80號","121.438301666667","24.9797066666667","6501300","土城區"
"236040","107-UM","2018/01/29 13:49:14","新北市土城區城林路6巷80號","121.438566666667","24.9797633333333","6501300","土城區"
"236074","166-UM","2018/01/29 13:49:20","新北市土城區永寧路35號","121.430076666667","24.9621083333333","6501300","土城區"
"236024","269-VK","2018/01/29 13:49:33","新北市土城區中華路二段101號","121.439211666667","24.9774633333333","6501300","土城區"
"236012","270-VK","2018/01/29 13:49:32","新北市土城區城林路6巷80號","121.438465","24.9798133333333","6501300","土城區"
"236032","271-VK","2018/01/29 13:49:29","新北市土城區城林路6巷80號","121.438401666667","24.9797016666667","6501300","土城區"
"236016","401-BY","2018/01/29 13:49:25","新北市土城區城林路6巷80號","121.43853","24.9797016666667","6501300","土城區"
"236005","498-BY","2018/01/29 13:49:25","新北市土城區中華路二段61-1號","121.439995","24.9791783333333","6501300","土城區"
"236056","912-UM","2018/01/29 13:49:26","新北市土城區中華路二段2號","121.439443333333","24.97957","6501300","土城區"
"236044","913-UM","2018/01/29 13:49:12","新北市土城區城林路6巷80號","121.438358333333","24.9797966666667","6501300","土城區"
"236060","915-UM","2018/01/29 13:49:13","新北市土城區城林路6巷80號","121.438618333333","24.9797433333333","6501300","土城區"
"236052","AAC-216","2018/01/29 13:49:16","新北市土城區城林路6巷80號","121.438411666667","24.9798283333333","6501300","土城區"
"220027","145-BY","2018/01/29 13:49:27","新北市板橋區中正路48號","121.456423333333","25.0140883333333","6500100","板橋區"
"220028","200-UY","2018/01/29 13:49:33","新北市板橋區大觀路二段265巷66弄28號","121.441565","24.9970133333333","6500100","板橋區"
"220030","610-BX","2018/01/29 13:49:29","新北市板橋區篤行路三段玉平巷51號","121.428456666667","24.9866633333333","6500100","板橋區"
"220045","255-TC","2018/01/29 13:49:26","新北市板橋區民生路二段120號","121.470355","25.01987","6500100","板橋區"
"220052","257-TC","2018/01/29 13:39:08","新北市板橋區介壽街119號","121.470506666667","25.0186616666667","6500100","板橋區"
"220004","276-BY","2018/01/29 13:49:27","新北市板橋區四川路二段57號","121.453601666667","24.9951933333333","6500100","板橋區"
"220020","277-BY","2018/01/29 13:49:18","新北市板橋區金門街25巷10號","121.434018333333","24.9943066666667","6500100","板橋區"
"220043","283-UM","2018/01/29 13:49:20","新北市板橋區民生路二段161巷1號","121.470083333333","25.0198816666667","6500100","板橋區"
"220019","283-VK","2018/01/29 13:49:16","新北市板橋區忠孝路196巷43號","121.465571666667","25.0017016666667","6500100","板橋區"
"220001","285-VK","2018/01/29 13:49:24","新北市板橋區民生路二段123號","121.470603333333","25.01858","6500100","板橋區"
"220031","286-VK","2018/01/29 13:49:17","新北市板橋區大觀路二段22巷29號","121.445143333333","25.0035833333333","6500100","板橋區"
"220029","287-VK","2018/01/29 13:49:31","新北市板橋區光華街13巷47號","121.452615","25.0111366666667","6500100","板橋區"
"220009","293-UM","2018/01/29 13:49:32","新北市板橋區太和街4巷3號","121.474","25.019875","6500100","板橋區"
"220010","295-UM","2018/01/29 13:49:31","新北市板橋區中山路二段32號","121.472763333333","25.01522","6500100","板橋區"
"220032","296-UM","2018/01/29 13:49:16","新北市板橋區大觀路二段150巷64-1號","121.44153","25.0008","6500100","板橋區"
"220023","303-R5","2018/01/29 13:49:19","新北市板橋區南雅西路一段174巷1弄7號","121.45304","25.0074066666667","6500100","板橋區"
"220041","307-R5","2018/01/29 13:49:27","新北市板橋區民生路二段120號","121.470553333333","25.0198066666667","6500100","板橋區"
"220047","317-R6","2018/01/29 13:49:34","新北市板橋區民生路二段120號","121.470426666667","25.0196716666667","6500100","板橋區"
"220012","486-VK","2018/01/29 13:49:32","新北市板橋區民生路二段36-1號","121.472048333333","25.0168566666667","6500100","板橋區"
"220038","487-VK","2018/01/29 13:49:27","新北市板橋區民生路二段161巷1號","121.469998333333","25.0201333333333","6500100","板橋區"
"220104","560-BX","2018/01/29 13:49:25","新北市板橋區中正路275巷77號","121.452345","25.0180983333333","6500100","板橋區"
"220003","568-UM","2018/01/29 13:49:29","新北市板橋區縣民大道一段64巷2號","121.455038333333","25.0040333333333","6500100","板橋區"
"220011","609-BX","2018/01/29 13:49:17","新北市板橋區中山路二段37號","121.473078333333","25.01563","6500100","板橋區"
"220040","637-BX","2018/01/29 13:49:32","新北市板橋區民生路二段161巷1號","121.470201666667","25.0201316666667","6500100","板橋區"
"220005","686-BX","2018/01/29 13:49:31","新北市板橋區板城路407號","121.4474","24.9951966666667","6500100","板橋區"
"220025","687-BX","2018/01/29 13:49:32","新北市板橋區大觀路三段121號","121.432681666667","24.994405","6500100","板橋區"
"220042","689-BX","2018/01/29 13:49:31","新北市板橋區民生路二段161巷1號","121.470153333333","25.0201516666667","6500100","板橋區"
"220002","741-BX","2018/01/29 13:49:21","新北市板橋區館前西路46巷2號","121.459013333333","25.0070466666667","6500100","板橋區"
"220014","829-TW","2018/01/29 13:49:20","新北市板橋區民生路一段53號","121.475505","25.01301","6500100","板橋區"
"220022","895-R6","2018/01/29 13:49:32","新北市板橋區府中路67號","121.458181666667","25.00951","6500100","板橋區"
"220021","985-R7","2018/01/29 13:49:30","新北市板橋區府中路32號","121.458206666667","25.0095733333333","6500100","板橋區"
"220046","AAC-210","2018/01/29 13:49:22","新北市板橋區民生路二段89-6號","121.470571666667","25.0191333333333","6500100","板橋區"
"220018","AAC-253","2018/01/29 13:49:24","新北市板橋區四川路一段60號","121.459595","25.0056516666667","6500100","板橋區"
