"lineid","car","time","location","longitude","latitude","cityid","cityname"
"234005","207-UY","2018/01/29 14:27:27","新北市永和區中正路535號","121.51689","25.00783","6500400","永和區"
"234078","298-R6","2018/01/29 14:27:37","新北市永和區永貞路82號","121.520161666667","25.0050366666667","6500400","永和區"
"234036","336-UY","2018/01/29 14:27:33","新北市永和區民樂街31巷19弄2號","121.52869","25.0023533333333","6500400","永和區"
"234062","337-UY","2018/01/29 14:27:41","新北市永和區中正路397號","121.517288333333","25.0042016666667","6500400","永和區"
"234084","338-UY","2018/01/29 14:27:31","新北市永和區永和路二段103號","121.51492","25.01176","6500400","永和區"
"234068","552-UM","2018/01/29 14:27:38","新北市永和區永寧街10號","121.520283333333","25.0067666666667","6500400","永和區"
"234028","746-BX","2018/01/29 14:27:23","新北市永和區民權路51號","121.519956666667","24.99698","6500400","永和區"
"234052","KEA-2590","2018/01/29 14:27:41","新北市永和區光復街2巷23號","121.517186666667","25.0166633333333","6500400","永和區"
"234060","AAD-866","2018/01/29 14:27:39","新北市永和區得和路45巷16弄4號","121.516121666667","25.0008033333333","6500400","永和區"
"234040","862-TW","2018/01/29 14:27:41","新北市永和區安樂路282號","121.514403333333","25.0044016666667","6500400","永和區"
"234048","863-TW","2018/01/29 14:27:04","新北市永和區新生路118巷1弄15號","121.506676666667","25.0144533333333","6500400","永和區"
"234025","9371-KE","2018/01/29 14:27:24","新北市中和區安樂路207號","121.51447","24.99859","6500400","永和區"
"248013","025-BX","2018/01/29 14:27:29","新北市五股區民義路一段183巷5-1號","121.430476666667","25.0871216666667","6501500","五股區"
"248015","026-BX","2018/01/29 14:27:25","新北市五股區成泰路3段651-1號","121.452981666667","25.1053483333333","6501500","五股區"
"248007","095-VK","2018/01/29 14:27:35","新北市五股區中興路一段93號","121.466656666667","25.0728083333333","6501500","五股區"
"248019","225-UY","2018/01/29 14:04:21","新北市五股區凌雲路三段57號","121.425341666667","25.1250233333333","6501500","五股區"
"248011","247-BX","2018/01/29 14:27:33","新北市五股區成泰路一段241巷10號","121.436176666667","25.08101","6501500","五股區"
"248003","677-BX","2018/01/29 14:27:41","新北市五股區五福路7-1號","121.43426","25.0881883333333","6501500","五股區"
"248001","678-BX","2018/01/29 14:27:39","新北市五股區成泰路三段514號","121.452185","25.10186","6501500","五股區"
"248009","682-TV","2018/01/29 14:27:35","新北市五股區水碓一路23號","121.43052","25.0712966666667","6501500","五股區"
"234022","9380-KE","2018/01/29 14:27:27","新北市永和區竹林路25巷21號","121.518128333333","25.0149816666667","6500400","永和區"
"234076","969-R7","2018/01/29 14:27:35","新北市永和區民權路55號","121.520125","24.9966216666667","6500400","永和區"
"234072","AAC-211","2018/01/29 14:27:27","新北市永和區竹林路119巷18弄1號","121.521071666667","25.011425","6500400","永和區"
"234066","AAC-212","2018/01/29 14:27:39","新北市永和區保平路268巷29號","121.50784","25.0060033333333","6500400","永和區"
"234001","AAC-295","2018/01/29 14:27:23","新北市永和區自強街19巷2號","121.514853333333","25.00807","6500400","永和區"
"243003","267-VK","2018/01/29 14:27:32","新北市泰山區貴子路67巷22號","121.431128333333","25.0410366666667","6501600","泰山區"
"243004","AAD-798","2018/01/29 14:27:31","新北市泰山區仁愛路6號","121.430738333333","25.053995","6501600","泰山區"
"243007","380-SR","2018/01/29 14:27:24","新北市泰山區明志路二段126號","121.42781","25.05134","6501600","泰山區"
"243006","421-VK","2018/01/29 14:27:32","新北市泰山區泰林路二段36-1號","121.435781666667","25.057165","6501600","泰山區"
"243002","KEA-2215","2018/01/29 14:27:34","新北市泰山區民生路20號","121.43051","25.0525933333333","6501600","泰山區"
"243001","KEA-2216","2018/01/29 14:27:25","新北市泰山區明志路一段122巷30號","121.431538333333","25.0644766666667","6501600","泰山區"
"243005","646-TV","2018/01/29 14:27:35","新北市泰山區民國街14號","121.425513333333","25.043415","6501600","泰山區"
"243008","680-BX","2018/01/29 14:27:32","新北市泰山區新北大道七段26號","121.420086666667","25.0323383333333","6501600","泰山區"
"231002","002-UM","2018/01/29 14:27:28","新北市新店區中央路153號","121.52988","24.9731166666667","6500600","新店區"
"231025","0293-UT","2018/01/29 14:27:22","新北市新店區自立街56號","121.537851666667","24.9792966666667","6500600","新店區"
"231030","047-UY","2018/01/29 14:27:18","新北市新店區安民街65巷6號","121.516126666667","24.9668133333333","6500600","新店區"
"231029","106-UY","2018/01/29 14:27:23","新北市新店區安康路二段341巷1號","121.497005","24.955335","6500600","新店區"
"231018","107-UY","2018/01/29 14:27:29","新北市新店區中央五街15-1號","121.529621666667","24.974445","6500600","新店區"
"231011","108-UY","2018/01/29 14:27:37","新北市新店區寶興路65巷2號","121.55079","24.9716333333333","6500600","新店區"
"231019","110-UY","2018/01/29 14:27:23","新北市新店區桂山路35號","121.559865","24.9024416666667","6500600","新店區"
"231014","KEA-2219","2018/01/29 14:27:31","新北市新店區北宜路三段262-2號","121.601288333333","24.954455","6500600","新店區"
"231023","AAD-862","2018/01/29 14:27:29","新北市新店區光明街98號","121.539068333333","24.9602533333333","6500600","新店區"
"231027","3712-VJ","2018/01/29 14:27:35","新北市新店區寶橋路75號","121.545703333333","24.97521","6500600","新店區"
"231038","4715-K9","2018/01/29 14:27:39","新北市新店區溪洲路8巷120-1號","121.532876666667","24.9632216666667","6500600","新店區"
"231036","512-UM","2018/01/29 14:27:30","新北市新店區安祥路109巷151弄1號","121.477966666667","24.9585483333333","6500600","新店區"
"231035","515-UM","2018/01/29 14:27:37","新北市新店區安民街3巷23號","121.51416","24.9641483333333","6500600","新店區"
"231003","616-UM","2018/01/29 14:27:31","新北市新店區中興路一段268-3號","121.545148333333","24.9678933333333","6500600","新店區"
"231028","618-UM","2018/01/29 14:27:33","新北市新店區安和路一段15號","121.516871666667","24.9642416666667","6500600","新店區"
"231001","619-UM","2018/01/29 14:27:33","新北市新店區北新路一段96巷23號","121.543046666667","24.9688016666667","6500600","新店區"
"231034","645-TV","2018/01/29 14:27:22","新北市新店區黎明路3號","121.503305","24.9522916666667","6500600","新店區"
"231013","719-UM","2018/01/29 14:27:43","新北市新店區民權路108-2號","121.536123333333","24.9834633333333","6500600","新店區"
"231005","897-TW","2018/01/29 14:27:34","新北市新店區寶強路6號","121.543133333333","24.9787033333333","6500600","新店區"
"231006","898-TW","2018/01/29 14:27:39","新北市新店區北宜路二段491號","121.562608333333","24.9538483333333","6500600","新店區"
"231004","899-TW","2018/01/29 14:27:41","新北市新店區中正路201號","121.540351666667","24.9725316666667","6500600","新店區"
"231037","AKT-0513","2018/01/29 14:27:32","新北市新店區車子路58號","121.504005","24.9515583333333","6500600","新店區"
"235030","003-UY","2018/01/29 14:27:31","新北市中和區中和路136號","121.503391666667","24.999435","6500300","中和區"
"235028","005-UY","2018/01/29 14:27:32","新北市中和區泰和街2號","121.500013333333","25.00137","6500300","中和區"
"235020","096-UM","2018/01/29 14:27:30","新北市中和區員山路514巷2號","121.479378333333","25.0096566666667","6500300","中和區"
"235003","097-UM","2018/01/29 14:27:29","新北市中和區景新街467巷50弄22號","121.517706666667","24.989125","6500300","中和區"
"235029","098-UM","2018/01/29 14:27:40","新北市中和區永和路52號","121.49909","25.0041716666667","6500300","中和區"
"235004","150-BY","2018/01/29 14:27:25","新北市中和區保健路106巷39號","121.512048333333","24.9951683333333","6500300","中和區"
"235022","151-BY","2018/01/29 14:27:39","新北市中和區員山路36巷16-2號","121.485235","24.9914933333333","6500300","中和區"
"235019","183-VK","2018/01/29 14:27:29","新北市中和區中山路三段181巷18弄11號","121.472701666667","25.004805","6500300","中和區"
"235002","185-VK","2018/01/29 14:27:32","新北市中和區立人街3號","121.52183","24.994005","6500300","中和區"
"235013","186-VK","2018/01/29 14:27:39","新北市中和區景平路396-1號","121.50987","24.9932133333333","6500300","中和區"
"235031","255-BX","2018/01/29 14:27:40","新北市中和區新生街164號","121.483635","25.0002833333333","6500300","中和區"
"235008","293-VK","2018/01/29 14:27:38","新北市中和區捷運路185號","121.505456666667","24.9913983333333","6500300","中和區"
"235036","301-VK","2018/01/29 14:27:29","新北市中和區中和路74號","121.500743333333","25.000135","6500300","中和區"
"235007","352-BY","2018/01/29 14:27:32","新北市中和區景平路296號","121.512993333333","24.9925483333333","6500300","中和區"
"235032","377-QA","2018/01/29 14:27:34","新北市中和區景平路493巷5號","121.499671666667","24.9974233333333","6500300","中和區"
"235025","378-QA","2018/01/29 14:27:23","新北市中和區民利街61巷17號","121.47869","24.9981633333333","6500300","中和區"
"235035","269-TV","2018/01/29 14:27:28","新北市中和區中正路643號","121.485165","24.9956483333333","6500300","中和區"
"235014","4979-A6","2018/01/29 14:27:36","新北市中和區中正路426號","121.491603333333","24.9943033333333","6500300","中和區"
"235033","4980-A6","2018/01/29 14:27:27","新北市中和區福祥路7號","121.499461666667","25.003105","6500300","中和區"
"235034","558-UM","2018/01/29 14:27:19","新北市中和區景平路678號","121.497061666667","25.0013683333333","6500300","中和區"
"235009","565-BX","2018/01/29 14:27:32","新北市中和區景新街425號","121.513026666667","24.9892083333333","6500300","中和區"
"235018","640-BX","2018/01/29 14:27:38","新北市中和區國光街109巷25號","121.469455","24.9995666666667","6500300","中和區"
"235024","647-TV","2018/01/29 14:27:39","新北市中和區員山路294巷9號","121.481951666667","25.00239","6500300","中和區"
"235011","732-UM","2018/01/29 14:27:27","新北市中和區景平路241巷33號","121.508701666667","24.992455","6500300","中和區"
"235010","733-UM","2018/01/29 14:27:37","新北市中和區忠孝街16號","121.51035","24.9826933333333","6500300","中和區"
"235026","800-TS","2018/01/29 14:27:36","新北市中和區中山路二段375號","121.487355","25.0047616666667","6500300","中和區"
"235005","802-TS","2018/01/29 14:27:33","新北市中和區宜安路96號","121.510676666667","24.99766","6500300","中和區"
"235016","805-TS","2018/01/29 14:27:32","新北市中和區華新街143巷49號","121.50635","24.9802533333333","6500300","中和區"
"235012","896-TW","2018/01/29 14:27:13","新北市中和區忠孝街1巷2-1號","121.509045","24.9829816666667","6500300","中和區"
"235017","900-TW","2018/01/29 14:27:40","新北市中和區華順街10號","121.467341666667","24.9986883333333","6500300","中和區"
"235027","911-UM","2018/01/29 14:27:40","新北市中和區圓通路198巷10號","121.49588","24.9946716666667","6500300","中和區"
"235015","157-BY","2018/01/29 14:27:33","新北市中和區和平街2巷4弄12號","121.510243333333","24.9908533333333","6500300","中和區"
"235001","AAC-213","2018/01/29 14:27:42","新北市中和區秀朗路三段10巷14弄76號","121.523716666667","24.99659","6500300","中和區"
"235023","AAC-215","2018/01/29 14:27:34","新北市中和區圓通路252巷16號","121.492256666667","24.9921466666667","6500300","中和區"
"220016","013-TV","2018/01/29 14:27:34","新北市板橋區萬安街55號","121.48389","25.0238183333333","6500100","板橋區"
"220013","072-UY","2018/01/29 14:27:37","新北市板橋區國泰街75巷28弄68號","121.467531666667","25.0044266666667","6500100","板橋區"
"220034","073-UY","2018/01/29 14:27:35","新北市板橋區中正路250巷90號","121.458896666667","25.019865","6500100","板橋區"
"220105","075-UY","2018/01/29 14:27:43","新北市板橋區江寧路三段119號","121.47334","25.0331866666667","6500100","板橋區"
"220017","AAD-861","2018/01/29 14:27:29","新北市板橋區貴興路41號","121.457536666667","25.00359","6500100","板橋區"
"220039","120-SR","2018/01/29 14:27:29","新北市板橋區長江路一段106巷13弄3號","121.460208333333","25.0291716666667","6500100","板橋區"
"247021","893-R6","2018/01/29 14:27:28","新北市蘆洲區水湳街72號","121.470636666667","25.0897466666667","6501400","蘆洲區"
"247011","546-UM","2018/01/29 14:27:32","新北市蘆洲區復興路62號","121.47445","25.0863066666667","6501400","蘆洲區"
"247019","500-BY","2018/01/29 14:27:42","新北市蘆洲區仁愛街116號","121.469735","25.09495","6501400","蘆洲區"
"247007","341-TH","2018/01/29 14:27:35","新北市蘆洲區信義路91-6號","121.477506666667","25.07982","6501400","蘆洲區"
"247009","339-TH","2018/01/29 14:27:32","新北市蘆洲區鷺江街71號","121.477156666667","25.0830733333333","6501400","蘆洲區"
"247001","337-TH","2018/01/29 14:27:40","新北市蘆洲區環堤大道168號","121.456178333333","25.0896583333333","6501400","蘆洲區"
"247003","336-TH","2018/01/29 14:27:31","新北市蘆洲區中原路87號","121.45784","25.081645","6501400","蘆洲區"
"247005","056-VK","2018/01/29 14:27:30","新北市蘆洲區長安街73巷14號","121.461971666667","25.0798366666667","6501400","蘆洲區"
"247015","053-VK","2018/01/29 14:27:36","新北市蘆洲區中正路185巷23弄3號","121.467113333333","25.0845583333333","6501400","蘆洲區"
"247013","007-UY","2018/01/29 14:27:27","新北市蘆洲區中山二路99號","121.472768333333","25.0816316666667","6501400","蘆洲區"
"247023","002-UY","2018/01/29 14:27:27","新北市蘆洲區中正路355號","121.465333333333","25.08977","6501400","蘆洲區"
"247017","001-UY","2018/01/29 14:27:42","新北市蘆洲區民族路336巷27弄1號","121.477676666667","25.0911783333333","6501400","蘆洲區"
"235021","251-BX","2018/01/29 14:27:38","新北市中和區中山路三段37巷37號","121.479651666667","25.0048766666667","6500300","中和區"
"253003","6232-TK","2018/01/29 14:27:25","新北市石門區尖子鹿29號","121.58264","25.26246","6502200","石門區"
"253001","6251-TK","2018/01/29 14:27:35","新北市石門區下員坑57號","121.523663333333","25.268125","6502200","石門區"
"253002","637-UY","2018/01/29 14:27:38","新北市石門區大丘田42-2號","121.549023333333","25.2803966666667","6502200","石門區"
"253004","8270-PC","2018/01/29 14:27:37","新北市石門區內阿里磅1號","121.592101666667","25.254575","6502200","石門區"
"208004","AAC-292","2018/01/29 14:27:23","新北市金山區重和里六股林口20號","121.60298","25.2189833333333","6502700","金山區"
"207002","749-BX","2018/01/29 14:27:27","新北市萬里區溪底里溪底路6-2號","121.616803333333","25.1511183333333","6502800","萬里區"
"252005","073-UM","2018/01/29 14:27:37","新北市三芝區橫山里大坑85號","121.52933","25.2586683333333","6502100","三芝區"
"207001","662-BX","2018/01/29 14:27:25","新北市萬里區磺潭里清水15號","121.638171666667","25.19826","6502800","萬里區"
"236064","105-UM","2018/01/29 14:27:38","新北市土城區永豐路199號","121.472035","24.977665","6501300","土城區"
"236040","107-UM","2018/01/29 14:27:34","新北市土城區裕民路61巷4號","121.449456666667","24.98792","6501300","土城區"
"236074","166-UM","2018/01/29 14:27:40","新北市土城區中央路四段2-3號","121.42623","24.9633266666667","6501300","土城區"
"236028","253-BX","2018/01/29 14:27:31","新北市土城區水源街73號","121.439616666667","24.9763583333333","6501300","土城區"
"236024","269-VK","2018/01/29 14:27:33","新北市土城區承天路18號","121.439451666667","24.9634333333333","6501300","土城區"
"236012","270-VK","2018/01/29 14:27:32","新北市土城區青雲路39巷7號","121.460338333333","24.98752","6501300","土城區"
"236032","271-VK","2018/01/29 14:27:29","新北市土城區青雲路451巷23號","121.460035","24.9748166666667","6501300","土城區"
"236016","401-BY","2018/01/29 14:27:25","新北市土城區永豐路202巷7-1號","121.466238333333","24.9832483333333","6501300","土城區"
"236005","498-BY","2018/01/29 14:27:24","新北市土城區日新街27號","121.444008333333","24.98785","6501300","土城區"
"236056","912-UM","2018/01/29 14:27:26","新北市土城區中央路四段466號","121.409933333333","24.9506133333333","6501300","土城區"
"236044","913-UM","2018/01/29 14:27:32","新北市土城區青雲路577號","121.459268333333","24.9717983333333","6501300","土城區"
"236060","915-UM","2018/01/29 14:27:41","新北市土城區延壽路118-3號","121.469091666667","24.9942183333333","6501300","土城區"
"236052","AAC-216","2018/01/29 14:27:36","新北市土城區中華路二段113號","121.439181666667","24.9769966666667","6501300","土城區"
"220027","145-BY","2018/01/29 14:27:27","新北市板橋區民權路202巷17號","121.460558333333","25.0166233333333","6500100","板橋區"
"220028","200-UY","2018/01/29 14:27:38","新北市板橋區大觀路二段5號","121.447066666667","25.0038683333333","6500100","板橋區"
"220030","610-BX","2018/01/29 14:27:29","新北市板橋區金門街405-1號","121.427631666667","24.9839883333333","6500100","板橋區"
"220050","245-BX","2018/01/29 14:27:26","新北市板橋區雙十路二段167號","121.47393","25.0282883333333","6500100","板橋區"
"220045","255-TC","2018/01/29 14:27:26","新北市板橋區大同街35巷11號","121.477541666667","25.0277233333333","6500100","板橋區"
"220052","257-TC","2018/01/29 14:27:28","新北市板橋區文化路一段188巷11號","121.466451666667","25.01938","6500100","板橋區"
"220004","276-BY","2018/01/29 14:27:24","新北市板橋區干城路20巷6號","121.459148333333","24.9935466666667","6500100","板橋區"
"220020","277-BY","2018/01/29 14:27:37","新北市板橋區金門街337巷10弄2號","121.429915","24.9850516666667","6500100","板橋區"
"220043","283-UM","2018/01/29 14:27:40","新北市板橋區吳鳳路38號","121.468521666667","25.0303866666667","6500100","板橋區"
"220019","283-VK","2018/01/29 14:27:36","新北市板橋區四川路一段325巷3弄5號","121.459403333333","25.00049","6500100","板橋區"
"220001","285-VK","2018/01/29 14:27:36","新北市板橋區富山街7巷2號","121.478395","25.0217766666667","6500100","板橋區"
"220031","286-VK","2018/01/29 14:27:36","新北市板橋區龍興街73巷38號","121.44251","25.0027766666667","6500100","板橋區"
"220029","287-VK","2018/01/29 14:27:31","新北市板橋區大觀路一段28巷1弄102號","121.451918333333","25.0063366666667","6500100","板橋區"
"220009","293-UM","2018/01/29 14:27:33","新北市板橋區成功路6巷3號","121.475738333333","25.0170133333333","6500100","板橋區"
"220010","295-UM","2018/01/29 14:27:29","新北市板橋區三民路二段153巷2弄2號","121.479575","25.014915","6500100","板橋區"
"220032","296-UM","2018/01/29 14:27:42","新北市板橋區滿平街138號","121.42882","24.9881733333333","6500100","板橋區"
"220023","303-R5","2018/01/29 14:27:38","新北市板橋區南雅西路一段112號","121.452766666667","25.0064283333333","6500100","板橋區"
"220041","307-R5","2018/01/29 14:27:40","新北市板橋區文化路二段125巷4號","121.469261666667","25.026465","6500100","板橋區"
"220047","317-R6","2018/01/29 14:27:36","新北市板橋區四維路266巷5弄8號","121.46369","25.0287733333333","6500100","板橋區"
"220012","486-VK","2018/01/29 14:27:32","新北市板橋區中山路一段139-5號","121.46237","25.0113233333333","6500100","板橋區"
"220038","487-VK","2018/01/29 14:27:27","新北市板橋區文化路一段237號","121.464056666667","25.0176733333333","6500100","板橋區"
"220037","491-VK","2018/01/29 14:27:38","新北市板橋區雙十路二段193號","121.4736","25.02898","6500100","板橋區"
"220104","560-BX","2018/01/29 14:27:30","新北市板橋區中正路433巷1弄10號","121.45363","25.0230783333333","6500100","板橋區"
"220003","568-UM","2018/01/29 14:27:29","新北市板橋區館前東路156巷44號","121.464496666667","25.0065933333333","6500100","板橋區"
"220011","609-BX","2018/01/29 14:27:37","新北市板橋區三民路二段204號","121.47885","25.0121816666667","6500100","板橋區"
"220040","637-BX","2018/01/29 14:27:42","新北市板橋區文聖街130號","121.478286666667","25.028335","6500100","板橋區"
"220005","686-BX","2018/01/29 14:27:31","新北市板橋區和平路153號","121.463381666667","24.9957583333333","6500100","板橋區"
"220025","687-BX","2018/01/29 14:27:32","新北市板橋區大觀路二段125-1號","121.445865","25.0013166666667","6500100","板橋區"
"220042","689-BX","2018/01/29 14:27:32","新北市板橋區新海路115號","121.461063333333","25.0228166666667","6500100","板橋區"
"220002","741-BX","2018/01/29 14:27:41","新北市板橋區光明街81號","121.46219","25.0029016666667","6500100","板橋區"
"220014","829-TW","2018/01/29 14:27:40","新北市板橋區長安街138巷7弄2號","121.47335","25.0082","6500100","板橋區"
"220022","895-R6","2018/01/29 14:27:35","新北市板橋區館前西路138號","121.456428333333","25.00814","6500100","板橋區"
"220021","985-R7","2018/01/29 14:27:30","新北市板橋區新生街39號","121.456845","25.021115","6500100","板橋區"
"220046","AAC-210","2018/01/29 14:27:42","新北市板橋區文德路1號","121.462911666667","25.0244416666667","6500100","板橋區"
"220018","AAC-253","2018/01/29 14:27:28","新北市板橋區四川路一段159號","121.459938333333","25.004005","6500100","板橋區"
