"lineid","car","time","location","longitude","latitude","cityid","cityname"
"231002","002-UM","2018/01/29 15:29:48","新北市新店區環河路152號","121.535183333333","24.9668933333333","6500600","新店區"
"231025","0293-UT","2018/01/29 15:29:42","新北市新店區中央路238號","121.52924","24.9723733333333","6500600","新店區"
"231030","047-UY","2018/01/29 15:29:38","新北市新店區新和街94號","121.520711666667","24.986125","6500600","新店區"
"231029","106-UY","2018/01/29 15:29:47","新北市新店區安康路三段525巷43號","121.481673333333","24.9447466666667","6500600","新店區"
"231018","107-UY","2018/01/29 15:29:49","新北市新店區中央七街107號","121.525861666667","24.9775866666667","6500600","新店區"
"231011","108-UY","2018/01/29 15:29:37","新北市新店區寶元路一段109號","121.545806666667","24.983095","6500600","新店區"
"231019","110-UY","2018/01/29 15:29:42","新北市新店區新烏路一段87巷3號","121.546183333333","24.9419466666667","6500600","新店區"
"231014","KEA-2219","2018/01/29 15:06:31","新北市新店區明山路45號","121.56369","24.9559033333333","6500600","新店區"
"231026","256-BX","2018/01/29 15:29:43","新北市新店區三民路117巷5弄2號","121.534163333333","24.9710916666667","6500600","新店區"
"231023","AAD-862","2018/01/29 15:29:49","新北市新店區北新路一段96巷23號","121.542871666667","24.9687466666667","6500600","新店區"
"231036","512-UM","2018/01/29 15:29:50","新北市新店區安祥路69巷54弄2號","121.481971666667","24.9595616666667","6500600","新店區"
"231035","515-UM","2018/01/29 15:29:37","新北市新店區安興路83-8號","121.515295","24.9756333333333","6500600","新店區"
"231003","616-UM","2018/01/29 15:29:51","新北市新店區寶高路120巷1-1號","121.554553333333","24.9759266666667","6500600","新店區"
"231028","618-UM","2018/01/29 15:29:33","新北市新店區僑義路3巷2號","121.500125","24.9520566666667","6500600","新店區"
"231034","645-TV","2018/01/29 15:29:45","新北市新店區富貴街16巷2號","121.494068333333","24.9487383333333","6500600","新店區"
"231039","718-UY","2018/01/29 15:29:52","新北市新店區寶元路一段91-1號","121.543428333333","24.985055","6500600","新店區"
"231031","720-UM","2018/01/29 15:29:39","新北市新店區雙城路145號","121.495836666667","24.9437433333333","6500600","新店區"
"231005","897-TW","2018/01/29 15:29:34","新北市新店區建國路291巷1號","121.536896666667","24.9853616666667","6500600","新店區"
"231004","899-TW","2018/01/29 15:29:41","新北市新店區民族路215號","121.536868333333","24.975965","6500600","新店區"
"231037","AKT-0513","2018/01/29 15:29:32","新北市新店區安興路112號","121.514623333333","24.9776466666667","6500600","新店區"
"241011","013-R5","2018/01/29 15:29:49","新北市三重區環河南路220-12號","121.494553333333","25.052515","6500200","三重區"
"241017","063-VK","2018/01/29 15:29:34","新北市三重區捷運路36號","121.482876666667","25.05534","6500200","三重區"
"241013","270-UM","2018/01/29 15:29:41","新北市三重區重新路四段121號","121.48476","25.0525033333333","6500200","三重區"
"241029","942-UM","2018/01/29 15:29:32","新北市三重區成功路12號","121.489945","25.0500116666667","6500200","三重區"
"235030","003-UY","2018/01/29 15:29:51","新北市中和區保平路326巷31號","121.506288333333","25.004795","6500300","中和區"
"235028","005-UY","2018/01/29 15:29:32","新北市中和區南華路36號","121.503581666667","24.99637","6500300","中和區"
"235031","255-BX","2018/01/29 15:29:39","新北市五股區凌雲路二段18巷64-3號","121.441776666667","25.1064666666667","6500300","中和區"
"235035","269-TV","2018/01/29 15:29:48","新北市中和區建康路21號","121.486175","25.0003933333333","6500300","中和區"
"235014","4979-A6","2018/01/29 15:29:36","新北市中和區景新街160巷4號","121.505466666667","24.9971016666667","6500300","中和區"
"235033","4980-A6","2018/01/29 15:29:47","新北市中和區圓通路202號","121.496148333333","24.9942016666667","6500300","中和區"
"235006","551-UM","2018/01/29 15:29:40","新北市中和區大勇街46巷6號","121.517661666667","24.9937816666667","6500300","中和區"
"235034","558-UM","2018/01/29 15:19:19","新北市中和區圓通路152-2號","121.497873333333","24.9957816666667","6500300","中和區"
"235023","AAC-215","2018/01/29 15:29:34","新北市中和區員山路28-7號","121.48248","24.9871716666667","6500300","中和區"
"220016","013-TV","2018/01/29 15:29:34","新北市新莊區化成路579巷1號","121.464543333333","25.0662416666667","6500100","板橋區"
"220034","073-UY","2018/01/29 15:29:35","新北市土城區自由街17號","121.42348","24.96731","6500100","板橋區"
"227001","400-TW","2018/01/29 15:29:33","新北市雙溪區三貂里政光路3-1號","121.850931666667","25.0630983333333","6502500","雙溪區"
"253003","6232-TK","2018/01/29 15:29:45","新北市石門區小坑9號","121.594301666667","25.288655","6502200","石門區"
"253001","6251-TK","2018/01/29 15:29:35","新北市石門區崁子腳47-10號","121.534186666667","25.283825","6502200","石門區"
"253002","637-UY","2018/01/29 15:29:38","新北市石門區小坑9號","121.594441666667","25.28916","6502200","石門區"
"253004","8270-PC","2018/01/29 15:29:37","新北市石門區小坑20號","121.596428333333","25.2819066666667","6502200","石門區"
"208004","AAC-292","2018/01/29 15:29:43","新北市金山區六股里下六股33號","121.621433333333","25.2216516666667","6502700","金山區"
"207001","662-BX","2018/01/29 15:29:45","新北市萬里區龜吼里玉田路4-2號","121.680581666667","25.1841466666667","6502800","萬里區"
"236064","105-UM","2018/01/29 15:29:38","新北市土城區水源街32巷16號","121.441278333333","24.9759","6501300","土城區"
"236040","107-UM","2018/01/29 15:29:34","新北市土城區學府路一段98巷25-1號","121.455221666667","24.98867","6501300","土城區"
"236074","166-UM","2018/01/29 15:29:40","新北市土城區中央路四段321巷34弄5號","121.41274","24.9508683333333","6501300","土城區"
"236028","253-BX","2018/01/29 15:29:51","新北市土城區中央路一段242巷6號","121.444026666667","24.9852166666667","6501300","土城區"
"236024","269-VK","2018/01/29 15:29:47","新北市土城區明德路二段102巷25號","121.445651666667","24.9849066666667","6501300","土城區"
"236012","270-VK","2018/01/29 15:29:32","新北市土城區廣明街46號","121.455375","24.9930533333333","6501300","土城區"
"236032","271-VK","2018/01/29 15:29:49","新北市土城區延吉街296巷5號","121.464388333333","24.9846916666667","6501300","土城區"
"236016","401-BY","2018/01/29 15:29:45","新北市土城區峰廷街10號","121.468683333333","24.9877066666667","6501300","土城區"
"236056","912-UM","2018/01/29 15:29:46","新北市土城區中央路二段162號","121.44197","24.9765816666667","6501300","土城區"
"236044","913-UM","2018/01/29 15:29:32","新北市土城區明德路一段238號","121.460248333333","24.9773133333333","6501300","土城區"
"236060","915-UM","2018/01/29 15:29:33","新北市土城區延和路230號","121.46935","24.9901766666667","6501300","土城區"
"236052","AAC-216","2018/01/29 15:29:36","新北市土城區延和路90號","121.466483333333","24.9895283333333","6501300","土城區"
"238002","755-BX","2018/01/29 15:29:51","新北市樹林區復興路196號","121.420001666667","24.9910866666667","6500700","樹林區"
"238010","601-UM","2018/01/29 15:29:45","新北市樹林區三福街41號","121.408356666667","25.01658","6500700","樹林區"
"238006","599-UM","2018/01/29 15:29:48","新北市樹林區太平路121號","121.419233333333","24.980745","6500700","樹林區"
"238005","571-TV","2018/01/29 15:29:48","新北市樹林區保安街一段22號","121.427441666667","24.99338","6500700","樹林區"
"238011","5061-A6","2018/01/29 15:29:37","新北市樹林區八德街212巷24號","121.415098333333","24.9734333333333","6500700","樹林區"
"238008","KEA-2217","2018/01/29 15:29:43","新北市樹林區西圳街一段140號","121.396883333333","24.9631683333333","6500700","樹林區"
"238009","KEA-2213","2018/01/29 15:29:41","新北市樹林區信義街18號","121.422893333333","24.981965","6500700","樹林區"
"238012","303-VK","2018/01/29 15:29:45","新北市樹林區中山路一段179-1號","121.421601666667","24.9882666666667","6500700","樹林區"
"238004","283-BY","2018/01/29 15:29:42","新北市樹林區保安街二段333巷2號","121.412261666667","25.0076116666667","6500700","樹林區"
"238001","282-BY","2018/01/29 15:29:38","新北市樹林區大安路123號","121.422285","24.9975266666667","6500700","樹林區"
"238007","268-VK","2018/01/29 15:29:42","新北市樹林區俊英街116巷41弄48號","121.428481666667","25.0072283333333","6500700","樹林區"
"238013","172-UY","2018/01/29 15:29:49","新北市樹林區中山路三段27巷3弄12-5號","121.402091666667","24.9735283333333","6500700","樹林區"
"238003","169-UY","2018/01/29 15:29:51","新北市樹林區長壽街28巷4弄2號","121.423236666667","24.9943916666667","6500700","樹林區"
"220050","245-BX","2018/01/29 15:29:26","新北市板橋區莊敬路62號","121.472556666667","25.02644","6500100","板橋區"
"220052","257-TC","2018/01/29 15:29:30","新北市板橋區漢生東路41-2號","121.465736666667","25.0168783333333","6500100","板橋區"
"220031","286-VK","2018/01/29 15:29:36","新北市板橋區僑中二街104巷1號","121.446006666667","25.0078233333333","6500100","板橋區"
"220029","461-BY","2018/01/29 15:29:47","新北市板橋區僑中一街80巷1弄4號","121.44739","25.0119566666667","6500100","板橋區"
"220038","487-VK","2018/01/29 15:29:46","新北市板橋區四維路170號","121.46473","25.0262033333333","6500100","板橋區"
"220025","687-BX","2018/01/29 15:29:32","新北市樹林區環河路2-2號","121.42574","24.977125","6500100","板橋區"
"220042","689-BX","2018/01/29 15:29:31","新北市板橋區長江路二段8號","121.464656666667","25.0312116666667","6500100","板橋區"
"220018","AAC-253","2018/01/29 15:29:43","新北市板橋區德興街38巷2號","121.453235","24.9935983333333","6500100","板橋區"
