"lineid","car","time","location","longitude","latitude","cityid","cityname"
"231018","107-UY","2018/01/29 16:19:29","新北市新店區中正路694巷15號","121.535371666667","24.9908666666667","6500600","新店區"
"231046","278-BY","2018/01/29 16:19:36","新北市新店區灣潭路3-3號","121.538256666667","24.9507766666667","6500600","新店區"
"231035","515-UM","2018/01/29 16:19:37","新北市新店區安康路二段320巷15弄2號","121.504255","24.959635","6500600","新店區"
"241011","013-R5","2018/01/29 16:19:35","新北市三重區龍濱路285號","121.501123333333","25.0733816666667","6500200","三重區"
"241028","022-UY","2018/01/29 16:19:28","新北市三重區正義南路181巷1號","121.49898","25.05718","6500200","三重區"
"241008","059-VK","2018/01/29 16:19:25","新北市三重區力行路二段136巷45弄12號","121.479155","25.0753533333333","6500200","三重區"
"241009","060-VK","2018/01/29 16:19:40","新北市三重區溪尾街245號","121.48796","25.0815583333333","6500200","三重區"
"241031","061-VK","2018/01/29 16:19:44","新北市三重區重新路四段138號","121.486673333333","25.0562616666667","6500200","三重區"
"241015","062-VK","2018/01/29 16:19:42","新北市三重區福德北路79號","121.501906666667","25.0658533333333","6500200","三重區"
"241017","063-VK","2018/01/29 16:19:33","新北市三重區大同北路91號","121.494751666667","25.06362","6500200","三重區"
"241024","065-VK","2018/01/29 16:19:30","新北市三重區中正北路310號","121.479418333333","25.069105","6500200","三重區"
"241026","066-VK","2018/01/29 16:19:28","新北市三重區正義南路40號","121.498271666667","25.0609166666667","6500200","三重區"
"241002","090-VK","2018/01/29 16:19:39","新北市三重區仁義街91號","121.499735","25.0796616666667","6500200","三重區"
"241003","091-VK","2018/01/29 16:19:37","新北市三重區五華街63巷12號","121.493468333333","25.08313","6500200","三重區"
"241025","156-TC","2018/01/29 16:19:25","新北市三重區中正北路560巷100弄2號","121.472388333333","25.0682466666667","6500200","三重區"
"241005","262-UM","2018/01/29 16:19:24","新北市三重區溪尾街305號","121.487565","25.0837683333333","6500200","三重區"
"241016","266-UM","2018/01/29 16:19:35","新北市三重區大仁街86號","121.492808333333","25.0654883333333","6500200","三重區"
"241018","268-UM","2018/01/29 16:19:35","新北市三重區重陽路三段7號","121.489033333333","25.06633","6500200","三重區"
"241013","270-UM","2018/01/29 16:19:32","新北市三重區三和路三段83巷36號","121.495856666667","25.0726266666667","6500200","三重區"
"241007","398-BY","2018/01/29 16:19:36","新北市三重區三和路四段163巷83號","121.486171666667","25.0794566666667","6500200","三重區"
"241020","413-TH","2018/01/29 16:19:36","新北市三重區車路頭街21號","121.483753333333","25.0705333333333","6500200","三重區"
"241004","475-VK","2018/01/29 16:19:27","新北市三重區自強路五段64號","121.49392","25.0815833333333","6500200","三重區"
"241019","478-VK","2018/01/29 16:19:38","新北市三重區自強路二段27號","121.48975","25.069265","6500200","三重區"
"241030","480-VK","2018/01/29 16:19:27","新北市三重區重新路四段121號","121.484811666667","25.05234","6500200","三重區"
"241014","543-UM","2018/01/29 16:19:31","新北市三重區河邊北街100巷19號","121.503088333333","25.07029","6500200","三重區"
"241023","545-UM","2018/01/29 16:19:36","新北市三重區忠孝路二段138號","121.48248","25.068265","6500200","三重區"
"241001","547-UM","2018/01/29 16:19:32","新北市三重區自強路四段77號","121.490838333333","25.0790866666667","6500200","三重區"
"241006","AAD-863","2018/01/29 16:19:23","新北市三重區永福街46巷31弄17號","121.481746666667","25.0775016666667","6500200","三重區"
"241022","887-TS","2018/01/29 16:19:25","新北市三重區新北大道一段3-1號","121.489988333333","25.0613916666667","6500200","三重區"
"241012","941-UM","2018/01/29 16:19:26","新北市三重區仁愛街31號","121.4968","25.071245","6500200","三重區"
"241029","942-UM","2018/01/29 16:19:32","新北市三重區泉州街57號","121.49461","25.0548516666667","6500200","三重區"
"241033","AAC-255","2018/01/29 16:19:36","新北市三重區五谷王南街11巷17弄1號","121.472633333333","25.0446166666667","6500200","三重區"
"235006","551-UM","2018/01/29 16:19:40","新北市中和區大勇街60巷14弄2號","121.51866","24.9945133333333","6500300","中和區"
"235046","733-UM","2018/01/29 15:52:36","新北市中和區員山路36巷13號","121.484166666667","24.99085","6500300","中和區"
"235026","800-TS","2018/01/29 16:19:35","新北市中和區建八路139巷6號","121.490218333333","24.999085","6500300","中和區"
"224006","676-BX","2018/01/29 16:19:30","新北市瑞芳區中山路67號","121.804101666667","25.1061566666667","6501200","瑞芳區"
"224007","273-VK","2018/01/29 16:19:43","新北市瑞芳區大埔路220-1號","121.760941666667","25.1022283333333","6501200","瑞芳區"
"227008","642-TC","2018/01/29 16:19:31","新北市雙溪區三港里雙澳路78號","121.883798333333","25.0539116666667","6502500","雙溪區"
"227001","400-TW","2018/01/29 16:19:33","新北市雙溪區上林里內平林80號","121.828266666667","25.02796","6502500","雙溪區"
"251013","179-VK","2018/01/29 16:19:39","新北市淡水區北新路三段162號","121.493093333333","25.1917","6501000","淡水區"
"251008","181-VK","2018/01/29 16:19:44","新北市淡水區民權路13-5號","121.459645","25.142005","6501000","淡水區"
"251015","182-VK","2018/01/29 16:19:31","新北市淡水區中正路二段18號","121.419766666667","25.181125","6501000","淡水區"
"238002","755-BX","2018/01/29 16:19:32","新北市樹林區東興街3號","121.409061666667","24.9803233333333","6500700","樹林區"
"238010","601-UM","2018/01/29 16:19:24","新北市樹林區三福街67巷9號","121.407826666667","25.015855","6500700","樹林區"
"238006","599-UM","2018/01/29 16:19:40","新北市樹林區東榮街147巷21號","121.41477","24.9812366666667","6500700","樹林區"
"238011","5061-A6","2018/01/29 16:19:37","新北市樹林區中山路三段214號","121.3804","24.967845","6500700","樹林區"
"238004","283-BY","2018/01/29 16:19:42","新北市樹林區中正路433-2號","121.414861666667","25.00824","6500700","樹林區"
"238001","282-BY","2018/01/29 16:19:38","新北市樹林區千歲街65號","121.427136666667","24.9987833333333","6500700","樹林區"
"238007","268-VK","2018/01/29 16:19:22","新北市樹林區三龍街118巷21號","121.415366666667","25.0173516666667","6500700","樹林區"
"238013","172-UY","2018/01/29 16:19:29","新北市樹林區佳園路一段41巷18號","121.394021666667","24.9708983333333","6500700","樹林區"
