"lineid","car","time","location","longitude","latitude","cityid","cityname"
"249005","172-UM","2018/01/29 17:29:31","新北市八里區荖阡坑路69號","121.406338333333","25.127445","6502300","八里區"
"249001","173-UM","2018/01/29 17:29:31","新北市八里區中華路一段5號","121.422818333333","25.1584566666667","6502300","八里區"
"249004","303-UY","2018/01/29 17:29:25","新北市八里區民有街34號","121.415665","25.1566033333333","6502300","八里區"
"249002","305-UY","2018/01/29 17:29:31","新北市八里區龍米路二段65巷15弄1號","121.447141666667","25.1407466666667","6502300","八里區"
"249003","593-UM","2018/01/29 17:29:43","新北市八里區中山路二段398號","121.400561666667","25.14782","6502300","八里區"
"244013","069-UM","2018/01/29 17:29:46","新北市林口區中山路188-2號","121.389406666667","25.0789616666667","6501700","林口區"
"244007","080-UY","2018/01/29 17:29:37","新北市林口區湖子7號","121.390528333333","25.0924083333333","6501700","林口區"
"244019","402-UM","2018/01/29 17:29:30","新北市林口區公園路203號","121.372511666667","25.0727316666667","6501700","林口區"
"244009","410-SL","2018/01/29 17:29:37","新北市林口區中華路331號","121.381648333333","25.092215","6501700","林口區"
"244023","483-VK","2018/01/29 17:29:34","新北市林口區東明一街36號","121.392728333333","25.0725366666667","6501700","林口區"
"244017","485-VK","2018/01/29 17:29:26","新北市林口區忠孝路407號","121.370395","25.0706316666667","6501700","林口區"
"244011","656-BX","2018/01/29 17:29:45","新北市林口區仁愛路一段380號","121.388201666667","25.0766733333333","6501700","林口區"
"244021","657-BX","2018/01/29 17:29:41","新北市林口區粉寮路60-16號","121.404336666667","25.089945","6501700","林口區"
"244025","837-TS","2018/01/29 17:29:40","新北市林口區民族路67-1號","121.36552","25.0751183333333","6501700","林口區"
"231046","278-BY","2018/01/29 17:29:36","新北市新店區直潭路92號","121.530906666667","24.9376283333333","6500600","新店區"
"241009","060-VK","2018/01/29 17:29:40","新北市三重區車路頭街135-1號","121.484213333333","25.0759966666667","6500200","三重區"
"241015","062-VK","2018/01/29 17:29:42","新北市三重區長元街65巷16弄15號","121.50352","25.066195","6500200","三重區"
"241017","063-VK","2018/01/29 17:29:33","新北市三重區重新路三段45-5號","121.49334","25.06181","6500200","三重區"
"241024","065-VK","2018/01/29 17:29:30","新北市三重區中正北路191巷3弄10號","121.478045","25.06979","6500200","三重區"
"241026","066-VK","2018/01/29 17:29:28","新北市三重區文化南路42號","121.500393333333","25.06026","6500200","三重區"
"241002","090-VK","2018/01/29 17:29:39","新北市三重區集賢路87-1號","121.493698333333","25.0868983333333","6500200","三重區"
"241003","091-VK","2018/01/29 17:29:37","新北市三重區富福街7號","121.490098333333","25.0831633333333","6500200","三重區"
"241025","156-TC","2018/01/29 17:29:25","新北市三重區三民街324號","121.476741666667","25.0692116666667","6500200","三重區"
"241005","262-UM","2018/01/29 17:29:24","新北市三重區永安北路二段37號","121.482411666667","25.0823433333333","6500200","三重區"
"241016","266-UM","2018/01/29 17:29:35","新北市三重區大同北路54巷1號","121.494178333333","25.0635583333333","6500200","三重區"
"241018","268-UM","2018/01/29 17:29:35","新北市三重區自強路一段167號","121.493038333333","25.0672716666667","6500200","三重區"
"241032","269-UM","2018/01/29 17:29:27","新北市三重區名源街31號","121.481848333333","25.0605033333333","6500200","三重區"
"241013","270-UM","2018/01/29 17:29:41","新北市三重區成功路20巷12-3號","121.489855","25.04871","6500200","三重區"
"241007","398-BY","2018/01/29 17:29:36","新北市三重區慈愛街10號","121.484595","25.0785016666667","6500200","三重區"
"241020","413-TH","2018/01/29 17:29:35","新北市三重區忠孝路一段115號","121.488996666667","25.0720883333333","6500200","三重區"
"241019","478-VK","2018/01/29 17:29:38","新北市三重區自強路二段40巷1號","121.488908333333","25.0693916666667","6500200","三重區"
"241030","480-VK","2018/01/29 17:29:27","新北市三重區新興路55號","121.491296666667","25.053825","6500200","三重區"
"241014","543-UM","2018/01/29 17:29:31","新北市三重區安和路17號","121.50144","25.06844","6500200","三重區"
"241023","545-UM","2018/01/29 17:29:36","新北市三重區三民街146巷3弄2號","121.48165","25.0646516666667","6500200","三重區"
"241022","887-TS","2018/01/29 17:29:45","新北市三重區重陽路二段59號","121.487345","25.0635433333333","6500200","三重區"
"241012","941-UM","2018/01/29 17:29:26","新北市三重區公園街23號","121.498863333333","25.0740416666667","6500200","三重區"
"241033","AAC-255","2018/01/29 17:29:36","新北市三重區興德路133號","121.470085","25.0530616666667","6500200","三重區"
"247022","893-R6","2018/01/29 17:29:31","新北市蘆洲區三民路296號","121.466836666667","25.090495","6501400","蘆洲區"
"247012","546-UM","2018/01/29 17:29:43","新北市蘆洲區民族路94號","121.478076666667","25.085085","6501400","蘆洲區"
"247020","500-BY","2018/01/29 17:29:37","新北市蘆洲區仁愛街101巷9號","121.470553333333","25.0939716666667","6501400","蘆洲區"
"247008","341-TH","2018/01/29 17:29:35","新北市蘆洲區信義路34巷44號","121.475003333333","25.0782033333333","6501400","蘆洲區"
"247010","339-TH","2018/01/29 17:29:46","新北市蘆洲區信義路126號","121.47978","25.08253","6501400","蘆洲區"
"247002","337-TH","2018/01/29 17:29:29","新北市蘆洲區永樂街38巷57弄22號","121.45736","25.0906833333333","6501400","蘆洲區"
"247004","336-TH","2018/01/29 17:29:40","新北市蘆洲區長安街231號","121.459333333333","25.0828233333333","6501400","蘆洲區"
"247006","056-VK","2018/01/29 17:29:08","新北市蘆洲區長安街22巷31弄17號","121.464118333333","25.0803916666667","6501400","蘆洲區"
"247016","053-VK","2018/01/29 17:29:33","新北市蘆洲區光華路22巷25號","121.468655","25.084285","6501400","蘆洲區"
"247014","007-UY","2018/01/29 17:29:38","新北市蘆洲區三民路33號","121.475435","25.08302","6501400","蘆洲區"
"247024","002-UY","2018/01/29 17:29:40","新北市蘆洲區長興路389號","121.461166666667","25.09168","6501400","蘆洲區"
"247018","001-UY","2018/01/29 17:29:38","新北市蘆洲區民權路93號","121.472926666667","25.0889633333333","6501400","蘆洲區"
"228003","097-TW","2018/01/29 17:29:29","新北市貢寮區仁理村研海街62-2號","121.925578333333","25.045465","6502600","貢寮區"
"228002","663-BX","2018/01/29 17:29:42","新北市貢寮區福隆里福隆街12號","121.944871666667","25.016275","6502600","貢寮區"
"228001","670-TC","2018/01/29 17:29:34","新北市貢寮區仁理村仁愛路39號","121.92514","25.0533433333333","6502600","貢寮區"
"224010","AGQ-8101","2018/01/29 17:29:33","新北市瑞芳區逢甲路105號","121.80804","25.1089433333333","6501200","瑞芳區"
"224006","676-BX","2018/01/29 17:29:42","新北市瑞芳區傑魚坑路181-3號","121.788671666667","25.1084983333333","6501200","瑞芳區"
"224009","285-BY","2018/01/29 17:29:46","新北市瑞芳區汽車路9-13號","121.845866666667","25.1110466666667","6501200","瑞芳區"
"224008","275-VK","2018/01/29 17:29:46","新北市瑞芳區九芎橋路13號","121.832696666667","25.0924833333333","6501200","瑞芳區"
"227001","400-TW","2018/01/29 17:29:33","新北市雙溪區平林里外平林72號","121.844223333333","25.0331133333333","6502500","雙溪區"
"251009","008-UM","2018/01/29 17:29:29","新北市淡水區新生街90巷3號","121.43955","25.1745133333333","6501000","淡水區"
"251004","009-UM","2018/01/29 17:29:40","新北市淡水區中正東路二段88巷15號","121.459133333333","25.1504816666667","6501000","淡水區"
"251005","010-UM","2018/01/29 17:29:40","新北市淡水區鄧公路31巷3號","121.451411666667","25.1708233333333","6501000","淡水區"
"251013","179-VK","2018/01/29 17:29:39","新北市淡水區大竹圍5號","121.466568333333","25.1952233333333","6501000","淡水區"
"251014","180-VK","2018/01/29 17:29:37","新北市淡水區公埔子20-8號","121.469381666667","25.2282783333333","6501000","淡水區"
"251008","181-VK","2018/01/29 17:29:44","新北市淡水區大同路120巷18號","121.463021666667","25.13964","6501000","淡水區"
"251015","182-VK","2018/01/29 17:29:31","新北市淡水區三空泉17-2號","121.47371","25.1655283333333","6501000","淡水區"
"251010","413-VK","2018/01/29 17:29:36","新北市淡水區中正路二段211號","121.426181666667","25.1891083333333","6501000","淡水區"
"251012","441-VK","2018/01/29 17:29:44","新北市淡水區北新路111號","121.448158333333","25.1784416666667","6501000","淡水區"
"251016","442-VK","2018/01/29 17:29:38","新北市淡水區埤島72號","121.455403333333","25.1930983333333","6501000","淡水區"
"251006","561-UM","2018/01/29 17:29:43","新北市淡水區大仁街33號","121.442641666667","25.1755416666667","6501000","淡水區"
"251007","577-R6","2018/01/29 17:29:36","新北市淡水區民生路47-4號","121.462085","25.1380183333333","6501000","淡水區"
"251011","650-BX","2018/01/29 17:29:30","新北市淡水區坪頂路712號","121.482493333333","25.1585683333333","6501000","淡水區"
"251002","672-BX","2018/01/29 17:29:40","新北市淡水區中正路437號","121.432046666667","25.17474","6501000","淡水區"
"251003","766-UM","2018/01/29 17:29:42","新北市淡水區真理街4號","121.438393333333","25.17293","6501000","淡水區"
"207003","550-UM","2018/01/29 17:29:29","新北市萬里區龜吼里日光路6巷16號","121.683551666667","25.1862866666667","6502800","萬里區"
"207004","225-TW","2018/01/29 17:29:39","新北市萬里區萬里里景美路6-1號","121.68393","25.1725983333333","6502800","萬里區"
"252002","178-VK","2018/01/29 17:29:27","新北市三芝區忠孝街1-14號","121.505403333333","25.2539316666667","6502100","三芝區"
"252001","292-VK","2018/01/29 17:29:42","新北市三芝區長安街119號","121.498013333333","25.2597116666667","6502100","三芝區"
"237015","649-BX","2018/01/29 17:25:20","新北市三峽區中山路459巷163-3號","121.349026666667","24.93244","6500900","三峽區"
"242031","AAC-296","2018/01/29 17:29:44","新北市新莊區新泰路401巷29號","121.442561666667","25.0438866666667","6500500","新莊區"
"242029","986-R7","2018/01/29 17:29:25","新北市新莊區思源路331號","121.459655","25.0496266666667","6500500","新莊區"
"242025","615-BX","2018/01/29 17:29:27","新北市新莊區中港路268號","121.453236666667","25.04394","6500500","新莊區"
"242023","613-BX","2018/01/29 17:29:33","新北市新莊區公園路41號","121.453215","25.0401866666667","6500500","新莊區"
"242027","612-BX","2018/01/29 17:29:39","新北市新莊區思源路51號","121.460116666667","25.0401166666667","6500500","新莊區"
"242039","566-BX","2018/01/29 17:29:32","新北市新莊區民安路262號","121.427363333333","25.0211866666667","6500500","新莊區"
"242044","442-UM","2018/01/29 17:29:37","新北市新莊區富國路53號","121.419471666667","25.0262","6500500","新莊區"
"242053","440-UM","2018/01/29 17:29:39","新北市新莊區瓊林南路305巷5弄2號","121.435038333333","25.0054366666667","6500500","新莊區"
"242034","415-TV","2018/01/29 17:29:29","新北市新莊區新莊路364號","121.449568333333","25.03348","6500500","新莊區"
"242004","413-TV","2018/01/29 17:29:38","新北市新莊區中港路276號","121.453148333333","25.0441","6500500","新莊區"
"242042","400-BY","2018/01/29 17:29:31","新北市新莊區新樹路52-33號","121.434901666667","25.02672","6500500","新莊區"
"242060","362-BY","2018/01/29 17:29:45","新北市新莊區瓊林南路8號","121.437506666667","25.020045","6500500","新莊區"
"242058","353-BY","2018/01/29 17:29:36","新北市新莊區中正路510-1號","121.434481666667","25.0326966666667","6500500","新莊區"
"242007","132-UY","2018/01/29 17:29:43","新北市新莊區自強街30號","121.4548","25.0461716666667","6500500","新莊區"
"242036","133-UY","2018/01/29 17:29:44","新北市新莊區建國二路5-3號","121.434833333333","25.02368","6500500","新莊區"
"242021","135-UY","2018/01/29 17:29:43","新北市新莊區中正路136號","121.452363333333","25.03626","6500500","新莊區"
"242046","172-VK","2018/01/29 17:29:28","新北市新莊區新樹路65-4號","121.439601666667","25.0311016666667","6500500","新莊區"
"242009","173-VK","2018/01/29 17:29:40","新北市新莊區中原路185-1號","121.45297","25.0543666666667","6500500","新莊區"
"242015","175-VK","2018/01/29 17:29:31","新北市新莊區新泰路218號","121.44672","25.0389633333333","6500500","新莊區"
"242002","176-VK","2018/01/29 17:29:41","新北市新莊區新莊路211號","121.455281666667","25.035455","6500500","新莊區"
"242013","346-TH","2018/01/29 17:29:28","新北市新莊區中誠街14號","121.452026666667","25.0482766666667","6500500","新莊區"
"242050","347-TH","2018/01/29 17:29:28","新北市新莊區瓊林南路73號","121.435235","25.0155916666667","6500500","新莊區"
"242019","348-TH","2018/01/29 17:29:42","新北市新莊區中港路72號","121.45549","25.0389383333333","6500500","新莊區"
"242056","349-TH","2018/01/29 17:29:41","新北市新莊區景德路408號","121.444911666667","25.03332","6500500","新莊區"
"242017","350-TH","2018/01/29 17:29:31","新北市新莊區復興路一段187號","121.451646666667","25.04366","6500500","新莊區"
"242011","351-TH","2018/01/29 17:29:40","新北市新莊區中港路408號","121.452156666667","25.050135","6500500","新莊區"
"238015","755-BX","2018/01/29 17:29:42","新北市樹林區大安路267號","121.419071666667","24.9937316666667","6500700","樹林區"
"238023","601-UM","2018/01/29 17:29:24","新北市樹林區中正路433-2號","121.414983333333","25.0082666666667","6500700","樹林區"
"238019","599-UM","2018/01/29 17:29:36","新北市樹林區太平路117號","121.419185","24.9808233333333","6500700","樹林區"
"238018","571-TV","2018/01/29 17:29:32","新北市樹林區鎮前街181號","121.421758333333","24.9869016666667","6500700","樹林區"
"238024","5061-A6","2018/01/29 17:29:37","新北市樹林區中華路3號","121.424746666667","24.9839083333333","6500700","樹林區"
"238021","KEA-2217","2018/01/29 17:29:34","新北市樹林區民權街46號","121.399246666667","24.9599666666667","6500700","樹林區"
"238022","KEA-2213","2018/01/29 17:29:41","新北市樹林區仁愛街69號","121.423243333333","24.98257","6500700","樹林區"
"238025","303-VK","2018/01/29 17:29:37","新北市樹林區保安街一段402號","121.416911666667","24.9992683333333","6500700","樹林區"
"238017","283-BY","2018/01/29 17:29:42","新北市樹林區中正路248巷16號","121.418216666667","25.007845","6500700","樹林區"
"238014","282-BY","2018/01/29 17:29:38","新北市樹林區長壽街84號","121.420038333333","24.9957583333333","6500700","樹林區"
"238020","268-VK","2018/01/29 17:29:42","新北市樹林區中正路22-1號","121.427928333333","24.99932","6500700","樹林區"
"238026","172-UY","2018/01/29 17:29:26","新北市樹林區中山路三段41巷8-1號","121.401461666667","24.9747383333333","6500700","樹林區"
"238016","169-UY","2018/01/29 17:29:31","新北市樹林區長壽街28巷2弄1號","121.423183333333","24.994235","6500700","樹林區"
"239007","AAC-297","2018/01/29 17:29:40","新北市鶯歌區仁愛路17號","121.35373","24.9561516666667","6500800","鶯歌區"
"239006","891-R6","2018/01/29 17:29:39","新北市鶯歌區鳳鳴路67號","121.334038333333","24.965665","6500800","鶯歌區"
"239008","527-UM","2018/01/29 17:29:45","新北市鶯歌區大湖路532號","121.33743","24.97246","6500800","鶯歌區"
"239005","526-UM","2018/01/29 17:29:36","新北市鶯歌區福德一路6號","121.330406666667","24.9672233333333","6500800","鶯歌區"
"239001","417-VK","2018/01/29 17:29:33","新北市鶯歌區中正三路79號","121.338591666667","24.94114","6500800","鶯歌區"
"239003","360-BY","2018/01/29 17:29:28","新北市鶯歌區德昌街179號","121.331446666667","24.9606216666667","6500800","鶯歌區"
"239002","359-BY","2018/01/29 17:29:40","新北市鶯歌區南雅路432號","121.34707","24.9540683333333","6500800","鶯歌區"
"239004","193-VK","2018/01/29 17:29:33","新北市鶯歌區文化路417-5號","121.35299","24.94882","6500800","鶯歌區"
"221033","647-BX","2018/01/29 17:29:36","新北市汐止區汐萬路一段312號","121.65053","25.0753033333333","6501100","汐止區"
"242048","281-VK","2018/01/29 17:29:46","新北市新莊區龍安路257號","121.419848333333","25.0200366666667","6500500","新莊區"
