"lineid","car","time","location","longitude","latitude","cityid","cityname"
"234026","9371-KE","2018/01/29 17:39:47","新北市永和區中正路730號","121.515515","25.0100916666667","6500400","永和區"
"249005","172-UM","2018/01/29 17:39:31","新北市八里區荖阡坑路34號","121.402748333333","25.1297266666667","6502300","八里區"
"249001","173-UM","2018/01/29 17:39:51","新北市八里區龍米路二段157-1號","121.439991666667","25.1535766666667","6502300","八里區"
"249004","303-UY","2018/01/29 17:39:44","新北市八里區中山路一段157巷27號","121.413461666667","25.1576683333333","6502300","八里區"
"249002","305-UY","2018/01/29 17:39:51","新北市八里區頂寮二街121巷22號","121.446516666667","25.12808","6502300","八里區"
"249003","593-UM","2018/01/29 17:39:43","新北市八里區中山路二段233號","121.403166666667","25.1492216666667","6502300","八里區"
"248006","077-UY","2018/01/29 17:39:43","新北市五股區中興路二段83巷26-6號","121.460063333333","25.075095","6501500","五股區"
"232011","375-UM","2018/01/29 17:39:42","新北市坪林區九芎林19-5號","121.708221666667","24.92712","6502000","坪林區"
"244013","069-UM","2018/01/29 17:39:46","新北市林口區中正路555號","121.381146666667","25.0768616666667","6501700","林口區"
"244007","080-UY","2018/01/29 17:39:44","新北市林口區林口路272巷13號","121.386491666667","25.0846983333333","6501700","林口區"
"244019","402-UM","2018/01/29 17:39:50","新北市林口區文化一路一段105號","121.372906666667","25.071055","6501700","林口區"
"244009","410-SL","2018/01/29 17:39:37","新北市林口區中北三街126號","121.383856666667","25.084065","6501700","林口區"
"244023","483-VK","2018/01/29 17:39:41","新北市林口區興林路152巷24號","121.387671666667","25.0715816666667","6501700","林口區"
"244017","485-VK","2018/01/29 17:39:46","新北市林口區忠孝路407號","121.370436666667","25.07071","6501700","林口區"
"244011","656-BX","2018/01/29 17:39:45","新北市林口區佳林路146號","121.384233333333","25.07714","6501700","林口區"
"244021","657-BX","2018/01/29 17:39:41","新北市林口區東林街22號","121.395783333333","25.079145","6501700","林口區"
"244025","837-TS","2018/01/29 17:39:40","新北市林口區忠孝路308巷21號","121.367065","25.072065","6501700","林口區"
"231046","278-BY","2018/01/29 17:39:36","新北市新店區直潭路92號","121.530916666667","24.93763","6500600","新店區"
"241017","063-VK","2018/01/29 17:39:33","新北市三重區大同北路36號","121.494965","25.06247","6500200","三重區"
"241024","065-VK","2018/01/29 17:39:50","新北市三重區國道路一段58巷20號","121.481313333333","25.0720966666667","6500200","三重區"
"241026","066-VK","2018/01/29 17:39:48","新北市三重區中興南街80巷9號","121.471738333333","25.0435783333333","6500200","三重區"
"241003","091-VK","2018/01/29 17:39:37","新北市三重區環河北路三段396號","121.491831666667","25.09043","6500200","三重區"
"241005","262-UM","2018/01/29 17:39:44","新北市三重區碧華街37號","121.48439","25.08123","6500200","三重區"
"241016","266-UM","2018/01/29 17:39:35","新北市三重區正義北路49號","121.497378333333","25.0640766666667","6500200","三重區"
"241013","270-UM","2018/01/29 17:39:41","新北市五股區五工一路103號","121.45837","25.06959","6500200","三重區"
"241007","398-BY","2018/01/29 17:39:36","新北市三重區慈愛街89號","121.487446666667","25.0795116666667","6500200","三重區"
"241020","413-TH","2018/01/29 17:39:35","新北市三重區忠孝路二段34號","121.485825","25.0710666666667","6500200","三重區"
"241019","478-VK","2018/01/29 17:39:38","新北市三重區六張街241號","121.487833333333","25.0684283333333","6500200","三重區"
"241014","543-UM","2018/01/29 17:39:51","新北市三重區河邊北街72-6號","121.504465","25.06848","6500200","三重區"
"241023","545-UM","2018/01/29 17:39:36","新北市三重區中華路89號","121.48358","25.0629416666667","6500200","三重區"
"241024","743-BX","2018/01/29 17:39:43","新北市三重區國道路一段58巷20號","121.481256666667","25.072145","6500200","三重區"
"241033","AAC-255","2018/01/29 17:39:36","新北市三重區光復路一段49號","121.472115","25.0488483333333","6500200","三重區"
"247022","893-R6","2018/01/29 17:39:51","新北市蘆洲區民族路548巷33號","121.467468333333","25.0894683333333","6501400","蘆洲區"
"247012","546-UM","2018/01/29 17:39:43","新北市蘆洲區民權路21號","121.476198333333","25.086225","6501400","蘆洲區"
"247020","500-BY","2018/01/29 17:39:37","新北市蘆洲區民族路323號","121.4742","25.0914283333333","6501400","蘆洲區"
"247008","341-TH","2018/01/29 17:39:39","新北市蘆洲區民生街123號","121.47283","25.0789883333333","6501400","蘆洲區"
"247010","339-TH","2018/01/29 17:39:46","新北市蘆洲區中山一路86號","121.478315","25.0812633333333","6501400","蘆洲區"
"247002","337-TH","2018/01/29 17:39:49","新北市蘆洲區永平街32巷1號","121.458611666667","25.090955","6501400","蘆洲區"
"247004","336-TH","2018/01/29 17:39:40","新北市蘆洲區長安街249巷34號","121.45797","25.08272","6501400","蘆洲區"
"247006","056-VK","2018/01/29 17:39:48","新北市蘆洲區長安街22巷39弄21號","121.464266666667","25.0808816666667","6501400","蘆洲區"
"247016","053-VK","2018/01/29 17:39:33","新北市蘆洲區光華路68號","121.468186666667","25.0828283333333","6501400","蘆洲區"
"247014","007-UY","2018/01/29 17:39:40","新北市蘆洲區中正路18號","121.471435","25.0820883333333","6501400","蘆洲區"
"247024","002-UY","2018/01/29 17:39:40","新北市蘆洲區長樂路125-1號","121.462173333333","25.0880266666667","6501400","蘆洲區"
"247018","001-UY","2018/01/29 17:39:38","新北市蘆洲區民權路87-3號","121.472945","25.0887566666667","6501400","蘆洲區"
"228003","097-TW","2018/01/29 17:39:48","新北市貢寮區仁理村仁和路37號","121.923986666667","25.0539283333333","6502600","貢寮區"
"228002","663-BX","2018/01/29 17:39:42","新北市貢寮區福隆里外隆林街15-1號","121.958515","25.0041016666667","6502600","貢寮區"
"228001","670-TC","2018/01/29 17:39:34","新北市貢寮區仁理村仁愛路95-1號","121.9277","25.055435","6502600","貢寮區"
"224010","AGQ-8101","2018/01/29 17:39:50","新北市瑞芳區岳王路68號","121.809468333333","25.111215","6501200","瑞芳區"
"224006","676-BX","2018/01/29 17:39:50","新北市瑞芳區中山路265號","121.797201666667","25.109875","6501200","瑞芳區"
"224009","285-BY","2018/01/29 17:39:46","新北市瑞芳區烏勢巷131號","121.846586666667","25.1073083333333","6501200","瑞芳區"
"224008","275-VK","2018/01/29 17:39:38","新北市瑞芳區瑞柑新村2號","121.829141666667","25.106295","6501200","瑞芳區"
"227001","400-TW","2018/01/29 17:39:33","新北市雙溪區牡丹里聖南26號","121.856431666667","25.0533333333333","6502500","雙溪區"
"251009","008-UM","2018/01/29 17:39:49","新北市淡水區中正路38-1號","121.443723333333","25.1692766666667","6501000","淡水區"
"251004","009-UM","2018/01/29 17:39:40","新北市淡水區中正東路二段88巷37-23號","121.459385","25.1435116666667","6501000","淡水區"
"251005","010-UM","2018/01/29 17:39:40","新北市淡水區鄧公路33巷7號","121.451698333333","25.17106","6501000","淡水區"
"251013","179-VK","2018/01/29 17:39:39","新北市淡水區演戲埔腳2號","121.475235","25.1926233333333","6501000","淡水區"
"251014","180-VK","2018/01/29 17:39:40","新北市淡水區水碓25巷10號","121.478746666667","25.224295","6501000","淡水區"
"251008","181-VK","2018/01/29 17:39:44","新北市淡水區八勢路50巷21弄3號","121.462593333333","25.1504216666667","6501000","淡水區"
"251015","182-VK","2018/01/29 17:39:51","新北市淡水區糞箕湖21號","121.4855","25.1709483333333","6501000","淡水區"
"251010","413-VK","2018/01/29 17:39:36","新北市淡水區淡海路280巷33弄34-2號","121.418733333333","25.1886233333333","6501000","淡水區"
"251012","441-VK","2018/01/29 17:39:44","新北市淡水區北新路200巷8號","121.451776666667","25.1797383333333","6501000","淡水區"
"251016","442-VK","2018/01/29 17:39:38","新北市淡水區埤島39-15號","121.452761666667","25.195905","6501000","淡水區"
"251001","559-UM","2018/01/29 17:39:39","新北市淡水區自強路201巷35號","121.462331666667","25.126745","6501000","淡水區"
"251006","561-UM","2018/01/29 17:39:43","新北市淡水區大信街24巷2號","121.441956666667","25.1767016666667","6501000","淡水區"
"251007","577-R6","2018/01/29 17:39:36","新北市淡水區民生路124巷6號","121.463856666667","25.1380616666667","6501000","淡水區"
"251011","650-BX","2018/01/29 17:39:50","新北市淡水區小坪頂13-3號","121.486591666667","25.1561666666667","6501000","淡水區"
"251002","672-BX","2018/01/29 17:39:40","新北市淡水區清水街250號","121.440578333333","25.172285","6501000","淡水區"
"251003","766-UM","2018/01/29 17:39:42","新北市淡水區中山北路一段52號","121.441821666667","25.1756433333333","6501000","淡水區"
"207003","550-UM","2018/01/29 17:39:48","新北市萬里區龜吼里漁澳路10號","121.686221666667","25.1947016666667","6502800","萬里區"
"207004","225-TW","2018/01/29 17:39:39","新北市萬里區中幅里中福路8-1號","121.685691666667","25.1645783333333","6502800","萬里區"
"252002","178-VK","2018/01/29 17:39:47","新北市三芝區中正路二段22號","121.50436","25.255095","6502100","三芝區"
"252001","292-VK","2018/01/29 17:39:42","新北市三芝區育英街1號","121.501718333333","25.2588116666667","6502100","三芝區"
"237008","302-VK","2018/01/29 17:39:53","新北市三峽區中山路281號","121.36199","24.937585","6500900","三峽區"
"237015","649-BX","2018/01/29 17:25:20","新北市三峽區中山路459巷163-3號","121.349026666667","24.93244","6500900","三峽區"
"237010","706-TV","2018/01/29 17:39:50","新北市三峽區中山路138-1號","121.365135","24.9361566666667","6500900","三峽區"
"236042","107-UM","2018/01/29 17:39:40","新北市土城區城林路6巷80號","121.43848","24.9796966666667","6501300","土城區"
"236078","166-UM","2018/01/29 17:39:43","新北市土城區城林路6巷80號","121.438573333333","24.9796566666667","6501300","土城區"
"236014","270-VK","2018/01/29 17:39:48","新北市土城區城林路6巷80號","121.438485","24.9797833333333","6501300","土城區"
"242031","AAC-296","2018/01/29 17:39:44","新北市新莊區新泰路361巷21號","121.442621666667","25.0429716666667","6500500","新莊區"
"242029","986-R7","2018/01/29 17:39:45","新北市新莊區復興路二段96號","121.456205","25.04423","6500500","新莊區"
"242025","615-BX","2018/01/29 17:39:47","新北市新莊區思源路118號","121.460146666667","25.0469283333333","6500500","新莊區"
"242023","613-BX","2018/01/29 17:39:33","新北市新莊區公園路129-5號","121.45745","25.0409016666667","6500500","新莊區"
"242027","612-BX","2018/01/29 17:39:51","新北市新莊區福壽街114號","121.458011666667","25.0507233333333","6500500","新莊區"
"242039","566-BX","2018/01/29 17:39:52","新北市新莊區民安東路41號","121.429006666667","25.0209683333333","6500500","新莊區"
"242044","442-UM","2018/01/29 17:39:37","新北市新莊區中正路871巷9弄6號","121.41882","25.0270066666667","6500500","新莊區"
"242053","440-UM","2018/01/29 17:39:39","新北市新莊區新樹路699巷16號","121.432503333333","25.0018466666667","6500500","新莊區"
"242034","415-TV","2018/01/29 17:39:49","新北市新莊區新莊路619號","121.445733333333","25.03288","6500500","新莊區"
"242004","413-TV","2018/01/29 17:39:48","新北市新莊區自立街180號","121.45605","25.0455216666667","6500500","新莊區"
"242042","400-BY","2018/01/29 17:39:51","新北市新莊區中正路514號","121.429688333333","25.035285","6500500","新莊區"
"242060","362-BY","2018/01/29 17:39:46","新北市新莊區瓊林南路211號","121.434485","25.0091383333333","6500500","新莊區"
"242058","353-BY","2018/01/29 17:39:36","新北市新莊區中正路715-1號","121.424511666667","25.029605","6500500","新莊區"
"242007","132-UY","2018/01/29 17:39:43","新北市新莊區福樂街69號","121.457111666667","25.0477833333333","6500500","新莊區"
"242036","133-UY","2018/01/29 17:39:44","新北市新莊區建福路59巷43號","121.428535","25.02784","6500500","新莊區"
"242021","135-UY","2018/01/29 17:39:43","新北市新莊區中華路一段118號","121.452556666667","25.0405883333333","6500500","新莊區"
"242046","172-VK","2018/01/29 17:39:48","新北市新莊區中正路589號","121.434123333333","25.0323666666667","6500500","新莊區"
"242009","173-VK","2018/01/29 17:39:40","新北市新莊區昌明街14巷3弄1號","121.457326666667","25.0529316666667","6500500","新莊區"
"242015","175-VK","2018/01/29 17:39:51","新北市新莊區新泰路406巷2弄1號","121.444428333333","25.043965","6500500","新莊區"
"242002","176-VK","2018/01/29 17:39:41","新北市新莊區新莊路282號","121.451498333333","25.0338516666667","6500500","新莊區"
"242013","346-TH","2018/01/29 17:39:48","新北市新莊區中誠街97號","121.449951666667","25.047725","6500500","新莊區"
"242050","347-TH","2018/01/29 17:39:48","新北市新莊區西盛街216號","121.428055","25.0174083333333","6500500","新莊區"
"242019","348-TH","2018/01/29 17:39:42","新北市新莊區中港路203號","121.454865","25.04191","6500500","新莊區"
"242056","349-TH","2018/01/29 17:39:41","新北市新莊區瓊林路13-2號","121.449126666667","25.03126","6500500","新莊區"
"242017","350-TH","2018/01/29 17:39:51","新北市新莊區復興路一段149巷21弄23號","121.449028333333","25.0438483333333","6500500","新莊區"
"242011","351-TH","2018/01/29 17:39:49","新北市新莊區中原路90號","121.451168333333","25.0544","6500500","新莊區"
"238015","755-BX","2018/01/29 17:39:42","新北市樹林區啟智街36號","121.420631666667","24.993165","6500700","樹林區"
"238023","601-UM","2018/01/29 17:39:50","新北市樹林區三福街46號","121.407601666667","25.0164066666667","6500700","樹林區"
"238019","599-UM","2018/01/29 17:39:52","新北市樹林區太順街5巷2號","121.420341666667","24.979975","6500700","樹林區"
"238018","571-TV","2018/01/29 17:39:32","新北市樹林區鎮前街18號","121.426118333333","24.9930983333333","6500700","樹林區"
"238024","5061-A6","2018/01/29 17:39:36","新北市樹林區八德街67號","121.399298333333","24.969295","6500700","樹林區"
"238021","KEA-2217","2018/01/29 17:39:34","新北市樹林區佳園路二段143號","121.390086666667","24.9576316666667","6500700","樹林區"
"238022","KEA-2213","2018/01/29 17:39:41","新北市樹林區中華路185-2號","121.420233333333","24.981775","6500700","樹林區"
"238025","303-VK","2018/01/29 17:39:46","新北市樹林區保安街三段55號","121.412566666667","25.0113066666667","6500700","樹林區"
"238017","283-BY","2018/01/29 17:39:47","新北市樹林區中正路438號","121.413603333333","25.011725","6500700","樹林區"
"238014","282-BY","2018/01/29 17:39:38","新北市樹林區保安街一段327-2號","121.417561666667","24.9984566666667","6500700","樹林區"
"238020","268-VK","2018/01/29 17:39:42","新北市樹林區俊英街102號","121.42761","25.0052266666667","6500700","樹林區"
"238026","172-UY","2018/01/29 17:39:06","新北市樹林區新興街19巷36弄9號","121.40254","24.9732266666667","6500700","樹林區"
"238016","169-UY","2018/01/29 17:39:11","新北市樹林區育英街159號","121.419048333333","24.989265","6500700","樹林區"
"239007","AAC-297","2018/01/29 17:39:39","新北市鶯歌區永明街93號","121.34147","24.9562833333333","6500800","鶯歌區"
"239006","891-R6","2018/01/29 17:39:38","新北市鶯歌區鶯桃路512號","121.331788333333","24.96644","6500800","鶯歌區"
"239008","527-UM","2018/01/29 17:39:45","桃園市龜山區宏德司法新村6號","121.33155","24.97891","6500800","鶯歌區"
"239005","526-UM","2018/01/29 17:39:35","桃園市桃園區大仁路103號","121.323443333333","24.9710666666667","6500800","鶯歌區"
"239001","417-VK","2018/01/29 17:39:33","新北市鶯歌區中正三路186號","121.333063333333","24.938245","6500800","鶯歌區"
"239003","360-BY","2018/01/29 17:39:27","新北市鶯歌區鶯桃路297-1號","121.334455","24.9604933333333","6500800","鶯歌區"
"239002","359-BY","2018/01/29 17:39:40","新北市鶯歌區南雅路439號","121.346918333333","24.9541483333333","6500800","鶯歌區"
"239004","193-VK","2018/01/29 17:39:53","新北市鶯歌區三鶯路100號","121.359","24.94382","6500800","鶯歌區"
"221010","269-BY","2018/01/29 17:39:33","新北市汐止區汐萬路一段418巷1弄1號","121.650578333333","25.078165","6501100","汐止區"
"221023","279-VK","2018/01/29 17:39:34","新北市汐止區康寧街901號","121.651693333333","25.07496","6501100","汐止區"
"221032","280-BY","2018/01/29 17:39:47","新北市汐止區康寧街861巷1號","121.645431666667","25.0759483333333","6501100","汐止區"
"221021","299-VK","2018/01/29 17:39:35","新北市汐止區康寧街901號","121.651448333333","25.0750583333333","6501100","汐止區"
"221031","353-TW","2018/01/29 17:39:42","新北市汐止區康寧街901號","121.651748333333","25.07498","6501100","汐止區"
"221008","358-BY","2018/01/29 17:39:44","新北市汐止區康寧街901號","121.651413333333","25.0750316666667","6501100","汐止區"
"221033","647-BX","2018/01/29 17:39:36","新北市汐止區大同路一段146巷18號","121.632265","25.05319","6501100","汐止區"
"221018","753-BX","2018/01/29 17:39:43","新北市汐止區汐萬路一段180號","121.652343333333","25.0717883333333","6501100","汐止區"
"242048","281-VK","2018/01/29 17:39:46","新北市新莊區萬安街153號","121.420278333333","25.021485","6500500","新莊區"
