"lineid","car","time","location","longitude","latitude","cityid","cityname"
"234046","148-BY","2018/01/29 18:39:34","新北市永和區永元路68號","121.5225","25.0016566666667","6500400","永和區"
"234007","207-UY","2018/01/29 18:39:52","新北市永和區環河西路二段179號","121.504415","25.0129166666667","6500400","永和區"
"234081","298-R6","2018/01/29 18:39:37","新北市永和區國中路2號","121.524313333333","25.0042916666667","6500400","永和區"
"234086","338-UY","2018/01/29 18:39:42","新北市永和區永貞路131號","121.516733333333","25.0042866666667","6500400","永和區"
"234030","746-BX","2018/01/29 18:39:51","新北市永和區得和路321號","121.52332","24.9996116666667","6500400","永和區"
"234013","KEA-2591","2018/01/29 18:39:45","新北市永和區保福路二段105號","121.510233333333","25.0133833333333","6500400","永和區"
"234061","AAD-866","2018/01/29 18:39:43","新北市永和區豫溪街217巷21號","121.524795","25.0102166666667","6500400","永和區"
"234042","862-TW","2018/01/29 18:39:41","新北市永和區永貞路308號","121.51189","25.004895","6500400","永和區"
"234026","9371-KE","2018/01/29 18:39:47","新北市永和區永貞路417巷7號","121.506968333333","25.009185","6500400","永和區"
"234011","9373-KE","2018/01/29 18:39:46","新北市永和區文化路9巷22弄36號","121.514405","25.0146183333333","6500400","永和區"
"249005","172-UM","2018/01/29 18:39:31","新北市八里區中華路三段190號","121.388335","25.1259033333333","6502300","八里區"
"249001","173-UM","2018/01/29 18:39:51","新北市八里區龍米路一段360號","121.45166","25.1313283333333","6502300","八里區"
"249004","303-UY","2018/01/29 18:39:44","新北市八里區忠四街16號","121.42483","25.15994","6502300","八里區"
"249002","305-UY","2018/01/29 18:39:51","新北市八里區龍形一街12巷10號","121.449885","25.1308233333333","6502300","八里區"
"248014","025-BX","2018/01/29 18:39:31","新北市五股區成泰路一段235-2號","121.436241666667","25.0794733333333","6501500","五股區"
"248016","026-BX","2018/01/29 18:39:52","新北市五股區凌雲路一段149巷9號","121.448815","25.101505","6501500","五股區"
"248008","095-VK","2018/01/29 18:39:51","新北市五股區中興路一段155號","121.465053333333","25.0736333333333","6501500","五股區"
"248018","225-UY","2018/01/29 18:38:14","新北市五股區民義路二段122號","121.404505","25.11384","6501500","五股區"
"248012","247-BX","2018/01/29 18:39:46","新北市五股區成泰路三段43-7號","121.442511666667","25.0891183333333","6501500","五股區"
"248004","677-BX","2018/01/29 18:39:46","新北市五股區民義路一段310號","121.424541666667","25.0937516666667","6501500","五股區"
"248002","678-BX","2018/01/29 18:39:42","新北市五股區成泰路三段319-1號","121.44764","25.0954183333333","6501500","五股區"
"248010","682-TV","2018/01/29 18:39:38","新北市五股區明德路6號","121.433908333333","25.071285","6501500","五股區"
"234023","9380-KE","2018/01/29 18:39:34","新北市永和區福和路10巷1號","121.524568333333","25.008665","6500400","永和區"
"234077","969-R7","2018/01/29 18:39:48","新北市永和區中正路59號","121.51475","24.996375","6500400","永和區"
"234067","AAC-212","2018/01/29 18:39:43","新北市永和區福和路284號","121.517605","25.007445","6500400","永和區"
"232011","375-UM","2018/01/29 18:39:42","新北市坪林區坪雙路一段43號","121.711678333333","24.9424533333333","6502000","坪林區"
"244013","069-UM","2018/01/29 18:39:46","新北市林口區中正路512號","121.381756666667","25.077175","6501700","林口區"
"244007","080-UY","2018/01/29 18:39:37","新北市林口區後湖56號","121.384298333333","25.10121","6501700","林口區"
"244019","402-UM","2018/01/29 18:39:30","新北市林口區忠孝路622巷3弄1號","121.377763333333","25.0676233333333","6501700","林口區"
"244009","410-SL","2018/01/29 18:39:37","新北市林口區文林一街20號","121.376926666667","25.08581","6501700","林口區"
"244023","483-VK","2018/01/29 18:39:34","新北市林口區文化二路二段88巷36號","121.379436666667","25.0808283333333","6501700","林口區"
"244017","485-VK","2018/01/29 18:39:46","新北市林口區文化二路一段156號","121.368448333333","25.0714566666667","6501700","林口區"
"244011","656-BX","2018/01/29 18:39:45","新北市林口區興林路17巷3弄2號","121.390326666667","25.0770233333333","6501700","林口區"
"244021","657-BX","2018/01/29 18:39:41","新北市林口區工六路74號","121.40018","25.07734","6501700","林口區"
"244025","837-TS","2018/01/29 18:39:40","新北市林口區南勢街221巷26號","121.357665","25.0754266666667","6501700","林口區"
"243012","AAD-798","2018/01/29 18:39:37","新北市泰山區福興三街13號","121.434451666667","25.05779","6501600","泰山區"
"243010","KEA-2215","2018/01/29 18:39:38","新北市泰山區黎明路31號","121.421726666667","25.0608133333333","6501600","泰山區"
"243009","KEA-2216","2018/01/29 18:39:53","新北市泰山區黎明路31號","121.421418333333","25.0606933333333","6501600","泰山區"
"243013","646-TV","2018/01/29 18:39:38","新北市泰山區明志路三段206巷3號","121.423281666667","25.0379133333333","6501600","泰山區"
"243016","680-BX","2018/01/29 18:39:45","新北市泰山區黎明路17號","121.420858333333","25.06295","6501600","泰山區"
"222003","016-RS","2018/01/29 18:39:36","新北市深坑區翠谷街41號","121.626775","25.009435","6501800","深坑區"
"222002","659-BX","2018/01/29 18:39:40","新北市深坑區文山路一段62巷10號","121.621785","25.0008733333333","6501800","深坑區"
"231041","002-UM","2018/01/29 18:39:35","新北市新店區安華路28-1號","121.519855","24.96072","6500600","新店區"
"231061","047-UY","2018/01/29 18:39:46","新北市新店區安華路28-1號","121.519243333333","24.9608983333333","6500600","新店區"
"231060","106-UY","2018/01/29 18:39:50","新北市新店區安華路28-1號","121.519633333333","24.96082","6500600","新店區"
"231051","107-UY","2018/01/29 18:39:40","新北市新店區環河路120號","121.536628333333","24.9682333333333","6500600","新店區"
"231047","108-UY","2018/01/29 18:39:49","新北市新店區安康路一段89號","121.529118333333","24.961505","6500600","新店區"
"231052","110-UY","2018/01/29 18:39:42","新北市新店區新烏路一段58-2號","121.546101666667","24.94595","6500600","新店區"
"231050","KEA-2219","2018/01/29 18:39:37","新北市新店區安華路28-1號","121.519761666667","24.9613116666667","6500600","新店區"
"231057","256-BX","2018/01/29 18:39:43","新北市新店區新烏路一段215號","121.548821666667","24.931275","6500600","新店區"
"231046","278-BY","2018/01/29 18:39:36","新北市新店區直潭二街1號","121.53551","24.9431733333333","6500600","新店區"
"231054","AAD-862","2018/01/29 18:39:32","新北市新店區安華路28-1號","121.519751666667","24.9609883333333","6500600","新店區"
"231058","3712-VJ","2018/01/29 18:39:33","新北市新店區新店路13號","121.540308333333","24.95289","6500600","新店區"
"231056","3713-VJ","2018/01/29 18:39:49","新北市新店區自立街26號","121.538616666667","24.9783683333333","6500600","新店區"
"231055","4716-K9","2018/01/29 18:39:43","新北市新店區華興街42號","121.53693","24.9691666666667","6500600","新店區"
"231067","4772-VM","2018/01/29 18:39:37","新北市新店區安康路一段355-10號","121.520668333333","24.9638266666667","6500600","新店區"
"231065","512-UM","2018/01/29 18:39:49","新北市新店區安華路28-1號","121.519258333333","24.9610733333333","6500600","新店區"
"231064","515-UM","2018/01/29 18:39:51","新北市新店區安華路28-1號","121.519766666667","24.96093","6500600","新店區"
"231042","616-UM","2018/01/29 18:39:47","新北市新店區安華路1-1號","121.519456666667","24.9605083333333","6500600","新店區"
"231040","619-UM","2018/01/29 18:39:45","新北市新店區安康路一段355-3號","121.519815","24.9627033333333","6500600","新店區"
"231063","645-TV","2018/01/29 18:39:47","新北市新店區安華路28-1號","121.519341666667","24.9605866666667","6500600","新店區"
"231049","719-UM","2018/01/29 18:39:40","新北市新店區安康路一段85號","121.529371666667","24.9613516666667","6500600","新店區"
"231062","720-UM","2018/01/29 18:39:48","新北市新店區安華路28-1號","121.519135","24.96114","6500600","新店區"
"231044","897-TW","2018/01/29 18:39:31","新北市新店區北新路二段2號","121.542588333333","24.9706783333333","6500600","新店區"
"231045","898-TW","2018/01/29 18:39:39","新北市新店區安華路28-1號","121.51939","24.960835","6500600","新店區"
"231066","AKT-0513","2018/01/29 18:39:33","新北市新店區安華路1-1號","121.519628333333","24.9602333333333","6500600","新店區"
"241003","091-VK","2018/01/29 18:39:37","新北市三重區集賢路36號","121.493806666667","25.08742","6500200","三重區"
"241013","270-UM","2018/01/29 18:39:41","新北市三重區仁福街26號","121.496743333333","25.0745883333333","6500200","三重區"
"235066","003-UY","2018/01/29 18:39:38","新北市中和區水源路31號","121.504176666667","25.0035483333333","6500300","中和區"
"235064","005-UY","2018/01/29 18:39:48","新北市中和區連城路103號","121.496385","24.9997633333333","6500300","中和區"
"235063","031-BX","2018/01/29 18:39:40","新北市中和區連城路389巷10弄7號","121.486258333333","24.995595","6500300","中和區"
"235056","096-UM","2018/01/29 18:39:50","新北市中和區員山路611巷1號","121.477873333333","25.0112516666667","6500300","中和區"
"235039","097-UM","2018/01/29 18:39:48","新北市中和區安樂路217巷2號","121.514175","24.9991566666667","6500300","中和區"
"235065","098-UM","2018/01/29 18:39:35","新北市中和區莊敬路33巷36弄2號","121.500128333333","25.0063933333333","6500300","中和區"
"235040","150-BY","2018/01/29 18:39:39","新北市中和區保健路78號","121.511753333333","24.9964016666667","6500300","中和區"
"235058","151-BY","2018/01/29 18:39:45","新北市中和區圓通路320-18號","121.485568333333","24.9871","6500300","中和區"
"235055","183-VK","2018/01/29 18:39:39","新北市中和區中山路三段229巷43號","121.4694","25.00562","6500300","中和區"
"235038","185-VK","2018/01/29 18:39:46","新北市中和區立人街14巷52號","121.518436666667","24.9956483333333","6500300","中和區"
"235049","186-VK","2018/01/29 18:39:47","新北市中和區景平路502-2號","121.504066666667","24.9938783333333","6500300","中和區"
"235067","255-BX","2018/01/29 18:39:49","新北市中和區新生街11號","121.483176666667","25.0043466666667","6500300","中和區"
"235044","293-VK","2018/01/29 18:39:43","新北市中和區復興路280巷18弄6號","121.502316666667","24.9916866666667","6500300","中和區"
"235072","301-VK","2018/01/29 18:39:48","新北市中和區永和路1號","121.499883333333","25.00275","6500300","中和區"
"235043","352-BY","2018/01/29 18:39:46","新北市中和區景平路105號","121.51697","24.9918966666667","6500300","中和區"
"235068","377-QA","2018/01/29 18:39:47","新北市中和區中正路169號","121.498036666667","24.9935516666667","6500300","中和區"
"235061","378-QA","2018/01/29 18:39:42","新北市中和區民享街90巷4號","121.474503333333","25.000325","6500300","中和區"
"235050","4979-A6","2018/01/29 18:39:42","新北市中和區忠孝街105號","121.511976666667","24.9863683333333","6500300","中和區"
"235069","4980-A6","2018/01/29 18:39:36","新北市中和區連城路68-1號","121.497498333333","25.001415","6500300","中和區"
"235042","551-UM","2018/01/29 18:39:40","新北市中和區成功路97巷18弄1號","121.526806666667","24.9917633333333","6500300","中和區"
"235070","558-UM","2018/01/29 18:38:18","新北市中和區南華路73號","121.504985","24.997275","6500300","中和區"
"235045","565-BX","2018/01/29 18:39:48","新北市中和區南山路236巷30弄1號","121.505325","24.9885216666667","6500300","中和區"
"235054","640-BX","2018/01/29 18:39:39","新北市中和區民享街91巷8號","121.475203333333","25.0008683333333","6500300","中和區"
"235060","647-TV","2018/01/29 18:39:48","新北市中和區中山路二段570號","121.482993333333","25.0050683333333","6500300","中和區"
"235047","732-UM","2018/01/29 18:39:29","新北市中和區南山路320巷10弄21號","121.506831666667","24.986695","6500300","中和區"
"235046","733-UM","2018/01/29 18:39:35","新北市中和區捷運路3號","121.509658333333","24.9893233333333","6500300","中和區"
"235062","800-TS","2018/01/29 18:39:44","新北市中和區中山路二段312巷19號","121.495603333333","25.0036133333333","6500300","中和區"
"235041","802-TS","2018/01/29 18:39:35","新北市中和區宜安路166號","121.508976666667","24.999075","6500300","中和區"
"235052","805-TS","2018/01/29 18:39:32","新北市中和區興南路三段35號","121.49687","24.9781183333333","6500300","中和區"
"235048","896-TW","2018/01/29 18:39:41","新北市中和區南山路325號","121.50517","24.9912766666667","6500300","中和區"
"235053","900-TW","2018/01/29 18:39:32","新北市中和區莒光路222-8號","121.46889","24.9949583333333","6500300","中和區"
"235051","157-BY","2018/01/29 18:39:36","新北市中和區興南路二段114巷10弄12號","121.503986666667","24.98488","6500300","中和區"
"235037","AAC-213","2018/01/29 18:39:43","新北市中和區景德街91號","121.516073333333","24.991415","6500300","中和區"
"235059","AAC-215","2018/01/29 18:39:47","新北市中和區錦和路350-1號","121.490628333333","24.9935916666667","6500300","中和區"
"220068","013-TV","2018/01/29 18:39:43","新北市板橋區民生路二段120號","121.47036","25.0196283333333","6500100","板橋區"
"220065","072-UY","2018/01/29 18:39:45","新北市板橋區民族路247巷5弄42號","121.470233333333","25.0086016666667","6500100","板橋區"
"220086","073-UY","2018/01/29 18:39:42","新北市板橋區南雅南路二段92巷40號","121.452748333333","25.0023866666667","6500100","板橋區"
"226004","312-R5","2018/01/29 18:39:48","新北市平溪區平溪里三坑路35號","121.734993333333","25.0315316666667","6502400","平溪區"
"235057","251-BX","2018/01/29 18:39:37","新北市中和區員山路327巷92號","121.479388333333","25.0023616666667","6500300","中和區"
"228003","097-TW","2018/01/29 18:39:48","新北市貢寮區和美里龍洞街5-1號","121.91844","25.1118133333333","6502600","貢寮區"
"228002","663-BX","2018/01/29 18:39:42","新北市貢寮區福隆里東興街6-11號","121.950756666667","25.0210666666667","6502600","貢寮區"
"228001","670-TC","2018/01/29 18:39:34","新北市貢寮區仁理村保健街73號","121.92374","25.0516733333333","6502600","貢寮區"
"224006","676-BX","2018/01/29 18:39:42","新北市瑞芳區明燈路三段79號","121.805318333333","25.1082716666667","6501200","瑞芳區"
"224002","639-TC","2018/01/29 18:39:40","新北市瑞芳區三爪子坑路48號","121.810578333333","25.1056966666667","6501200","瑞芳區"
"224009","285-BY","2018/01/29 18:39:46","新北市瑞芳區祈堂路40號","121.85879","25.1104233333333","6501200","瑞芳區"
"224008","275-VK","2018/01/29 18:39:38","新北市瑞芳區逢甲路240號","121.80581","25.110255","6501200","瑞芳區"
"224007","273-VK","2018/01/29 18:39:43","新北市瑞芳區大埔路67巷3-1號","121.764491666667","25.1015333333333","6501200","瑞芳區"
"227008","642-TC","2018/01/29 18:39:50","新北市雙溪區牡丹里下坑11號","121.851013333333","25.056165","6502500","雙溪區"
"253005","032-BX","2018/01/29 18:39:44","新北市石門區中山路52號","121.566556666667","25.2903666666667","6502200","石門區"
"253006","295-VK","2018/01/29 18:39:51","新北市石門區楓林37-6號","121.540643333333","25.28979","6502200","石門區"
"222001","KEA-2212","2018/01/29 18:39:34","新北市深坑區北深路一段80號","121.636401666667","25.0106466666667","6501800","深坑區"
"208002","742-BX","2018/01/29 18:39:34","新北市金山區忠孝一路15巷11號","121.638435","25.2185466666667","6502700","金山區"
"208003","665-BX","2018/01/29 18:39:48","新北市金山區中山路393號","121.633401666667","25.2252483333333","6502700","金山區"
"208001","761-BX","2018/01/29 18:39:42","新北市金山區文化三路45號","121.63495","25.2248983333333","6502700","金山區"
"251004","009-UM","2018/01/29 18:39:40","新北市淡水區民權路41號","121.460121666667","25.1403116666667","6501000","淡水區"
"251013","179-VK","2018/01/29 18:39:38","新北市淡水區雲廣坑5-1號","121.474701666667","25.213165","6501000","淡水區"
"251014","180-VK","2018/01/29 18:39:37","新北市淡水區崙頂12-7號","121.496781666667","25.216765","6501000","淡水區"
"251008","181-VK","2018/01/29 18:39:44","新北市淡水區北投子73-1號","121.453391666667","25.182695","6501000","淡水區"
"251015","182-VK","2018/01/29 18:39:30","新北市淡水區興福寮66巷28號","121.486056666667","25.162625","6501000","淡水區"
"251010","413-VK","2018/01/29 18:39:36","新北市淡水區沙崙路124號","121.423468333333","25.18276","6501000","淡水區"
"251012","441-VK","2018/01/29 18:39:44","新北市淡水區北新路117號","121.449006666667","25.1784966666667","6501000","淡水區"
"251016","442-VK","2018/01/29 18:39:38","新北市淡水區下圭柔山76-8號","121.441468333333","25.205155","6501000","淡水區"
"251001","559-UM","2018/01/29 18:39:39","新北市淡水區自強路415巷2號","121.46553","25.1341916666667","6501000","淡水區"
"251006","561-UM","2018/01/29 18:39:43","新北市淡水區中山北路三段79號","121.444311666667","25.192455","6501000","淡水區"
"251011","650-BX","2018/01/29 18:39:30","新北市淡水區鄧公路20號","121.451426666667","25.16964","6501000","淡水區"
"251002","672-BX","2018/01/29 18:39:39","新北市淡水區中正東路一段3巷14弄1號","121.45086","25.16413","6501000","淡水區"
"251003","766-UM","2018/01/29 18:39:42","新北市淡水區北新路69巷26號","121.446835","25.1800533333333","6501000","淡水區"
"207003","550-UM","2018/01/29 18:39:48","新北市萬里區野柳里八斗60-1號","121.675761666667","25.2009933333333","6502800","萬里區"
"207004","225-TW","2018/01/29 18:39:39","新北市萬里區萬里里獅頭路7號","121.692026666667","25.17836","6502800","萬里區"
"252002","178-VK","2018/01/29 18:39:47","新北市三芝區民生街52號","121.50366","25.25573","6502100","三芝區"
"252003","249-BX","2018/01/29 18:39:37","新北市三芝區後厝里土地公坑999號","121.464596666667","25.24909","6502100","三芝區"
"252001","292-VK","2018/01/29 18:39:42","新北市三芝區中興街二段260號","121.501086666667","25.2536483333333","6502100","三芝區"
"237007","153-BY","2018/01/29 18:39:41","新北市三峽區柑樹路2巷3號","121.362243333333","24.9055783333333","6500900","三峽區"
"237013","252-BX","2018/01/29 18:39:43","新北市三峽區光明路69巷25號","121.376691666667","24.9292","6500900","三峽區"
"237012","275-BY","2018/01/29 18:39:48","新北市三峽區三樹路362號","121.383743333333","24.94357","6500900","三峽區"
"237008","302-VK","2018/01/29 18:39:53","新北市三峽區白雞57-1號","121.38917","24.9122666666667","6500900","三峽區"
"237014","433-BY","2018/01/29 18:39:50","新北市三峽區信義街2號","121.370681666667","24.93611","6500900","三峽區"
"237006","5529-G3","2018/01/29 18:39:34","新北市三峽區溪東路315巷90號","121.411926666667","24.9316233333333","6500900","三峽區"
"237015","649-BX","2018/01/29 18:25:00","新北市三峽區竹崙路45號","121.429933333333","24.9222216666667","6500900","三峽區"
"237010","706-TV","2018/01/29 18:39:50","新北市三峽區復興路323號","121.364788333333","24.938785","6500900","三峽區"
"237005","AKY-6261","2018/01/29 18:39:47","新北市三峽區清水街311號","121.372601666667","24.93442","6500900","三峽區"
"236069","105-UM","2018/01/29 18:39:49","新北市土城區永豐路157巷29弄6-1號","121.468376666667","24.9814966666667","6501300","土城區"
"236042","107-UM","2018/01/29 18:39:48","新北市土城區學成路108巷9號","121.450078333333","24.9895116666667","6501300","土城區"
"236078","166-UM","2018/01/29 18:39:43","新北市土城區頂埔街65號","121.417476666667","24.95942","6501300","土城區"
"236030","253-BX","2018/01/29 18:39:50","新北市土城區中華路二段126號","121.43777","24.97361","6501300","土城區"
"236026","269-VK","2018/01/29 18:39:46","新北市土城區金城路一段42號","121.441935","24.9700966666667","6501300","土城區"
"236014","270-VK","2018/01/29 18:39:50","新北市土城區清水路207巷8號","121.460046666667","24.98224","6501300","土城區"
"236036","271-VK","2018/01/29 18:39:48","新北市土城區明德路一段313巷3弄14號","121.460071666667","24.9764566666667","6501300","土城區"
"236020","401-BY","2018/01/29 18:39:49","新北市土城區延吉街327-1號","121.465495","24.98422","6501300","土城區"
"236058","912-UM","2018/01/29 18:39:48","新北市土城區中央路三段285號","121.42603","24.9629366666667","6501300","土城區"
"236048","913-UM","2018/01/29 18:39:49","新北市土城區明德路一段63號","121.465293333333","24.9844016666667","6501300","土城區"
"236062","915-UM","2018/01/29 18:39:33","新北市土城區延壽路55巷9弄2號","121.469516666667","24.991625","6501300","土城區"
"236053","AAC-216","2018/01/29 18:39:51","新北市土城區中華路一段67號","121.44541","24.9878616666667","6501300","土城區"
"242031","AAC-296","2018/01/29 18:39:44","新北市新莊區新泰路305巷33號","121.443853333333","25.0406866666667","6500500","新莊區"
"242060","362-BY","2018/01/29 18:39:45","新北市新莊區民安東路37號","121.428815","25.0209083333333","6500500","新莊區"
"242058","353-BY","2018/01/29 18:39:41","新北市新莊區中正路895-29號","121.41198","25.021895","6500500","新莊區"
"242046","172-VK","2018/01/29 18:39:48","新北市新莊區富國路77巷23號","121.420448333333","25.0265366666667","6500500","新莊區"
"242056","349-TH","2018/01/29 18:39:51","新北市新莊區中環路一段20號","121.442726666667","25.02655","6500500","新莊區"
"238015","755-BX","2018/01/29 18:39:42","新北市樹林區備內街148號","121.408103333333","24.98918","6500700","樹林區"
"238023","601-UM","2018/01/29 18:39:43","新北市樹林區三福街114號","121.406375","25.0163766666667","6500700","樹林區"
"238019","599-UM","2018/01/29 18:39:52","新北市樹林區東陽街3號","121.412676666667","24.9822766666667","6500700","樹林區"
"238018","571-TV","2018/01/29 18:39:36","新北市樹林區樹新路109號","121.428215","24.99586","6500700","樹林區"
"238024","5061-A6","2018/01/29 18:39:36","新北市樹林區太順街57巷17號","121.417463333333","24.978265","6500700","樹林區"
"238022","KEA-2213","2018/01/29 18:39:41","新北市樹林區中山路二段219號","121.402566666667","24.9761933333333","6500700","樹林區"
"238025","303-VK","2018/01/29 18:39:37","新北市樹林區中山路三段325號","121.390825","24.971485","6500700","樹林區"
"238014","282-BY","2018/01/29 18:39:38","新北市樹林區中山路三段107-1號","121.39995","24.97469","6500700","樹林區"
"238020","268-VK","2018/01/29 18:39:42","新北市樹林區中正路642巷19號","121.411511666667","25.0174766666667","6500700","樹林區"
"238026","172-UY","2018/01/29 18:39:46","新北市樹林區信和街2巷1號","121.389726666667","24.9707016666667","6500700","樹林區"
"238016","169-UY","2018/01/29 18:39:51","新北市樹林區文化街27號","121.419188333333","24.98773","6500700","樹林區"
"239007","AAC-297","2018/01/29 18:39:39","新北市鶯歌區光明街17號","121.348801666667","24.955885","6500800","鶯歌區"
"239008","527-UM","2018/01/29 18:39:45","新北市鶯歌區國際一路179號","121.336221666667","24.9765116666667","6500800","鶯歌區"
"239005","526-UM","2018/01/29 18:39:35","新北市鶯歌區鳳吉三街15號","121.326633333333","24.973385","6500800","鶯歌區"
"239001","417-VK","2018/01/29 18:39:33","新北市鶯歌區高職南街13號","121.33746","24.9392866666667","6500800","鶯歌區"
"239003","360-BY","2018/01/29 18:39:47","新北市鶯歌區鶯桃路379號","121.333598333333","24.963565","6500800","鶯歌區"
"239002","359-BY","2018/01/29 18:39:40","新北市鶯歌區光明街198號","121.343911666667","24.955795","6500800","鶯歌區"
"239004","193-VK","2018/01/29 18:39:53","新北市鶯歌區尖山路295號","121.341625","24.9440616666667","6500800","鶯歌區"
"221036","130-UY","2018/01/29 18:39:40","新北市汐止區南昌街31號","121.663143333333","25.0691983333333","6501100","汐止區"
"221010","269-BY","2018/01/29 18:39:33","新北市汐止區瑞松街49巷6號","121.645485","25.1070083333333","6501100","汐止區"
"221012","278-VK","2018/01/29 18:39:46","新北市汐止區吉祥街27巷16號","121.666751666667","25.0812166666667","6501100","汐止區"
"221023","279-VK","2018/01/29 18:39:34","新北市汐止區康寧街541巷11號","121.633743333333","25.0693333333333","6501100","汐止區"
"221032","280-BY","2018/01/29 18:39:47","新北市汐止區民權街二段129號","121.618105","25.0457066666667","6501100","汐止區"
"221027","281-BY","2018/01/29 18:39:38","新北市汐止區和平街76號","121.661631666667","25.0708133333333","6501100","汐止區"
"221002","297-VK","2018/01/29 18:39:32","新北市汐止區中興路23號","121.636971666667","25.059615","6501100","汐止區"
"221029","298-VK","2018/01/29 18:39:42","新北市汐止區樟樹一路133巷1號","121.642123333333","25.0651383333333","6501100","汐止區"
"221021","299-VK","2018/01/29 18:39:35","新北市汐止區復興路70號","121.657123333333","25.06223","6501100","汐止區"
"221031","353-TW","2018/01/29 18:39:42","新北市汐止區大同路一段215-1號","121.63394","25.0571683333333","6501100","汐止區"
"221008","358-BY","2018/01/29 18:39:43","新北市汐止區康寧街901號","121.651386666667","25.0750133333333","6501100","汐止區"
"221015","567-BX","2018/01/29 18:39:48","新北市汐止區鄉友街1號","121.667905","25.0806683333333","6501100","汐止區"
"221035","622-UM","2018/01/29 18:39:42","新北市汐止區大同路二段112號","121.650171666667","25.0632716666667","6501100","汐止區"
"221025","623-UM","2018/01/29 18:39:40","新北市汐止區仁愛路119巷16號","121.662273333333","25.0642483333333","6501100","汐止區"
"221038","646-BX","2018/01/29 18:39:31","新北市汐止區汐萬路一段125號","121.654005","25.07125","6501100","汐止區"
"221033","647-BX","2018/01/29 18:39:36","新北市汐止區南勢街1巷1號","121.627061666667","25.0374516666667","6501100","汐止區"
"221018","753-BX","2018/01/29 18:39:43","新北市汐止區茄苳路250巷7號","121.671371666667","25.0680466666667","6501100","汐止區"
"220079","145-BY","2018/01/29 18:39:39","新北市板橋區林園街7-1號","121.453963333333","25.0091733333333","6500100","板橋區"
"220080","200-UY","2018/01/29 18:39:45","新北市板橋區大觀路二段443-2號","121.441058333333","24.9951866666667","6500100","板橋區"
"220082","610-BX","2018/01/29 18:39:53","新北市板橋區大觀路三段59巷17弄6-1號","121.435796666667","24.99553","6500100","板橋區"
"220072","277-BY","2018/01/29 18:39:33","新北市板橋區大觀路三段52號","121.432338333333","24.9959616666667","6500100","板橋區"
"220071","283-VK","2018/01/29 18:39:39","新北市板橋區四川路二段橋頭6號","121.448325","24.9940316666667","6500100","板橋區"
"220053","285-VK","2018/01/29 18:39:35","新北市板橋區民生路二段120號","121.470325","25.019905","6500100","板橋區"
"220083","286-VK","2018/01/29 18:39:41","新北市板橋區板城路421號","121.448173333333","24.995715","6500100","板橋區"
"220081","287-VK","2018/01/29 18:39:53","新北市板橋區大觀路二段107號","121.446366666667","25.0015616666667","6500100","板橋區"
"220061","293-UM","2018/01/29 18:39:44","新北市板橋區民生路二段120號","121.47042","25.01981","6500100","板橋區"
"220062","295-UM","2018/01/29 18:39:13","新北市板橋區民生路二段161巷5號","121.469966666667","25.0195766666667","6500100","板橋區"
"220084","296-UM","2018/01/29 18:39:37","新北市板橋區大觀路二段11-12號","121.448118333333","24.99668","6500100","板橋區"
"242048","281-VK","2018/01/29 18:39:46","新北市樹林區太平路247巷26號","121.42144","24.9742483333333","6500500","新莊區"
"220075","303-R5","2018/01/29 18:39:36","新北市板橋區僑中三街1號","121.446958333333","25.00427","6500100","板橋區"
"220098","317-R6","2018/01/29 18:39:32","新北市板橋區民生路二段161巷9號","121.470256666667","25.019655","6500100","板橋區"
"220064","486-VK","2018/01/29 18:39:37","新北市板橋區南雅南路一段1巷42號","121.457568333333","25.0063166666667","6500100","板橋區"
"220035","560-BX","2018/01/29 18:39:49","新北市板橋區南雅西路二段175巷1號","121.451498333333","25.01243","6500100","板橋區"
"220063","609-BX","2018/01/29 18:39:45","新北市板橋區民生路二段188號","121.470198333333","25.0202666666667","6500100","板橋區"
"220057","686-BX","2018/01/29 18:39:50","新北市板橋區華東街1-10號","121.448266666667","24.9949433333333","6500100","板橋區"
"220077","687-BX","2018/01/29 18:39:40","新北市板橋區大觀路二段431-1號","121.44129","24.9950766666667","6500100","板橋區"
"220054","741-BX","2018/01/29 18:39:49","新北市板橋區華東街1-9號","121.448068333333","24.99491","6500100","板橋區"
"220067","829-TW","2018/01/29 18:39:39","新北市板橋區民生路二段120號","121.470465","25.01959","6500100","板橋區"
"220074","895-R6","2018/01/29 18:39:45","新北市板橋區南雅南路二段138號","121.451995","24.9964483333333","6500100","板橋區"
"220073","985-R7","2018/01/29 18:39:39","新北市板橋區南雅南路二段138號","121.452001666667","24.9964","6500100","板橋區"
"220097","AAC-210","2018/01/29 18:39:51","新北市板橋區民生路二段120號","121.470301666667","25.0197866666667","6500100","板橋區"
"220070","AAC-253","2018/01/29 18:39:48","新北市板橋區板城路407號","121.447438333333","24.9951933333333","6500100","板橋區"
