"lineid","car","time","location","longitude","latitude","cityid","cityname"
"234046","148-BY","2018/01/29 19:16:34","新北市永和區得和路373巷6弄1號","121.524878333333","24.999965","6500400","永和區"
"234007","207-UY","2018/01/29 19:12:32","新北市中和區中山路二段1號","121.505648333333","25.0058616666667","6500400","永和區"
"234081","298-R6","2018/01/29 19:11:17","新北市永和區永亨路67號","121.521273333333","25.0060166666667","6500400","永和區"
"234038","336-UY","2018/01/29 19:14:13","新北市永和區民樂街69巷1號","121.527388333333","24.9977533333333","6500400","永和區"
"234064","337-UY","2018/01/29 19:10:36","新北市永和區秀朗路二段67號","121.522061666667","25.002005","6500400","永和區"
"234086","338-UY","2018/01/29 19:17:22","新北市永和區永貞路158號","121.517643333333","25.0045566666667","6500400","永和區"
"234070","552-UM","2018/01/29 19:12:55","新北市永和區豫溪街137巷1弄8號","121.519345","25.010475","6500400","永和區"
"234017","745-BX","2018/01/29 19:11:34","新北市永和區文化路90巷15弄1號","121.513783333333","25.0159733333333","6500400","永和區"
"234030","746-BX","2018/01/29 19:13:31","新北市永和區民生路21號","121.522755","24.9989533333333","6500400","永和區"
"234054","KEA-2590","2018/01/29 19:09:03","新北市永和區中興街133巷14號","121.518378333333","25.0125233333333","6500400","永和區"
"234013","KEA-2591","2018/01/29 19:17:05","新北市永和區中山路一段90號","121.511655","25.010915","6500400","永和區"
"234061","AAD-866","2018/01/29 19:07:23","新北市永和區安樂路304巷10弄21號","121.515453333333","25.005605","6500400","永和區"
"234042","862-TW","2018/01/29 19:05:01","新北市永和區保平路109號","121.511103333333","25.0066283333333","6500400","永和區"
"234050","863-TW","2018/01/29 19:17:48","新北市永和區保福路二段70號","121.5107","25.013085","6500400","永和區"
"234026","9371-KE","2018/01/29 19:18:47","新北市永和區安樂路144巷24號","121.515205","24.9996533333333","6500400","永和區"
"234011","9373-KE","2018/01/29 19:13:26","新北市永和區信義路25巷53號","121.512363333333","25.0115183333333","6500400","永和區"
"249001","173-UM","2018/01/29 19:15:51","新北市八里區中華路一段126號","121.419618333333","25.1570766666667","6502300","八里區"
"249003","593-UM","2018/01/29 19:24:03","新北市八里區中山路二段466巷19號","121.398118333333","25.14756","6502300","八里區"
"248014","025-BX","2018/01/29 19:26:24","新北市五股區民義路一段198號","121.432535","25.0881716666667","6501500","五股區"
"248016","026-BX","2018/01/29 19:11:10","新北市五股區成泰路三段543巷52-1號","121.449716666667","25.10305","6501500","五股區"
"248008","095-VK","2018/01/29 19:23:31","新北市五股區中興路二段37巷28號","121.46024","25.0744666666667","6501500","五股區"
"248018","225-UY","2018/01/29 19:26:14","新北市五股區壟路2-1號","121.417916666667","25.0939683333333","6501500","五股區"
"248012","247-BX","2018/01/29 19:27:46","新北市五股區中興路四段48巷16號","121.43865","25.08342","6501500","五股區"
"248004","677-BX","2018/01/29 19:18:26","新北市五股區五福路105號","121.432221666667","25.0906783333333","6501500","五股區"
"248002","678-BX","2018/01/29 19:25:57","新北市五股區凌雲路一段158巷13號","121.447723333333","25.1035183333333","6501500","五股區"
"248010","682-TV","2018/01/29 19:25:38","新北市五股區自強路90巷72號","121.430798333333","25.0713166666667","6501500","五股區"
"234023","9380-KE","2018/01/29 19:12:54","新北市永和區中興街52巷3弄2號","121.517298333333","25.011095","6500400","永和區"
"234077","969-R7","2018/01/29 19:08:48","新北市永和區民權路34號","121.520176666667","24.998875","6500400","永和區"
"234074","AAC-211","2018/01/29 19:12:53","新北市永和區竹林路133-3號","121.520211666667","25.01085","6500400","永和區"
"234067","AAC-212","2018/01/29 19:14:03","新北市永和區保平路18巷13號","121.512076666667","25.0079883333333","6500400","永和區"
"234003","AAC-295","2018/01/29 19:15:30","新北市永和區永平路186-1號","121.510471666667","25.0092383333333","6500400","永和區"
"244013","069-UM","2018/01/29 19:20:06","新北市林口區麗園一街2巷1號","121.375676666667","25.071755","6501700","林口區"
"244019","402-UM","2018/01/29 19:28:50","新北市林口區文化二路一段384號","121.37489","25.0766583333333","6501700","林口區"
"244009","410-SL","2018/01/29 19:15:17","新北市林口區林口路62號","121.390296666667","25.0791616666667","6501700","林口區"
"244023","483-VK","2018/01/29 19:28:14","新北市林口區文化三路二段181-1號","121.375981666667","25.0824533333333","6501700","林口區"
"244017","485-VK","2018/01/29 19:19:45","新北市林口區寶斗厝坑79號","121.332421666667","25.1192633333333","6501700","林口區"
"244011","656-BX","2018/01/29 19:21:25","新北市林口區文化一路二段202號","121.38321","25.08076","6501700","林口區"
"244025","837-TS","2018/01/29 19:25:20","新北市林口區太平里180號","121.367236666667","25.13507","6501700","林口區"
"243003","267-VK","2018/01/29 19:14:20","新北市泰山區中央路9巷3號","121.426505","25.0431083333333","6501600","泰山區"
"243012","AAD-798","2018/01/29 19:14:17","新北市泰山區辭修路36巷8弄1號","121.427781666667","25.058515","6501600","泰山區"
"243015","380-SR","2018/01/29 19:14:07","新北市泰山區明志路一段509號","121.430526666667","25.05444","6501600","泰山區"
"243014","421-VK","2018/01/29 19:14:15","新北市泰山區泰林路二段225號","121.432356666667","25.06192","6501600","泰山區"
"243010","KEA-2215","2018/01/29 19:12:37","新北市泰山區明志路一段481號","121.431061666667","25.0553466666667","6501600","泰山區"
"243009","KEA-2216","2018/01/29 19:13:13","新北市泰山區和平街9-2號","121.43408","25.0646616666667","6501600","泰山區"
"243013","646-TV","2018/01/29 19:14:59","新北市泰山區明志路三段159號","121.42464","25.03963","6501600","泰山區"
"243016","680-BX","2018/01/29 19:06:45","新北市泰山區明志路二段309號","121.426646666667","25.0463416666667","6501600","泰山區"
"222003","016-RS","2018/01/29 19:13:16","新北市深坑區深南路204號","121.626681666667","25.0160383333333","6501800","深坑區"
"222002","659-BX","2018/01/29 19:20:21","新北市深坑區北深路一段177號","121.632518333333","25.0109216666667","6501800","深坑區"
"231041","002-UM","2018/01/29 19:15:35","新北市新店區溪園路247號","121.524881666667","24.9829433333333","6500600","新店區"
"231061","047-UY","2018/01/29 19:10:26","新北市新店區安康路一段85號","121.529373333333","24.9613783333333","6500600","新店區"
"231060","106-UY","2018/01/29 19:17:50","新北市新店區安康路二段111號","121.512545","24.9618216666667","6500600","新店區"
"231051","107-UY","2018/01/29 19:19:40","新北市新店區百忍街90號","121.532665","24.97728","6500600","新店區"
"231047","108-UY","2018/01/29 19:13:09","新北市新店區中興路二段65號","121.546688333333","24.9707733333333","6500600","新店區"
"231052","110-UY","2018/01/29 19:17:42","新北市新店區自強路106巷5號","121.54567","24.9231266666667","6500600","新店區"
"231050","KEA-2219","2018/01/29 19:13:56","新北市新店區竹林路63號","121.552981666667","24.9513616666667","6500600","新店區"
"231057","256-BX","2018/01/29 19:24:57","新北市新店區花園一路一段2號","121.553063333333","24.9324866666667","6500600","新店區"
"231046","278-BY","2018/01/29 19:20:56","新北市新店區華城路36巷1-1號","121.528313333333","24.955495","6500600","新店區"
"231054","AAD-862","2018/01/29 19:16:32","新北市新店區國校路59號","121.538283333333","24.9543383333333","6500600","新店區"
"231058","3712-VJ","2018/01/29 19:22:13","新北市新店區北新路二段228巷3號","121.543086666667","24.9774633333333","6500600","新店區"
"231055","4716-K9","2018/01/29 19:16:03","新北市新店區溪園路511號","121.523731666667","24.97704","6500600","新店區"
"231067","4772-VM","2018/01/29 19:16:37","新北市新店區安康路一段169-6號","121.52693","24.9619033333333","6500600","新店區"
"231065","512-UM","2018/01/29 19:19:09","新北市新店區安祥路110巷14號","121.474505","24.9566783333333","6500600","新店區"
"231064","515-UM","2018/01/29 19:18:31","新北市新店區安忠路57巷26弄1號","121.513233333333","24.9585033333333","6500600","新店區"
"231042","616-UM","2018/01/29 19:15:47","新北市新店區中興路一段62號","121.539393333333","24.959635","6500600","新店區"
"231059","618-UM","2018/01/29 19:14:19","新北市新店區安和路三段31號","121.517615","24.9816316666667","6500600","新店區"
"231040","619-UM","2018/01/29 19:18:45","新北市新店區三民路47號","121.537083333333","24.9709266666667","6500600","新店區"
"231063","645-TV","2018/01/29 19:23:47","新北市新店區達觀路12號","121.504376666667","24.9407533333333","6500600","新店區"
"231049","719-UM","2018/01/29 19:19:40","新北市新店區明德路66號","121.541528333333","24.9795016666667","6500600","新店區"
"231062","720-UM","2018/01/29 19:13:27","新北市新店區安康路一段201-1號","121.526203333333","24.96295","6500600","新店區"
"231044","897-TW","2018/01/29 19:11:51","新北市新店區中興路三段247-1號","121.542753333333","24.9839766666667","6500600","新店區"
"231045","898-TW","2018/01/29 19:21:19","新北市新店區北宜路一段314號","121.547393333333","24.9521433333333","6500600","新店區"
"231043","899-TW","2018/01/29 19:21:11","新北市新店區北新路二段167號","121.542848333333","24.9763833333333","6500600","新店區"
"231066","AKT-0513","2018/01/29 19:25:53","新北市新店區安康路三段207巷5號","121.48799","24.9510216666667","6500600","新店區"
"241011","013-R5","2018/01/29 19:23:49","新北市三重區河邊北街110巷19號","121.503391666667","25.0707716666667","6500200","三重區"
"241009","060-VK","2018/01/29 19:23:40","新北市三重區溪尾街232號","121.487758333333","25.0817333333333","6500200","三重區"
"241031","061-VK","2018/01/29 19:15:04","新北市三重區重新路四段87號","121.486033333333","25.0557316666667","6500200","三重區"
"241017","063-VK","2018/01/29 19:28:53","新北市三重區大仁街29號","121.492565","25.06502","6500200","三重區"
"241026","066-VK","2018/01/29 19:22:47","新北市三重區正義南路169號","121.498821666667","25.0574033333333","6500200","三重區"
"241018","268-UM","2018/01/29 19:22:54","新北市三重區大智街65號","121.492613333333","25.0680516666667","6500200","三重區"
"241032","269-UM","2018/01/29 19:28:03","新北市三重區三陽路26號","121.485556666667","25.058755","6500200","三重區"
"241013","270-UM","2018/01/29 19:23:34","新北市三重區仁愛街103號","121.49564","25.0740066666667","6500200","三重區"
"241007","398-BY","2018/01/29 19:26:56","新北市三重區慈愛街125號","121.488521666667","25.0797716666667","6500200","三重區"
"241020","413-TH","2018/01/29 19:23:15","新北市三重區後竹圍街135號","121.487328333333","25.07229","6500200","三重區"
"241035","462-BY","2018/01/29 19:28:11","新北市三重區信義西街1號","121.498065","25.06477","6500200","三重區"
"241030","480-VK","2018/01/29 19:26:07","新北市三重區成功路41巷41號","121.490736666667","25.0521716666667","6500200","三重區"
"241006","AAD-863","2018/01/29 19:28:57","新北市三重區三和路四段103號","121.48699","25.076525","6500200","三重區"
"241022","887-TS","2018/01/29 19:22:45","新北市三重區重陽路二段49號","121.487328333333","25.0632366666667","6500200","三重區"
"241029","942-UM","2018/01/29 19:13:10","新北市三重區中正南路183巷3號","121.493253333333","25.0551983333333","6500200","三重區"
"235066","003-UY","2018/01/29 19:25:57","新北市中和區中和路102號","121.502681666667","24.9997833333333","6500300","中和區"
"235064","005-UY","2018/01/29 19:13:48","新北市中和區泰和街38巷11號","121.498975","25.000505","6500300","中和區"
"235063","031-BX","2018/01/29 19:29:00","新北市中和區中正路596號","121.485868333333","24.9952833333333","6500300","中和區"
"235056","096-UM","2018/01/29 19:22:10","新北市中和區中山路三段1號","121.480055","25.0058816666667","6500300","中和區"
"235039","097-UM","2018/01/29 19:21:48","新北市中和區自立路58巷23號","121.523125","24.9913066666667","6500300","中和區"
"235065","098-UM","2018/01/29 19:23:15","新北市中和區中山路二段64巷3號","121.503646666667","25.0049483333333","6500300","中和區"
"235040","150-BY","2018/01/29 19:17:59","新北市中和區保健路63號","121.509565","24.9972533333333","6500300","中和區"
"235058","151-BY","2018/01/29 19:15:25","新北市中和區連城路428巷16弄11號","121.480516666667","24.9959083333333","6500300","中和區"
"235055","183-VK","2018/01/29 19:11:39","新北市中和區德光路91號","121.469083333333","25.003425","6500300","中和區"
"235038","185-VK","2018/01/29 19:26:25","新北市中和區立人街51號","121.520493333333","24.9942266666667","6500300","中和區"
"235049","186-VK","2018/01/29 19:16:46","新北市中和區景新街165號","121.50653","24.995875","6500300","中和區"
"235067","255-BX","2018/01/29 19:18:49","新北市中和區新生街176巷8號","121.4832","25.0000216666667","6500300","中和區"
"235044","293-VK","2018/01/29 19:23:23","新北市中和區復興路282號","121.502083333333","24.9903583333333","6500300","中和區"
"235072","301-VK","2018/01/29 19:26:28","新北市中和區錦和路93巷4弄1號","121.490633333333","24.99572","6500300","中和區"
"235043","352-BY","2018/01/29 19:21:06","新北市中和區景平路428號","121.507365","24.993345","6500300","中和區"
"235068","377-QA","2018/01/29 19:17:47","新北市中和區圓通路162巷7號","121.497165","24.9950666666667","6500300","中和區"
"235061","378-QA","2018/01/29 19:22:22","新北市中和區員山路314巷7弄3號","121.481898333333","25.0029583333333","6500300","中和區"
"235071","269-TV","2018/01/29 19:23:22","新北市中和區連城路300號","121.483935","24.9962933333333","6500300","中和區"
"235050","4979-A6","2018/01/29 19:20:02","新北市中和區景安路208巷13號","121.50334","24.991305","6500300","中和區"
"235069","4980-A6","2018/01/29 19:19:36","新北市中和區莊敬路33巷24號","121.50013","25.0055616666667","6500300","中和區"
"235042","551-UM","2018/01/29 19:15:20","新北市中和區立人街12號","121.519378333333","24.9941916666667","6500300","中和區"
"235070","558-UM","2018/01/29 19:25:38","新北市中和區中山路二段221號","121.498585","25.002615","6500300","中和區"
"235045","565-BX","2018/01/29 19:21:08","新北市中和區景新街423巷35弄32號","121.513996666667","24.99021","6500300","中和區"
"235054","640-BX","2018/01/29 19:14:59","新北市中和區國光街60號","121.470438333333","25.0002816666667","6500300","中和區"
"235060","647-TV","2018/01/29 19:19:28","新北市中和區民有街60號","121.476033333333","25.0045016666667","6500300","中和區"
"235047","732-UM","2018/01/29 19:19:49","新北市中和區和平街76巷6弄4號","121.508111666667","24.992","6500300","中和區"
"235046","733-UM","2018/01/29 19:16:35","新北市中和區華新街142號","121.507916666667","24.9825166666667","6500300","中和區"
"235041","802-TS","2018/01/29 19:17:15","新北市中和區中和路260號","121.507875","24.9992483333333","6500300","中和區"
"235052","805-TS","2018/01/29 19:17:12","新北市中和區興南路二段142巷15號","121.503496666667","24.983385","6500300","中和區"
"235048","896-TW","2018/01/29 19:12:21","新北市中和區忠孝街4號","121.510061666667","24.9827383333333","6500300","中和區"
"235053","900-TW","2018/01/29 19:24:32","新北市中和區華安街17巷8號","121.466993333333","24.9982","6500300","中和區"
"235051","157-BY","2018/01/29 19:24:36","新北市中和區興南路一段56巷9號","121.51034","24.991115","6500300","中和區"
"235037","AAC-213","2018/01/29 19:21:23","新北市中和區自立路15巷8號","121.52288","24.9959916666667","6500300","中和區"
"235059","AAC-215","2018/01/29 19:18:07","新北市中和區錦和路197號","121.490858333333","24.9907033333333","6500300","中和區"
"220068","013-TV","2018/01/29 19:02:55","新北市板橋區中山路二段443巷60號","121.48113","25.0218166666667","6500100","板橋區"
"220065","072-UY","2018/01/29 19:09:45","新北市板橋區民族路219巷46號","121.469396666667","25.0087666666667","6500100","板橋區"
"220086","073-UY","2018/01/29 19:12:02","新北市板橋區中正路250巷23號","121.456615","25.0194566666667","6500100","板橋區"
"220106","075-UY","2018/01/29 19:21:20","新北市板橋區雙十路三段68巷2號","121.470488333333","25.0320966666667","6500100","板橋區"
"220069","AAD-861","2018/01/29 19:11:00","新北市板橋區華興街52號","121.458173333333","25.0048283333333","6500100","板橋區"
"220090","120-SR","2018/01/29 19:10:45","新北市板橋區裕民街31號","121.461886666667","25.0286866666667","6500100","板橋區"
"247004","336-TH","2018/01/29 19:25:20","新北市蘆洲區長安街307號","121.457871666667","25.0851766666667","6501400","蘆洲區"
"226004","312-R5","2018/01/29 19:23:08","新北市平溪區靜安路三段392巷3號","121.783988333333","25.0494883333333","6502400","平溪區"
"235057","251-BX","2018/01/29 19:19:08","新北市中和區員山路200號","121.481333333333","25.0005716666667","6500300","中和區"
"228003","097-TW","2018/01/29 19:28:08","新北市貢寮區和美里和美街19-2號","121.912796666667","25.0826016666667","6502600","貢寮區"
"228002","663-BX","2018/01/29 19:22:02","新北市貢寮區龍門里復興街27號","121.926996666667","25.0276166666667","6502600","貢寮區"
"228001","670-TC","2018/01/29 19:21:54","新北市貢寮區真理里新港街16-1號","121.925751666667","25.05515","6502600","貢寮區"
"224010","AGQ-8101","2018/01/29 19:14:13","新北市瑞芳區基山街171號","121.843251666667","25.1080866666667","6501200","瑞芳區"
"224006","676-BX","2018/01/29 19:11:22","新北市瑞芳區東和路47號","121.80475","25.1060766666667","6501200","瑞芳區"
"224009","285-BY","2018/01/29 19:13:26","新北市瑞芳區洞頂路101巷45號","121.860626666667","25.1205583333333","6501200","瑞芳區"
"224008","275-VK","2018/01/29 19:19:17","新北市瑞芳區瑞芳街104號","121.80166","25.1106166666667","6501200","瑞芳區"
"224007","273-VK","2018/01/29 19:22:17","新北市瑞芳區大寮路356-1號","121.784616666667","25.103355","6501200","瑞芳區"
"224005","271-BY","2018/01/29 19:17:00","新北市瑞芳區三爪子坑路303-2號","121.818221666667","25.1058116666667","6501200","瑞芳區"
"227008","642-TC","2018/01/29 19:27:10","新北市雙溪區新基里新基北街43號","121.868161666667","25.0397066666667","6502500","雙溪區"
"227001","400-TW","2018/01/29 19:22:13","新北市雙溪區雙溪里太平路6號","121.864095","25.03509","6502500","雙溪區"
"253005","032-BX","2018/01/29 19:23:05","新北市石門區小坑9號","121.596735","25.2892266666667","6502200","石門區"
"253006","295-VK","2018/01/29 19:22:51","新北市石門區楓林23-10號","121.53867","25.2911216666667","6502200","石門區"
"222001","KEA-2212","2018/01/29 19:28:54","新北市深坑區北深路二段121號","121.616596666667","25.0031016666667","6501800","深坑區"
"208002","742-BX","2018/01/29 19:22:54","新北市金山區中正路143-1號","121.632118333333","25.221435","6502700","金山區"
"208003","665-BX","2018/01/29 19:10:49","新北市金山區中正路61號","121.63421","25.22173","6502700","金山區"
"208001","761-BX","2018/01/29 19:08:02","新北市金山區溫泉路2巷4號","121.640201666667","25.2220116666667","6502700","金山區"
"251009","008-UM","2018/01/29 19:29:09","新北市淡水區大忠街5巷9號","121.44336","25.1765333333333","6501000","淡水區"
"251005","010-UM","2018/01/29 19:19:00","新北市淡水區水源街一段27巷1號","121.443161666667","25.1724983333333","6501000","淡水區"
"251013","179-VK","2018/01/29 19:23:38","新北市淡水區安子內12號","121.481525","25.2191083333333","6501000","淡水區"
"251014","180-VK","2018/01/29 19:27:17","新北市淡水區小中寮19-7號","121.484746666667","25.2296683333333","6501000","淡水區"
"251015","182-VK","2018/01/29 19:16:51","新北市淡水區南勢埔49號","121.484936666667","25.1814","6501000","淡水區"
"251010","413-VK","2018/01/29 19:19:16","新北市淡水區沙崙路30號","121.421543333333","25.1814","6501000","淡水區"
"251012","441-VK","2018/01/29 19:28:04","新北市淡水區中山北路三段156號","121.445583333333","25.1957683333333","6501000","淡水區"
"251016","442-VK","2018/01/29 19:24:38","新北市淡水區淡金路三段350巷18號","121.450805","25.20835","6501000","淡水區"
"251001","559-UM","2018/01/29 19:26:59","新北市淡水區民權路167號","121.459893333333","25.1358816666667","6501000","淡水區"
"251006","561-UM","2018/01/29 19:21:23","新北市淡水區大信街31號","121.4418","25.1772633333333","6501000","淡水區"
"251007","577-R6","2018/01/29 19:21:16","新北市淡水區民生路186號","121.465545","25.1386266666667","6501000","淡水區"
"251002","672-BX","2018/01/29 19:12:00","新北市淡水區中山路133號","121.44117","25.1713716666667","6501000","淡水區"
"251003","766-UM","2018/01/29 19:19:22","新北市淡水區中山北路一段6號","121.441425","25.174635","6501000","淡水區"
"207003","550-UM","2018/01/29 19:05:48","新北市萬里區大鵬里萬里加投32-3號","121.646306666667","25.2108033333333","6502800","萬里區"
"207004","225-TW","2018/01/29 19:13:59","新北市萬里區萬里里瑪鋉路30巷1弄13號","121.690141666667","25.1765","6502800","萬里區"
"252003","249-BX","2018/01/29 19:25:42","新北市三芝區埔坪里埔頭坑41號","121.504536666667","25.26443","6502100","三芝區"
"252001","292-VK","2018/01/29 19:23:22","新北市三芝區長勤街37巷18號","121.501138333333","25.2551333333333","6502100","三芝區"
"237004","078-UY","2018/01/29 19:27:49","新北市三峽區有木205號","121.438941666667","24.852205","6500900","三峽區"
"237007","153-BY","2018/01/29 19:18:21","新北市三峽區麻園9-21號","121.362436666667","24.9178816666667","6500900","三峽區"
"237009","210-TH","2018/01/29 19:19:47","新北市三峽區和平街2-1號","121.37043","24.9353166666667","6500900","三峽區"
"237013","252-BX","2018/01/29 19:15:43","新北市三峽區大同路5巷27號","121.378463333333","24.928445","6500900","三峽區"
"237012","275-BY","2018/01/29 19:25:08","新北市三峽區三樹路222巷236弄8-3號","121.391406666667","24.9430083333333","6500900","三峽區"
"237008","302-VK","2018/01/29 19:14:53","新北市三峽區大同路41-5號","121.376441666667","24.9278483333333","6500900","三峽區"
"237014","433-BY","2018/01/29 19:22:30","新北市三峽區中山路184巷2號","121.36405","24.9368383333333","6500900","三峽區"
"237006","5529-G3","2018/01/29 19:26:35","新北市三峽區中正路一段336巷15弄2號","121.369961666667","24.9249616666667","6500900","三峽區"
"237010","706-TV","2018/01/29 19:17:30","新北市三峽區復興路47號","121.373418333333","24.936975","6500900","三峽區"
"237005","AKY-6261","2018/01/29 19:26:27","新北市三峽區復興路367巷1弄15號","121.364128333333","24.9379516666667","6500900","三峽區"
"236069","105-UM","2018/01/29 19:16:28","新北市土城區裕民路10號","121.447393333333","24.9888483333333","6501300","土城區"
"236078","166-UM","2018/01/29 19:16:23","新北市土城區龍泉路14號","121.409801666667","24.9487583333333","6501300","土城區"
"236026","269-VK","2018/01/29 19:09:06","新北市土城區中正路33號","121.443741666667","24.97549","6501300","土城區"
"236014","270-VK","2018/01/29 19:15:08","新北市土城區學府路一段23巷23號","121.45777","24.9869466666667","6501300","土城區"
"236020","401-BY","2018/01/29 19:13:29","新北市土城區延峰街29巷2號","121.469481666667","24.9851133333333","6501300","土城區"
"236058","912-UM","2018/01/29 19:19:48","新北市土城區金城路一段72號","121.443843333333","24.9725333333333","6501300","土城區"
"236048","913-UM","2018/01/29 19:27:29","新北市土城區清水路125號","121.457943333333","24.9816783333333","6501300","土城區"
"236062","915-UM","2018/01/29 19:16:53","新北市土城區金城路三段202-3號","121.469433333333","24.9885316666667","6501300","土城區"
"236053","AAC-216","2018/01/29 19:08:57","新北市土城區學成路4號","121.453568333333","24.986405","6501300","土城區"
"238023","601-UM","2018/01/29 19:15:23","新北市樹林區大慶街51號","121.39634","25.0139283333333","6500700","樹林區"
"238019","599-UM","2018/01/29 19:12:52","新北市樹林區東榮街54號","121.417021666667","24.98316","6500700","樹林區"
"238018","571-TV","2018/01/29 19:15:12","新北市樹林區中華路257號","121.418238333333","24.98064","6500700","樹林區"
"238021","KEA-2217","2018/01/29 19:23:53","新北市樹林區柑園街二段386巷2號","121.367785","24.9489883333333","6500700","樹林區"
"238022","KEA-2213","2018/01/29 19:11:41","新北市樹林區東順街90巷3弄1號","121.407991666667","24.97628","6500700","樹林區"
"238025","303-VK","2018/01/29 19:16:36","新北市樹林區中山路三段147-5號","121.39584","24.9730083333333","6500700","樹林區"
"238017","283-BY","2018/01/29 19:17:02","新北市樹林區保安街二段179-1號","121.415246666667","25.0031183333333","6500700","樹林區"
"238014","282-BY","2018/01/29 19:19:38","新北市樹林區保安二街40巷18號","121.425595","24.9946416666667","6500700","樹林區"
"238020","268-VK","2018/01/29 19:13:02","新北市樹林區俊英街155巷9弄14號","121.42324","25.0118916666667","6500700","樹林區"
"238026","172-UY","2018/01/29 19:27:06","新北市樹林區佳園路三段23號","121.388216666667","24.9547433333333","6500700","樹林區"
"238016","169-UY","2018/01/29 19:10:31","新北市樹林區中山路一段306巷22號","121.419248333333","24.98665","6500700","樹林區"
"239007","AAC-297","2018/01/29 19:15:39","新北市鶯歌區中正一路221號","121.354025","24.9573866666667","6500800","鶯歌區"
"239006","891-R6","2018/01/29 19:15:38","新北市鶯歌區鶯桃路296巷84弄26號","121.3373","24.9614283333333","6500800","鶯歌區"
"239008","527-UM","2018/01/29 19:19:24","新北市鶯歌區國際二路64號","121.335315","24.9762266666667","6500800","鶯歌區"
"239005","526-UM","2018/01/29 19:21:15","新北市鶯歌區中湖街23號","121.347216666667","24.97283","6500800","鶯歌區"
"239001","417-VK","2018/01/29 19:20:52","新北市鶯歌區永智街100號","121.336951666667","24.9534733333333","6500800","鶯歌區"
"239003","360-BY","2018/01/29 19:26:47","新北市鶯歌區八德路10號","121.33298","24.954455","6500800","鶯歌區"
"239004","193-VK","2018/01/29 19:28:44","新北市鶯歌區二甲路2號","121.334831666667","24.9345933333333","6500800","鶯歌區"
"221036","130-UY","2018/01/29 19:26:00","新北市汐止區汐萬路一段256巷1號","121.651711666667","25.0748833333333","6501100","汐止區"
"221010","269-BY","2018/01/29 19:25:33","新北市汐止區康寧街901號","121.651493333333","25.0750516666667","6501100","汐止區"
"221012","278-VK","2018/01/29 19:28:06","新北市汐止區保長路102號","121.675336666667","25.0780633333333","6501100","汐止區"
"221023","279-VK","2018/01/29 19:18:53","新北市汐止區康寧街901號","121.651018333333","25.07523","6501100","汐止區"
"221027","281-BY","2018/01/29 19:26:58","新北市汐止區忠孝東路9號","121.658046666667","25.0657916666667","6501100","汐止區"
"221002","297-VK","2018/01/29 19:18:32","新北市汐止區大同路一段284號","121.63475","25.057585","6501100","汐止區"
"221029","298-VK","2018/01/29 19:27:41","新北市汐止區康寧街901號","121.65153","25.074965","6501100","汐止區"
"221031","353-TW","2018/01/29 19:24:02","新北市汐止區汐萬路一段256巷3號","121.653276666667","25.074425","6501100","汐止區"
"221008","358-BY","2018/01/29 19:11:43","新北市汐止區康寧街421號","121.630285","25.06806","6501100","汐止區"
"221015","567-BX","2018/01/29 19:28:48","新北市汐止區康寧街901號","121.651523333333","25.07497","6501100","汐止區"
"221025","623-UM","2018/01/29 19:26:20","新北市汐止區大同路二段426號","121.65894","25.0671416666667","6501100","汐止區"
"221038","646-BX","2018/01/29 19:24:11","新北市汐止區汐萬路一段312號","121.650661666667","25.0752933333333","6501100","汐止區"
"221033","647-BX","2018/01/29 19:20:16","新北市汐止區南勢街1巷2號","121.626965","25.037465","6501100","汐止區"
"220079","145-BY","2018/01/29 19:07:19","新北市板橋區民權路260巷24-2號","121.458728333333","25.0153233333333","6500100","板橋區"
"220080","200-UY","2018/01/29 19:03:25","新北市板橋區大觀路二段力行3巷5號","121.445618333333","24.99552","6500100","板橋區"
"220082","610-BX","2018/01/29 19:07:53","新北市板橋區溪崑二街33號","121.428501666667","24.9911683333333","6500100","板橋區"
"220101","245-BX","2018/01/29 19:08:45","新北市板橋區萬板路51號","121.471225","25.0214466666667","6500100","板橋區"
"220096","255-TC","2018/01/29 19:13:42","新北市板橋區大同街10號","121.47711","25.0267216666667","6500100","板橋區"
"220103","257-TC","2018/01/29 19:11:02","新北市板橋區文化路一段188巷11弄16號","121.468995","25.0186533333333","6500100","板橋區"
"220056","276-BY","2018/01/29 19:13:02","新北市板橋區信義路74巷1弄13號","121.457568333333","24.992805","6500100","板橋區"
"220072","277-BY","2018/01/29 19:12:33","新北市板橋區金門街369巷26號","121.42862","24.9832","6500100","板橋區"
"220094","283-UM","2018/01/29 19:06:58","新北市板橋區光武街99號","121.466718333333","25.0273333333333","6500100","板橋區"
"220071","283-VK","2018/01/29 19:09:59","新北市板橋區重慶路245巷50弄46號","121.465108333333","24.9996066666667","6500100","板橋區"
"220053","285-VK","2018/01/29 19:08:55","新北市板橋區懷仁街14巷6號","121.475798333333","25.01986","6500100","板橋區"
"220083","286-VK","2018/01/29 19:12:01","新北市板橋區龍興街97巷6號","121.443896666667","25.0028233333333","6500100","板橋區"
"220081","287-VK","2018/01/29 19:28:13","新北市板橋區南雅西路一段43號","121.453815","25.0046816666667","6500100","板橋區"
"220061","293-UM","2018/01/29 19:17:43","新北市板橋區三民路二段21巷45號","121.480573333333","25.0182733333333","6500100","板橋區"
"220062","295-UM","2018/01/29 19:11:13","新北市板橋區三民路二段245巷4弄10號","121.480843333333","25.011755","6500100","板橋區"
"220084","296-UM","2018/01/29 19:13:57","新北市板橋區溪崑二街16巷10號","121.42847","24.9919333333333","6500100","板橋區"
"220075","303-R5","2018/01/29 19:12:16","新北市板橋區南雅南路一段73號","121.455801666667","25.00577","6500100","板橋區"
"220092","307-R5","2018/01/29 19:12:35","新北市板橋區文化路二段225巷60弄32號","121.469176666667","25.0292","6500100","板橋區"
"220098","317-R6","2018/01/29 19:08:52","新北市板橋區四維路103巷21號","121.464691666667","25.0240366666667","6500100","板橋區"
"220064","486-VK","2018/01/29 19:08:36","新北市板橋區板新路95號","121.472998333333","25.013935","6500100","板橋區"
"220089","487-VK","2018/01/29 19:05:41","新北市板橋區長江路三段126號","121.475436666667","25.0346016666667","6500100","板橋區"
"220088","491-VK","2018/01/29 19:16:51","新北市板橋區雙十路二段187號","121.473885","25.0287416666667","6500100","板橋區"
"220035","560-BX","2018/01/29 19:08:49","新北市板橋區中正路330號","121.454701666667","25.0217383333333","6500100","板橋區"
"220055","568-UM","2018/01/29 19:07:15","新北市板橋區新民街2號","121.464081666667","25.0095733333333","6500100","板橋區"
"220063","609-BX","2018/01/29 19:15:45","新北市板橋區三民路二段224號","121.478698333333","25.0115733333333","6500100","板橋區"
"220091","637-BX","2018/01/29 19:08:54","新北市板橋區萬板路558號","121.480985","25.02656","6500100","板橋區"
"220057","686-BX","2018/01/29 19:11:10","新北市板橋區重慶路163號","121.46263","25.0027966666667","6500100","板橋區"
"220077","687-BX","2018/01/29 19:03:40","新北市板橋區大觀路二段205號","121.4446","24.9997","6500100","板橋區"
"220093","689-BX","2018/01/29 19:07:17","新北市板橋區長江路二段41號","121.46394","25.031245","6500100","板橋區"
"220054","741-BX","2018/01/29 19:10:49","新北市板橋區重慶路85號","121.462053333333","25.0064766666667","6500100","板橋區"
"220067","829-TW","2018/01/29 19:09:59","新北市板橋區民享街116巷2弄9號","121.4775","25.0155316666667","6500100","板橋區"
"220074","895-R6","2018/01/29 19:22:26","新北市板橋區華東街1-10號","121.448626666667","24.9949983333333","6500100","板橋區"
"220073","985-R7","2018/01/29 19:10:19","新北市板橋區中正路328號","121.454451666667","25.0213733333333","6500100","板橋區"
"220097","AAC-210","2018/01/29 19:14:30","新北市板橋區幸福路70巷6號","121.460681666667","25.020275","6500100","板橋區"
"220070","AAC-253","2018/01/29 19:12:08","新北市板橋區忠孝路33-1號","121.460866666667","25.002035","6500100","板橋區"
