"lineid","car","time","location","longitude","latitude","cityid","cityname"
"234046","148-BY","2018/01/29 20:08:54","新北市永和區成功路二段28號","121.526716666667","25.00068","6500400","永和區"
"234007","207-UY","2018/01/29 20:08:52","新北市永和區保順路37巷16號","121.502951666667","25.010355","6500400","永和區"
"234081","298-R6","2018/01/29 20:08:56","新北市永和區國中路101號","121.524151666667","25.0061383333333","6500400","永和區"
"234038","336-UY","2018/01/29 20:09:03","新北市永和區成功路二段75號","121.526781666667","24.9995883333333","6500400","永和區"
"234064","337-UY","2018/01/29 20:08:56","新北市永和區永利路156號","121.522675","25.0026816666667","6500400","永和區"
"234086","338-UY","2018/01/29 20:09:02","新北市永和區福和路71號","121.522616666667","25.0078983333333","6500400","永和區"
"234070","552-UM","2018/01/29 20:08:55","新北市永和區福和路239號","121.518366666667","25.007405","6500400","永和區"
"234017","745-BX","2018/01/29 20:08:55","新北市永和區文化路123號","121.51233","25.015235","6500400","永和區"
"234030","746-BX","2018/01/29 20:09:10","新北市永和區民權路1巷34號","121.521908333333","24.9979266666667","6500400","永和區"
"234054","KEA-2590","2018/01/29 20:09:03","新北市永和區博愛街21巷1號","121.517628333333","25.0158633333333","6500400","永和區"
"234013","KEA-2591","2018/01/29 20:09:05","新北市永和區仁愛路271號","121.506071666667","25.009845","6500400","永和區"
"234061","AAD-866","2018/01/29 20:09:03","新北市永和區中正路151巷14號","121.515523333333","24.9988566666667","6500400","永和區"
"234042","862-TW","2018/01/29 20:09:01","新北市永和區雙和街24號","121.508916666667","25.0023066666667","6500400","永和區"
"234050","863-TW","2018/01/29 20:09:08","新北市永和區永平路275號","121.50608","25.0133716666667","6500400","永和區"
"234011","9373-KE","2018/01/29 20:09:06","新北市永和區仁愛路352巷122弄15號","121.500836666667","25.0088333333333","6500400","永和區"
"249005","172-UM","2018/01/29 20:08:51","新北市八里區下罟子50號","121.38284","25.1388683333333","6502300","八里區"
"249004","303-UY","2018/01/29 20:08:30","新北市八里區中山路一段217巷76號","121.41208","25.1576366666667","6502300","八里區"
"249002","305-UY","2018/01/29 20:08:51","新北市八里區龍米路一段2-1號","121.458473333333","25.1135116666667","6502300","八里區"
"249003","593-UM","2018/01/29 20:09:03","新北市八里區中山路二段540巷3號","121.397021666667","25.1468133333333","6502300","八里區"
"248014","025-BX","2018/01/29 20:09:04","新北市五股區成泰路二段224號","121.439455","25.086","6501500","五股區"
"248016","026-BX","2018/01/29 20:08:52","新北市五股區天乙路67號","121.448125","25.104715","6501500","五股區"
"248018","225-UY","2018/01/29 20:08:54","新北市五股區自強路143號","121.431995","25.0694666666667","6501500","五股區"
"248012","247-BX","2018/01/29 20:09:05","新北市五股區民義路一段216號","121.430438333333","25.0895483333333","6501500","五股區"
"248004","677-BX","2018/01/29 20:09:06","新北市五股區成泰路一段173-1號","121.43523","25.07469","6501500","五股區"
"248002","678-BX","2018/01/29 20:09:00","新北市五股區成泰路三段323-1號","121.448073333333","25.0951166666667","6501500","五股區"
"248010","682-TV","2018/01/29 20:08:58","新北市五股區成泰路一段7巷11號","121.433073333333","25.0668183333333","6501500","五股區"
"234023","9380-KE","2018/01/29 20:08:54","新北市永和區豫溪街57巷4弄18號","121.517985","25.0103066666667","6500400","永和區"
"234077","969-R7","2018/01/29 20:09:07","新北市永和區民光街2號","121.515258333333","24.9964033333333","6500400","永和區"
"234074","AAC-211","2018/01/29 20:08:53","新北市永和區豫溪街165號","121.521761666667","25.0104916666667","6500400","永和區"
"234067","AAC-212","2018/01/29 20:09:03","新北市永和區保平路218號","121.509646666667","25.0059983333333","6500400","永和區"
"234003","AAC-295","2018/01/29 20:08:50","新北市永和區福和路294號","121.517155","25.0076116666667","6500400","永和區"
"243011","267-VK","2018/01/29 20:09:00","新北市泰山區壽山路160巷2號","121.417031666667","25.0310116666667","6501600","泰山區"
"243012","AAD-798","2018/01/29 20:08:57","新北市泰山區楓江路62號","121.436988333333","25.0631816666667","6501600","泰山區"
"243015","380-SR","2018/01/29 20:09:07","新北市泰山區明志路一段412號","121.430798333333","25.0567216666667","6501600","泰山區"
"243014","421-VK","2018/01/29 20:08:55","新北市五股區成泰路一段7巷1號","121.433565","25.066445","6501600","泰山區"
"243010","KEA-2215","2018/01/29 20:08:57","新北市泰山區明志路二段136巷11號","121.426578333333","25.051475","6501600","泰山區"
"243009","KEA-2216","2018/01/29 20:08:53","新北市泰山區泰林路二段120號","121.434686666667","25.0594183333333","6501600","泰山區"
"243013","646-TV","2018/01/29 20:08:58","新北市泰山區民國街11號","121.425395","25.0435833333333","6501600","泰山區"
"243016","680-BX","2018/01/29 20:09:05","新北市泰山區貴陽街3號","121.421091666667","25.0334283333333","6501600","泰山區"
"222003","016-RS","2018/01/29 20:08:53","新北市深坑區埔新街56號","121.620265","25.002545","6501800","深坑區"
"222002","659-BX","2018/01/29 20:09:00","新北市深坑區北深路三段158巷34號","121.601585","25.0045516666667","6501800","深坑區"
"231041","002-UM","2018/01/29 20:08:55","新北市新店區中正路468號","121.534028333333","24.9794233333333","6500600","新店區"
"231061","047-UY","2018/01/29 20:09:06","新北市新店區安興路61號","121.51621","24.9724233333333","6500600","新店區"
"231060","106-UY","2018/01/29 20:09:10","新北市新店區安康路三段422號","121.485421666667","24.95153","6500600","新店區"
"231051","107-UY","2018/01/29 20:09:00","新北市新店區中央路103號","121.530975","24.974895","6500600","新店區"
"231047","108-UY","2018/01/29 20:09:09","新北市新店區永華街32號","121.544541666667","24.975585","6500600","新店區"
"231052","110-UY","2018/01/29 20:09:01","新北市新店區新烏路三段286號","121.550066666667","24.8983","6500600","新店區"
"231050","KEA-2219","2018/01/29 20:08:56","新北市新店區北新路一段96巷23號","121.542733333333","24.96876","6500600","新店區"
"231057","256-BX","2018/01/29 20:09:00","新北市新店區花園一路一段2號","121.553146666667","24.9324366666667","6500600","新店區"
"231054","AAD-862","2018/01/29 20:08:52","新北市新店區檳榔路24號","121.541388333333","24.9640066666667","6500600","新店區"
"231058","3712-VJ","2018/01/29 20:08:53","新北市新店區薏仁坑路2-1號","121.500723333333","24.9580183333333","6500600","新店區"
"231056","3713-VJ","2018/01/29 20:09:09","新北市新店區北新路二段29巷3弄2號","121.54219","24.9731166666667","6500600","新店區"
"231067","4772-VM","2018/01/29 20:08:57","新北市新店區溪洲路101-1號","121.532253333333","24.9623083333333","6500600","新店區"
"231065","512-UM","2018/01/29 20:09:09","新北市新店區安祥路106巷202號","121.47432","24.9603066666667","6500600","新店區"
"231064","515-UM","2018/01/29 20:08:51","新北市新店區安德街60巷35號","121.511128333333","24.9637666666667","6500600","新店區"
"231042","616-UM","2018/01/29 20:08:47","新北市新店區中興路二段228號","121.547985","24.9752083333333","6500600","新店區"
"231059","618-UM","2018/01/29 20:08:59","新北市新店區安德街42號","121.511303333333","24.9625616666667","6500600","新店區"
"231040","619-UM","2018/01/29 20:09:05","新北市新店區中正路110號","121.542973333333","24.9705683333333","6500600","新店區"
"231063","645-TV","2018/01/29 20:09:07","新北市新店區黎明路55巷1號","121.502408333333","24.94831","6500600","新店區"
"231068","718-UY","2018/01/29 20:08:52","新北市新店區中興路二段99巷1號","121.547211666667","24.9719383333333","6500600","新店區"
"231049","719-UM","2018/01/29 20:09:00","新北市新店區北新路二段121巷1-1號","121.54226","24.97494","6500600","新店區"
"231062","720-UM","2018/01/29 20:08:47","新北市新店區安康路一段88號","121.528041666667","24.9619883333333","6500600","新店區"
"231044","897-TW","2018/01/29 20:08:51","新北市新店區寶元路一段15巷11號","121.54204","24.98708","6500600","新店區"
"231045","898-TW","2018/01/29 20:08:59","新北市新店區北宜路一段170號","121.54068","24.9530083333333","6500600","新店區"
"231043","899-TW","2018/01/29 20:09:11","新北市新店區民族路188號","121.536863333333","24.9760133333333","6500600","新店區"
"231066","AKT-0513","2018/01/29 20:08:53","新北市新店區安興路89-1號","121.51479","24.9757883333333","6500600","新店區"
"241011","013-R5","2018/01/29 20:08:49","新北市三重區秀江街252號","121.496153333333","25.0712733333333","6500200","三重區"
"241009","060-VK","2018/01/29 20:09:00","新北市三重區三和路四段386-1號","121.482181666667","25.0790983333333","6500200","三重區"
"241031","061-VK","2018/01/29 20:09:04","新北市三重區過圳街9-1號","121.488766666667","25.0601183333333","6500200","三重區"
"241015","062-VK","2018/01/29 20:08:51","新北市三重區福德北路30號","121.502195","25.0650433333333","6500200","三重區"
"241017","063-VK","2018/01/29 20:08:53","新北市三重區自強路一段236號","121.49316","25.0670533333333","6500200","三重區"
"241024","065-VK","2018/01/29 20:08:50","新北市三重區中正北路286號","121.480473333333","25.068665","6500200","三重區"
"241026","066-VK","2018/01/29 20:09:07","新北市三重區福德南路44號","121.503231666667","25.06245","6500200","三重區"
"241002","090-VK","2018/01/29 20:08:58","新北市三重區仁忠街51號","121.495028333333","25.081475","6500200","三重區"
"241003","091-VK","2018/01/29 20:08:53","新北市三重區仁愛街445巷1號","121.490093333333","25.08216","6500200","三重區"
"241025","156-TC","2018/01/29 20:09:03","新北市三重區中正北路428巷14號","121.474556666667","25.070395","6500200","三重區"
"241005","262-UM","2018/01/29 20:08:43","新北市三重區溪尾街327號","121.488371666667","25.0848783333333","6500200","三重區"
"241016","266-UM","2018/01/29 20:08:55","新北市三重區中正北路25巷2號","121.49313","25.06272","6500200","三重區"
"241018","268-UM","2018/01/29 20:08:54","新北市三重區正義北路256巷40號","121.49505","25.068245","6500200","三重區"
"241032","269-UM","2018/01/29 20:09:03","新北市三重區捷運路61號","121.48347","25.0556433333333","6500200","三重區"
"241013","270-UM","2018/01/29 20:08:54","新北市三重區三和路三段139巷25號","121.493685","25.073935","6500200","三重區"
"241007","398-BY","2018/01/29 20:08:56","新北市三重區仁美街50號","121.487026666667","25.077725","6500200","三重區"
"241020","413-TH","2018/01/29 20:08:55","新北市三重區忠孝路一段123號","121.48879","25.0720733333333","6500200","三重區"
"241035","462-BY","2018/01/29 20:08:51","新北市三重區平安街36號","121.498185","25.0640583333333","6500200","三重區"
"241019","478-VK","2018/01/29 20:08:38","新北市三重區自強路二段24號","121.489511666667","25.0693016666667","6500200","三重區"
"241030","480-VK","2018/01/29 20:09:07","新北市三重區成功路145巷21號","121.487623333333","25.0528616666667","6500200","三重區"
"241014","543-UM","2018/01/29 20:08:51","新北市三重區安和路41號","121.501016666667","25.069395","6500200","三重區"
"241023","545-UM","2018/01/29 20:09:02","新北市三重區頂崁街223號","121.47705","25.0678166666667","6500200","三重區"
"241001","547-UM","2018/01/29 20:08:58","新北市三重區三和路四段89巷28號","121.49028","25.076125","6500200","三重區"
"241006","AAD-863","2018/01/29 20:09:04","新北市三重區力行路二段105號","121.482868333333","25.0760983333333","6500200","三重區"
"241022","887-TS","2018/01/29 20:08:53","新北市三重區新北大道一段11號","121.488598333333","25.060595","6500200","三重區"
"241012","941-UM","2018/01/29 20:09:06","新北市三重區仁愛街125巷73號","121.497813333333","25.0758066666667","6500200","三重區"
"241029","942-UM","2018/01/29 20:08:50","新北市三重區光明路32巷16號","121.491775","25.058635","6500200","三重區"
"241033","AAC-255","2018/01/29 20:09:06","新北市三重區光復路一段68巷6號","121.471638333333","25.0492816666667","6500200","三重區"
"235066","003-UY","2018/01/29 20:08:57","新北市中和區水源路111號","121.507786666667","25.0031533333333","6500300","中和區"
"235063","031-BX","2018/01/29 20:09:00","新北市中和區安邦街16號","121.496005","24.9980483333333","6500300","中和區"
"235039","097-UM","2018/01/29 20:08:48","新北市中和區景平路278巷14弄1號","121.513783333333","24.993185","6500300","中和區"
"235065","098-UM","2018/01/29 20:08:55","新北市中和區福美路251號","121.49881","25.0051916666667","6500300","中和區"
"235040","150-BY","2018/01/29 20:08:59","新北市中和區保健路19巷4弄2號","121.508493333333","24.9984916666667","6500300","中和區"
"235058","151-BY","2018/01/29 20:09:05","新北市中和區員山路150巷2弄13號","121.481981666667","24.9978766666667","6500300","中和區"
"235044","293-VK","2018/01/29 20:09:04","新北市中和區復興路335號","121.500291666667","24.9901483333333","6500300","中和區"
"235068","377-QA","2018/01/29 20:09:07","新北市中和區永和路68號","121.49854","25.004745","6500300","中和區"
"235050","4979-A6","2018/01/29 20:09:02","新北市中和區景平路298號","121.512783333333","24.9926966666667","6500300","中和區"
"235069","4980-A6","2018/01/29 20:09:07","新北市中和區景新街64巷7弄6號","121.504218333333","24.9986366666667","6500300","中和區"
"235070","558-UM","2018/01/29 20:03:38","新北市中和區連勝街57巷35號","121.49854","24.9963966666667","6500300","中和區"
"235054","640-BX","2018/01/29 20:08:59","新北市中和區莒光路122號","121.47239","25.0017566666667","6500300","中和區"
"235046","733-UM","2018/01/29 20:08:55","新北市中和區忠孝街31巷22號","121.510133333333","24.9842683333333","6500300","中和區"
"235051","157-BY","2018/01/29 20:09:10","新北市中和區復興路73號","121.503673333333","24.9902116666667","6500300","中和區"
"235037","AAC-213","2018/01/29 20:09:03","新北市中和區自強路56號","121.520085","24.9946633333333","6500300","中和區"
"235059","AAC-215","2018/01/29 20:09:07","新北市中和區圓通路335巷33弄21號","121.493313333333","24.9888316666667","6500300","中和區"
"220068","013-TV","2018/01/29 20:09:03","新北市板橋區中山路二段363號","121.479776666667","25.0190583333333","6500100","板橋區"
"220065","072-UY","2018/01/29 20:09:05","新北市板橋區實踐路107號","121.464021666667","25.0052666666667","6500100","板橋區"
"220069","AAD-861","2018/01/29 20:09:00","新北市板橋區大明街25巷2弄26號","121.45739","25.0026683333333","6500100","板橋區"
"220090","120-SR","2018/01/29 20:09:05","新北市板橋區幸福路32巷65號","121.460336666667","25.02226","6500100","板橋區"
"247022","893-R6","2018/01/29 20:09:00","新北市蘆洲區三民路156號","121.47032","25.0880566666667","6501400","蘆洲區"
"247012","546-UM","2018/01/29 20:09:05","新北市蘆洲區民族路191-1號","121.478653333333","25.0889916666667","6501400","蘆洲區"
"247020","500-BY","2018/01/29 20:08:50","新北市蘆洲區民權路106巷5弄2-1號","121.474343333333","25.0891166666667","6501400","蘆洲區"
"247008","341-TH","2018/01/29 20:08:55","新北市蘆洲區中山一路135巷6弄30號","121.474788333333","25.080925","6501400","蘆洲區"
"247010","339-TH","2018/01/29 20:08:55","新北市蘆洲區集賢路400號","121.480308333333","25.0820516666667","6501400","蘆洲區"
"247002","337-TH","2018/01/29 20:08:49","新北市蘆洲區永康街2巷31號","121.45902","25.08653","6501400","蘆洲區"
"247004","336-TH","2018/01/29 20:09:00","新北市蘆洲區長安街267巷20號","121.457728333333","25.0834616666667","6501400","蘆洲區"
"247006","056-VK","2018/01/29 20:08:45","新北市蘆洲區九芎街1號","121.468766666667","25.0784683333333","6501400","蘆洲區"
"247016","053-VK","2018/01/29 20:08:53","新北市蘆洲區光華路133號","121.466386666667","25.08229","6501400","蘆洲區"
"247014","007-UY","2018/01/29 20:09:07","新北市蘆洲區中山二路243號","121.470076666667","25.0799083333333","6501400","蘆洲區"
"247024","002-UY","2018/01/29 20:09:00","新北市蘆洲區光明路88巷19號","121.463246666667","25.0871533333333","6501400","蘆洲區"
"247018","001-UY","2018/01/29 20:08:54","新北市蘆洲區民族路314巷14號","121.477735","25.0903516666667","6501400","蘆洲區"
"222001","KEA-2212","2018/01/29 20:08:54","新北市深坑區北深路三段214號","121.601093333333","25.0038","6501800","深坑區"
"208003","665-BX","2018/01/29 20:08:48","新北市金山區海興路186號","121.633005","25.24046","6502700","金山區"
"251009","008-UM","2018/01/29 20:08:49","新北市淡水區清水街22號","121.44508","25.17042","6501000","淡水區"
"251004","009-UM","2018/01/29 20:08:52","新北市淡水區民族路29巷38號","121.461626666667","25.1369666666667","6501000","淡水區"
"251013","179-VK","2018/01/29 20:08:58","新北市淡水區奎柔山路578號","121.468526666667","25.2051516666667","6501000","淡水區"
"251014","180-VK","2018/01/29 20:08:57","新北市淡水區石頭厝3號","121.458706666667","25.2355433333333","6501000","淡水區"
"251015","182-VK","2018/01/29 20:08:50","新北市淡水區埤島80-2號","121.449123333333","25.1893666666667","6501000","淡水區"
"251010","413-VK","2018/01/29 20:08:56","新北市淡水區崁頂五路303號","121.424783333333","25.1990966666667","6501000","淡水區"
"251012","441-VK","2018/01/29 20:09:04","新北市淡水區淡金路三段317號","121.44908","25.2058583333333","6501000","淡水區"
"251016","442-VK","2018/01/29 20:08:58","新北市淡水區番子田18-4號","121.456586666667","25.2295216666667","6501000","淡水區"
"251006","561-UM","2018/01/29 20:09:02","新北市淡水區北新路141巷5號","121.44913","25.17935","6501000","淡水區"
"251003","766-UM","2018/01/29 20:09:02","新北市淡水區中山北路二段189巷15弄29號","121.443378333333","25.1840733333333","6501000","淡水區"
"207003","550-UM","2018/01/29 20:09:08","新北市萬里區大鵬里萬里加投176號","121.643001666667","25.215675","6502800","萬里區"
"207004","225-TW","2018/01/29 20:08:59","新北市萬里區北基里大勇路13號","121.681903333333","25.176605","6502800","萬里區"
"252002","178-VK","2018/01/29 20:09:07","新北市三芝區三民街37-1號","121.504796666667","25.2586216666667","6502100","三芝區"
"252001","292-VK","2018/01/29 20:08:42","新北市三芝區公正街9號","121.499778333333","25.257495","6502100","三芝區"
"237004","078-UY","2018/01/29 20:09:09","新北市三峽區民權街151-1號","121.368586666667","24.9316233333333","6500900","三峽區"
"237007","153-BY","2018/01/29 20:09:01","新北市三峽區二鬮路136巷24弄65號","121.357376666667","24.9104366666667","6500900","三峽區"
"237009","210-TH","2018/01/29 20:09:06","新北市三峽區民權街175號","121.367921666667","24.9299166666667","6500900","三峽區"
"237012","275-BY","2018/01/29 20:09:08","新北市三峽區中華路48巷16號","121.371125","24.93011","6500900","三峽區"
"237008","302-VK","2018/01/29 20:08:53","新北市三峽區中華路75巷17-1號","121.372673333333","24.9296233333333","6500900","三峽區"
"237014","433-BY","2018/01/29 20:08:50","新北市三峽區添福13-1號","121.374481666667","24.907655","6500900","三峽區"
"237006","5529-G3","2018/01/29 20:08:54","新北市三峽區嘉添181-3號","121.370241666667","24.9113233333333","6500900","三峽區"
"237005","AKY-6261","2018/01/29 20:09:07","新北市三峽區民生街1巷5-1號","121.378416666667","24.9364883333333","6500900","三峽區"
"236069","105-UM","2018/01/29 20:09:10","新北市土城區中央路三段147巷2弄16號","121.432001666667","24.964905","6501300","土城區"
"236042","107-UM","2018/01/29 20:08:59","新北市土城區學成路22巷1弄2號","121.453306666667","24.98741","6501300","土城區"
"236078","166-UM","2018/01/29 20:09:03","新北市土城區三民路25號","121.42022","24.96367","6501300","土城區"
"236030","253-BX","2018/01/29 20:09:09","新北市土城區中央路一段118巷1弄13號","121.44577","24.9877716666667","6501300","土城區"
"236026","269-VK","2018/01/29 20:09:05","新北市土城區中央路一段267巷13號","121.445628333333","24.9850733333333","6501300","土城區"
"236014","270-VK","2018/01/29 20:09:08","新北市土城區廣明街2號","121.456075","24.9917283333333","6501300","土城區"
"236036","271-VK","2018/01/29 20:09:07","新北市土城區延吉街296巷1弄1號","121.464445","24.9843766666667","6501300","土城區"
"236020","401-BY","2018/01/29 20:08:49","新北市土城區延吉街107號","121.471448333333","24.9867216666667","6501300","土城區"
"236048","913-UM","2018/01/29 20:09:00","新北市土城區金城路三段182-3號","121.46808","24.98788","6501300","土城區"
"236062","915-UM","2018/01/29 20:08:56","新北市土城區延和路12巷15號","121.464573333333","24.9874383333333","6501300","土城區"
"236053","AAC-216","2018/01/29 20:08:57","新北市土城區學成路104號","121.449961666667","24.98906","6501300","土城區"
"242031","AAC-296","2018/01/29 20:09:01","新北市新莊區忠孝街29巷19號","121.443515","25.0361466666667","6500500","新莊區"
"242029","986-R7","2018/01/29 20:08:48","新北市新莊區中榮街152巷18號","121.44603","25.0534783333333","6500500","新莊區"
"242025","615-BX","2018/01/29 20:08:49","新北市新莊區五工三路78巷16號","121.459518333333","25.065515","6500500","新莊區"
"242023","613-BX","2018/01/29 20:09:00","新北市新莊區化成路540-2號","121.466315","25.053405","6500500","新莊區"
"242027","612-BX","2018/01/29 20:09:01","新北市新莊區幸福路838號","121.444875","25.0492266666667","6500500","新莊區"
"242039","566-BX","2018/01/29 20:09:09","新北市新莊區民安西路89號","121.427026666667","25.0190833333333","6500500","新莊區"
"242053","440-UM","2018/01/29 20:08:59","新北市新莊區西盛街395巷9號","121.42825","25.0126383333333","6500500","新莊區"
"242034","415-TV","2018/01/29 20:08:49","新北市新莊區中正路318巷16號","121.446608333333","25.0358916666667","6500500","新莊區"
"242004","413-TV","2018/01/29 20:08:58","新北市新莊區頭興街9巷1號","121.462233333333","25.0534983333333","6500500","新莊區"
"242042","400-BY","2018/01/29 20:08:52","新北市新莊區壽山路164號","121.413281666667","25.0312216666667","6500500","新莊區"
"242060","362-BY","2018/01/29 20:08:56","新北市新莊區瓊林路瓊英巷4弄2號","121.443645","25.0273833333333","6500500","新莊區"
"242058","353-BY","2018/01/29 20:09:07","新北市新莊區龍安路284號","121.422441666667","25.0191516666667","6500500","新莊區"
"242007","132-UY","2018/01/29 20:09:03","新北市新莊區福壽街202巷35號","121.45938","25.0535716666667","6500500","新莊區"
"242036","133-UY","2018/01/29 20:09:04","新北市新莊區建安街25巷9號","121.42951","25.0262266666667","6500500","新莊區"
"242021","135-UY","2018/01/29 20:08:54","新北市新莊區建中街28號","121.449003333333","25.0375283333333","6500500","新莊區"
"242046","172-VK","2018/01/29 20:08:48","新北市新莊區裕民街55巷7號","121.419256666667","25.0238233333333","6500500","新莊區"
"242009","173-VK","2018/01/29 20:09:00","新北市新莊區昌盛街22號","121.453861666667","25.0498816666667","6500500","新莊區"
"242015","175-VK","2018/01/29 20:08:51","新北市新莊區中平路26巷11號","121.445368333333","25.0433483333333","6500500","新莊區"
"242002","176-VK","2018/01/29 20:09:01","新北市新莊區中正路171號","121.454466666667","25.0364966666667","6500500","新莊區"
"242013","346-TH","2018/01/29 20:09:08","新北市新莊區幸福路698號","121.450021666667","25.0495616666667","6500500","新莊區"
"242050","347-TH","2018/01/29 20:08:47","新北市新莊區民安西路172巷6弄6號","121.425321666667","25.016275","6500500","新莊區"
"242019","348-TH","2018/01/29 20:09:02","新北市新莊區博愛路1巷2號","121.456493333333","25.0427916666667","6500500","新莊區"
"242056","349-TH","2018/01/29 20:09:00","新北市新莊區新莊路649巷15弄1號","121.445053333333","25.031495","6500500","新莊區"
"242017","350-TH","2018/01/29 20:09:08","新北市新莊區中港一街12號","121.451601666667","25.04577","6500500","新莊區"
"242011","351-TH","2018/01/29 20:09:00","新北市新莊區中信街61號","121.449315","25.0507866666667","6500500","新莊區"
"238015","755-BX","2018/01/29 20:09:03","新北市樹林區中山路三段204號","121.387078333333","24.9683716666667","6500700","樹林區"
"238021","KEA-2217","2018/01/29 20:08:53","新北市樹林區田尾街192巷10號","121.40009","24.9495216666667","6500700","樹林區"
"239006","891-R6","2018/01/29 20:08:58","新北市鶯歌區文化路72-4號","121.354931666667","24.95376","6500800","鶯歌區"
"221036","130-UY","2018/01/29 20:09:00","新北市汐止區新台五路二段110號","121.662676666667","25.066065","6501100","汐止區"
"221010","269-BY","2018/01/29 20:08:52","新北市汐止區八連路一段198巷2號","121.642816666667","25.0825383333333","6501100","汐止區"
"221012","278-VK","2018/01/29 20:09:06","新北市汐止區汐平路二段15號","121.69581","25.0643883333333","6501100","汐止區"
"221023","279-VK","2018/01/29 20:08:54","新北市汐止區明峰街298巷8弄2號","121.625075","25.06844","6501100","汐止區"
"221032","280-BY","2018/01/29 20:09:07","新北市汐止區弘道街10號","121.616998333333","25.0485566666667","6501100","汐止區"
"221027","281-BY","2018/01/29 20:08:58","新北市汐止區中正路102號","121.661026666667","25.06948","6501100","汐止區"
"221002","297-VK","2018/01/29 20:08:52","新北市汐止區伯爵街2巷31號","121.643111666667","25.075635","6501100","汐止區"
"221029","298-VK","2018/01/29 20:09:01","新北市汐止區樟樹一路123巷19號","121.641375","25.064505","6501100","汐止區"
"221021","299-VK","2018/01/29 20:08:55","新北市汐止區新台五路一段151號","121.653645","25.06226","6501100","汐止區"
"221031","353-TW","2018/01/29 20:09:02","新北市汐止區中興路214巷14號","121.631686666667","25.0666516666667","6501100","汐止區"
"221008","358-BY","2018/01/29 20:09:03","新北市汐止區忠三街9巷28-1號","121.624676666667","25.08024","6501100","汐止區"
"221015","567-BX","2018/01/29 20:09:08","新北市汐止區建成路26號","121.664488333333","25.0726466666667","6501100","汐止區"
"221035","622-UM","2018/01/29 20:09:02","新北市汐止區長江街67巷2弄1號","121.656703333333","25.0722183333333","6501100","汐止區"
"221025","623-UM","2018/01/29 20:09:00","新北市汐止區秀峰路78號","121.65991","25.0642283333333","6501100","汐止區"
"221038","646-BX","2018/01/29 20:08:51","新北市汐止區忠孝東路528號","121.666985","25.076265","6501100","汐止區"
"221033","647-BX","2018/01/29 20:08:56","新北市汐止區東勢街201巷104號","121.63355","25.0429716666667","6501100","汐止區"
"221018","753-BX","2018/01/29 20:09:03","新北市汐止區茄福街35巷29號","121.673251666667","25.0663633333333","6501100","汐止區"
"220080","200-UY","2018/01/29 20:09:05","新北市板橋區大觀路二段187巷21號","121.445895","24.9995016666667","6500100","板橋區"
"220101","245-BX","2018/01/29 20:09:05","新北市板橋區縣民大道三段133巷35號","121.476878333333","25.024855","6500100","板橋區"
"220096","255-TC","2018/01/29 20:09:02","新北市板橋區莒光路79巷12號","121.472066666667","25.02459","6500100","板橋區"
"220103","257-TC","2018/01/29 20:09:02","新北市板橋區文化路一段435巷31弄11號","121.466856666667","25.0229166666667","6500100","板橋區"
"220072","277-BY","2018/01/29 20:08:53","新北市板橋區篤行路二段73號","121.431703333333","24.9919966666667","6500100","板橋區"
"220094","283-UM","2018/01/29 20:08:58","新北市板橋區文化路一段322-1號","121.467696666667","25.0223066666667","6500100","板橋區"
"220071","283-VK","2018/01/29 20:08:59","新北市板橋區和平路174巷1弄4號","121.464291666667","24.995035","6500100","板橋區"
"220053","285-VK","2018/01/29 20:09:02","新北市板橋區懷仁街49-1號","121.476748333333","25.0191366666667","6500100","板橋區"
"220083","286-VK","2018/01/29 20:09:01","新北市板橋區僑中二街10巷1號","121.447141666667","25.0106983333333","6500100","板橋區"
"220081","287-VK","2018/01/29 20:08:53","新北市板橋區僑中一街124巷20弄35號","121.447593333333","25.0138833333333","6500100","板橋區"
"220061","293-UM","2018/01/29 20:09:04","新北市板橋區觀光街55號","121.470523333333","25.0163433333333","6500100","板橋區"
"220062","295-UM","2018/01/29 20:08:59","新北市板橋區萬安街20巷6弄14號","121.48518","25.0231783333333","6500100","板橋區"
"220084","296-UM","2018/01/29 20:08:57","新北市板橋區溪崑二街112巷22號","121.425836666667","24.9889616666667","6500100","板橋區"
"242048","281-VK","2018/01/29 20:09:06","新北市新莊區後港二路29號","121.422361666667","25.0232","6500500","新莊區"
"220092","307-R5","2018/01/29 20:08:54","新北市板橋區文化路一段141號","121.461996666667","25.015655","6500100","板橋區"
"220098","317-R6","2018/01/29 20:08:52","新北市板橋區漢生西路165巷1號","121.462913333333","25.0232616666667","6500100","板橋區"
"220064","486-VK","2018/01/29 20:09:09","新北市板橋區館前東路152號","121.464408333333","25.0077583333333","6500100","板橋區"
"220089","487-VK","2018/01/29 20:09:01","新北市板橋區新海路386號","121.45912","25.0263016666667","6500100","板橋區"
"220088","491-VK","2018/01/29 20:08:51","新北市板橋區懷德街127巷23弄7號","121.479296666667","25.0317183333333","6500100","板橋區"
"220055","568-UM","2018/01/29 20:08:55","新北市板橋區仁愛路86巷24號","121.460715","24.998655","6500100","板橋區"
"220093","689-BX","2018/01/29 20:08:58","新北市板橋區長江路二段210號","121.467725","25.0322116666667","6500100","板橋區"
"220054","741-BX","2018/01/29 20:09:09","新北市板橋區忠孝路忠義巷14弄1號","121.465541666667","25.0036033333333","6500100","板橋區"
"220067","829-TW","2018/01/29 20:08:59","新北市板橋區中山路一段210號","121.469975","25.0138916666667","6500100","板橋區"
"220074","895-R6","2018/01/29 20:09:06","新北市板橋區大東街35號","121.456613333333","25.0086866666667","6500100","板橋區"
"220097","AAC-210","2018/01/29 20:08:50","新北市板橋區光正街18巷9號","121.462548333333","25.0175933333333","6500100","板橋區"
"220070","AAC-253","2018/01/29 20:09:07","新北市板橋區德興街13號","121.453428333333","24.99439","6500100","板橋區"
