"lineid","car","time","location","longitude","latitude","cityid","cityname"
"234064","337-UY","2018/01/29 20:38:56","新北市永和區光復街13號","121.516476666667","25.0172816666667","6500400","永和區"
"234054","KEA-2590","2018/01/29 20:39:03","新北市永和區環河東路一段76號","121.519663333333","25.0166966666667","6500400","永和區"
"234067","KEA-2591","2018/01/29 20:38:45","新北市永和區保平路268巷51弄6號","121.506861666667","25.0062516666667","6500400","永和區"
"234061","AAD-866","2018/01/29 20:39:03","新北市永和區中正路381號","121.517116666667","25.00374","6500400","永和區"
"234050","863-TW","2018/01/29 20:38:48","新北市永和區保安路77號","121.508706666667","25.0148366666667","6500400","永和區"
"249004","303-UY","2018/01/29 20:38:51","新北市八里區中山路一段157巷67號","121.412348333333","25.157795","6502300","八里區"
"234023","9380-KE","2018/01/29 20:38:54","新北市永和區光復街2巷16弄15號","121.517635","25.0163233333333","6500400","永和區"
"234074","AAC-211","2018/01/29 20:38:53","新北市永和區竹林路119巷16號","121.521036666667","25.0114433333333","6500400","永和區"
"243012","AAD-798","2018/01/29 20:38:57","新北市泰山區泰林路三段643號","121.40403","25.0701483333333","6501600","泰山區"
"243014","421-VK","2018/01/29 20:38:55","新北市泰山區泰林路三段745巷145號","121.405596666667","25.067845","6501600","泰山區"
"243010","KEA-2215","2018/01/29 20:38:57","新北市泰山區公園路88-1號","121.422935","25.057705","6501600","泰山區"
"243016","680-BX","2018/01/29 20:39:05","新北市泰山區明志路二段189號","121.427511666667","25.049405","6501600","泰山區"
"222003","016-RS","2018/01/29 20:38:53","新北市深坑區深坑街151號","121.613063333333","25.0011266666667","6501800","深坑區"
"222002","659-BX","2018/01/29 20:39:00","新北市深坑區萬福路45號","121.599453333333","25.0068683333333","6501800","深坑區"
"231041","002-UM","2018/01/29 20:38:55","新北市新店區中正路543-4號","121.533651666667","24.9874916666667","6500600","新店區"
"231061","047-UY","2018/01/29 20:38:45","新北市新店區新和街46號","121.519351666667","24.9849483333333","6500600","新店區"
"231060","106-UY","2018/01/29 20:38:53","新北市新店區安康路三段666號","121.476026666667","24.944265","6500600","新店區"
"231051","107-UY","2018/01/29 20:39:00","新北市新店區中央七街45號","121.528801666667","24.97583","6500600","新店區"
"231047","108-UY","2018/01/29 20:39:01","新北市新店區寶慶街35巷1弄5號","121.543406666667","24.9866833333333","6500600","新店區"
"231052","110-UY","2018/01/29 20:39:01","新北市新店區松林路51號","121.544436666667","24.9113583333333","6500600","新店區"
"231050","KEA-2219","2018/01/29 20:38:56","新北市新店區建安街15巷1號","121.539743333333","24.9753916666667","6500600","新店區"
"231057","256-BX","2018/01/29 20:39:00","新北市新店區花園六路二段4號","121.554283333333","24.9334266666667","6500600","新店區"
"231054","AAD-862","2018/01/29 20:38:52","新北市新店區北新路一段64巷39弄16號","121.542535","24.9658683333333","6500600","新店區"
"231058","3712-VJ","2018/01/29 20:38:53","新北市新店區平等街46巷2號","121.536448333333","24.9733016666667","6500600","新店區"
"231056","3713-VJ","2018/01/29 20:38:49","新北市新店區中正路487-3號","121.53264","24.9818983333333","6500600","新店區"
"231065","512-UM","2018/01/29 20:38:49","新北市新店區安祥路102巷138號","121.486606666667","24.9646733333333","6500600","新店區"
"231064","515-UM","2018/01/29 20:38:51","新北市新店區安和路三段151號","121.516691666667","24.9856066666667","6500600","新店區"
"231042","616-UM","2018/01/29 20:38:47","新北市新店區寶高路118號","121.554525","24.9759666666667","6500600","新店區"
"231059","618-UM","2018/01/29 20:38:59","新北市新店區僑信路60號","121.499346666667","24.949515","6500600","新店區"
"231040","619-UM","2018/01/29 20:38:45","新北市新店區中正路272號","121.538906666667","24.9736233333333","6500600","新店區"
"231063","645-TV","2018/01/29 20:38:47","新北市新店區玫瑰路14號","121.49459","24.9504966666667","6500600","新店區"
"231068","718-UY","2018/01/29 20:38:52","新北市新店區寶元路一段65號","121.542208333333","24.9858366666667","6500600","新店區"
"231049","719-UM","2018/01/29 20:39:00","新北市新店區永業路81巷9弄12號","121.531281666667","24.9508383333333","6500600","新店區"
"231062","720-UM","2018/01/29 20:38:47","新北市新店區安泰路12巷2號","121.485496666667","24.9502083333333","6500600","新店區"
"231044","897-TW","2018/01/29 20:38:50","新北市新店區建國路293巷1號","121.536716666667","24.9861266666667","6500600","新店區"
"231045","898-TW","2018/01/29 20:38:59","新北市新店區長春路54號","121.550773333333","24.957845","6500600","新店區"
"231043","899-TW","2018/01/29 20:38:51","新北市新店區建國路31號","121.54025","24.9741533333333","6500600","新店區"
"231066","AKT-0513","2018/01/29 20:38:53","新北市新店區安興路112號","121.514653333333","24.97753","6500600","新店區"
"241011","013-R5","2018/01/29 20:38:48","新北市三重區龍門路96號","121.497425","25.07276","6500200","三重區"
"241009","060-VK","2018/01/29 20:39:00","新北市三重區永福街75號","121.480188333333","25.0777766666667","6500200","三重區"
"241031","061-VK","2018/01/29 20:38:43","新北市三重區重陽路一段43巷30號","121.488153333333","25.0586066666667","6500200","三重區"
"241015","062-VK","2018/01/29 20:38:51","新北市三重區文化北路89號","121.498081666667","25.0678266666667","6500200","三重區"
"241017","063-VK","2018/01/29 20:38:53","新北市三重區大同北路273號","121.490791666667","25.0673816666667","6500200","三重區"
"241024","065-VK","2018/01/29 20:38:50","新北市三重區三民街277號","121.479211666667","25.0680633333333","6500200","三重區"
"241026","066-VK","2018/01/29 20:38:51","新北市三重區和平街4號","121.500408333333","25.062595","6500200","三重區"
"241002","090-VK","2018/01/29 20:38:58","新北市三重區仁義街167巷28號","121.498006666667","25.082145","6500200","三重區"
"241003","091-VK","2018/01/29 20:39:02","新北市三重區仁義街415號","121.494128333333","25.0859533333333","6500200","三重區"
"241025","156-TC","2018/01/29 20:38:53","新北市三重區頂崁街210巷36號","121.475746666667","25.06793","6500200","三重區"
"241005","262-UM","2018/01/29 20:39:04","新北市三重區碧華街395號","121.493006666667","25.08572","6500200","三重區"
"241016","266-UM","2018/01/29 20:38:55","新北市三重區長壽西街142-1號","121.494796666667","25.0668283333333","6500200","三重區"
"241018","268-UM","2018/01/29 20:38:54","新北市三重區自強路一段195號","121.491733333333","25.0682233333333","6500200","三重區"
"241032","269-UM","2018/01/29 20:38:43","新北市三重區重陽路一段120巷48號","121.485051666667","25.0601766666667","6500200","三重區"
"241013","270-UM","2018/01/29 20:38:54","新北市三重區三和路四段11號","121.491303333333","25.07411","6500200","三重區"
"241007","398-BY","2018/01/29 20:38:56","新北市三重區仁美街2號","121.488705","25.07701","6500200","三重區"
"241020","413-TH","2018/01/29 20:38:55","新北市三重區三和路三段140號","121.493393333333","25.0723283333333","6500200","三重區"
"241035","462-BY","2018/01/29 20:38:51","新北市三重區正義北路275-1號","121.49515","25.0701416666667","6500200","三重區"
"241019","478-VK","2018/01/29 20:38:58","新北市三重區重陽路四段120號","121.492141666667","25.070665","6500200","三重區"
"241030","480-VK","2018/01/29 20:38:47","新北市三重區成功路73巷11號","121.489575","25.0518466666667","6500200","三重區"
"241014","543-UM","2018/01/29 20:38:51","新北市三重區長榮路22號","121.500578333333","25.0688216666667","6500200","三重區"
"241023","545-UM","2018/01/29 20:38:56","新北市三重區自由街33號","121.479253333333","25.0668283333333","6500200","三重區"
"241001","547-UM","2018/01/29 20:38:58","新北市三重區自強路三段110巷1號","121.486786666667","25.0747766666667","6500200","三重區"
"241022","887-TS","2018/01/29 20:38:53","新北市三重區民生街61巷6弄3號","121.488613333333","25.0621883333333","6500200","三重區"
"241012","941-UM","2018/01/29 20:38:45","新北市三重區秀江街26號","121.502478333333","25.073045","6500200","三重區"
"241029","942-UM","2018/01/29 20:38:50","新北市三重區集美街126巷26號","121.489998333333","25.05385","6500200","三重區"
"241033","AAC-255","2018/01/29 20:38:56","新北市三重區光復路二段87巷35號","121.47424","25.0579016666667","6500200","三重區"
"235065","098-UM","2018/01/29 20:38:55","新北市中和區景平路768號","121.496255","25.005","6500300","中和區"
"235069","4980-A6","2018/01/29 20:39:02","新北市中和區連城路347巷18弄24號","121.487651666667","24.9947433333333","6500300","中和區"
"235026","800-TS","2018/01/29 20:31:32","新北市中和區員山路36巷16-3號","121.484738333333","24.99167","6500300","中和區"
"247022","893-R6","2018/01/29 20:39:00","新北市蘆洲區中正路243巷7弄2號","121.467268333333","25.0861066666667","6501400","蘆洲區"
"247012","546-UM","2018/01/29 20:38:46","新北市蘆洲區中興街138號","121.482266666667","25.08963","6501400","蘆洲區"
"247020","500-BY","2018/01/29 20:38:50","新北市蘆洲區民族路424-1號","121.473886666667","25.09185","6501400","蘆洲區"
"247008","341-TH","2018/01/29 20:38:55","新北市蘆洲區重陽街48號","121.481466666667","25.0832116666667","6501400","蘆洲區"
"247010","339-TH","2018/01/29 20:38:55","新北市蘆洲區集賢路400號","121.48028","25.0820666666667","6501400","蘆洲區"
"247002","337-TH","2018/01/29 20:38:58","新北市蘆洲區長安街381號","121.457131666667","25.08807","6501400","蘆洲區"
"247004","336-TH","2018/01/29 20:39:00","新北市蘆洲區長安街295號","121.458146666667","25.0847383333333","6501400","蘆洲區"
"247006","056-VK","2018/01/29 20:38:45","新北市蘆洲區和平路190號","121.46606","25.08158","6501400","蘆洲區"
"247016","053-VK","2018/01/29 20:38:53","新北市蘆洲區中山二路218號","121.469943333333","25.0798383333333","6501400","蘆洲區"
"247014","007-UY","2018/01/29 20:38:47","新北市蘆洲區中山一路216號","121.472908333333","25.0806833333333","6501400","蘆洲區"
"247024","002-UY","2018/01/29 20:39:00","新北市蘆洲區光復路42號","121.463751666667","25.084995","6501400","蘆洲區"
"222001","KEA-2212","2018/01/29 20:38:54","新北市深坑區北深路三段228號","121.600826666667","25.0039666666667","6501800","深坑區"
"251013","179-VK","2018/01/29 20:38:58","新北市淡水區下圭柔山28巷7弄10號","121.45794","25.2041983333333","6501000","淡水區"
"251014","180-VK","2018/01/29 20:38:57","新北市淡水區桂竹圍13號","121.472248333333","25.2328583333333","6501000","淡水區"
"251008","181-VK","2018/01/29 20:39:03","新北市淡水區沙崙路183巷6號","121.424436666667","25.1848133333333","6501000","淡水區"
"251015","182-VK","2018/01/29 20:38:50","新北市淡水區淡金路四段542巷17號","121.4527","25.2270866666667","6501000","淡水區"
"251010","413-VK","2018/01/29 20:38:56","新北市淡水區沙崙路181巷15號","121.423966666667","25.1843516666667","6501000","淡水區"
"251012","441-VK","2018/01/29 20:38:44","新北市淡水區興仁路105號","121.451566666667","25.2181183333333","6501000","淡水區"
"251016","442-VK","2018/01/29 20:38:58","新北市淡水區後洲子8-2號","121.449555","25.22403","6501000","淡水區"
"251001","559-UM","2018/01/29 20:38:59","新北市淡水區淡金路65號","121.45624","25.16148","6501000","淡水區"
"251006","561-UM","2018/01/29 20:38:57","新北市淡水區商工路186巷1號","121.450448333333","25.1882883333333","6501000","淡水區"
"251011","650-BX","2018/01/29 20:38:53","新北市淡水區新市一路一段306號","121.43636","25.1861283333333","6501000","淡水區"
"251003","766-UM","2018/01/29 20:39:02","新北市淡水區新民街120巷54號","121.438745","25.1784383333333","6501000","淡水區"
"252002","178-VK","2018/01/29 20:38:47","新北市三芝區淡金路二段76號","121.503616666667","25.2607933333333","6502100","三芝區"
"237004","078-UY","2018/01/29 20:38:49","新北市鶯歌區中正一路阿南巷501號","121.379881666667","24.9641283333333","6500900","三峽區"
"237012","275-BY","2018/01/29 20:37:48","新北市樹林區中山路三段214號","121.379956666667","24.96795","6500900","三峽區"
"242031","AAC-296","2018/01/29 20:39:00","新北市新莊區三泰路56號","121.437098333333","25.0357016666667","6500500","新莊區"
"242029","986-R7","2018/01/29 20:38:48","新北市新莊區中華路二段165號","121.452861666667","25.051975","6500500","新莊區"
"242025","615-BX","2018/01/29 20:38:49","新北市新莊區五工一路72巷17號","121.461891666667","25.0662466666667","6500500","新莊區"
"242023","613-BX","2018/01/29 20:39:00","新北市新莊區化成路289號","121.466071666667","25.0549616666667","6500500","新莊區"
"242027","612-BX","2018/01/29 20:39:01","新北市新莊區思源路157號","121.45993","25.044565","6500500","新莊區"
"242039","566-BX","2018/01/29 20:38:52","新北市新莊區民安路377-1號","121.43164","25.0230583333333","6500500","新莊區"
"242053","440-UM","2018/01/29 20:38:59","新北市新莊區西盛街323巷9號","121.42881","25.0147316666667","6500500","新莊區"
"242034","415-TV","2018/01/29 20:38:49","新北市新莊區中正路334巷25弄2號","121.445466666667","25.0359516666667","6500500","新莊區"
"242004","413-TV","2018/01/29 20:38:58","新北市新莊區化成路363巷55號","121.463393333333","25.0566466666667","6500500","新莊區"
"242042","400-BY","2018/01/29 20:38:52","新北市新莊區天祥街47巷1號","121.416716666667","25.028695","6500500","新莊區"
"242060","362-BY","2018/01/29 20:39:01","新北市新莊區新樹路417號","121.4327","25.0142033333333","6500500","新莊區"
"242058","353-BY","2018/01/29 20:38:47","新北市新莊區民安路138號","121.424176666667","25.025335","6500500","新莊區"
"242007","132-UY","2018/01/29 20:38:43","新北市新莊區思源路287巷1弄29號","121.459521666667","25.0471383333333","6500500","新莊區"
"242036","133-UY","2018/01/29 20:38:44","新北市新莊區後港一路28巷1弄13號","121.42606","25.025895","6500500","新莊區"
"242021","135-UY","2018/01/29 20:38:57","新北市新莊區中華路一段73號","121.452243333333","25.040145","6500500","新莊區"
"242046","172-VK","2018/01/29 20:38:48","新北市新莊區裕民街18巷11號","121.418533333333","25.0256783333333","6500500","新莊區"
"242009","173-VK","2018/01/29 20:39:00","新北市新莊區福壽街99巷8弄1號","121.456745","25.0505","6500500","新莊區"
"242015","175-VK","2018/01/29 20:39:02","新北市新莊區中和街48號","121.448156666667","25.044465","6500500","新莊區"
"242002","176-VK","2018/01/29 20:39:01","新北市新莊區明中街12-17號","121.458258333333","25.0387566666667","6500500","新莊區"
"242013","346-TH","2018/01/29 20:38:48","新北市新莊區中和街191巷1-1號","121.447995","25.051205","6500500","新莊區"
"242050","347-TH","2018/01/29 20:38:47","新北市新莊區西盛街280巷3號","121.427703333333","25.0152383333333","6500500","新莊區"
"242019","348-TH","2018/01/29 20:38:42","新北市新莊區中港路106號","121.455468333333","25.0396866666667","6500500","新莊區"
"242056","349-TH","2018/01/29 20:39:00","新北市新莊區新莊路751巷85號","121.442798333333","25.0307583333333","6500500","新莊區"
"242011","351-TH","2018/01/29 20:39:00","新北市新莊區中榮街122巷18號","121.446625","25.05349","6500500","新莊區"
"221036","130-UY","2018/01/29 20:39:00","新北市汐止區新昌路11號","121.66197","25.06722","6501100","汐止區"
"221012","278-VK","2018/01/29 20:39:06","新北市汐止區汐萬路一段39號","121.655016666667","25.0690083333333","6501100","汐止區"
"221023","279-VK","2018/01/29 20:38:53","新北市汐止區民族二街30巷13號","121.634306666667","25.071715","6501100","汐止區"
"221032","280-BY","2018/01/29 20:38:47","新北市汐止區民權街二段28號","121.619308333333","25.050025","6501100","汐止區"
"221027","281-BY","2018/01/29 20:38:58","新北市汐止區大同路二段463巷2號","121.660173333333","25.06846","6501100","汐止區"
"221002","297-VK","2018/01/29 20:38:52","新北市汐止區福德二路171號","121.630755","25.0651483333333","6501100","汐止區"
"221029","298-VK","2018/01/29 20:39:01","新北市汐止區大同路一段421號","121.642638333333","25.0611616666667","6501100","汐止區"
"221021","299-VK","2018/01/29 20:38:55","新北市汐止區水源路一段284號","121.654116666667","25.0582983333333","6501100","汐止區"
"221031","353-TW","2018/01/29 20:39:02","新北市汐止區中興路27巷21號","121.634068333333","25.0608416666667","6501100","汐止區"
"221008","358-BY","2018/01/29 20:39:03","新北市汐止區伯爵街1巷14號","121.641305","25.07512","6501100","汐止區"
"221015","567-BX","2018/01/29 20:38:48","新北市汐止區建成路37巷1號","121.663693333333","25.0728033333333","6501100","汐止區"
"221035","622-UM","2018/01/29 20:39:02","新北市汐止區長江街101-5號","121.65876","25.07319","6501100","汐止區"
"221025","623-UM","2018/01/29 20:39:00","新北市汐止區水源路二段283巷1號","121.659218333333","25.0498116666667","6501100","汐止區"
"221038","646-BX","2018/01/29 20:38:51","新北市汐止區新興路3號","121.656613333333","25.06525","6501100","汐止區"
"221033","647-BX","2018/01/29 20:38:56","新北市汐止區合順街18巷8弄5號","121.620318333333","25.0419033333333","6501100","汐止區"
"221018","753-BX","2018/01/29 20:39:03","新北市汐止區茄苳路70號","121.666768333333","25.07059","6501100","汐止區"
"220103","257-TC","2018/01/29 20:39:02","新北市板橋區漢生東路73巷28號","121.467218333333","25.017","6500100","板橋區"
"220083","286-VK","2018/01/29 20:39:01","新北市板橋區僑中二街104巷33號","121.444748333333","25.0080683333333","6500100","板橋區"
"242048","281-VK","2018/01/29 20:38:46","新北市新莊區中正路877-5號","121.418035","25.026475","6500500","新莊區"
"220098","317-R6","2018/01/29 20:38:52","新北市板橋區縣民大道二段198號","121.46942","25.01733","6500100","板橋區"
"220089","487-VK","2018/01/29 20:39:01","新北市板橋區四維路355號","121.462186666667","25.0301166666667","6500100","板橋區"
"220074","895-R6","2018/01/29 20:38:45","新北市板橋區南雅南路一段7巷22弄7號","121.455886666667","25.0047466666667","6500100","板橋區"
"220070","AAC-253","2018/01/29 20:38:47","新北市五股區新五路三段2號","121.44458","25.0879816666667","6500100","板橋區"
