"lineid","car","time","location","longitude","latitude","cityid","cityname"
"231050","KEA-2219","2018/01/29 21:29:36","新北市新店區中正路310號","121.537351666667","24.97463","6500600","新店區"
"231042","616-UM","2018/01/29 21:27:27","新北市新店區安康路二段320巷6號","121.504543333333","24.9596416666667","6500600","新店區"
"231063","645-TV","2018/01/29 21:29:47","新北市新店區如意街41號","121.493546666667","24.94832","6500600","新店區"
"241024","065-VK","2018/01/29 21:29:30","新北市三重區中正北路222號","121.482176666667","25.0676","6500200","三重區"
"241026","066-VK","2018/01/29 21:29:47","新北市三重區環河南路257號","121.490951666667","25.0503466666667","6500200","三重區"
"241003","091-VK","2018/01/29 21:29:33","新北市三重區集賢路87-1號","121.493603333333","25.0868216666667","6500200","三重區"
"241005","262-UM","2018/01/29 21:29:43","新北市三重區碧華街1號","121.483463333333","25.0811866666667","6500200","三重區"
"241016","266-UM","2018/01/29 21:29:35","新北市三重區中正北路25巷24號","121.493678333333","25.0632516666667","6500200","三重區"
"241007","398-BY","2018/01/29 21:29:36","新北市三重區正義北路105號","121.496943333333","25.0655216666667","6500200","三重區"
"241006","AAD-863","2018/01/29 21:29:36","新北市五股區天乙路102-22號","121.448106666667","25.1071133333333","6500200","三重區"
"247008","341-TH","2018/01/29 21:29:35","新北市五股區四維路185巷8-1號","121.466623333333","25.0770183333333","6501400","蘆洲區"
"247014","007-UY","2018/01/29 21:29:47","新北市蘆洲區光榮路118-2號","121.46502","25.08895","6501400","蘆洲區"
"247024","002-UY","2018/01/29 21:29:39","新北市五股區孝義路12號","121.452321666667","25.10634","6501400","蘆洲區"
"251009","008-UM","2018/01/29 21:29:49","新北市淡水區民族路33巷16-3號","121.463383333333","25.1359916666667","6501000","淡水區"
"251004","009-UM","2018/01/29 21:29:31","新北市淡水區民權路119號","121.460116666667","25.1368166666667","6501000","淡水區"
"251005","010-UM","2018/01/29 21:29:40","新北市淡水區水源街一段34巷9號","121.443296666667","25.1718233333333","6501000","淡水區"
"251013","179-VK","2018/01/29 21:29:38","新北市淡水區埤島45-1號","121.455383333333","25.196775","6501000","淡水區"
"251014","180-VK","2018/01/29 21:29:37","新北市淡水區六塊厝2-1號","121.450126666667","25.240465","6501000","淡水區"
"251008","181-VK","2018/01/29 21:29:43","新北市淡水區水源街二段160-6號","121.454915","25.1752633333333","6501000","淡水區"
"251010","413-VK","2018/01/29 21:29:35","新北市淡水區中正路二段50巷12弄28號","121.420478333333","25.1825983333333","6501000","淡水區"
"251012","441-VK","2018/01/29 21:29:43","新北市淡水區石頭埔8號","121.452656666667","25.2345616666667","6501000","淡水區"
"251016","442-VK","2018/01/29 21:29:37","新北市淡水區前洲子5-2號","121.444458333333","25.2179366666667","6501000","淡水區"
"251001","559-UM","2018/01/29 21:29:39","新北市淡水區濱海路一段221號","121.437061666667","25.189875","6501000","淡水區"
"251006","561-UM","2018/01/29 21:29:43","新北市淡水區公明街89號","121.444256666667","25.168215","6501000","淡水區"
"251011","650-BX","2018/01/29 21:29:33","新北市淡水區新民街180-6號","121.436701666667","25.178705","6501000","淡水區"
"251003","766-UM","2018/01/29 21:29:42","新北市淡水區崁頂15-5號","121.439031666667","25.1859016666667","6501000","淡水區"
"237011","572-TV","2018/01/29 21:25:57","新北市三峽區中山路459巷163-3號","121.348653333333","24.9330233333333","6500900","三峽區"
"220098","317-R6","2018/01/29 21:29:32","新北市板橋區大觀路二段37巷282-17號","121.451853333333","25.0002183333333","6500100","板橋區"
"220070","AAC-253","2018/01/29 21:29:47","新北市八里區荖阡坑路4-26號","121.398108333333","25.1428033333333","6500100","板橋區"
