"lineid","car","time","location","longitude","latitude","cityid","cityname"
"248005","653-BX","2018/05/19 09:58:18","新北市五股區成泰路二段250號","121.440463333333","25.0870416666667","6501500","五股區"
"244002","656-BX","2018/05/19 09:59:13","新北市林口區文化一路一段135巷12號","121.373553333333","25.0724433333333","6501700","林口區"
"222004","289-BY","2018/05/19 09:59:12","新北市深坑區深坑街1號","121.61663","25.00262","6501800","深坑區"
"231007","189-VK","2018/05/19 09:59:12","新北市新店區新潭路三段215巷25號","121.508126666667","24.9040666666667","6500600","新店區"
"227006","282-VK","2018/05/19 09:59:12","新北市雙溪區長源里柑腳18號","121.804658333333","25.014355","6502500","雙溪區"
"252004","249-BX","2018/05/19 09:59:24","新北市三芝區福德里土地公埔39號","121.510416666667","25.23482","6502100","三芝區"
"252007","AAC-283","2018/05/19 09:59:24","新北市三芝區新庄里新庄子51-16號","121.507333333333","25.2779233333333","6502100","三芝區"
