"lineid","car","time","location","longitude","latitude","cityid","cityname"
"234044","148-BY","2018/05/19 13:09:27","新北市永和區永元路54號","121.52242","25.0010866666667","6500400","永和區"
"234005","207-UY","2018/05/19 13:09:25","新北市永和區中山路一段120號","121.510688333333","25.010215","6500400","永和區"
"234081","298-R6","2018/05/19 13:09:19","新北市永和區永貞路39巷9弄2號","121.522171666667","25.0066083333333","6500400","永和區"
"234036","336-UY","2018/05/19 13:09:25","新北市永和區民樂街69巷2號","121.527425","24.9975983333333","6500400","永和區"
"234062","337-UY","2018/05/19 13:09:32","新北市永和區秀朗路二段57號","121.521866666667","25.0021316666667","6500400","永和區"
"234084","338-UY","2018/05/19 13:09:22","新北市永和區永貞路136號","121.518291666667","25.0044433333333","6500400","永和區"
"234068","552-UM","2018/05/19 13:09:29","新北市永和區豫溪街137巷1弄12號","121.519106666667","25.0105166666667","6500400","永和區"
"234015","745-BX","2018/05/19 13:09:33","新北市永和區文化路90巷15弄1號","121.51382","25.0158433333333","6500400","永和區"
"234028","746-BX","2018/05/19 13:09:24","新北市永和區民生路21號","121.522805","24.99884","6500400","永和區"
"234052","KEA-2590","2018/05/19 13:09:34","新北市永和區竹林路72巷2號","121.519103333333","25.0130216666667","6500400","永和區"
"234012","KEA-2591","2018/05/19 13:09:29","新北市永和區保福路二段20號","121.510948333333","25.0114483333333","6500400","永和區"
"234060","AAD-866","2018/05/19 13:09:27","新北市永和區安樂路304巷7號","121.5146","25.0051783333333","6500400","永和區"
"234040","862-TW","2018/05/19 13:09:25","新北市永和區保平路111巷16號","121.511575","25.0057816666667","6500400","永和區"
"234048","863-TW","2018/05/19 13:09:17","新北市永和區仁愛路104巷7弄56號","121.510988333333","25.0142166666667","6500400","永和區"
"234025","9371-KE","2018/05/19 13:09:10","新北市永和區秀朗路一段10巷19號","121.513431666667","25.006195","6500400","永和區"
"234010","9373-KE","2018/05/19 13:09:21","新北市永和區仁愛路31巷2弄15號","121.513463333333","25.01288","6500400","永和區"
"248017","225-UY","2018/05/19 13:09:13","新北市五股區成泰路三段67號","121.443373333333","25.0896366666667","6501500","五股區"
"234022","9380-KE","2018/05/19 13:09:22","新北市永和區永和路二段92巷6號","121.515371666667","25.0113266666667","6500400","永和區"
"234076","969-R7","2018/05/19 13:09:31","新北市永和區民光街11號","121.515516666667","24.99619","6500400","永和區"
"234072","AAC-211","2018/05/19 13:09:13","新北市永和區竹林路217號","121.520703333333","25.008625","6500400","永和區"
"234066","AAC-212","2018/05/19 13:09:14","新北市永和區保平路21號","121.512663333333","25.0074516666667","6500400","永和區"
"234001","AAC-295","2018/05/19 13:09:24","新北市永和區永和路二段35號","121.514356666667","25.01046","6500400","永和區"
"244005","248-BX","2018/05/19 13:09:21","新北市林口區民族路206號","121.368506666667","25.07739","6501700","林口區"
"231001","001-UM","2018/05/19 13:09:15","新北市新店區安華路28-1號","121.519618333333","24.961035","6500600","新店區"
"231028","046-UY","2018/05/19 13:09:25","新北市新店區安華路28-1號","121.519616666667","24.9609016666667","6500600","新店區"
"231005","106-UY","2018/05/19 13:09:13","新北市新店區安華路28-1號","121.5197","24.9608733333333","6500600","新店區"
"231010","107-UY","2018/05/19 13:09:18","新北市新店區安一路一段1-1號","121.519545","24.9613783333333","6500600","新店區"
"231020","108-UY","2018/05/19 13:09:29","新北市新店區安一路一段1-1號","121.519388333333","24.9612516666667","6500600","新店區"
"231012","187-VK","2018/05/19 13:09:17","新北市新店區安一路一段1-1號","121.519595","24.9612616666667","6500600","新店區"
"231026","188-VK","2018/05/19 13:09:02","新北市新店區安一路一段1-1號","121.51947","24.96137","6500600","新店區"
"231003","268-BY","2018/05/19 13:09:28","新北市新店區安華路28-1號","121.519403333333","24.9606133333333","6500600","新店區"
"231018","278-BY","2018/05/19 13:09:27","新北市新店區安華路28-1號","121.520133333333","24.9608316666667","6500600","新店區"
"231017","AAD-862","2018/05/19 13:09:22","新北市新店區安一路一段1-1號","121.519966666667","24.9610916666667","6500600","新店區"
"231027","3713-VJ","2018/05/19 13:09:31","新北市新店區安華路28-1號","121.519676666667","24.9606683333333","6500600","新店區"
"231037","4716-K9","2018/05/19 13:09:18","新北市新店區安華路1-1號","121.519606666667","24.9603583333333","6500600","新店區"
"231025","4715-K9","2018/05/19 13:09:17","新北市新店區安華路1-1號","121.519188333333","24.9605766666667","6500600","新店區"
"231036","512-UM","2018/05/19 13:09:26","新北市新店區安一路一段1-1號","121.519163333333","24.9612533333333","6500600","新店區"
"231013","513-UM","2018/05/19 13:09:19","新北市新店區安一路一段1-1號","121.519681666667","24.9613316666667","6500600","新店區"
"231034","616-UM","2018/05/19 13:09:20","新北市新店區安華路1-1號","121.519448333333","24.96052","6500600","新店區"
"231006","617-UM","2018/05/19 13:09:28","新北市新店區安華路28-1號","121.519411666667","24.9609533333333","6500600","新店區"
"231030","619-UM","2018/05/19 13:09:16","新北市新店區安華路28-1號","121.51942","24.9607983333333","6500600","新店區"
"231023","719-UY","2018/05/19 13:09:19","新北市新店區安一路一段1-1號","121.51968","24.9613716666667","6500600","新店區"
"231033","720-UM","2018/05/19 13:09:12","新北市新店區安一路一段1-1號","121.519421666667","24.9612733333333","6500600","新店區"
"231029","897-TW","2018/05/19 13:09:27","新北市新店區安華路28-1號","121.5196","24.9608116666667","6500600","新店區"
"231004","899-TW","2018/05/19 13:09:15","新北市新店區安華路28-1號","121.519113333333","24.9609033333333","6500600","新店區"
"231024","AKT-0513","2018/05/19 13:09:29","新北市新店區安華路1-1號","121.519495","24.9604283333333","6500600","新店區"
"235028","005-UY","2018/05/19 13:09:24","新北市中和區中正路215號","121.496798333333","24.993705","6500300","中和區"
"235027","006-UY","2018/05/19 13:09:24","新北市中和區員山路36巷16-3號","121.485115","24.9913816666667","6500300","中和區"
"235011","031-BX","2018/05/19 13:09:19","新北市中和區中興街163號","121.499916666667","24.9907633333333","6500300","中和區"
"235003","097-UM","2018/05/19 13:09:30","新北市中和區和城路一段271巷1號","121.485496666667","24.991785","6500300","中和區"
"235022","151-BY","2018/05/19 13:09:30","新北市中和區圓通路367巷60-2號","121.492031666667","24.98388","6500300","中和區"
"235019","183-VK","2018/05/19 13:09:15","新北市中和區員山路36巷16-3號","121.485048333333","24.9913816666667","6500300","中和區"
"235002","185-VK","2018/05/19 13:09:20","新北市中和區景平路116號","121.519503333333","24.991835","6500300","中和區"
"235031","255-BX","2018/05/19 13:09:16","新北市中和區新生街177巷5號","121.484063333333","25.0007266666667","6500300","中和區"
"235036","301-VK","2018/05/19 13:09:24","新北市中和區員山路36巷12號","121.48391","24.99099","6500300","中和區"
"235007","352-BY","2018/05/19 13:09:17","新北市中和區員山路36巷16-3號","121.484811666667","24.9918033333333","6500300","中和區"
"235025","378-QA","2018/05/19 12:54:42","新北市中和區員山路36巷16-2號","121.485048333333","24.991895","6500300","中和區"
"235014","4979-A6","2018/05/19 13:09:22","新北市中和區員山路36巷16-3號","121.484845","24.9912516666667","6500300","中和區"
"235006","551-UM","2018/05/19 13:09:28","新北市中和區和城路一段271巷1號","121.485621666667","24.9917533333333","6500300","中和區"
"235034","558-UM","2018/05/19 13:09:31","新北市中和區錦和路350-1號","121.490555","24.9936183333333","6500300","中和區"
"235018","640-BX","2018/05/19 13:09:29","新北市土城區延壽路118-5號","121.469065","24.99443","6500300","中和區"
"235035","783-BX","2018/05/19 13:09:17","新北市中和區板南路520巷8號","121.483913333333","25.0088566666667","6500300","中和區"
"235026","800-TS","2018/05/19 13:09:28","新北市中和區橋和路77號","121.489138333333","25.0052","6500300","中和區"
"235021","801-TS","2018/05/19 13:09:23","新北市中和區員山路36巷16-2號","121.485018333333","24.991905","6500300","中和區"
"235016","805-TS","2018/05/19 13:09:23","新北市中和區中正路13號","121.502991666667","24.9934066666667","6500300","中和區"
"235017","900-TW","2018/05/19 13:09:28","新北市中和區員山路36巷16-3號","121.484916666667","24.9917766666667","6500300","中和區"
"235030","911-UM","2018/05/19 13:09:31","新北市中和區中山路二段64巷14弄2號","121.503463333333","25.0055","6500300","中和區"
"235015","157-BY","2018/05/19 13:09:17","新北市中和區中正路273號","121.49563","24.993885","6500300","中和區"
"235001","AAC-213","2018/05/19 13:09:19","新北市中和區景平路149號","121.514003333333","24.9921866666667","6500300","中和區"
"235029","251-BX","2018/05/19 13:09:26","新北市中和區福祥路2號","121.49967","25.002935","6500300","中和區"
"228005","097-TW","2018/05/19 13:09:14","新北市貢寮區仁理村仁和路78號","121.922783333333","25.0502016666667","6502600","貢寮區"
"228004","212-TW","2018/05/19 13:09:18","新北市貢寮區吉林里內寮街75號","121.891081666667","24.9719283333333","6502600","貢寮區"
"253003","6232-TK","2018/05/19 13:09:16","新北市石門區內石門89-5號","121.567071666667","25.2669916666667","6502200","石門區"
"253001","6251-TK","2018/05/19 13:09:27","新北市石門區老梅路43-2號","121.545415","25.289625","6502200","石門區"
"253002","637-UY","2018/05/19 13:09:24","新北市石門區九芎林4-1號","121.555485","25.2735866666667","6502200","石門區"
"253004","8270-PC","2018/05/19 13:09:31","新北市石門區阿里荖4-2號","121.614385","25.278875","6502200","石門區"
"207002","749-BX","2018/05/19 13:07:31","新北市萬里區溪底里香員林路7號","121.63271","25.1648233333333","6502800","萬里區"
"252005","073-UM","2018/05/19 13:09:17","新北市三芝區八賢里八連溪23-5號","121.511108333333","25.2408833333333","6502100","三芝區"
"207001","662-BX","2018/05/19 13:09:16","新北市萬里區萬里里瑪鋉頂街45號","121.6892","25.179455","6502800","萬里區"
"236006","498-BY","2018/05/19 13:09:12","新北市土城區亞洲路60號","121.43537","24.9736016666667","6501300","土城區"
"221032","280-BY","2018/05/19 13:09:12","新北市汐止區大同路二段553號","121.662431666667","25.0696266666667","6501100","汐止區"
"221021","299-VK","2018/05/19 13:09:18","新北市汐止區南陽街180巷11號","121.62521","25.057925","6501100","汐止區"
"220021","985-R7","2018/05/19 13:09:26","新北市板橋區華東街1-10號","121.448318333333","24.9949933333333","6500100","板橋區"
"235032","KEA-2873","2018/05/19 13:09:06","新北市中和區員山路36巷16-3號","121.485148333333","24.9913616666667","6500300","中和區"
