"lineid","car","time","location","longitude","latitude","cityid","cityname"
"234005","207-UY","2018/05/19 14:39:18","新北市永和區得和路29號","121.515736666667","25.0003266666667","6500400","永和區"
"234062","337-UY","2018/05/19 14:39:35","新北市永和區光復街42號","121.516676666667","25.0178383333333","6500400","永和區"
"234028","746-BX","2018/05/19 14:39:24","新北市板橋區民生路一段28-11號","121.476353333333","25.012445","6500400","永和區"
"234025","9371-KE","2018/05/19 14:39:29","新北市永和區中和路501巷8號","121.510518333333","25.0026383333333","6500400","永和區"
"248017","225-UY","2018/05/19 14:13:33","新北市五股區壟路16號","121.415238333333","25.0855333333333","6501500","五股區"
"234072","AAC-211","2018/05/19 14:39:13","新北市永和區環河東路二段8號","121.52211","25.0133983333333","6500400","永和區"
"231001","001-UM","2018/05/19 14:39:35","新北市新店區中正路30號","121.545151666667","24.9697633333333","6500600","新店區"
"231002","002-UM","2018/05/19 14:39:19","新北市新店區中正路468號","121.53405","24.9794483333333","6500600","新店區"
"231028","046-UY","2018/05/19 14:39:24","新北市新店區安成街42號","121.509803333333","24.961295","6500600","新店區"
"231005","106-UY","2018/05/19 14:39:20","新北市新店區復興路107號","121.53445","24.9879733333333","6500600","新店區"
"231020","108-UY","2018/05/19 14:39:29","新北市新店區屈尺路6號","121.54938","24.924005","6500600","新店區"
"231012","187-VK","2018/05/19 14:39:16","新北市新店區寶宏路38號","121.549493333333","24.975575","6500600","新店區"
"231003","268-BY","2018/05/19 14:39:27","新北市新店區中興路一段292號","121.545908333333","24.9691383333333","6500600","新店區"
"231018","278-BY","2018/05/19 14:39:27","新北市新店區中央路153號","121.529875","24.973025","6500600","新店區"
"231017","AAD-862","2018/05/19 14:39:22","新北市新店區北宜路三段221號","121.59238","24.95321","6500600","新店區"
"231038","3712-VJ","2018/05/19 14:39:20","新北市新店區安華路28-1號","121.519675","24.9608483333333","6500600","新店區"
"231027","3713-VJ","2018/05/19 14:39:31","新北市新店區中正路135號","121.541823333333","24.971425","6500600","新店區"
"231037","4716-K9","2018/05/19 14:39:18","新北市新店區柴埕路52巷12號","121.511783333333","24.96476","6500600","新店區"
"231025","4715-K9","2018/05/19 14:39:17","新北市新店區民族路161號","121.537618333333","24.9767983333333","6500600","新店區"
"231036","512-UM","2018/05/19 14:39:26","新北市新店區安祥路106巷183號","121.473955","24.9597566666667","6500600","新店區"
"231013","513-UM","2018/05/19 14:39:19","新北市新店區明德路20號","121.54218","24.9769816666667","6500600","新店區"
"231034","616-UM","2018/05/19 14:39:20","新北市新店區黎明路51巷8號","121.50225","24.9488933333333","6500600","新店區"
"231006","617-UM","2018/05/19 14:39:28","新北市新店區北宜路二段131號","121.551073333333","24.9530333333333","6500600","新店區"
"231030","619-UM","2018/05/19 14:39:31","新北市新店區安民街158號","121.51676","24.9703066666667","6500600","新店區"
"231035","719-UM","2018/05/19 14:39:30","新北市新店區安康路二段118-9號","121.51301","24.9636516666667","6500600","新店區"
"231023","719-UY","2018/05/19 14:39:21","新北市新店區檳榔路45號","121.54318","24.9629366666667","6500600","新店區"
"231029","897-TW","2018/05/19 14:39:27","新北市新店區安康路三段522號","121.48279","24.9494416666667","6500600","新店區"
"231004","899-TW","2018/05/19 14:39:15","新北市新店區中正路269號","121.537805","24.9742433333333","6500600","新店區"
"231024","AKT-0513","2018/05/19 14:39:09","新北市新店區中華路83巷61號","121.538386666667","24.9674916666667","6500600","新店區"
"235028","005-UY","2018/05/19 14:39:23","新北市中和區南山路125號","121.502475","24.9972416666667","6500300","中和區"
"235027","006-UY","2018/05/19 14:39:24","新北市中和區連城路263巷7弄1號","121.492196666667","24.9959316666667","6500300","中和區"
"235011","031-BX","2018/05/19 14:39:18","新北市中和區南山路283巷12號","121.504618333333","24.9924516666667","6500300","中和區"
"235020","096-UM","2018/05/19 14:39:13","新北市中和區員山路581巷31弄1號","121.477281666667","25.01017","6500300","中和區"
"235003","097-UM","2018/05/19 14:39:30","新北市中和區安平路186號","121.513013333333","24.999085","6500300","中和區"
"235004","150-BY","2018/05/19 14:39:25","新北市中和區安平路30號","121.509566666667","24.9947933333333","6500300","中和區"
"235022","151-BY","2018/05/19 14:39:30","新北市中和區連城路322號","121.483338333333","24.996065","6500300","中和區"
"235019","183-VK","2018/05/19 14:39:15","新北市中和區民生街12巷1號","121.470545","25.0056066666667","6500300","中和區"
"235002","185-VK","2018/05/19 14:39:20","新北市中和區自強路27巷5號","121.521003333333","24.9930666666667","6500300","中和區"
"235013","186-VK","2018/05/19 14:39:29","新北市中和區景安路139號","121.50573","24.9956083333333","6500300","中和區"
"235031","255-BX","2018/05/19 14:39:16","新北市中和區員山路148巷23弄60號","121.48232","24.998075","6500300","中和區"
"235008","293-VK","2018/05/19 14:39:21","新北市中和區捷運路22-3號","121.508538333333","24.990135","6500300","中和區"
"235036","301-VK","2018/05/19 14:39:24","新北市中和區中山路二段3巷22弄20號","121.506006666667","25.0046566666667","6500300","中和區"
"235007","352-BY","2018/05/19 14:39:17","新北市中和區景平路526號","121.502926666667","24.9944933333333","6500300","中和區"
"235025","378-QA","2018/05/19 14:39:15","新北市中和區民安街2巷24號","121.48008","25.00171","6500300","中和區"
"235014","4979-A6","2018/05/19 14:39:22","新北市中和區中正路2-1號","121.503125","24.993595","6500300","中和區"
"235006","551-UM","2018/05/19 14:39:34","新北市中和區保健路7巷1號","121.507923333333","24.9985533333333","6500300","中和區"
"235034","558-UM","2018/05/19 14:39:30","新北市中和區景平路668號","121.497138333333","25.0008633333333","6500300","中和區"
"235009","565-BX","2018/05/19 14:39:19","新北市中和區景平路183號","121.511748333333","24.9923683333333","6500300","中和區"
"235018","640-BX","2018/05/19 14:39:29","新北市中和區莒光路41號","121.472013333333","25.0048716666667","6500300","中和區"
"235024","647-TV","2018/05/19 14:39:14","新北市中和區中山路二段523巷41號","121.482256666667","25.0031633333333","6500300","中和區"
"235010","733-UM","2018/05/19 14:39:19","新北市中和區信義街113號","121.512255","24.98694","6500300","中和區"
"235035","783-BX","2018/05/19 14:39:24","新北市中和區連城路469-1號","121.483533333333","24.99595","6500300","中和區"
"235026","800-TS","2018/05/19 14:39:28","新北市中和區中山路二段321-1號","121.493633333333","25.0020916666667","6500300","中和區"
"235021","801-TS","2018/05/19 14:39:23","新北市中和區員山路194號","121.481406666667","25.00047","6500300","中和區"
"235016","805-TS","2018/05/19 14:39:22","新北市中和區華新街206巷2號","121.506558333333","24.9820716666667","6500300","中和區"
"235012","896-TW","2018/05/19 14:39:13","新北市中和區四維街18號","121.513043333333","24.987215","6500300","中和區"
"235017","900-TW","2018/05/19 14:39:27","新北市中和區國光街189巷29號","121.467698333333","25.0005533333333","6500300","中和區"
"235030","911-UM","2018/05/19 14:39:31","新北市中和區景新街137號","121.506038333333","24.9970316666667","6500300","中和區"
"235015","157-BY","2018/05/19 14:39:17","新北市中和區中興街180巷52弄1號","121.498596666667","24.9883783333333","6500300","中和區"
"235001","AAC-213","2018/05/19 14:39:19","新北市中和區成功路6號","121.526225","24.99393","6500300","中和區"
"235023","AAC-215","2018/05/19 14:39:16","新北市中和區圓通路305巷18號","121.495013333333","24.9890833333333","6500300","中和區"
"220028","015-TV","2018/05/19 14:39:27","新北市板橋區大觀路二段37巷38號","121.448621666667","25.0026566666667","6500100","板橋區"
"220013","072-UY","2018/05/19 14:39:28","新北市板橋區國泰街38巷3弄18號","121.468126666667","25.00667","6500100","板橋區"
"220034","073-UY","2018/05/19 14:39:22","新北市板橋區國光路175號","121.460546666667","25.0184916666667","6500100","板橋區"
"220105","075-UY","2018/05/19 14:39:32","新北市板橋區文化路二段516號","121.475765","25.0336233333333","6500100","板橋區"
"220017","AAD-861","2018/05/19 14:39:29","新北市板橋區南雅南路二段18號","121.454438333333","25.003565","6500100","板橋區"
"247023","893-R6","2018/05/19 14:39:30","新北市蘆洲區正和街63巷8號","121.468936666667","25.0808883333333","6501400","蘆洲區"
"247013","546-UM","2018/05/19 14:39:22","新北市蘆洲區成功路151號","121.472166666667","25.0825966666667","6501400","蘆洲區"
"247009","341-TH","2018/05/19 14:39:18","新北市蘆洲區信義路222巷59號","121.48112","25.085395","6501400","蘆洲區"
"247011","339-TH","2018/05/19 14:39:32","新北市蘆洲區中興街2號","121.480095","25.08689","6501400","蘆洲區"
"247003","337-TH","2018/05/19 14:39:22","新北市蘆洲區長安街285巷16號","121.45753","25.084185","6501400","蘆洲區"
"247005","336-TH","2018/05/19 14:39:27","新北市蘆洲區中華街31號","121.46319","25.081485","6501400","蘆洲區"
"247007","056-VK","2018/05/19 14:39:20","新北市蘆洲區中山一路197巷32號","121.475031666667","25.0796183333333","6501400","蘆洲區"
"247015","007-UY","2018/05/19 14:39:19","新北市蘆洲區正和街30號","121.469658333333","25.08209","6501400","蘆洲區"
"247001","002-UY","2018/05/19 14:39:27","新北市蘆洲區永樂街31巷12號","121.45822","25.0878016666667","6501400","蘆洲區"
"247019","001-UY","2018/05/19 14:39:25","新北市蘆洲區民義街75號","121.473248333333","25.0901366666667","6501400","蘆洲區"
"235029","251-BX","2018/05/19 14:39:26","新北市中和區福祥路90巷5號","121.499571666667","25.00587","6500300","中和區"
"228005","097-TW","2018/05/19 14:39:14","新北市貢寮區美豐里雞母嶺街6-6號","121.90205","25.06424","6502600","貢寮區"
"228004","212-TW","2018/05/19 14:39:18","新北市貢寮區福隆里龜壽谷街36號","121.946566666667","25.0145716666667","6502600","貢寮區"
"253003","6232-TK","2018/05/19 14:39:17","新北市石門區尖子鹿19-2號","121.576158333333","25.2772266666667","6502200","石門區"
"253001","6251-TK","2018/05/19 14:39:07","新北市石門區崁子腳78-2號","121.529281666667","25.280395","6502200","石門區"
"253002","637-UY","2018/05/19 14:39:24","新北市石門區楓林58號","121.542233333333","25.2730283333333","6502200","石門區"
"253004","8270-PC","2018/05/19 14:39:24","新北市石門區內阿里磅13號","121.592485","25.2510866666667","6502200","石門區"
"207002","749-BX","2018/05/19 14:39:31","新北市萬里區崁腳里崁腳路92號","121.64696","25.1589916666667","6502800","萬里區"
"252005","073-UM","2018/05/19 14:39:17","新北市三芝區橫山里大坑82-5號","121.527045","25.2585483333333","6502100","三芝區"
"207001","662-BX","2018/05/19 14:39:16","新北市萬里區雙興里豐稟路31-1號","121.643066666667","25.18107","6502800","萬里區"
"236068","105-UM","2018/05/19 14:39:26","新北市土城區永豐路211-2號","121.474648333333","24.9761933333333","6501300","土城區"
"236040","107-UM","2018/05/19 14:39:29","新北市土城區裕民路55巷1號","121.449015","24.9881066666667","6501300","土城區"
"236074","166-UM","2018/05/19 14:39:24","新北市土城區中央路四段185巷53號","121.416526666667","24.9559416666667","6501300","土城區"
"236029","253-BX","2018/05/19 14:39:19","新北市土城區慶利街30號","121.438901666667","24.974475","6501300","土城區"
"236024","269-VK","2018/05/19 14:39:25","新北市土城區忠義路47號","121.440496666667","24.96935","6501300","土城區"
"236013","270-VK","2018/05/19 14:39:22","新北市土城區清水路222號","121.46074","24.9821","6501300","土城區"
"236032","271-VK","2018/05/19 14:39:30","新北市土城區明德路一段313巷3弄11號","121.460065","24.9764866666667","6501300","土城區"
"236017","401-BY","2018/05/19 14:39:32","新北市土城區延吉街251號","121.467578333333","24.9848583333333","6501300","土城區"
"236057","912-UM","2018/05/19 14:39:15","新北市土城區中央路三段285號","121.425963333333","24.9630883333333","6501300","土城區"
"236045","913-UM","2018/05/19 14:39:25","新北市土城區金城路二段376號","121.462891666667","24.985695","6501300","土城區"
"236060","915-UM","2018/05/19 14:39:28","新北市土城區延壽路55巷9弄6號","121.469621666667","24.991575","6501300","土城區"
"236054","AAC-216","2018/05/19 14:39:19","新北市土城區裕民路10號","121.447476666667","24.9887783333333","6501300","土城區"
"221021","299-VK","2018/05/19 14:39:18","新北市汐止區汐萬路一段256巷3號","121.65227","25.0747766666667","6501100","汐止區"
"220027","145-BY","2018/05/19 14:39:18","新北市板橋區復興街91號","121.459525","25.0178666666667","6500100","板橋區"
"220030","610-BX","2018/05/19 14:39:18","新北市板橋區金門街96-2號","121.433121666667","24.9923433333333","6500100","板橋區"
"220050","245-BX","2018/05/19 14:39:25","新北市板橋區縣民大道三段35號","121.473908333333","25.0207066666667","6500100","板橋區"
"220052","257-TC","2018/05/19 14:39:24","新北市板橋區文化路一段290號","121.467523333333","25.0214283333333","6500100","板橋區"
"220043","267-BY","2018/05/19 14:39:27","新北市板橋區宏國路77巷2弄16號","121.469663333333","25.032515","6500100","板橋區"
"220004","276-BY","2018/05/19 14:39:19","新北市板橋區四川路二段47巷3弄2號","121.454251666667","24.9945883333333","6500100","板橋區"
"220020","277-BY","2018/05/19 14:39:29","新北市板橋區金門街215巷93號","121.43376","24.9887283333333","6500100","板橋區"
"220038","280-UM","2018/05/19 14:39:29","新北市板橋區陽明街249號","121.462741666667","25.0250083333333","6500100","板橋區"
"220001","285-VK","2018/05/19 14:39:21","新北市板橋區中山路二段213號","121.476603333333","25.0171333333333","6500100","板橋區"
"220031","286-VK","2018/05/19 14:39:20","新北市板橋區僑中二街106巷1號","121.445881666667","25.00742","6500100","板橋區"
"220029","287-VK","2018/05/19 14:39:17","新北市板橋區大觀路一段27號","121.450078333333","25.0084366666667","6500100","板橋區"
"220039","288-VK","2018/05/19 14:39:28","新北市板橋區新海路429號","121.457873333333","25.0276133333333","6500100","板橋區"
"220009","293-UM","2018/05/19 14:39:35","新北市板橋區漢生東路113巷20號","121.46811","25.01548","6500100","板橋區"
"220032","296-UM","2018/05/19 14:39:33","新北市板橋區溪崑二街96巷16號","121.426443333333","24.9894366666667","6500100","板橋區"
"220023","303-R5","2018/05/19 14:39:28","新北市板橋區南雅西路二段301巷50弄10-1號","121.452301666667","25.017115","6500100","板橋區"
"220010","305-R5","2018/05/19 14:39:32","新北市板橋區三民路二段29巷15號","121.48192","25.0181583333333","6500100","板橋區"
"220041","307-R5","2018/05/19 14:39:22","新北市板橋區文化路一段387巷1號","121.466793333333","25.0218483333333","6500100","板橋區"
"220047","317-R6","2018/05/19 14:39:23","新北市板橋區四維路269巷64號","121.460713333333","25.0271983333333","6500100","板橋區"
"220012","486-VK","2018/05/19 14:39:13","新北市板橋區公園街36-1號","121.462356666667","25.008345","6500100","板橋區"
"220037","491-VK","2018/05/19 14:39:15","新北市板橋區文化路二段366號","121.473148333333","25.0308416666667","6500100","板橋區"
"220104","560-BX","2018/05/19 14:39:27","新北市板橋區金華街105號","121.458845","25.02086","6500100","板橋區"
"220019","568-UM","2018/05/19 14:39:32","新北市板橋區五權街32巷15號","121.464365","24.9929416666667","6500100","板橋區"
"220011","609-BX","2018/05/19 14:39:21","新北市板橋區中山路二段323號","121.47922","25.0186166666667","6500100","板橋區"
"220022","630-UY","2018/05/19 14:39:32","新北市板橋區文化路一段46巷23號","121.460338333333","25.0114916666667","6500100","板橋區"
"220040","637-BX","2018/05/19 14:39:25","新北市板橋區懷德街201巷20號","121.481776666667","25.0296583333333","6500100","板橋區"
"220005","686-BX","2018/05/19 14:39:33","新北市板橋區和平路安樂巷27號","121.461663333333","24.993535","6500100","板橋區"
"220025","687-BX","2018/05/19 14:39:26","新北市板橋區僑中二街152號","121.445093333333","25.0043283333333","6500100","板橋區"
"220042","689-BX","2018/05/19 14:39:27","新北市板橋區新海路389號","121.458855","25.02634","6500100","板橋區"
"220002","741-BX","2018/05/19 14:39:32","新北市板橋區忠孝路239巷36號","121.467456666667","25.00353","6500100","板橋區"
"220051","KEA-2699","2018/05/19 14:39:19","新北市板橋區雙十路二段52號","121.475555","25.0277533333333","6500100","板橋區"
"220003","827-TW","2018/05/19 14:39:22","新北市板橋區國慶路149巷27-4號","121.460973333333","24.9977266666667","6500100","板橋區"
"220014","829-TW","2018/05/19 14:39:15","新北市板橋區長安街255巷41號","121.47234","25.011215","6500100","板橋區"
"220016","830-TW","2018/05/19 14:39:35","新北市板橋區中山路二段412巷7號","121.483248333333","25.0206183333333","6500100","板橋區"
"220045","831-TW","2018/05/19 14:39:30","新北市板橋區民生路二段240巷65號","121.470136666667","25.0228883333333","6500100","板橋區"
"220021","985-R7","2018/05/19 14:39:26","新北市板橋區大仁街51號","121.454556666667","25.016435","6500100","板橋區"
"220046","AAC-210","2018/05/19 14:39:30","新北市板橋區漢生西路89巷2弄4號","121.461865","25.019415","6500100","板橋區"
"220018","AAC-253","2018/05/19 14:39:19","新北市板橋區民族路263號","121.4705","25.0068483333333","6500100","板橋區"
"235032","KEA-2873","2018/05/19 14:39:06","新北市中和區莊敬路16巷15弄7號","121.500466666667","25.00387","6500300","中和區"
"235005","KEA-2876","2018/05/19 14:39:26","新北市中和區景安路58號","121.506871666667","24.9977916666667","6500300","中和區"
