"lineid","car","time","location","longitude","latitude","cityid","cityname"
"231046","107-UY","2018/05/19 16:09:12","新北市新店區永業路121號","121.52837","24.94782","6500600","新店區"
"231012","187-VK","2018/05/19 16:08:36","新北市新店區安德街60巷26號","121.511156666667","24.9640866666667","6500600","新店區"
"231018","278-BY","2018/05/19 16:09:07","新北市新店區中正路694巷15號","121.535378333333","24.9909066666667","6500600","新店區"
"231037","4716-K9","2018/05/19 16:08:38","新北市新店區安一路一段1-1號","121.519345","24.961305","6500600","新店區"
"231034","616-UM","2018/05/19 16:09:01","新北市新店區安康路二段452-1號","121.495276666667","24.954745","6500600","新店區"
"241011","013-R5","2018/05/19 16:09:15","新北市三重區正義北路388號","121.493111666667","25.0717133333333","6500200","三重區"
"241028","022-UY","2018/05/19 16:09:04","新北市三重區正義南路111號","121.49826","25.05859","6500200","三重區"
"241009","060-VK","2018/05/19 16:09:13","新北市三重區三和路四段157號","121.483791666667","25.078345","6500200","三重區"
"241031","061-VK","2018/05/19 16:08:37","新北市三重區重新路四段121號","121.484646666667","25.0522583333333","6500200","三重區"
"241015","062-VK","2018/05/19 16:09:02","新北市三重區環河南路86-7號","121.502193333333","25.0590366666667","6500200","三重區"
"241017","063-VK","2018/05/19 16:09:19","新北市三重區大同北路148巷55號","121.49068","25.0647283333333","6500200","三重區"
"241024","065-VK","2018/05/19 16:09:14","新北市三重區中正北路145巷5弄14號","121.485138333333","25.06721","6500200","三重區"
"241026","066-VK","2018/05/19 16:09:12","新北市三重區正義南路15-2號","121.497781666667","25.06145","6500200","三重區"
"241002","090-VK","2018/05/19 16:09:03","新北市三重區仁義街91號","121.499781666667","25.0794716666667","6500200","三重區"
"241003","091-VK","2018/05/19 16:08:49","新北市三重區仁義街241巷36號","121.497008333333","25.0833233333333","6500200","三重區"
"241013","265-UM","2018/05/19 16:08:51","新北市三重區安慶街62號","121.496313333333","25.0692316666667","6500200","三重區"
"241016","266-UM","2018/05/19 16:09:05","新北市三重區新北大道一段9號","121.489103333333","25.0613716666667","6500200","三重區"
"241022","267-UM","2018/05/19 16:09:13","新北市三重區重陽路二段72號","121.48734","25.0640166666667","6500200","三重區"
"241018","268-UM","2018/05/19 16:09:11","新北市三重區明志街55號","121.491391666667","25.063875","6500200","三重區"
"241032","269-UM","2018/05/19 16:09:02","新北市三重區三陽路100巷3弄13號","121.483045","25.0581466666667","6500200","三重區"
"241007","398-BY","2018/05/19 16:09:19","新北市三重區慈愛街10號","121.484543333333","25.0784183333333","6500200","三重區"
"241025","413-TH","2018/05/19 16:09:18","新北市三重區忠孝路三段40巷10號","121.48208","25.0663833333333","6500200","三重區"
"241004","475-VK","2018/05/19 16:08:45","新北市三重區五華街80號","121.493238333333","25.082125","6500200","三重區"
"241020","478-VK","2018/05/19 16:09:10","新北市三重區力行路一段253號","121.48267","25.070935","6500200","三重區"
"241014","543-UM","2018/05/19 16:09:22","新北市三重區環河南路35號","121.503075","25.0610216666667","6500200","三重區"
"241023","545-UM","2018/05/19 16:09:08","新北市三重區力行路一段60號","121.484733333333","25.0690133333333","6500200","三重區"
"241001","547-UM","2018/05/19 16:09:04","新北市三重區自強路四段66號","121.49032","25.07849","6500200","三重區"
"241019","KEA-2593","2018/05/19 16:08:52","新北市三重區自強路二段74巷1號","121.48834","25.0701116666667","6500200","三重區"
"241006","AAD-863","2018/05/19 16:09:10","新北市三重區力行路二段151號","121.483535","25.07748","6500200","三重區"
"241030","743-BX","2018/05/19 16:09:09","新北市三重區重新路四段121號","121.484865","25.052395","6500200","三重區"
"241005","887-TS","2018/05/19 16:09:09","新北市三重區溪尾街300-2號","121.487501666667","25.0836983333333","6500200","三重區"
"241012","941-UM","2018/05/19 16:09:03","新北市三重區自強路一段64號","121.497276666667","25.0664983333333","6500200","三重區"
"241029","942-UM","2018/05/19 16:08:49","新北市三重區同安街58號","121.49563","25.0566233333333","6500200","三重區"
"241033","AAC-255","2018/05/19 16:09:01","新北市三重區五谷王南街50-1號","121.47384","25.0445516666667","6500200","三重區"
"235046","733-UM","2018/05/19 15:43:49","新北市中和區員山路36巷13號","121.484196666667","24.9908283333333","6500300","中和區"
"235062","800-TS","2018/05/19 16:09:20","新北市中和區員山路36巷16-3號","121.485068333333","24.991515","6500300","中和區"
"224007","275-VK","2018/05/19 16:08:26","新北市瑞芳區粗坑口路1巷5號","121.763248333333","25.0951133333333","6501200","瑞芳區"
"224005","271-BY","2018/05/19 16:09:10","新北市瑞芳區傑魚坑路134-1號","121.791305","25.110105","6501200","瑞芳區"
"227010","642-TC","2018/05/19 16:09:09","新北市雙溪區三港里雙澳路72號","121.88186","25.0545316666667","6502500","雙溪區"
"227002","400-TW","2018/05/19 16:09:05","新北市雙溪區上林里內平林47號","121.83332","25.0304483333333","6502500","雙溪區"
"251008","181-VK","2018/05/19 16:09:13","新北市淡水區沙崙路1號","121.420348333333","25.1808533333333","6501000","淡水區"
