"lineid","car","time","location","longitude","latitude","cityid","cityname"
"234026","9371-KE","2018/05/19 17:36:52","新北市永和區豫溪街84號","121.51814","25.0099133333333","6500400","永和區"
"249005","172-UM","2018/05/19 17:39:09","新北市八里區荖阡坑路34-1號","121.402771666667","25.1298866666667","6502300","八里區"
"249001","173-UM","2018/05/19 17:37:45","新北市八里區龍米路二段189號","121.434031666667","25.1582783333333","6502300","八里區"
"249004","303-UY","2018/05/19 17:39:09","新北市八里區大崁一街8號","121.420451666667","25.1580566666667","6502300","八里區"
"249002","305-UY","2018/05/19 17:38:19","新北市八里區龍米路一段261號","121.449085","25.133555","6502300","八里區"
"249003","593-UM","2018/05/19 17:39:04","新北市八里區中山路二段141號","121.405163333333","25.15127","6502300","八里區"
"248020","225-UY","2018/05/19 17:39:16","新北市五股區中興路二段83巷26-6號","121.460045","25.07516","6501500","五股區"
"232011","375-UM","2018/05/19 17:38:29","新北市坪林區北宜路八段422號","121.708161666667","24.9255366666667","6502000","坪林區"
"244013","069-UM","2018/05/19 17:38:59","新北市林口區中正路555號","121.381141666667","25.07691","6501700","林口區"
"244007","080-UY","2018/05/19 17:38:41","新北市林口區林口路281號","121.386103333333","25.08467","6501700","林口區"
"244019","403-UM","2018/05/19 17:33:16","新北市林口區公園路126號","121.371006666667","25.0713333333333","6501700","林口區"
"244009","410-SL","2018/05/19 17:38:00","新北市林口區中北三街262號","121.381993333333","25.0822533333333","6501700","林口區"
"244023","483-VK","2018/05/19 17:33:52","新北市林口區東明三街360號","121.391348333333","25.07045","6501700","林口區"
"244011","657-BX","2018/05/19 17:36:00","新北市林口區佳林路154號","121.384173333333","25.077095","6501700","林口區"
"244025","837-TS","2018/05/19 17:37:52","新北市林口區忠孝路308巷20號","121.366793333333","25.072405","6501700","林口區"
"244021","838-TS","2018/05/19 17:36:03","新北市林口區東林街14號","121.396206666667","25.078935","6501700","林口區"
"231046","107-UY","2018/05/19 17:37:32","新北市新店區直潭路107號","121.531538333333","24.9368283333333","6500600","新店區"
"241011","013-R5","2018/05/19 17:37:15","新北市三重區龍門路230號","121.500658333333","25.0735766666667","6500200","三重區"
"241017","063-VK","2018/05/19 17:36:28","新北市三重區大同北路34巷32號","121.494441666667","25.0623583333333","6500200","三重區"
"241024","065-VK","2018/05/19 17:38:34","新北市三重區力行路二段9巷6號","121.482713333333","25.0723366666667","6500200","三重區"
"241013","265-UM","2018/05/19 17:33:51","新北市三重區仁愛街141巷6號","121.495598333333","25.0754383333333","6500200","三重區"
"241016","266-UM","2018/05/19 17:35:45","新北市三重區正義北路37號","121.497518333333","25.0636466666667","6500200","三重區"
"241007","398-BY","2018/05/19 17:37:59","新北市三重區車路頭街129號","121.484173333333","25.0755283333333","6500200","三重區"
"241025","413-TH","2018/05/19 17:28:18","新北市三重區三民街328號","121.476521666667","25.069605","6500200","三重區"
"241014","543-UM","2018/05/19 17:37:02","新北市三重區長壽街196號","121.50424","25.069015","6500200","三重區"
"241023","545-UM","2018/05/19 17:36:48","新北市三重區三民街173號","121.483195","25.064965","6500200","三重區"
"241019","KEA-2593","2018/05/19 17:38:52","新北市三重區六張街247號","121.487575","25.0684166666667","6500200","三重區"
"241030","743-BX","2018/05/19 17:30:29","新北市三重區環河南路232號","121.492101666667","25.0513216666667","6500200","三重區"
"241005","887-TS","2018/05/19 17:38:29","新北市三重區碧華街57號","121.4848","25.0813316666667","6500200","三重區"
"241012","941-UM","2018/05/19 17:35:57","新北市三重區仁興街39巷77號","121.500673333333","25.0762633333333","6500200","三重區"
"241033","AAC-255","2018/05/19 17:37:41","新北市三重區光復路一段51號","121.472168333333","25.0489","6500200","三重區"
"235024","647-TV","2018/05/19 17:37:45","新北市中和區員山路36巷16-3號","121.48475","24.9918233333333","6500300","中和區"
"247024","893-R6","2018/05/19 17:38:20","新北市蘆洲區長樂路159號","121.462086666667","25.0881683333333","6501400","蘆洲區"
"247014","546-UM","2018/05/19 17:31:32","新北市蘆洲區三民路33號","121.475421666667","25.0830316666667","6501400","蘆洲區"
"247022","500-BY","2018/05/19 17:37:51","新北市蘆洲區三民路285號","121.467088333333","25.0899916666667","6501400","蘆洲區"
"247010","341-TH","2018/05/19 17:38:29","新北市蘆洲區集賢路412號","121.479818333333","25.0813983333333","6501400","蘆洲區"
"247012","339-TH","2018/05/19 17:30:26","新北市蘆洲區民族路1號","121.47546","25.0839866666667","6501400","蘆洲區"
"247004","337-TH","2018/05/19 17:26:31","新北市蘆洲區中原路35號","121.460043333333","25.0826483333333","6501400","蘆洲區"
"247006","336-TH","2018/05/19 17:37:38","新北市蘆洲區長安街68巷10號","121.463141666667","25.0804833333333","6501400","蘆洲區"
"247018","057-VK","2018/05/19 17:30:19","新北市蘆洲區民義街30巷1號","121.472073333333","25.0887133333333","6501400","蘆洲區"
"247008","056-VK","2018/05/19 17:33:40","新北市蘆洲區民生街64號","121.473355","25.0787883333333","6501400","蘆洲區"
"247016","007-UY","2018/05/19 17:38:42","新北市蘆洲區光華路46巷33號","121.467921666667","25.084125","6501400","蘆洲區"
"247002","002-UY","2018/05/19 17:38:15","新北市蘆洲區永平街62號","121.457363333333","25.0916233333333","6501400","蘆洲區"
"247020","001-UY","2018/05/19 17:37:57","新北市蘆洲區民族路492號","121.469948333333","25.0907216666667","6501400","蘆洲區"
"228003","097-TW","2018/05/19 17:38:55","新北市貢寮區仁理村仁和路33號","121.923911666667","25.0538483333333","6502600","貢寮區"
"228001","212-TW","2018/05/19 17:32:25","新北市貢寮區仁理村仁愛路95-1號","121.927685","25.0554866666667","6502600","貢寮區"
"228002","585-TW","2018/05/19 17:36:07","新北市貢寮區福隆里福隆街2巷31號","121.946386666667","25.0154783333333","6502600","貢寮區"
"224010","AGQ-8101","2018/05/19 17:28:02","新北市瑞芳區逢甲路152號","121.808088333333","25.10935","6501200","瑞芳區"
"224006","676-BX","2018/05/19 17:23:31","新北市瑞芳區傑魚坑路95號","121.792456666667","25.1103866666667","6501200","瑞芳區"
"224008","285-BY","2018/05/19 17:26:08","新北市瑞芳區侯硐路204號","121.83042","25.0882033333333","6501200","瑞芳區"
"224009","273-VK","2018/05/19 17:21:12","新北市瑞芳區汽車路9-12號","121.845875","25.1110066666667","6501200","瑞芳區"
"224005","271-BY","2018/05/19 17:38:30","新北市瑞芳區海濱路8-6號","121.831798333333","25.1260633333333","6501200","瑞芳區"
"227010","642-TC","2018/05/19 17:36:29","新北市雙溪區三貂里定福路1-2號","121.850766666667","25.0634033333333","6502500","雙溪區"
"208003","665-BX","2018/05/19 17:37:24","新北市金山區磺清路135號","121.639451666667","25.2278133333333","6502700","金山區"
"251004","009-UM","2018/05/19 17:36:41","新北市淡水區中正東路二段88巷15號","121.459103333333","25.1505433333333","6501000","淡水區"
"251002","012-UM","2018/05/19 17:34:13","新北市淡水區文化路65號","121.437763333333","25.1729033333333","6501000","淡水區"
"251013","KEA-2871","2018/05/19 17:36:16","新北市淡水區大竹圍5號","121.466576666667","25.195275","6501000","淡水區"
"251016","179-VK","2018/05/19 17:25:39","新北市淡水區社厝坑5-1號","121.470798333333","25.1904","6501000","淡水區"
"251014","180-VK","2018/05/19 17:32:53","新北市淡水區水碓7-1號","121.477133333333","25.222995","6501000","淡水區"
"251008","181-VK","2018/05/19 17:30:13","新北市淡水區大同路124巷16號","121.463575","25.1400983333333","6501000","淡水區"
"251015","182-VK","2018/05/19 17:35:51","新北市淡水區糞箕湖1-8號","121.483668333333","25.1708333333333","6501000","淡水區"
"251010","413-VK","2018/05/19 17:37:06","新北市淡水區淡海路276號","121.42003","25.1884633333333","6501000","淡水區"
"251012","441-VK","2018/05/19 17:39:15","新北市淡水區北新路200巷8號","121.451755","25.17967","6501000","淡水區"
"251007","442-VK","2018/05/19 17:33:58","新北市淡水區民生路91號","121.46378","25.13834","6501000","淡水區"
"251005","443-VK","2018/05/19 17:39:03","新北市淡水區鄧公路33巷1號","121.451415","25.1711333333333","6501000","淡水區"
"251006","561-UM","2018/05/19 17:37:31","新北市淡水區中山北路一段117號","121.44258","25.1769533333333","6501000","淡水區"
"251009","575-R6","2018/05/19 17:35:34","新北市淡水區中正路38-1號","121.443748333333","25.1693433333333","6501000","淡水區"
"251011","650-BX","2018/05/19 17:34:03","新北市淡水區坪頂路740號","121.483298333333","25.1578216666667","6501000","淡水區"
"251003","673-BX","2018/05/19 17:36:05","新北市淡水區中山路183號","121.441191666667","25.1741933333333","6501000","淡水區"
"207003","550-UM","2018/05/19 17:38:59","新北市萬里區龜吼里漁澳路85-2號","121.689196666667","25.1968133333333","6502800","萬里區"
"207004","225-TW","2018/05/19 17:33:00","新北市萬里區萬里里景美路6-1號","121.68388","25.17256","6502800","萬里區"
"252002","178-VK","2018/05/19 17:36:51","新北市三芝區智成街85號","121.505093333333","25.255665","6502100","三芝區"
"252001","292-VK","2018/05/19 17:36:41","新北市三芝區淡金路一段32號","121.500241666667","25.2592383333333","6502100","三芝區"
"237011","572-TV","2018/05/19 17:38:47","新北市三峽區文化路302號","121.364818333333","24.9356166666667","6500900","三峽區"
"237012","275-BY","2018/05/19 17:38:47","新北市三峽區中山路459巷163-3號","121.348846666667","24.9332083333333","6500900","三峽區"
"237006","5529-G3","2018/05/19 17:37:24","新北市三峽區介壽路一段552巷16號","121.387618333333","24.9324316666667","6500900","三峽區"
"237016","649-BX","2018/05/19 17:38:05","新北市三峽區大同路137號","121.37176","24.9266433333333","6500900","三峽區"
"237010","706-TV","2018/05/19 17:39:06","新北市三峽區中山路162號","121.364641666667","24.936465","6500900","三峽區"
"236070","105-UM","2018/05/19 17:35:32","新北市土城區城林路6巷80號","121.438486666667","24.9797933333333","6501300","土城區"
"236042","107-UM","2018/05/19 17:38:30","新北市土城區城林路6巷80號","121.438518333333","24.97975","6501300","土城區"
"236030","253-BX","2018/05/19 17:37:33","新北市土城區城林路6巷80號","121.438643333333","24.9796633333333","6501300","土城區"
"236014","270-VK","2018/05/19 17:37:39","新北市土城區城林路6巷80號","121.438521666667","24.9795716666667","6501300","土城區"
"236059","912-UM","2018/05/19 17:38:06","新北市土城區城林路6巷80號","121.43855","24.9796983333333","6501300","土城區"
"242034","AAC-296","2018/05/19 17:36:27","新北市新莊區新莊路553號","121.447288333333","25.0331416666667","6500500","新莊區"
"242058","986-R7","2018/05/19 17:24:39","新北市新莊區中正路400號","121.441595","25.0339866666667","6500500","新莊區"
"242053","751-BX","2018/05/19 17:32:48","新北市新莊區新樹路366號","121.43255","25.0031816666667","6500500","新莊區"
"242027","615-BX","2018/05/19 17:31:37","新北市新莊區思源路317號","121.45985","25.0492533333333","6500500","新莊區"
"242025","613-BX","2018/05/19 17:33:58","新北市新莊區復興路二段119號","121.45671","25.0444116666667","6500500","新莊區"
"242029","612-BX","2018/05/19 17:31:31","新北市新莊區復興路二段168號","121.458211666667","25.044315","6500500","新莊區"
"242042","566-BX","2018/05/19 17:30:26","新北市新莊區新樹路113巷26號","121.438331666667","25.026715","6500500","新莊區"
"242004","442-UM","2018/05/19 17:31:50","新北市新莊區中港路288巷54號","121.45453","25.0449583333333","6500500","新莊區"
"242051","441-UM","2018/05/19 17:34:24","新北市新莊區西盛街201巷12號","121.428935","25.0168766666667","6500500","新莊區"
"242056","440-UM","2018/05/19 17:34:01","新北市新莊區瓊林路11號","121.449665","25.0316566666667","6500500","新莊區"
"242036","415-TV","2018/05/19 17:33:27","新北市新莊區後港一路169號","121.432203333333","25.028185","6500500","新莊區"
"242007","413-TV","2018/05/19 17:30:28","新北市新莊區自強街63號","121.454673333333","25.047265","6500500","新莊區"
"242023","362-BY","2018/05/19 17:34:42","新北市新莊區公園路75號","121.454191666667","25.04031","6500500","新莊區"
"242061","353-BY","2018/05/19 17:28:59","新北市新莊區瓊林南路1號","121.438391666667","25.0206433333333","6500500","新莊區"
"242009","132-UY","2018/05/19 17:34:23","新北市新莊區中原路81號","121.457093333333","25.0543683333333","6500500","新莊區"
"242039","133-UY","2018/05/19 17:36:45","新北市新莊區民全街11號","121.428993333333","25.021475","6500500","新莊區"
"242031","135-UY","2018/05/19 17:33:47","新北市新莊區新泰路369巷1號","121.443618333333","25.043345","6500500","新莊區"
"242048","172-VK","2018/05/19 17:36:29","新北市新莊區四維路212巷52號","121.420058333333","25.02063","6500500","新莊區"
"242017","175-VK","2018/05/19 17:36:40","新北市新莊區中和街34號","121.448195","25.0439216666667","6500500","新莊區"
"242015","346-TH","2018/05/19 17:34:35","新北市新莊區新泰路206號","121.446873333333","25.0385883333333","6500500","新莊區"
"242021","348-TH","2018/05/19 17:35:00","新北市新莊區中華路一段45巷2號","121.451915","25.0383933333333","6500500","新莊區"
"242019","350-TH","2018/05/19 17:29:53","新北市新莊區中港路78號","121.455478333333","25.03908","6500500","新莊區"
"242013","351-TH","2018/05/19 17:34:13","新北市新莊區中誠街46巷13號","121.451163333333","25.0486966666667","6500500","新莊區"
"238015","755-BX","2018/05/19 17:37:43","新北市樹林區啟智街44巷2號","121.420433333333","24.9928833333333","6500700","樹林區"
"238023","601-UM","2018/05/19 17:31:39","新北市樹林區三福街8號","121.408868333333","25.0169416666667","6500700","樹林區"
"238019","599-UM","2018/05/19 17:38:27","新北市樹林區太順街25號","121.419208333333","24.9798233333333","6500700","樹林區"
"238018","571-TV","2018/05/19 17:32:48","新北市樹林區鎮前街174號","121.424185","24.989685","6500700","樹林區"
"238024","5061-A6","2018/05/19 17:38:53","新北市樹林區環河路600-1號","121.403653333333","24.9693316666667","6500700","樹林區"
"238022","KEA-2213","2018/05/19 17:35:05","新北市樹林區和平街2巷9號","121.421115","24.9810866666667","6500700","樹林區"
"238021","KEA-2539","2018/05/19 17:36:29","新北市樹林區柑園街一段242-1號","121.391786666667","24.9564133333333","6500700","樹林區"
"238025","303-VK","2018/05/19 17:36:04","新北市樹林區保安街二段98-2號","121.414266666667","25.0037033333333","6500700","樹林區"
"238017","283-BY","2018/05/19 17:31:08","新北市樹林區中正路434號","121.41378","25.011265","6500700","樹林區"
"238014","282-BY","2018/05/19 17:28:51","新北市樹林區保安街一段294巷43號","121.42025","24.9988216666667","6500700","樹林區"
"238020","268-VK","2018/05/19 17:34:32","新北市樹林區俊英街116巷1號","121.427615","25.0057766666667","6500700","樹林區"
"238026","172-UY","2018/05/19 17:39:08","新北市樹林區新興街11巷10號","121.401766666667","24.97348","6500700","樹林區"
"238016","169-UY","2018/05/19 17:35:50","新北市樹林區育英街61號","121.420688333333","24.9892016666667","6500700","樹林區"
"239006","891-R6","2018/05/19 17:37:12","新北市鶯歌區鶯桃路436巷61弄18號","121.333301666667","24.9671566666667","6500800","鶯歌區"
"239008","527-UM","2018/05/19 17:36:10","新北市鶯歌區大湖路700巷22弄3號","121.333773333333","24.977155","6500800","鶯歌區"
"239005","526-UM","2018/05/19 17:37:24","新北市鶯歌區福隆二街57號","121.32438","24.97152","6500800","鶯歌區"
"239001","417-VK","2018/05/19 17:39:07","新北市鶯歌區中正三路270號","121.32921","24.9362","6500800","鶯歌區"
"239003","360-BY","2018/05/19 17:33:02","新北市鶯歌區鶯桃路197號","121.337411666667","24.9587433333333","6500800","鶯歌區"
"239002","359-BY","2018/05/19 17:35:10","新北市鶯歌區育英街2號","121.346746666667","24.9547433333333","6500800","鶯歌區"
"239004","193-VK","2018/05/19 17:38:57","新北市鶯歌區三鶯路48號","121.356741666667","24.942","6500800","鶯歌區"
"221010","269-BY","2018/05/19 17:36:43","新北市汐止區汐萬路一段357號","121.649948333333","25.0778516666667","6501100","汐止區"
"221023","279-VK","2018/05/19 17:38:29","新北市汐止區康寧街901號","121.651663333333","25.074915","6501100","汐止區"
"221021","299-VK","2018/05/19 17:37:56","新北市汐止區汐萬路一段256巷3號","121.652118333333","25.074855","6501100","汐止區"
"221008","129-UY","2018/05/19 17:38:21","新北市汐止區汐萬路一段256巷3號","121.652608333333","25.0745616666667","6501100","汐止區"
"221033","647-BX","2018/05/19 17:37:00","新北市汐止區新台五路一段73-1號","121.644741666667","25.0601866666667","6501100","汐止區"
"242002","KEA-2550","2018/05/19 17:33:16","新北市新莊區新莊路249號","121.45451","25.0349766666667","6500500","新莊區"
"242044","281-VK","2018/05/19 17:27:58","新北市新莊區富國路72號","121.41989","25.0258966666667","6500500","新莊區"
"242046","280-VK","2018/05/19 17:27:44","新北市新莊區新樹路57號","121.440093333333","25.031855","6500500","新莊區"
