"lineid","car","time","location","longitude","latitude","cityid","cityname"
"234026","9371-KE","2018/05/19 17:56:32","新北市永和區永和路一段155-4號","121.514276666667","25.00944","6500400","永和區"
"249005","172-UM","2018/05/19 17:58:49","新北市八里區荖阡坑路20號","121.39742","25.136425","6502300","八里區"
"249001","173-UM","2018/05/19 17:56:45","新北市八里區龍米路二段39號","121.44833","25.14009","6502300","八里區"
"249004","303-UY","2018/05/19 17:58:32","新北市八里區龍米路三段46號","121.427905","25.159195","6502300","八里區"
"249002","305-UY","2018/05/19 17:56:39","新北市八里區龍形五街29號","121.44979","25.1333233333333","6502300","八里區"
"249003","593-UM","2018/05/19 17:56:04","新北市八里區中山路二段177號","121.404963333333","25.1502766666667","6502300","八里區"
"248006","077-UY","2018/05/19 17:58:31","新北市五股區中興路二段37巷28號","121.460165","25.0749266666667","6501500","五股區"
"248008","095-VK","2018/05/19 17:58:07","新北市五股區中興路二段152號","121.458635","25.0782533333333","6501500","五股區"
"248020","225-UY","2018/05/19 17:58:35","新北市五股區中興路二段83巷26-6號","121.460045","25.0751816666667","6501500","五股區"
"248004","682-TV","2018/05/19 17:58:02","新北市五股區中興路二段83巷26-6號","121.460196666667","25.0752483333333","6501500","五股區"
"232011","375-UM","2018/05/19 17:54:48","新北市坪林區水柳腳38號","121.70984","24.9351516666667","6502000","坪林區"
"244013","069-UM","2018/05/19 17:54:19","新北市林口區中山路255號","121.385341666667","25.0794033333333","6501700","林口區"
"244007","080-UY","2018/05/19 17:58:01","新北市林口區竹林路267號","121.389508333333","25.080935","6501700","林口區"
"244019","403-UM","2018/05/19 17:56:16","新北市林口區忠孝路542巷11弄2-5號","121.37277","25.06702","6501700","林口區"
"244009","410-SL","2018/05/19 17:53:41","新北市林口區林口路237號","121.386791666667","25.08346","6501700","林口區"
"244023","483-VK","2018/05/19 17:57:12","新北市林口區東湖路41巷10號","121.386248333333","25.0734633333333","6501700","林口區"
"244017","485-VK","2018/05/19 17:56:41","新北市林口區文化二路一段230巷22弄1-1號","121.370406666667","25.0718616666667","6501700","林口區"
"244011","657-BX","2018/05/19 17:52:20","新北市林口區仁愛路一段410號","121.38651","25.0769033333333","6501700","林口區"
"244025","837-TS","2018/05/19 17:49:52","新北市林口區文化三路一段165號","121.361506666667","25.0690583333333","6501700","林口區"
"244021","838-TS","2018/05/19 17:54:03","新北市林口區新寮38號","121.401168333333","25.065795","6501700","林口區"
"222003","436-BY","2018/05/19 17:59:07","新北市深坑區炮子崙24-1號","121.605853333333","24.9882016666667","6501800","深坑區"
"222002","659-BX","2018/05/19 17:52:24","新北市深坑區平埔街22巷17弄1號","121.61494","25.0008266666667","6501800","深坑區"
"231041","002-UM","2018/05/19 17:58:52","新北市新店區安華路28-1號","121.519713333333","24.9606333333333","6500600","新店區"
"231046","107-UY","2018/05/19 17:54:52","新北市新店區康雅崙路24號","121.535375","24.9267883333333","6500600","新店區"
"231054","719-UY","2018/05/19 17:58:01","新北市新店區安華路28-1號","121.520001666667","24.9606333333333","6500600","新店區"
"241024","065-VK","2018/05/19 17:53:14","新北市三重區力行路一段188巷14號","121.480118333333","25.07224","6500200","三重區"
"241016","266-UM","2018/05/19 17:58:45","新北市新莊區化成路585-1號","121.463561666667","25.066755","6500200","三重區"
"241005","887-TS","2018/05/19 17:54:09","新北市三重區集賢路87-1號","121.493725","25.086955","6500200","三重區"
"241033","AAC-255","2018/05/19 17:56:41","新北市三重區重新路五段619號","121.468018333333","25.0441716666667","6500200","三重區"
"235064","005-UY","2018/05/19 17:58:52","新北市中和區員山路36巷16-3號","121.48514","24.9912966666667","6500300","中和區"
"235063","006-UY","2018/05/19 17:57:20","新北市中和區員山路36巷16-3號","121.485046666667","24.9913133333333","6500300","中和區"
"235039","097-UM","2018/05/19 17:59:09","新北市中和區和城路一段271巷1號","121.485535","24.99155","6500300","中和區"
"235038","185-VK","2018/05/19 17:58:13","新北市中和區中正路271號","121.495898333333","24.993695","6500300","中和區"
"235061","378-QA","2018/05/19 17:58:36","新北市中和區員山路36巷16-2號","121.48535","24.9917116666667","6500300","中和區"
"235024","647-TV","2018/05/19 17:59:05","新北市中和區員山路36巷16-3號","121.484828333333","24.991725","6500300","中和區"
"235053","900-TW","2018/05/19 17:59:01","新北市中和區員山路36巷16-2號","121.484976666667","24.9919733333333","6500300","中和區"
"247024","893-R6","2018/05/19 17:58:36","新北市蘆洲區光復路30巷20號","121.46376","25.084165","6501400","蘆洲區"
"247014","546-UM","2018/05/19 17:54:12","新北市蘆洲區保和街71號","121.469395","25.086115","6501400","蘆洲區"
"247022","500-BY","2018/05/19 17:55:31","新北市蘆洲區中正路516巷38-5號","121.461881666667","25.0977216666667","6501400","蘆洲區"
"247010","341-TH","2018/05/19 17:53:49","新北市蘆洲區信義路259巷14號","121.478136666667","25.0845216666667","6501400","蘆洲區"
"247012","339-TH","2018/05/19 17:53:46","新北市蘆洲區民族路252-1號","121.47912","25.0887766666667","6501400","蘆洲區"
"247006","336-TH","2018/05/19 17:52:39","新北市蘆洲區九芎街153巷5號","121.46535","25.0789883333333","6501400","蘆洲區"
"247018","057-VK","2018/05/19 17:51:40","新北市蘆洲區中興街130巷1號","121.482875","25.08942","6501400","蘆洲區"
"247008","056-VK","2018/05/19 17:52:00","新北市蘆洲區信義路32-1號","121.474378333333","25.0792766666667","6501400","蘆洲區"
"247016","007-UY","2018/05/19 17:54:10","新北市蘆洲區中正路185巷23弄8號","121.467191666667","25.0844116666667","6501400","蘆洲區"
"247002","002-UY","2018/05/19 17:46:15","新北市蘆洲區永平街32巷11弄11號","121.458458333333","25.0914583333333","6501400","蘆洲區"
"247020","001-UY","2018/05/19 17:57:18","新北市蘆洲區民權路117號","121.472245","25.0898383333333","6501400","蘆洲區"
"235065","251-BX","2018/05/19 17:57:53","新北市中和區連城路469巷11號","121.483653333333","24.9955616666667","6500300","中和區"
"228003","097-TW","2018/05/19 17:58:15","新北市貢寮區真理里美艷山街6-2號","121.928813333333","25.0607966666667","6502600","貢寮區"
"228001","212-TW","2018/05/19 17:57:44","新北市貢寮區仁理村仁愛路95-1號","121.927668333333","25.0555183333333","6502600","貢寮區"
"228002","585-TW","2018/05/19 17:56:27","新北市貢寮區福隆里桂安街11號","121.959486666667","25.020285","6502600","貢寮區"
"224010","AGQ-8101","2018/05/19 17:55:42","新北市瑞芳區汽車路117號","121.840726666667","25.1089083333333","6501200","瑞芳區"
"224006","676-BX","2018/05/19 17:34:51","新北市瑞芳區傑魚坑路8號","121.794921666667","25.110455","6501200","瑞芳區"
"224008","285-BY","2018/05/19 17:36:08","新北市瑞芳區瑞柑新村40號","121.829051666667","25.1069266666667","6501200","瑞芳區"
"224009","273-VK","2018/05/19 17:32:11","新北市瑞芳區崙頂路2-2號","121.846573333333","25.1070966666667","6501200","瑞芳區"
"224005","271-BY","2018/05/19 17:58:10","新北市瑞芳區建基路一段50巷51號","121.817951666667","25.12812","6501200","瑞芳區"
"227010","642-TC","2018/05/19 17:58:49","新北市雙溪區三貂里定福路1-2號","121.85071","25.0634333333333","6502500","雙溪區"
"253005","032-BX","2018/05/19 17:58:53","新北市石門區中山路62-7號","121.567506666667","25.2902233333333","6502200","石門區"
"253006","295-VK","2018/05/19 17:54:36","新北市石門區中央路5號","121.566343333333","25.2915266666667","6502200","石門區"
"222001","KEA-2212","2018/05/19 17:55:41","新北市深坑區文山路三段110號","121.608703333333","24.99948","6501800","深坑區"
"208002","KEA-2872","2018/05/19 17:55:02","新北市金山區清泉里清水路2號","121.630176666667","25.2274266666667","6502700","金山區"
"208003","665-BX","2018/05/19 17:56:49","新北市金山區磺港里磺港路256號","121.643688333333","25.2259","6502700","金山區"
"208001","761-BX","2018/05/19 17:55:39","新北市金山區磺港里社寮27號","121.638791666667","25.2292183333333","6502700","金山區"
"251004","009-UM","2018/05/19 17:57:01","新北市淡水區民權路20號","121.459661666667","25.137975","6501000","淡水區"
"251001","011-UM","2018/05/19 17:57:42","新北市淡水區民權路92巷35-1號","121.46224","25.1266666666667","6501000","淡水區"
"251002","012-UM","2018/05/19 17:57:01","新北市淡水區中正東路1號","121.44725","25.1672816666667","6501000","淡水區"
"251013","KEA-2871","2018/05/19 17:56:36","新北市淡水區泉洲厝31號","121.479466666667","25.1910216666667","6501000","淡水區"
"251016","179-VK","2018/05/19 17:57:39","新北市淡水區埤島35-5號","121.449751666667","25.1965966666667","6501000","淡水區"
"251014","180-VK","2018/05/19 17:49:13","新北市淡水區公埔子16-6號","121.481005","25.224605","6501000","淡水區"
"251008","181-VK","2018/05/19 17:52:33","新北市淡水區八勢路73巷12號","121.462968333333","25.1538783333333","6501000","淡水區"
"251015","182-VK","2018/05/19 17:50:31","新北市淡水區興福寮23號","121.49351","25.1642633333333","6501000","淡水區"
"251010","413-VK","2018/05/19 17:53:06","新北市淡水區觀海路27號","121.4186","25.181575","6501000","淡水區"
"251012","441-VK","2018/05/19 17:52:15","新北市淡水區北新路二段91號","121.481793333333","25.1853183333333","6501000","淡水區"
"251005","443-VK","2018/05/19 17:57:13","新北市淡水區水源街一段147號","121.447531666667","25.1717666666667","6501000","淡水區"
"251006","561-UM","2018/05/19 17:56:14","新北市淡水區中山北路一段47號","121.441505","25.1754616666667","6501000","淡水區"
"251009","575-R6","2018/05/19 17:58:34","新北市淡水區大仁街6巷1號","121.442416666667","25.174635","6501000","淡水區"
"251011","650-BX","2018/05/19 17:39:23","新北市淡水區小坪頂12-2號","121.486938333333","25.1558716666667","6501000","淡水區"
"251003","673-BX","2018/05/19 17:55:45","新北市淡水區大忠街39號","121.444425","25.176375","6501000","淡水區"
"207003","550-UM","2018/05/19 17:59:19","新北市萬里區港東路野柳風景區攤販66號","121.691383333333","25.2059033333333","6502800","萬里區"
"207004","225-TW","2018/05/19 17:42:40","新北市萬里區中幅里中福路6-5號","121.68688","25.1637283333333","6502800","萬里區"
"252002","178-VK","2018/05/19 17:54:31","新北市三芝區中山路一段135號","121.502236666667","25.25635","6502100","三芝區"
"252001","292-VK","2018/05/19 17:58:41","新北市三芝區中興街一段32號","121.49782","25.2575366666667","6502100","三芝區"
"237007","153-BY","2018/05/19 17:56:15","新北市三峽區中園街139號","121.367418333333","24.9232966666667","6500900","三峽區"
"237011","572-TV","2018/05/19 17:56:06","新北市三峽區光明路39-1號","121.374553333333","24.9298783333333","6500900","三峽區"
"237009","210-TH","2018/05/19 17:58:29","新北市三峽區中山路106巷2號","121.366161666667","24.9360716666667","6500900","三峽區"
"237013","252-BX","2018/05/19 17:50:51","新北市三峽區愛國路22號","121.374356666667","24.9334233333333","6500900","三峽區"
"237012","275-BY","2018/05/19 17:58:07","新北市三峽區民生街19巷1號","121.37629","24.93634","6500900","三峽區"
"237008","302-VK","2018/05/19 17:58:04","新北市三峽區白雞38-20號","121.373585","24.9116166666667","6500900","三峽區"
"237014","433-BY","2018/05/19 17:59:03","新北市三峽區和平街36巷7弄6號","121.370878333333","24.9373733333333","6500900","三峽區"
"237006","5529-G3","2018/05/19 17:55:24","新北市三峽區介壽路二段138巷1弄126號","121.39825","24.9306866666667","6500900","三峽區"
"237016","649-BX","2018/05/19 17:56:25","新北市三峽區白雞115-16號","121.401451666667","24.9065783333333","6500900","三峽區"
"237010","706-TV","2018/05/19 17:50:26","新北市三峽區文化路254號","121.367126666667","24.9358216666667","6500900","三峽區"
"237005","AKY-6261","2018/05/19 17:57:40","新北市三峽區復興路235號","121.368191666667","24.9387083333333","6500900","三峽區"
"236070","105-UM","2018/05/19 17:52:12","新北市土城區青雲路605巷6號","121.459766666667","24.9692083333333","6501300","土城區"
"236042","107-UM","2018/05/19 17:57:30","新北市土城區城林路6巷80號","121.438551666667","24.9797983333333","6501300","土城區"
"236079","166-UM","2018/05/19 17:55:32","新北市土城區永寧路35號","121.430073333333","24.96211","6501300","土城區"
"236030","253-BX","2018/05/19 17:58:13","新北市土城區城林路6巷80號","121.438643333333","24.9796633333333","6501300","土城區"
"236026","269-VK","2018/05/19 17:56:55","新北市土城區中央路三段96-1號","121.435588333333","24.9664683333333","6501300","土城區"
"236014","270-VK","2018/05/19 17:58:59","新北市土城區城林路6巷80號","121.438513333333","24.9796483333333","6501300","土城區"
"236038","271-VK","2018/05/19 17:59:13","新北市土城區城林路6巷80號","121.438591666667","24.9797583333333","6501300","土城區"
"236021","401-BY","2018/05/19 17:57:55","新北市土城區城林路6巷80號","121.43877","24.979685","6501300","土城區"
"236059","912-UM","2018/05/19 17:56:06","新北市土城區中央路三段140號","121.43319","24.965675","6501300","土城區"
"236049","913-UM","2018/05/19 17:58:42","新北市土城區城林路6巷80號","121.438405","24.9795516666667","6501300","土城區"
"236063","915-UM","2018/05/19 17:58:01","新北市土城區城林路6巷80號","121.43854","24.9796516666667","6501300","土城區"
"242034","AAC-296","2018/05/19 17:43:27","新北市新莊區新莊路556號","121.444941666667","25.032955","6500500","新莊區"
"242058","986-R7","2018/05/19 17:35:18","新北市新莊區中正路596號","121.426665","25.03024","6500500","新莊區"
"242053","751-BX","2018/05/19 17:42:21","新北市新莊區新樹路699巷27號","121.432865","25.0014766666667","6500500","新莊區"
"242027","615-BX","2018/05/19 17:39:17","新北市新莊區福壽街138號","121.457588333333","25.0517666666667","6500500","新莊區"
"242025","613-BX","2018/05/19 17:53:38","新北市新莊區新北大道二段298號","121.464961666667","25.0613083333333","6500500","新莊區"
"242029","612-BX","2018/05/19 17:42:31","新北市新莊區復興路一段123號","121.449675","25.0431033333333","6500500","新莊區"
"242042","566-BX","2018/05/19 17:42:06","新北市新莊區中正路514號","121.430331666667","25.0349233333333","6500500","新莊區"
"242004","442-UM","2018/05/19 17:43:30","新北市新莊區自立街214巷9弄6號","121.457333333333","25.044925","6500500","新莊區"
"242051","441-UM","2018/05/19 17:43:24","新北市新莊區西盛街262號","121.428061666667","25.0157533333333","6500500","新莊區"
"242056","440-UM","2018/05/19 17:44:40","新北市新莊區瓊林路13-8號","121.448088333333","25.0302433333333","6500500","新莊區"
"242036","415-TV","2018/05/19 17:45:07","新北市新莊區建福路69巷30號","121.42823","25.0271683333333","6500500","新莊區"
"242007","413-TV","2018/05/19 17:39:48","新北市新莊區福樂街120號","121.457171666667","25.0479283333333","6500500","新莊區"
"242023","362-BY","2018/05/19 17:44:22","新北市新莊區民樂街97號","121.457871666667","25.0437516666667","6500500","新莊區"
"242061","353-BY","2018/05/19 17:32:39","新北市新莊區瓊林南路59-8號","121.435481666667","25.0164383333333","6500500","新莊區"
"242009","132-UY","2018/05/19 17:48:03","新北市新莊區昌明街30巷9號","121.45674","25.05327","6500500","新莊區"
"242039","133-UY","2018/05/19 17:54:45","新北市新莊區民安路146號","121.424531666667","25.0250716666667","6500500","新莊區"
"242031","135-UY","2018/05/19 17:42:07","新北市新莊區新泰路343號","121.444758333333","25.0420366666667","6500500","新莊區"
"242048","172-VK","2018/05/19 17:50:09","新北市新莊區萬安街58號","121.420956666667","25.023595","6500500","新莊區"
"242011","173-VK","2018/05/19 17:51:53","新北市新莊區中港路680號","121.450878333333","25.05696","6500500","新莊區"
"242017","175-VK","2018/05/19 17:47:00","新北市新莊區永安街94號","121.450515","25.0446083333333","6500500","新莊區"
"242015","346-TH","2018/05/19 17:43:15","新北市新莊區新泰路329號","121.444946666667","25.04172","6500500","新莊區"
"242021","348-TH","2018/05/19 17:46:00","新北市新莊區中華路一段230號","121.452608333333","25.0432466666667","6500500","新莊區"
"242019","350-TH","2018/05/19 17:40:53","新北市新莊區銘德街146號","121.454563333333","25.0427133333333","6500500","新莊區"
"242013","351-TH","2018/05/19 17:45:52","新北市新莊區中誠街142巷2號","121.44875","25.0477483333333","6500500","新莊區"
"238015","755-BX","2018/05/19 17:49:44","新北市樹林區復興路69號","121.421581666667","24.992865","6500700","樹林區"
"238023","601-UM","2018/05/19 17:41:33","新北市樹林區三福街70巷18號","121.404821666667","25.01674","6500700","樹林區"
"238019","599-UM","2018/05/19 17:56:40","新北市樹林區忠孝街93號","121.424358333333","24.981065","6500700","樹林區"
"238018","571-TV","2018/05/19 17:56:28","新北市樹林區博愛街194號","121.424928333333","24.9896616666667","6500700","樹林區"
"238022","KEA-2213","2018/05/19 17:56:25","新北市樹林區太順街55號","121.417353333333","24.9789616666667","6500700","樹林區"
"238021","KEA-2539","2018/05/19 17:53:44","新北市樹林區柑園街一段33巷21號","121.40492","24.9577866666667","6500700","樹林區"
"238025","303-VK","2018/05/19 17:50:24","新北市樹林區三俊街113號","121.417468333333","25.015545","6500700","樹林區"
"238017","283-BY","2018/05/19 17:38:48","新北市樹林區三德街14號","121.413478333333","25.0129533333333","6500700","樹林區"
"238014","282-BY","2018/05/19 17:42:11","新北市樹林區保安街一段219號","121.420451666667","24.9963466666667","6500700","樹林區"
"238020","268-VK","2018/05/19 17:56:15","新北市樹林區三俊街200號","121.419725","25.0155766666667","6500700","樹林區"
"238026","172-UY","2018/05/19 17:59:07","新北市樹林區佳園路一段4號","121.392731666667","24.9715516666667","6500700","樹林區"
"238016","169-UY","2018/05/19 17:57:30","新北市樹林區復興路322巷12號","121.416213333333","24.987275","6500700","樹林區"
"239006","891-R6","2018/05/19 17:55:52","新北市鶯歌區鶯桃路413巷34弄22號","121.330891666667","24.963945","6500800","鶯歌區"
"239008","527-UM","2018/05/19 17:46:50","新北市鶯歌區香賓街13巷1號","121.336881666667","24.979805","6500800","鶯歌區"
"239005","526-UM","2018/05/19 17:57:04","新北市鶯歌區鶯桃路668巷74-1號","121.330131666667","24.9719033333333","6500800","鶯歌區"
"239001","417-VK","2018/05/19 17:58:07","新北市鶯歌區中正二路192-2號","121.339671666667","24.9433333333333","6500800","鶯歌區"
"239003","360-BY","2018/05/19 17:59:01","新北市鶯歌區鶯桃路213-1號","121.336975","24.95896","6500800","鶯歌區"
"239002","359-BY","2018/05/19 17:57:30","新北市鶯歌區光明街86號","121.346626666667","24.9558316666667","6500800","鶯歌區"
"239004","193-VK","2018/05/19 17:58:17","新北市鶯歌區尖山路101巷12號","121.346905","24.9426683333333","6500800","鶯歌區"
"221036","130-UY","2018/05/19 17:56:20","新北市汐止區大同路二段572-1號","121.665378333333","25.0730933333333","6501100","汐止區"
"221015","131-UY","2018/05/19 17:53:14","新北市汐止區長江街286-2號","121.665465","25.0806316666667","6501100","汐止區"
"221010","269-BY","2018/05/19 17:47:58","新北市汐止區汐萬路二段63號","121.649266666667","25.0823583333333","6501100","汐止區"
"221012","278-VK","2018/05/19 17:58:51","新北市汐止區長興街二段50巷2弄4號","121.673821666667","25.0817416666667","6501100","汐止區"
"221023","279-VK","2018/05/19 17:51:09","新北市汐止區民族二街46號","121.63429","25.0702683333333","6501100","汐止區"
"221032","280-BY","2018/05/19 17:58:21","新北市汐止區民權街一段16號","121.621291666667","25.053525","6501100","汐止區"
"221027","281-BY","2018/05/19 17:57:16","新北市汐止區大同路二段350號","121.656851666667","25.067105","6501100","汐止區"
"221029","298-VK","2018/05/19 17:58:33","新北市汐止區樟樹二路329號","121.641325","25.0703716666667","6501100","汐止區"
"221021","299-VK","2018/05/19 17:56:56","新北市汐止區新興路11號","121.65648","25.0648066666667","6501100","汐止區"
"221031","353-TW","2018/05/19 17:57:45","新北市汐止區中興路194號","121.631478333333","25.0658616666667","6501100","汐止區"
"221008","129-UY","2018/05/19 17:54:41","新北市汐止區康寧街611號","121.636148333333","25.0709966666667","6501100","汐止區"
"221035","622-UM","2018/05/19 17:51:14","新北市汐止區汐萬路一段150號","121.652766666667","25.071155","6501100","汐止區"
"221025","623-UM","2018/05/19 17:57:14","新北市汐止區仁愛路1號","121.658685","25.0643183333333","6501100","汐止區"
"221038","646-BX","2018/05/19 17:55:48","新北市汐止區連興街73號","121.653963333333","25.0628466666667","6501100","汐止區"
"221033","647-BX","2018/05/19 17:44:00","新北市汐止區林森街132巷6弄19號","121.624036666667","25.0399633333333","6501100","汐止區"
"221002","707-TV","2018/05/19 17:59:12","新北市汐止區工建路208號","121.63576","25.0617583333333","6501100","汐止區"
"221018","753-BX","2018/05/19 17:59:15","新北市汐止區招商街11巷2號","121.666623333333","25.0687","6501100","汐止區"
"242002","KEA-2550","2018/05/19 17:40:56","新北市新莊區新莊路266號","121.451816666667","25.03397","6500500","新莊區"
"242044","281-VK","2018/05/19 17:39:18","新北市新莊區中正路871巷9弄44號","121.419906666667","25.026665","6500500","新莊區"
"242046","280-VK","2018/05/19 17:35:24","新北市新莊區中正路565號","121.434876666667","25.0323983333333","6500500","新莊區"
