"lineid","car","time","location","longitude","latitude","cityid","cityname"
"234017","745-BX","2018/05/19 18:19:23","新北市永和區福和路1號","121.526366666667","25.0096583333333","6500400","永和區"
"234026","9371-KE","2018/05/19 18:19:32","新北市永和區豫溪街28巷16號","121.515123333333","25.00932","6500400","永和區"
"234011","9373-KE","2018/05/19 18:19:25","新北市永和區環河東路二段20號","121.52238","25.0132183333333","6500400","永和區"
"249005","172-UM","2018/05/19 18:19:29","新北市八里區荖阡坑路15-27號","121.400475","25.140295","6502300","八里區"
"249001","173-UM","2018/05/19 18:19:25","新北市八里區龍米路一段135號","121.452101666667","25.1268983333333","6502300","八里區"
"249004","303-UY","2018/05/19 18:19:29","新北市八里區文心街41號","121.428531666667","25.1609233333333","6502300","八里區"
"249002","305-UY","2018/05/19 18:18:19","新北市八里區龍形二街28號","121.450573333333","25.132945","6502300","八里區"
"248016","026-BX","2018/05/19 18:19:31","新北市五股區凌雲路一段133巷29號","121.448985","25.1003833333333","6501500","五股區"
"248006","077-UY","2018/05/19 18:19:31","新北市五股區中興路一段164-1號","121.464041666667","25.0739833333333","6501500","五股區"
"248008","095-VK","2018/05/19 18:19:28","新北市五股區更洲路32巷8弄17號","121.459268333333","25.07964","6501500","五股區"
"248020","225-UY","2018/05/19 18:19:16","新北市五股區孝義路47巷22號","121.45091","25.109345","6501500","五股區"
"248012","247-BX","2018/05/19 18:19:24","新北市五股區御史路1巷101弄2號","121.440961666667","25.09124","6501500","五股區"
"248014","261-SL","2018/05/19 18:19:32","新北市五股區自強路45號","121.433398333333","25.0737766666667","6501500","五股區"
"248010","272-BY","2018/05/19 18:19:25","新北市五股區成泰路一段139巷2弄2號","121.435105","25.072995","6501500","五股區"
"248002","678-BX","2018/05/19 18:19:24","新北市五股區西雲路68號","121.443658333333","25.0916683333333","6501500","五股區"
"248004","682-TV","2018/05/19 18:19:22","新北市五股區成泰路二段222-2號","121.439128333333","25.0854383333333","6501500","五股區"
"232011","375-UM","2018/05/19 18:19:29","新北市坪林區坪雙路一段41號","121.711686666667","24.942465","6502000","坪林區"
"244013","069-UM","2018/05/19 18:19:39","新北市林口區中山路136-1號","121.391795","25.0787166666667","6501700","林口區"
"244007","080-UY","2018/05/19 18:19:21","新北市林口區竹林路548號","121.387593333333","25.084745","6501700","林口區"
"244019","403-UM","2018/05/19 18:19:37","新北市林口區忠孝路551號","121.372428333333","25.068635","6501700","林口區"
"244009","410-SL","2018/05/19 18:19:20","新北市林口區文林二街16號","121.376745","25.0887766666667","6501700","林口區"
"244023","483-VK","2018/05/19 18:19:32","新北市林口區仁愛路二段98號","121.383851666667","25.0750716666667","6501700","林口區"
"244017","485-VK","2018/05/19 18:19:21","新北市林口區八德路20巷15號","121.367578333333","25.0677933333333","6501700","林口區"
"244011","657-BX","2018/05/19 18:19:20","新北市林口區中正路74巷5弄4號","121.394518333333","25.0779933333333","6501700","林口區"
"244025","837-TS","2018/05/19 18:19:32","新北市林口區南勢四街228號","121.356523333333","25.07414","6501700","林口區"
"244021","838-TS","2018/05/19 18:19:34","新北市林口區自強二街1號","121.397443333333","25.0784233333333","6501700","林口區"
"243013","AAD-798","2018/05/19 18:19:09","新北市泰山區錢厝坑13號","121.416168333333","25.0384983333333","6501600","泰山區"
"222003","436-BY","2018/05/19 18:19:27","新北市深坑區北深路一段249巷17-1號","121.626325","25.0028966666667","6501800","深坑區"
"222002","659-BX","2018/05/19 18:19:24","新北市深坑區雲鄉路3-1號","121.621015","25.0001383333333","6501800","深坑區"
"231040","001-UM","2018/05/19 18:19:34","新北市新店區安華路28-1號","121.519485","24.9607816666667","6500600","新店區"
"231041","002-UM","2018/05/19 18:19:22","新北市新店區安華路28-1號","121.519578333333","24.960895","6500600","新店區"
"231059","046-UY","2018/05/19 18:19:24","新北市新店區安華路28-1號","121.519536666667","24.9608","6500600","新店區"
"231044","106-UY","2018/05/19 18:19:23","新北市新店區安華路28-1號","121.519618333333","24.9608583333333","6500600","新店區"
"231046","107-UY","2018/05/19 18:19:32","新北市新店區直潭七街60號","121.532245","24.939785","6500600","新店區"
"231052","108-UY","2018/05/19 18:19:27","新北市新店區光明街21號","121.538298333333","24.9595366666667","6500600","新店區"
"231048","187-VK","2018/05/19 18:19:18","新北市新店區安華路30巷1號","121.519453333333","24.9596283333333","6500600","新店區"
"231057","188-VK","2018/05/19 18:19:30","新北市新店區安一路一段1-1號","121.519266666667","24.96132","6500600","新店區"
"231042","268-BY","2018/05/19 18:19:36","新北市新店區安華路1-1號","121.519421666667","24.9604683333333","6500600","新店區"
"231051","278-BY","2018/05/19 18:19:35","新北市新店區安一路一段1-1號","121.519638333333","24.9611666666667","6500600","新店區"
"231050","AAD-862","2018/05/19 18:19:30","新北市新店區安一路一段1-1號","121.51982","24.9611066666667","6500600","新店區"
"231058","3713-VJ","2018/05/19 18:19:24","新北市新店區安康路一段3-1號","121.534415","24.9607","6500600","新店區"
"231066","4716-K9","2018/05/19 18:19:29","新北市新店區安一路一段1-1號","121.519403333333","24.9611983333333","6500600","新店區"
"231056","4715-K9","2018/05/19 18:19:38","新北市新店區中央路208號","121.530261666667","24.9738966666667","6500600","新店區"
"231067","4772-VM","2018/05/19 18:19:39","新北市新店區安華路28-1號","121.519325","24.9605816666667","6500600","新店區"
"231065","512-UM","2018/05/19 18:19:25","新北市新店區安一路一段1-1號","121.519335","24.96102","6500600","新店區"
"231049","513-UM","2018/05/19 18:19:26","新北市新店區安一路一段1-1號","121.519568333333","24.9611133333333","6500600","新店區"
"231063","616-UM","2018/05/19 18:19:23","新北市新店區安華路1-1號","121.519441666667","24.9605116666667","6500600","新店區"
"231045","617-UM","2018/05/19 18:19:37","新北市新店區安華路28-1號","121.519455","24.9608016666667","6500600","新店區"
"231061","619-UM","2018/05/19 18:19:37","新北市新店區安華路28-1號","121.51967","24.9607333333333","6500600","新店區"
"231064","719-UM","2018/05/19 18:19:32","新北市新店區安華路28-1號","121.519485","24.96101","6500600","新店區"
"231054","719-UY","2018/05/19 18:19:21","新北市新店區安華路28-1號","121.519553333333","24.9606216666667","6500600","新店區"
"231062","720-UM","2018/05/19 18:19:22","新北市新店區安一路一段1-1號","121.519406666667","24.96115","6500600","新店區"
"231060","897-TW","2018/05/19 18:19:33","新北市新店區安華路28-1號","121.519518333333","24.960775","6500600","新店區"
"231043","899-TW","2018/05/19 18:19:20","新北市新店區安華路28-1號","121.519288333333","24.9606166666667","6500600","新店區"
"231055","AKT-0513","2018/05/19 18:19:22","新北市新店區環河路29巷1號","121.536216666667","24.961145","6500600","新店區"
"241033","AAC-255","2018/05/19 18:19:21","新北市三重區光復路一段68巷36號","121.470598333333","25.0492866666667","6500200","三重區"
"235064","005-UY","2018/05/19 18:19:32","新北市中和區中正路166號","121.498485","24.9938966666667","6500300","中和區"
"235063","006-UY","2018/05/19 18:19:20","新北市中和區中正路573號","121.48654","24.9943116666667","6500300","中和區"
"235047","031-BX","2018/05/19 18:19:31","新北市中和區南山路300號","121.507815","24.98719","6500300","中和區"
"235056","096-UM","2018/05/19 18:19:21","新北市中和區中山路二段594號","121.482336666667","25.0055016666667","6500300","中和區"
"235039","097-UM","2018/05/19 18:19:29","新北市中和區景平路361號","121.50456","24.9933066666667","6500300","中和區"
"235040","150-BY","2018/05/19 18:18:53","新北市中和區景平路367號","121.504353333333","24.9933266666667","6500300","中和區"
"235058","151-BY","2018/05/19 18:19:34","新北市中和區圓通路367巷57弄2號","121.492606666667","24.983565","6500300","中和區"
"235055","183-VK","2018/05/19 18:19:20","新北市中和區中正路637巷60弄61號","121.485463333333","24.993285","6500300","中和區"
"235038","185-VK","2018/05/19 18:19:32","新北市中和區秀朗路三段128巷10號","121.5246","24.99268","6500300","中和區"
"235049","186-VK","2018/05/19 18:19:38","新北市中和區中正路637巷52弄1號","121.485483333333","24.9935216666667","6500300","中和區"
"235072","301-VK","2018/05/19 18:19:37","新北市中和區連城路261-4號","121.492203333333","24.9966133333333","6500300","中和區"
"235043","352-BY","2018/05/19 18:19:26","新北市中和區景平路377號","121.504103333333","24.9934","6500300","中和區"
"235061","378-QA","2018/05/19 18:19:36","新北市中和區國光街215巷24弄1號","121.467035","25.00045","6500300","中和區"
"235050","4979-A6","2018/05/19 18:19:23","新北市中和區捷運路175號","121.50585","24.9914216666667","6500300","中和區"
"235069","4980-A6","2018/05/19 18:19:35","新北市中和區錦和路85號","121.489948333333","24.9958816666667","6500300","中和區"
"235042","551-UM","2018/05/19 18:19:39","新北市中和區景平路91-2號","121.517405","24.9919166666667","6500300","中和區"
"235070","558-UM","2018/05/19 18:19:21","新北市中和區圓通路120-4號","121.49889","24.9958883333333","6500300","中和區"
"235045","565-BX","2018/05/19 18:19:22","新北市中和區景安路200巷5號","121.503493333333","24.9915516666667","6500300","中和區"
"235054","640-BX","2018/05/19 18:19:20","新北市中和區民享街86巷24號","121.473431666667","25.00066","6500300","中和區"
"235060","647-TV","2018/05/19 18:19:24","新北市中和區員山路168號","121.4813","24.9997783333333","6500300","中和區"
"235046","733-UM","2018/05/19 18:19:22","新北市中和區員山路36巷13號","121.484163333333","24.9907683333333","6500300","中和區"
"235057","801-TS","2018/05/19 18:19:34","新北市中和區民利街27號","121.480131666667","24.9990466666667","6500300","中和區"
"235041","802-TS","2018/05/19 18:17:24","新北市中和區建八路1號","121.485491666667","24.9985516666667","6500300","中和區"
"235052","805-TS","2018/05/19 18:19:22","新北市中和區中正路17巷6號","121.502588333333","24.9932883333333","6500300","中和區"
"235048","896-TW","2018/05/19 18:19:28","新北市中和區中正路637巷52弄1號","121.485435","24.993485","6500300","中和區"
"235053","900-TW","2018/05/19 18:19:21","新北市中和區員山路36巷16-3號","121.484933333333","24.9917866666667","6500300","中和區"
"235066","911-UM","2018/05/19 18:19:30","新北市中和區中山路二段134-5號","121.502263333333","25.0031916666667","6500300","中和區"
"235051","157-BY","2018/05/19 18:19:24","新北市中和區復興路265號","121.502765","24.9903333333333","6500300","中和區"
"235037","AAC-213","2018/05/19 18:19:36","新北市中和區景德街81號","121.516456666667","24.991435","6500300","中和區"
"226004","312-R5","2018/05/19 18:19:25","新北市平溪區薯榔里一坑路67號","121.712926666667","25.0225583333333","6502400","平溪區"
"235065","251-BX","2018/05/19 18:19:33","新北市中和區莊敬路49巷18號","121.501621666667","25.00614","6500300","中和區"
"228003","097-TW","2018/05/19 18:19:35","新北市貢寮區真理里美艷山街63號","121.921205","25.07191","6502600","貢寮區"
"228001","212-TW","2018/05/19 18:19:05","新北市貢寮區真理里新港街26巷55弄2-1號","121.927418333333","25.0528883333333","6502600","貢寮區"
"228002","585-TW","2018/05/19 18:19:27","新北市貢寮區福連里馬崗街1號","121.99789","25.0166616666667","6502600","貢寮區"
"224010","AGQ-8101","2018/05/19 18:01:42","新北市瑞芳區金光路334號","121.848336666667","25.1096683333333","6501200","瑞芳區"
"224006","676-BX","2018/05/19 18:19:31","新北市瑞芳區民權街3-2號","121.808146666667","25.1075016666667","6501200","瑞芳區"
"224002","639-TC","2018/05/19 18:19:33","新北市瑞芳區三爪子坑路149巷22-19號","121.81155","25.10616","6501200","瑞芳區"
"224008","285-BY","2018/05/19 18:19:28","新北市瑞芳區逢甲路142-1號","121.808326666667","25.10919","6501200","瑞芳區"
"224007","275-VK","2018/05/19 18:19:26","新北市瑞芳區大埔路23巷20-1號","121.764633333333","25.1014766666667","6501200","瑞芳區"
"224009","273-VK","2018/05/19 18:19:32","新北市瑞芳區新山路7號","121.854725","25.1096033333333","6501200","瑞芳區"
"224005","271-BY","2018/05/19 18:19:30","新北市瑞芳區建基路二段116-11號","121.811333333333","25.1325533333333","6501200","瑞芳區"
"227010","642-TC","2018/05/19 18:19:29","新北市雙溪區牡丹里牡丹73號","121.851791666667","25.059305","6502500","雙溪區"
"227002","400-TW","2018/05/19 18:19:25","新北市雙溪區共和里中山路2號","121.86379","25.03379","6502500","雙溪區"
"253005","032-BX","2018/05/19 18:19:37","新北市石門區中央路1-1號","121.565496666667","25.2913983333333","6502200","石門區"
"222001","KEA-2212","2018/05/19 18:19:21","新北市深坑區北深路二段58號","121.619015","25.0042433333333","6501800","深坑區"
"208002","KEA-2872","2018/05/19 18:19:22","新北市金山區清泉里清水路60巷18號","121.633818333333","25.234095","6502700","金山區"
"208003","665-BX","2018/05/19 18:19:24","新北市金山區民生路1154號","121.647103333333","25.22327","6502700","金山區"
"208001","761-BX","2018/05/19 18:19:19","新北市金山區自強路11號","121.640383333333","25.21657","6502700","金山區"
"251004","009-UM","2018/05/19 18:19:31","新北市淡水區民族路61號","121.462956666667","25.134775","6501000","淡水區"
"251001","011-UM","2018/05/19 18:19:22","新北市淡水區自強路108-19號","121.461655","25.1313816666667","6501000","淡水區"
"251002","012-UM","2018/05/19 18:19:21","新北市淡水區中正東路一段57號","121.452518333333","25.1624916666667","6501000","淡水區"
"251013","KEA-2871","2018/05/19 18:19:36","新北市淡水區行忠路657號","121.47022","25.1991766666667","6501000","淡水區"
"251016","179-VK","2018/05/19 18:19:19","新北市淡水區淡金路三段228巷35號","121.450031666667","25.2048966666667","6501000","淡水區"
"251014","180-VK","2018/05/19 18:19:33","新北市淡水區崙頂16號","121.492026666667","25.2211533333333","6501000","淡水區"
"251008","181-VK","2018/05/19 18:19:33","新北市淡水區水源街二段346巷1弄1號","121.464368333333","25.1755216666667","6501000","淡水區"
"251015","182-VK","2018/05/19 18:19:31","新北市淡水區興福寮66巷539號","121.484561666667","25.1651183333333","6501000","淡水區"
"251010","413-VK","2018/05/19 18:19:26","新北市淡水區淡海路199號","121.420353333333","25.1848166666667","6501000","淡水區"
"251012","441-VK","2018/05/19 18:19:35","新北市淡水區北新路二段77-5號","121.480478333333","25.1855416666667","6501000","淡水區"
"251005","443-VK","2018/05/19 18:19:23","新北市淡水區水源街一段122巷37號","121.447235","25.1704733333333","6501000","淡水區"
"251006","561-UM","2018/05/19 18:19:34","新北市淡水區新民街76巷36弄1號","121.439515","25.1781183333333","6501000","淡水區"
"251011","650-BX","2018/05/19 18:19:23","新北市淡水區坪頂路41號","121.45723","25.1622416666667","6501000","淡水區"
"251003","673-BX","2018/05/19 18:19:25","新北市淡水區北新路139號","121.449516666667","25.1788316666667","6501000","淡水區"
"207003","550-UM","2018/05/19 18:19:19","新北市萬里區野柳里港東路8號","121.686758333333","25.2033316666667","6502800","萬里區"
"207004","225-TW","2018/05/19 18:19:20","新北市萬里區中幅里中福路131-4號","121.674541666667","25.16536","6502800","萬里區"
"252002","178-VK","2018/05/19 18:19:30","新北市三芝區中山路二段41號","121.50294","25.25507","6502100","三芝區"
"252003","249-BX","2018/05/19 18:19:38","新北市三芝區錫板里海尾14-32號","121.477755","25.259705","6502100","三芝區"
"252001","292-VK","2018/05/19 18:19:21","新北市三芝區中興街二段2號","121.498316666667","25.256665","6502100","三芝區"
"237007","153-BY","2018/05/19 18:19:24","新北市三峽區中正路二段570號","121.359648333333","24.9060733333333","6500900","三峽區"
"237011","572-TV","2018/05/19 18:19:26","新北市三峽區溪東路304號","121.409973333333","24.9306566666667","6500900","三峽區"
"237009","210-TH","2018/05/19 18:19:29","新北市三峽區大勇路36巷31號","121.36505","24.936925","6500900","三峽區"
"237013","252-BX","2018/05/19 18:19:34","新北市三峽區大同路2-1號","121.378346666667","24.9300416666667","6500900","三峽區"
"237012","275-BY","2018/05/19 18:19:27","新北市三峽區民生街1巷3-3號","121.3771","24.93657","6500900","三峽區"
"237008","302-VK","2018/05/19 18:19:25","新北市三峽區白雞68-199號","121.390231666667","24.908195","6500900","三峽區"
"237014","433-BY","2018/05/19 18:19:23","新北市三峽區復興路78號","121.373313333333","24.9374133333333","6500900","三峽區"
"237006","5529-G3","2018/05/19 18:19:24","新北市三峽區溪東路307號","121.409808333333","24.9307916666667","6500900","三峽區"
"237016","649-BX","2018/05/19 18:19:35","新北市三峽區紫微路1號","121.426616666667","24.9226166666667","6500900","三峽區"
"237010","706-TV","2018/05/19 18:19:26","新北市三峽區中山路147號","121.36494","24.93618","6500900","三峽區"
"237005","AKY-6261","2018/05/19 18:19:20","新北市三峽區秀川街59號","121.370463333333","24.9334566666667","6500900","三峽區"
"236070","105-UM","2018/05/19 18:19:32","新北市土城區永豐路153巷5號","121.467316666667","24.9823133333333","6501300","土城區"
"236042","107-UM","2018/05/19 18:19:30","新北市土城區樂利街3巷1號","121.448298333333","24.9860183333333","6501300","土城區"
"236079","166-UM","2018/05/19 18:19:32","新北市土城區中央路三段281巷15弄1號","121.426268333333","24.9627016666667","6501300","土城區"
"236030","253-BX","2018/05/19 18:19:33","新北市土城區順風路41號","121.440691666667","24.9767516666667","6501300","土城區"
"236026","269-VK","2018/05/19 18:19:35","新北市土城區承天路18號","121.439331666667","24.9637116666667","6501300","土城區"
"236014","270-VK","2018/05/19 18:19:19","新北市土城區青雲路39巷7號","121.460315","24.9874","6501300","土城區"
"236038","271-VK","2018/05/19 18:19:33","新北市土城區青雲路451巷8弄4號","121.45951","24.974375","6501300","土城區"
"236021","401-BY","2018/05/19 18:19:35","新北市土城區明德路二段65號","121.451838333333","24.9806816666667","6501300","土城區"
"236059","912-UM","2018/05/19 18:19:27","新北市土城區中央路四段466號","121.410068333333","24.9506833333333","6501300","土城區"
"236049","913-UM","2018/05/19 18:19:22","新北市土城區明德路一段361-3號","121.456386666667","24.9777","6501300","土城區"
"236063","915-UM","2018/05/19 18:19:21","新北市土城區延壽路44巷14號","121.47098","24.992505","6501300","土城區"
"236055","AAC-216","2018/05/19 18:19:31","新北市土城區中華路二段92號","121.438211666667","24.9747016666667","6501300","土城區"
"242034","AAC-296","2018/05/19 18:19:27","新北市新莊區景德路208號","121.449163333333","25.03376","6500500","新莊區"
"242058","986-R7","2018/05/19 18:19:38","新北市新莊區中正路891-46號","121.413666666667","25.022895","6500500","新莊區"
"242053","751-BX","2018/05/19 18:19:27","新北市新莊區民安西路410巷12弄2號","121.427943333333","25.0091216666667","6500500","新莊區"
"242025","613-BX","2018/05/19 18:19:18","新北市新莊區五權一路12巷9弄6號","121.457385","25.0646333333333","6500500","新莊區"
"242029","612-BX","2018/05/19 18:19:31","新北市泰山區泰林路一段2號","121.442056666667","25.0478466666667","6500500","新莊區"
"242042","566-BX","2018/05/19 18:19:29","新北市新莊區天祥街86號","121.415495","25.0294266666667","6500500","新莊區"
"242051","441-UM","2018/05/19 18:19:24","新北市新莊區新樹路222號","121.433708333333","25.0203333333333","6500500","新莊區"
"242056","440-UM","2018/05/19 18:19:21","新北市新莊區豐年街豐2巷13號","121.447131666667","25.030855","6500500","新莊區"
"242036","415-TV","2018/05/19 18:19:27","新北市新莊區後港一路45號","121.425795","25.026345","6500500","新莊區"
"242007","413-TV","2018/05/19 18:19:28","新北市新莊區中華路二段62號","121.454065","25.0462183333333","6500500","新莊區"
"242061","353-BY","2018/05/19 18:19:19","新北市新莊區民安路144巷9號","121.424023333333","25.025165","6500500","新莊區"
"242009","132-UY","2018/05/19 18:19:23","新北市新莊區昌平街71巷25號","121.45315","25.0535783333333","6500500","新莊區"
"242031","135-UY","2018/05/19 18:19:37","新北市新莊區新泰路255巷76號","121.443153333333","25.0394366666667","6500500","新莊區"
"242048","172-VK","2018/05/19 18:19:28","新北市新莊區富國路87號","121.4205","25.0260033333333","6500500","新莊區"
"242011","173-VK","2018/05/19 18:01:53","新北市新莊區中港路629號","121.45061","25.0540883333333","6500500","新莊區"
"242015","346-TH","2018/05/19 18:19:35","新北市新莊區中平路198巷16號","121.445808333333","25.0483516666667","6500500","新莊區"
"242021","348-TH","2018/05/19 18:19:36","新北市新莊區新興街37巷1號","121.450691666667","25.037725","6500500","新莊區"
"238015","755-BX","2018/05/19 18:19:27","新北市樹林區大安路323巷10弄18號","121.417181666667","24.9909816666667","6500700","樹林區"
"238023","601-UM","2018/05/19 18:19:33","新北市樹林區三福街85巷11號","121.407226666667","25.01549","6500700","樹林區"
"238018","571-TV","2018/05/19 18:19:28","新北市樹林區鎮前街94號","121.425193333333","24.9917016666667","6500700","樹林區"
"238024","5061-A6","2018/05/19 18:19:33","新北市樹林區中山路一段168號","121.422081666667","24.9893016666667","6500700","樹林區"
"238025","303-VK","2018/05/19 18:19:24","新北市樹林區保安街一段63號","121.423368333333","24.9948816666667","6500700","樹林區"
"238017","283-BY","2018/05/19 18:19:28","新北市樹林區光榮街21號","121.411998333333","25.0037683333333","6500700","樹林區"
"238014","282-BY","2018/05/19 18:19:31","新北市樹林區大安路111巷2號","121.423015","24.9975833333333","6500700","樹林區"
"238020","268-VK","2018/05/19 18:19:33","新北市樹林區三俊街70號","121.413126666667","25.0157183333333","6500700","樹林區"
"238026","172-UY","2018/05/19 18:19:27","新北市樹林區佳園路一段41巷38號","121.394955","24.970475","6500700","樹林區"
"238016","169-UY","2018/05/19 18:19:30","新北市樹林區文化街27號","121.419081666667","24.9877133333333","6500700","樹林區"
"239006","891-R6","2018/05/19 18:19:32","新北市鶯歌區德昌街140巷9號","121.332148333333","24.9608616666667","6500800","鶯歌區"
"239008","527-UM","2018/05/19 18:19:30","新北市鶯歌區國際一路14號","121.336203333333","24.9765483333333","6500800","鶯歌區"
"239005","526-UM","2018/05/19 18:19:24","新北市鶯歌區鳳吉二街11號","121.325656666667","24.9728633333333","6500800","鶯歌區"
"239001","417-VK","2018/05/19 18:19:27","新北市鶯歌區國中街178號","121.338266666667","24.9392083333333","6500800","鶯歌區"
"239003","360-BY","2018/05/19 18:19:21","新北市鶯歌區福安街58號","121.33558","24.965185","6500800","鶯歌區"
"239002","359-BY","2018/05/19 18:19:30","新北市鶯歌區國慶街35號","121.349456666667","24.9557766666667","6500800","鶯歌區"
"239004","193-VK","2018/05/19 18:19:17","新北市鶯歌區黃厝街7巷12號","121.343845","24.946215","6500800","鶯歌區"
"221036","130-UY","2018/05/19 18:19:20","新北市汐止區保長路1號","121.671145","25.0800883333333","6501100","汐止區"
"221015","131-UY","2018/05/19 18:19:34","新北市汐止區鄉長路二段23巷12號","121.667428333333","25.0830783333333","6501100","汐止區"
"221010","269-BY","2018/05/19 18:19:39","新北市汐止區祥雲街18巷11號","121.64692","25.0897633333333","6501100","汐止區"
"221012","278-VK","2018/05/19 18:19:29","新北市汐止區保長路35巷15弄5號","121.673098333333","25.0802333333333","6501100","汐止區"
"221023","279-VK","2018/05/19 18:19:37","新北市汐止區中興路197-1號","121.629906666667","25.0675816666667","6501100","汐止區"
"221032","280-BY","2018/05/19 18:19:21","新北市汐止區力行街2號","121.61725","25.0513433333333","6501100","汐止區"
"221027","281-BY","2018/05/19 18:19:30","新北市汐止區和平街3-1號","121.663445","25.0706616666667","6501100","汐止區"
"221029","298-VK","2018/05/19 18:19:23","新北市汐止區樟樹二路330巷72-1號","121.642998333333","25.0699566666667","6501100","汐止區"
"221021","299-VK","2018/05/19 18:19:36","新北市汐止區新台五路一段123-1號","121.651643333333","25.061595","6501100","汐止區"
"221031","353-TW","2018/05/19 18:19:25","新北市汐止區光復街7巷14號","121.639626666667","25.0590466666667","6501100","汐止區"
"221008","129-UY","2018/05/19 18:19:21","新北市汐止區汐萬路一段256巷3號","121.652656666667","25.0745683333333","6501100","汐止區"
"221035","622-UM","2018/05/19 18:19:34","新北市汐止區大同路二段187巷4弄3號","121.652388333333","25.0651","6501100","汐止區"
"221025","623-UM","2018/05/19 18:19:38","新北市汐止區勤進路12巷39號","121.659101666667","25.0626916666667","6501100","汐止區"
"221038","646-BX","2018/05/19 18:19:28","新北市汐止區忠孝東路282號","121.663765","25.0682333333333","6501100","汐止區"
"221033","647-BX","2018/05/19 18:19:20","新北市汐止區宜興街59巷2號","121.622156666667","25.0428783333333","6501100","汐止區"
"221002","707-TV","2018/05/19 18:19:32","新北市汐止區福德一路213巷33號","121.63567","25.0647433333333","6501100","汐止區"
"221018","753-BX","2018/05/19 18:19:35","新北市汐止區茄苳路118號","121.668085","25.07021","6501100","汐止區"
"242002","KEA-2550","2018/05/19 18:19:35","新北市新莊區思明街2-3號","121.455493333333","25.0352033333333","6500500","新莊區"
"242044","281-VK","2018/05/19 18:19:18","新北市新莊區中山路三段533巷1號","121.413058333333","25.0276","6500500","新莊區"
"242046","280-VK","2018/05/19 18:19:24","新北市新莊區中正路829巷22弄2號","121.421421666667","25.02718","6500500","新莊區"
"235068","KEA-2873","2018/05/19 18:19:15","新北市中和區員山路36巷16-3號","121.485033333333","24.9913116666667","6500300","中和區"
