"lineid","car","time","location","longitude","latitude","cityid","cityname"
"234046","148-BY","2018/05/19 18:59:11","新北市永和區秀朗路二段148巷7弄14號","121.52576","25.0002766666667","6500400","永和區"
"234007","207-UY","2018/05/19 18:59:28","新北市永和區中山路一段51號","121.513001666667","25.0104216666667","6500400","永和區"
"234081","298-R6","2018/05/19 18:59:37","新北市永和區永貞路40號","121.520905","25.0065283333333","6500400","永和區"
"234038","336-UY","2018/05/19 18:59:38","新北市永和區成功路二段207號","121.52655","24.9958733333333","6500400","永和區"
"234064","337-UY","2018/05/19 18:59:19","新北市永和區秀朗路一段172號","121.518683333333","25.0033416666667","6500400","永和區"
"234086","338-UY","2018/05/19 18:59:21","新北市永和區永寧街131巷2號","121.518011666667","25.005095","6500400","永和區"
"234070","552-UM","2018/05/19 18:59:35","新北市永和區中興街68巷5弄1號","121.517831666667","25.01153","6500400","永和區"
"234017","745-BX","2018/05/19 18:59:23","新北市永和區永和路二段297號","121.516048333333","25.0160733333333","6500400","永和區"
"234030","746-BX","2018/05/19 18:59:31","新北市永和區秀朗路二段274號","121.526081666667","24.9980433333333","6500400","永和區"
"234054","KEA-2590","2018/05/19 18:59:25","新北市永和區竹林路64號","121.518263333333","25.013495","6500400","永和區"
"234013","KEA-2591","2018/05/19 18:59:35","新北市永和區信義路17巷9弄1號","121.513951666667","25.0115583333333","6500400","永和區"
"234061","AAD-866","2018/05/19 18:59:40","新北市永和區福和路307號","121.51624","25.0071383333333","6500400","永和區"
"234042","862-TW","2018/05/19 18:59:33","新北市永和區永貞路285號","121.511186666667","25.005305","6500400","永和區"
"234050","863-TW","2018/05/19 18:59:33","新北市永和區文化路194號","121.510778333333","25.0162283333333","6500400","永和區"
"234026","9371-KE","2018/05/19 18:59:32","新北市永和區安樂路451號","121.514278333333","25.0049583333333","6500400","永和區"
"234011","9373-KE","2018/05/19 18:59:25","新北市永和區忠孝街25號","121.514086666667","25.0156416666667","6500400","永和區"
"249005","172-UM","2018/05/19 18:59:29","新北市八里區長道坑2號","121.393538333333","25.1246666666667","6502300","八里區"
"249001","173-UM","2018/05/19 18:59:25","新北市八里區龍米路二段228-1號","121.432766666667","25.1584883333333","6502300","八里區"
"248016","026-BX","2018/05/19 18:59:21","新北市五股區成泰路三段543巷16號","121.450975","25.1022866666667","6501500","五股區"
"248006","077-UY","2018/05/19 18:59:31","新北市五股區中興路一段32號","121.468626666667","25.072455","6501500","五股區"
"248008","095-VK","2018/05/19 18:59:27","新北市五股區中興路一段130號","121.465535","25.0736716666667","6501500","五股區"
"248020","225-UY","2018/05/19 18:59:35","新北市五股區凌雲路三段57號","121.425306666667","25.1250066666667","6501500","五股區"
"248012","247-BX","2018/05/19 18:59:24","新北市五股區工商路38號","121.439423333333","25.0837333333333","6501500","五股區"
"248010","272-BY","2018/05/19 18:59:25","新北市五股區水碓五路26號","121.428753333333","25.071045","6501500","五股區"
"248002","678-BX","2018/05/19 18:59:24","新北市五股區凌雲路一段126號","121.449815","25.10196","6501500","五股區"
"248004","682-TV","2018/05/19 18:59:22","新北市五股區民義路二段62號","121.40599","25.10748","6501500","五股區"
"234023","9380-KE","2018/05/19 18:59:35","新北市永和區竹林路91巷60弄70號","121.522966666667","25.0122783333333","6500400","永和區"
"234077","969-R7","2018/05/19 18:59:20","新北市永和區得和路104巷9號","121.518011666667","24.999435","6500400","永和區"
"234074","AAC-211","2018/05/19 18:59:36","新北市永和區環河東路二段98號","121.524111666667","25.010335","6500400","永和區"
"234067","AAC-212","2018/05/19 18:59:33","新北市永和區自由街49號","121.514025","25.0058433333333","6500400","永和區"
"234003","AAC-295","2018/05/19 18:59:28","新北市永和區和平街31號","121.513121666667","25.0098366666667","6500400","永和區"
"232011","375-UM","2018/05/19 18:59:31","新北市坪林區水聳淒坑19-1號","121.71258","24.9348333333333","6502000","坪林區"
"244013","069-UM","2018/05/19 18:59:39","新北市林口區仁愛路二段201-1號","121.37789","25.074735","6501700","林口區"
"244007","080-UY","2018/05/19 18:59:21","新北市林口區後坑7鄰6號","121.360956666667","25.12598","6501700","林口區"
"244019","403-UM","2018/05/19 18:59:36","新北市林口區麗園二街47巷12號","121.381428333333","25.069335","6501700","林口區"
"244009","410-SL","2018/05/19 18:59:40","新北市林口區竹林路462號","121.387805","25.0848833333333","6501700","林口區"
"244023","483-VK","2018/05/19 18:59:32","新北市林口區民權路81號","121.372208333333","25.08109","6501700","林口區"
"244017","485-VK","2018/05/19 18:59:21","新北市林口區文化二路一段120巷7號","121.367936666667","25.069905","6501700","林口區"
"244011","657-BX","2018/05/19 18:59:20","新北市林口區粉寮路一段5號","121.396185","25.0760316666667","6501700","林口區"
"244025","837-TS","2018/05/19 18:59:32","新北市林口區頭湖92-2號","121.368858333333","25.0807","6501700","林口區"
"243013","AAD-798","2018/05/19 18:59:34","新北市泰山區明志路三段206巷11號","121.423213333333","25.0375933333333","6501600","泰山區"
"243009","297-R6","2018/05/19 18:59:31","新北市泰山區泰林路二段365號","121.427966666667","25.0637116666667","6501600","泰山區"
"243016","380-SR","2018/05/19 18:59:18","新北市泰山區明志路二段152-1號","121.427521666667","25.0507116666667","6501600","泰山區"
"243015","421-VK","2018/05/19 18:59:30","新北市泰山區明志路一段203號","121.43266","25.0614116666667","6501600","泰山區"
"243011","KEA-2215","2018/05/19 18:59:31","新北市泰山區明志路二段228號","121.4272","25.0482433333333","6501600","泰山區"
"243010","KEA-2216","2018/05/19 18:59:38","新北市泰山區辭修路24號","121.429061666667","25.0582716666667","6501600","泰山區"
"243012","646-TV","2018/05/19 18:59:34","新北市泰山區福興二街66號","121.43222","25.0574583333333","6501600","泰山區"
"243014","680-BX","2018/05/19 18:59:19","新北市泰山區黎明路23號","121.420931666667","25.0625883333333","6501600","泰山區"
"222003","436-BY","2018/05/19 18:59:27","新北市深坑區深南路51-1號","121.621331666667","25.0101833333333","6501800","深坑區"
"222002","659-BX","2018/05/19 18:59:24","新北市深坑區文山路一段33號","121.629796666667","25.00345","6501800","深坑區"
"231040","001-UM","2018/05/19 18:59:34","新北市新店區中正路438號","121.53417","24.9783633333333","6500600","新店區"
"231041","002-UM","2018/05/19 18:59:22","新北市新店區環河路66號","121.537013333333","24.96297","6500600","新店區"
"231059","046-UY","2018/05/19 18:59:24","新北市新店區安華路28-1號","121.519575","24.9607866666667","6500600","新店區"
"231044","106-UY","2018/05/19 18:59:23","新北市新店區寶中路72號","121.54793","24.9806666666667","6500600","新店區"
"231046","107-UY","2018/05/19 18:59:32","新北市新店區直潭四街33號","121.533645","24.9415766666667","6500600","新店區"
"231052","108-UY","2018/05/19 18:59:27","新北市新店區屈尺路58號","121.547403333333","24.9227683333333","6500600","新店區"
"231048","187-VK","2018/05/19 18:59:18","新北市新店區德正街23巷12號","121.544558333333","24.972135","6500600","新店區"
"231042","268-BY","2018/05/19 18:59:16","新北市新店區中興路一段282號","121.545643333333","24.9686766666667","6500600","新店區"
"231051","278-BY","2018/05/19 18:59:34","新北市新店區百忍街27號","121.533815","24.9756333333333","6500600","新店區"
"231050","AAD-862","2018/05/19 18:59:30","新北市新店區新烏路一段11巷7號","121.547311666667","24.9513283333333","6500600","新店區"
"231058","3713-VJ","2018/05/19 18:59:24","新北市新店區中興路一段140號","121.542338333333","24.9635616666667","6500600","新店區"
"231066","4716-K9","2018/05/19 18:59:29","新北市新店區安祥路34號","121.493135","24.9557433333333","6500600","新店區"
"231056","4715-K9","2018/05/19 18:59:18","新北市新店區二十張路46巷37弄18號","121.535893333333","24.9817183333333","6500600","新店區"
"231067","4772-VM","2018/05/19 18:59:19","新北市新店區安康路一段247巷11號","121.524978333333","24.9624833333333","6500600","新店區"
"231065","512-UM","2018/05/19 18:59:25","新北市新店區安祥路147巷86號","121.475593333333","24.9553533333333","6500600","新店區"
"231049","513-UM","2018/05/19 18:59:26","新北市新店區中正路450號","121.53441","24.9789983333333","6500600","新店區"
"231063","616-UM","2018/05/19 18:59:23","新北市新店區安華路30巷3號","121.518806666667","24.9586033333333","6500600","新店區"
"231045","617-UM","2018/05/19 18:59:16","新北市新店區光明街1號","121.538101666667","24.958985","6500600","新店區"
"231061","619-UM","2018/05/19 18:59:37","新北市新店區安華路28-1號","121.519688333333","24.9607616666667","6500600","新店區"
"231064","719-UM","2018/05/19 18:59:32","新北市新店區安一路一段1-1號","121.51973","24.96136","6500600","新店區"
"231054","719-UY","2018/05/19 18:59:21","新北市新店區新店路13號","121.540331666667","24.95287","6500600","新店區"
"231062","720-UM","2018/05/19 18:59:22","新北市新店區安豐路60-1號","121.497831666667","24.9536066666667","6500600","新店區"
"231060","897-TW","2018/05/19 18:59:33","新北市新店區安忠路57巷11弄14號","121.515276666667","24.9579783333333","6500600","新店區"
"231043","899-TW","2018/05/19 18:59:20","新北市新店區北新路二段1號","121.542671666667","24.9712516666667","6500600","新店區"
"231055","AKT-0513","2018/05/19 18:59:22","新北市新店區力行路68號","121.53894","24.966135","6500600","新店區"
"241035","462-BY","2018/05/19 18:59:19","新北市三重區重新路四段121號","121.484818333333","25.05202","6500200","三重區"
"241029","942-UM","2018/05/19 18:59:28","新北市三重區重安街18號","121.490263333333","25.0580633333333","6500200","三重區"
"235064","005-UY","2018/05/19 18:59:32","新北市中和區連城路75巷13號","121.498688333333","24.998235","6500300","中和區"
"235063","006-UY","2018/05/19 18:59:20","新北市中和區中正路526號","121.487968333333","24.99462","6500300","中和區"
"235047","031-BX","2018/05/19 18:59:31","新北市中和區興南路二段54巷11弄15號","121.505465","24.985105","6500300","中和區"
"235056","096-UM","2018/05/19 18:59:21","新北市中和區員山路466巷18號","121.48098","25.0065666666667","6500300","中和區"
"235039","097-UM","2018/05/19 18:59:30","新北市中和區安樂路217巷13號","121.513861666667","24.9984866666667","6500300","中和區"
"235040","150-BY","2018/05/19 18:59:33","新北市中和區宜安路23巷4號","121.512698333333","24.9957083333333","6500300","中和區"
"235058","151-BY","2018/05/19 18:59:34","新北市中和區連城路532號","121.475665","24.991475","6500300","中和區"
"235055","183-VK","2018/05/19 18:59:20","新北市中和區民德路12號","121.468691666667","25.0026883333333","6500300","中和區"
"235038","185-VK","2018/05/19 18:59:32","新北市中和區大勇街27巷1號","121.517255","24.9935116666667","6500300","中和區"
"235049","186-VK","2018/05/19 18:59:34","新北市中和區景安路167巷25號","121.506715","24.9949466666667","6500300","中和區"
"235067","255-BX","2018/05/19 18:59:29","新北市中和區新生街187號","121.483731666667","25.000415","6500300","中和區"
"235044","293-VK","2018/05/19 18:59:29","新北市中和區中興街161巷4弄2號","121.500421666667","24.9909033333333","6500300","中和區"
"235072","301-VK","2018/05/19 18:59:18","新北市中和區景平路723號","121.496405","25.00404","6500300","中和區"
"235043","352-BY","2018/05/19 18:59:26","新北市中和區秀朗路三段76巷3號","121.52595","24.9940566666667","6500300","中和區"
"235061","378-QA","2018/05/19 18:59:36","新北市中和區民享街69巷2號","121.474376666667","25.0021483333333","6500300","中和區"
"235050","4979-A6","2018/05/19 18:59:23","新北市中和區華新街50巷6號","121.507695","24.9839833333333","6500300","中和區"
"235069","4980-A6","2018/05/19 18:59:35","新北市中和區圓通路109巷11號","121.500061666667","24.9962533333333","6500300","中和區"
"235042","551-UM","2018/05/19 18:59:39","新北市中和區秀朗路三段36巷16號","121.525746666667","24.99595","6500300","中和區"
"235070","558-UM","2018/05/19 18:59:21","新北市中和區安和路159號","121.50618","24.9972966666667","6500300","中和區"
"235045","565-BX","2018/05/19 18:59:22","新北市中和區景新街467巷15弄2號","121.514181666667","24.98842","6500300","中和區"
"235054","640-BX","2018/05/19 18:59:20","新北市中和區民享街4號","121.473975","25.0050083333333","6500300","中和區"
"235060","647-TV","2018/05/19 18:59:27","新北市中和區民治街8巷2號","121.474913333333","25.0051816666667","6500300","中和區"
"235046","733-UM","2018/05/19 18:59:21","新北市中和區興南路二段7號","121.508055","24.98623","6500300","中和區"
"235057","801-TS","2018/05/19 18:59:34","新北市中和區民利街58巷3弄2號","121.478808333333","24.9991366666667","6500300","中和區"
"235041","802-TS","2018/05/19 18:59:35","新北市中和區宜安路125號","121.509905","24.9981366666667","6500300","中和區"
"235052","805-TS","2018/05/19 18:59:22","新北市中和區興南路二段341號","121.501568333333","24.980935","6500300","中和區"
"235048","896-TW","2018/05/19 18:59:28","新北市中和區華新街109巷16號","121.508721666667","24.9809616666667","6500300","中和區"
"235053","900-TW","2018/05/19 18:59:25","新北市中和區壽德街22-2號","121.466153333333","24.994465","6500300","中和區"
"235066","911-UM","2018/05/19 18:59:30","新北市中和區中山路二段131巷7號","121.502806666667","25.002655","6500300","中和區"
"235051","157-BY","2018/05/19 18:59:23","新北市中和區忠孝街5巷4號","121.509713333333","24.9831016666667","6500300","中和區"
"235037","AAC-213","2018/05/19 18:59:36","新北市中和區秀朗路三段10巷37弄2號","121.524043333333","24.9960766666667","6500300","中和區"
"235059","AAC-215","2018/05/19 18:59:32","新北市中和區圓通路296-2號","121.48791","24.9890983333333","6500300","中和區"
"220065","072-UY","2018/05/19 18:59:28","新北市板橋區民族路287巷6號","121.471211666667","25.00701","6500100","板橋區"
"220086","073-UY","2018/05/19 18:59:35","新北市板橋區大智街5號","121.456033333333","25.01478","6500100","板橋區"
"220106","075-UY","2018/05/19 18:59:26","新北市板橋區文化路二段124巷24號","121.471148333333","25.02565","6500100","板橋區"
"220069","AAD-861","2018/05/19 18:59:28","新北市板橋區縣民大道一段110號","121.457073333333","25.0058266666667","6500100","板橋區"
"226004","312-R5","2018/05/19 18:59:25","新北市平溪區靜安路二段528號","121.744828333333","25.0274216666667","6502400","平溪區"
"235065","251-BX","2018/05/19 18:59:33","新北市中和區勝利路33號","121.498878333333","25.00787","6500300","中和區"
"228003","097-TW","2018/05/19 18:59:35","新北市貢寮區和美里龍洞街47號","121.911885","25.1131333333333","6502600","貢寮區"
"228001","212-TW","2018/05/19 18:59:24","新北市貢寮區仁理村保健街69號","121.923636666667","25.0516233333333","6502600","貢寮區"
"228002","585-TW","2018/05/19 18:59:27","新北市貢寮區福隆里東興街18-1號","121.95019","25.0183183333333","6502600","貢寮區"
"224010","AGQ-8101","2018/05/19 18:58:42","新北市瑞芳區基山街2號","121.845158333333","25.1097766666667","6501200","瑞芳區"
"224006","676-BX","2018/05/19 18:59:31","新北市瑞芳區三爪子坑路106巷1-1號","121.808105","25.1046383333333","6501200","瑞芳區"
"224008","285-BY","2018/05/19 18:59:28","新北市瑞芳區瑞芳街112巷1號","121.801466666667","25.1108366666667","6501200","瑞芳區"
"224007","275-VK","2018/05/19 18:59:26","新北市瑞芳區中央路48巷180號","121.758446666667","25.1028266666667","6501200","瑞芳區"
"224009","273-VK","2018/05/19 18:59:31","新北市瑞芳區長仁路38號","121.864358333333","25.1171583333333","6501200","瑞芳區"
"224005","271-BY","2018/05/19 18:59:30","新北市瑞芳區連福新城27號","121.8202","25.118995","6501200","瑞芳區"
"227010","642-TC","2018/05/19 18:59:29","新北市雙溪區牡丹里中正路58巷23號","121.866415","25.0414933333333","6502500","雙溪區"
"227002","400-TW","2018/05/19 18:59:25","新北市雙溪區平林里康福家園17號","121.858828333333","25.037355","6502500","雙溪區"
"253005","032-BX","2018/05/19 18:59:32","新北市石門區中央路37-5號","121.569583333333","25.2963933333333","6502200","石門區"
"222001","KEA-2212","2018/05/19 18:59:41","新北市深坑區北深路一段172號","121.634008333333","25.0107433333333","6501800","深坑區"
"208002","KEA-2872","2018/05/19 18:59:22","新北市金山區信義路72號","121.635128333333","25.2196083333333","6502700","金山區"
"208003","665-BX","2018/05/19 18:59:24","新北市金山區中正路32號","121.63534","25.2221566666667","6502700","金山區"
"208001","761-BX","2018/05/19 18:59:39","新北市金山區中山路79號","121.640291666667","25.2186583333333","6502700","金山區"
"251001","011-UM","2018/05/19 18:59:22","新北市淡水區自強路60號","121.463075","25.12754","6501000","淡水區"
"251002","012-UM","2018/05/19 18:59:22","新北市淡水區中正東路55-4號","121.446786666667","25.1678733333333","6501000","淡水區"
"251013","KEA-2871","2018/05/19 18:59:36","新北市淡水區安子內12-1號","121.481526666667","25.2191033333333","6501000","淡水區"
"251016","179-VK","2018/05/19 18:59:19","新北市淡水區淡金路三段331巷2-2號","121.44856","25.2061883333333","6501000","淡水區"
"251014","180-VK","2018/05/19 18:59:33","新北市淡水區小中寮30號","121.489421666667","25.22854","6501000","淡水區"
"251015","182-VK","2018/05/19 18:58:51","新北市淡水區糞箕湖131巷2號","121.488445","25.1733066666667","6501000","淡水區"
"251010","413-VK","2018/05/19 18:59:26","新北市淡水區沙崙路129號","121.422326666667","25.1823916666667","6501000","淡水區"
"251007","442-VK","2018/05/19 18:59:37","新北市淡水區民生路113巷1弄45號","121.462733333333","25.13861","6501000","淡水區"
"251005","443-VK","2018/05/19 18:59:28","新北市淡水區中正路18巷6號","121.437633333333","25.1728116666667","6501000","淡水區"
"251009","575-R6","2018/05/19 18:59:33","新北市淡水區重建街53號","121.439843333333","25.171565","6501000","淡水區"
"251003","673-BX","2018/05/19 18:59:25","新北市淡水區中山北路一段149巷37號","121.443101666667","25.178055","6501000","淡水區"
"207003","550-UM","2018/05/19 18:59:39","新北市萬里區大鵬里頂社24-5號","121.657635","25.2099116666667","6502800","萬里區"
"207004","225-TW","2018/05/19 18:59:39","新北市萬里區萬里里獅頭路23號","121.69327","25.178315","6502800","萬里區"
"252002","178-VK","2018/05/19 18:59:30","新北市三芝區中正路一段68號","121.503691666667","25.2578533333333","6502100","三芝區"
"252003","249-BX","2018/05/19 18:59:38","新北市三芝區後厝里北勢子20-2號","121.473718333333","25.2539766666667","6502100","三芝區"
"252001","292-VK","2018/05/19 18:59:21","新北市三芝區中興街二段260號","121.50168","25.25303","6502100","三芝區"
"237004","KEA-2597","2018/05/19 18:59:30","新北市三峽區有木130-1號","121.435953333333","24.856565","6500900","三峽區"
"237007","153-BY","2018/05/19 18:59:24","新北市三峽區大埔路177號","121.366696666667","24.90514","6500900","三峽區"
"237011","572-TV","2018/05/19 18:59:26","新北市三峽區介壽路一段383-1號","121.387638333333","24.9338883333333","6500900","三峽區"
"237013","252-BX","2018/05/19 18:59:31","新北市三峽區光明路69巷24號","121.3767","24.92909","6500900","三峽區"
"237012","275-BY","2018/05/19 18:59:27","新北市三峽區三樹路222巷192-1號","121.388506666667","24.9427133333333","6500900","三峽區"
"237008","302-VK","2018/05/19 18:59:25","新北市三峽區大同路174巷9號","121.372615","24.9272683333333","6500900","三峽區"
"237014","433-BY","2018/05/19 18:59:23","新北市三峽區隆恩街232號","121.357811666667","24.9411816666667","6500900","三峽區"
"237006","5529-G3","2018/05/19 18:59:24","新北市三峽區溪東路233巷47弄2號","121.410605","24.9346916666667","6500900","三峽區"
"237016","649-BX","2018/05/19 18:59:25","新北市三峽區安坑51-2號","121.463843333333","24.9313033333333","6500900","三峽區"
"237010","706-TV","2018/05/19 18:59:26","新北市三峽區國光街81巷1號","121.374011666667","24.9384533333333","6500900","三峽區"
"237005","AKY-6261","2018/05/19 18:59:20","新北市三峽區中山路459巷163-3號","121.349126666667","24.9332883333333","6500900","三峽區"
"236070","105-UM","2018/05/19 18:59:32","新北市土城區學士路33巷10號","121.45324","24.9806916666667","6501300","土城區"
"236042","107-UM","2018/05/19 18:59:30","新北市土城區學府路一段209巷10號","121.452093333333","24.98404","6501300","土城區"
"236079","166-UM","2018/05/19 18:59:32","新北市土城區龍泉路10-1號","121.409548333333","24.9492833333333","6501300","土城區"
"236030","253-BX","2018/05/19 18:59:33","新北市土城區慶利街18號","121.439626666667","24.9736633333333","6501300","土城區"
"236026","269-VK","2018/05/19 18:59:35","新北市土城區光明街11號","121.441975","24.9746766666667","6501300","土城區"
"236014","270-VK","2018/05/19 18:59:19","新北市土城區延和路13巷1號","121.463566666667","24.9884733333333","6501300","土城區"
"236038","271-VK","2018/05/19 18:59:33","新北市土城區仁愛路17巷2號","121.46072","24.9803833333333","6501300","土城區"
"236021","401-BY","2018/05/19 18:59:35","新北市土城區德峰街41巷15號","121.46758","24.9864416666667","6501300","土城區"
"236059","912-UM","2018/05/19 18:59:26","新北市土城區金城路二段266號","121.458251666667","24.9840866666667","6501300","土城區"
"236049","913-UM","2018/05/19 18:59:32","新北市土城區青雲路322巷2弄2號","121.458508333333","24.97718","6501300","土城區"
"236063","915-UM","2018/05/19 18:59:21","新北市土城區延和路41巷6弄16號","121.466636666667","24.9902683333333","6501300","土城區"
"236055","AAC-216","2018/05/19 18:59:31","新北市土城區學成路160號","121.448168333333","24.9891816666667","6501300","土城區"
"238015","755-BX","2018/05/19 18:59:23","新北市樹林區備內街128號","121.409905","24.9891866666667","6500700","樹林區"
"238023","601-UM","2018/05/19 18:59:33","新北市樹林區工興街35巷1號","121.401336666667","25.013195","6500700","樹林區"
"238019","599-UM","2018/05/19 18:59:40","新北市樹林區鎮前街429號","121.413668333333","24.9827216666667","6500700","樹林區"
"238022","KEA-2217","2018/05/19 18:59:29","新北市樹林區東興街16巷6弄2號","121.409195","24.9781116666667","6500700","樹林區"
"238021","KEA-2539","2018/05/19 18:59:28","新北市樹林區柑園街二段276巷26號","121.372445","24.9533116666667","6500700","樹林區"
"238025","303-VK","2018/05/19 18:59:24","新北市樹林區民和街83巷10號","121.378726666667","24.973135","6500700","樹林區"
"238017","283-BY","2018/05/19 18:59:28","新北市樹林區光興街50號","121.409866666667","25.0027133333333","6500700","樹林區"
"238014","282-BY","2018/05/19 18:59:31","新北市樹林區中正路21號","121.427618333333","24.9993866666667","6500700","樹林區"
"238020","268-VK","2018/05/19 18:59:32","新北市樹林區俊英街155巷29號","121.42332","25.0122383333333","6500700","樹林區"
"238026","172-UY","2018/05/19 18:58:07","新北市樹林區佳園路一段66號","121.39306","24.9701916666667","6500700","樹林區"
"238016","169-UY","2018/05/19 18:59:10","新北市樹林區復興路373巷7弄6號","121.417603333333","24.9865933333333","6500700","樹林區"
"239007","AAC-297","2018/05/19 18:43:47","新北市鶯歌區中正一路461-5號","121.36358","24.956255","6500800","鶯歌區"
"239006","891-R6","2018/05/19 18:59:32","新北市鶯歌區鶯桃路296巷103號","121.336626666667","24.96192","6500800","鶯歌區"
"239008","527-UM","2018/05/19 18:59:30","新北市鶯歌區國際二路12巷27號","121.338348333333","24.9750633333333","6500800","鶯歌區"
"239005","526-UM","2018/05/19 18:59:24","新北市鶯歌區中湖街16號","121.346723333333","24.972895","6500800","鶯歌區"
"239001","417-VK","2018/05/19 18:59:27","新北市鶯歌區永智街43巷5號","121.336896666667","24.9541316666667","6500800","鶯歌區"
"239003","360-BY","2018/05/19 18:59:21","新北市鶯歌區鶯桃路421號","121.332678333333","24.9648483333333","6500800","鶯歌區"
"239002","359-BY","2018/05/19 18:59:30","新北市鶯歌區中正一路285號","121.355488333333","24.9571266666667","6500800","鶯歌區"
"239004","193-VK","2018/05/19 18:59:37","新北市鶯歌區中正三路406巷12號","121.325286666667","24.935205","6500800","鶯歌區"
"221036","130-UY","2018/05/19 18:59:21","新北市汐止區大同路二段460號","121.659903333333","25.0676983333333","6501100","汐止區"
"221015","131-UY","2018/05/19 18:59:34","新北市汐止區康寧街901號","121.650868333333","25.0753033333333","6501100","汐止區"
"221010","269-BY","2018/05/19 18:59:18","新北市汐止區康寧街901號","121.651736666667","25.0750516666667","6501100","汐止區"
"221012","278-VK","2018/05/19 18:59:28","新北市汐止區康寧街901號","121.650906666667","25.0754433333333","6501100","汐止區"
"221023","279-VK","2018/05/19 18:59:29","新北市汐止區康寧街901號","121.650978333333","25.0752316666667","6501100","汐止區"
"221032","280-BY","2018/05/19 18:59:21","新北市汐止區橫科路407巷30弄28-5號","121.6274","25.0485016666667","6501100","汐止區"
"221027","281-BY","2018/05/19 18:59:29","新北市汐止區康寧街901號","121.65148","25.0750116666667","6501100","汐止區"
"221029","298-VK","2018/05/19 18:59:22","新北市汐止區樟樹一路254號","121.642378333333","25.067295","6501100","汐止區"
"221031","353-TW","2018/05/19 18:59:25","新北市汐止區福德二路156巷40號","121.62999","25.0659583333333","6501100","汐止區"
"221008","129-UY","2018/05/19 18:59:41","新北市汐止區康寧街901號","121.650903333333","25.0752866666667","6501100","汐止區"
"221025","623-UM","2018/05/19 18:59:18","新北市汐止區汐萬路一段256巷3號","121.65246","25.0745833333333","6501100","汐止區"
"221038","646-BX","2018/05/19 18:59:28","新北市汐止區康寧街901號","121.650716666667","25.075375","6501100","汐止區"
"221033","647-BX","2018/05/19 18:59:20","新北市汐止區南勢街1巷1號","121.626996666667","25.0373733333333","6501100","汐止區"
"221002","707-TV","2018/05/19 18:59:32","新北市汐止區大同路一段4號","121.62117","25.054985","6501100","汐止區"
"221018","753-BX","2018/05/19 18:59:35","新北市汐止區康寧街901號","121.650973333333","25.0752766666667","6501100","汐止區"
"220079","145-BY","2018/05/19 18:59:33","新北市板橋區民權路202巷15弄1號","121.460596666667","25.0160966666667","6500100","板橋區"
"220082","610-BX","2018/05/19 18:59:38","新北市板橋區滿平街81巷120弄22號","121.42793","24.9889916666667","6500100","板橋區"
"220101","245-BX","2018/05/19 18:59:26","新北市板橋區莊敬路62號","121.472596666667","25.0265716666667","6500100","板橋區"
"220103","257-TC","2018/05/19 18:59:24","新北市板橋區民生路二段121號","121.470718333333","25.0184633333333","6500100","板橋區"
"220094","267-BY","2018/05/19 18:59:28","新北市板橋區文化路二段76號","121.469415","25.02493","6500100","板橋區"
"220056","276-BY","2018/05/19 18:59:23","新北市板橋區信義路149號","121.458275","24.9928483333333","6500100","板橋區"
"220072","277-BY","2018/05/19 18:59:29","新北市板橋區溪北路158號","121.430601666667","24.9881916666667","6500100","板橋區"
"220089","280-UM","2018/05/19 18:59:21","新北市板橋區仁化街12-1號","121.474411666667","25.03159","6500100","板橋區"
"220053","285-VK","2018/05/19 18:59:34","新北市板橋區中山路二段89巷48號","121.473751666667","25.0172333333333","6500100","板橋區"
"220083","286-VK","2018/05/19 18:59:37","新北市板橋區大觀路一段38巷156弄75號","121.442801666667","25.00684","6500100","板橋區"
"220081","287-VK","2018/05/19 18:59:31","新北市板橋區光華街19巷70號","121.452875","25.0119416666667","6500100","板橋區"
"220090","288-VK","2018/05/19 18:59:41","新北市板橋區四維路177巷1弄2號","121.464065","25.0262433333333","6500100","板橋區"
"220061","293-UM","2018/05/19 18:59:28","新北市板橋區縣民大道三段138號","121.475153333333","25.0211433333333","6500100","板橋區"
"220084","296-UM","2018/05/19 18:59:35","新北市板橋區龍興街33號","121.44296","25.0002783333333","6500100","板橋區"
"220075","303-R5","2018/05/19 18:59:37","新北市板橋區府中路127號","121.456046666667","25.0094983333333","6500100","板橋區"
"220062","305-R5","2018/05/19 18:59:23","新北市板橋區民享街111號","121.477543333333","25.01608","6500100","板橋區"
"220092","307-R5","2018/05/19 18:59:37","新北市板橋區文化路一段98號","121.464543333333","25.01797","6500100","板橋區"
"220098","317-R6","2018/05/19 18:59:22","新北市板橋區民有街17號","121.466125","25.02493","6500100","板橋區"
"220064","486-VK","2018/05/19 18:59:35","新北市板橋區板新路131號","121.470755","25.015345","6500100","板橋區"
"220088","491-VK","2018/05/19 18:59:34","新北市板橋區民生路二段120號","121.470448333333","25.02006","6500100","板橋區"
"220035","560-BX","2018/05/19 18:59:36","新北市板橋區中正路341巷29號","121.454293333333","25.019855","6500100","板橋區"
"220071","568-UM","2018/05/19 18:59:32","新北市板橋區忠孝路132巷1號","121.463458333333","25.002275","6500100","板橋區"
"220063","609-BX","2018/05/19 18:59:38","新北市板橋區中山路二段195號","121.476428333333","25.0170683333333","6500100","板橋區"
"220074","630-UY","2018/05/19 18:59:40","新北市板橋區北門街62號","121.456511666667","25.011455","6500100","板橋區"
"220091","637-BX","2018/05/19 18:59:23","新北市板橋區雙十路二段47巷38號","121.475258333333","25.0256233333333","6500100","板橋區"
"220057","686-BX","2018/05/19 18:59:26","新北市板橋區重慶路97號","121.462131666667","25.0056033333333","6500100","板橋區"
"220077","687-BX","2018/05/19 18:59:33","新北市板橋區龍興街9號","121.442706666667","24.9995716666667","6500100","板橋區"
"220093","689-BX","2018/05/19 18:59:27","新北市板橋區民生路三段66號","121.466998333333","25.0256116666667","6500100","板橋區"
"220054","741-BX","2018/05/19 18:59:22","新北市板橋區後埔街79號","121.460645","25.0055066666667","6500100","板橋區"
"220102","KEA-2699","2018/05/19 18:59:23","新北市板橋區萬板路710號","121.481685","25.0274816666667","6500100","板橋區"
"220055","827-TW","2018/05/19 18:59:34","新北市板橋區中山路一段158巷12號","121.466123333333","25.0114683333333","6500100","板橋區"
"220067","829-TW","2018/05/19 18:59:21","新北市板橋區三民路二段154巷11號","121.478765","25.0150183333333","6500100","板橋區"
"220068","830-TW","2018/05/19 18:59:22","新北市板橋區三民路一段120號","121.479276666667","25.020715","6500100","板橋區"
"220096","831-TW","2018/05/19 18:59:40","新北市板橋區莒光路135號","121.473261666667","25.0241033333333","6500100","板橋區"
"220073","985-R7","2018/05/19 18:59:36","新北市板橋區民權路258-6號","121.457946666667","25.0151633333333","6500100","板橋區"
"220097","AAC-210","2018/05/19 18:59:34","新北市板橋區漢生東路13號","121.464816666667","25.0175816666667","6500100","板橋區"
"220070","AAC-253","2018/05/19 18:59:25","新北市板橋區四川路一段294號","121.458696666667","25.000595","6500100","板橋區"
"235068","KEA-2873","2018/05/19 18:59:15","新北市中和區圓通路265巷38號","121.496161666667","24.9924133333333","6500300","中和區"
