"lineid","car","time","location","longitude","latitude","cityid","cityname"
"234046","148-BY","2018/05/19 19:39:31","新北市永和區成功路二段28號","121.526583333333","25.00061","6500400","永和區"
"234007","207-UY","2018/05/19 19:39:28","新北市中和區中和路460號","121.512215","25.0038533333333","6500400","永和區"
"234081","298-R6","2018/05/19 19:39:37","新北市永和區林森路20巷7號","121.525863333333","25.0056833333333","6500400","永和區"
"234038","336-UY","2018/05/19 19:39:38","新北市永和區民樂街29號","121.527806666667","25.0015016666667","6500400","永和區"
"234064","337-UY","2018/05/19 19:39:39","新北市永和區秀朗路一段192巷6弄14號","121.519068333333","25.0021833333333","6500400","永和區"
"234086","338-UY","2018/05/19 19:39:21","新北市永和區永亨路151號","121.525665","25.00393","6500400","永和區"
"234070","552-UM","2018/05/19 19:39:35","新北市永和區永和路二段235號","121.515568333333","25.0143683333333","6500400","永和區"
"234017","745-BX","2018/05/19 19:39:23","新北市永和區永和路二段425巷57弄1號","121.513731666667","25.017285","6500400","永和區"
"234030","746-BX","2018/05/19 19:39:35","新北市永和區民生路37巷7號","121.523668333333","24.9980316666667","6500400","永和區"
"234054","KEA-2590","2018/05/19 19:39:21","新北市永和區竹林路23號","121.517218333333","25.01475","6500400","永和區"
"234013","KEA-2591","2018/05/19 19:39:35","新北市永和區永平路246號","121.508626666667","25.01104","6500400","永和區"
"234061","AAD-866","2018/05/19 19:39:39","新北市永和區中正路456號","121.517483333333","25.0029316666667","6500400","永和區"
"234042","862-TW","2018/05/19 19:39:33","新北市永和區永貞路304號","121.51201","25.004715","6500400","永和區"
"234050","863-TW","2018/05/19 19:39:33","新北市永和區保安路59號","121.509385","25.01573","6500400","永和區"
"234026","9371-KE","2018/05/19 19:39:32","新北市永和區中和路499號","121.510598333333","25.0022266666667","6500400","永和區"
"234011","9373-KE","2018/05/19 19:39:25","新北市永和區保生路55-1號","121.504725","25.0112016666667","6500400","永和區"
"249002","305-UY","2018/05/19 19:39:19","新北市八里區頂寮二街40號","121.450363333333","25.1253116666667","6502300","八里區"
"249003","593-UM","2018/05/19 19:39:37","新北市八里區華峰三街60號","121.398931666667","25.145825","6502300","八里區"
"248016","026-BX","2018/05/19 19:39:23","新北市五股區成泰路四段44號","121.455911666667","25.1104016666667","6501500","五股區"
"248008","095-VK","2018/05/19 19:39:27","新北市五股區四維路118巷13號","121.469306666667","25.074295","6501500","五股區"
"248020","225-UY","2018/05/19 19:39:23","新北市五股區中直路39號","121.41962","25.1143566666667","6501500","五股區"
"248012","247-BX","2018/05/19 19:39:24","新北市五股區成泰路一段241巷4號","121.436501666667","25.0808983333333","6501500","五股區"
"248014","261-SL","2018/05/19 19:39:40","新北市五股區五福路52巷3弄6號","121.433536666667","25.090155","6501500","五股區"
"248010","272-BY","2018/05/19 19:39:25","新北市五股區自強路111號","121.432316666667","25.0705583333333","6501500","五股區"
"248002","678-BX","2018/05/19 19:39:24","新北市五股區成泰路三段577巷49號","121.45075","25.103165","6501500","五股區"
"248004","682-TV","2018/05/19 19:39:22","新北市五股區成泰路二段82號","121.437448333333","25.0822233333333","6501500","五股區"
"234077","969-R7","2018/05/19 19:39:40","新北市永和區民權路1巷8號","121.520768333333","24.9983083333333","6500400","永和區"
"234074","AAC-211","2018/05/19 19:39:36","新北市永和區竹林路227號","121.521083333333","25.0085233333333","6500400","永和區"
"234067","AAC-212","2018/05/19 19:39:33","新北市永和區中山路一段199號","121.509036666667","25.0086866666667","6500400","永和區"
"234003","AAC-295","2018/05/19 19:39:28","新北市永和區秀朗路一段36號","121.514158333333","25.0066616666667","6500400","永和區"
"244023","483-VK","2018/05/19 19:39:32","新北市林口區文化三路二段181號","121.375951666667","25.0824883333333","6501700","林口區"
"243013","AAD-798","2018/05/19 19:38:42","新北市泰山區應化街7號","121.42388","25.0437266666667","6501600","泰山區"
"243009","297-R6","2018/05/19 19:39:31","新北市泰山區美寧街57巷6號","121.430776666667","25.06476","6501600","泰山區"
"243016","380-SR","2018/05/19 19:39:38","新北市泰山區明志路三段356號","121.421371666667","25.0343766666667","6501600","泰山區"
"243015","421-VK","2018/05/19 19:39:22","新北市泰山區明志路二段237巷21號","121.428011666667","25.0479933333333","6501600","泰山區"
"243011","KEA-2215","2018/05/19 19:39:31","新北市泰山區新北大道五段503號","121.430071666667","25.0407533333333","6501600","泰山區"
"243010","KEA-2216","2018/05/19 19:39:38","新北市泰山區中港西路490號","121.432575","25.0524416666667","6501600","泰山區"
"243012","646-TV","2018/05/19 19:39:34","新北市泰山區全興路298號","121.436733333333","25.0513766666667","6501600","泰山區"
"243014","680-BX","2018/05/19 19:39:19","新北市泰山區泰林路二段33-8號","121.435198333333","25.0565933333333","6501600","泰山區"
"222003","436-BY","2018/05/19 19:33:11","新北市深坑區深南路51-1號","121.62127","25.0097933333333","6501800","深坑區"
"222002","659-BX","2018/05/19 19:39:24","新北市深坑區北深路一段177號","121.632565","25.0109","6501800","深坑區"
"231040","001-UM","2018/05/19 19:39:34","新北市新店區中正路75巷71號","121.543085","24.9688","6500600","新店區"
"231041","002-UM","2018/05/19 19:39:42","新北市新店區中正路487號","121.533813333333","24.9820566666667","6500600","新店區"
"231059","046-UY","2018/05/19 19:39:24","新北市新店區安和路三段85號","121.51788","24.98389","6500600","新店區"
"231044","106-UY","2018/05/19 19:39:23","新北市新店區北新路三段115號","121.54123","24.9823766666667","6500600","新店區"
"231046","107-UY","2018/05/19 19:39:32","新北市新店區中正路329巷3弄2號","121.535485","24.9746133333333","6500600","新店區"
"231052","108-UY","2018/05/19 19:39:27","新北市新店區新烏路二段470號","121.551623333333","24.9074133333333","6500600","新店區"
"231048","187-VK","2018/05/19 19:39:38","新北市新店區五峰路63巷8弄2號","121.546673333333","24.9686033333333","6500600","新店區"
"231057","188-VK","2018/05/19 19:39:22","新北市新店區橘園一路11號","121.547958333333","24.934015","6500600","新店區"
"231042","268-BY","2018/05/19 19:39:36","新北市新店區中興路一段216號","121.543883333333","24.965645","6500600","新店區"
"231051","278-BY","2018/05/19 19:39:34","新北市新店區中央四街13號","121.529421666667","24.9739933333333","6500600","新店區"
"231050","AAD-862","2018/05/19 19:39:30","新北市新店區郵政路3巷2號","121.557303333333","24.9519416666667","6500600","新店區"
"231058","3713-VJ","2018/05/19 19:39:24","新北市新店區中華路62號","121.539416666667","24.9689516666667","6500600","新店區"
"231066","4716-K9","2018/05/19 19:39:29","新北市新店區安康路二段341巷36號","121.49672","24.9543666666667","6500600","新店區"
"231056","4715-K9","2018/05/19 19:39:18","新北市新店區中央一街2號","121.528913333333","24.9721366666667","6500600","新店區"
"231067","4772-VM","2018/05/19 19:39:22","新北市新店區精忠路10-1號","121.532701666667","24.95906","6500600","新店區"
"231065","512-UM","2018/05/19 19:39:25","新北市新店區安祥路109巷85弄39號","121.478826666667","24.959705","6500600","新店區"
"231049","513-UM","2018/05/19 19:39:26","新北市新店區大豐路47號","121.54007","24.9798133333333","6500600","新店區"
"231063","616-UM","2018/05/19 19:39:23","新北市新店區達觀路32號","121.502311666667","24.9398583333333","6500600","新店區"
"231045","617-UM","2018/05/19 19:39:37","新北市新店區北宜路二段423-1號","121.560473333333","24.95449","6500600","新店區"
"231061","619-UM","2018/05/19 19:39:37","新北市新店區安民街46號","121.515886666667","24.96544","6500600","新店區"
"231064","719-UM","2018/05/19 19:39:32","新北市新店區安和路一段52巷2號","121.517656666667","24.9662233333333","6500600","新店區"
"231054","719-UY","2018/05/19 19:39:21","新北市新店區北宜路一段37號","121.538368333333","24.9575133333333","6500600","新店區"
"231062","720-UM","2018/05/19 19:39:22","新北市新店區太平路57號","121.532621666667","24.958685","6500600","新店區"
"231060","897-TW","2018/05/19 19:39:33","新北市新店區安康路二段161號","121.510165","24.9592933333333","6500600","新店區"
"231043","899-TW","2018/05/19 19:39:20","新北市新店區北新路二段8號","121.542831666667","24.9711066666667","6500600","新店區"
"231055","AKT-0513","2018/05/19 19:39:34","新北市新店區新生街5巷5號","121.540053333333","24.9658033333333","6500600","新店區"
"241011","013-R5","2018/05/19 19:39:39","新北市三重區秀江街197號","121.497858333333","25.071725","6500200","三重區"
"241028","022-UY","2018/05/19 19:39:30","新北市三重區中正南路145號","121.493991666667","25.0566366666667","6500200","三重區"
"241008","059-VK","2018/05/19 19:39:37","新北市三重區永福街135巷17號","121.478096666667","25.0770266666667","6500200","三重區"
"241009","060-VK","2018/05/19 19:39:33","新北市三重區三和路四段410號","121.48088","25.0796233333333","6500200","三重區"
"241031","061-VK","2018/05/19 19:39:37","新北市三重區重新路四段244巷7弄3號","121.486046666667","25.0532666666667","6500200","三重區"
"241015","062-VK","2018/05/19 19:39:34","新北市三重區福德北路69號","121.502068333333","25.0656316666667","6500200","三重區"
"241017","063-VK","2018/05/19 19:39:27","新北市三重區重陽路三段5巷30號","121.491348333333","25.0654116666667","6500200","三重區"
"241024","065-VK","2018/05/19 19:39:32","新北市三重區中正北路380巷17號","121.476275","25.069","6500200","三重區"
"241026","066-VK","2018/05/19 19:39:32","新北市三重區光興街37號","121.49947","25.060295","6500200","三重區"
"241003","091-VK","2018/05/19 19:39:29","新北市三重區仁義街399號","121.494391666667","25.0855733333333","6500200","三重區"
"241013","265-UM","2018/05/19 19:39:31","新北市三重區仁賢街3號","121.495785","25.0745583333333","6500200","三重區"
"241022","267-UM","2018/05/19 19:39:35","新北市三重區中正北路154號","121.484803333333","25.0658766666667","6500200","三重區"
"241007","398-BY","2018/05/19 19:39:39","新北市三重區溪尾街126巷94號","121.487588333333","25.078705","6500200","三重區"
"241025","413-TH","2018/05/19 19:39:33","新北市三重區忠孝路三段99巷13號","121.479796666667","25.06465","6500200","三重區"
"241035","462-BY","2018/05/19 19:39:39","新北市三重區正義北路61-1號","121.49728","25.0644516666667","6500200","三重區"
"241014","543-UM","2018/05/19 19:39:22","新北市三重區長榮路131號","121.504043333333","25.0694416666667","6500200","三重區"
"241023","545-UM","2018/05/19 19:39:28","新北市三重區忠孝路三段99巷20號","121.479518333333","25.0642683333333","6500200","三重區"
"241019","KEA-2593","2018/05/19 19:39:30","新北市三重區六張街194巷1弄38號","121.487751666667","25.0679233333333","6500200","三重區"
"241006","AAD-863","2018/05/19 19:39:37","新北市三重區聯華街80號","121.485853333333","25.0753366666667","6500200","三重區"
"241030","743-BX","2018/05/19 19:39:29","新北市三重區新興路28巷9號","121.49174","25.0529783333333","6500200","三重區"
"241029","942-UM","2018/05/19 19:39:28","新北市三重區同安街122-1號","121.49334","25.0559683333333","6500200","三重區"
"235064","005-UY","2018/05/19 19:39:32","新北市中和區南山路85號","121.502138333333","24.997965","6500300","中和區"
"235063","006-UY","2018/05/19 19:39:40","新北市中和區連城路171巷41弄1號","121.496105","24.9965566666667","6500300","中和區"
"235047","031-BX","2018/05/19 19:39:31","新北市中和區景安路170號","121.504588333333","24.9926833333333","6500300","中和區"
"235056","096-UM","2018/05/19 19:39:40","新北市中和區民富街88-1號","121.47663","25.0082966666667","6500300","中和區"
"235039","097-UM","2018/05/19 19:39:29","新北市中和區秀峰街80號","121.520111666667","24.9907516666667","6500300","中和區"
"235040","150-BY","2018/05/19 19:39:33","新北市中和區安平路31號","121.509455","24.9948733333333","6500300","中和區"
"235058","151-BY","2018/05/19 19:39:34","新北市中和區連城路328號","121.483261666667","24.99591","6500300","中和區"
"235055","183-VK","2018/05/19 19:39:40","新北市中和區中山路三段179巷3號","121.472875","25.0059966666667","6500300","中和區"
"235038","185-VK","2018/05/19 19:39:32","新北市中和區自強路27巷16號","121.521376666667","24.9931316666667","6500300","中和區"
"235049","186-VK","2018/05/19 19:39:38","新北市中和區明禮街12號","121.504995","24.9959183333333","6500300","中和區"
"235067","255-BX","2018/05/19 19:39:29","新北市中和區新生街251號","121.48386","24.9985883333333","6500300","中和區"
"235044","293-VK","2018/05/19 19:39:37","新北市中和區南山路533號","121.507971666667","24.9869666666667","6500300","中和區"
"235072","301-VK","2018/05/19 19:39:37","新北市中和區連城路265巷8弄1號","121.491591666667","24.9955933333333","6500300","中和區"
"235043","352-BY","2018/05/19 19:39:32","新北市中和區興南路一段9號","121.511428333333","24.9911033333333","6500300","中和區"
"235061","378-QA","2018/05/19 19:39:36","新北市中和區民安街65巷5號","121.478881666667","24.99939","6500300","中和區"
"235050","4979-A6","2018/05/19 19:39:23","新北市中和區錦和路350-1號","121.490568333333","24.9935566666667","6500300","中和區"
"235042","551-UM","2018/05/19 19:39:19","新北市中和區中和路262巷43弄6號","121.509698333333","24.9996116666667","6500300","中和區"
"235070","558-UM","2018/05/19 19:39:21","新北市中和區連勝街37號","121.498281666667","24.99773","6500300","中和區"
"235045","565-BX","2018/05/19 19:39:22","新北市中和區景新街499號","121.51397","24.9870333333333","6500300","中和區"
"235054","640-BX","2018/05/19 19:39:20","新北市中和區國光街107巷2弄32號","121.469296666667","24.9989983333333","6500300","中和區"
"235060","647-TV","2018/05/19 19:39:24","新北市中和區中山路2段523巷39-1號","121.48247","25.0033716666667","6500300","中和區"
"235046","733-UM","2018/05/19 19:39:21","新北市中和區忠孝街91號","121.512111666667","24.98553","6500300","中和區"
"235071","783-BX","2018/05/19 19:39:22","新北市中和區中正路839巷29號","121.48352","25.0023733333333","6500300","中和區"
"235057","801-TS","2018/05/19 19:39:34","新北市中和區員山路246號","121.48136","25.0015016666667","6500300","中和區"
"235041","802-TS","2018/05/19 19:39:35","新北市中和區中和路458巷2號","121.512223333333","25.0036633333333","6500300","中和區"
"235052","805-TS","2018/05/19 19:39:22","新北市中和區華新街206巷12號","121.506368333333","24.9824466666667","6500300","中和區"
"235048","896-TW","2018/05/19 19:39:28","新北市中和區忠孝街1巷2-1號","121.509145","24.983115","6500300","中和區"
"235053","900-TW","2018/05/19 19:39:21","新北市中和區國光街205巷2號","121.466843333333","25.0019783333333","6500300","中和區"
"235066","911-UM","2018/05/19 19:39:30","新北市中和區景新街131號","121.505876666667","24.9973283333333","6500300","中和區"
"235051","157-BY","2018/05/19 19:39:23","新北市中和區板南路132號","121.502505","24.9926883333333","6500300","中和區"
"235037","AAC-213","2018/05/19 19:39:36","新北市中和區秀朗路三段107號","121.526483333333","24.9945233333333","6500300","中和區"
"235059","AAC-215","2018/05/19 19:39:34","新北市中和區圓通路305巷1-1號","121.493591666667","24.9906433333333","6500300","中和區"
"220065","072-UY","2018/05/19 19:39:40","新北市板橋區國泰街27號","121.469023333333","25.00679","6500100","板橋區"
"220086","073-UY","2018/05/19 19:39:35","新北市板橋區中正路236巷12號","121.456291666667","25.0189766666667","6500100","板橋區"
"220106","075-UY","2018/05/19 19:39:37","新北市板橋區吳鳳路50巷93號","121.471073333333","25.0307833333333","6500100","板橋區"
"220069","AAD-861","2018/05/19 19:39:28","新北市板橋區貴興路106巷16弄2號","121.454781666667","25.0033266666667","6500100","板橋區"
"247004","337-TH","2018/05/19 19:39:31","新北市蘆洲區中華街42巷6號","121.462146666667","25.0812316666667","6501400","蘆洲區"
"247008","056-VK","2018/05/19 19:39:29","新北市蘆洲區中山一路166號","121.474571666667","25.0813533333333","6501400","蘆洲區"
"247002","002-UY","2018/05/19 19:39:21","新北市蘆洲區三民路595號","121.460928333333","25.093675","6501400","蘆洲區"
"226004","312-R5","2018/05/19 19:39:25","新北市平溪區十分里十分街76號","121.77625","25.0419716666667","6502400","平溪區"
"235065","251-BX","2018/05/19 19:39:33","新北市中和區永和路56號","121.499278333333","25.0040383333333","6500300","中和區"
"228003","097-TW","2018/05/19 19:39:35","新北市貢寮區真理里美艷山街15-3號","121.923726666667","25.0680466666667","6502600","貢寮區"
"228001","212-TW","2018/05/19 19:39:24","新北市貢寮區真理里延平街49號","121.924613333333","25.0556333333333","6502600","貢寮區"
"224010","AGQ-8101","2018/05/19 19:39:22","新北市瑞芳區豎崎路29號","121.843273333333","25.1083316666667","6501200","瑞芳區"
"227010","642-TC","2018/05/19 19:39:39","新北市雙溪區新基里新基北街18號","121.867198333333","25.0386566666667","6502500","雙溪區"
"227002","400-TW","2018/05/19 19:39:25","新北市雙溪區雙溪里內挖路37號","121.8635","25.0362216666667","6502500","雙溪區"
"222001","KEA-2212","2018/05/19 19:39:41","新北市深坑區深坑街158號","121.612816666667","25.0014033333333","6501800","深坑區"
"208002","KEA-2872","2018/05/19 19:39:29","新北市金山區四維路23號","121.635155","25.2227733333333","6502700","金山區"
"208003","665-BX","2018/05/19 19:39:33","新北市金山區仁愛路11號","121.637838333333","25.2195083333333","6502700","金山區"
"208001","761-BX","2018/05/19 19:39:19","新北市金山區南勢118號","121.622406666667","25.219505","6502700","金山區"
"251001","011-UM","2018/05/19 19:39:21","新北市淡水區民權路51號","121.459763333333","25.1390383333333","6501000","淡水區"
"251013","KEA-2871","2018/05/19 19:39:36","新北市淡水區店子後9號","121.460376666667","25.2181816666667","6501000","淡水區"
"251016","179-VK","2018/05/19 19:39:39","新北市淡水區下圭柔山119-51號","121.450746666667","25.2084983333333","6501000","淡水區"
"251014","180-VK","2018/05/19 19:39:32","新北市淡水區北勢子23號","121.476833333333","25.2305033333333","6501000","淡水區"
"251015","182-VK","2018/05/19 19:39:31","新北市淡水區北新路三段146號","121.489931666667","25.1903616666667","6501000","淡水區"
"251010","413-VK","2018/05/19 19:39:26","新北市淡水區新市五路二段75號","121.431393333333","25.1984333333333","6501000","淡水區"
"251012","441-VK","2018/05/19 19:39:34","新北市淡水區中山北路三段156號","121.445615","25.1959766666667","6501000","淡水區"
"251007","442-VK","2018/05/19 19:39:37","新北市淡水區淡金路67號","121.455648333333","25.1615916666667","6501000","淡水區"
"251005","443-VK","2018/05/19 19:39:28","新北市淡水區原德路108巷2號","121.443331666667","25.1734766666667","6501000","淡水區"
"251006","561-UM","2018/05/19 19:39:34","新北市淡水區中山北路一段156號","121.443945","25.178095","6501000","淡水區"
"251009","575-R6","2018/05/19 19:39:33","新北市淡水區中山北路一段198巷11號","121.44531","25.1793033333333","6501000","淡水區"
"251011","650-BX","2018/05/19 19:39:38","新北市淡水區八勢路20號","121.460703333333","25.1534266666667","6501000","淡水區"
"207003","550-UM","2018/05/19 19:39:39","新北市萬里區大鵬里下社1-1號","121.648155","25.2154983333333","6502800","萬里區"
"207004","225-TW","2018/05/19 19:39:39","新北市萬里區萬里里瑪鋉路25號","121.687455","25.175495","6502800","萬里區"
"252002","178-VK","2018/05/19 19:39:30","新北市三芝區中正路一段18巷50號","121.50421","25.2589616666667","6502100","三芝區"
"252001","292-VK","2018/05/19 19:39:21","新北市三芝區公正街9號","121.499835","25.25755","6502100","三芝區"
"237004","KEA-2597","2018/05/19 19:39:29","新北市三峽區有木37號","121.432131666667","24.863305","6500900","三峽區"
"237007","153-BY","2018/05/19 19:39:24","新北市三峽區二鬮路136巷115號","121.35586","24.9102183333333","6500900","三峽區"
"237009","210-TH","2018/05/19 19:39:29","新北市三峽區中園街69號","121.368073333333","24.9255483333333","6500900","三峽區"
"237013","252-BX","2018/05/19 19:39:31","新北市三峽區介壽路二段30號","121.390848333333","24.93521","6500900","三峽區"
"237012","275-BY","2018/05/19 19:39:27","新北市三峽區光明路35號","121.373686666667","24.9308033333333","6500900","三峽區"
"237008","302-VK","2018/05/19 19:39:24","新北市三峽區大同路147巷7號","121.371121666667","24.9265133333333","6500900","三峽區"
"237014","433-BY","2018/05/19 19:39:23","新北市三峽區嘉添64號","121.368678333333","24.910805","6500900","三峽區"
"237006","5529-G3","2018/05/19 19:39:24","新北市三峽區中正路一段330-10號","121.369891666667","24.9246333333333","6500900","三峽區"
"237016","649-BX","2018/05/19 19:39:25","新北市三峽區橫溪路99巷71-1號","121.40089","24.937615","6500900","三峽區"
"237005","AKY-6261","2018/05/19 19:39:40","新北市三峽區中山路146號","121.364978333333","24.9363216666667","6500900","三峽區"
"236070","105-UM","2018/05/19 19:39:32","新北市土城區明德路二段77-8號","121.450495","24.9799616666667","6501300","土城區"
"236042","107-UM","2018/05/19 19:39:30","新北市土城區學士路13號","121.453593333333","24.98291","6501300","土城區"
"236079","166-UM","2018/05/19 19:39:32","新北市土城區中州路59號","121.412598333333","24.9578766666667","6501300","土城區"
"236030","253-BX","2018/05/19 19:39:33","新北市土城區福祥街81號","121.441105","24.9810533333333","6501300","土城區"
"236026","269-VK","2018/05/19 19:39:35","新北市土城區中央路二段61巷28號","121.443373333333","24.978755","6501300","土城區"
"236038","271-VK","2018/05/19 19:39:33","新北市土城區青雲路269巷12號","121.459933333333","24.9805233333333","6501300","土城區"
"236021","401-BY","2018/05/19 19:39:35","新北市土城區峰廷街18號","121.469","24.9873233333333","6501300","土城區"
"236059","912-UM","2018/05/19 19:39:26","新北市土城區中央路二段63號","121.442711666667","24.9789616666667","6501300","土城區"
"236049","913-UM","2018/05/19 19:39:39","新北市土城區明德路一段59號","121.465386666667","24.984555","6501300","土城區"
"236063","915-UM","2018/05/19 19:39:21","新北市土城區延平街55號","121.467841666667","24.9925066666667","6501300","土城區"
"236055","AAC-216","2018/05/19 19:39:34","新北市土城區學府路一段52號","121.457416666667","24.9884583333333","6501300","土城區"
"242029","612-BX","2018/05/19 19:39:30","新北市新莊區新泰路255巷83號","121.44225","25.0390883333333","6500500","新莊區"
"242004","442-UM","2018/05/19 19:39:30","新北市新莊區化成路29巷93號","121.461383333333","25.0439433333333","6500500","新莊區"
"242036","415-TV","2018/05/19 19:39:27","新北市新莊區民安路207巷10弄8號","121.426768333333","25.0226433333333","6500500","新莊區"
"242023","362-BY","2018/05/19 19:39:34","新北市新莊區復興路2段141-1號","121.457521666667","25.0444133333333","6500500","新莊區"
"242039","133-UY","2018/05/19 19:39:24","新北市新莊區建國二路83-20號","121.4309","25.0258433333333","6500500","新莊區"
"242031","135-UY","2018/05/19 19:39:25","新北市新莊區新泰路213巷18號","121.446101666667","25.0386733333333","6500500","新莊區"
"242048","172-VK","2018/05/19 19:39:36","新北市新莊區民安路37巷10號","121.424133333333","25.02682","6500500","新莊區"
"242011","173-VK","2018/05/19 19:39:33","新北市新莊區三和路12-21號","121.442088333333","25.0387716666667","6500500","新莊區"
"242021","348-TH","2018/05/19 19:39:19","新北市新莊區景德路382號","121.446235","25.0335416666667","6500500","新莊區"
"242013","351-TH","2018/05/19 19:39:33","新北市新莊區中誠街149號","121.448771666667","25.0473516666667","6500500","新莊區"
"238015","755-BX","2018/05/19 19:39:23","新北市樹林區日新街82號","121.421618333333","24.990415","6500700","樹林區"
"238023","601-UM","2018/05/19 19:39:33","新北市樹林區三福街114號","121.4065","25.0163166666667","6500700","樹林區"
"238019","599-UM","2018/05/19 19:39:40","新北市樹林區東榮街8號","121.418163333333","24.9838366666667","6500700","樹林區"
"238024","5061-A6","2018/05/19 19:39:33","新北市樹林區育德街40號","121.390106666667","24.9691","6500700","樹林區"
"238022","KEA-2217","2018/05/19 19:39:27","新北市樹林區國凱街50巷3號","121.420548333333","24.978535","6500700","樹林區"
"238021","KEA-2539","2018/05/19 19:39:28","新北市樹林區佳園路三段145巷16號","121.386763333333","24.94911","6500700","樹林區"
"238025","303-VK","2018/05/19 19:39:24","新北市樹林區鎮前街271-6號","121.4197","24.9858433333333","6500700","樹林區"
"238017","283-BY","2018/05/19 19:39:28","新北市樹林區保安街二段45巷16號","121.415413333333","25.0000566666667","6500700","樹林區"
"238014","282-BY","2018/05/19 19:39:30","新北市樹林區千歲街30巷8號","121.425993333333","24.9963233333333","6500700","樹林區"
"239007","AAC-297","2018/05/19 19:23:46","新北市鶯歌區中山路138巷34號","121.349771666667","24.958055","6500800","鶯歌區"
"239006","891-R6","2018/05/19 19:39:32","新北市鶯歌區尖山埔路64號","121.34847","24.9510183333333","6500800","鶯歌區"
"239001","417-VK","2018/05/19 19:39:27","新北市樹林區中山路三段210-2號","121.381435","24.9654966666667","6500800","鶯歌區"
"239002","359-BY","2018/05/19 19:39:29","新北市鶯歌區中山路300號","121.342921666667","24.9572166666667","6500800","鶯歌區"
"221036","130-UY","2018/05/19 19:39:20","新北市汐止區康寧街901號","121.650871666667","25.075265","6501100","汐止區"
"221015","131-UY","2018/05/19 19:39:34","新北市汐止區康寧街901號","121.651613333333","25.074975","6501100","汐止區"
"221010","269-BY","2018/05/19 19:39:18","新北市汐止區汐萬路一段411號","121.649246666667","25.0795216666667","6501100","汐止區"
"221012","278-VK","2018/05/19 19:39:28","新北市汐止區汐平路一段7號","121.680821666667","25.0712433333333","6501100","汐止區"
"221023","279-VK","2018/05/19 19:39:29","新北市汐止區中興路201號","121.629268333333","25.0684866666667","6501100","汐止區"
"221032","280-BY","2018/05/19 19:39:21","新北市汐止區汐萬路一段312號","121.650633333333","25.07542","6501100","汐止區"
"221027","281-BY","2018/05/19 19:39:29","新北市汐止區忠孝東路9號","121.658286666667","25.065975","6501100","汐止區"
"221029","298-VK","2018/05/19 19:39:22","新北市汐止區康寧街901號","121.651551666667","25.0750066666667","6501100","汐止區"
"221021","299-VK","2018/05/19 19:39:36","新北市汐止區水源路一段275號","121.654185","25.0589116666667","6501100","汐止區"
"221031","353-TW","2018/05/19 19:39:25","新北市汐止區康寧街901號","121.651056666667","25.0751183333333","6501100","汐止區"
"221008","129-UY","2018/05/19 19:39:41","新北市汐止區康寧街61巷42號","121.62009","25.06774","6501100","汐止區"
"221025","623-UM","2018/05/19 19:39:38","新北市汐止區新台五路二段90號","121.662561666667","25.065365","6501100","汐止區"
"221038","646-BX","2018/05/19 19:39:37","新北市汐止區忠孝東路225號","121.662336666667","25.066905","6501100","汐止區"
"221033","647-BX","2018/05/19 19:39:20","台北市南港區舊莊街二段10巷1號","121.626373333333","25.0376733333333","6501100","汐止區"
"221002","707-TV","2018/05/19 19:39:32","新北市汐止區大同路一段219巷26號","121.63333","25.0584983333333","6501100","汐止區"
"220079","145-BY","2018/05/19 19:39:33","新北市板橋區建國街66號","121.45908","25.0171116666667","6500100","板橋區"
"220080","200-UY","2018/05/19 19:39:27","新北市板橋區大觀路二段37巷288號","121.450085","25.0014866666667","6500100","板橋區"
"220082","610-BX","2018/05/19 19:39:38","新北市板橋區沙崙街2-5號","121.430826666667","24.9943666666667","6500100","板橋區"
"220101","245-BX","2018/05/19 19:39:26","新北市板橋區莒光路196巷31號","121.472775","25.02245","6500100","板橋區"
"220103","257-TC","2018/05/19 19:39:37","新北市板橋區文化路一段286巷20號","121.468281666667","25.0212216666667","6500100","板橋區"
"220094","267-BY","2018/05/19 19:39:28","新北市板橋區銘傳街108號","121.469983333333","25.0318966666667","6500100","板橋區"
"220056","276-BY","2018/05/19 19:39:40","新北市板橋區四川路二段47巷1弄2號","121.454128333333","24.994955","6500100","板橋區"
"220072","277-BY","2018/05/19 19:39:29","新北市板橋區金門街215巷36號","121.434091666667","24.9893083333333","6500100","板橋區"
"220089","280-UM","2018/05/19 19:39:21","新北市板橋區英士路34號","121.461613333333","25.0250816666667","6500100","板橋區"
"220053","285-VK","2018/05/19 19:39:22","新北市板橋區中山路二段178號","121.477396666667","25.017395","6500100","板橋區"
"220083","286-VK","2018/05/19 19:39:37","新北市板橋區龍興街71巷2-1號","121.443791666667","25.00187","6500100","板橋區"
"220081","287-VK","2018/05/19 19:39:31","新北市板橋區大觀路一段75巷2號","121.44736","25.00445","6500100","板橋區"
"220090","288-VK","2018/05/19 19:39:21","新北市板橋區長江路一段48巷1弄2號","121.459055","25.028735","6500100","板橋區"
"220061","293-UM","2018/05/19 19:39:24","新北市板橋區中山路一段265巷1-2號","121.468236666667","25.0141683333333","6500100","板橋區"
"220084","296-UM","2018/05/19 19:39:35","新北市板橋區滿平二街10巷2弄1-4號","121.425615","24.986865","6500100","板橋區"
"220075","303-R5","2018/05/19 19:39:37","新北市板橋區大勇街8巷1號","121.453973333333","25.0170533333333","6500100","板橋區"
"220062","305-R5","2018/05/19 19:39:26","新北市板橋區三民路二段29巷31弄1號","121.481388333333","25.0179066666667","6500100","板橋區"
"220092","307-R5","2018/05/19 19:39:37","新北市板橋區陽明街38號","121.46601","25.0218733333333","6500100","板橋區"
"220098","317-R6","2018/05/19 19:39:22","新北市板橋區四維路269巷13號","121.462648333333","25.02812","6500100","板橋區"
"220064","486-VK","2018/05/19 19:39:35","新北市板橋區民族路60號","121.46256","25.0095266666667","6500100","板橋區"
"220088","491-VK","2018/05/19 19:39:33","新北市板橋區民治街23號","121.47801","25.0343133333333","6500100","板橋區"
"220035","560-BX","2018/05/19 19:39:29","新北市板橋區金華街85巷27號","121.458661666667","25.0213383333333","6500100","板橋區"
"220071","568-UM","2018/05/19 19:39:32","新北市板橋區信義路104號","121.458226666667","24.9927833333333","6500100","板橋區"
"220063","609-BX","2018/05/19 19:39:38","新北市板橋區萬安街27巷22號","121.48388","25.022855","6500100","板橋區"
"220074","630-UY","2018/05/19 19:39:25","新北市板橋區福德街22號","121.456035","25.0086016666667","6500100","板橋區"
"220091","637-BX","2018/05/19 19:39:23","新北市板橋區懷德街139巷20弄1號","121.480141666667","25.03081","6500100","板橋區"
"220057","686-BX","2018/05/19 19:39:26","新北市板橋區和平路安樂巷38號","121.461696666667","24.9932433333333","6500100","板橋區"
"220077","687-BX","2018/05/19 19:39:33","新北市板橋區僑中一街70號","121.447458333333","25.011395","6500100","板橋區"
"220093","689-BX","2018/05/19 19:39:22","新北市板橋區長江路一段93-3號","121.459253333333","25.0294716666667","6500100","板橋區"
"220054","741-BX","2018/05/19 19:39:22","新北市板橋區忠孝路300號","121.466236666667","25.0027666666667","6500100","板橋區"
"220102","KEA-2699","2018/05/19 19:39:23","新北市板橋區松柏街36巷5號","121.475391666667","25.0297133333333","6500100","板橋區"
"220055","827-TW","2018/05/19 19:39:34","新北市板橋區國慶路149巷16號","121.46118","24.997235","6500100","板橋區"
"220067","829-TW","2018/05/19 19:39:21","新北市板橋區長安街168巷10弄16號","121.473673333333","25.010485","6500100","板橋區"
"220068","830-TW","2018/05/19 19:39:23","新北市板橋區萬安街18號","121.484696666667","25.02275","6500100","板橋區"
"220096","831-TW","2018/05/19 19:39:20","新北市板橋區民生路二段234巷35號","121.469256666667","25.0228266666667","6500100","板橋區"
"220073","985-R7","2018/05/19 19:39:23","新北市板橋區國光路67巷14號","121.459041666667","25.0188116666667","6500100","板橋區"
"220097","AAC-210","2018/05/19 19:39:34","新北市板橋區幸福路32巷2弄7號","121.461591666667","25.0209666666667","6500100","板橋區"
"220070","AAC-253","2018/05/19 19:39:25","新北市板橋區民族路109號","121.466811666667","25.00821","6500100","板橋區"
"235068","KEA-2873","2018/05/19 19:39:15","新北市中和區景平路493巷10號","121.499296666667","24.9970633333333","6500300","中和區"
