"lineid","car","time","location","longitude","latitude","cityid","cityname"
"234046","148-BY","2018/05/19 19:59:31","新北市永和區永利路214號","121.52318","25.0024716666667","6500400","永和區"
"234007","207-UY","2018/05/19 19:59:28","新北市永和區保生路22巷8號","121.507203333333","25.0079133333333","6500400","永和區"
"234081","298-R6","2018/05/19 19:59:37","新北市永和區永亨路114號","121.523715","25.0042816666667","6500400","永和區"
"234038","336-UY","2018/05/19 19:59:37","新北市永和區成功路二段118號","121.526508333333","24.99783","6500400","永和區"
"234064","337-UY","2018/05/19 19:59:34","新北市永和區中正路412巷2弄12號","121.51858","25.00179","6500400","永和區"
"234086","338-UY","2018/05/19 19:59:21","新北市永和區福和路152號","121.521633333333","25.00784","6500400","永和區"
"234070","552-UM","2018/05/19 19:59:35","新北市永和區國光路37號","121.519228333333","25.0083516666667","6500400","永和區"
"234017","745-BX","2018/05/19 19:59:23","新北市永和區文化路47號","121.514418333333","25.0149633333333","6500400","永和區"
"234030","746-BX","2018/05/19 19:59:31","新北市永和區民生路67巷7號","121.523013333333","24.997265","6500400","永和區"
"234054","KEA-2590","2018/05/19 19:59:30","新北市永和區竹林路39巷30號","121.519535","25.0149883333333","6500400","永和區"
"234013","KEA-2591","2018/05/19 19:59:35","新北市永和區保生路55號","121.504691666667","25.0105933333333","6500400","永和區"
"234061","AAD-866","2018/05/19 19:59:39","新北市永和區得和路76號","121.516445","24.9999816666667","6500400","永和區"
"234042","862-TW","2018/05/19 19:59:33","新北市永和區中和路335巷18弄5號","121.507615","25.000315","6500400","永和區"
"234050","863-TW","2018/05/19 19:59:33","新北市永和區保安路264號","121.50586","25.0124633333333","6500400","永和區"
"249005","172-UM","2018/05/19 19:59:37","新北市八里區楓林路3-3號","121.382305","25.1302816666667","6502300","八里區"
"249001","173-UM","2018/05/19 19:59:26","新北市八里區中華路二段249-3號","121.404181666667","25.1485083333333","6502300","八里區"
"249004","303-UY","2018/05/19 19:59:26","新北市八里區中華路一段333-1號","121.413201666667","25.154015","6502300","八里區"
"249002","305-UY","2018/05/19 19:59:39","新北市八里區頂寮一街40號","121.450663333333","25.12381","6502300","八里區"
"249003","593-UM","2018/05/19 19:59:37","新北市八里區中華路二段562號","121.398795","25.1448366666667","6502300","八里區"
"248016","026-BX","2018/05/19 19:59:23","新北市五股區成泰路三段577巷80弄7號","121.449503333333","25.1043016666667","6501500","五股區"
"248008","095-VK","2018/05/19 19:59:27","新北市五股區四維路30巷36弄1號","121.468976666667","25.0714616666667","6501500","五股區"
"248020","225-UY","2018/05/19 19:59:24","新北市五股區凌雲路二段40-2號","121.439891666667","25.1025816666667","6501500","五股區"
"248012","247-BX","2018/05/19 19:59:24","新北市五股區民義路一段93號","121.434561666667","25.085805","6501500","五股區"
"248014","261-SL","2018/05/19 19:59:20","新北市五股區五福路14巷26號","121.435418333333","25.0888716666667","6501500","五股區"
"248010","272-BY","2018/05/19 19:59:36","新北市五股區登林路100-1號","121.428091666667","25.0701183333333","6501500","五股區"
"248002","678-BX","2018/05/19 19:59:24","新北市五股區成泰路三段487號","121.450758333333","25.099305","6501500","五股區"
"248004","682-TV","2018/05/19 19:59:22","新北市五股區成泰路一段32巷58號","121.434905","25.0669816666667","6501500","五股區"
"234023","9380-KE","2018/05/19 19:59:35","新北市永和區中正路696-1號","121.516551666667","25.0098516666667","6500400","永和區"
"234077","969-R7","2018/05/19 19:59:20","新北市永和區民有街14號","121.516448333333","24.9967366666667","6500400","永和區"
"234074","AAC-211","2018/05/19 19:59:36","新北市永和區豫溪街215巷25號","121.523508333333","25.0102833333333","6500400","永和區"
"234067","AAC-212","2018/05/19 19:59:33","新北市永和區中山路一段281巷2弄1號","121.507235","25.0066716666667","6500400","永和區"
"234003","AAC-295","2018/05/19 19:59:28","新北市永和區自由街5號","121.515028333333","25.0070766666667","6500400","永和區"
"243013","AAD-798","2018/05/19 19:38:42","新北市泰山區應化街7號","121.42388","25.0437266666667","6501600","泰山區"
"243009","297-R6","2018/05/19 19:59:31","新北市泰山區楓江路16巷25號","121.434065","25.061475","6501600","泰山區"
"243016","380-SR","2018/05/19 19:59:38","新北市泰山區明志路三段490號","121.421013333333","25.0313216666667","6501600","泰山區"
"243015","421-VK","2018/05/19 19:59:42","新北市泰山區明志路二段194號","121.427495","25.0495683333333","6501600","泰山區"
"243011","KEA-2215","2018/05/19 19:59:31","新北市泰山區明志路三段196巷21弄17號","121.422618333333","25.0384983333333","6501600","泰山區"
"243012","646-TV","2018/05/19 19:59:34","新北市泰山區福興三街193號","121.433438333333","25.05717","6501600","泰山區"
"243014","680-BX","2018/05/19 19:59:39","新北市泰山區泰林路二段29號","121.435966666667","25.0567983333333","6501600","泰山區"
"222003","436-BY","2018/05/19 19:59:33","新北市深坑區埔新街10號","121.620726666667","25.0039883333333","6501800","深坑區"
"222002","659-BX","2018/05/19 19:59:24","新北市深坑區北深路二段55巷12弄19號","121.618638333333","25.0031416666667","6501800","深坑區"
"231040","001-UM","2018/05/19 19:59:34","新北市新店區中正路59號","121.544258333333","24.96994","6500600","新店區"
"231041","002-UM","2018/05/19 19:59:22","新北市新店區中正路356號","121.535643333333","24.9757033333333","6500600","新店區"
"231059","046-UY","2018/05/19 19:59:38","新北市新店區安和路一段1號","121.516816666667","24.9638816666667","6500600","新店區"
"231044","106-UY","2018/05/19 19:59:24","新北市新店區復興路27號","121.539016666667","24.98674","6500600","新店區"
"231052","108-UY","2018/05/19 19:59:27","新北市新店區新烏路三段寶島巷2弄3號","121.551986666667","24.8986683333333","6500600","新店區"
"231048","187-VK","2018/05/19 19:59:18","新北市新店區寶宏路38號","121.54955","24.97559","6500600","新店區"
"231057","188-VK","2018/05/19 19:59:22","新北市新店區花園二路一段11號","121.5555","24.9324683333333","6500600","新店區"
"231042","268-BY","2018/05/19 19:59:36","新北市新店區中興路一段283號","121.545356666667","24.9684683333333","6500600","新店區"
"231051","278-BY","2018/05/19 19:59:34","新北市新店區中央一街22號","121.527996666667","24.9732766666667","6500600","新店區"
"231050","AAD-862","2018/05/19 19:59:30","新北市新店區北宜路一段190號","121.54112","24.95286","6500600","新店區"
"231066","4716-K9","2018/05/19 19:59:29","新北市新店區安民街35巷15號","121.514966666667","24.96582","6500600","新店區"
"231056","4715-K9","2018/05/19 19:59:18","新北市新店區北新路二段189號","121.542666666667","24.9778716666667","6500600","新店區"
"231067","4772-VM","2018/05/19 19:59:22","新北市新店區秀山路45巷2號","121.531116666667","24.9605516666667","6500600","新店區"
"231065","512-UM","2018/05/19 19:59:24","新北市新店區安祥路109巷11號","121.475878333333","24.9590133333333","6500600","新店區"
"231049","513-UM","2018/05/19 19:59:33","新北市新店區明德路38號","121.541475","24.9778983333333","6500600","新店區"
"231063","616-UM","2018/05/19 19:59:29","新北市新店區黎明路9號","121.50249","24.9503133333333","6500600","新店區"
"231045","617-UM","2018/05/19 19:59:37","新北市新店區北宜路二段108號","121.556075","24.9536833333333","6500600","新店區"
"231061","619-UM","2018/05/19 19:59:37","新北市新店區安民街252號","121.517623333333","24.9731833333333","6500600","新店區"
"231068","718-UY","2018/05/19 19:59:38","新北市新店區安一路一段1-1號","121.519821666667","24.9621816666667","6500600","新店區"
"231064","719-UM","2018/05/19 19:59:32","新北市新店區光華街5巷36號","121.517501666667","24.9678483333333","6500600","新店區"
"231054","719-UY","2018/05/19 19:59:21","新北市新店區光明街171號","121.539755","24.9626433333333","6500600","新店區"
"231062","720-UM","2018/05/19 19:59:22","新北市新店區華城路36巷1-5號","121.527733333333","24.9553616666667","6500600","新店區"
"231060","897-TW","2018/05/19 19:59:33","新北市新店區安康路三段41號","121.492931666667","24.9528183333333","6500600","新店區"
"231043","899-TW","2018/05/19 19:59:20","新北市新店區中正路263-3號","121.538308333333","24.97373","6500600","新店區"
"231055","AKT-0513","2018/05/19 19:59:22","新北市新店區中華路83巷61號","121.538435","24.9674066666667","6500600","新店區"
"241011","013-R5","2018/05/19 19:59:36","新北市三重區三和路二段224號","121.497828333333","25.06966","6500200","三重區"
"241028","022-UY","2018/05/19 19:59:30","新北市三重區中正南路40號","121.493663333333","25.0601116666667","6500200","三重區"
"241008","059-VK","2018/05/19 19:59:37","新北市三重區永福街124號","121.479403333333","25.0750916666667","6500200","三重區"
"241009","060-VK","2018/05/19 19:59:33","新北市三重區三和路四段390巷16號","121.48136","25.0787783333333","6500200","三重區"
"241031","061-VK","2018/05/19 19:59:37","新北市三重區重新路四段144巷7號","121.486986666667","25.0554716666667","6500200","三重區"
"241015","062-VK","2018/05/19 19:59:34","新北市三重區三和路二段8號","121.501105","25.0669583333333","6500200","三重區"
"241017","063-VK","2018/05/19 19:59:27","新北市三重區自強路一段308號","121.491265","25.068435","6500200","三重區"
"241024","065-VK","2018/05/19 19:59:32","新北市三重區力行路一段176號","121.482003333333","25.071525","6500200","三重區"
"241026","066-VK","2018/05/19 19:59:32","新北市三重區仁慈街2-2號","121.501386666667","25.0631733333333","6500200","三重區"
"241002","090-VK","2018/05/19 19:59:23","新北市三重區仁愛街269巷45號","121.49426","25.0793766666667","6500200","三重區"
"241003","091-VK","2018/05/19 19:59:29","新北市三重區仁愛街466號","121.489941666667","25.0822416666667","6500200","三重區"
"241013","265-UM","2018/05/19 19:59:31","新北市三重區三和路三段125巷33號","121.493918333333","25.07365","6500200","三重區"
"241016","266-UM","2018/05/19 19:59:24","新北市三重區正義北路36巷20號","121.496368333333","25.0633133333333","6500200","三重區"
"241022","267-UM","2018/05/19 19:59:35","新北市三重區過圳街31巷2號","121.48913","25.0605333333333","6500200","三重區"
"241018","268-UM","2018/05/19 19:59:30","新北市三重區雙園街57巷14號","121.49468","25.0678033333333","6500200","三重區"
"241007","398-BY","2018/05/19 19:59:39","新北市三重區溪尾街146號","121.489096666667","25.0798366666667","6500200","三重區"
"241025","413-TH","2018/05/19 19:59:33","新北市三重區頂崁街210巷16號","121.476531666667","25.0677","6500200","三重區"
"241035","462-BY","2018/05/19 19:59:19","新北市三重區大榮街9號","121.498213333333","25.0631716666667","6500200","三重區"
"241004","475-VK","2018/05/19 19:59:35","新北市三重區五華街67號","121.492605","25.0826366666667","6500200","三重區"
"241014","543-UM","2018/05/19 19:59:22","新北市三重區三和路二段115號","121.499156666667","25.06872","6500200","三重區"
"241023","545-UM","2018/05/19 19:59:28","新北市三重區頂崁街172號","121.477718333333","25.065945","6500200","三重區"
"241001","547-UM","2018/05/19 19:59:24","新北市三重區仁愛街283巷43號","121.494573333333","25.0800283333333","6500200","三重區"
"241019","KEA-2593","2018/05/19 19:59:30","新北市三重區大智街186號","121.491075","25.0702916666667","6500200","三重區"
"241006","AAD-863","2018/05/19 19:59:37","新北市三重區力行路二段122號","121.482098333333","25.0749916666667","6500200","三重區"
"241030","743-BX","2018/05/19 19:59:29","新北市三重區成功路171號","121.48613","25.0524666666667","6500200","三重區"
"241005","887-TS","2018/05/19 19:59:28","新北市三重區溪尾街325巷40弄8-1號","121.488781666667","25.083535","6500200","三重區"
"241029","942-UM","2018/05/19 19:59:28","新北市三重區重安街1號","121.4898","25.0582183333333","6500200","三重區"
"241033","AAC-255","2018/05/19 19:59:36","新北市三重區中興北街42巷2號","121.469506666667","25.0492383333333","6500200","三重區"
"235064","005-UY","2018/05/19 19:59:32","新北市中和區圓通路29號","121.50117","24.9977816666667","6500300","中和區"
"235047","031-BX","2018/05/19 19:59:31","新北市中和區和平街108號","121.507173333333","24.991445","6500300","中和區"
"235056","096-UM","2018/05/19 19:59:20","新北市中和區中山路三段136巷45號","121.473163333333","25.0076683333333","6500300","中和區"
"235039","097-UM","2018/05/19 19:59:29","新北市中和區景平路278巷16弄24號","121.51439","24.9937366666667","6500300","中和區"
"235040","150-BY","2018/05/19 19:59:33","新北市中和區保健路19巷7號","121.508198333333","24.9985033333333","6500300","中和區"
"235058","151-BY","2018/05/19 19:59:34","新北市中和區員山路144-3號","121.481296666667","24.9967716666667","6500300","中和區"
"235055","183-VK","2018/05/19 19:59:40","新北市中和區民生街35巷2弄2號","121.470338333333","25.005185","6500300","中和區"
"235049","186-VK","2018/05/19 19:59:38","新北市中和區南華路17-2號","121.502595","24.9956216666667","6500300","中和區"
"235067","255-BX","2018/05/19 19:59:29","新北市中和區民樂路77號","121.484478333333","25.0013216666667","6500300","中和區"
"235044","293-VK","2018/05/19 19:59:29","新北市中和區中正路89號","121.500458333333","24.99351","6500300","中和區"
"235043","352-BY","2018/05/19 19:59:26","新北市中和區興南路二段159巷7號","121.50531","24.983095","6500300","中和區"
"235061","378-QA","2018/05/19 19:59:36","新北市中和區民樂路16-1號","121.48227","25.001145","6500300","中和區"
"235050","4979-A6","2018/05/19 19:59:23","新北市中和區景平路155巷30號","121.513571666667","24.9916566666667","6500300","中和區"
"235069","4980-A6","2018/05/19 19:59:26","新北市中和區圓通路207號","121.497036666667","24.9944216666667","6500300","中和區"
"235042","551-UM","2018/05/19 19:59:39","新北市中和區宜安路174號","121.508755","24.9992133333333","6500300","中和區"
"235070","558-UM","2018/05/19 19:59:41","新北市中和區中正路246號","121.49582","24.9939366666667","6500300","中和區"
"235060","647-TV","2018/05/19 19:59:24","新北市中和區新生街41號","121.483326666667","25.0032716666667","6500300","中和區"
"235046","733-UM","2018/05/19 19:59:41","新北市中和區興南路一段93巷73號","121.510455","24.9866583333333","6500300","中和區"
"235041","802-TS","2018/05/19 19:59:35","新北市中和區安平路130號","121.512065","24.9978133333333","6500300","中和區"
"235052","805-TS","2018/05/19 19:59:22","新北市中和區華新街192巷25號","121.506353333333","24.9831266666667","6500300","中和區"
"235048","896-TW","2018/05/19 19:59:28","新北市中和區景新街397號","121.512495","24.9899783333333","6500300","中和區"
"235066","911-UM","2018/05/19 19:59:30","新北市中和區中山路二段60號","121.504046666667","25.0047333333333","6500300","中和區"
"235051","157-BY","2018/05/19 19:59:23","新北市中和區復興路299號","121.501573333333","24.9902533333333","6500300","中和區"
"235037","AAC-213","2018/05/19 19:59:36","新北市中和區自立路135號","121.522018333333","24.9938583333333","6500300","中和區"
"235059","AAC-215","2018/05/19 19:59:32","新北市中和區圓通路335巷3弄2號","121.492571666667","24.9900583333333","6500300","中和區"
"220065","072-UY","2018/05/19 19:59:40","新北市板橋區民族路69巷16弄1號","121.465746666667","25.00979","6500100","板橋區"
"220086","073-UY","2018/05/19 19:59:35","新北市板橋區館前西路160巷2號","121.452916666667","25.0086883333333","6500100","板橋區"
"220106","075-UY","2018/05/19 19:59:37","新北市板橋區民治街71巷36號","121.48046","25.0327983333333","6500100","板橋區"
"220069","AAD-861","2018/05/19 19:59:28","新北市板橋區大明街25巷2弄30-3號","121.457266666667","25.0027533333333","6500100","板橋區"
"247024","893-R6","2018/05/19 19:59:35","新北市蘆洲區光榮路120巷8弄37號","121.464631666667","25.087995","6501400","蘆洲區"
"247014","546-UM","2018/05/19 19:59:35","新北市蘆洲區成功路129號","121.472376666667","25.0822816666667","6501400","蘆洲區"
"247010","341-TH","2018/05/19 19:59:31","新北市蘆洲區集賢路200號","121.483596666667","25.0875233333333","6501400","蘆洲區"
"247012","339-TH","2018/05/19 19:59:06","新北市蘆洲區民族路151號","121.479423333333","25.08785","6501400","蘆洲區"
"247004","337-TH","2018/05/19 19:59:31","新北市蘆洲區永安南路二段356號","121.456156666667","25.08272","6501400","蘆洲區"
"247006","336-TH","2018/05/19 19:59:30","新北市蘆洲區九芎街111號","121.465586666667","25.079655","6501400","蘆洲區"
"247008","056-VK","2018/05/19 19:59:22","新北市蘆洲區信義路97號","121.477911666667","25.0799266666667","6501400","蘆洲區"
"247016","007-UY","2018/05/19 19:59:25","新北市蘆洲區光華路15-1號","121.469648333333","25.0832916666667","6501400","蘆洲區"
"247002","002-UY","2018/05/19 19:59:41","新北市蘆洲區長安街274巷4號","121.457658333333","25.0869466666667","6501400","蘆洲區"
"247020","001-UY","2018/05/19 19:59:38","新北市蘆洲區民義街63號","121.472991666667","25.089905","6501400","蘆洲區"
"235065","251-BX","2018/05/19 19:59:33","新北市中和區福美路269號","121.498176666667","25.00493","6500300","中和區"
"228003","097-TW","2018/05/19 19:59:35","新北市貢寮區仁理村仁和路222號","121.923851666667","25.0535383333333","6502600","貢寮區"
"224010","AGQ-8101","2018/05/19 19:59:42","新北市瑞芳區山尖路172-1號","121.848205","25.11201","6501200","瑞芳區"
"227010","642-TC","2018/05/19 19:59:29","新北市雙溪區新基里新基南街24號","121.866251666667","25.0381983333333","6502500","雙溪區"
"227002","400-TW","2018/05/19 19:59:25","新北市雙溪區雙溪里長安街16號","121.864958333333","25.034715","6502500","雙溪區"
"222001","KEA-2212","2018/05/19 19:59:41","新北市深坑區北深路三段162號","121.602525","25.0035716666667","6501800","深坑區"
"208002","KEA-2872","2018/05/19 19:59:22","新北市金山區中正路139號","121.632265","25.2214833333333","6502700","金山區"
"208003","665-BX","2018/05/19 19:59:24","新北市金山區香園3號","121.634356666667","25.246595","6502700","金山區"
"208001","761-BX","2018/05/19 19:59:39","新北市金山區重和里茅埔頭1號","121.604673333333","25.21722","6502700","金山區"
"251004","009-UM","2018/05/19 19:59:37","新北市淡水區民族路50巷11號","121.46128","25.1357783333333","6501000","淡水區"
"251001","011-UM","2018/05/19 19:59:21","新北市淡水區淡金路二段270-1號","121.446943333333","25.1883983333333","6501000","淡水區"
"251013","KEA-2871","2018/05/19 19:59:36","新北市淡水區下圭柔山63-7號","121.451753333333","25.206175","6501000","淡水區"
"251016","179-VK","2018/05/19 19:57:16","新北市淡水區淡金路四段496號","121.452115","25.22532","6501000","淡水區"
"251014","180-VK","2018/05/19 19:59:32","新北市淡水區石頭厝12-3號","121.461575","25.23637","6501000","淡水區"
"251015","182-VK","2018/05/19 19:59:31","新北市淡水區商工路30號","121.447193333333","25.1882366666667","6501000","淡水區"
"251012","441-VK","2018/05/19 19:59:34","新北市淡水區下圭柔山100-1號","121.437888333333","25.2106066666667","6501000","淡水區"
"251005","443-VK","2018/05/19 19:59:28","新北市淡水區學府路136巷39號","121.451943333333","25.1726983333333","6501000","淡水區"
"251006","561-UM","2018/05/19 19:59:34","新北市淡水區北新路35號","121.445363333333","25.177855","6501000","淡水區"
"251009","575-R6","2018/05/19 19:59:33","新北市淡水區英專路28巷2弄1號","121.445948333333","25.1697066666667","6501000","淡水區"
"251011","650-BX","2018/05/19 19:59:18","新北市淡水區崁頂55號","121.442368333333","25.1965783333333","6501000","淡水區"
"251003","673-BX","2018/05/19 19:59:25","新北市淡水區中山北路二段189巷15弄29號","121.443286666667","25.1842033333333","6501000","淡水區"
"207003","550-UM","2018/05/19 19:59:39","新北市萬里區大鵬里萬里加投61號","121.640773333333","25.2131366666667","6502800","萬里區"
"207004","225-TW","2018/05/19 19:59:39","新北市萬里區北基里忠二街29號","121.68551","25.17565","6502800","萬里區"
"252002","178-VK","2018/05/19 19:59:30","新北市三芝區忠孝街116-3號","121.505625","25.25756","6502100","三芝區"
"252001","292-VK","2018/05/19 19:59:21","新北市三芝區公正街9號","121.499778333333","25.2575016666667","6502100","三芝區"
"237004","KEA-2597","2018/05/19 19:59:29","新北市三峽區添福111-5號","121.37418","24.9010566666667","6500900","三峽區"
"237007","153-BY","2018/05/19 19:59:24","新北市三峽區麻園9-21號","121.362396666667","24.9177883333333","6500900","三峽區"
"237009","210-TH","2018/05/19 19:59:29","新北市三峽區民族街28巷2-1號","121.369186666667","24.930895","6500900","三峽區"
"237012","275-BY","2018/05/19 19:59:27","新北市三峽區安溪路322號","121.370926666667","24.92845","6500900","三峽區"
"237008","302-VK","2018/05/19 19:59:04","新北市三峽區中華路74-5號","121.371543333333","24.9291983333333","6500900","三峽區"
"237014","433-BY","2018/05/19 19:59:23","新北市三峽區中正路一段309號","121.371386666667","24.9247416666667","6500900","三峽區"
"237006","5529-G3","2018/05/19 19:59:24","新北市三峽區中正路二段168號","121.366045","24.9155933333333","6500900","三峽區"
"237005","AKY-6261","2018/05/19 19:59:20","新北市三峽區三樹路44巷16號","121.37842","24.9375516666667","6500900","三峽區"
"236070","105-UM","2018/05/19 19:59:32","新北市土城區忠義路111-1號","121.444365","24.9631783333333","6501300","土城區"
"236042","107-UM","2018/05/19 19:59:29","新北市土城區學府路一段98巷16號","121.455881666667","24.9885816666667","6501300","土城區"
"236079","166-UM","2018/05/19 19:59:32","新北市土城區福安街53號","121.418556666667","24.96439","6501300","土城區"
"236030","253-BX","2018/05/19 19:59:33","新北市土城區中央路一段252號","121.44435","24.9846133333333","6501300","土城區"
"236026","269-VK","2018/05/19 19:59:35","新北市土城區員林街1號","121.442401666667","24.97817","6501300","土城區"
"236014","270-VK","2018/05/19 19:59:38","新北市土城區廣福街123號","121.456273333333","24.9928583333333","6501300","土城區"
"236038","271-VK","2018/05/19 19:59:33","新北市土城區國際路54號","121.466621666667","24.9776316666667","6501300","土城區"
"236021","401-BY","2018/05/19 19:59:35","新北市土城區延吉街111巷12弄15-3號","121.471658333333","24.984895","6501300","土城區"
"236059","912-UM","2018/05/19 19:59:26","新北市土城區中央路一段269-4號","121.444791666667","24.98509","6501300","土城區"
"236049","913-UM","2018/05/19 19:59:22","新北市土城區金城路三段192號","121.468376666667","24.9880233333333","6501300","土城區"
"236063","915-UM","2018/05/19 19:59:38","新北市土城區延和路62巷2號","121.465796666667","24.98888","6501300","土城區"
"236055","AAC-216","2018/05/19 19:59:30","新北市土城區青雲路33號","121.460841666667","24.9882933333333","6501300","土城區"
"242034","AAC-296","2018/05/19 19:59:27","新北市新莊區中正路318巷27號","121.446321666667","25.0364233333333","6500500","新莊區"
"242058","986-R7","2018/05/19 19:59:24","新北市新莊區民安路274號","121.427656666667","25.0213983333333","6500500","新莊區"
"242053","751-BX","2018/05/19 19:59:21","新北市新莊區西盛街418號","121.427125","25.012185","6500500","新莊區"
"242025","613-BX","2018/05/19 19:59:31","新北市新莊區五工一路88號","121.461295","25.0674883333333","6500500","新莊區"
"242029","612-BX","2018/05/19 19:59:30","新北市新莊區中榮街152巷53號","121.445901666667","25.0536683333333","6500500","新莊區"
"242004","442-UM","2018/05/19 19:59:30","新北市新莊區頭前路139號","121.461321666667","25.0525083333333","6500500","新莊區"
"242051","441-UM","2018/05/19 19:59:24","新北市新莊區民安西路150巷6號","121.42583","25.016595","6500500","新莊區"
"242056","440-UM","2018/05/19 19:59:37","新北市新莊區中正路347巷17弄10號","121.447505","25.0343466666667","6500500","新莊區"
"242036","415-TV","2018/05/19 19:59:32","新北市新莊區建安街41巷10號","121.42903","25.025205","6500500","新莊區"
"242007","413-TV","2018/05/19 19:59:28","新北市新莊區福壽街204號","121.458241666667","25.05375","6500500","新莊區"
"242023","362-BY","2018/05/19 19:59:34","新北市新莊區化成路428號","121.466005","25.051115","6500500","新莊區"
"242061","353-BY","2018/05/19 19:59:34","新北市新莊區瓊泰路37號","121.443821666667","25.0285483333333","6500500","新莊區"
"242039","133-UY","2018/05/19 19:59:30","新北市新莊區民安路285-2號","121.42908","25.02247","6500500","新莊區"
"242031","135-UY","2018/05/19 19:59:24","新北市新莊區公園一路74號","121.443155","25.0365583333333","6500500","新莊區"
"242048","172-VK","2018/05/19 19:59:35","新北市新莊區後港二路1號","121.42327","25.0246933333333","6500500","新莊區"
"242011","173-VK","2018/05/19 19:59:33","新北市新莊區中港路531巷12號","121.45064","25.0515433333333","6500500","新莊區"
"242017","175-VK","2018/05/19 19:59:28","新北市新莊區中安街35號","121.452518333333","25.04592","6500500","新莊區"
"242015","346-TH","2018/05/19 19:58:56","新北市新莊區和興街73號","121.446361666667","25.041495","6500500","新莊區"
"242021","348-TH","2018/05/19 19:59:37","新北市新莊區建中街32巷13號","121.448755","25.037965","6500500","新莊區"
"242019","350-TH","2018/05/19 19:59:36","新北市新莊區長青街37巷9號","121.456518333333","25.0417633333333","6500500","新莊區"
"242013","351-TH","2018/05/19 19:59:35","新北市新莊區中華路二段89號","121.452516666667","25.049265","6500500","新莊區"
"238021","KEA-2539","2018/05/19 19:59:08","新北市樹林區佳園路三段101巷48號","121.391906666667","24.9507933333333","6500700","樹林區"
"239006","891-R6","2018/05/19 19:59:32","新北市鶯歌區文化路55號","121.359025","24.955465","6500800","鶯歌區"
"239001","417-VK","2018/05/19 19:59:27","新北市鶯歌區二甲路12-2號","121.345738333333","24.93501","6500800","鶯歌區"
"221036","130-UY","2018/05/19 19:59:20","新北市汐止區南昌街16號","121.662946666667","25.068555","6501100","汐止區"
"221015","131-UY","2018/05/19 19:59:34","新北市汐止區大同路二段707號","121.66514","25.0727983333333","6501100","汐止區"
"221010","269-BY","2018/05/19 19:59:18","新北市汐止區連峰街225巷16號","121.644386666667","25.0810333333333","6501100","汐止區"
"221012","278-VK","2018/05/19 19:59:28","新北市汐止區大同路三段334號","121.679668333333","25.07108","6501100","汐止區"
"221023","279-VK","2018/05/19 19:59:30","新北市汐止區明峰街208號","121.627495","25.0690983333333","6501100","汐止區"
"221032","280-BY","2018/05/19 19:59:41","新北市汐止區橫科路18巷9弄3號","121.617913333333","25.050615","6501100","汐止區"
"221027","281-BY","2018/05/19 19:59:29","新北市汐止區中正路97號","121.660991666667","25.0694333333333","6501100","汐止區"
"221029","298-VK","2018/05/19 19:57:42","新北市汐止區樟樹一路137巷26號","121.641016666667","25.0659933333333","6501100","汐止區"
"221021","299-VK","2018/05/19 19:59:36","新北市汐止區水源路一段175號","121.65513","25.06183","6501100","汐止區"
"221031","353-TW","2018/05/19 19:59:25","新北市汐止區福德一路176巷2號","121.635741666667","25.066155","6501100","汐止區"
"221008","129-UY","2018/05/19 19:59:20","台北市內湖區康樂街125巷16號","121.620435","25.0732283333333","6501100","汐止區"
"221035","622-UM","2018/05/19 19:59:40","新北市汐止區長江街47號","121.65597","25.0713033333333","6501100","汐止區"
"221025","623-UM","2018/05/19 19:59:38","新北市汐止區秀峰路109巷26弄8號","121.661028333333","25.06344","6501100","汐止區"
"221038","646-BX","2018/05/19 19:59:28","新北市汐止區忠孝東路462巷40號","121.666363333333","25.0740966666667","6501100","汐止區"
"221033","647-BX","2018/05/19 19:59:20","新北市汐止區東勢街201巷104號","121.633543333333","25.0428633333333","6501100","汐止區"
"220079","145-BY","2018/05/19 19:59:33","新北市板橋區僑中一街124巷74-5號","121.448143333333","25.0176833333333","6500100","板橋區"
"220080","200-UY","2018/05/19 19:59:41","新北市板橋區大觀路二段163巷3號","121.445751666667","25.0003816666667","6500100","板橋區"
"242002","KEA-2550","2018/05/19 19:59:36","新北市新莊區新泰路99號","121.449026666667","25.0349166666667","6500500","新莊區"
"220082","610-BX","2018/05/19 19:59:38","新北市板橋區篤行路二段116-3號","121.431295","24.9909233333333","6500100","板橋區"
"220101","245-BX","2018/05/19 19:59:26","新北市板橋區雙十路一段44巷36號","121.477248333333","25.0247433333333","6500100","板橋區"
"220103","257-TC","2018/05/19 19:59:24","新北市板橋區自由路15號","121.465511666667","25.02275","6500100","板橋區"
"220094","267-BY","2018/05/19 19:59:28","新北市板橋區陽明街239號","121.463091666667","25.0245516666667","6500100","板橋區"
"220072","277-BY","2018/05/19 19:59:29","新北市板橋區金門街109巷14號","121.433856666667","24.9917483333333","6500100","板橋區"
"220089","280-UM","2018/05/19 19:59:41","新北市板橋區新海路403巷18號","121.457871666667","25.026405","6500100","板橋區"
"220053","285-VK","2018/05/19 19:59:22","新北市板橋區中山路二段88號","121.475263333333","25.0162833333333","6500100","板橋區"
"220083","286-VK","2018/05/19 19:59:22","新北市板橋區僑中二街10巷31號","121.445638333333","25.011075","6500100","板橋區"
"220081","287-VK","2018/05/19 19:59:31","新北市板橋區大觀路一段28巷90號","121.450008333333","25.011035","6500100","板橋區"
"220090","288-VK","2018/05/19 19:59:21","新北市板橋區新海路135巷23號","121.460276666667","25.0231066666667","6500100","板橋區"
"220061","293-UM","2018/05/19 19:59:24","新北市板橋區觀光街26號","121.47145","25.0162183333333","6500100","板橋區"
"220084","296-UM","2018/05/19 19:59:37","新北市板橋區溪崑二街112巷17號","121.426123333333","24.9885816666667","6500100","板橋區"
"242044","281-VK","2018/05/19 19:59:38","新北市新莊區中正路923號","121.410608333333","25.0211883333333","6500500","新莊區"
"220075","303-R5","2018/05/19 19:59:17","新北市板橋區金華街10巷126號","121.459588333333","25.0205433333333","6500100","板橋區"
"220092","307-R5","2018/05/19 19:59:37","新北市板橋區雨農路56號","121.460801666667","25.0241983333333","6500100","板橋區"
"220098","317-R6","2018/05/19 19:59:22","新北市板橋區新海路135巷29號","121.46007","25.02303","6500100","板橋區"
"220064","486-VK","2018/05/19 19:59:35","新北市板橋區海山路29號","121.4675","25.0089716666667","6500100","板橋區"
"220088","491-VK","2018/05/19 19:59:33","新北市板橋區大同街73號","121.479575","25.02796","6500100","板橋區"
"220035","560-BX","2018/05/19 19:59:29","新北市板橋區新生街89巷22號","121.457253333333","25.0223966666667","6500100","板橋區"
"220071","568-UM","2018/05/19 19:59:32","新北市板橋區和平路174巷27號","121.464675","24.99448","6500100","板橋區"
"220074","630-UY","2018/05/19 19:59:40","新北市板橋區縣民大道一段295號","121.460913333333","25.010615","6500100","板橋區"
"220091","637-BX","2018/05/19 19:59:23","新北市板橋區文聖街89巷26號","121.478226666667","25.030285","6500100","板橋區"
"220093","689-BX","2018/05/19 19:59:32","新北市板橋區長江路三段68號","121.47381","25.0340216666667","6500100","板橋區"
"220054","741-BX","2018/05/19 19:59:35","新北市板橋區實踐路93巷80號","121.466865","25.0048316666667","6500100","板橋區"
"220102","KEA-2699","2018/05/19 19:59:23","新北市板橋區仁化街42巷12號","121.475355","25.0312466666667","6500100","板橋區"
"220055","827-TW","2018/05/19 19:59:34","新北市板橋區仁愛路62巷17弄1號","121.460061666667","24.9982266666667","6500100","板橋區"
"220067","829-TW","2018/05/19 19:59:40","新北市板橋區長安街331巷93弄1-4號","121.472108333333","25.01242","6500100","板橋區"
"220068","830-TW","2018/05/19 19:59:24","新北市板橋區光復街192巷18號","121.485723333333","25.0199866666667","6500100","板橋區"
"220096","831-TW","2018/05/19 19:59:20","新北市板橋區莒光路40巷13號","121.470316666667","25.0234733333333","6500100","板橋區"
"220073","985-R7","2018/05/19 19:59:29","新北市板橋區南雅西路二段78-2號","121.452596666667","25.0106283333333","6500100","板橋區"
"220097","AAC-210","2018/05/19 19:59:37","新北市板橋區復興街130號","121.461073333333","25.0178116666667","6500100","板橋區"
"220070","AAC-253","2018/05/19 19:59:25","新北市板橋區德興街33號","121.453625","24.9939316666667","6500100","板橋區"
"235068","KEA-2873","2018/05/19 19:59:15","新北市中和區福美路238號","121.49886","25.0052666666667","6500300","中和區"
