"lineid","car","time","location","longitude","latitude","cityid","cityname"
"231040","001-UM","2018/05/19 20:59:34","新北市新店區中正路111號","121.542415","24.9705066666667","6500600","新店區"
"231059","046-UY","2018/05/19 20:59:24","新北市新店區僑信路134號","121.500741666667","24.945745","6500600","新店區"
"231052","108-UY","2018/05/19 20:59:26","新北市新店區北宜路一段187號","121.546851666667","24.952605","6500600","新店區"
"231048","187-VK","2018/05/19 20:59:38","新北市新店區寶元路二段1巷2號","121.550225","24.9840533333333","6500600","新店區"
"231042","268-BY","2018/05/19 20:59:35","新北市新店區中興路二段233-1號","121.54756","24.975285","6500600","新店區"
"231051","278-BY","2018/05/19 20:59:35","新北市新店區中正路663巷7弄15號","121.532953333333","24.9900683333333","6500600","新店區"
"231050","AAD-862","2018/05/19 20:59:30","新北市新店區三民路75巷4弄2號","121.535641666667","24.9710083333333","6500600","新店區"
"231066","4716-K9","2018/05/19 20:59:29","新北市新店區吉安街14號","121.516728333333","24.9657583333333","6500600","新店區"
"231067","4772-VM","2018/05/19 20:59:22","新北市新店區安德街130巷16號","121.508038333333","24.961","6500600","新店區"
"231065","512-UM","2018/05/19 20:59:24","新北市新店區安祥路69巷38號","121.481788333333","24.96043","6500600","新店區"
"231063","616-UM","2018/05/19 20:59:23","新北市新店區富貴街8巷2號","121.494411666667","24.9499266666667","6500600","新店區"
"231045","617-UM","2018/05/19 20:59:36","新北市新店區薏仁坑路6號","121.500231666667","24.9580633333333","6500600","新店區"
"231061","619-UM","2018/05/19 20:59:36","新北市新店區新和街116巷13號","121.521468333333","24.985965","6500600","新店區"
"231068","718-UY","2018/05/19 20:59:38","新北市新店區寶中路77號","121.54763","24.9805716666667","6500600","新店區"
"231064","719-UM","2018/05/19 20:59:32","新北市新店區安民街251巷4號","121.517011666667","24.9724783333333","6500600","新店區"
"231054","719-UY","2018/05/19 20:59:21","新北市新店區五峰路27號","121.543985","24.96919","6500600","新店區"
"231062","720-UM","2018/05/19 20:59:22","新北市新店區裕合街74號","121.490283333333","24.9485333333333","6500600","新店區"
"231060","897-TW","2018/05/19 20:59:32","新北市新店區安康路三段230號","121.488096666667","24.95178","6500600","新店區"
"231043","899-TW","2018/05/19 20:59:20","新北市新店區中正路379號","121.534735","24.976785","6500600","新店區"
"241011","013-R5","2018/05/19 20:59:36","新北市三重區秀江街119號","121.499691666667","25.072205","6500200","三重區"
"241028","022-UY","2018/05/19 20:59:30","新北市三重區市前街6號","121.489736666667","25.06193","6500200","三重區"
"241008","059-VK","2018/05/19 20:59:37","新北市三重區車路頭街135-1號","121.484316666667","25.0760966666667","6500200","三重區"
"241009","060-VK","2018/05/19 20:59:33","新北市三重區力行路二段151號","121.483635","25.07767","6500200","三重區"
"241031","061-VK","2018/05/19 20:59:39","新北市三重區重陽路一段113巷2弄2號","121.487496666667","25.05995","6500200","三重區"
"241015","062-VK","2018/05/19 20:59:34","新北市三重區福德北路61號","121.502201666667","25.0655333333333","6500200","三重區"
"241017","063-VK","2018/05/19 20:59:27","新北市三重區大同北路181號","121.492658333333","25.0652166666667","6500200","三重區"
"241024","065-VK","2018/05/19 20:59:32","新北市三重區大勇街51號","121.48128","25.071945","6500200","三重區"
"241026","066-VK","2018/05/19 20:59:32","新北市三重區文化南路45號","121.50022","25.0614283333333","6500200","三重區"
"241002","090-VK","2018/05/19 20:59:23","新北市三重區五華街7巷16號","121.495775","25.0803666666667","6500200","三重區"
"241003","091-VK","2018/05/19 20:59:29","新北市三重區進安街198號","121.493908333333","25.0859566666667","6500200","三重區"
"241013","265-UM","2018/05/19 20:59:36","新北市三重區仁愛街131號","121.495538333333","25.0748933333333","6500200","三重區"
"241016","266-UM","2018/05/19 20:59:24","新北市三重區正義北路77號","121.497198333333","25.06488","6500200","三重區"
"241022","267-UM","2018/05/19 20:59:35","新北市三重區中正北路20巷12號","121.487945","25.062485","6500200","三重區"
"241018","268-UM","2018/05/19 20:59:30","新北市三重區自強路一段155-1號","121.493666666667","25.0672566666667","6500200","三重區"
"241007","398-BY","2018/05/19 20:59:39","新北市三重區慈愛街8號","121.484458333333","25.0784366666667","6500200","三重區"
"241025","413-TH","2018/05/19 20:59:33","新北市三重區貴陽街18-1號","121.484181666667","25.0619533333333","6500200","三重區"
"241004","475-VK","2018/05/19 20:59:35","新北市三重區仁愛街420號","121.490401666667","25.08143","6500200","三重區"
"241020","478-VK","2018/05/19 20:59:31","新北市三重區忠孝路二段31號","121.485978333333","25.071095","6500200","三重區"
"241014","543-UM","2018/05/19 20:59:22","新北市三重區長榮路75號","121.502563333333","25.06905","6500200","三重區"
"241023","545-UM","2018/05/19 20:59:28","新北市三重區忠孝路三段84巷63號","121.482323333333","25.0637283333333","6500200","三重區"
"241001","547-UM","2018/05/19 20:59:24","新北市三重區三和路四段128號","121.48895","25.0752","6500200","三重區"
"241019","KEA-2593","2018/05/19 20:59:30","新北市三重區自強路二段74巷21號","121.487995","25.0698683333333","6500200","三重區"
"241006","AAD-863","2018/05/19 20:59:37","新北市三重區永福街21-1號","121.48175","25.0783033333333","6500200","三重區"
"241030","743-BX","2018/05/19 20:59:29","新北市三重區環河南路220-8號","121.49339","25.0527433333333","6500200","三重區"
"241005","887-TS","2018/05/19 20:59:28","新北市三重區五華街141巷1號","121.491045","25.0847233333333","6500200","三重區"
"241029","942-UM","2018/05/19 20:59:35","新北市三重區大同南路134巷34號","121.498026666667","25.058545","6500200","三重區"
"241033","AAC-255","2018/05/19 20:59:36","新北市三重區光復路二段4號","121.472083333333","25.0536983333333","6500200","三重區"
"235069","4980-A6","2018/05/19 20:59:26","新北市中和區連城路469巷44弄16號","121.48279","24.994285","6500300","中和區"
"247024","893-R6","2018/05/19 20:59:35","新北市蘆洲區長興路213號","121.461165","25.0863733333333","6501400","蘆洲區"
"247014","546-UM","2018/05/19 20:59:31","新北市蘆洲區中山二路36巷24號","121.474318333333","25.083005","6501400","蘆洲區"
"247022","500-BY","2018/05/19 20:59:41","新北市蘆洲區民族路496號","121.469743333333","25.0904916666667","6501400","蘆洲區"
"247010","341-TH","2018/05/19 20:59:31","新北市蘆洲區鷺江街76號","121.477025","25.0838316666667","6501400","蘆洲區"
"247012","339-TH","2018/05/19 20:59:26","新北市蘆洲區民權路6-1號","121.476695","25.085545","6501400","蘆洲區"
"247004","337-TH","2018/05/19 20:59:31","新北市蘆洲區永安南路二段258號","121.45948","25.0803166666667","6501400","蘆洲區"
"247006","336-TH","2018/05/19 20:59:30","新北市蘆洲區永安南路二段18號","121.467696666667","25.077165","6501400","蘆洲區"
"247018","057-VK","2018/05/19 20:59:33","新北市蘆洲區民權路136-2號","121.473213333333","25.0889716666667","6501400","蘆洲區"
"247008","056-VK","2018/05/19 20:59:42","新北市蘆洲區民生街76號","121.472843333333","25.0791333333333","6501400","蘆洲區"
"247016","007-UY","2018/05/19 20:59:25","新北市蘆洲區正和街80號","121.468418333333","25.0809316666667","6501400","蘆洲區"
"247020","001-UY","2018/05/19 20:59:38","新北市蘆洲區民族路375號","121.47077","25.0910366666667","6501400","蘆洲區"
"251001","011-UM","2018/05/19 20:59:21","新北市淡水區淡金路二段66號","121.450596666667","25.1822733333333","6501000","淡水區"
"251002","012-UM","2018/05/19 20:59:41","新北市淡水區水源街一段129號","121.44688","25.1719616666667","6501000","淡水區"
"251013","KEA-2871","2018/05/19 20:59:36","新北市淡水區行忠路332號","121.462631666667","25.199365","6501000","淡水區"
"251016","179-VK","2018/05/19 20:59:36","新北市淡水區牛埔子10-1號","121.449801666667","25.21842","6501000","淡水區"
"251014","180-VK","2018/05/19 20:59:32","新北市淡水區溪口28號","121.45505","25.2367383333333","6501000","淡水區"
"251015","182-VK","2018/05/19 20:59:31","新北市淡水區淡金路四段542巷17號","121.45276","25.2270983333333","6501000","淡水區"
"251010","413-VK","2018/05/19 20:59:26","新北市淡水區淡海路23號","121.4237","25.1790833333333","6501000","淡水區"
"251012","441-VK","2018/05/19 20:59:34","新北市淡水區淡金路五段98號","121.456291666667","25.236115","6501000","淡水區"
"251007","442-VK","2018/05/19 20:59:37","新北市淡水區學府路96號","121.449573333333","25.1715183333333","6501000","淡水區"
"251005","443-VK","2018/05/19 20:59:28","新北市淡水區學府路51巷2弄14號","121.447916666667","25.169965","6501000","淡水區"
"251011","650-BX","2018/05/19 20:59:38","新北市淡水區新民街296號","121.435105","25.1824766666667","6501000","淡水區"
"251003","673-BX","2018/05/19 20:59:35","新北市淡水區新春街148-3號","121.442868333333","25.1811283333333","6501000","淡水區"
"242009","132-UY","2018/05/19 20:59:34","新北市新莊區環河路116-1號","121.460626666667","25.0379033333333","6500500","新莊區"
"242048","172-VK","2018/05/19 20:59:28","新北市五股區凌雲路三段32-1號","121.432075","25.1080066666667","6500500","新莊區"
"221029","298-VK","2018/05/19 20:59:22","新北市汐止區汐萬路一段278巷5號","121.651548333333","25.0746933333333","6501100","汐止區"
"221038","646-BX","2018/05/19 20:55:43","新北市汐止區汐萬路一段256巷1號","121.651985","25.074685","6501100","汐止區"
"221018","753-BX","2018/05/19 20:59:34","新北市汐止區汐萬路一段306號","121.650428333333","25.07468","6501100","汐止區"
"242002","KEA-2550","2018/05/19 20:59:36","新北市新莊區中港路32號","121.455143333333","25.0374816666667","6500500","新莊區"
"220070","AAC-253","2018/05/19 20:57:44","新北市八里區中山路三段409號","121.368711666667","25.1345633333333","6500100","板橋區"
