"lineid","car","time","location","longitude","latitude","cityid","cityname"
"234048","863-TW","2018/05/19 21:29:33","新北市永和區福和路1號","121.526206666667","25.0094983333333","6500400","永和區"
"231040","001-UM","2018/05/19 21:29:34","新北市新店區北新路一段93號","121.539026666667","24.9618983333333","6500600","新店區"
"231048","187-VK","2018/05/19 21:29:38","新北市新店區薏仁坑路自強巷6號","121.497035","24.9587333333333","6500600","新店區"
"231063","616-UM","2018/05/19 21:29:23","新北市新店區如意街80號","121.49553","24.9468016666667","6500600","新店區"
"241024","065-VK","2018/05/19 21:29:32","新北市三重區中正北路117號","121.483585","25.06697","6500200","三重區"
"241003","091-VK","2018/05/19 21:29:29","新北市三重區集賢路37-1號","121.495283333333","25.0856183333333","6500200","三重區"
"241016","266-UM","2018/05/19 21:29:24","新北市三重區正義北路117號","121.496826666667","25.0659466666667","6500200","三重區"
"241007","398-BY","2018/05/19 21:29:38","新北市三重區正義北路113號","121.496891666667","25.0655483333333","6500200","三重區"
"241019","KEA-2593","2018/05/19 21:29:30","新北市五股區成泰路三段358號","121.450971666667","25.09769","6500200","三重區"
"241005","887-TS","2018/05/19 21:29:28","新北市三重區仁華街118巷6號","121.485676666667","25.0830766666667","6500200","三重區"
"235010","733-UM","2018/05/19 21:10:01","新北市中和區員山路36巷13號","121.484056666667","24.9908833333333","6500300","中和區"
"247024","893-R6","2018/05/19 21:29:15","新北市五股區中直路17-4號","121.422803333333","25.11133","6501400","蘆洲區"
"247022","500-BY","2018/05/19 21:29:21","新北市蘆洲區永樂街110號","121.455713333333","25.0890033333333","6501400","蘆洲區"
"247010","341-TH","2018/05/19 21:29:31","新北市蘆洲區中山二路54號","121.473893333333","25.0821733333333","6501400","蘆洲區"
"251004","009-UM","2018/05/19 21:29:35","新北市淡水區民族路4號","121.460325","25.13681","6501000","淡水區"
"251001","011-UM","2018/05/19 21:29:21","新北市淡水區新市二路三段20號","121.431821666667","25.1931816666667","6501000","淡水區"
"251013","KEA-2871","2018/05/19 21:29:36","新北市淡水區埤島58-3號","121.458875","25.1950066666667","6501000","淡水區"
"251016","179-VK","2018/05/19 21:29:36","新北市淡水區前洲子28號","121.441168333333","25.219185","6501000","淡水區"
"251014","180-VK","2018/05/19 21:29:32","新北市淡水區六塊厝2-1號","121.44977","25.240225","6501000","淡水區"
"251008","181-VK","2018/05/19 21:29:33","新北市淡水區水源街二段116號","121.452698333333","25.1746483333333","6501000","淡水區"
"251015","182-VK","2018/05/19 21:29:31","新北市淡水區淡金路三段2-1號","121.446876666667","25.19798","6501000","淡水區"
"251010","413-VK","2018/05/19 21:29:26","新北市淡水區中正路二段22巷31弄6號","121.420781666667","25.1824466666667","6501000","淡水區"
"251012","441-VK","2018/05/19 21:29:34","新北市淡水區淡金路五段35巷46號","121.452478333333","25.23475","6501000","淡水區"
"251007","442-VK","2018/05/19 21:29:37","新北市淡水區水源街二段194號","121.456895","25.1760916666667","6501000","淡水區"
"251005","443-VK","2018/05/19 21:29:28","新北市淡水區水源街一段34巷9號","121.443205","25.1718133333333","6501000","淡水區"
"251006","561-UM","2018/05/19 21:29:24","新北市淡水區公明街75號","121.44386","25.16843","6501000","淡水區"
"251009","575-R6","2018/05/19 21:29:33","新北市淡水區民族路33巷10-5號","121.463425","25.1364183333333","6501000","淡水區"
"251011","650-BX","2018/05/19 21:29:38","新北市淡水區真理街32號","121.436791666667","25.1786866666667","6501000","淡水區"
"251003","673-BX","2018/05/19 21:29:25","新北市淡水區崁頂15-5號","121.439008333333","25.1858533333333","6501000","淡水區"
"220070","AAC-253","2018/05/19 21:29:25","新北市五股區新五路二段97號","121.437046666667","25.0750533333333","6500100","板橋區"
