"lineid","car","time","location","longitude","latitude","cityid","cityname"
"234048","863-TW","2018/05/19 21:35:37","新北市永和區福和路1號","121.526565","25.0099116666667","6500400","永和區"
"241016","266-UM","2018/05/19 21:48:04","新北市五股區中直路17-4號","121.422621666667","25.1113966666667","6500200","三重區"
"247010","341-TH","2018/05/19 21:49:31","新北市八里區中山路三段382號","121.368616666667","25.13595","6501400","蘆洲區"
"251004","009-UM","2018/05/19 21:49:35","新北市淡水區自強路201巷39號","121.462168333333","25.1268333333333","6501000","淡水區"
"251001","011-UM","2018/05/19 21:49:41","新北市淡水區新市五路二段75號","121.431406666667","25.1991966666667","6501000","淡水區"
"251002","012-UM","2018/05/19 21:49:41","新北市淡水區大忠街155號","121.448121666667","25.1767733333333","6501000","淡水區"
"251014","180-VK","2018/05/19 21:49:32","新北市淡水區淡金路三段28號","121.447828333333","25.1988483333333","6501000","淡水區"
"251008","181-VK","2018/05/19 21:49:32","新北市淡水區學府路104號","121.449863333333","25.17176","6501000","淡水區"
"251010","413-VK","2018/05/19 21:49:25","新北市淡水區沙崙路339號","121.427821666667","25.18784","6501000","淡水區"
"251012","441-VK","2018/05/19 21:49:34","新北市淡水區淡金路三段317號","121.449015","25.205835","6501000","淡水區"
"251007","442-VK","2018/05/19 21:49:37","新北市淡水區水源街二段177巷42號","121.453285","25.176845","6501000","淡水區"
"251005","443-VK","2018/05/19 21:49:28","新北市淡水區鄧公路30巷23號","121.453385","25.1698333333333","6501000","淡水區"
"251006","561-UM","2018/05/19 21:49:24","新北市淡水區中正路11巷3號","121.437813333333","25.1707866666667","6501000","淡水區"
"251009","575-R6","2018/05/19 21:49:33","新北市淡水區民族路35巷18號","121.46496","25.1370833333333","6501000","淡水區"
"251011","650-BX","2018/05/19 21:49:38","新北市淡水區新民街322巷5弄6號","121.436416666667","25.18287","6501000","淡水區"
"251003","673-BX","2018/05/19 21:49:25","新北市淡水區新春街81號","121.43881","25.1823766666667","6501000","淡水區"
"220070","AAC-253","2018/05/19 21:49:25","新北市板橋區華東街1-9號","121.44828","24.9948616666667","6500100","板橋區"
