"lineid","car","time","location","longitude","latitude","cityid","cityname"
"234005","695-BX","2018/08/27 07:09:11","新北市永和區光復街8號","121.516468333333","25.01697","6500400","永和區"
"248005","653-BX","2018/08/27 07:09:21","新北市五股區新五路二段83號","121.436705","25.0733933333333","6501500","五股區"
"232001","290-BY","2018/08/27 07:09:14","新北市坪林區桶盤嶼9號","121.708226666667","24.9579883333333","6502000","坪林區"
"232012","291-BY","2018/08/27 07:09:17","新北市坪林區黃舉皮寮14-1號","121.688263333333","24.934455","6502000","坪林區"
"232010","375-UM","2018/08/27 07:09:10","新北市坪林區水聳淒坑24號","121.717793333333","24.9236966666667","6502000","坪林區"
"232017","705-BZ","2018/08/27 07:09:17","新北市坪林區九芎坑4號","121.726641666667","24.9625033333333","6502000","坪林區"
"232005","758-BX","2018/08/27 07:09:17","新北市坪林區魚堀55-5號","121.706551666667","24.9287183333333","6502000","坪林區"
"244001","248-BX","2018/08/27 07:09:10","新北市林口區麗園一街1號","121.375685","25.0728466666667","6501700","林口區"
"235001","611-BX","2018/08/27 07:09:13","新北市中和區圓通路367巷4號","121.491361666667","24.9893133333333","6500300","中和區"
"226005","5620-A6","2018/08/27 07:09:17","新北市平溪區石底里石筍尖24號","121.72957","25.025515","6502400","平溪區"
"226001","7418-A5","2018/08/27 07:09:15","新北市平溪區石底里石筍尖3號","121.736686666667","25.0257316666667","6502400","平溪區"
"226003","AGD-0702","2018/08/27 07:09:13","新北市平溪區石底里公園街18-3號","121.73474","25.0249133333333","6502400","平溪區"
"223006","022-BY","2018/08/27 07:09:22","新北市石碇區新興坑31號","121.6477","25.0154033333333","6501900","石碇區"
"223002","KEA-2673","2018/08/27 07:09:09","新北市石碇區半路店5號","121.643808333333","24.9626983333333","6501900","石碇區"
"223003","205-TH","2018/08/27 07:09:09","新北市石碇區摸乳巷8-2號","121.660105","24.9810883333333","6501900","石碇區"
"223008","406-TH","2018/08/27 07:09:15","新北市石碇區番子坑24號","121.678306666667","25.0013416666667","6501900","石碇區"
"223001","592-UM","2018/08/27 07:09:02","新北市石碇區摸乳巷8-2號","121.660076666667","24.981085","6501900","石碇區"
"223004","660-BX","2018/08/27 07:09:16","新北市石碇區碇坪路一段18號","121.651751666667","25.0059033333333","6501900","石碇區"
"223007","661-BX","2018/08/27 07:09:09","新北市石碇區番子坑24號","121.678756666667","25.001655","6501900","石碇區"
"223005","677-TV","2018/08/27 07:09:24","新北市石碇區碇坪路一段18號","121.65181","25.0056","6501900","石碇區"
"227005","282-VK","2018/08/27 07:06:41","新北市雙溪區新基里自強路5-1號","121.86649","25.03916","6502500","雙溪區"
"252006","073-UM","2018/08/27 07:09:16","新北市三芝區福德里埔尾27號","121.502625","25.2401383333333","6502100","三芝區"
"252004","249-BX","2018/08/27 07:09:17","新北市三芝區錫板里小坑子11-1號","121.502741666667","25.236855","6502100","三芝區"
"237001","159-UY","2018/08/27 07:09:10","新北市三峽區中山路459巷163-3號","121.348883333333","24.933075","6500900","三峽區"
"236001","165-UM","2018/08/27 07:09:15","新北市土城區中央路三段118號","121.435321666667","24.9660633333333","6501300","土城區"
"236001","KEA-2877","2018/08/27 07:09:18","新北市土城區中央路三段130號","121.43486","24.9657016666667","6501300","土城區"
