"lineid","car","time","location","longitude","latitude","cityid","cityname"
"234070","149-BY","2018/08/02 08:49:25","新北市永和區福和路1號","121.52651","25.009765","6500400","永和區"
"248005","653-BX","2018/08/02 08:49:14","新北市五股區明德路12巷3號","121.433173333333","25.0717066666667","6501500","五股區"
"232001","290-BY","2018/08/02 08:49:27","新北市坪林區虎寮潭1號","121.740643333333","24.9521566666667","6502000","坪林區"
"244012","069-UM","2018/08/02 08:49:19","新北市林口區中山路160巷21號","121.391675","25.079335","6501700","林口區"
"244006","080-UY","2018/08/02 08:49:23","新北市林口區竹林路77-5號","121.388431666667","25.0795833333333","6501700","林口區"
"244003","248-BX","2018/08/02 08:49:33","新北市林口區下福里123-1號","121.294233333333","25.11912","6501700","林口區"
"244018","403-UM","2018/08/02 08:49:28","新北市林口區文化一路一段89-5號","121.371815","25.07047","6501700","林口區"
"244008","410-SL","2018/08/02 08:49:26","新北市林口區佳林路56巷3號","121.385638333333","25.0816933333333","6501700","林口區"
"244022","483-VK","2018/08/02 08:49:15","新北市林口區隆林街101巷6號","121.385073333333","25.0745433333333","6501700","林口區"
"244016","485-VK","2018/08/02 08:49:14","新北市林口區文化一路一段43號","121.371045","25.0696466666667","6501700","林口區"
"244010","657-BX","2018/08/02 08:49:25","新北市林口區中正路74巷5弄2號","121.394596666667","25.0780883333333","6501700","林口區"
"244024","837-TS","2018/08/02 08:49:27","新北市林口區南勢六街32-1號","121.356495","25.0712683333333","6501700","林口區"
"244020","838-TS","2018/08/02 08:49:04","新北市林口區自強二街30號","121.398231666667","25.0777383333333","6501700","林口區"
"222006","289-BY","2018/08/02 08:49:16","新北市深坑區風格街31巷18號","121.627486666667","25.01733","6501800","深坑區"
"231069","189-VK","2018/08/02 08:49:14","新北市新店區新潭路三段26號","121.508421666667","24.9141233333333","6500600","新店區"
"231008","192-VK","2018/08/02 08:49:31","新北市新店區新烏路三段寶島巷2弄3號","121.552023333333","24.89859","6500600","新店區"
"235001","611-BX","2018/08/02 08:49:25","新北市中和區國光街60號","121.470505","25.00027","6500300","中和區"
"226005","5620-A6","2018/08/02 08:49:29","新北市平溪區十分里十分街76號","121.77641","25.0418333333333","6502400","平溪區"
"226007","7418-A5","2018/08/02 08:49:27","新北市平溪區東勢里芊蓁坑30號","121.727486666667","24.97918","6502400","平溪區"
"226003","AGD-0702","2018/08/02 08:49:19","新北市平溪區十分里十分街259號","121.778238333333","25.0449083333333","6502400","平溪區"
"223006","022-BY","2018/08/02 08:49:27","新北市深坑區昇高坑路51-1號","121.63039","24.99418","6501900","石碇區"
"223003","205-TH","2018/08/02 08:49:29","新北市石碇區北宜路六段水底寮巷7號","121.664548333333","24.94812","6501900","石碇區"
"223008","406-TH","2018/08/02 08:49:17","新北市石碇區光明路13號","121.67926","25.0332366666667","6501900","石碇區"
"223001","592-UM","2018/08/02 08:49:33","新北市石碇區北宜路六段水底寮巷1號","121.658713333333","24.94704","6501900","石碇區"
"223004","660-BX","2018/08/02 08:49:21","新北市石碇區崩山47-1號","121.678535","24.9706516666667","6501900","石碇區"
"223005","677-TV","2018/08/02 08:49:34","新北市石碇區崩山43-1號","121.68005","24.9668","6501900","石碇區"
"252004","249-BX","2018/08/02 08:49:27","新北市三芝區興華里田心子18-3號","121.494513333333","25.202615","6502100","三芝區"
"252007","AAC-283","2018/08/02 08:49:23","新北市三芝區後厝里北勢子22號","121.473391666667","25.2533083333333","6502100","三芝區"
"237001","159-UY","2018/08/02 08:49:28","新北市三峽區大觀路111號","121.374795","24.9451283333333","6500900","三峽區"
"236009","165-UM","2018/08/02 08:49:11","新北市土城區石門路6巷3號","121.458191666667","24.9696416666667","6501300","土城區"
"236003","339-SR","2018/08/02 08:49:16","新北市土城區中央路三段163號","121.431831666667","24.965445","6501300","土城區"
"236005","498-BY","2018/08/02 08:49:33","新北市土城區永和街35號","121.434856666667","24.9605433333333","6501300","土城區"
"242033","AAC-296","2018/08/02 08:49:14","新北市新莊區公園一路89號","121.443451666667","25.0375883333333","6500500","新莊區"
"242057","986-R7","2018/08/02 08:49:26","新北市新莊區中正路923號","121.41072","25.0211416666667","6500500","新莊區"
"242052","751-BX","2018/08/02 08:49:28","新北市新莊區民安西路410巷12弄2號","121.428053333333","25.0090616666667","6500500","新莊區"
"242026","705-TV","2018/08/02 08:49:17","新北市新莊區中平路377巷45號","121.443118333333","25.0525316666667","6500500","新莊區"
"242024","613-BX","2018/08/02 08:49:30","新北市新莊區五工三路94巷2號","121.45828","25.065555","6500500","新莊區"
"242040","566-BX","2018/08/02 08:49:29","新北市新莊區天祥街72巷11號","121.416201666667","25.0299616666667","6500500","新莊區"
"242045","497-BY","2018/08/02 08:49:21","新北市新莊區中正路829巷22弄2號","121.421428333333","25.0271316666667","6500500","新莊區"
"242006","442-UM","2018/08/02 08:49:22","新北市新莊區福壽街202巷33號","121.459318333333","25.053645","6500500","新莊區"
"242049","441-UM","2018/08/02 08:49:31","新北市新莊區民安西路174號","121.426018333333","25.0159483333333","6500500","新莊區"
"242055","440-UM","2018/08/02 08:49:17","新北市新莊區瓊林路38-11號","121.447845","25.0299133333333","6500500","新莊區"
"242035","415-TV","2018/08/02 08:49:15","新北市新莊區建安街85號","121.427198333333","25.02461","6500500","新莊區"
"242044","400-BY","2018/08/02 08:49:16","新北市新莊區龍安路9-5號","121.415098333333","25.022875","6500500","新莊區"
"242022","362-BY","2018/08/02 08:49:25","新北市新莊區化成路728號","121.465648333333","25.057185","6500500","新莊區"
"242059","353-BY","2018/08/02 08:49:33","新北市新莊區富國路176巷7號","121.424223333333","25.023975","6500500","新莊區"
"242008","132-UY","2018/08/02 08:49:31","新北市新莊區昌盛街24號","121.453895","25.0499233333333","6500500","新莊區"
"242038","133-UY","2018/08/02 08:49:25","新北市新莊區民安路299巷51號","121.429643333333","25.0237566666667","6500500","新莊區"
"242030","135-UY","2018/08/02 08:49:35","新北市新莊區新泰路225巷4號","121.44586","25.039265","6500500","新莊區"
"242047","172-VK","2018/08/02 08:49:23","新北市新莊區建安街76巷1弄18號","121.425925","25.024375","6500500","新莊區"
"242010","173-VK","2018/08/02 08:49:30","新北市新莊區中港路531巷5號","121.451441666667","25.05153","6500500","新莊區"
"242016","175-VK","2018/08/02 08:49:18","新北市新莊區中港一街131號","121.448256666667","25.0451233333333","6500500","新莊區"
"242003","176-VK","2018/08/02 08:49:15","新北市新莊區化成路11巷21號","121.464055","25.0434383333333","6500500","新莊區"
"242020","348-TH","2018/08/02 08:49:14","新北市新莊區建中街16巷30號","121.449116666667","25.0387933333333","6500500","新莊區"
"242001","349-TH","2018/08/02 08:49:32","新北市新莊區中正路180號","121.449903333333","25.0355633333333","6500500","新莊區"
"242018","350-TH","2018/08/02 08:49:29","新北市新莊區民生街19號","121.456028333333","25.0422","6500500","新莊區"
"242012","351-TH","2018/08/02 08:49:23","新北市新莊區幸福路710巷5弄14號","121.449391666667","25.0497283333333","6500500","新莊區"
"242014","281-VK","2018/08/02 08:49:24","新北市新莊區中平路26巷26號","121.44585","25.0433416666667","6500500","新莊區"
