"lineid","car","time","location","longitude","latitude","cityid","cityname"
"248005","653-BX","2018/08/02 09:39:34","新北市五股區成泰路一段87號","121.434313333333","25.068815","6501500","五股區"
"244012","069-UM","2018/08/02 09:39:39","新北市林口區麗園一街4巷1號","121.37649","25.0713833333333","6501700","林口區"
"244006","080-UY","2018/08/02 09:39:23","新北市林口區中湖62號","121.384746666667","25.1008016666667","6501700","林口區"
"244018","403-UM","2018/08/02 09:39:28","新北市林口區麗園二街23巷88號","121.380565","25.0703033333333","6501700","林口區"
"244008","410-SL","2018/08/02 09:39:26","新北市林口區竹林路446巷2弄2號","121.38783","25.08544","6501700","林口區"
"244022","483-VK","2018/08/02 09:39:34","新北市林口區文化三路二段160號","121.37579","25.0820183333333","6501700","林口區"
"244016","485-VK","2018/08/02 09:39:34","新北市林口區文化二路一段68巷17號","121.366456666667","25.0689733333333","6501700","林口區"
"244010","657-BX","2018/08/02 09:39:25","新北市林口區中正路296巷3號","121.388321666667","25.0780733333333","6501700","林口區"
"222006","289-BY","2018/08/02 09:39:36","新北市深坑區昇高坑路35號","121.628443333333","24.998785","6501800","深坑區"
"231069","189-VK","2018/08/02 09:39:33","新北市新店區新潭路三段215巷25號","121.508166666667","24.90401","6500600","新店區"
"231008","192-VK","2018/08/02 09:37:31","新北市新店區平廣路一段256號","121.507798333333","24.8881616666667","6500600","新店區"
"235001","611-BX","2018/08/02 09:39:25","新北市中和區連城路569巷9弄1號","121.479446666667","24.994385","6500300","中和區"
"223008","406-TH","2018/08/02 09:39:36","新北市石碇區南勢坑2號","121.698323333333","24.9914266666667","6501900","石碇區"
"223001","592-UM","2018/08/02 09:39:33","新北市石碇區北宜路四段30號","121.623581666667","24.9569783333333","6501900","石碇區"
"252004","249-BX","2018/08/02 09:39:07","新北市三芝區圓山里石曹子坑69號","121.524173333333","25.21339","6502100","三芝區"
"252007","AAC-283","2018/08/02 09:39:22","新北市三芝區新庄里新庄子112號","121.521445","25.265455","6502100","三芝區"
"237001","159-UY","2018/08/02 09:39:28","新北市三峽區隆恩街193-1號","121.360791666667","24.9422783333333","6500900","三峽區"
"236009","165-UM","2018/08/02 09:39:31","新北市土城區中央路四段252-1號","121.415131666667","24.9569183333333","6501300","土城區"
"236005","498-BY","2018/08/02 09:39:35","新北市土城區承天路71巷4弄21號","121.441496666667","24.9631166666667","6501300","土城區"
"242033","AAC-296","2018/08/02 09:39:41","新北市新莊區中正路326號","121.446058333333","25.03472","6500500","新莊區"
"242057","986-R7","2018/08/02 09:39:38","新北市新莊區四維路186巷2號","121.422111666667","25.0212716666667","6500500","新莊區"
"242024","613-BX","2018/08/02 09:39:29","新北市三重區後埔街61-1號","121.478853333333","25.04721","6500500","新莊區"
"242055","440-UM","2018/08/02 09:39:41","新北市新莊區瓊泰路135號","121.443396666667","25.0305783333333","6500500","新莊區"
"242035","415-TV","2018/08/02 09:39:38","新北市新莊區中正路449號","121.443066666667","25.0340633333333","6500500","新莊區"
"242044","400-BY","2018/08/02 09:39:35","新北市新莊區龍安路20號","121.41444","25.0223766666667","6500500","新莊區"
"242059","353-BY","2018/08/02 09:39:33","新北市新莊區新樹路244巷17號","121.431545","25.0182666666667","6500500","新莊區"
"242008","132-UY","2018/08/02 09:39:39","新北市新莊區瓊林路13-3號","121.448885","25.0309483333333","6500500","新莊區"
"242038","133-UY","2018/08/02 09:39:24","新北市新莊區瓊林路208號","121.4363","25.021815","6500500","新莊區"
"242030","135-UY","2018/08/02 09:39:35","新北市新莊區三和路13-23號","121.44083","25.0360433333333","6500500","新莊區"
"242003","176-VK","2018/08/02 09:39:35","新北市新莊區化成路746巷2號","121.466018333333","25.057735","6500500","新莊區"
"242001","349-TH","2018/08/02 09:39:33","新北市新莊區中正路211號","121.451553333333","25.0359366666667","6500500","新莊區"
"242014","281-VK","2018/08/02 09:39:24","新北市樹林區環河路110號","121.42605","24.9773433333333","6500500","新莊區"
