"lineid","car","time","location","longitude","latitude","cityid","cityname"
"244019","403-UM","2018/08/02 10:39:28","新北市林口區粉寮69號","121.405063333333","25.0908166666667","6501700","林口區"
"222006","289-BY","2018/08/02 10:39:36","新北市深坑區文山路三段16-1號","121.61266","24.9981333333333","6501800","深坑區"
"231069","189-VK","2018/08/02 10:39:33","新北市新店區新潭路三段131號","121.510515","24.9108983333333","6500600","新店區"
"231008","192-VK","2018/08/02 10:39:31","新北市新店區松林路81號","121.54842","24.907605","6500600","新店區"
"242001","349-TH","2018/08/02 10:39:33","新北市樹林區俊英街109-1號","121.424941666667","25.0098233333333","6500500","新莊區"
