"lineid","car","time","location","longitude","latitude","cityid","cityname"
"234044","148-BY","2018/08/02 12:29:44","新北市永和區福和路1號","121.526295","25.0098233333333","6500400","永和區"
"234068","552-UM","2018/08/02 12:29:25","新北市永和區福和路1號","121.525468333333","25.0093866666667","6500400","永和區"
"234022","9380-KE","2018/08/02 12:29:28","新北市永和區福和路1號","121.5268","25.0099566666667","6500400","永和區"
"244019","403-UM","2018/08/02 12:01:07","新北市林口區粉寮69號","121.405073333333","25.0907816666667","6501700","林口區"
"243008","KEA-2801","2018/08/02 12:12:25","新北市泰山區犁頭窠3-1號","121.42239","25.0604766666667","6501600","泰山區"
"243004","646-TV","2018/08/02 12:25:29","新北市泰山區黎明路25號","121.42207","25.060685","6501600","泰山區"
"228005","097-TW","2018/08/02 12:29:31","新北市貢寮區福連里蓬萊街16號","121.984968333333","24.9959466666667","6502600","貢寮區"
"228004","212-TW","2018/08/02 12:29:42","新北市貢寮區龍崗里嵩陽街2-1號","121.901816666667","25.0158483333333","6502600","貢寮區"
"207002","749-BX","2018/08/02 12:29:41","新北市萬里區雙興里太和路7-2號","121.65862","25.174105","6502800","萬里區"
"221010","269-BY","2018/08/02 12:29:34","新北市汐止區康寧街753巷1-1號","121.639066666667","25.073755","6501100","汐止區"
"235025","KEA-2875","2018/08/02 12:21:54","新北市中和區和城路一段271巷1號","121.485561666667","24.9914633333333","6500300","中和區"
