"lineid","car","time","location","longitude","latitude","cityid","cityname"
"234044","148-BY","2018/08/02 13:19:44","新北市永和區得和路373巷1號","121.524676666667","24.99961","6500400","永和區"
"234070","149-BY","2018/08/02 13:19:32","新北市永和區得和路326號","121.52324","24.9995566666667","6500400","永和區"
"234005","207-UY","2018/08/02 13:19:33","新北市永和區中山路一段320號","121.506691666667","25.0070183333333","6500400","永和區"
"234078","298-R6","2018/08/02 13:19:36","新北市永和區福和路38號","121.523871666667","25.008305","6500400","永和區"
"234062","337-UY","2018/08/02 13:19:31","新北市永和區永元路17巷6弄1號","121.521341666667","25.0007366666667","6500400","永和區"
"234084","338-UY","2018/08/02 13:19:35","新北市永和區永利路4巷2號","121.517486666667","25.0055216666667","6500400","永和區"
"234068","552-UM","2018/08/02 13:19:45","新北市永和區豫溪街68號","121.517031666667","25.00986","6500400","永和區"
"234015","745-BX","2018/08/02 13:19:39","新北市永和區環河西路一段95巷19弄6號","121.511936666667","25.0168833333333","6500400","永和區"
"234028","746-BX","2018/08/02 13:19:27","新北市永和區厚德街89號","121.524006666667","24.9988083333333","6500400","永和區"
"234052","KEA-2590","2018/08/02 13:19:35","新北市永和區中興街14號","121.515953333333","25.0118816666667","6500400","永和區"
"234012","KEA-2591","2018/08/02 13:19:39","新北市永和區信義路75-1號","121.512606666667","25.01296","6500400","永和區"
"234060","AAD-866","2018/08/02 13:19:44","新北市永和區秀朗路一段175號","121.517058333333","25.0036783333333","6500400","永和區"
"234036","847-RS","2018/08/02 13:19:43","新北市永和區民樂街51號","121.527525","24.99875","6500400","永和區"
"234040","862-TW","2018/08/02 13:19:28","新北市永和區保平路203巷33號","121.509726666667","25.0050083333333","6500400","永和區"
"234048","863-TW","2018/08/02 13:19:38","新北市永和區仁愛路140號","121.511101666667","25.0134533333333","6500400","永和區"
"234025","9371-KE","2018/08/02 13:19:43","新北市永和區豫溪街42巷4號","121.515426666667","25.0095566666667","6500400","永和區"
"234010","9373-KE","2018/08/02 13:19:39","新北市永和區忠孝街34巷25號","121.514466666667","25.0167566666667","6500400","永和區"
"248013","025-BX","2018/08/02 13:19:39","新北市五股區自強路90巷1號","121.43256","25.0724683333333","6501500","五股區"
"248015","026-BX","2018/08/02 13:19:25","新北市五股區成泰路三段477巷18號","121.449846666667","25.0989166666667","6501500","五股區"
"248005","077-UY","2018/08/02 13:19:37","新北市五股區中興路一段169號","121.464541666667","25.0737633333333","6501500","五股區"
"248007","095-VK","2018/08/02 13:19:33","新北市五股區更洲路32巷8弄13-1號","121.459301666667","25.0794933333333","6501500","五股區"
"248017","225-UY","2018/08/02 13:19:25","新北市五股區御史路205-1號","121.430955","25.1012333333333","6501500","五股區"
"248011","247-BX","2018/08/02 13:19:34","新北市五股區御史路1巷101弄2號","121.440986666667","25.0912333333333","6501500","五股區"
"248003","677-BX","2018/08/02 13:19:34","新北市五股區成泰路二段182號","121.438503333333","25.084445","6501500","五股區"
"248001","678-BX","2018/08/02 13:19:42","新北市五股區西雲路66號","121.443643333333","25.0914433333333","6501500","五股區"
"248009","682-TV","2018/08/02 13:19:34","新北市五股區成泰路一段167號","121.435245","25.0745033333333","6501500","五股區"
"234022","9380-KE","2018/08/02 13:19:28","新北市永和區竹林路117-1號","121.519931666667","25.0115583333333","6500400","永和區"
"234076","969-R7","2018/08/02 13:19:37","新北市永和區民有街28號","121.516993333333","24.9962683333333","6500400","永和區"
"234072","AAC-211","2018/08/02 13:19:33","新北市永和區竹林路48號","121.517636666667","25.014165","6500400","永和區"
"234066","AAC-212","2018/08/02 13:19:28","新北市永和區保平路32號","121.511865","25.00725","6500400","永和區"
"234001","AAC-295","2018/08/02 13:19:42","新北市永和區中山路一段127號","121.51068","25.0099716666667","6500400","永和區"
"244003","248-BX","2018/08/02 13:19:42","新北市林口區寶斗厝坑43號","121.339561666667","25.1087783333333","6501700","林口區"
"243005","AAD-798","2018/08/02 13:19:40","新北市泰山區南泰路6巷1弄5號","121.41877","25.0388883333333","6501600","泰山區"
"231002","002-UM","2018/08/02 13:19:34","新北市新店區安華路28-1號","121.519583333333","24.96082","6500600","新店區"
"231001","047-UY","2018/08/02 13:19:33","新北市新店區安康路一段222-2號","121.52309","24.96366","6500600","新店區"
"231005","106-UY","2018/08/02 13:19:32","新北市新店區安華路28-1號","121.51961","24.9608316666667","6500600","新店區"
"231010","107-UY","2018/08/02 13:19:25","新北市新店區安康路一段226號","121.523533333333","24.963575","6500600","新店區"
"231021","108-UY","2018/08/02 13:19:43","新北市新店區安一路一段1-1號","121.51969","24.961775","6500600","新店區"
"231011","187-VK","2018/08/02 13:19:39","新北市新店區安康路一段283號","121.523576666667","24.9635066666667","6500600","新店區"
"231023","KEA-2219","2018/08/02 13:19:42","新北市新店區光明街82號","121.538816666667","24.9600766666667","6500600","新店區"
"231026","256-BX","2018/08/02 13:19:40","新北市新店區安一路一段1-1號","121.519825","24.9611033333333","6500600","新店區"
"231003","268-BY","2018/08/02 13:19:31","新北市新店區安華路1-1號","121.51944","24.96044","6500600","新店區"
"231018","278-BY","2018/08/02 13:19:32","新北市新店區環河路111-10號","121.530641666667","24.9705716666667","6500600","新店區"
"231017","AAD-862","2018/08/02 13:19:45","新北市新店區安康路一段293號","121.522728333333","24.96367","6500600","新店區"
"231028","355-BY","2018/08/02 13:19:29","新北市新店區安華路28-1號","121.51933","24.9608216666667","6500600","新店區"
"231038","3712-VJ","2018/08/02 13:19:40","新北市新店區安華路1-1號","121.519418333333","24.96052","6500600","新店區"
"231027","3713-VJ","2018/08/02 13:19:41","新北市新店區環河路1-6號","121.538373333333","24.9612266666667","6500600","新店區"
"231037","4716-K9","2018/08/02 13:19:32","新北市新店區安華路28-1號","121.519678333333","24.9610033333333","6500600","新店區"
"231025","4715-K9","2018/08/02 13:19:30","新北市新店區中央五街60號","121.527706666667","24.975445","6500600","新店區"
"231036","512-UM","2018/08/02 13:19:38","新北市新店區安豐路48號","121.500395","24.9541283333333","6500600","新店區"
"231013","513-UM","2018/08/02 13:19:30","新北市新店區安一路一段1-1號","121.519611666667","24.961095","6500600","新店區"
"231034","616-UM","2018/08/02 13:19:31","新北市新店區安華路1-1號","121.51944","24.9604816666667","6500600","新店區"
"231006","617-UM","2018/08/02 13:19:39","新北市新店區安華路28-1號","121.519475","24.960765","6500600","新店區"
"231030","619-UM","2018/08/02 13:19:28","新北市新店區安華路28-1號","121.519528333333","24.9609366666667","6500600","新店區"
"231035","719-UM","2018/08/02 13:19:32","新北市新店區安一路一段1-1號","121.519456666667","24.9610216666667","6500600","新店區"
"231031","720-UM","2018/08/02 13:19:36","新北市新店區安一路一段1-1號","121.519315","24.961265","6500600","新店區"
"231029","897-TW","2018/08/02 13:19:30","新北市新店區安華路28-1號","121.519571666667","24.9608533333333","6500600","新店區"
"231004","899-TW","2018/08/02 13:19:28","新北市新店區安華路28-1號","121.519368333333","24.9606966666667","6500600","新店區"
"231024","AKT-0513","2018/08/02 13:19:43","新北市新店區光明街171號","121.53957","24.962675","6500600","新店區"
"235030","003-UY","2018/08/02 13:19:26","新北市中和區中山路二段120號","121.502835","25.0038616666667","6500300","中和區"
"235028","005-UY","2018/08/02 13:19:36","新北市中和區圓通路167巷7號","121.49806","24.9950566666667","6500300","中和區"
"235027","006-UY","2018/08/02 13:19:38","新北市中和區中正路589巷15號","121.485936666667","24.993795","6500300","中和區"
"235020","096-UM","2018/08/02 13:19:43","新北市中和區連城路469巷38號","121.483523333333","24.9947066666667","6500300","中和區"
"235003","097-UM","2018/08/02 13:19:45","新北市中和區安平路59號","121.509635","24.9949266666667","6500300","中和區"
"235029","098-UM","2018/08/02 13:19:38","新北市中和區中山路二段64巷16弄2號","121.503266666667","25.0057466666667","6500300","中和區"
"235004","150-BY","2018/08/02 13:19:27","新北市中和區安平路38號","121.509821666667","24.99505","6500300","中和區"
"235022","151-BY","2018/08/02 13:19:47","新北市中和區圓通路417-1號","121.48858","24.9890183333333","6500300","中和區"
"235019","183-VK","2018/08/02 13:19:31","新北市中和區中正路637巷52弄1號","121.485453333333","24.9933733333333","6500300","中和區"
"235002","185-VK","2018/08/02 13:19:42","新北市中和區大智街42巷7號","121.522378333333","24.9919866666667","6500300","中和區"
"235036","301-VK","2018/08/02 13:19:34","新北市中和區錦和路158號","121.489808333333","24.9960166666667","6500300","中和區"
"235006","KEA-2878","2018/08/02 13:19:34","新北市中和區大仁街20巷25弄23號","121.51884","24.9936316666667","6500300","中和區"
"235014","4979-A6","2018/08/02 13:19:28","新北市中和區捷運路61巷18號","121.508933333333","24.9892233333333","6500300","中和區"
"235033","4980-A6","2018/08/02 13:19:41","新北市中和區錦和路97號","121.490023333333","24.9954866666667","6500300","中和區"
"235034","558-UM","2018/08/02 13:19:36","新北市中和區景平路479號","121.500356666667","24.9973216666667","6500300","中和區"
"235009","565-BX","2018/08/02 13:19:28","新北市中和區景安路200巷1弄1號","121.5039","24.9913783333333","6500300","中和區"
"235018","640-BX","2018/08/02 13:19:30","新北市中和區民享街90巷2號","121.474656666667","25.0004966666667","6500300","中和區"
"235024","647-TV","2018/08/02 13:19:26","新北市中和區和城路一段271巷1號","121.485418333333","24.9920466666667","6500300","中和區"
"235011","732-UM","2018/08/02 13:19:27","新北市中和區南山路260號","121.50788","24.9883466666667","6500300","中和區"
"235035","783-BX","2018/08/02 13:19:24","新北市中和區中板路18巷1弄27號","121.483106666667","25.0125883333333","6500300","中和區"
"235026","800-TS","2018/08/02 13:19:35","新北市中和區景平路999巷1號","121.495453333333","25.0059583333333","6500300","中和區"
"235021","801-TS","2018/08/02 13:19:32","新北市中和區民利街19-3號","121.48039","24.9990733333333","6500300","中和區"
"235005","802-TS","2018/08/02 13:19:36","新北市中和區中和路260-1號","121.508155","24.9994433333333","6500300","中和區"
"235016","805-TS","2018/08/02 13:19:27","新北市中和區興南路二段145號","121.505146666667","24.9838283333333","6500300","中和區"
"235017","900-TW","2018/08/02 13:19:40","新北市中和區員山路36巷16-2號","121.4851","24.9916516666667","6500300","中和區"
"235015","157-BY","2018/08/02 13:19:38","新北市中和區仁愛街93號","121.511856666667","24.986885","6500300","中和區"
"235001","AAC-213","2018/08/02 13:19:34","新北市中和區景德街75號","121.516636666667","24.9914333333333","6500300","中和區"
"235023","AAC-215","2018/08/02 13:19:43","新北市中和區員山路36巷16-3號","121.48497","24.99133","6500300","中和區"
"247005","336-TH","2018/08/02 13:19:37","新北市五股區中興路三段163號","121.44909","25.0806666666667","6501400","蘆洲區"
"247007","056-VK","2018/08/02 13:19:31","新北市五股區中興路三段2巷10號","121.449446666667","25.0807816666667","6501400","蘆洲區"
"235013","251-BX","2018/08/02 13:19:42","新北市中和區中正路589巷15號","121.48578","24.99356","6500300","中和區"
"228005","097-TW","2018/08/02 13:19:31","新北市貢寮區美豐里丹裡街18-1號","121.91271","25.0572283333333","6502600","貢寮區"
"228004","212-TW","2018/08/02 13:19:42","新北市貢寮區吉林里內寮街23號","121.9018","24.98429","6502600","貢寮區"
"253003","6232-TK","2018/08/02 13:19:37","新北市石門區內石門50-1號","121.571946666667","25.261725","6502200","石門區"
"253001","6251-TK","2018/08/02 13:19:30","新北市石門區楓林6號","121.537653333333","25.2964","6502200","石門區"
"253002","637-UY","2018/08/02 13:19:29","新北市石門區九芎林17號","121.553198333333","25.2705316666667","6502200","石門區"
"253004","8270-PC","2018/08/02 13:19:42","新北市石門區阿里荖69號","121.61206","25.270075","6502200","石門區"
"207002","749-BX","2018/08/02 13:19:41","新北市萬里區崁腳里崁腳路166號","121.645015","25.1558283333333","6502800","萬里區"
"207001","662-BX","2018/08/02 13:19:46","新北市萬里區龜吼里玉田路29號","121.681105","25.1955216666667","6502800","萬里區"
"252005","AAC-283","2018/08/02 13:19:33","新北市三芝區八賢里八連溪69號","121.518193333333","25.2309316666667","6502100","三芝區"
"236005","498-BY","2018/08/02 13:19:34","新北市土城區亞洲路108巷1弄2號","121.43363","24.9723133333333","6501300","土城區"
"221010","269-BY","2018/08/02 13:19:34","新北市汐止區康寧街604號","121.63597","25.0706766666667","6501100","汐止區"
"221032","280-BY","2018/08/02 13:19:31","新北市汐止區新興路4號","121.656328333333","25.0649833333333","6501100","汐止區"
"220005","686-BX","2018/08/02 13:19:32","新北市板橋區華東街1-9號","121.448248333333","24.994885","6500100","板橋區"
"220025","687-BX","2018/08/02 13:19:31","新北市板橋區華東街1-10號","121.448323333333","24.9948933333333","6500100","板橋區"
"235032","KEA-2873","2018/08/02 13:19:42","新北市中和區中正路637巷52弄1號","121.485575","24.9934616666667","6500300","中和區"
"235025","KEA-2875","2018/08/02 13:19:18","新北市中和區民享街116巷8號","121.474058333333","24.9989283333333","6500300","中和區"
