"lineid","car","time","location","longitude","latitude","cityid","cityname"
"234044","148-BY","2018/08/02 13:59:44","新北市永和區永元路120號","121.522883333333","25.0024766666667","6500400","永和區"
"234070","149-BY","2018/08/02 13:59:32","新北市永和區國中路2號","121.524161666667","25.0041866666667","6500400","永和區"
"234005","207-UY","2018/08/02 13:59:33","新北市中和區中和路382號","121.510863333333","25.002185","6500400","永和區"
"234078","298-R6","2018/08/02 13:59:36","新北市永和區永利路81巷5號","121.521623333333","25.00381","6500400","永和區"
"234062","337-UY","2018/08/02 13:59:31","新北市永和區中正路412巷2弄11號","121.51853","25.0019466666667","6500400","永和區"
"234084","338-UY","2018/08/02 13:59:40","新北市永和區福和路256號","121.518411666667","25.007565","6500400","永和區"
"234068","552-UM","2018/08/02 13:59:45","新北市永和區國光路6號","121.519628333333","25.008585","6500400","永和區"
"234015","745-BX","2018/08/02 13:59:38","新北市永和區文化路122號","121.513115","25.0153183333333","6500400","永和區"
"234028","746-BX","2018/08/02 13:59:27","新北市永和區厚德街2號","121.52573","24.9975916666667","6500400","永和區"
"234052","KEA-2590","2018/08/02 13:59:35","新北市永和區竹林路58號","121.517918333333","25.01391","6500400","永和區"
"234012","KEA-2591","2018/08/02 13:59:29","新北市永和區保生路55號","121.50475","25.01066","6500400","永和區"
"234060","AAD-866","2018/08/02 13:59:44","新北市永和區中正路151巷14號","121.51564","24.9989016666667","6500400","永和區"
"234036","847-RS","2018/08/02 13:59:43","新北市永和區成功路二段195號","121.526571666667","24.996325","6500400","永和區"
"234040","862-TW","2018/08/02 13:59:28","新北市永和區中和路335巷18弄5號","121.507646666667","25.0003233333333","6500400","永和區"
"234048","863-TW","2018/08/02 13:59:38","新北市永和區保安路151號","121.506811666667","25.0130683333333","6500400","永和區"
"234025","9371-KE","2018/08/02 13:59:44","新北市永和區安樂路467號","121.514348333333","25.0054733333333","6500400","永和區"
"234010","9373-KE","2018/08/02 13:59:39","新北市永和區仁愛路352巷112弄19號","121.501195","25.0086366666667","6500400","永和區"
"248015","026-BX","2018/08/02 13:59:45","新北市五股區成泰路三段559巷14弄2號","121.451383333333","25.102435","6501500","五股區"
"248007","095-VK","2018/08/02 13:59:33","新北市五股區中興路一段128巷35號","121.46563","25.0749366666667","6501500","五股區"
"248017","225-UY","2018/08/02 13:59:45","新北市五股區民義路一段287巷9-2號","121.424361666667","25.0913966666667","6501500","五股區"
"248011","247-BX","2018/08/02 13:59:34","新北市五股區成泰路二段195巷1號","121.440365","25.087355","6501500","五股區"
"248003","677-BX","2018/08/02 13:59:34","新北市五股區民義路二段52-23號","121.40965","25.1051033333333","6501500","五股區"
"248001","678-BX","2018/08/02 13:59:42","新北市五股區凌雲路一段156巷1號","121.448946666667","25.1026633333333","6501500","五股區"
"248009","682-TV","2018/08/02 13:59:34","新北市五股區水碓二路1號","121.430608333333","25.0712916666667","6501500","五股區"
"234022","9380-KE","2018/08/02 13:59:28","新北市永和區中正路702巷18號","121.516453333333","25.0104883333333","6500400","永和區"
"234076","969-R7","2018/08/02 13:59:46","新北市永和區民權路33號","121.52","24.997775","6500400","永和區"
"234072","AAC-211","2018/08/02 13:59:45","新北市永和區豫溪街161-1號","121.521513333333","25.01046","6500400","永和區"
"234066","AAC-212","2018/08/02 13:59:29","新北市永和區永貞路358號","121.5103","25.006655","6500400","永和區"
"234001","AAC-295","2018/08/02 13:59:39","新北市永和區福和路318號","121.515733333333","25.0072583333333","6500400","永和區"
"243005","AAD-798","2018/08/02 13:59:33","新北市泰山區明志路三段239號","121.423523333333","25.0377616666667","6501600","泰山區"
"243008","KEA-2801","2018/08/02 13:59:30","新北市泰山區明志路二段152-2號","121.427533333333","25.0505083333333","6501600","泰山區"
"243007","421-VK","2018/08/02 13:59:30","新北市泰山區泰林路二段330號","121.430006666667","25.0632416666667","6501600","泰山區"
"243003","KEA-2215","2018/08/02 13:59:38","新北市泰山區明志路二段268號","121.42686","25.0473266666667","6501600","泰山區"
"243004","646-TV","2018/08/02 13:59:44","新北市泰山區福興三街156號","121.433073333333","25.0571833333333","6501600","泰山區"
"243006","680-BX","2018/08/02 13:59:32","新北市泰山區黎明路23號","121.420895","25.0626416666667","6501600","泰山區"
"231002","002-UM","2018/08/02 13:59:34","新北市新店區中正路707號","121.533643333333","24.991275","6500600","新店區"
"231001","047-UY","2018/08/02 13:59:33","新北市新店區三民路20巷3號","121.537251666667","24.97095","6500600","新店區"
"231005","106-UY","2018/08/02 13:59:32","新北市新店區寶中路45-3號","121.54492","24.9794","6500600","新店區"
"231010","107-UY","2018/08/02 13:59:25","新北市新店區環河路22號","121.53695","24.961815","6500600","新店區"
"231021","108-UY","2018/08/02 13:59:43","新北市新店區新烏路二段40號","121.54484","24.9283316666667","6500600","新店區"
"231011","187-VK","2018/08/02 13:59:39","新北市新店區中興路二段59號","121.546336666667","24.970525","6500600","新店區"
"231023","KEA-2219","2018/08/02 13:59:42","新北市新店區文中路40號","121.539781666667","24.95656","6500600","新店區"
"231026","256-BX","2018/08/02 13:59:40","新北市新店區環河路18號","121.537025","24.9616966666667","6500600","新店區"
"231003","268-BY","2018/08/02 13:59:31","新北市新店區中興路一段110-1號","121.541136666667","24.96229","6500600","新店區"
"231018","278-BY","2018/08/02 13:59:32","新北市新店區中央路133巷11號","121.531048333333","24.9735366666667","6500600","新店區"
"231017","AAD-862","2018/08/02 13:59:25","新北市新店區郵政路4巷8號","121.556835","24.9516583333333","6500600","新店區"
"231028","355-BY","2018/08/02 13:59:29","新北市新店區安和路三段4號","121.517978333333","24.98089","6500600","新店區"
"231038","3712-VJ","2018/08/02 13:59:40","新北市新店區安華路30巷3號","121.519553333333","24.9592116666667","6500600","新店區"
"231027","3713-VJ","2018/08/02 13:59:41","新北市新店區中興路一段24-2號","121.538543333333","24.9583316666667","6500600","新店區"
"231037","4716-K9","2018/08/02 13:59:47","新北市新店區安康路三段242號","121.487796666667","24.9517633333333","6500600","新店區"
"231025","4715-K9","2018/08/02 13:59:30","新北市新店區中正路328巷45號","121.53811","24.9764866666667","6500600","新店區"
"231036","512-UM","2018/08/02 13:59:38","新北市新店區安祥路108巷35號","121.474958333333","24.9571016666667","6500600","新店區"
"231013","513-UM","2018/08/02 13:59:30","新北市新店區明德路111號","121.54148","24.9794483333333","6500600","新店區"
"231034","616-UM","2018/08/02 13:59:31","新北市新店區達觀路10號","121.50354","24.94385","6500600","新店區"
"231006","617-UM","2018/08/02 13:59:39","新北市新店區北宜路二段213號","121.553251666667","24.9533866666667","6500600","新店區"
"231030","619-UM","2018/08/02 13:59:28","新北市新店區安康路一段230-3號","121.52244","24.9637233333333","6500600","新店區"
"231035","719-UM","2018/08/02 13:59:32","新北市新店區安忠路2號","121.51445","24.9635233333333","6500600","新店區"
"231031","720-UM","2018/08/02 13:59:36","新北市新店區華城路10巷2-2號","121.529403333333","24.9589866666667","6500600","新店區"
"231029","897-TW","2018/08/02 13:59:39","新北市新店區安康路二段6號","121.516351666667","24.9638","6500600","新店區"
"231004","899-TW","2018/08/02 13:59:28","新北市新店區北新路二段107號","121.542936666667","24.9744633333333","6500600","新店區"
"231024","AKT-0513","2018/08/02 13:58:03","新北市新店區新生街13巷16號","121.539171666667","24.9658766666667","6500600","新店區"
"235030","003-UY","2018/08/02 13:59:26","新北市中和區中山路二段131巷5弄5號","121.502881666667","25.0029033333333","6500300","中和區"
"235028","005-UY","2018/08/02 13:59:36","新北市中和區泰和街30巷27號","121.498813333333","25.0013483333333","6500300","中和區"
"235027","006-UY","2018/08/02 13:59:38","新北市中和區中正路568號","121.486576666667","24.9946","6500300","中和區"
"235020","096-UM","2018/08/02 13:59:43","新北市板橋區三民路二段228號","121.478746666667","25.0113566666667","6500300","中和區"
"235003","097-UM","2018/08/02 13:59:45","新北市中和區景平路4號","121.5242","24.9907516666667","6500300","中和區"
"235029","098-UM","2018/08/02 13:59:38","新北市中和區勝利路35巷14號","121.498918333333","25.007235","6500300","中和區"
"235004","150-BY","2018/08/02 13:59:27","新北市中和區保健路63-1號","121.509673333333","24.9972483333333","6500300","中和區"
"235022","151-BY","2018/08/02 13:59:47","新北市中和區員山路75號","121.480638333333","24.9942","6500300","中和區"
"235019","183-VK","2018/08/02 13:59:31","新北市板橋區民族路276巷1弄25號","121.470508333333","25.0064116666667","6500300","中和區"
"235002","185-VK","2018/08/02 13:59:42","新北市中和區立人街12號","121.519375","24.99427","6500300","中和區"
"235008","293-VK","2018/08/02 13:59:29","新北市中和區中興街161巷6弄2號","121.500666666667","24.9909066666667","6500300","中和區"
"235036","301-VK","2018/08/02 13:59:29","新北市中和區中山路二段31號","121.504758333333","25.0051916666667","6500300","中和區"
"235007","352-BY","2018/08/02 13:59:43","新北市中和區秀朗路三段44號","121.526433333333","24.9957383333333","6500300","中和區"
"235006","KEA-2878","2018/08/02 13:59:34","新北市中和區秀朗路三段22巷10號","121.525831666667","24.9963416666667","6500300","中和區"
"247009","KEA-2869","2018/08/02 13:59:37","新北市蘆洲區集賢路222-6號","121.482491666667","25.08661","6501400","蘆洲區"
"235014","4979-A6","2018/08/02 13:59:27","新北市中和區忠孝街58巷30弄9號","121.512118333333","24.9826183333333","6500300","中和區"
"235033","4980-A6","2018/08/02 13:59:41","新北市中和區圓通路61號","121.500516666667","24.9971633333333","6500300","中和區"
"235034","558-UM","2018/08/02 13:59:36","新北市中和區中和路174號","121.504806666667","24.9997183333333","6500300","中和區"
"235009","565-BX","2018/08/02 13:59:28","新北市中和區景新街467巷20弄11號","121.51454","24.9875766666667","6500300","中和區"
"235018","640-BX","2018/08/02 13:59:38","新北市中和區國光街107巷4弄28號","121.469945","24.99889","6500300","中和區"
"235024","647-TV","2018/08/02 13:59:25","新北市中和區民治街6巷1號","121.474903333333","25.0053783333333","6500300","中和區"
"235011","732-UM","2018/08/02 13:59:47","新北市中和區興南路二段54巷11弄1號","121.505743333333","24.9856483333333","6500300","中和區"
"235010","733-UM","2018/08/02 13:59:27","新北市中和區興南路一段135巷22弄4號","121.509103333333","24.9868583333333","6500300","中和區"
"235035","783-BX","2018/08/02 13:59:44","新北市中和區立德街112號","121.487375","25.0084383333333","6500300","中和區"
"235026","800-TS","2018/08/02 13:59:35","新北市中和區中山路二段344號","121.493438333333","25.0025016666667","6500300","中和區"
"235021","801-TS","2018/08/02 13:59:32","新北市中和區民利街90號","121.477883333333","24.998","6500300","中和區"
"235005","802-TS","2018/08/02 13:59:42","新北市中和區中安街32-1號","121.513211666667","25.002895","6500300","中和區"
"235016","805-TS","2018/08/02 13:59:47","新北市中和區興南路二段261巷7-1號","121.50324","24.9798683333333","6500300","中和區"
"235012","896-TW","2018/08/02 13:59:34","新北市中和區華新街70-1號","121.508236666667","24.9836583333333","6500300","中和區"
"235017","900-TW","2018/08/02 13:59:40","新北市中和區民德路332號","121.466535","24.99408","6500300","中和區"
"235015","157-BY","2018/08/02 13:59:38","新北市中和區忠孝街19巷31號","121.50965","24.9844966666667","6500300","中和區"
"235001","AAC-213","2018/08/02 13:59:34","新北市中和區秀朗路三段10巷14弄100號","121.523308333333","24.99671","6500300","中和區"
"235023","AAC-215","2018/08/02 13:59:43","新北市中和區圓通路367巷20弄23號","121.491441666667","24.9883966666667","6500300","中和區"
"220013","072-UY","2018/08/02 13:59:44","新北市板橋區漢生東路324號","121.471808333333","25.0079333333333","6500100","板橋區"
"220034","073-UY","2018/08/02 13:59:36","新北市板橋區中正路236巷27號","121.457111666667","25.01932","6500100","板橋區"
"220017","AAD-861","2018/08/02 13:59:45","新北市板橋區華興街55-4號","121.457475","25.0047383333333","6500100","板橋區"
"220105","120-SR","2018/08/02 13:59:43","新北市板橋區莒光路58號","121.470913333333","25.0242466666667","6500100","板橋區"
"247013","546-UM","2018/08/02 13:59:38","新北市蘆洲區中正路185巷2號","121.468501666667","25.0855933333333","6501400","蘆洲區"
"247011","339-TH","2018/08/02 13:59:41","新北市蘆洲區民族路156號","121.479551666667","25.08614","6501400","蘆洲區"
"247003","337-TH","2018/08/02 13:59:29","新北市蘆洲區長榮路38-5號","121.463245","25.0829166666667","6501400","蘆洲區"
"247005","336-TH","2018/08/02 13:59:37","新北市蘆洲區永安南路二段54號","121.465706666667","25.077795","6501400","蘆洲區"
"247017","057-VK","2018/08/02 13:59:40","新北市蘆洲區民族路327巷140號","121.475408333333","25.0893416666667","6501400","蘆洲區"
"247007","056-VK","2018/08/02 13:59:31","新北市蘆洲區集賢路255號","121.481511666667","25.084695","6501400","蘆洲區"
"247015","007-UY","2018/08/02 13:59:28","新北市蘆洲區光華路22巷4號","121.469368333333","25.0836483333333","6501400","蘆洲區"
"247001","002-UY","2018/08/02 13:59:37","新北市蘆洲區永平街32巷74號","121.460486666667","25.093605","6501400","蘆洲區"
"247019","001-UY","2018/08/02 13:59:40","新北市蘆洲區民族路422巷35-1號","121.473545","25.09376","6501400","蘆洲區"
"235013","251-BX","2018/08/02 13:59:41","新北市中和區景安路167巷7號","121.505815","24.9947983333333","6500300","中和區"
"228005","097-TW","2018/08/02 13:54:31","新北市貢寮區美豐里土地公嶺24號","121.890851666667","25.0641916666667","6502600","貢寮區"
"228004","212-TW","2018/08/02 13:59:22","新北市貢寮區龍崗里泮宮路51-1號","121.908153333333","25.0169016666667","6502600","貢寮區"
"253003","6232-TK","2018/08/02 13:59:37","新北市石門區尖子鹿47-2號","121.581221666667","25.26807","6502200","石門區"
"253001","6251-TK","2018/08/02 13:59:30","新北市石門區下員坑49號","121.51792","25.2735666666667","6502200","石門區"
"253002","637-UY","2018/08/02 13:59:29","新北市石門區七股33-1號","121.552733333333","25.26127","6502200","石門區"
"253004","8270-PC","2018/08/02 13:59:42","新北市石門區小坑37號","121.59713","25.2669416666667","6502200","石門區"
"207002","749-BX","2018/08/02 13:57:41","新北市萬里區溪底里烏塗炭9號","121.63761","25.1516716666667","6502800","萬里區"
"207001","662-BX","2018/08/02 13:59:26","新北市萬里區磺潭里清水2-2號","121.642166666667","25.2013966666667","6502800","萬里區"
"252005","AAC-283","2018/08/02 13:59:33","新北市三芝區圓山里二坪頂47號","121.538773333333","25.242865","6502100","三芝區"
"236040","107-UM","2018/08/02 13:59:29","新北市土城區中央路一段258號","121.444246666667","24.9842883333333","6501300","土城區"
"236074","166-UM","2018/08/02 13:59:38","新北市土城區永寧路32巷42弄8號","121.428183333333","24.9611983333333","6501300","土城區"
"236029","253-BX","2018/08/02 13:59:31","新北市土城區城林路6巷80號","121.438521666667","24.97976","6501300","土城區"
"236024","269-VK","2018/08/02 13:59:36","新北市土城區承天路37號","121.437626666667","24.9646366666667","6501300","土城區"
"236012","270-VK","2018/08/02 13:59:39","新北市土城區城林路6巷80號","121.438528333333","24.9797383333333","6501300","土城區"
"236032","271-VK","2018/08/02 13:59:33","新北市土城區城林路6巷80號","121.438256666667","24.979525","6501300","土城區"
"236068","KEA-2877","2018/08/02 13:59:38","新北市土城區金城路一段88巷22號","121.445733333333","24.9729083333333","6501300","土城區"
"236017","401-BY","2018/08/02 13:59:40","新北市土城區城林路6巷80號","121.438406666667","24.9797833333333","6501300","土城區"
"236005","498-BY","2018/08/02 13:59:34","新北市土城區中央路一段365巷27弄1號","121.446648333333","24.9798566666667","6501300","土城區"
"236057","912-UM","2018/08/02 13:59:29","新北市土城區中央路三段254-2號","121.42745","24.96407","6501300","土城區"
"236045","913-UM","2018/08/02 13:59:37","新北市土城區城林路6巷80號","121.438363333333","24.9798066666667","6501300","土城區"
"236060","915-UM","2018/08/02 13:59:25","新北市土城區城林路6巷80號","121.438456666667","24.9797783333333","6501300","土城區"
"236054","AAC-216","2018/08/02 13:59:30","新北市土城區中央路二段215號","121.441103333333","24.9740233333333","6501300","土城區"
"221010","269-BY","2018/08/02 13:59:33","新北市汐止區長青路210巷52號","121.614886666667","25.1171333333333","6501100","汐止區"
"220027","145-BY","2018/08/02 13:59:41","新北市板橋區大智街71巷3弄1號","121.453505","25.0152966666667","6500100","板橋區"
"220028","200-UY","2018/08/02 13:59:42","新北市板橋區樂群路42號","121.444508333333","24.997475","6500100","板橋區"
"220030","610-BX","2018/08/02 13:59:44","新北市板橋區溪崑一街122號","121.42917","24.9885016666667","6500100","板橋區"
"220050","245-BX","2018/08/02 13:59:40","新北市板橋區莊敬路123號","121.47198","25.0254983333333","6500100","板橋區"
"220004","276-BY","2018/08/02 13:59:30","新北市板橋區信義路115號","121.45774","24.9934366666667","6500100","板橋區"
"220020","277-BY","2018/08/02 13:59:41","新北市板橋區溪北路111號","121.430161666667","24.9888483333333","6500100","板橋區"
"220019","283-VK","2018/08/02 13:59:44","新北市板橋區重慶路245巷50弄32號","121.465355","25.000575","6500100","板橋區"
"220043","285-UM","2018/08/02 13:59:35","新北市板橋區光武街17號","121.467835","25.024825","6500100","板橋區"
"220001","285-VK","2018/08/02 13:59:45","新北市板橋區永豐街49巷7號","121.473851666667","25.01755","6500100","板橋區"
"220031","286-VK","2018/08/02 13:59:44","新北市板橋區大觀路一段38巷160號","121.442226666667","25.0045233333333","6500100","板橋區"
"220029","287-VK","2018/08/02 13:59:35","新北市板橋區光華街24巷1號","121.454028333333","25.0122666666667","6500100","板橋區"
"220039","288-VK","2018/08/02 13:59:44","新北市板橋區互助街25巷9號","121.463238333333","25.0270883333333","6500100","板橋區"
"220009","293-UM","2018/08/02 13:59:33","新北市板橋區永豐街120巷3號","121.476655","25.0206433333333","6500100","板橋區"
"220010","295-UM","2018/08/02 13:59:45","新北市板橋區三民路二段245巷39號","121.480496666667","25.012585","6500100","板橋區"
"220032","296-UM","2018/08/02 13:59:47","新北市板橋區大觀路二段339號","121.441196666667","24.9984983333333","6500100","板橋區"
"220023","303-R5","2018/08/02 13:59:40","新北市板橋區南雅西路二段4號","121.453581666667","25.0090716666667","6500100","板橋區"
"220041","307-R5","2018/08/02 13:59:35","新北市板橋區文化路一段104巷1弄9號","121.465386666667","25.01806","6500100","板橋區"
"220047","317-R6","2018/08/02 13:59:37","新北市板橋區民有街49號","121.465548333333","25.0259883333333","6500100","板橋區"
"220012","486-VK","2018/08/02 13:59:36","新北市板橋區漢生東路170號","121.466948333333","25.0146016666667","6500100","板橋區"
"220037","491-VK","2018/08/02 13:59:48","新北市板橋區民生路二段234巷9號","121.468521666667","25.02291","6500100","板橋區"
"220104","560-BX","2018/08/02 13:59:43","新北市板橋區中正路296號","121.454995","25.0205566666667","6500100","板橋區"
"220052","561-BX","2018/08/02 13:59:46","新北市板橋區縣民大道二段200巷13號","121.46991","25.0176433333333","6500100","板橋區"
"220011","609-BX","2018/08/02 13:59:39","新北市板橋區中山路二段125號","121.475125","25.0164416666667","6500100","板橋區"
"220040","637-BX","2018/08/02 13:59:35","新北市板橋區大同街52號","121.478893333333","25.027585","6500100","板橋區"
"220005","686-BX","2018/08/02 13:59:34","新北市板橋區重慶路182號","121.462465","25.0034283333333","6500100","板橋區"
"220025","687-BX","2018/08/02 13:59:31","新北市板橋區大觀路二段174巷177號","121.442065","25.0036616666667","6500100","板橋區"
"220042","689-BX","2018/08/02 13:59:30","新北市板橋區民生路三段136號","121.466321666667","25.0269366666667","6500100","板橋區"
"220002","741-BX","2018/08/02 13:59:41","新北市板橋區成都街23號","121.460776666667","25.0049016666667","6500100","板橋區"
"220051","KEA-2699","2018/08/02 13:59:26","新北市板橋區萬板路706號","121.481573333333","25.0274283333333","6500100","板橋區"
"220003","827-TW","2018/08/02 13:59:30","新北市板橋區中山路一段158巷20號","121.466361666667","25.0112416666667","6500100","板橋區"
"220014","829-TW","2018/08/02 13:59:40","新北市板橋區三民路二段148號","121.478883333333","25.015225","6500100","板橋區"
"220016","830-TW","2018/08/02 13:59:18","新北市板橋區中山路二段443巷70號","121.481021666667","25.0220283333333","6500100","板橋區"
"220045","831-TW","2018/08/02 13:59:33","新北市板橋區莒光路133巷7弄3號","121.472585","25.02421","6500100","板橋區"
"220038","833-TW","2018/08/02 13:59:27","新北市板橋區文化路二段317號","121.472216666667","25.0297533333333","6500100","板橋區"
"220022","895-R6","2018/08/02 13:59:28","新北市板橋區南雅南路一段98號","121.455038333333","25.004715","6500100","板橋區"
"220021","985-R7","2018/08/02 13:59:31","新北市板橋區館前西路195號","121.45521","25.00833","6500100","板橋區"
"220046","AAC-210","2018/08/02 13:59:41","新北市板橋區國光路200號","121.461826666667","25.0183683333333","6500100","板橋區"
"220018","AAC-253","2018/08/02 13:59:37","新北市板橋區忠孝路2號","121.459338333333","25.00165","6500100","板橋區"
"235032","KEA-2873","2018/08/02 13:59:42","新北市中和區連勝街38巷26號","121.49766","24.998235","6500300","中和區"
"235025","KEA-2875","2018/08/02 13:59:18","新北市中和區民有街35號","121.475803333333","25.00502","6500300","中和區"
