"lineid","car","time","location","longitude","latitude","cityid","cityname"
"234044","148-BY","2018/08/02 14:09:44","新北市永和區成功路一段124號","121.526841666667","25.00232","6500400","永和區"
"234070","149-BY","2018/08/02 14:09:31","新北市中和區環河西路三段123號","121.489515","25.01034","6500400","永和區"
"234005","207-UY","2018/08/02 14:09:33","新北市中和區中和路318號","121.509385","25.000585","6500400","永和區"
"234078","298-R6","2018/08/02 14:09:36","新北市永和區國中路53號","121.524543333333","25.0061","6500400","永和區"
"234062","337-UY","2018/08/02 14:09:31","新北市永和區永利路152號","121.52249","25.0027633333333","6500400","永和區"
"234084","338-UY","2018/08/02 14:09:35","新北市永和區福和路193號","121.519671666667","25.0075366666667","6500400","永和區"
"234068","552-UM","2018/08/02 14:09:45","新北市永和區中正路636號","121.517086666667","25.0082033333333","6500400","永和區"
"234015","745-BX","2018/08/02 14:09:38","新北市永和區仁愛路24號","121.514693333333","25.0135133333333","6500400","永和區"
"234028","746-BX","2018/08/02 14:09:47","新北市永和區民權路49巷2號","121.520311666667","24.9969816666667","6500400","永和區"
"234052","KEA-2590","2018/08/02 14:09:35","新北市永和區博愛街57巷1號","121.519958333333","25.01608","6500400","永和區"
"234012","KEA-2591","2018/08/02 14:09:29","新北市永和區永貞路387號","121.508016666667","25.008805","6500400","永和區"
"234060","AAD-866","2018/08/02 14:09:44","新北市永和區安樂路100巷11號","121.51449","24.9992033333333","6500400","永和區"
"234036","847-RS","2018/08/02 14:09:43","新北市永和區成功路一段64巷3號","121.526626666667","25.0034766666667","6500400","永和區"
"234040","862-TW","2018/08/02 14:09:30","新北市永和區雙和街64巷7號","121.509348333333","25.0034883333333","6500400","永和區"
"234048","863-TW","2018/08/02 14:09:39","新北市永和區環河西路二段73號","121.506871666667","25.0151183333333","6500400","永和區"
"234025","9371-KE","2018/08/02 14:09:42","新北市永和區安樂路272巷9弄7號","121.51508","25.0046166666667","6500400","永和區"
"234010","9373-KE","2018/08/02 14:09:39","新北市永和區仁愛路352巷122弄13號","121.50074","25.0088316666667","6500400","永和區"
"248015","026-BX","2018/08/02 14:09:25","新北市五股區成泰路三段543巷56號","121.449618333333","25.1031466666667","6501500","五股區"
"248007","095-VK","2018/08/02 14:09:33","新北市五股區中興路一段118巷6弄21號","121.466268333333","25.07496","6501500","五股區"
"248017","225-UY","2018/08/02 14:09:25","新北市五股區民義路一段251號","121.42789","25.0909083333333","6501500","五股區"
"248011","247-BX","2018/08/02 14:09:34","新北市五股區工商路18巷23弄22號","121.439821666667","25.0843583333333","6501500","五股區"
"248003","677-BX","2018/08/02 14:09:34","新北市五股區民義路一段176號","121.43286","25.0878216666667","6501500","五股區"
"248001","678-BX","2018/08/02 14:09:42","新北市五股區成泰路三段577巷77號","121.449736666667","25.1036166666667","6501500","五股區"
"248009","682-TV","2018/08/02 14:09:34","新北市五股區水碓一路23號","121.430653333333","25.0712733333333","6501500","五股區"
"234022","9380-KE","2018/08/02 14:09:28","新北市永和區復興街39號","121.516493333333","25.0132216666667","6500400","永和區"
"234076","969-R7","2018/08/02 14:09:48","新北市永和區民權路98號","121.519868333333","24.9966583333333","6500400","永和區"
"234072","AAC-211","2018/08/02 14:09:33","新北市永和區竹林路201巷24弄5號","121.522516666667","25.0097216666667","6500400","永和區"
"234066","AAC-212","2018/08/02 14:09:40","新北市永和區保平路214巷1弄8號","121.509163333333","25.0059816666667","6500400","永和區"
"234001","AAC-295","2018/08/02 14:09:38","新北市永和區永和路二段5號","121.514288333333","25.010155","6500400","永和區"
"243005","AAD-798","2018/08/02 14:09:33","新北市泰山區台麗街16巷11號","121.424395","25.03761","6501600","泰山區"
"243001","297-R6","2018/08/02 14:09:44","新北市泰山區楓樹街15巷28號","121.43454","25.06318","6501600","泰山區"
"243008","KEA-2801","2018/08/02 14:09:30","新北市泰山區明志路二段353號","121.425445","25.044475","6501600","泰山區"
"243007","421-VK","2018/08/02 14:09:46","新北市泰山區明志路一段452號","121.430675","25.0557816666667","6501600","泰山區"
"243003","KEA-2215","2018/08/02 14:09:38","新北市泰山區明志路二段329號","121.425741666667","25.04488","6501600","泰山區"
"243002","KEA-2216","2018/08/02 14:09:37","新北市泰山區仁愛路39巷27號","121.430941666667","25.0553483333333","6501600","泰山區"
"243004","646-TV","2018/08/02 14:09:43","新北市泰山區辭修路36巷1弄1號","121.427956666667","25.0583033333333","6501600","泰山區"
"243006","680-BX","2018/08/02 14:09:32","新北市泰山區泰林路二段478-1號","121.425176666667","25.06419","6501600","泰山區"
"231002","002-UM","2018/08/02 14:09:34","新北市新店區中正路513號","121.533516666667","24.9848783333333","6500600","新店區"
"231001","047-UY","2018/08/02 14:09:33","新北市新店區中華路52號","121.53964","24.968505","6500600","新店區"
"231005","106-UY","2018/08/02 14:09:32","新北市新店區中興路三段304號","121.542366666667","24.9852566666667","6500600","新店區"
"231010","107-UY","2018/08/02 14:09:46","新北市新店區安一路一段1-1號","121.519646666667","24.9610483333333","6500600","新店區"
"231021","108-UY","2018/08/02 14:09:43","新北市新店區屈尺路75號","121.545558333333","24.9226716666667","6500600","新店區"
"231011","187-VK","2018/08/02 14:09:39","新北市新店區五峰路137號","121.544985","24.9658683333333","6500600","新店區"
"231023","KEA-2219","2018/08/02 14:09:42","新北市新店區文中路40號","121.539631666667","24.9566","6500600","新店區"
"231003","268-BY","2018/08/02 14:09:31","新北市新店區北宜路一段3號","121.538403333333","24.95842","6500600","新店區"
"231018","278-BY","2018/08/02 14:09:32","新北市新店區中央五街31號","121.528886666667","24.9748583333333","6500600","新店區"
"231017","AAD-862","2018/08/02 14:09:25","新北市新店區中生路148-2號","121.568676666667","24.9490433333333","6500600","新店區"
"231028","355-BY","2018/08/02 14:09:40","新北市新店區安和路三段53號","121.517925","24.98274","6500600","新店區"
"231038","3712-VJ","2018/08/02 14:09:40","新北市新店區安康路一段285號","121.523328333333","24.96361","6500600","新店區"
"231027","3713-VJ","2018/08/02 14:09:41","新北市新店區光明街138巷13弄9號","121.540145","24.961495","6500600","新店區"
"231037","4716-K9","2018/08/02 14:09:32","新北市新店區安康路三段170號","121.48974","24.951815","6500600","新店區"
"231025","4715-K9","2018/08/02 14:09:30","新北市新店區二十張路129巷5弄3號","121.536616666667","24.9787766666667","6500600","新店區"
"231036","512-UM","2018/08/02 14:09:38","新北市新店區安祥路109巷1弄41號","121.477076666667","24.9603883333333","6500600","新店區"
"231013","513-UM","2018/08/02 14:09:30","新北市新店區北新路3段65巷34弄29-1號","121.540081666667","24.9819833333333","6500600","新店區"
"231034","616-UM","2018/08/02 14:09:31","新北市新店區車子路11號","121.503018333333","24.952015","6500600","新店區"
"231006","617-UM","2018/08/02 14:09:39","新北市新店區北宜路二段150-2號","121.557973333333","24.9540633333333","6500600","新店區"
"231030","619-UM","2018/08/02 14:09:28","新北市新店區安興路7-1號","121.514965","24.9685433333333","6500600","新店區"
"231035","719-UM","2018/08/02 14:09:32","新北市新店區安和路一段52巷2-1號","121.51768","24.96626","6500600","新店區"
"231031","720-UM","2018/08/02 14:09:36","新北市新店區永業路31巷1號","121.532948333333","24.9555816666667","6500600","新店區"
"231029","897-TW","2018/08/02 14:09:30","新北市新店區安康路二段125-1號","121.512426666667","24.96116","6500600","新店區"
"231004","899-TW","2018/08/02 14:09:28","新北市新店區北新路二段187號","121.542826666667","24.9776983333333","6500600","新店區"
"231024","AKT-0513","2018/08/02 14:09:43","新北市新店區光華街38巷11號","121.515748333333","24.9701233333333","6500600","新店區"
"235030","003-UY","2018/08/02 14:09:46","新北市中和區廣福路30號","121.504718333333","25.0024183333333","6500300","中和區"
"235028","005-UY","2018/08/02 14:09:36","新北市中和區連城路23巷7號","121.499045","25.0017266666667","6500300","中和區"
"235027","006-UY","2018/08/02 14:09:38","新北市中和區連城路249巷12弄1號","121.493856666667","24.9962166666667","6500300","中和區"
"235020","096-UM","2018/08/02 14:09:49","新北市中和區中山路三段1號","121.479883333333","25.0059983333333","6500300","中和區"
"235003","097-UM","2018/08/02 14:09:45","新北市中和區秀峰街119巷6弄2號","121.519648333333","24.990085","6500300","中和區"
"235029","098-UM","2018/08/02 14:09:38","新北市中和區中山路二段136巷40號","121.50122","25.00446","6500300","中和區"
"235004","150-BY","2018/08/02 14:09:47","新北市中和區保健路44巷10號","121.509183333333","24.9969133333333","6500300","中和區"
"235022","151-BY","2018/08/02 14:09:47","新北市中和區連城路378號","121.481001666667","24.9951866666667","6500300","中和區"
"235019","183-VK","2018/08/02 14:09:31","新北市中和區德光路92-2號","121.468715","25.0035216666667","6500300","中和區"
"235002","185-VK","2018/08/02 14:09:42","新北市中和區大仁街10巷9弄29號","121.519278333333","24.9928333333333","6500300","中和區"
"235008","293-VK","2018/08/02 14:09:29","新北市中和區中興街222-4號","121.500565","24.9895916666667","6500300","中和區"
"235036","301-VK","2018/08/02 14:09:29","新北市中和區中山路二段146-1號","121.501825","25.0028816666667","6500300","中和區"
"235007","352-BY","2018/08/02 14:09:43","新北市中和區景平路14號","121.52387","24.9906383333333","6500300","中和區"
"235006","KEA-2878","2018/08/02 14:09:34","新北市中和區自立路16巷2號","121.521613333333","24.9937783333333","6500300","中和區"
"247009","KEA-2869","2018/08/02 14:09:37","新北市蘆洲區信義路178號","121.479291666667","25.0840683333333","6501400","蘆洲區"
"235014","4979-A6","2018/08/02 14:09:47","新北市中和區南山路495號","121.507986666667","24.9877916666667","6500300","中和區"
"235033","4980-A6","2018/08/02 14:09:41","新北市中和區中和路217巷20號","121.504763333333","25.00037","6500300","中和區"
"235034","558-UM","2018/08/02 14:09:36","新北市中和區中和路24號","121.499676666667","25.0017783333333","6500300","中和區"
"235009","565-BX","2018/08/02 14:09:29","新北市中和區景新街467巷33號","121.514713333333","24.9888233333333","6500300","中和區"
"235018","640-BX","2018/08/02 14:09:30","新北市中和區國光街105號","121.47003","25.0004483333333","6500300","中和區"
"235024","647-TV","2018/08/02 14:09:25","新北市中和區中山路三段145號","121.473781666667","25.0060016666667","6500300","中和區"
"235011","732-UM","2018/08/02 14:09:47","新北市中和區興南路一段54號","121.510806666667","24.9906983333333","6500300","中和區"
"235010","733-UM","2018/08/02 14:09:47","新北市中和區忠孝街1巷9號","121.508626666667","24.9835616666667","6500300","中和區"
"235035","783-BX","2018/08/02 14:09:44","新北市中和區中山路二段482巷2號","121.488493333333","25.006455","6500300","中和區"
"235026","800-TS","2018/08/02 14:09:35","新北市中和區中山路二段380巷15號","121.490861666667","25.0043366666667","6500300","中和區"
"235021","801-TS","2018/08/02 14:09:32","新北市中和區民利街50號","121.479338333333","24.9987583333333","6500300","中和區"
"235005","802-TS","2018/08/02 14:09:36","新北市中和區中安街128號","121.511068333333","25.0003816666667","6500300","中和區"
"235016","805-TS","2018/08/02 14:09:27","新北市中和區興南路二段142巷25弄2號","121.502888333333","24.9837416666667","6500300","中和區"
"235012","896-TW","2018/08/02 14:09:34","新北市中和區華新街109巷11弄2-5號","121.508691666667","24.9794183333333","6500300","中和區"
"235017","900-TW","2018/08/02 14:09:40","新北市中和區民德路276號","121.467751666667","24.99642","6500300","中和區"
"235015","157-BY","2018/08/02 14:09:38","新北市中和區和平街24巷11號","121.509938333333","24.9906733333333","6500300","中和區"
"235001","AAC-213","2018/08/02 14:09:37","新北市中和區秀朗路三段48號","121.526231666667","24.9955333333333","6500300","中和區"
"235023","AAC-215","2018/08/02 14:09:43","新北市中和區圓通路296巷31弄1號","121.48862","24.9904866666667","6500300","中和區"
"220013","072-UY","2018/08/02 14:09:44","新北市板橋區民族路247巷7弄30號","121.470723333333","25.0081416666667","6500100","板橋區"
"220034","073-UY","2018/08/02 14:09:36","新北市板橋區中正路216巷87號","121.458478333333","25.01912","6500100","板橋區"
"220017","AAD-861","2018/08/02 14:09:45","新北市板橋區華興街49號","121.4578","25.00473","6500100","板橋區"
"220105","120-SR","2018/08/02 14:09:48","新北市板橋區雙十路三段10巷10號","121.472096666667","25.0307583333333","6500100","板橋區"
"247023","893-R6","2018/08/02 14:09:44","新北市蘆洲區光榮路112號","121.464405","25.0893566666667","6501400","蘆洲區"
"247013","546-UM","2018/08/02 14:09:38","新北市蘆洲區忠孝路45號","121.471408333333","25.0862433333333","6501400","蘆洲區"
"247021","500-BY","2018/08/02 14:09:39","新北市蘆洲區三民路152號","121.470371666667","25.0879283333333","6501400","蘆洲區"
"247011","339-TH","2018/08/02 14:09:46","新北市蘆洲區信義路343巷1號","121.477793333333","25.0869916666667","6501400","蘆洲區"
"247003","337-TH","2018/08/02 14:09:29","新北市蘆洲區長安街102巷26號","121.462785","25.0820716666667","6501400","蘆洲區"
"247005","336-TH","2018/08/02 14:09:37","新北市蘆洲區九芎街58號","121.467045","25.0789666666667","6501400","蘆洲區"
"247017","057-VK","2018/08/02 14:09:40","新北市蘆洲區復興路111-6號","121.476518333333","25.088295","6501400","蘆洲區"
"247007","056-VK","2018/08/02 14:09:31","新北市三重區永安北路一段9號","121.476051666667","25.07476","6501400","蘆洲區"
"247015","007-UY","2018/08/02 14:09:48","新北市蘆洲區光華路46巷36號","121.467943333333","25.08421","6501400","蘆洲區"
"247001","002-UY","2018/08/02 14:09:37","新北市蘆洲區永平街50號","121.45794","25.0913933333333","6501400","蘆洲區"
"247019","001-UY","2018/08/02 14:09:40","新北市蘆洲區民族路426巷52號","121.472926666667","25.0935966666667","6501400","蘆洲區"
"235013","251-BX","2018/08/02 14:09:41","新北市中和區景新街225號","121.507718333333","24.9947866666667","6500300","中和區"
"228005","097-TW","2018/08/02 14:09:31","新北市雙溪區三港里雙澳路100號","121.888853333333","25.0564316666667","6502600","貢寮區"
"228004","212-TW","2018/08/02 14:09:42","新北市貢寮區雙玉里下雙溪街10-3號","121.915453333333","25.0136366666667","6502600","貢寮區"
"253003","6232-TK","2018/08/02 14:09:37","新北市石門區內石門62號","121.578015","25.2659466666667","6502200","石門區"
"253001","6251-TK","2018/08/02 14:09:30","新北市石門區八甲74號","121.529853333333","25.26453","6502200","石門區"
"253002","637-UY","2018/08/02 14:09:29","新北市石門區大溪墘8-1號","121.55112","25.2758233333333","6502200","石門區"
"253004","8270-PC","2018/08/02 14:09:42","新北市石門區坪林26號","121.59401","25.2686083333333","6502200","石門區"
"207002","749-BX","2018/08/02 14:09:41","新北市萬里區溪底里瑞泉路3號","121.61063","25.144305","6502800","萬里區"
"207001","662-BX","2018/08/02 14:09:46","新北市萬里區磺潭里清水18號","121.637846666667","25.19771","6502800","萬里區"
"252005","AAC-283","2018/08/02 14:09:33","新北市三芝區橫山里橫山49號","121.5347","25.2573066666667","6502100","三芝區"
"236040","107-UM","2018/08/02 14:09:29","新北市土城區裕生路81號","121.44691","24.98423","6501300","土城區"
"236074","166-UM","2018/08/02 14:09:38","新北市土城區永安街50號","121.433108333333","24.964405","6501300","土城區"
"236029","253-BX","2018/08/02 14:09:31","新北市土城區城林路6巷80號","121.438446666667","24.9797466666667","6501300","土城區"
"236024","269-VK","2018/08/02 14:09:36","新北市土城區承天路18號","121.439453333333","24.9634233333333","6501300","土城區"
"236012","270-VK","2018/08/02 14:09:38","新北市土城區學府路二段216號","121.444856666667","24.9781733333333","6501300","土城區"
"236032","271-VK","2018/08/02 14:09:33","新北市土城區青雲路449號","121.458846666667","24.9749416666667","6501300","土城區"
"236068","KEA-2877","2018/08/02 14:09:38","新北市土城區明德路一段130號","121.46376","24.9789683333333","6501300","土城區"
"236017","401-BY","2018/08/02 14:09:40","新北市土城區中央路二段280號","121.440718333333","24.9740783333333","6501300","土城區"
"236005","498-BY","2018/08/02 14:09:34","新北市土城區中央路一段29號","121.448371666667","24.99082","6501300","土城區"
"236057","912-UM","2018/08/02 14:09:29","新北市土城區中央路四段174號","121.416678333333","24.957995","6501300","土城區"
"236045","913-UM","2018/08/02 14:09:37","新北市土城區明德路一段365-1號","121.453585","24.9790283333333","6501300","土城區"
"236060","915-UM","2018/08/02 14:09:45","新北市土城區金城路二段204號","121.455123333333","24.981975","6501300","土城區"
"236054","AAC-216","2018/08/02 14:09:30","新北市土城區中華路二段80號","121.438681666667","24.975675","6501300","土城區"
"221010","269-BY","2018/08/02 14:09:33","新北市汐止區長青路192巷32號","121.610778333333","25.1136133333333","6501100","汐止區"
"220027","145-BY","2018/08/02 14:09:41","新北市板橋區民權路202巷8弄2號","121.460131666667","25.0146633333333","6500100","板橋區"
"220028","200-UY","2018/08/02 14:09:42","新北市板橋區大觀路二段7巷110號","121.45046","25.0028916666667","6500100","板橋區"
"220030","610-BX","2018/08/02 14:09:15","新北市板橋區溪崑二街27號","121.428563333333","24.9912833333333","6500100","板橋區"
"220050","245-BX","2018/08/02 14:09:44","新北市板橋區莊敬路216號","121.472343333333","25.0213833333333","6500100","板橋區"
"220004","276-BY","2018/08/02 14:09:30","新北市板橋區信義路74巷1弄1號","121.45728","24.9931883333333","6500100","板橋區"
"220020","277-BY","2018/08/02 14:09:41","新北市板橋區金門街372巷29號","121.427146666667","24.9847783333333","6500100","板橋區"
"220019","283-VK","2018/08/02 14:09:44","新北市板橋區重慶路253號","121.463473333333","25.000115","6500100","板橋區"
"220043","285-UM","2018/08/02 14:09:35","新北市板橋區光武街144號","121.46534","25.0302016666667","6500100","板橋區"
"220001","285-VK","2018/08/02 14:09:36","新北市板橋區懷仁街24巷23號","121.475663333333","25.0191783333333","6500100","板橋區"
"220031","286-VK","2018/08/02 14:09:44","新北市板橋區大觀路二段174巷175號","121.441975","25.0036416666667","6500100","板橋區"
"220029","287-VK","2018/08/02 14:09:28","新北市板橋區南雅西路二段160號","121.451816666667","25.013445","6500100","板橋區"
"220039","288-VK","2018/08/02 14:09:44","新北市板橋區裕民街45巷3號","121.461673333333","25.0284416666667","6500100","板橋區"
"220009","293-UM","2018/08/02 14:09:36","新北市板橋區中山路二段288巷2弄3號","121.479696666667","25.0182866666667","6500100","板橋區"
"220010","295-UM","2018/08/02 14:09:34","新北市板橋區三民路二段居仁巷1弄22號","121.479928333333","25.0135916666667","6500100","板橋區"
"220032","296-UM","2018/08/02 14:09:29","新北市板橋區溪崑一街47巷7號","121.430543333333","24.99086","6500100","板橋區"
"220023","303-R5","2018/08/02 14:09:40","新北市板橋區西門街18-1號","121.454606666667","25.0112083333333","6500100","板橋區"
"220041","307-R5","2018/08/02 14:09:40","新北市板橋區文化路二段225巷60弄30號","121.469283333333","25.02919","6500100","板橋區"
"220047","317-R6","2018/08/02 14:09:37","新北市板橋區自由路51巷8號","121.465111666667","25.02356","6500100","板橋區"
"220012","486-VK","2018/08/02 14:09:37","新北市板橋區板新路70號","121.473073333333","25.0141233333333","6500100","板橋區"
"220037","491-VK","2018/08/02 14:09:48","新北市板橋區文化路二段182巷5弄11號","121.471908333333","25.0274866666667","6500100","板橋區"
"220104","560-BX","2018/08/02 14:09:43","新北市板橋區正義街21號","121.453741666667","25.0219333333333","6500100","板橋區"
"220052","561-BX","2018/08/02 14:09:46","新北市板橋區文化路一段188巷9弄21號","121.468526666667","25.019465","6500100","板橋區"
"220011","609-BX","2018/08/02 14:09:39","新北市板橋區三民路二段120號","121.479118333333","25.0164466666667","6500100","板橋區"
"220040","637-BX","2018/08/02 14:09:15","新北市板橋區縣民大道三段247巷6號","121.481661666667","25.0262166666667","6500100","板橋區"
"220005","686-BX","2018/08/02 14:09:37","新北市板橋區重慶路308巷20號","121.46343","24.997475","6500100","板橋區"
"220025","687-BX","2018/08/02 14:09:31","新北市板橋區龍興街48號","121.44326","25.0009016666667","6500100","板橋區"
"220042","689-BX","2018/08/02 14:09:40","新北市板橋區民生路三段125號","121.466316666667","25.025905","6500100","板橋區"
"220002","741-BX","2018/08/02 14:09:41","新北市板橋區重慶路89巷15-1號","121.462768333333","25.0065833333333","6500100","板橋區"
"220051","KEA-2699","2018/08/02 14:09:45","新北市板橋區田單街51號","121.482638333333","25.0280116666667","6500100","板橋區"
"220003","827-TW","2018/08/02 14:09:30","新北市板橋區新民街13號","121.463803333333","25.0099366666667","6500100","板橋區"
"220014","829-TW","2018/08/02 14:09:40","新北市板橋區民生路一段35號","121.475545","25.0127033333333","6500100","板橋區"
"220016","830-TW","2018/08/02 14:09:38","新北市板橋區翠華街6巷79號","121.481446666667","25.02524","6500100","板橋區"
"220045","831-TW","2018/08/02 14:09:33","新北市板橋區大同街12號","121.477216666667","25.026835","6500100","板橋區"
"220038","833-TW","2018/08/02 14:09:47","新北市板橋區文化路二段357號","121.472935","25.0307466666667","6500100","板橋區"
"220022","895-R6","2018/08/02 14:09:28","新北市板橋區林園街59號","121.453658333333","25.0103233333333","6500100","板橋區"
"220021","985-R7","2018/08/02 14:09:31","新北市板橋區中正路125號","121.45655","25.0152333333333","6500100","板橋區"
"220046","AAC-210","2018/08/02 14:09:41","新北市板橋區金華街10巷135號","121.460043333333","25.020915","6500100","板橋區"
"220018","AAC-253","2018/08/02 14:09:37","新北市板橋區忠孝路40號","121.46044","25.0018683333333","6500100","板橋區"
"235032","KEA-2873","2018/08/02 14:09:42","新北市中和區連勝街57巷20號","121.498073333333","24.996425","6500300","中和區"
"235025","KEA-2875","2018/08/02 14:09:48","新北市中和區連城路563-1號","121.479575","24.9946266666667","6500300","中和區"
