"lineid","car","time","location","longitude","latitude","cityid","cityname"
"234070","149-BY","2018/08/02 14:29:31","新北市八里區商港路105巷15號","121.389435","25.1476716666667","6500400","永和區"
"234005","207-UY","2018/08/02 14:29:33","新北市永和區中山路一段212號","121.508533333333","25.0085383333333","6500400","永和區"
"234078","298-R6","2018/08/02 14:29:36","新北市永和區永亨路66號","121.520888333333","25.0058616666667","6500400","永和區"
"234062","337-UY","2018/08/02 14:29:31","新北市永和區中正路419號","121.516995","25.0050083333333","6500400","永和區"
"234084","338-UY","2018/08/02 14:29:35","新北市永和區永和路二段243號","121.515736666667","25.0146866666667","6500400","永和區"
"234068","552-UM","2018/08/02 14:29:45","新北市永和區永寧街18號","121.520153333333","25.0069366666667","6500400","永和區"
"234028","746-BX","2018/08/02 14:29:27","新北市永和區民權路84號","121.51991","24.9969283333333","6500400","永和區"
"234052","KEA-2590","2018/08/02 14:29:35","新北市永和區光復街31-1號","121.516318333333","25.0178533333333","6500400","永和區"
"234060","AAD-866","2018/08/02 14:29:44","新北市永和區秀安街7-2號","121.515516666667","25.003135","6500400","永和區"
"234036","847-RS","2018/08/02 14:29:43","新北市永和區民樂街39巷23號","121.528973333333","25.0006516666667","6500400","永和區"
"234040","862-TW","2018/08/02 14:29:28","新北市永和區安樂路324號","121.51444","25.00571","6500400","永和區"
"234048","863-TW","2018/08/02 14:29:38","新北市永和區環河西路二段107號","121.50633","25.0146516666667","6500400","永和區"
"234025","9371-KE","2018/08/02 14:29:42","新北市中和區宜安路2號","121.513711666667","24.99557","6500400","永和區"
"248013","025-BX","2018/08/02 14:29:34","新北市五股區民義路一段161-5號","121.432448333333","25.08756","6501500","五股區"
"248015","026-BX","2018/08/02 14:29:45","新北市五股區成泰路3段651-1號","121.452916666667","25.105335","6501500","五股區"
"248007","095-VK","2018/08/02 14:29:33","新北市五股區中興路一段95巷11號","121.466695","25.0723716666667","6501500","五股區"
"248017","225-UY","2018/08/02 14:27:45","新北市五股區外寮路9-25號","121.416246666667","25.078665","6501500","五股區"
"248011","247-BX","2018/08/02 14:29:34","新北市五股區成泰路一段241巷7弄1號","121.436091666667","25.0808966666667","6501500","五股區"
"248003","677-BX","2018/08/02 14:29:34","新北市五股區五福路7號","121.43413","25.087705","6501500","五股區"
"248001","678-BX","2018/08/02 14:29:42","新北市五股區成泰路三段462號","121.45169","25.10104","6501500","五股區"
"248009","682-TV","2018/08/02 14:29:34","新北市五股區水碓一路23號","121.43063","25.0712883333333","6501500","五股區"
"234022","9380-KE","2018/08/02 14:29:28","新北市永和區中正路654巷34號","121.517871666667","25.0085533333333","6500400","永和區"
"234072","AAC-211","2018/08/02 14:29:33","新北市永和區環河東路一段124號","121.520785","25.0154583333333","6500400","永和區"
"234001","AAC-295","2018/08/02 14:29:38","新北市永和區自強街6巷1弄1號","121.514391666667","25.0079833333333","6500400","永和區"
"243005","AAD-798","2018/08/02 14:29:43","新北市泰山區民國街8號","121.425355","25.0435283333333","6501600","泰山區"
"243001","297-R6","2018/08/02 14:29:44","新北市泰山區半山雅6號","121.431463333333","25.0673966666667","6501600","泰山區"
"243008","KEA-2801","2018/08/02 14:29:30","新北市泰山區工專路6號","121.424025","25.0395583333333","6501600","泰山區"
"243007","421-VK","2018/08/02 14:29:30","新北市泰山區民權街78號","121.428328333333","25.0495783333333","6501600","泰山區"
"243003","KEA-2215","2018/08/02 14:29:38","新北市泰山區貴子路67巷16號","121.431083333333","25.040835","6501600","泰山區"
"243002","KEA-2216","2018/08/02 14:29:37","新北市泰山區民生路17巷2號","121.429903333333","25.052575","6501600","泰山區"
"243004","646-TV","2018/08/02 14:29:43","新北市泰山區福興一街52號","121.432723333333","25.05835","6501600","泰山區"
"243006","680-BX","2018/08/02 14:29:32","新北市泰山區中港西路420號","121.433846666667","25.0539716666667","6501600","泰山區"
"231002","002-UM","2018/08/02 14:29:34","新北市新店區中央路208號","121.530235","24.9739433333333","6500600","新店區"
"231001","047-UY","2018/08/02 14:29:33","新北市新店區中正路75巷71號","121.543183333333","24.96897","6500600","新店區"
"231005","106-UY","2018/08/02 14:29:32","新北市新店區中興路三段128號","121.544716666667","24.9796316666667","6500600","新店區"
"231021","108-UY","2018/08/02 14:29:43","新北市新店區桂山路35號","121.559195","24.9029316666667","6500600","新店區"
"231011","187-VK","2018/08/02 14:29:39","新北市新店區寶興路58巷2號","121.54982","24.9722966666667","6500600","新店區"
"231023","KEA-2219","2018/08/02 14:29:42","新北市新店區光明街141號","121.539481666667","24.9620683333333","6500600","新店區"
"231003","268-BY","2018/08/02 14:29:31","新北市新店區中興路一段268-2號","121.54509","24.96782","6500600","新店區"
"231018","278-BY","2018/08/02 14:29:32","新北市新店區中央二街32號","121.52801","24.9737383333333","6500600","新店區"
"231017","AAD-862","2018/08/02 14:29:45","新北市新店區北宜路三段132號","121.583245","24.9501933333333","6500600","新店區"
"231028","355-BY","2018/08/02 14:29:29","新北市新店區安和路二段5號","121.517883333333","24.9672433333333","6500600","新店區"
"231038","3712-VJ","2018/08/02 14:29:40","新北市新店區溪洲路8巷2號","121.533563333333","24.9611516666667","6500600","新店區"
"231027","3713-VJ","2018/08/02 14:29:41","新北市新店區寶橋路75號","121.545573333333","24.9751516666667","6500600","新店區"
"231037","4716-K9","2018/08/02 14:29:32","新北市新店區安康路二段320巷1號","121.504581666667","24.9585566666667","6500600","新店區"
"231036","512-UM","2018/08/02 14:29:38","新北市新店區安祥路109巷8號","121.475408333333","24.95885","6500600","新店區"
"231013","513-UM","2018/08/02 14:29:30","新北市新店區民權路100-1號","121.536148333333","24.9834166666667","6500600","新店區"
"231034","616-UM","2018/08/02 14:29:40","新北市新店區黎明路11號","121.502071666667","24.9499983333333","6500600","新店區"
"231006","617-UM","2018/08/02 14:29:39","新北市新店區北宜路二段332號","121.562225","24.9537933333333","6500600","新店區"
"231030","619-UM","2018/08/02 14:29:48","新北市新店區安民街65巷17-3號","121.51599","24.967035","6500600","新店區"
"231035","719-UM","2018/08/02 14:29:32","新北市新店區安和路二段77-1號","121.518456666667","24.9687433333333","6500600","新店區"
"231031","720-UM","2018/08/02 14:29:36","新北市新店區安業街215巷9號","121.52311","24.9729316666667","6500600","新店區"
"231029","897-TW","2018/08/02 14:29:36","新北市新店區安康路三段28號","121.493133333333","24.9532266666667","6500600","新店區"
"231004","899-TW","2018/08/02 14:29:48","新北市新店區中正路263-2號","121.538471666667","24.9737583333333","6500600","新店區"
"231024","AKT-0513","2018/08/02 14:29:43","新北市新店區環河路119號","121.532616666667","24.970555","6500600","新店區"
"235030","003-UY","2018/08/02 14:29:46","新北市中和區景新街43號","121.503993333333","24.9992383333333","6500300","中和區"
"235028","005-UY","2018/08/02 14:29:36","新北市中和區景新街64巷11弄2號","121.50384","24.998405","6500300","中和區"
"235027","006-UY","2018/08/02 14:29:40","新北市中和區連城路169號","121.49542","24.9983916666667","6500300","中和區"
"235020","096-UM","2018/08/02 14:29:43","新北市中和區員山路514巷2號","121.479378333333","25.0096066666667","6500300","中和區"
"235003","097-UM","2018/08/02 14:29:45","新北市永和區中正路58號","121.513335","24.9948183333333","6500300","中和區"
"235029","098-UM","2018/08/02 14:29:38","新北市中和區福美路267號","121.498288333333","25.0050416666667","6500300","中和區"
"235004","150-BY","2018/08/02 14:29:47","新北市中和區宜安路1巷26弄1號","121.512496666667","24.9943166666667","6500300","中和區"
"235022","151-BY","2018/08/02 14:29:47","新北市中和區員山路124巷2號","121.481493333333","24.9959166666667","6500300","中和區"
"235019","183-VK","2018/08/02 14:29:35","新北市中和區德光路21號","121.470935","25.0043483333333","6500300","中和區"
"235002","185-VK","2018/08/02 14:29:42","新北市中和區自立路101號","121.522056666667","24.994775","6500300","中和區"
"235008","293-VK","2018/08/02 14:29:49","新北市中和區捷運路135號","121.506921666667","24.9907333333333","6500300","中和區"
"235036","301-VK","2018/08/02 14:29:49","新北市中和區中山路二段3巷22弄38號","121.505803333333","25.0040883333333","6500300","中和區"
"235007","352-BY","2018/08/02 14:29:43","新北市中和區景平路384號","121.510678333333","24.9928616666667","6500300","中和區"
"235006","KEA-2878","2018/08/02 14:29:34","新北市中和區中和路262巷43弄4號","121.509763333333","24.9996883333333","6500300","中和區"
"247009","KEA-2869","2018/08/02 14:29:37","新北市蘆洲區鷺江街45號","121.478251666667","25.082405","6501400","蘆洲區"
"235014","4979-A6","2018/08/02 14:29:27","新北市中和區圓通路141巷48弄15號","121.498091666667","24.9938883333333","6500300","中和區"
"235033","4980-A6","2018/08/02 14:29:41","新北市中和區中和路2號","121.499405","25.0024533333333","6500300","中和區"
"235034","558-UM","2018/08/02 14:29:36","新北市中和區景平路632-8號","121.499651666667","24.9987816666667","6500300","中和區"
"235009","565-BX","2018/08/02 14:29:28","新北市中和區景新街425號","121.513073333333","24.9892333333333","6500300","中和區"
"235018","640-BX","2018/08/02 14:29:30","新北市中和區民德路81號","121.46909","25.001255","6500300","中和區"
"235024","647-TV","2018/08/02 14:29:45","新北市中和區新生街114巷37弄10號","121.48218","25.0019483333333","6500300","中和區"
"235011","732-UM","2018/08/02 14:29:27","新北市中和區景平路259巷16號","121.50791","24.9926566666667","6500300","中和區"
"235010","733-UM","2018/08/02 14:29:27","新北市中和區忠孝街37巷76號","121.510861666667","24.9850433333333","6500300","中和區"
"235035","783-BX","2018/08/02 14:29:44","新北市中和區連城路469巷34號","121.483496666667","24.9948133333333","6500300","中和區"
"235026","800-TS","2018/08/02 14:29:34","新北市中和區中山路二段480號","121.487528333333","25.0048566666667","6500300","中和區"
"235021","801-TS","2018/08/02 14:29:32","新北市中和區員山路388號","121.480645","25.004405","6500300","中和區"
"235005","802-TS","2018/08/02 14:29:36","新北市中和區宜安路157號","121.508905","24.9988316666667","6500300","中和區"
"235016","805-TS","2018/08/02 14:29:47","新北市中和區華新街143巷63弄1-1號","121.50645","24.9793433333333","6500300","中和區"
"235012","896-TW","2018/08/02 14:29:34","新北市中和區忠孝街39-12號","121.511975","24.98433","6500300","中和區"
"235017","900-TW","2018/08/02 14:29:40","新北市中和區民德路197-2號","121.468956666667","24.998595","6500300","中和區"
"235015","157-BY","2018/08/02 14:29:38","新北市中和區中興街132巷26號","121.498833333333","24.99174","6500300","中和區"
"235001","AAC-213","2018/08/02 14:29:34","新北市中和區秀朗路三段10巷14弄14號","121.525","24.9965983333333","6500300","中和區"
"235023","AAC-215","2018/08/02 14:29:43","新北市中和區圓通路252巷1號","121.493526666667","24.991035","6500300","中和區"
"220013","072-UY","2018/08/02 14:29:44","新北市板橋區國泰街75巷45號","121.468281666667","25.0048183333333","6500100","板橋區"
"220034","073-UY","2018/08/02 14:29:35","新北市板橋區漢生西路89巷4弄11號","121.461308333333","25.01871","6500100","板橋區"
"220017","AAD-861","2018/08/02 14:29:26","新北市板橋區大明街20巷19弄23號","121.457505","25.003115","6500100","板橋區"
"220105","120-SR","2018/08/02 14:29:48","新北市板橋區文化路二段441巷6-1號","121.474483333333","25.033665","6500100","板橋區"
"247023","893-R6","2018/08/02 14:29:30","新北市蘆洲區中正路259號","121.467673333333","25.08718","6501400","蘆洲區"
"247013","546-UM","2018/08/02 14:29:38","新北市蘆洲區中山二路203號","121.470615","25.0806283333333","6501400","蘆洲區"
"247021","500-BY","2018/08/02 14:29:39","新北市蘆洲區水湳街91號","121.470318333333","25.0902266666667","6501400","蘆洲區"
"247011","339-TH","2018/08/02 14:29:41","新北市蘆洲區中興街144號","121.4821","25.0897983333333","6501400","蘆洲區"
"247003","337-TH","2018/08/02 14:29:29","新北市蘆洲區長安街220巷6號","121.458725","25.0846983333333","6501400","蘆洲區"
"247005","336-TH","2018/08/02 14:29:37","新北市蘆洲區中華街74號","121.461215","25.0796666666667","6501400","蘆洲區"
"247017","057-VK","2018/08/02 14:29:40","新北市蘆洲區民族路336巷46號","121.478295","25.0914816666667","6501400","蘆洲區"
"247007","056-VK","2018/08/02 14:29:31","新北市蘆洲區信義路83號","121.476783333333","25.07974","6501400","蘆洲區"
"247015","007-UY","2018/08/02 14:29:47","新北市蘆洲區中正路185巷68弄31號","121.465978333333","25.085625","6501400","蘆洲區"
"247001","002-UY","2018/08/02 14:29:37","新北市蘆洲區永樂街38巷33弄46號","121.456843333333","25.08978","6501400","蘆洲區"
"247019","001-UY","2018/08/02 14:29:40","新北市蘆洲區仁愛街101巷9號","121.47053","25.0939183333333","6501400","蘆洲區"
"235013","251-BX","2018/08/02 14:29:41","新北市中和區景新街273巷20號","121.510343333333","24.9939533333333","6500300","中和區"
"228005","097-TW","2018/08/02 14:29:31","新北市貢寮區美豐里雞母嶺街6-1號","121.901616666667","25.06679","6502600","貢寮區"
"228004","212-TW","2018/08/02 14:29:42","新北市貢寮區雙玉里田寮洋街34-1號","121.931156666667","25.01493","6502600","貢寮區"
"253003","6232-TK","2018/08/02 14:29:37","新北市石門區內石門67-3號","121.575766666667","25.2558716666667","6502200","石門區"
"253001","6251-TK","2018/08/02 14:29:30","新北市石門區八甲4-8號","121.521095","25.2828966666667","6502200","石門區"
"253002","637-UY","2018/08/02 14:25:09","新北市三芝區橫山里橫山39-5號","121.545836666667","25.2529666666667","6502200","石門區"
"253004","8270-PC","2018/08/02 14:29:42","新北市石門區內阿里磅49號","121.579741666667","25.24345","6502200","石門區"
"207002","749-BX","2018/08/02 14:29:41","新北市萬里區溪底里富士坪路16-1號","121.621275","25.1540066666667","6502800","萬里區"
"207001","662-BX","2018/08/02 14:29:26","新北市萬里區磺潭里清水9號","121.64017","25.199705","6502800","萬里區"
"252005","AAC-283","2018/08/02 14:29:33","新北市三芝區橫山里大坑87-2號","121.531355","25.2596183333333","6502100","三芝區"
"236040","107-UM","2018/08/02 14:29:29","新北市土城區學成路91巷10號","121.450605","24.988035","6501300","土城區"
"236074","166-UM","2018/08/02 14:29:42","新北市土城區大暖路20巷2號","121.423555","24.9599766666667","6501300","土城區"
"236029","253-BX","2018/08/02 14:29:36","新北市土城區水源街63號","121.440071666667","24.9761816666667","6501300","土城區"
"236024","269-VK","2018/08/02 14:29:36","新北市土城區承天路18號","121.439526666667","24.9634683333333","6501300","土城區"
"236012","270-VK","2018/08/02 14:29:38","新北市土城區青雲路39巷7號","121.460315","24.9875516666667","6501300","土城區"
"236032","271-VK","2018/08/02 14:29:33","新北市土城區青雲路369號","121.458796666667","24.9761666666667","6501300","土城區"
"236068","KEA-2877","2018/08/02 14:29:38","新北市土城區永豐路255巷21弄1號","121.475113333333","24.973885","6501300","土城區"
"236017","401-BY","2018/08/02 14:29:40","新北市土城區永豐路202巷3-1號","121.466593333333","24.983135","6501300","土城區"
"236005","498-BY","2018/08/02 14:29:34","新北市土城區日新街44號","121.443996666667","24.9879166666667","6501300","土城區"
"236057","912-UM","2018/08/02 14:29:29","新北市土城區中央路四段183號","121.414948333333","24.956745","6501300","土城區"
"236045","913-UM","2018/08/02 14:29:37","新北市土城區青雲路386號","121.458785","24.97312","6501300","土城區"
"236060","915-UM","2018/08/02 14:29:45","新北市土城區延壽路115巷2號","121.469083333333","24.9941966666667","6501300","土城區"
"236054","AAC-216","2018/08/02 14:29:30","新北市土城區中華路二段1號","121.439743333333","24.979245","6501300","土城區"
"221010","269-BY","2018/08/02 14:29:33","新北市汐止區八連路二段625-3號","121.621425","25.11299","6501100","汐止區"
"220027","145-BY","2018/08/02 14:29:41","新北市板橋區民權路306號","121.457116666667","25.0161166666667","6500100","板橋區"
"220028","200-UY","2018/08/02 14:29:42","新北市板橋區大觀路二段37巷126號","121.449418333333","25.002215","6500100","板橋區"
"220030","610-BX","2018/08/02 14:29:35","新北市板橋區金門街297號","121.43017","24.9866266666667","6500100","板橋區"
"220050","245-BX","2018/08/02 14:29:40","新北市板橋區莊敬路220巷29弄3號","121.472795","25.0204716666667","6500100","板橋區"
"220004","276-BY","2018/08/02 14:29:30","新北市板橋區國慶路49巷1號","121.459493333333","24.9955683333333","6500100","板橋區"
"220020","277-BY","2018/08/02 14:29:41","新北市板橋區金門街253巷16弄14號","121.432638333333","24.9879183333333","6500100","板橋區"
"220019","283-VK","2018/08/02 14:29:44","新北市板橋區四川路一段283巷23號","121.459546666667","25.0006183333333","6500100","板橋區"
"220043","285-UM","2018/08/02 14:29:35","新北市板橋區吳鳳路50巷42弄2號","121.47027","25.0303616666667","6500100","板橋區"
"220001","285-VK","2018/08/02 14:29:36","新北市板橋區富山街84號","121.47667","25.02199","6500100","板橋區"
"220031","286-VK","2018/08/02 14:29:44","新北市板橋區龍興街73巷56號","121.441781666667","25.0031333333333","6500100","板橋區"
"220029","287-VK","2018/08/02 14:29:44","新北市板橋區大觀路一段75巷16號","121.447726666667","25.0043483333333","6500100","板橋區"
"220039","288-VK","2018/08/02 14:29:44","新北市板橋區長江路一段106巷20弄11號","121.46018","25.0283216666667","6500100","板橋區"
"220009","293-UM","2018/08/02 14:29:39","新北市板橋區中山路一段265巷4弄1號","121.468356666667","25.01429","6500100","板橋區"
"220010","295-UM","2018/08/02 14:29:34","新北市板橋區三民路二段181巷8號","121.479691666667","25.0143216666667","6500100","板橋區"
"220032","296-UM","2018/08/02 14:29:28","新北市板橋區滿平街84巷100弄19號","121.425823333333","24.9860183333333","6500100","板橋區"
"220023","303-R5","2018/08/02 14:29:40","新北市板橋區中正路289巷14號","121.454808333333","25.019095","6500100","板橋區"
"220041","307-R5","2018/08/02 14:29:34","新北市板橋區光武街4巷6號","121.468455","25.0255466666667","6500100","板橋區"
"220047","317-R6","2018/08/02 14:29:37","新北市板橋區民生路三段281巷2弄12號","121.463448333333","25.030405","6500100","板橋區"
"220012","486-VK","2018/08/02 14:29:36","新北市板橋區四川路一段6號","121.45933","25.0068666666667","6500100","板橋區"
"220037","491-VK","2018/08/02 14:29:31","新北市板橋區雙十路二段4號","121.477311666667","25.0251816666667","6500100","板橋區"
"220104","560-BX","2018/08/02 14:29:43","新北市板橋區中正路399巷32號","121.452961666667","25.022755","6500100","板橋區"
"220052","561-BX","2018/08/02 14:29:46","新北市板橋區文化路一段190號","121.46598","25.019795","6500100","板橋區"
"220011","609-BX","2018/08/02 14:29:39","新北市板橋區三民路二段204號","121.478796666667","25.0122166666667","6500100","板橋區"
"220040","637-BX","2018/08/02 14:29:35","新北市板橋區文聖街130號","121.47827","25.0283016666667","6500100","板橋區"
"220005","686-BX","2018/08/02 14:29:23","新北市板橋區國慶路182巷28-1號","121.463178333333","24.9954316666667","6500100","板橋區"
"220025","687-BX","2018/08/02 14:29:34","新北市板橋區大觀路一段28巷78號","121.449776666667","25.0108233333333","6500100","板橋區"
"220042","689-BX","2018/08/02 14:29:30","新北市板橋區雨農路32號","121.461295","25.0243216666667","6500100","板橋區"
"220002","741-BX","2018/08/02 14:29:41","新北市板橋區光明街78號","121.461708333333","25.0027066666667","6500100","板橋區"
"220051","KEA-2699","2018/08/02 14:29:48","新北市板橋區雙十路二段130巷2弄29號","121.474866666667","25.0287566666667","6500100","板橋區"
"220003","827-TW","2018/08/02 14:29:30","新北市板橋區重慶路278巷2-3號","121.462813333333","24.999725","6500100","板橋區"
"220014","829-TW","2018/08/02 14:29:40","新北市板橋區漢生東路279巷10弄7號","121.472183333333","25.008825","6500100","板橋區"
"220016","830-TW","2018/08/02 14:29:44","新北市板橋區中山路二段599號","121.484948333333","25.022355","6500100","板橋區"
"220045","831-TW","2018/08/02 14:29:37","新北市板橋區民生路二段226巷8弄4號","121.470135","25.0216416666667","6500100","板橋區"
"220038","833-TW","2018/08/02 14:29:47","新北市板橋區文化路一段189號","121.463121666667","25.0164666666667","6500100","板橋區"
"220022","895-R6","2018/08/02 14:29:48","新北市板橋區倉後街1-8號","121.455525","25.0090883333333","6500100","板橋區"
"220021","985-R7","2018/08/02 14:29:31","新北市板橋區新生街89巷4號","121.458136666667","25.0222366666667","6500100","板橋區"
"220046","AAC-210","2018/08/02 14:29:41","新北市板橋區陽明街29巷42號","121.463211666667","25.02287","6500100","板橋區"
"220018","AAC-253","2018/08/02 14:29:37","新北市板橋區四川路一段107號","121.459766666667","25.0052283333333","6500100","板橋區"
"235032","KEA-2873","2018/08/02 14:29:42","新北市中和區中山路二段136巷3弄6號","121.501438333333","25.0037933333333","6500300","中和區"
"235025","KEA-2875","2018/08/02 14:29:18","新北市中和區民樂路4號","121.481588333333","25.00104","6500300","中和區"
