"lineid","car","time","location","longitude","latitude","cityid","cityname"
"234070","149-BY","2018/08/02 14:49:32","新北市八里區荖阡坑路24-11號","121.39851","25.138185","6500400","永和區"
"234084","338-UY","2018/08/02 14:49:35","新北市三重區光復路二段206號","121.469605","25.0636166666667","6500400","永和區"
"234025","9371-KE","2018/08/02 14:49:42","新北市永和區雙和街7巷7號","121.50953","25.0015366666667","6500400","永和區"
"248013","025-BX","2018/08/02 14:49:34","新北市五股區五福路14巷8號","121.43481","25.08873","6501500","五股區"
"248015","026-BX","2018/08/02 14:49:45","新北市五股區成泰路三段577巷80弄40號","121.449748333333","25.1049333333333","6501500","五股區"
"248007","095-VK","2018/08/02 14:49:33","新北市五股區國道路三段1號","121.469925","25.0749466666667","6501500","五股區"
"248017","225-UY","2018/08/02 14:49:25","新北市五股區外寮路7-11號","121.423905","25.0806133333333","6501500","五股區"
"248011","247-BX","2018/08/02 14:49:34","新北市五股區民義路一段212號","121.430511666667","25.0895066666667","6501500","五股區"
"248003","677-BX","2018/08/02 14:49:34","新北市五股區成泰路一段106-1號","121.435706666667","25.0717033333333","6501500","五股區"
"248001","678-BX","2018/08/02 14:49:48","新北市五股區成泰路三段157號","121.445175","25.091665","6501500","五股區"
"248009","682-TV","2018/08/02 14:49:34","新北市五股區成泰路一段87-1號","121.435155","25.0688416666667","6501500","五股區"
"234001","AAC-295","2018/08/02 14:49:38","新北市永和區永和路二段105號","121.51497","25.0120016666667","6500400","永和區"
"243005","AAD-798","2018/08/02 14:49:33","新北市泰山區明志路三段81號","121.42503","25.0417866666667","6501600","泰山區"
"243001","297-R6","2018/08/02 14:49:44","新北市泰山區泰林路二段146號","121.43428","25.059855","6501600","泰山區"
"243008","KEA-2801","2018/08/02 14:49:30","新北市泰山區貴陽街4號","121.421558333333","25.03325","6501600","泰山區"
"243007","421-VK","2018/08/02 14:49:46","新北市泰山區明志路一段440號","121.430691666667","25.0561766666667","6501600","泰山區"
"243003","KEA-2215","2018/08/02 14:49:38","新北市泰山區明志路三段450號","121.421015","25.0326433333333","6501600","泰山區"
"243002","KEA-2216","2018/08/02 14:49:37","新北市泰山區明志路二段273巷12號","121.427331666667","25.0471416666667","6501600","泰山區"
"243004","646-TV","2018/08/02 14:49:43","新北市泰山區楓江路110號","121.438436666667","25.0639616666667","6501600","泰山區"
"243006","680-BX","2018/08/02 14:49:32","新北市泰山區明志路一段12號","121.433606666667","25.06587","6501600","泰山區"
"231002","002-UM","2018/08/02 14:49:34","新北市新店區民權路133號","121.534875","24.9827616666667","6500600","新店區"
"231001","047-UY","2018/08/02 14:49:39","新北市新店區三民路42號","121.5361","24.9715616666667","6500600","新店區"
"231005","106-UY","2018/08/02 14:49:32","新北市新店區復興路76號","121.537645","24.9869033333333","6500600","新店區"
"231021","108-UY","2018/08/02 14:49:43","新北市新店區桂山路37號","121.56317","24.9044066666667","6500600","新店區"
"231011","187-VK","2018/08/02 14:49:39","新北市新店區寶橋路76-1號","121.54689","24.9749683333333","6500600","新店區"
"231023","KEA-2219","2018/08/02 14:49:41","新北市新店區檳榔路109號","121.544558333333","24.961685","6500600","新店區"
"231026","256-BX","2018/08/02 14:49:35","新北市新店區安華路28-1號","121.519651666667","24.9610366666667","6500600","新店區"
"231003","268-BY","2018/08/02 14:49:31","新北市新店區中興路二段55號","121.54648","24.970265","6500600","新店區"
"231018","278-BY","2018/08/02 14:49:32","新北市新店區中央路226號","121.52937","24.97301","6500600","新店區"
"231017","AAD-862","2018/08/02 14:49:45","新北市新店區北宜路三段88-1號","121.578365","24.9510183333333","6500600","新店區"
"231028","355-BY","2018/08/02 14:49:29","新北市新店區安德街116巷10號","121.509131666667","24.9609333333333","6500600","新店區"
"231038","3712-VJ","2018/08/02 14:49:40","新北市新店區安華路28-1號","121.5197","24.9609216666667","6500600","新店區"
"231027","3713-VJ","2018/08/02 14:49:41","新北市新店區溪園路397號","121.523691666667","24.9779616666667","6500600","新店區"
"231036","512-UM","2018/08/02 14:49:38","新北市新店區安祥路106巷2號","121.478981666667","24.962235","6500600","新店區"
"231013","513-UM","2018/08/02 14:49:30","新北市新店區北新路二段97巷7號","121.542221666667","24.974235","6500600","新店區"
"231034","616-UM","2018/08/02 14:49:31","新北市新店區玫瑰路4-1號","121.49358","24.9513833333333","6500600","新店區"
"231006","617-UM","2018/08/02 14:49:39","新北市新店區北宜路一段154號","121.540223333333","24.953665","6500600","新店區"
"231030","619-UM","2018/08/02 14:49:48","新北市新店區安民街300號","121.517641666667","24.973695","6500600","新店區"
"231039","718-UY","2018/08/02 14:49:45","新北市新店區安一路一段1-1號","121.519373333333","24.9614066666667","6500600","新店區"
"231035","719-UM","2018/08/02 14:48:32","新北市新店區安和路二段160號","121.519763333333","24.9735566666667","6500600","新店區"
"231029","897-TW","2018/08/02 14:49:30","新北市新店區錦秀路18號","121.479328333333","24.94471","6500600","新店區"
"231004","899-TW","2018/08/02 14:49:28","新北市新店區建國路131號","121.539408333333","24.9781683333333","6500600","新店區"
"231024","AKT-0513","2018/08/02 14:49:43","新北市新店區力行路12號","121.5394","24.9646166666667","6500600","新店區"
"235030","003-UY","2018/08/02 14:49:46","新北市中和區南工路26號","121.505585","25.00087","6500300","中和區"
"235020","096-UM","2018/08/02 14:49:43","新北市中和區中山路三段142號","121.473828333333","25.0063233333333","6500300","中和區"
"235003","097-UM","2018/08/02 14:49:45","新北市中和區宜安路20號","121.51318","24.9957716666667","6500300","中和區"
"235029","098-UM","2018/08/02 14:49:38","新北市中和區福祥路90巷1號","121.4992","25.0057616666667","6500300","中和區"
"235004","150-BY","2018/08/02 14:49:47","新北市中和區安和路43號","121.509633333333","24.9948866666667","6500300","中和區"
"235022","151-BY","2018/08/02 14:49:26","新北市中和區員山路150巷2弄37號","121.481688333333","24.997515","6500300","中和區"
"235019","183-VK","2018/08/02 14:49:31","新北市中和區民德路17號","121.468963333333","25.0028666666667","6500300","中和區"
"235002","185-VK","2018/08/02 14:49:42","新北市中和區自立路17號","121.522308333333","24.9960883333333","6500300","中和區"
"235008","293-VK","2018/08/02 14:49:29","新北市中和區南山路235號","121.503631666667","24.9931583333333","6500300","中和區"
"235036","301-VK","2018/08/02 14:49:28","新北市中和區中和路74號","121.500605","25.0001416666667","6500300","中和區"
"235007","352-BY","2018/08/02 14:49:43","新北市中和區安和路31號","121.510116666667","24.9944033333333","6500300","中和區"
"235006","KEA-2878","2018/08/02 14:49:34","新北市中和區連城路139巷66號","121.496845","24.9967566666667","6500300","中和區"
"235014","4979-A6","2018/08/02 14:49:47","新北市中和區景平路241巷82弄41號","121.506128333333","24.9924733333333","6500300","中和區"
"235034","558-UM","2018/08/02 14:49:16","新北市中和區連勝街42號","121.497961666667","24.9975916666667","6500300","中和區"
"235018","640-BX","2018/08/02 14:49:30","新北市中和區莒光路74號","121.472276666667","25.00303","6500300","中和區"
"235024","647-TV","2018/08/02 14:49:25","新北市中和區新生街30巷11號","121.482671666667","25.0037733333333","6500300","中和區"
"235011","732-UM","2018/08/02 14:49:47","新北市中和區和平街27-1號","121.507741666667","24.991005","6500300","中和區"
"235010","733-UM","2018/08/02 14:49:47","新北市中和區仁愛街8號","121.510621666667","24.98914","6500300","中和區"
"235035","783-BX","2018/08/02 14:49:44","新北市中和區建六路71號","121.487081666667","25.002205","6500300","中和區"
"235026","800-TS","2018/08/02 14:49:40","新北市中和區中山路二段500號","121.486786666667","25.0049283333333","6500300","中和區"
"235005","802-TS","2018/08/02 14:49:36","新北市中和區安平路17號","121.509205","24.9941566666667","6500300","中和區"
"235016","805-TS","2018/08/02 14:49:47","新北市中和區華新街144巷8號","121.507748333333","24.9829216666667","6500300","中和區"
"235012","896-TW","2018/08/02 14:49:34","新北市中和區忠孝街1巷2-1號","121.509158333333","24.9831133333333","6500300","中和區"
"235017","900-TW","2018/08/02 14:49:40","新北市中和區國光街215巷31弄1號","121.467441666667","25.0005016666667","6500300","中和區"
"235015","157-BY","2018/08/02 14:49:38","新北市中和區景安路247巷13號","121.504535","24.9905566666667","6500300","中和區"
"235001","AAC-213","2018/08/02 14:49:34","新北市中和區秀朗路三段163號","121.524643333333","24.9919583333333","6500300","中和區"
"235023","AAC-215","2018/08/02 14:49:43","新北市中和區圓通路305巷5弄55號","121.494986666667","24.990155","6500300","中和區"
"220013","072-UY","2018/08/02 14:49:44","新北市板橋區民族路272號","121.469795","25.0069233333333","6500100","板橋區"
"220034","073-UY","2018/08/02 14:49:35","新北市板橋區大觀路一段28巷88號","121.449895","25.0111016666667","6500100","板橋區"
"220017","AAD-861","2018/08/02 14:49:45","新北市板橋區南雅南路二段7巷12號","121.454393333333","25.002935","6500100","板橋區"
"220105","120-SR","2018/08/02 14:49:48","新北市板橋區文化路二段650巷17號","121.47804","25.0350766666667","6500100","板橋區"
"247023","893-R6","2018/08/02 14:49:30","新北市蘆洲區中山二路275號","121.469341666667","25.079225","6501400","蘆洲區"
"247013","546-UM","2018/08/02 14:49:38","新北市蘆洲區得勝街135號","121.471978333333","25.0832633333333","6501400","蘆洲區"
"247021","500-BY","2018/08/02 14:49:39","新北市蘆洲區仁愛街230巷16號","121.464315","25.0943166666667","6501400","蘆洲區"
"247005","336-TH","2018/08/02 14:49:37","新北市蘆洲區中華街3號","121.464031666667","25.0819133333333","6501400","蘆洲區"
"247007","056-VK","2018/08/02 14:47:23","新北市蘆洲區民生街39號","121.475285","25.07894","6501400","蘆洲區"
"247015","007-UY","2018/08/02 14:49:28","新北市蘆洲區和平路199號","121.466025","25.08155","6501400","蘆洲區"
"247001","002-UY","2018/08/02 14:49:37","新北市蘆洲區長安街246巷30號","121.458636666667","25.0864816666667","6501400","蘆洲區"
"247019","001-UY","2018/08/02 14:49:40","新北市蘆洲區民義街71巷19號","121.47256","25.09067","6501400","蘆洲區"
"235013","251-BX","2018/08/02 14:49:43","新北市中和區南華路5號","121.502058333333","24.9955183333333","6500300","中和區"
"228005","097-TW","2018/08/02 14:49:31","新北市貢寮區美豐里丹裡街69號","121.906095","25.0567033333333","6502600","貢寮區"
"228004","212-TW","2018/08/02 14:49:42","新北市貢寮區福隆里福隆街2巷12號","121.945926666667","25.0155833333333","6502600","貢寮區"
"253003","6232-TK","2018/08/02 14:49:37","新北市石門區尖子鹿90號","121.580255","25.2889616666667","6502200","石門區"
"253001","6251-TK","2018/08/02 14:49:30","新北市石門區崁子腳56號","121.53747","25.2743616666667","6502200","石門區"
"253002","637-UY","2018/08/02 14:49:29","新北市石門區楓林42號","121.540123333333","25.2805383333333","6502200","石門區"
"253004","8270-PC","2018/08/02 14:49:22","新北市石門區茂林社區226號","121.591371666667","25.2700466666667","6502200","石門區"
"207002","749-BX","2018/08/02 14:49:41","新北市萬里區崁腳里崁腳路73號","121.647671666667","25.1596","6502800","萬里區"
"207001","662-BX","2018/08/02 14:43:26","新北市萬里區雙興里豐稟路22-1號","121.64016","25.1843733333333","6502800","萬里區"
"252005","AAC-283","2018/08/02 14:49:33","新北市三芝區埔坪里埔頭坑147號","121.510333333333","25.2499","6502100","三芝區"
"236040","107-UM","2018/08/02 14:49:29","新北市土城區裕民路136巷8弄2號","121.450661666667","24.9851983333333","6501300","土城區"
"236074","166-UM","2018/08/02 14:49:38","新北市土城區中央路四段125巷2弄21號","121.4163","24.956745","6501300","土城區"
"236029","253-BX","2018/08/02 14:49:31","新北市土城區忠義路34號","121.440533333333","24.9698433333333","6501300","土城區"
"236024","269-VK","2018/08/02 14:49:36","新北市土城區慶安街80號","121.440668333333","24.9727516666667","6501300","土城區"
"236012","270-VK","2018/08/02 14:49:38","新北市土城區金城路二段354巷4號","121.460926666667","24.9849066666667","6501300","土城區"
"236032","271-VK","2018/08/02 14:49:33","新北市土城區仁愛路48-9號","121.462121666667","24.9789433333333","6501300","土城區"
"236068","KEA-2877","2018/08/02 14:49:38","新北市土城區明德路一段371號","121.453023333333","24.9796116666667","6501300","土城區"
"236017","401-BY","2018/08/02 14:49:40","新北市土城區延安街27號","121.467691666667","24.9852833333333","6501300","土城區"
"236057","912-UM","2018/08/02 14:49:48","新北市土城區中央路三段89巷8號","121.436911666667","24.9670883333333","6501300","土城區"
"236045","913-UM","2018/08/02 14:49:37","新北市土城區廣福街68巷18弄1號","121.45931","24.9904916666667","6501300","土城區"
"236060","915-UM","2018/08/02 14:49:45","新北市土城區延和路177巷7號","121.46967","24.9905016666667","6501300","土城區"
"236054","AAC-216","2018/08/02 14:49:30","新北市土城區裕民路222號","121.453541666667","24.9842916666667","6501300","土城區"
"238011","5061-A6","2018/08/02 14:49:33","新北市樹林區育德街78-1號","121.388068333333","24.9681016666667","6500700","樹林區"
"238004","283-BY","2018/08/02 14:49:36","新北市樹林區育德街78號","121.387501666667","24.968445","6500700","樹林區"
"221010","269-BY","2018/08/02 14:49:45","新北市汐止區康寧街885巷3號","121.650083333333","25.076495","6501100","汐止區"
"220027","145-BY","2018/08/02 14:49:41","新北市板橋區復興街30號","121.458143333333","25.017415","6500100","板橋區"
"220028","200-UY","2018/08/02 14:49:42","新北市板橋區大觀路二段59巷30號","121.447613333333","25.0023766666667","6500100","板橋區"
"220030","610-BX","2018/08/02 14:49:35","新北市板橋區溪北路101號","121.428986666667","24.9893916666667","6500100","板橋區"
"220050","245-BX","2018/08/02 14:49:40","新北市板橋區萬板路172號","121.475783333333","25.0229","6500100","板橋區"
"220004","276-BY","2018/08/02 14:49:30","新北市板橋區四川路二段99巷4弄2號","121.452871666667","24.9941216666667","6500100","板橋區"
"220020","277-BY","2018/08/02 14:49:41","新北市板橋區篤行路二段77巷12弄2號","121.432205","24.9917783333333","6500100","板橋區"
"220019","283-VK","2018/08/02 14:49:44","新北市板橋區五權街32巷4號","121.464748333333","24.993175","6500100","板橋區"
"220043","285-UM","2018/08/02 14:49:47","新北市板橋區長江路一段21號","121.458111666667","25.0292916666667","6500100","板橋區"
"220001","285-VK","2018/08/02 14:49:36","新北市板橋區民享街27號","121.475366666667","25.01463","6500100","板橋區"
"220031","286-VK","2018/08/02 14:49:44","新北市板橋區僑中二街8巷22號","121.446253333333","25.0113633333333","6500100","板橋區"
"220029","287-VK","2018/08/02 14:49:48","新北市板橋區大觀路一段28巷107-1號","121.44986","25.0122183333333","6500100","板橋區"
"220039","288-VK","2018/08/02 14:49:44","新北市板橋區龍泉街54巷7弄5號","121.45663","25.0264916666667","6500100","板橋區"
"220009","293-UM","2018/08/02 14:49:49","新北市板橋區觀光街9號","121.471736666667","25.0159216666667","6500100","板橋區"
"220010","295-UM","2018/08/02 14:49:34","新北市板橋區三民路二段29巷31弄3號","121.481465","25.01771","6500100","板橋區"
"220032","296-UM","2018/08/02 14:49:47","新北市板橋區溪崑二街112巷35弄5號","121.425318333333","24.989015","6500100","板橋區"
"220023","303-R5","2018/08/02 14:49:42","新北市板橋區金華街10巷13號","121.4563","25.0200716666667","6500100","板橋區"
"220041","307-R5","2018/08/02 14:49:35","新北市板橋區四維路259巷11號","121.46274","25.0278133333333","6500100","板橋區"
"220047","317-R6","2018/08/02 14:49:37","新北市板橋區新海路385巷18號","121.458143333333","25.0257883333333","6500100","板橋區"
"220012","486-VK","2018/08/02 14:49:36","新北市板橋區館前東路110-1號","121.46337","25.00756","6500100","板橋區"
"220037","491-VK","2018/08/02 14:49:33","新北市板橋區懷德街57號","121.477376666667","25.0326816666667","6500100","板橋區"
"220104","560-BX","2018/08/02 14:49:46","新北市板橋區金華街52號","121.456745","25.0204083333333","6500100","板橋區"
"220052","561-BX","2018/08/02 14:49:26","新北市板橋區陽明街29巷11號","121.464843333333","25.0219133333333","6500100","板橋區"
"220011","609-BX","2018/08/02 14:49:39","新北市板橋區三民路一段1巷28號","121.480231666667","25.0244766666667","6500100","板橋區"
"220040","637-BX","2018/08/02 14:49:35","新北市板橋區民治街78-4號","121.479513333333","25.0323166666667","6500100","板橋區"
"220005","686-BX","2018/08/02 14:49:32","新北市板橋區廣權路1號","121.460616666667","24.9912766666667","6500100","板橋區"
"220025","687-BX","2018/08/02 14:49:31","新北市板橋區僑中二街104巷2號","121.44604","25.0079033333333","6500100","板橋區"
"220042","689-BX","2018/08/02 14:49:43","新北市板橋區長江路一段143號","121.460785","25.0302733333333","6500100","板橋區"
"220002","741-BX","2018/08/02 14:49:40","新北市板橋區忠孝路忠義巷20弄2號","121.46653","25.003855","6500100","板橋區"
"220051","KEA-2699","2018/08/02 14:49:46","新北市板橋區松柏街50巷35-1號","121.476075","25.029615","6500100","板橋區"
"220003","827-TW","2018/08/02 14:49:30","新北市板橋區國慶路149巷29弄15號","121.460315","24.9976016666667","6500100","板橋區"
"220014","829-TW","2018/08/02 14:49:40","新北市板橋區長安街331巷93弄9號","121.472218333333","25.01236","6500100","板橋區"
"220016","830-TW","2018/08/02 14:49:38","新北市板橋區光復街150號","121.484793333333","25.0194566666667","6500100","板橋區"
"220045","831-TW","2018/08/02 14:49:33","新北市板橋區文化路二段124巷34弄24號","121.470511666667","25.0256716666667","6500100","板橋區"
"220038","833-TW","2018/08/02 14:49:38","新北市板橋區英士路37號","121.461693333333","25.025015","6500100","板橋區"
"220022","895-R6","2018/08/02 14:49:30","新北市板橋區文化路一段46巷23號","121.460408333333","25.0115233333333","6500100","板橋區"
"220021","985-R7","2018/08/02 14:49:31","新北市板橋區大仁街55號","121.454555","25.0163866666667","6500100","板橋區"
"220046","AAC-210","2018/08/02 14:49:41","新北市板橋區文化路一段285巷1號","121.464423333333","25.0188133333333","6500100","板橋區"
"220018","AAC-253","2018/08/02 14:49:48","新北市板橋區民族路243號","121.470085","25.0070566666667","6500100","板橋區"
"235032","KEA-2873","2018/08/02 14:49:42","新北市中和區景平路746號","121.496491666667","25.0043416666667","6500300","中和區"
"235025","KEA-2875","2018/08/02 14:49:18","新北市中和區員山路154號","121.48142","24.99921","6500300","中和區"
