"lineid","car","time","location","longitude","latitude","cityid","cityname"
"234070","149-BY","2018/08/02 15:19:31","新北市永和區竹林路91巷60弄70號","121.522861666667","25.0123016666667","6500400","永和區"
"234025","9371-KE","2018/08/02 15:19:42","新北市永和區保生路55-1號","121.504526666667","25.0109","6500400","永和區"
"248003","677-BX","2018/08/02 15:19:34","新北市五股區中興路四段23號","121.438858333333","25.0826983333333","6501500","五股區"
"243004","646-TV","2018/08/02 15:19:43","新北市泰山區泰林路三段330巷1號","121.412856666667","25.0687333333333","6501600","泰山區"
"231002","002-UM","2018/08/02 15:19:34","新北市新店區中正路700巷1號","121.533933333333","24.991205","6500600","新店區"
"231001","047-UY","2018/08/02 15:19:33","新北市新店區北新路一段14號","121.54078","24.9656416666667","6500600","新店區"
"231005","106-UY","2018/08/02 15:19:32","新北市新店區民族路15號","121.54146","24.9787433333333","6500600","新店區"
"231021","108-UY","2018/08/02 15:19:43","新北市新店區永福路102號","121.562576666667","24.9294883333333","6500600","新店區"
"231011","187-VK","2018/08/02 15:19:39","新北市新店區寶慶街84號","121.541236666667","24.98678","6500600","新店區"
"231023","KEA-2219","2018/08/02 15:19:41","新北市新店區北新路一段64巷39弄14號","121.542588333333","24.9658483333333","6500600","新店區"
"231026","256-BX","2018/08/02 15:19:35","新北市新店區中正路265巷32號","121.537676666667","24.9731633333333","6500600","新店區"
"231003","268-BY","2018/08/02 15:19:31","新北市新店區寶橋路230號","121.551518333333","24.9789083333333","6500600","新店區"
"231018","278-BY","2018/08/02 15:19:32","新北市新店區中央路109號","121.530965","24.9746283333333","6500600","新店區"
"231017","AAD-862","2018/08/02 15:19:25","新北市新店區明山路45號","121.563836666667","24.9558633333333","6500600","新店區"
"231028","355-BY","2018/08/02 15:19:49","新北市新店區僑信路74巷15號","121.499078333333","24.9482466666667","6500600","新店區"
"231038","3712-VJ","2018/08/02 15:19:40","新北市新店區安華路28-1號","121.519705","24.96084","6500600","新店區"
"231025","4715-K9","2018/08/02 15:19:30","新北市新店區中央路57號","121.532708333333","24.9774","6500600","新店區"
"231036","512-UM","2018/08/02 15:19:38","新北市新店區安祥路69巷17號","121.481926666667","24.9613233333333","6500600","新店區"
"231034","616-UM","2018/08/02 15:19:49","新北市新店區如意街3巷1號","121.495646666667","24.9493316666667","6500600","新店區"
"231006","617-UM","2018/08/02 15:19:39","新北市新店區北新路一段4號","121.540865","24.9652083333333","6500600","新店區"
"231030","619-UM","2018/08/02 15:19:48","新北市新店區安民街341-1號","121.516848333333","24.9749233333333","6500600","新店區"
"231039","718-UY","2018/08/02 15:19:45","新北市新店區中興路三段258號","121.542816666667","24.984265","6500600","新店區"
"231035","719-UM","2018/08/02 15:18:59","新北市新店區永平街23巷5號","121.516863333333","24.9830333333333","6500600","新店區"
"231029","897-TW","2018/08/02 15:19:30","新北市新店區安康路三段738號","121.473876666667","24.94201","6500600","新店區"
"231004","899-TW","2018/08/02 15:19:27","新北市新店區博愛街13巷24號","121.540231666667","24.974015","6500600","新店區"
"231024","AKT-0513","2018/08/02 15:19:43","新北市新店區新明街10號","121.54111","24.9682666666667","6500600","新店區"
"241011","013-R5","2018/08/02 15:19:30","新北市三重區成功路187號","121.485218333333","25.0526116666667","6500200","三重區"
"241015","062-VK","2018/08/02 15:19:34","新北市三重區重新路四段121號","121.485153333333","25.052255","6500200","三重區"
"235030","003-UY","2018/08/02 15:19:26","新北市中和區保平路328號","121.506935","25.00422","6500300","中和區"
"235014","4979-A6","2018/08/02 15:19:47","新北市中和區景平路221巷10號","121.510055","24.9922483333333","6500300","中和區"
"235033","4980-A6","2018/08/02 15:19:41","新北市中和區圓通路169號","121.497566666667","24.9953566666667","6500300","中和區"
"235035","783-BX","2018/08/02 15:19:44","新北市中和區永和路341巷7號","121.483221666667","25.010515","6500300","中和區"
"235012","896-TW","2018/08/02 15:19:34","新北市中和區景新街368號","121.512176666667","24.9903733333333","6500300","中和區"
"235001","AAC-213","2018/08/02 15:19:34","新北市板橋區民生路一段85號","121.474776666667","25.0138783333333","6500300","中和區"
"235023","AAC-215","2018/08/02 15:19:43","新北市中和區圓通路435巷3-1號","121.487835","24.986485","6500300","中和區"
"247007","056-VK","2018/08/02 15:19:46","新北市蘆洲區中山二路309號","121.469075","25.0771283333333","6501400","蘆洲區"
"253003","6232-TK","2018/08/02 15:19:37","新北市石門區小坑9號","121.594368333333","25.2891383333333","6502200","石門區"
"253001","6251-TK","2018/08/02 15:19:30","新北市石門區小坑9號","121.594221666667","25.2886933333333","6502200","石門區"
"253002","637-UY","2018/08/02 15:19:29","新北市石門區尖子鹿103-1號","121.580673333333","25.2960233333333","6502200","石門區"
"253004","8270-PC","2018/08/02 15:19:30","新北市石門區小坑20號","121.596333333333","25.281875","6502200","石門區"
"207002","749-BX","2018/08/02 15:19:41","新北市萬里區崁腳里內中福路2-1號","121.669206666667","25.1653833333333","6502800","萬里區"
"207001","662-BX","2018/08/02 15:19:27","新北市萬里區磺潭里員潭路1-1號","121.647035","25.2029233333333","6502800","萬里區"
"236040","107-UM","2018/08/02 15:19:49","新北市土城區學府路一段145號","121.453675","24.98609","6501300","土城區"
"236074","166-UM","2018/08/02 15:19:40","新北市土城區溪頭路119號","121.40988","24.9515116666667","6501300","土城區"
"236029","253-BX","2018/08/02 15:19:31","新北市土城區中央路一段260巷26號","121.442745","24.98474","6501300","土城區"
"236024","269-VK","2018/08/02 15:19:37","新北市土城區員林街1號","121.44229","24.9781816666667","6501300","土城區"
"236012","270-VK","2018/08/02 15:19:38","新北市土城區廣福街68巷32-1號","121.458723333333","24.9903233333333","6501300","土城區"
"236032","271-VK","2018/08/02 15:19:43","新北市土城區國際路156號","121.46788","24.976445","6501300","土城區"
"236068","KEA-2877","2018/08/02 15:19:38","新北市土城區裕民路185巷36弄10號","121.45434","24.98448","6501300","土城區"
"236017","401-BY","2018/08/02 15:19:50","新北市土城區峰廷街10號","121.468735","24.98758","6501300","土城區"
"236057","912-UM","2018/08/02 15:19:42","新北市土城區金城路一段3號","121.439165","24.9689616666667","6501300","土城區"
"236045","913-UM","2018/08/02 15:19:44","新北市土城區明德路一段69巷7號","121.4655","24.9837283333333","6501300","土城區"
"236060","915-UM","2018/08/02 15:19:45","新北市土城區延平街69巷8號","121.467276666667","24.9928966666667","6501300","土城區"
"236054","AAC-216","2018/08/02 15:19:32","新北市土城區學府路一段93號","121.456361666667","24.9880216666667","6501300","土城區"
"238010","601-UM","2018/08/02 15:19:30","新北市樹林區中正路433號","121.414998333333","25.0085983333333","6500700","樹林區"
"238006","599-UM","2018/08/02 15:19:37","新北市樹林區太平路1-10號","121.41875","24.9844116666667","6500700","樹林區"
"238005","571-TV","2018/08/02 15:19:45","新北市樹林區樹新路162-1號","121.430708333333","24.999535","6500700","樹林區"
"238011","5061-A6","2018/08/02 15:19:32","新北市樹林區太平路99號","121.419105","24.9812733333333","6500700","樹林區"
"238009","KEA-2213","2018/08/02 15:19:20","新北市樹林區忠孝街31號","121.423685","24.98219","6500700","樹林區"
"238008","KEA-2539","2018/08/02 15:19:37","新北市樹林區西圳街一段165巷20弄11號","121.395573333333","24.9601616666667","6500700","樹林區"
"238012","303-VK","2018/08/02 15:19:43","新北市樹林區中山路一段103號","121.423071666667","24.9909383333333","6500700","樹林區"
"238004","283-BY","2018/08/02 15:19:46","新北市樹林區保安街二段333巷2號","121.412443333333","25.0076166666667","6500700","樹林區"
"238001","282-BY","2018/08/02 15:19:35","新北市樹林區大安路145巷31號","121.42339","24.99637","6500700","樹林區"
"238007","268-VK","2018/08/02 15:19:35","新北市樹林區俊英街21-7號","121.429086666667","25.0019083333333","6500700","樹林區"
"238013","172-UY","2018/08/02 15:19:35","新北市樹林區新興街22號","121.399916666667","24.972765","6500700","樹林區"
"238003","169-UY","2018/08/02 15:19:39","新北市樹林區中山路一段103號","121.423093333333","24.9908783333333","6500700","樹林區"
"220050","245-BX","2018/08/02 15:18:20","新北市板橋區莊敬路252號","121.473878333333","25.021505","6500100","板橋區"
"220031","286-VK","2018/08/02 15:19:44","新北市板橋區僑中二街102巷45號","121.44439","25.00848","6500100","板橋區"
"220041","307-R5","2018/08/02 15:19:34","新北市板橋區文化路一段47號","121.460536666667","25.0132066666667","6500100","板橋區"
"220047","317-R6","2018/08/02 15:19:37","新北市五股區五工一路112號","121.456191666667","25.0712616666667","6500100","板橋區"
"220052","561-BX","2018/08/02 15:19:46","新北市板橋區漢生西路56號","121.463036666667","25.0188","6500100","板橋區"
"220011","609-BX","2018/08/02 15:19:39","新北市板橋區三民路一段107號","121.479468333333","25.021305","6500100","板橋區"
"220042","689-BX","2018/08/02 15:19:50","新北市板橋區長江路二段280-9號","121.470116666667","25.0329216666667","6500100","板橋區"
"220051","KEA-2699","2018/08/02 15:19:45","新北市板橋區縣民大道三段155號","121.478895","25.0242033333333","6500100","板橋區"
"220003","827-TW","2018/08/02 15:19:30","新北市板橋區南雅南路二段49號","121.451558333333","24.9944833333333","6500100","板橋區"
"220038","833-TW","2018/08/02 15:19:27","新北市板橋區互助街73號","121.460315","25.02613","6500100","板橋區"
"220022","895-R6","2018/08/02 15:19:48","新北市新莊區瓊林路59-82號","121.444306666667","25.02185","6500100","板橋區"
"220018","AAC-253","2018/08/02 15:19:37","新北市板橋區德興街16號","121.453418333333","24.994395","6500100","板橋區"
"235025","KEA-2875","2018/08/02 15:19:18","新北市中和區員山路154號","121.481376666667","24.9991266666667","6500300","中和區"
