"lineid","car","time","location","longitude","latitude","cityid","cityname"
"234070","149-BY","2018/08/02 15:39:31","新北市永和區福和路1號","121.526243333333","25.0097466666667","6500400","永和區"
"243014","680-BX","2018/08/02 15:36:41","新北市泰山區黎明路25號","121.421916666667","25.0606333333333","6501600","泰山區"
"231002","002-UM","2018/08/02 15:39:34","新北市新店區環河路18號","121.536911666667","24.9616383333333","6500600","新店區"
"231005","106-UY","2018/08/02 15:39:32","新北市新店區民族路190號","121.536385","24.97556","6500600","新店區"
"231021","108-UY","2018/08/02 15:39:43","新北市新店區湖興路49號","121.562671666667","24.9339316666667","6500600","新店區"
"231011","187-VK","2018/08/02 15:39:39","新北市新店區寶元路一段109號","121.545646666667","24.983135","6500600","新店區"
"231023","KEA-2219","2018/08/02 15:39:41","新北市新店區五峰路48巷1號","121.544835","24.9686983333333","6500600","新店區"
"231026","256-BX","2018/08/02 15:39:35","新北市新店區三民路75巷4弄2號","121.535548333333","24.9708933333333","6500600","新店區"
"231003","268-BY","2018/08/02 15:39:31","新北市新店區中興路二段196號","121.54831","24.97388","6500600","新店區"
"231018","278-BY","2018/08/02 15:39:32","新北市新店區溪園路247號","121.525795","24.9834616666667","6500600","新店區"
"231017","AAD-862","2018/08/02 15:39:45","新北市新店區北宜路一段260號","121.545666666667","24.9528833333333","6500600","新店區"
"231038","3712-VJ","2018/08/02 15:39:40","新北市新店區安康路一段266巷4號","121.519938333333","24.9640016666667","6500600","新店區"
"231037","4716-K9","2018/08/02 15:39:32","新北市新店區安民街365巷1弄8號","121.5164","24.9751016666667","6500600","新店區"
"231025","4715-K9","2018/08/02 15:39:10","新北市新店區柴埕路116號","121.504128333333","24.9597283333333","6500600","新店區"
"231036","512-UM","2018/08/02 15:39:39","新北市新店區安祥路63號","121.483906666667","24.9602566666667","6500600","新店區"
"231013","513-UM","2018/08/02 15:39:30","新北市新店區永業路81巷1弄10號","121.53016","24.9499816666667","6500600","新店區"
"231034","616-UM","2018/08/02 15:39:31","新北市新店區玫瑰路61巷2號","121.495958333333","24.94521","6500600","新店區"
"231030","619-UM","2018/08/02 15:39:48","新北市新店區新和街116巷13號","121.521535","24.9859633333333","6500600","新店區"
"231039","718-UY","2018/08/02 15:39:45","新北市新店區寶元路二段52號","121.546896666667","24.9814416666667","6500600","新店區"
"231035","719-UM","2018/08/02 15:39:32","新北市新店區安民街379巷13號","121.515441666667","24.97577","6500600","新店區"
"231029","897-TW","2018/08/02 15:39:30","新北市新店區安康路二段357號","121.49578","24.9548783333333","6500600","新店區"
"231024","AKT-0513","2018/08/02 15:39:43","新北市新店區薏仁坑路自強巷1號","121.497431666667","24.95771","6500600","新店區"
"241011","013-R5","2018/08/02 15:39:31","新北市三重區仁愛街31號","121.4968","25.071175","6500200","三重區"
"241008","059-VK","2018/08/02 15:39:32","新北市三重區重新路四段121號","121.485148333333","25.0523216666667","6500200","三重區"
"241015","062-VK","2018/08/02 15:39:34","新北市三重區重新路四段121號","121.485091666667","25.0522416666667","6500200","三重區"
"241017","063-VK","2018/08/02 15:39:45","新北市三重區重新路三段130號","121.491741666667","25.0599783333333","6500200","三重區"
"241003","091-VK","2018/08/02 15:39:39","新北市三重區仁美街64號","121.486458333333","25.0785033333333","6500200","三重區"
"241028","265-UM","2018/08/02 15:39:49","新北市三重區成功路1號","121.490693333333","25.049885","6500200","三重區"
"241016","266-UM","2018/08/02 15:39:29","新北市三重區重新路四段121號","121.485105","25.052375","6500200","三重區"
"241018","268-UM","2018/08/02 15:39:31","新北市三重區重新路四段121號","121.484753333333","25.0525383333333","6500200","三重區"
"241013","270-UM","2018/08/02 15:39:49","新北市三重區正義北路326號","121.494781666667","25.070465","6500200","三重區"
"241025","271-UM","2018/08/02 15:39:40","新北市三重區重新路四段121號","121.484855","25.0525833333333","6500200","三重區"
"241007","398-BY","2018/08/02 15:39:34","新北市三重區重新路四段121號","121.485098333333","25.0522983333333","6500200","三重區"
"241001","413-TH","2018/08/02 15:39:40","新北市三重區重新路四段121號","121.484903333333","25.0526766666667","6500200","三重區"
"241020","478-VK","2018/08/02 15:39:33","新北市三重區忠孝路二段52號","121.48503","25.0704133333333","6500200","三重區"
"241023","545-UM","2018/08/02 15:39:48","新北市三重區重新路四段121號","121.484773333333","25.0525666666667","6500200","三重區"
"241006","AAD-863","2018/08/02 15:39:34","新北市三重區重新路四段121號","121.484655","25.0521333333333","6500200","三重區"
"241012","941-UM","2018/08/02 15:39:31","新北市三重區自強路一段66號","121.497083333333","25.06662","6500200","三重區"
"241029","942-UM","2018/08/02 15:39:34","新北市三重區環河南路220-8號","121.49338","25.0527016666667","6500200","三重區"
"241033","AAC-255","2018/08/02 15:39:33","新北市三重區重新路五段283號","121.479325","25.048925","6500200","三重區"
"235014","4979-A6","2018/08/02 15:39:27","新北市中和區景平路385巷9弄49號","121.501638333333","24.994015","6500300","中和區"
"235033","4980-A6","2018/08/02 15:39:41","新北市中和區員山路359巷1弄8號","121.481","25.0016316666667","6500300","中和區"
"235023","AAC-215","2018/08/02 15:39:43","新北市中和區員山路17號","121.480416666667","24.9847066666667","6500300","中和區"
"247007","056-VK","2018/08/02 15:25:54","新北市五股區中興路三段2巷10號","121.449168333333","25.0809483333333","6501400","蘆洲區"
"227004","642-TC","2018/08/02 15:39:39","新北市雙溪區雙溪里中正路50號","121.865341666667","25.039635","6502500","雙溪區"
"236074","166-UM","2018/08/02 15:39:37","新北市土城區中山路6號","121.412723333333","24.96073","6501300","土城區"
"236024","269-VK","2018/08/02 15:39:36","新北市土城區明德路二段291號","121.44468","24.984295","6501300","土城區"
"236012","270-VK","2018/08/02 15:39:38","新北市土城區廣明街90巷29號","121.455698333333","24.9947283333333","6501300","土城區"
"236068","KEA-2877","2018/08/02 15:39:38","新北市土城區中央路三段134-1號","121.433465","24.9655766666667","6501300","土城區"
"236017","401-BY","2018/08/02 15:39:40","新北市土城區延吉街111巷15號","121.471946666667","24.986","6501300","土城區"
"236057","912-UM","2018/08/02 15:39:48","新北市土城區員福街2號","121.44197","24.9783833333333","6501300","土城區"
"236045","913-UM","2018/08/02 15:39:37","新北市土城區延壽路2巷5號","121.47207","24.9901783333333","6501300","土城區"
"236060","915-UM","2018/08/02 15:39:45","新北市土城區金城路三段56號","121.465971666667","24.9867383333333","6501300","土城區"
"236054","AAC-216","2018/08/02 15:39:30","新北市土城區立德路103號","121.463315","24.9876316666667","6501300","土城區"
"238002","755-BX","2018/08/02 15:39:31","新北市樹林區育英街74號","121.42082","24.9893233333333","6500700","樹林區"
"238010","601-UM","2018/08/02 15:39:30","新北市樹林區福興街13巷7號","121.404256666667","25.0166833333333","6500700","樹林區"
"238006","599-UM","2018/08/02 15:39:31","新北市樹林區八德街11號","121.420033333333","24.974735","6500700","樹林區"
"238005","571-TV","2018/08/02 15:39:36","新北市樹林區中華路213號","121.419491666667","24.98131","6500700","樹林區"
"238011","5061-A6","2018/08/02 15:39:32","新北市樹林區中山路三段92號","121.393145","24.9722416666667","6500700","樹林區"
"238009","KEA-2213","2018/08/02 15:39:40","新北市樹林區太元街32號","121.418063333333","24.9801916666667","6500700","樹林區"
"238008","KEA-2539","2018/08/02 15:39:37","新北市樹林區柑園街一段262-5號","121.390481666667","24.956435","6500700","樹林區"
"238012","303-VK","2018/08/02 15:39:48","新北市樹林區中山路一段249號","121.420455","24.9865","6500700","樹林區"
"238004","283-BY","2018/08/02 15:39:44","新北市樹林區光榮街21號","121.412168333333","25.0038616666667","6500700","樹林區"
"238001","282-BY","2018/08/02 15:39:35","新北市樹林區潭興街92號","121.425536666667","24.9994616666667","6500700","樹林區"
"238007","268-VK","2018/08/02 15:39:35","新北市樹林區俊英街210號","121.425225","25.0094266666667","6500700","樹林區"
"238013","172-UY","2018/08/02 15:39:35","新北市樹林區中洲街20巷1弄27號","121.397973333333","24.9717266666667","6500700","樹林區"
"238003","169-UY","2018/08/02 15:39:39","新北市樹林區復興路337號","121.417783333333","24.9877733333333","6500700","樹林區"
"220047","317-R6","2018/08/02 15:39:37","新北市八里區中山路三段409號","121.368686666667","25.13435","6500100","板橋區"
"220003","827-TW","2018/08/02 15:39:30","新北市樹林區中山路三段214號","121.380065","24.96786","6500100","板橋區"
"220038","833-TW","2018/08/02 15:39:27","新北市板橋區陽明街283號","121.462043333333","25.02635","6500100","板橋區"
"220022","895-R6","2018/08/02 15:39:48","新北市八里區下罟子5-6號","121.38651","25.14577","6500100","板橋區"
