"lineid","car","time","location","longitude","latitude","cityid","cityname"
"243012","646-TV","2018/08/02 15:45:23","新北市泰山區黎明路25號","121.422081666667","25.060695","6501600","泰山區"
"231046","107-UY","2018/08/02 16:09:28","新北市新店區永業路34號","121.532678333333","24.9555033333333","6500600","新店區"
"231021","108-UY","2018/08/02 16:09:43","新北市新店區新烏路一段85巷2-1號","121.548645","24.9423766666667","6500600","新店區"
"231011","187-VK","2018/08/02 16:09:39","新北市新店區安德街116巷30號","121.508446666667","24.9618666666667","6500600","新店區"
"231026","256-BX","2018/08/02 16:09:35","新北市新店區安康路一段44號","121.53072","24.9610516666667","6500600","新店區"
"231018","278-BY","2018/08/02 16:09:32","新北市新店區中正路694巷15號","121.535368333333","24.9908883333333","6500600","新店區"
"231037","4716-K9","2018/08/02 16:09:32","新北市新店區薏仁坑路自強巷1號","121.49697","24.9579516666667","6500600","新店區"
"241011","013-R5","2018/08/02 16:09:30","新北市三重區正義北路279號","121.495166666667","25.0702933333333","6500200","三重區"
"241008","059-VK","2018/08/02 16:09:32","新北市三重區忠孝路二段102號","121.483466666667","25.0692866666667","6500200","三重區"
"241022","060-VK","2018/08/02 16:09:45","新北市三重區重陽路二段72號","121.487355","25.064075","6500200","三重區"
"241031","061-VK","2018/08/02 16:09:36","新北市三重區重新路四段121號","121.484905","25.0520683333333","6500200","三重區"
"241015","062-VK","2018/08/02 16:09:34","新北市三重區福德南路53號","121.503358333333","25.061315","6500200","三重區"
"241017","063-VK","2018/08/02 16:09:45","新北市三重區大同北路148巷76號","121.490145","25.0644666666667","6500200","三重區"
"241024","065-VK","2018/08/02 16:09:34","新北市三重區中正北路145巷9弄15號","121.485536666667","25.0677116666667","6500200","三重區"
"241026","066-VK","2018/08/02 16:09:39","新北市三重區正義南路15號","121.497676666667","25.0615983333333","6500200","三重區"
"241002","090-VK","2018/08/02 16:09:42","新北市三重區仁義街91號","121.499761666667","25.0794733333333","6500200","三重區"
"241003","091-VK","2018/08/02 16:09:39","新北市三重區自強路五段122號","121.497141666667","25.0837883333333","6500200","三重區"
"241005","262-UM","2018/08/02 16:09:44","新北市三重區溪尾街305號","121.487538333333","25.083715","6500200","三重區"
"241028","265-UM","2018/08/02 16:09:49","新北市三重區正義南路111號","121.49819","25.0585883333333","6500200","三重區"
"241016","266-UM","2018/08/02 16:09:29","新北市三重區重新路三段94號","121.492771666667","25.0609183333333","6500200","三重區"
"241009","267-UM","2018/08/02 16:09:37","新北市三重區力行路二段158號","121.482763333333","25.0762683333333","6500200","三重區"
"241018","268-UM","2018/08/02 16:09:31","新北市三重區明志街75號","121.490963333333","25.0637833333333","6500200","三重區"
"241013","270-UM","2018/08/02 16:09:29","新北市三重區文化北路248號","121.497303333333","25.0699316666667","6500200","三重區"
"241025","271-UM","2018/08/02 16:09:40","新北市三重區忠孝路三段40巷10號","121.482036666667","25.0664083333333","6500200","三重區"
"241007","398-BY","2018/08/02 16:09:33","新北市三重區慈愛街10號","121.48451","25.0784716666667","6500200","三重區"
"241001","413-TH","2018/08/02 16:09:40","新北市三重區自強路四段77號","121.490683333333","25.0788966666667","6500200","三重區"
"241004","475-VK","2018/08/02 16:09:51","新北市三重區五華街74號","121.493465","25.0819916666667","6500200","三重區"
"241020","478-VK","2018/08/02 16:09:33","新北市三重區後竹圍街271號","121.482825","25.071045","6500200","三重區"
"241030","480-VK","2018/08/02 16:09:36","新北市三重區重新路四段121號","121.485048333333","25.0524316666667","6500200","三重區"
"241014","543-UM","2018/08/02 16:09:42","新北市三重區正義南路183號","121.499466666667","25.0563716666667","6500200","三重區"
"241023","545-UM","2018/08/02 16:09:48","新北市三重區力行路一段60-1號","121.484623333333","25.0690983333333","6500200","三重區"
"241019","KEA-2593","2018/08/02 16:09:45","新北市三重區重陽路三段184號","121.490243333333","25.068155","6500200","三重區"
"241006","AAD-863","2018/08/02 16:09:33","新北市三重區永福街58巷3弄20號","121.480688333333","25.07735","6500200","三重區"
"241012","941-UM","2018/08/02 16:09:51","新北市三重區文化北路132巷51號","121.49719","25.0664166666667","6500200","三重區"
"241029","942-UM","2018/08/02 16:09:34","新北市三重區同安街36號","121.496026666667","25.0567766666667","6500200","三重區"
"241033","AAC-255","2018/08/02 16:09:33","新北市三重區五谷王南街50-1號","121.473815","25.0446416666667","6500200","三重區"
"235026","800-TS","2018/08/02 16:09:34","新北市中和區永和路206號","121.49198","25.0074283333333","6500300","中和區"
"247007","056-VK","2018/08/02 16:09:47","新北市五股區中興路三段2巷10號","121.449111666667","25.0809816666667","6501400","蘆洲區"
"224007","275-VK","2018/08/02 16:09:44","新北市瑞芳區粗坑口路24號","121.761348333333","25.0989866666667","6501200","瑞芳區"
"227004","642-TC","2018/08/02 16:09:39","新北市雙溪區上林里內平林29號","121.834061666667","25.0312666666667","6502500","雙溪區"
"227010","400-TW","2018/08/02 16:09:33","新北市雙溪區三港里雙澳路86號","121.88528","25.0543733333333","6502500","雙溪區"
"251008","181-VK","2018/08/02 16:09:29","新北市淡水區文化路57號","121.438588333333","25.17282","6501000","淡水區"
"236057","912-UM","2018/08/02 16:09:48","新北市土城區中央路二段193號","121.442116666667","24.9752333333333","6501300","土城區"
"238002","755-BX","2018/08/02 16:09:49","新北市樹林區啟智街86巷19號","121.418021666667","24.9909366666667","6500700","樹林區"
"238010","601-UM","2018/08/02 16:09:50","新北市樹林區三福街85巷11號","121.407296666667","25.0154533333333","6500700","樹林區"
"238006","599-UM","2018/08/02 16:09:31","新北市樹林區中華路190-6號","121.410783333333","24.9807166666667","6500700","樹林區"
"238009","KEA-2213","2018/08/02 16:09:40","新北市樹林區八德街263-1號","121.4193","24.973785","6500700","樹林區"
"238025","303-VK","2018/08/02 16:06:38","新北市樹林區中正路22-1號","121.427941666667","24.9993433333333","6500700","樹林區"
"238004","283-BY","2018/08/02 16:09:37","新北市樹林區中正路433-1號","121.414913333333","25.00813","6500700","樹林區"
"238001","282-BY","2018/08/02 16:09:35","新北市樹林區千歲街92巷7弄17號","121.42738","24.998015","6500700","樹林區"
"238007","268-VK","2018/08/02 16:09:35","新北市樹林區三俊街135巷52號","121.418703333333","25.0172166666667","6500700","樹林區"
"238013","172-UY","2018/08/02 16:09:35","新北市樹林區佳園路一段41巷18號","121.393956666667","24.9710616666667","6500700","樹林區"
"220022","895-R6","2018/08/02 16:09:28","新北市八里區中山路三段385號","121.372145","25.1375916666667","6500100","板橋區"
