"lineid","car","time","location","longitude","latitude","cityid","cityname"
"249005","172-UM","2018/08/02 16:29:39","新北市八里區龍米路三段2號","121.4294","25.1590233333333","6502300","八里區"
"244019","403-UM","2018/08/02 16:29:34","新北市林口區粉寮69號","121.405035","25.0907833333333","6501700","林口區"
"243009","297-R6","2018/08/02 16:15:20","新北市泰山區黎明路25號","121.422025","25.061035","6501600","泰山區"
"231046","107-UY","2018/08/02 16:29:48","新北市新店區灣潭路3-3號","121.538235","24.9507933333333","6500600","新店區"
"241011","013-R5","2018/08/02 16:29:50","新北市三重區龍濱路182號","121.50125","25.073","6500200","三重區"
"241008","059-VK","2018/08/02 16:29:32","新北市三重區力行路二段136巷45弄10號","121.479175","25.075295","6500200","三重區"
"241022","060-VK","2018/08/02 16:29:45","新北市三重區新北大道一段86巷5號","121.486016666667","25.0618516666667","6500200","三重區"
"241031","061-VK","2018/08/02 16:29:36","新北市三重區重陽路一段59號","121.486696666667","25.0584883333333","6500200","三重區"
"241015","062-VK","2018/08/02 16:29:34","新北市三重區信義街79號","121.501785","25.0651016666667","6500200","三重區"
"241017","063-VK","2018/08/02 16:29:45","新北市三重區大同北路85號","121.494818333333","25.0635933333333","6500200","三重區"
"241024","065-VK","2018/08/02 16:29:34","新北市三重區中正北路289號","121.474721666667","25.071415","6500200","三重區"
"241026","066-VK","2018/08/02 16:29:39","新北市三重區文化南路42號","121.500365","25.0603616666667","6500200","三重區"
"241002","090-VK","2018/08/02 16:29:42","新北市三重區五華街9-1號","121.495131666667","25.0801016666667","6500200","三重區"
"241003","091-VK","2018/08/02 16:29:39","新北市三重區仁義街230巷10號","121.494326666667","25.0848533333333","6500200","三重區"
"241005","262-UM","2018/08/02 16:29:43","新北市三重區溪尾街305號","121.487595","25.0836933333333","6500200","三重區"
"241028","265-UM","2018/08/02 16:29:29","新北市三重區中正南路212號","121.49403","25.055525","6500200","三重區"
"241016","266-UM","2018/08/02 16:29:49","新北市三重區大智街21號","121.494235","25.0657833333333","6500200","三重區"
"241009","267-UM","2018/08/02 16:29:37","新北市三重區三和路四段181巷110號","121.48491","25.0799266666667","6500200","三重區"
"241018","268-UM","2018/08/02 16:29:31","新北市三重區重陽路四段62號","121.491788333333","25.0703766666667","6500200","三重區"
"241032","269-UM","2018/08/02 16:29:32","新北市三重區三陽路100巷3弄13號","121.482998333333","25.05815","6500200","三重區"
"241013","270-UM","2018/08/02 16:29:49","新北市三重區仁愛街50號","121.496011666667","25.0728183333333","6500200","三重區"
"241025","271-UM","2018/08/02 16:29:40","新北市三重區中正北路560巷100弄17-1號","121.472646666667","25.06842","6500200","三重區"
"241007","398-BY","2018/08/02 16:29:33","新北市三重區三和路四段167巷178號","121.487906666667","25.08038","6500200","三重區"
"241001","413-TH","2018/08/02 16:29:40","新北市三重區福隆路50號","121.492513333333","25.078495","6500200","三重區"
"241004","475-VK","2018/08/02 16:29:51","新北市三重區仁愛街377巷10號","121.491818333333","25.0805266666667","6500200","三重區"
"241020","478-VK","2018/08/02 16:29:33","新北市三重區後竹圍街252號","121.484261666667","25.0712683333333","6500200","三重區"
"241030","480-VK","2018/08/02 16:29:36","新北市三重區重新路四段121號","121.48537","25.0519166666667","6500200","三重區"
"241014","543-UM","2018/08/02 16:29:42","新北市三重區河邊北街70-3號","121.5043","25.0683833333333","6500200","三重區"
"241023","545-UM","2018/08/02 16:29:48","新北市三重區忠孝路三段50巷43號","121.482831666667","25.064435","6500200","三重區"
"241019","KEA-2593","2018/08/02 16:29:39","新北市三重區重陽路三段97號","121.490325","25.0679966666667","6500200","三重區"
"241006","AAD-863","2018/08/02 16:29:33","新北市三重區力行路二段131號","121.483263333333","25.0768766666667","6500200","三重區"
"241012","941-UM","2018/08/02 16:29:31","新北市三重區河邊北街379-1號","121.501743333333","25.0765","6500200","三重區"
"241029","942-UM","2018/08/02 16:29:34","新北市三重區集美街126巷14號","121.489508333333","25.053855","6500200","三重區"
"241033","AAC-255","2018/08/02 16:29:33","新北市三重區重新路五段317巷1弄1號","121.4775","25.0490816666667","6500200","三重區"
"235026","800-TS","2018/08/02 16:29:34","新北市中和區建八路130號","121.489076666667","24.9984683333333","6500300","中和區"
"247007","056-VK","2018/08/02 16:22:26","新北市五股區中興路三段2巷10號","121.449358333333","25.081","6501400","蘆洲區"
"235013","251-BX","2018/08/02 16:17:47","新北市中和區員山路36巷13號","121.484233333333","24.9908683333333","6500300","中和區"
"224007","275-VK","2018/08/02 16:29:44","新北市瑞芳區大埔路58號","121.763836666667","25.10226","6501200","瑞芳區"
"224005","271-BY","2018/08/02 16:29:43","新北市瑞芳區瑞濱路67號","121.822145","25.120815","6501200","瑞芳區"
"227004","642-TC","2018/08/02 16:29:39","新北市雙溪區上林里內平林120-1號","121.82503","25.0265033333333","6502500","雙溪區"
"227010","400-TW","2018/08/02 16:29:33","新北市雙溪區牡丹里中正路61巷12號","121.867738333333","25.04288","6502500","雙溪區"
"251013","KEA-2871","2018/08/02 16:29:35","新北市淡水區北新路三段162號","121.492333333333","25.1915183333333","6501000","淡水區"
"251016","179-VK","2018/08/02 16:29:49","新北市淡水區中正路二段31號","121.419275","25.1817416666667","6501000","淡水區"
"251014","180-VK","2018/08/02 16:29:32","新北市淡水區濱海路三段148巷50弄72號","121.431171666667","25.1914533333333","6501000","淡水區"
"251008","181-VK","2018/08/02 16:29:36","新北市淡水區民生路40號","121.461575","25.1379166666667","6501000","淡水區"
"252002","178-VK","2018/08/02 16:29:42","新北市三芝區埔坪里埔頭坑79號","121.509621666667","25.2542883333333","6502100","三芝區"
"238006","599-UM","2018/08/02 16:29:31","新北市樹林區中華路162號","121.415655","24.980255","6500700","樹林區"
"238011","5061-A6","2018/08/02 16:28:59","新北市樹林區鎮前街77-21號","121.424855","24.990125","6500700","樹林區"
"238025","303-VK","2018/08/02 16:06:38","新北市樹林區中正路22-1號","121.427941666667","24.9993433333333","6500700","樹林區"
"238004","283-BY","2018/08/02 16:29:37","新北市樹林區中正路433-1號","121.414866666667","25.0080366666667","6500700","樹林區"
"238001","282-BY","2018/08/02 16:29:35","新北市樹林區中正路22-1號","121.427801666667","24.9997066666667","6500700","樹林區"
"220022","895-R6","2018/08/02 16:29:48","新北市五股區新五路二段85號","121.436816666667","25.0741516666667","6500100","板橋區"
