"lineid","car","time","location","longitude","latitude","cityid","cityname"
"249005","172-UM","2018/08/02 16:49:39","新北市八里區大堀湖2-3號","121.422343333333","25.15369","6502300","八里區"
"249004","303-UY","2018/08/02 16:49:34","新北市八里區博物館路202巷36號","121.405271666667","25.15955","6502300","八里區"
"249003","593-UM","2018/08/02 16:49:32","新北市八里區中山路二段283號","121.401578333333","25.1486416666667","6502300","八里區"
"244013","069-UM","2018/08/02 16:49:42","新北市林口區粉寮69號","121.405005","25.09087","6501700","林口區"
"244007","080-UY","2018/08/02 16:49:38","新北市林口區竹林路320巷2號","121.390685","25.0822383333333","6501700","林口區"
"244019","403-UM","2018/08/02 16:49:34","新北市林口區粉寮69號","121.405056666667","25.09078","6501700","林口區"
"244017","485-VK","2018/08/02 16:49:47","新北市林口區粉寮69號","121.405091666667","25.0908266666667","6501700","林口區"
"244021","838-TS","2018/08/02 16:49:45","新北市林口區粉寮路二段160巷28號","121.405165","25.090765","6501700","林口區"
"231046","107-UY","2018/08/02 16:49:48","新北市新店區灣潭路29-3號","121.54006","24.9387066666667","6500600","新店區"
"241011","013-R5","2018/08/02 16:49:30","新北市三重區仁愛街43巷45號","121.498571666667","25.0721983333333","6500200","三重區"
"241008","059-VK","2018/08/02 16:49:32","新北市三重區永福街179巷23號","121.478105","25.0749816666667","6500200","三重區"
"241022","060-VK","2018/08/02 16:49:44","新北市三重區貴陽街75號","121.484438333333","25.0634616666667","6500200","三重區"
"241031","061-VK","2018/08/02 16:49:36","新北市三重區三寧街4號","121.488726666667","25.0595483333333","6500200","三重區"
"241015","062-VK","2018/08/02 16:49:34","新北市三重區文化北路43巷10號","121.499261666667","25.0655233333333","6500200","三重區"
"241017","063-VK","2018/08/02 16:49:45","新北市三重區國隆路8巷25號","121.492835","25.0635166666667","6500200","三重區"
"241024","065-VK","2018/08/02 16:49:34","新北市三重區中正北路317巷30號","121.475801666667","25.0731183333333","6500200","三重區"
"241026","066-VK","2018/08/02 16:49:39","新北市三重區文化南路10巷5號","121.500508333333","25.06202","6500200","三重區"
"241002","090-VK","2018/08/02 16:49:42","新北市三重區五華街1巷96號","121.49722","25.0807133333333","6500200","三重區"
"241003","091-VK","2018/08/02 16:49:39","新北市三重區五華街87巷33號","121.493221666667","25.08401","6500200","三重區"
"241005","262-UM","2018/08/02 16:49:43","新北市三重區仁華街80巷9號","121.484671666667","25.0833183333333","6500200","三重區"
"241028","265-UM","2018/08/02 16:49:49","新北市三重區光興街101號","121.497133333333","25.0599133333333","6500200","三重區"
"241016","266-UM","2018/08/02 16:49:49","新北市三重區大同北路117號","121.494081666667","25.0644","6500200","三重區"
"241009","267-UM","2018/08/02 16:49:37","新北市三重區三和路四段203巷228號","121.486788333333","25.08082","6500200","三重區"
"241018","268-UM","2018/08/02 16:49:31","新北市三重區正義北路288-1號","121.49535","25.06943","6500200","三重區"
"241032","269-UM","2018/08/02 16:49:32","新北市三重區重陽路一段120巷5號","121.48627","25.0601183333333","6500200","三重區"
"241013","270-UM","2018/08/02 16:49:47","新北市三重區仁壽街2號","121.49619","25.07326","6500200","三重區"
"241025","271-UM","2018/08/02 16:49:40","新北市三重區中正北路530巷27號","121.47197","25.0701533333333","6500200","三重區"
"241007","398-BY","2018/08/02 16:49:33","新北市三重區三和路四段181巷54號","121.483776666667","25.0793383333333","6500200","三重區"
"241001","413-TH","2018/08/02 16:49:40","新北市三重區仁政街76巷8號","121.492266666667","25.0772583333333","6500200","三重區"
"241004","475-VK","2018/08/02 16:49:51","新北市三重區仁愛街395號","121.49132","25.0809916666667","6500200","三重區"
"241020","478-VK","2018/08/02 16:49:33","新北市三重區忠孝路二段35號","121.485821666667","25.071595","6500200","三重區"
"241030","480-VK","2018/08/02 16:49:36","新北市三重區中正南路275號","121.492665","25.05255","6500200","三重區"
"241014","543-UM","2018/08/02 16:49:42","新北市三重區長榮路75號","121.502656666667","25.0690583333333","6500200","三重區"
"241023","545-UM","2018/08/02 16:49:48","新北市三重區中華路76巷37-1號","121.482018333333","25.06264","6500200","三重區"
"241019","KEA-2593","2018/08/02 16:49:39","新北市三重區三張街149巷12號","121.486473333333","25.0699583333333","6500200","三重區"
"241006","AAD-863","2018/08/02 16:49:13","新北市三重區力行路二段184號","121.48332","25.077345","6500200","三重區"
"241012","941-UM","2018/08/02 16:49:31","新北市三重區仁興街11巷51號","121.501018333333","25.074425","6500200","三重區"
"241029","942-UM","2018/08/02 16:49:34","新北市三重區集美街207巷12號","121.492125","25.054315","6500200","三重區"
"241033","AAC-255","2018/08/02 16:49:33","新北市三重區新北大道二段139巷32號","121.466518333333","25.0603566666667","6500200","三重區"
"235046","733-UM","2018/08/02 16:44:02","新北市中和區員山路36巷13號","121.48412","24.9907933333333","6500300","中和區"
"235026","800-TS","2018/08/02 16:49:34","新北市中和區員山路36巷16-2號","121.48533","24.9913633333333","6500300","中和區"
"247024","893-R6","2018/08/02 16:49:46","新北市蘆洲區長興路202號","121.460546666667","25.0874416666667","6501400","蘆洲區"
"247004","337-TH","2018/08/02 16:49:38","新北市蘆洲區長榮路98號","121.461875","25.0838916666667","6501400","蘆洲區"
"247006","336-TH","2018/08/02 16:49:39","新北市蘆洲區永安南路二段132-1號","121.462468333333","25.0785433333333","6501400","蘆洲區"
"247018","057-VK","2018/08/02 16:49:32","新北市蘆洲區民族路306號","121.477471666667","25.09007","6501400","蘆洲區"
"247007","056-VK","2018/08/02 16:22:26","新北市五股區中興路三段2巷10號","121.449358333333","25.081","6501400","蘆洲區"
"247020","001-UY","2018/08/02 16:49:43","新北市蘆洲區民族路406號","121.474626666667","25.0915916666667","6501400","蘆洲區"
"228003","097-TW","2018/08/02 16:49:41","新北市貢寮區貢寮里朝陽街1-2號","121.912335","25.0212883333333","6502600","貢寮區"
"228002","663-BX","2018/08/02 16:49:42","新北市貢寮區貢寮里朝陽街142號","121.905565","25.0232483333333","6502600","貢寮區"
"224006","676-BX","2018/08/02 16:49:41","新北市瑞芳區大寮路356-1號","121.784998333333","25.1032583333333","6501200","瑞芳區"
"224002","639-TC","2018/08/02 16:49:37","新北市瑞芳區中山路65號","121.80417","25.1061566666667","6501200","瑞芳區"
"224008","285-BY","2018/08/02 16:49:43","新北市瑞芳區中正路2號","121.809371666667","25.107135","6501200","瑞芳區"
"224007","275-VK","2018/08/02 16:49:44","新北市瑞芳區中央路48巷56-18號","121.759515","25.103785","6501200","瑞芳區"
"224009","273-VK","2018/08/02 16:49:48","新北市瑞芳區中山路241號","121.800351666667","25.1069166666667","6501200","瑞芳區"
"224005","271-BY","2018/08/02 16:49:43","新北市瑞芳區洞頂路157號","121.861321666667","25.12272","6501200","瑞芳區"
"227004","642-TC","2018/08/02 16:49:39","新北市雙溪區外柑里外柑腳71號","121.807108333333","25.0175783333333","6502500","雙溪區"
"227010","400-TW","2018/08/02 16:49:33","新北市雙溪區牡丹里五分10號","121.866583333333","25.0470516666667","6502500","雙溪區"
"251013","KEA-2871","2018/08/02 16:49:35","新北市淡水區泉洲厝32號","121.489296666667","25.192505","6501000","淡水區"
"251016","179-VK","2018/08/02 16:49:29","新北市淡水區商工路393號","121.474296666667","25.184845","6501000","淡水區"
"251014","180-VK","2018/08/02 16:49:52","新北市淡水區淡金路四段476號","121.452428333333","25.2239066666667","6501000","淡水區"
"251008","181-VK","2018/08/02 16:49:36","新北市淡水區樹梅坑45號","121.474675","25.1446033333333","6501000","淡水區"
"251015","182-VK","2018/08/02 16:49:32","新北市淡水區忠愛街6號","121.460828333333","25.1715","6501000","淡水區"
"251010","413-VK","2018/08/02 16:49:42","新北市淡水區中正路二段31號","121.419523333333","25.1814583333333","6501000","淡水區"
"251012","441-VK","2018/08/02 16:49:46","新北市淡水區中正路二段31號","121.419703333333","25.181515","6501000","淡水區"
"252002","178-VK","2018/08/02 16:49:42","新北市三芝區忠孝街68號","121.505865","25.256855","6502100","三芝區"
"252001","292-VK","2018/08/02 16:49:43","新北市三芝區淡金路二段76-1號","121.503823333333","25.2607783333333","6502100","三芝區"
"242046","497-BY","2018/08/02 16:49:35","新北市新莊區新泰路357巷3弄57號","121.442221666667","25.0394283333333","6500500","新莊區"
"242023","362-BY","2018/08/02 16:49:44","新北市新莊區三和路12-21號","121.442081666667","25.03869","6500500","新莊區"
"238011","5061-A6","2018/08/02 16:49:34","新北市樹林區鎮前街77-21號","121.424818333333","24.99004","6500700","樹林區"
"238025","303-VK","2018/08/02 16:49:41","新北市樹林區中正路22-1號","121.42785","24.9994583333333","6500700","樹林區"
"238004","283-BY","2018/08/02 16:49:37","新北市樹林區中正路433-1號","121.414815","25.0080166666667","6500700","樹林區"
"238001","282-BY","2018/08/02 16:49:35","新北市樹林區中正路22-6號","121.427921666667","24.9997883333333","6500700","樹林區"
"239007","AAC-297","2018/08/02 16:49:47","新北市鶯歌區二甲路13-16號","121.34492","24.9351916666667","6500800","鶯歌區"
"239001","417-VK","2018/08/02 16:43:05","新北市鶯歌區二甲路11-3號","121.345018333333","24.9368533333333","6500800","鶯歌區"
"242015","281-VK","2018/08/02 16:49:35","新北市新莊區三和路12-17號","121.442068333333","25.0375416666667","6500500","新莊區"
