"lineid","car","time","location","longitude","latitude","cityid","cityname"
"249005","172-UM","2018/08/02 17:19:39","新北市八里區荖阡坑路50-1號","121.412208333333","25.1224183333333","6502300","八里區"
"249001","173-UM","2018/08/02 17:19:33","新北市八里區中華路二段165巷3號","121.407696666667","25.1508566666667","6502300","八里區"
"249004","303-UY","2018/08/02 17:19:33","新北市八里區賢三街18號","121.418676666667","25.1588633333333","6502300","八里區"
"249002","305-UY","2018/08/02 17:19:37","新北市八里區龍米路二段117巷39-1號","121.443263333333","25.14191","6502300","八里區"
"249003","593-UM","2018/08/02 17:19:52","新北市八里區中山路二段492號","121.398505","25.1469966666667","6502300","八里區"
"244013","069-UM","2018/08/02 17:19:42","新北市林口區粉寮69號","121.404926666667","25.0908516666667","6501700","林口區"
"244007","080-UY","2018/08/02 17:19:38","新北市林口區中華路555號","121.382088333333","25.0919233333333","6501700","林口區"
"244019","403-UM","2018/08/02 17:19:34","新北市林口區文化二路一段537號","121.373851666667","25.0765666666667","6501700","林口區"
"244023","483-VK","2018/08/02 17:19:45","新北市林口區隆林街36號","121.388048333333","25.07539","6501700","林口區"
"244017","485-VK","2018/08/02 17:19:47","新北市林口區粉寮69號","121.40508","25.0908283333333","6501700","林口區"
"244011","657-BX","2018/08/02 17:19:45","新北市林口區粉寮路一段149號","121.399196666667","25.08136","6501700","林口區"
"244025","837-TS","2018/08/02 17:19:42","新北市林口區民族路181號","121.367308333333","25.0767116666667","6501700","林口區"
"244021","838-TS","2018/08/02 17:19:45","新北市林口區粉寮路二段358-11號","121.40661","25.0969883333333","6501700","林口區"
"231046","107-UY","2018/08/02 17:19:28","新北市新店區直潭路92號","121.530906666667","24.93757","6500600","新店區"
"241011","013-R5","2018/08/02 17:19:50","新北市三重區河邊北街138號","121.503348333333","25.0720116666667","6500200","三重區"
"241008","059-VK","2018/08/02 17:19:32","新北市三重區下竹圍街14號","121.480948333333","25.0757233333333","6500200","三重區"
"241022","060-VK","2018/08/02 17:19:44","新北市三重區中正北路64巷23號","121.485855","25.0638583333333","6500200","三重區"
"241015","062-VK","2018/08/02 17:19:34","新北市三重區福德北路82號","121.501813333333","25.0662766666667","6500200","三重區"
"241017","063-VK","2018/08/02 17:19:45","新北市三重區大同北路53號","121.495148333333","25.0631933333333","6500200","三重區"
"241024","065-VK","2018/08/02 17:19:34","新北市三重區中正北路193巷21弄42號","121.478721666667","25.0709916666667","6500200","三重區"
"241026","066-VK","2018/08/02 17:19:39","新北市三重區福裕街39號","121.498986666667","25.0615716666667","6500200","三重區"
"241002","090-VK","2018/08/02 17:19:42","新北市三重區自強路五段41-1號","121.493983333333","25.0814216666667","6500200","三重區"
"241003","091-VK","2018/08/02 17:19:39","新北市三重區五華街148號","121.49106","25.083945","6500200","三重區"
"241005","262-UM","2018/08/02 17:19:48","新北市三重區永安北路二段42-6號","121.48194","25.08162","6500200","三重區"
"241028","265-UM","2018/08/02 17:19:49","新北市三重區仁化街63-6號","121.493905","25.05888","6500200","三重區"
"241016","266-UM","2018/08/02 17:19:49","新北市三重區大同北路54巷4號","121.494016666667","25.0635916666667","6500200","三重區"
"241009","267-UM","2018/08/02 17:19:37","新北市三重區仁愛街652號","121.482805","25.0804166666667","6500200","三重區"
"241018","268-UM","2018/08/02 17:19:31","新北市三重區安慶街142號","121.494576666667","25.0688083333333","6500200","三重區"
"241032","269-UM","2018/08/02 17:19:32","新北市三重區興華街119號","121.483533333333","25.059815","6500200","三重區"
"241013","270-UM","2018/08/02 17:19:49","新北市三重區重陽路五段3巷3號","121.494313333333","25.0732","6500200","三重區"
"241025","271-UM","2018/08/02 17:19:40","新北市三重區中正北路299號","121.474393333333","25.07132","6500200","三重區"
"241007","398-BY","2018/08/02 17:19:33","新北市三重區三和路四段155巷1號","121.484138333333","25.07858","6500200","三重區"
"241001","413-TH","2018/08/02 17:19:40","新北市三重區仁愛街269巷50號","121.494326666667","25.0794983333333","6500200","三重區"
"241004","475-VK","2018/08/02 17:19:50","新北市三重區五華街110巷9號","121.491575","25.0825166666667","6500200","三重區"
"241020","478-VK","2018/08/02 17:19:33","新北市三重區後竹圍街175巷3號","121.485885","25.07227","6500200","三重區"
"241030","480-VK","2018/08/02 17:19:35","新北市三重區成功路73巷6號","121.489241666667","25.0517133333333","6500200","三重區"
"241014","543-UM","2018/08/02 17:19:42","新北市三重區長榮路58號","121.501706666667","25.06897","6500200","三重區"
"241023","545-UM","2018/08/02 17:19:48","新北市三重區三民街193號","121.482218333333","25.065695","6500200","三重區"
"241019","KEA-2593","2018/08/02 17:19:39","新北市三重區自強路二段74巷1號","121.488368333333","25.0698833333333","6500200","三重區"
"241006","AAD-863","2018/08/02 17:19:33","新北市三重區力行路二段29號","121.482108333333","25.07283","6500200","三重區"
"241012","941-UM","2018/08/02 17:19:31","新北市三重區河邊北街256巷11號","121.501323333333","25.0760966666667","6500200","三重區"
"241029","942-UM","2018/08/02 17:19:34","新北市三重區重新路四段86號","121.487965","25.0573716666667","6500200","三重區"
"241033","AAC-255","2018/08/02 17:19:33","新北市三重區中興北街195號","121.46896","25.0572733333333","6500200","三重區"
"235064","005-UY","2018/08/02 17:19:46","新北市中和區員山路36巷16-3號","121.485156666667","24.9913133333333","6500300","中和區"
"247010","KEA-2869","2018/08/02 17:19:29","新北市蘆洲區鷺江街41號","121.47838","25.0824","6501400","蘆洲區"
"247024","893-R6","2018/08/02 17:19:46","新北市蘆洲區長榮路227號","121.46051","25.08559","6501400","蘆洲區"
"247014","546-UM","2018/08/02 17:19:50","新北市蘆洲區中正路83號","121.470075","25.08358","6501400","蘆洲區"
"247022","500-BY","2018/08/02 17:19:46","新北市蘆洲區三民路128巷29-2號","121.470118333333","25.0893216666667","6501400","蘆洲區"
"247012","339-TH","2018/08/02 17:19:31","新北市蘆洲區信義路319巷10弄17號","121.477505","25.0865433333333","6501400","蘆洲區"
"247004","337-TH","2018/08/02 17:19:38","新北市蘆洲區中原路52號","121.459151666667","25.08231","6501400","蘆洲區"
"247006","336-TH","2018/08/02 17:19:39","新北市蘆洲區永安南路二段132-1號","121.462451666667","25.07855","6501400","蘆洲區"
"247018","057-VK","2018/08/02 17:19:32","新北市蘆洲區民權路96巷3弄2號","121.474596666667","25.0884416666667","6501400","蘆洲區"
"247016","007-UY","2018/08/02 17:19:47","新北市蘆洲區正和街96巷25號","121.467525","25.081315","6501400","蘆洲區"
"247002","002-UY","2018/08/02 17:19:40","新北市蘆洲區永樂街38巷33弄20號","121.457293333333","25.0898133333333","6501400","蘆洲區"
"247020","001-UY","2018/08/02 17:19:43","新北市蘆洲區民族路446-7號","121.472731666667","25.0922333333333","6501400","蘆洲區"
"235013","251-BX","2018/08/02 17:14:56","新北市中和區員山路36巷16-2號","121.485345","24.9915816666667","6500300","中和區"
"228003","097-TW","2018/08/02 17:19:42","新北市貢寮區福隆里興隆街24-1號","121.944506666667","25.0166166666667","6502600","貢寮區"
"228001","212-TW","2018/08/02 17:19:30","新北市貢寮區仁理村尖山腳街18-3號","121.925498333333","25.0483233333333","6502600","貢寮區"
"228002","663-BX","2018/08/02 17:19:42","新北市貢寮區雙玉里下雙溪街24號","121.921573333333","25.0098433333333","6502600","貢寮區"
"224006","676-BX","2018/08/02 17:19:50","新北市瑞芳區傑魚坑路280號","121.787438333333","25.1064833333333","6501200","瑞芳區"
"224008","285-BY","2018/08/02 17:19:43","新北市瑞芳區侯硐路154號","121.826745","25.0843516666667","6501200","瑞芳區"
"224009","273-VK","2018/08/02 17:19:48","新北市瑞芳區汽車路93-1號","121.843165","25.109645","6501200","瑞芳區"
"224005","271-BY","2018/08/02 17:19:43","新北市瑞芳區鼻頭路227-3號","121.914301666667","25.1241033333333","6501200","瑞芳區"
"227004","642-TC","2018/08/02 17:19:39","新北市雙溪區上林里內平林90號","121.827535","25.0274833333333","6502500","雙溪區"
"227010","400-TW","2018/08/02 17:19:33","新北市雙溪區三貂里十三層41號","121.855166666667","25.081225","6502500","雙溪區"
"251009","008-UM","2018/08/02 17:19:34","新北市淡水區三民街20號","121.43903","25.1717666666667","6501000","淡水區"
"251004","009-UM","2018/08/02 17:19:43","新北市淡水區中正東路二段88巷15號","121.459123333333","25.1505016666667","6501000","淡水區"
"251005","010-UM","2018/08/02 17:19:35","新北市淡水區鄧公路19號","121.451406666667","25.1700183333333","6501000","淡水區"
"251013","KEA-2871","2018/08/02 17:19:35","新北市淡水區竹圍子5號","121.482558333333","25.1932116666667","6501000","淡水區"
"251016","179-VK","2018/08/02 17:19:49","新北市淡水區鄒厝崙13號","121.46223","25.1905016666667","6501000","淡水區"
"251014","180-VK","2018/08/02 17:19:32","新北市淡水區番子田132號","121.46479","25.2276183333333","6501000","淡水區"
"251008","181-VK","2018/08/02 17:19:35","新北市淡水區大同路257號","121.46657","25.1422366666667","6501000","淡水區"
"251015","182-VK","2018/08/02 17:19:32","新北市淡水區三空泉18號","121.474811666667","25.1664883333333","6501000","淡水區"
"251010","413-VK","2018/08/02 17:19:42","新北市淡水區濱海路三段601號","121.420845","25.1932683333333","6501000","淡水區"
"251012","441-VK","2018/08/02 17:19:46","新北市淡水區中山北路一段158號","121.44432","25.1778633333333","6501000","淡水區"
"251007","442-VK","2018/08/02 17:19:40","新北市淡水區民生路47-4號","121.462081666667","25.13804","6501000","淡水區"
"251006","561-UM","2018/08/02 17:19:40","新北市淡水區新生街29號","121.439548333333","25.174895","6501000","淡水區"
"251011","650-BX","2018/08/02 17:19:49","新北市淡水區坪頂路128號","121.464975","25.161315","6501000","淡水區"
"251002","672-BX","2018/08/02 17:19:41","新北市淡水區中正路二段31號","121.41946","25.1816833333333","6501000","淡水區"
"251003","766-UM","2018/08/02 17:19:42","新北市淡水區中正路二段31號","121.41946","25.1814883333333","6501000","淡水區"
"207003","550-UM","2018/08/02 17:19:33","新北市萬里區萬里里獅頭路23號","121.6934","25.1780216666667","6502800","萬里區"
"252002","178-VK","2018/08/02 17:19:42","新北市三芝區忠孝街1-15號","121.505591666667","25.25395","6502100","三芝區"
"252001","292-VK","2018/08/02 17:19:43","新北市三芝區長安街119號","121.49807","25.2596416666667","6502100","三芝區"
"242034","AAC-296","2018/08/02 17:19:47","新北市新莊區新莊路771巷10號","121.442231666667","25.03185","6500500","新莊區"
"242058","986-R7","2018/08/02 17:19:43","新北市新莊區三和路12-18號","121.442321666667","25.0375816666667","6500500","新莊區"
"242027","615-BX","2018/08/02 17:19:45","新北市新莊區中港一街161號","121.447333333333","25.04493","6500500","新莊區"
"242025","613-BX","2018/08/02 17:19:35","新北市新莊區新泰路498號","121.442583333333","25.0461066666667","6500500","新莊區"
"242042","566-BX","2018/08/02 17:19:46","新北市新莊區中正路471號","121.441741666667","25.0338516666667","6500500","新莊區"
"242046","497-BY","2018/08/02 17:19:35","新北市新莊區新樹路65-7號","121.439381666667","25.0307433333333","6500500","新莊區"
"242007","442-UM","2018/08/02 17:19:31","新北市新莊區新泰路421-7號","121.442358333333","25.0450166666667","6500500","新莊區"
"242050","441-UM","2018/08/02 17:19:44","新北市新莊區新樹路333巷12-5號","121.43403","25.0183166666667","6500500","新莊區"
"242056","440-UM","2018/08/02 17:19:37","新北市新莊區中正路473-1號","121.442111666667","25.0330633333333","6500500","新莊區"
"242036","415-TV","2018/08/02 17:19:33","新北市新莊區中正路481號","121.441448333333","25.0337983333333","6500500","新莊區"
"242044","400-BY","2018/08/02 17:19:49","新北市新莊區中正路499號","121.440603333333","25.0336083333333","6500500","新莊區"
"242023","362-BY","2018/08/02 17:19:44","新北市新莊區中港路303號","121.452853333333","25.0446483333333","6500500","新莊區"
"242061","353-BY","2018/08/02 17:19:41","新北市新莊區中正路473-1號","121.44204","25.0331133333333","6500500","新莊區"
"242009","132-UY","2018/08/02 17:19:40","新北市新莊區新泰路500號","121.442431666667","25.0461366666667","6500500","新莊區"
"242039","133-UY","2018/08/02 17:19:29","新北市新莊區新樹路48號","121.4377","25.0273616666667","6500500","新莊區"
"242031","135-UY","2018/08/02 17:19:48","新北市新莊區三和路12-14號","121.44204","25.03728","6500500","新莊區"
"242048","172-VK","2018/08/02 17:19:50","新北市新莊區龍安路253號","121.419671666667","25.0201","6500500","新莊區"
"242017","175-VK","2018/08/02 17:19:38","新北市新莊區中港一街56號","121.450308333333","25.0454733333333","6500500","新莊區"
"242004","176-VK","2018/08/02 17:19:42","新北市新莊區中港一街161號","121.447398333333","25.0449616666667","6500500","新莊區"
"242021","348-TH","2018/08/02 17:19:35","新北市新莊區中港路304號","121.452738333333","25.0449833333333","6500500","新莊區"
"242002","349-TH","2018/08/02 17:19:37","新北市新莊區中正路222號","121.44864","25.0357033333333","6500500","新莊區"
"242019","350-TH","2018/08/02 17:19:44","新北市新莊區新泰路277巷58號","121.443106666667","25.0401","6500500","新莊區"
"242013","351-TH","2018/08/02 17:19:44","新北市新莊區新泰路500號","121.442428333333","25.04608","6500500","新莊區"
"238023","601-UM","2018/08/02 17:19:50","新北市樹林區中正路433-2號","121.415046666667","25.0084066666667","6500700","樹林區"
"238019","599-UM","2018/08/02 17:19:51","新北市樹林區國凱街82號","121.421218333333","24.979265","6500700","樹林區"
"238018","571-TV","2018/08/02 17:19:47","新北市樹林區鎮前街283號","121.418358333333","24.9848383333333","6500700","樹林區"
"238024","5061-A6","2018/08/02 17:19:34","新北市樹林區保安二街40巷49號","121.426251666667","24.9952116666667","6500700","樹林區"
"238022","KEA-2213","2018/08/02 17:19:48","新北市樹林區和平街37號","121.422961666667","24.9815816666667","6500700","樹林區"
"238021","KEA-2539","2018/08/02 17:19:45","新北市樹林區西圳街一段126號","121.397931666667","24.9639333333333","6500700","樹林區"
"238025","303-VK","2018/08/02 17:19:41","新北市樹林區保安二街58號","121.424238333333","24.9952233333333","6500700","樹林區"
"238017","283-BY","2018/08/02 17:19:37","新北市樹林區中正路250號","121.417713333333","25.007225","6500700","樹林區"
"238014","282-BY","2018/08/02 17:19:35","新北市樹林區長壽街70巷26號","121.42191","24.9949516666667","6500700","樹林區"
"238020","268-VK","2018/08/02 17:19:35","新北市樹林區千歲街61巷8-5號","121.42611","24.9982166666667","6500700","樹林區"
"238026","172-UY","2018/08/02 17:19:51","新北市樹林區味王街46巷34號","121.402606666667","24.9737333333333","6500700","樹林區"
"238016","169-UY","2018/08/02 17:19:39","新北市樹林區中山路一段175號","121.421618333333","24.9884866666667","6500700","樹林區"
"239007","AAC-297","2018/08/02 17:19:47","新北市鶯歌區光復街9號","121.351605","24.9550666666667","6500800","鶯歌區"
"239006","891-R6","2018/08/02 17:19:32","新北市鶯歌區德昌二街99號","121.333185","24.95731","6500800","鶯歌區"
"239008","527-UM","2018/08/02 17:19:34","新北市鶯歌區國光街66-2號","121.34072","24.9578916666667","6500800","鶯歌區"
"239005","526-UM","2018/08/02 17:19:42","新北市鶯歌區福德三街16號","121.329576666667","24.9675066666667","6500800","鶯歌區"
"239001","417-VK","2018/08/02 17:19:45","新北市鶯歌區黃厝街31巷39-1號","121.342611666667","24.945455","6500800","鶯歌區"
"239003","360-BY","2018/08/02 17:19:35","新北市鶯歌區德昌二街3巷1-1號","121.333153333333","24.959485","6500800","鶯歌區"
"239002","359-BY","2018/08/02 17:19:37","新北市鶯歌區建國路216號","121.348863333333","24.95352","6500800","鶯歌區"
"239004","193-VK","2018/08/02 17:19:47","新北市鶯歌區文化路300號","121.352475","24.9467133333333","6500800","鶯歌區"
"242015","281-VK","2018/08/02 17:19:35","新北市新莊區公園一路121號","121.445313333333","25.037975","6500500","新莊區"
