"lineid","car","time","location","longitude","latitude","cityid","cityname"
"234030","746-BX","2018/08/02 18:09:43","新北市永和區福和路1號","121.526298333333","25.0096266666667","6500400","永和區"
"234026","9371-KE","2018/08/02 18:09:53","新北市永和區水源街5號","121.512411666667","25.0048733333333","6500400","永和區"
"234011","9373-KE","2018/08/02 18:09:23","新北市永和區福和路1號","121.525578333333","25.0093633333333","6500400","永和區"
"249005","172-UM","2018/08/02 18:09:39","新北市八里區荖阡坑路15-40號","121.401601666667","25.1399683333333","6502300","八里區"
"249001","173-UM","2018/08/02 18:09:33","新北市八里區龍米路二段36號","121.448541666667","25.140175","6502300","八里區"
"249004","303-UY","2018/08/02 18:09:34","新北市八里區龍米路二段200巷3號","121.433718333333","25.1588083333333","6502300","八里區"
"249002","305-UY","2018/08/02 18:09:37","新北市八里區龍米路一段356巷46號","121.452153333333","25.1302816666667","6502300","八里區"
"249003","593-UM","2018/08/02 18:09:32","新北市八里區中華路二段338號","121.403141666667","25.1477783333333","6502300","八里區"
"248014","025-BX","2018/08/02 18:09:51","新北市五股區成泰路一段197號","121.435143333333","25.0767216666667","6501500","五股區"
"248016","026-BX","2018/08/02 18:09:41","新北市五股區成泰路三段146號","121.444308333333","25.0900316666667","6501500","五股區"
"248006","077-UY","2018/08/02 18:09:42","新北市五股區中興路二段85號","121.460743333333","25.0772533333333","6501500","五股區"
"248008","095-VK","2018/08/02 18:09:40","新北市蘆洲區永安南路二段292號","121.457325","25.0816366666667","6501500","五股區"
"248020","225-UY","2018/08/02 18:09:45","新北市五股區成泰路三段544-1號","121.454288333333","25.10241","6501500","五股區"
"248012","247-BX","2018/08/02 18:09:34","新北市五股區新五路二段586號","121.443308333333","25.0863116666667","6501500","五股區"
"248004","677-BX","2018/08/02 18:09:43","新北市五股區工商路57號","121.438963333333","25.0842","6501500","五股區"
"248002","678-BX","2018/08/02 18:09:41","新北市五股區新五路三段38號","121.444318333333","25.0878883333333","6501500","五股區"
"248010","682-TV","2018/08/02 18:09:35","新北市五股區成泰路一段212號","121.43647","25.0791883333333","6501500","五股區"
"232011","375-UM","2018/08/02 18:09:35","新北市坪林區水柳腳6號","121.711298333333","24.9355933333333","6502000","坪林區"
"244013","069-UM","2018/08/02 18:09:42","新北市林口區中山路27號","121.39542","25.0782816666667","6501700","林口區"
"244007","080-UY","2018/08/02 18:09:38","新北市林口區林口路124巷10弄22號","121.38931","25.081435","6501700","林口區"
"244019","403-UM","2018/08/02 18:09:34","新北市林口區文化一路一段100巷12號","121.37391","25.070705","6501700","林口區"
"244009","410-SL","2018/08/02 18:09:41","新北市林口區文化二路二段153號","121.380168333333","25.083395","6501700","林口區"
"244023","483-VK","2018/08/02 18:09:45","新北市林口區仁愛路二段82號","121.384275","25.075275","6501700","林口區"
"244017","485-VK","2018/08/02 18:09:47","新北市林口區文化一路一段19號","121.369895","25.06874","6501700","林口區"
"244011","657-BX","2018/08/02 18:09:45","新北市林口區中正路70號","121.394861666667","25.07741","6501700","林口區"
"244025","837-TS","2018/08/02 18:09:41","新北市林口區文明街182號","121.361326666667","25.0727866666667","6501700","林口區"
"244021","838-TS","2018/08/02 18:09:45","新北市林口區自強六街26號","121.399433333333","25.0761316666667","6501700","林口區"
"243013","AAD-798","2018/08/02 18:09:36","新北市泰山區南林路93號","121.41549","25.051165","6501600","泰山區"
"222003","436-BY","2018/08/02 18:09:35","新北市深坑區阿柔洋47號","121.612211666667","24.9978466666667","6501800","深坑區"
"222002","659-BX","2018/08/02 18:09:42","新北市深坑區文化街42號","121.619075","25.001695","6501800","深坑區"
"231041","002-UM","2018/08/02 18:09:45","新北市新店區安華路28-1號","121.519893333333","24.9608216666667","6500600","新店區"
"231046","107-UY","2018/08/02 18:09:48","新北市新店區直潭七街60號","121.532258333333","24.9397416666667","6500600","新店區"
"231052","108-UY","2018/08/02 18:09:45","新北市新店區安華路28-1號","121.519433333333","24.9607566666667","6500600","新店區"
"231047","187-VK","2018/08/02 18:09:45","新北市新店區安華路28-1號","121.519446666667","24.9609983333333","6500600","新店區"
"231054","KEA-2219","2018/08/02 18:09:43","新北市新店區安一路一段1-1號","121.519755","24.9612966666667","6500600","新店區"
"231057","256-BX","2018/08/02 18:09:45","新北市新店區安一路一段1-1號","121.51971","24.9611066666667","6500600","新店區"
"231042","268-BY","2018/08/02 18:09:32","新北市新店區安華路1-1號","121.519388333333","24.960475","6500600","新店區"
"231051","278-BY","2018/08/02 18:09:49","新北市新店區安一路一段1-1號","121.519673333333","24.9611883333333","6500600","新店區"
"231050","AAD-862","2018/08/02 18:09:43","新北市新店區安一路一段1-1號","121.519486666667","24.9611066666667","6500600","新店區"
"231059","355-BY","2018/08/02 18:09:37","新北市新店區安華路28-1號","121.51921","24.9609016666667","6500600","新店區"
"231058","3713-VJ","2018/08/02 18:09:50","新北市新店區安華路3號","121.518996666667","24.96038","6500600","新店區"
"231056","4715-K9","2018/08/02 18:09:46","新北市新店區安康路一段164-1號","121.525948333333","24.963015","6500600","新店區"
"231049","513-UM","2018/08/02 18:09:36","新北市新店區安一路一段1-1號","121.519738333333","24.961065","6500600","新店區"
"231064","719-UM","2018/08/02 18:09:30","新北市新店區安一路一段1-1號","121.519511666667","24.96119","6500600","新店區"
"231055","AKT-0513","2018/08/02 18:09:42","新北市新店區安華路28-1號","121.519878333333","24.9607366666667","6500600","新店區"
"241006","AAD-863","2018/08/02 18:09:33","新北市三重區力行路二段30巷46弄2號","121.479778333333","25.0728683333333","6500200","三重區"
"241033","AAC-255","2018/08/02 18:09:33","新北市三重區中興北街125號","121.469806666667","25.0492016666667","6500200","三重區"
"235066","003-UY","2018/08/02 18:09:47","新北市中和區中和路115號","121.501581666667","25.0002283333333","6500300","中和區"
"235064","005-UY","2018/08/02 18:09:46","新北市中和區中正路271號","121.495785","24.993665","6500300","中和區"
"235063","006-UY","2018/08/02 18:09:52","新北市中和區員山路36巷16-3號","121.484955","24.991275","6500300","中和區"
"235056","096-UM","2018/08/02 18:09:51","新北市中和區新生街288號","121.483631666667","24.99646","6500300","中和區"
"235065","098-UM","2018/08/02 18:09:41","新北市中和區新生街274號","121.483661666667","24.99693","6500300","中和區"
"235040","150-BY","2018/08/02 18:09:46","新北市中和區錦和路350-1號","121.49015","24.9934916666667","6500300","中和區"
"235058","151-BY","2018/08/02 18:09:36","新北市中和區圓通路367巷29號","121.492455","24.9855266666667","6500300","中和區"
"235038","185-VK","2018/08/02 18:09:35","新北市中和區大智街2號","121.519923333333","24.9918133333333","6500300","中和區"
"235067","255-BX","2018/08/02 18:09:46","新北市中和區和城路一段271巷1號","121.485738333333","24.9917016666667","6500300","中和區"
"235042","KEA-2878","2018/08/02 18:09:48","新北市中和區中正路273-3號","121.495643333333","24.99352","6500300","中和區"
"247010","KEA-2869","2018/08/02 18:09:49","新北市五股區中興路二段78-13號","121.460853333333","25.078845","6501400","蘆洲區"
"235045","565-BX","2018/08/02 18:09:46","新北市中和區錦和路350-1號","121.490545","24.9935916666667","6500300","中和區"
"235054","640-BX","2018/08/02 18:09:35","新北市中和區莒光路185號","121.47262","24.99901","6500300","中和區"
"235071","783-BX","2018/08/02 18:09:40","新北市中和區員山路36巷16-3號","121.485173333333","24.9911516666667","6500300","中和區"
"235062","800-TS","2018/08/02 18:09:30","新北市中和區連城路314號","121.483625","24.9961883333333","6500300","中和區"
"235057","801-TS","2018/08/02 18:09:50","新北市中和區連城路469巷79弄30號","121.48434","24.9936933333333","6500300","中和區"
"235052","805-TS","2018/08/02 18:09:39","新北市中和區建一路241號","121.488213333333","24.9973916666667","6500300","中和區"
"235053","900-TW","2018/08/02 18:09:43","新北市中和區員山路36巷16-3號","121.484968333333","24.9918","6500300","中和區"
"235051","157-BY","2018/08/02 18:09:41","新北市中和區南山路287號","121.504256666667","24.9921916666667","6500300","中和區"
"235037","AAC-213","2018/08/02 18:09:46","新北市中和區景平路149號","121.51392","24.992225","6500300","中和區"
"247002","002-UY","2018/08/02 18:09:40","新北市蘆洲區永平街32巷69弄31號","121.458873333333","25.0937883333333","6501400","蘆洲區"
"226004","312-R5","2018/08/02 18:09:36","新北市平溪區薯榔里薯榔寮81-4號","121.717016666667","25.0198383333333","6502400","平溪區"
"235047","251-BX","2018/08/02 18:09:30","新北市中和區錦和路176號","121.489923333333","24.99561","6500300","中和區"
"228003","097-TW","2018/08/02 18:09:41","新北市貢寮區真理里美艷山街6-2號","121.92883","25.0607366666667","6502600","貢寮區"
"228001","212-TW","2018/08/02 18:09:50","新北市貢寮區真理里新港街26巷55弄2-1號","121.927388333333","25.0528433333333","6502600","貢寮區"
"228002","663-BX","2018/08/02 18:09:42","新北市貢寮區福連里馬崗街3號","121.9995","25.0134033333333","6502600","貢寮區"
"224006","676-BX","2018/08/02 18:09:41","新北市瑞芳區中山路139號","121.802995","25.1063683333333","6501200","瑞芳區"
"224002","639-TC","2018/08/02 18:09:50","新北市瑞芳區三爪子坑路82號","121.810091666667","25.1055033333333","6501200","瑞芳區"
"224008","285-BY","2018/08/02 18:09:43","新北市瑞芳區員山子路23號","121.821358333333","25.1030133333333","6501200","瑞芳區"
"224007","275-VK","2018/08/02 18:09:44","新北市瑞芳區四腳亭坑路2-4號","121.775985","25.1093383333333","6501200","瑞芳區"
"224009","273-VK","2018/08/02 18:09:47","新北市瑞芳區金光路115號","121.853633333333","25.1062633333333","6501200","瑞芳區"
"224005","271-BY","2018/08/02 18:09:43","新北市瑞芳區深澳路55號","121.81767","25.1292833333333","6501200","瑞芳區"
"227004","642-TC","2018/08/02 18:09:36","新北市雙溪區共和里東榮街29號","121.86618","25.033655","6502500","雙溪區"
"253005","032-BX","2018/08/02 18:09:38","新北市石門區福安街11號","121.568526666667","25.292745","6502200","石門區"
"253006","295-VK","2018/08/02 18:09:50","新北市石門區老梅路52巷21號","121.546446666667","25.2884316666667","6502200","石門區"
"222001","KEA-2212","2018/08/02 18:09:41","新北市深坑區北深路二段188號","121.61402","25.0022033333333","6501800","深坑區"
"208002","KEA-2872","2018/08/02 18:09:40","新北市金山區三界壇路99巷25號","121.617378333333","25.2271066666667","6502700","金山區"
"208003","665-BX","2018/08/02 18:09:47","新北市金山區磺港里磺港路127號","121.646501666667","25.227735","6502700","金山區"
"208001","761-BX","2018/08/02 18:09:41","新北市金山區磺港里磺港路105號","121.646735","25.2270766666667","6502700","金山區"
"251009","008-UM","2018/08/02 18:09:34","新北市淡水區大忠街34巷15號","121.443928333333","25.175705","6501000","淡水區"
"251004","009-UM","2018/08/02 18:09:48","新北市淡水區民族路110巷43弄5號","121.461521666667","25.1350766666667","6501000","淡水區"
"251005","010-UM","2018/08/02 18:09:35","新北市淡水區水源街一段141號","121.447246666667","25.171885","6501000","淡水區"
"251001","011-UM","2018/08/02 18:09:38","新北市淡水區自立路10號","121.463036666667","25.1297883333333","6501000","淡水區"
"251013","KEA-2871","2018/08/02 18:09:35","新北市淡水區竹圍子19-2號","121.477085","25.1919183333333","6501000","淡水區"
"251016","179-VK","2018/08/02 18:09:49","新北市淡水區下圭柔山18-1號","121.453703333333","25.2027416666667","6501000","淡水區"
"251014","180-VK","2018/08/02 18:09:52","新北市淡水區南平15號","121.48737","25.2200016666667","6501000","淡水區"
"251008","181-VK","2018/08/02 18:09:35","新北市淡水區淡金路16巷80號","121.460381666667","25.1605316666667","6501000","淡水區"
"251015","182-VK","2018/08/02 18:09:32","新北市淡水區興福寮66巷539號","121.484603333333","25.1651316666667","6501000","淡水區"
"251010","413-VK","2018/08/02 18:09:46","新北市淡水區中正路二段50巷18號","121.420245","25.1835166666667","6501000","淡水區"
"251012","441-VK","2018/08/02 18:09:46","新北市淡水區北新路三段170號","121.492643333333","25.1926266666667","6501000","淡水區"
"251007","442-VK","2018/08/02 18:09:40","新北市淡水區中正東路二段143巷2弄1號","121.460535","25.1473516666667","6501000","淡水區"
"251006","561-UM","2018/08/02 18:09:40","新北市淡水區真理街3巷24-1號","121.437855","25.1765766666667","6501000","淡水區"
"251011","650-BX","2018/08/02 18:09:49","新北市淡水區三空泉9-2號","121.474036666667","25.163555","6501000","淡水區"
"251002","672-BX","2018/08/02 18:09:41","新北市淡水區中正東路一段87-2號","121.453006666667","25.1618333333333","6501000","淡水區"
"251003","766-UM","2018/08/02 18:09:42","新北市淡水區大忠街113巷24號","121.447386666667","25.177425","6501000","淡水區"
"207003","550-UM","2018/08/02 18:09:33","新北市萬里區野柳里港西路13號","121.685176666667","25.2045133333333","6502800","萬里區"
"207004","225-TW","2018/08/02 18:09:46","新北市萬里區中幅里中福路136號","121.674543333333","25.1663383333333","6502800","萬里區"
"252002","178-VK","2018/08/02 18:09:42","新北市三芝區中山路二段39號","121.502901666667","25.2551633333333","6502100","三芝區"
"252003","249-BX","2018/08/02 18:09:50","新北市三芝區埔頭里埔頭37號","121.49846","25.26029","6502100","三芝區"
"252001","292-VK","2018/08/02 18:09:43","新北市三芝區中興街二段2號","121.498301666667","25.2566883333333","6502100","三芝區"
"237007","153-BY","2018/08/02 18:09:48","新北市三峽區中正路二段370巷77號","121.364235","24.9115433333333","6500900","三峽區"
"237011","572-TV","2018/08/02 18:09:44","新北市三峽區大同路37號","121.376726666667","24.9282366666667","6500900","三峽區"
"237009","210-TH","2018/08/02 18:09:47","新北市三峽區大仁路50巷7號","121.365335","24.9379133333333","6500900","三峽區"
"237013","252-BX","2018/08/02 18:09:45","新北市三峽區長泰街16號","121.378821666667","24.9311483333333","6500900","三峽區"
"237008","302-VK","2018/08/02 18:09:46","新北市三峽區白雞44-39號","121.377268333333","24.91005","6500900","三峽區"
"237014","433-BY","2018/08/02 18:09:42","新北市三峽區國光街81巷13號","121.373718333333","24.93791","6500900","三峽區"
"237006","5529-G3","2018/08/02 18:09:33","新北市三峽區溪東路34巷13號","121.400311666667","24.9343433333333","6500900","三峽區"
"237016","649-BX","2018/08/02 18:09:39","新北市三峽區紫新路25巷6號","121.422776666667","24.92123","6500900","三峽區"
"237010","706-TV","2018/08/02 18:09:49","新北市三峽區大同路202-2號","121.36803","24.9273733333333","6500900","三峽區"
"237005","AKY-6261","2018/08/02 18:09:39","新北市三峽區文化路65巷12號","121.37199","24.935455","6500900","三峽區"
"236070","105-UM","2018/08/02 18:09:46","新北市土城區明德路一段297號","121.459988333333","24.97729","6501300","土城區"
"236042","107-UM","2018/08/02 18:09:41","新北市土城區中華路二段2號","121.43892","24.9798233333333","6501300","土城區"
"236078","166-UM","2018/08/02 18:09:51","新北市土城區永安街35號","121.433141666667","24.96433","6501300","土城區"
"236030","253-BX","2018/08/02 18:09:37","新北市土城區城林路6巷80號","121.43867","24.9796533333333","6501300","土城區"
"236026","269-VK","2018/08/02 18:09:44","新北市土城區承天路22號","121.43963","24.963375","6501300","土城區"
"236014","270-VK","2018/08/02 18:09:41","新北市土城區學府路一段233號","121.451005","24.9840366666667","6501300","土城區"
"236038","271-VK","2018/08/02 18:09:41","新北市土城區金城路二段28-6號","121.450548333333","24.978265","6501300","土城區"
"236021","401-BY","2018/08/02 18:09:37","新北市土城區中華路二段2號","121.438781666667","24.9798616666667","6501300","土城區"
"236059","912-UM","2018/08/02 18:09:45","新北市土城區中央路四段196-1號","121.416215","24.9576016666667","6501300","土城區"
"236049","913-UM","2018/08/02 18:09:51","新北市土城區金城路二段48號","121.451356666667","24.9789216666667","6501300","土城區"
"236063","915-UM","2018/08/02 18:09:45","新北市土城區中正路82號","121.445135","24.97564","6501300","土城區"
"236055","AAC-216","2018/08/02 18:09:41","新北市土城區中華路二段2號","121.438818333333","24.97987","6501300","土城區"
"242034","AAC-296","2018/08/02 18:09:47","新北市新莊區新豐街65號","121.446398333333","25.033625","6500500","新莊區"
"242058","986-R7","2018/08/02 18:09:42","新北市新莊區新北大道七段312號","121.413476666667","25.0302633333333","6500500","新莊區"
"242053","751-BX","2018/08/02 18:09:35","新北市新莊區民安西路356號","121.427328333333","25.0112033333333","6500500","新莊區"
"242027","615-BX","2018/08/02 18:09:45","新北市新莊區幸福路513號","121.455683333333","25.0493016666667","6500500","新莊區"
"242025","613-BX","2018/08/02 18:09:35","新北市新莊區五權一路114號","121.459965","25.06802","6500500","新莊區"
"242042","566-BX","2018/08/02 18:09:46","新北市新莊區天祥街123號","121.414491666667","25.0297666666667","6500500","新莊區"
"242046","497-BY","2018/08/02 18:09:35","新北市新莊區中正路829巷22弄43號","121.420705","25.02681","6500500","新莊區"
"242007","442-UM","2018/08/02 18:09:50","新北市新莊區自強街37巷3號","121.454395","25.0464466666667","6500500","新莊區"
"242051","441-UM","2018/08/02 18:09:43","新北市新莊區民本街11巷30號","121.429101666667","25.0201933333333","6500500","新莊區"
"242056","440-UM","2018/08/02 18:09:37","新北市新莊區豐年街豐1巷44號","121.448045","25.0311533333333","6500500","新莊區"
"242036","415-TV","2018/08/02 18:09:33","新北市新莊區建福路48巷13號","121.425631666667","25.02739","6500500","新莊區"
"242044","400-BY","2018/08/02 18:09:49","新北市新莊區天泉二街1號","121.415203333333","25.024625","6500500","新莊區"
"242023","362-BY","2018/08/02 18:09:44","新北市新莊區中平路181號","121.444801666667","25.0490766666667","6500500","新莊區"
"242061","353-BY","2018/08/02 18:09:41","新北市新莊區新樹路215號","121.435518333333","25.0232916666667","6500500","新莊區"
"242009","132-UY","2018/08/02 18:09:40","新北市新莊區昌平街71巷15號","121.453821666667","25.053635","6500500","新莊區"
"242039","133-UY","2018/08/02 18:09:49","新北市新莊區民安西路88巷2號","121.426358333333","25.01994","6500500","新莊區"
"242031","135-UY","2018/08/02 18:09:48","新北市新莊區新泰路255巷40號","121.444531666667","25.0396666666667","6500500","新莊區"
"242048","172-VK","2018/08/02 18:09:50","新北市新莊區民安路98巷3號","121.423606666667","25.025705","6500500","新莊區"
"242011","173-VK","2018/08/02 18:09:50","新北市新莊區中信街97號","121.447765","25.053515","6500500","新莊區"
"242017","175-VK","2018/08/02 18:09:47","新北市新莊區中港路286號","121.45294","25.04438","6500500","新莊區"
"242021","348-TH","2018/08/02 18:09:35","新北市新莊區建興街66號","121.450018333333","25.03921","6500500","新莊區"
"242002","349-TH","2018/08/02 18:09:36","新北市新莊區明中街5號","121.458558333333","25.0381683333333","6500500","新莊區"
"242019","350-TH","2018/08/02 18:09:44","新北市新莊區民樂街22號","121.45771","25.040535","6500500","新莊區"
"242013","351-TH","2018/08/02 18:09:44","新北市新莊區瓊林南路77-41號","121.43718","25.01251","6500500","新莊區"
"238015","755-BX","2018/08/02 18:09:48","新北市樹林區大安路323巷10弄16號","121.416873333333","24.9911766666667","6500700","樹林區"
"238023","601-UM","2018/08/02 18:09:30","新北市樹林區三福街67巷6號","121.407653333333","25.015865","6500700","樹林區"
"238019","599-UM","2018/08/02 18:09:38","新北市樹林區忠孝街106號","121.424758333333","24.9803766666667","6500700","樹林區"
"238018","571-TV","2018/08/02 18:09:47","新北市樹林區博愛一街6號","121.425323333333","24.9910783333333","6500700","樹林區"
"238024","5061-A6","2018/08/02 18:09:34","新北市樹林區中山路一段244號","121.421158333333","24.9876133333333","6500700","樹林區"
"238022","KEA-2213","2018/08/02 18:09:49","新北市樹林區太順街105號","121.414845","24.9771783333333","6500700","樹林區"
"238021","KEA-2539","2018/08/02 18:09:45","新北市樹林區柑園街二段150號","121.382183333333","24.954365","6500700","樹林區"
"238025","303-VK","2018/08/02 18:09:41","新北市樹林區保安街二段95號","121.415763333333","25.0012233333333","6500700","樹林區"
"238017","283-BY","2018/08/02 18:09:51","新北市樹林區保安街二段333巷2號","121.41234","25.0075883333333","6500700","樹林區"
"238014","282-BY","2018/08/02 18:09:34","新北市樹林區千歲街61巷38號","121.425761666667","24.9987383333333","6500700","樹林區"
"238020","268-VK","2018/08/02 18:09:35","新北市樹林區三龍街118巷11號","121.415345","25.01767","6500700","樹林區"
"238026","172-UY","2018/08/02 18:09:35","新北市樹林區佳園路一段80巷2號","121.393191666667","24.9697366666667","6500700","樹林區"
"238016","169-UY","2018/08/02 18:09:39","新北市樹林區文化街28號","121.419453333333","24.9877716666667","6500700","樹林區"
"239007","AAC-297","2018/08/02 18:09:47","新北市鶯歌區尖山埔路102號","121.34726","24.9511616666667","6500800","鶯歌區"
"239006","891-R6","2018/08/02 18:09:52","新北市鶯歌區鶯桃路381巷2弄7號","121.333086666667","24.9635733333333","6500800","鶯歌區"
"239008","527-UM","2018/08/02 18:09:34","新北市鶯歌區朝陽街48巷2號","121.337521666667","24.9777916666667","6500800","鶯歌區"
"239005","526-UM","2018/08/02 18:09:42","新北市鶯歌區鶯桃路668巷73號","121.329985","24.9718316666667","6500800","鶯歌區"
"239001","417-VK","2018/08/02 18:09:45","新北市鶯歌區國中街109號","121.341528333333","24.9413033333333","6500800","鶯歌區"
"239003","360-BY","2018/08/02 18:09:34","新北市鶯歌區福安街32巷22號","121.33507","24.9636933333333","6500800","鶯歌區"
"239002","359-BY","2018/08/02 18:09:37","新北市鶯歌區光明街98號","121.3462","24.955815","6500800","鶯歌區"
"221008","489-VK","2018/08/02 18:09:39","新北市汐止區康寧街315號","121.627098333333","25.0678966666667","6501100","汐止區"
"221036","130-UY","2018/08/02 18:09:46","新北市汐止區大同路三段95號","121.66808","25.07738","6501100","汐止區"
"221015","131-UY","2018/08/02 18:09:49","新北市汐止區鄉長路二段33號","121.667796666667","25.0833016666667","6501100","汐止區"
"221010","269-BY","2018/08/02 18:09:40","新北市汐止區祥雲街18巷1號","121.64646","25.0899333333333","6501100","汐止區"
"221012","278-VK","2018/08/02 18:09:38","新北市汐止區保長路37巷42號","121.674098333333","25.0798766666667","6501100","汐止區"
"221023","279-VK","2018/08/02 18:09:48","新北市汐止區中興路291巷1號","121.62803","25.069895","6501100","汐止區"
"221032","280-BY","2018/08/02 18:09:49","新北市汐止區力行街4號","121.61722","25.051165","6501100","汐止區"
"221027","281-BY","2018/08/02 18:09:50","新北市汐止區和平街3-1號","121.663478333333","25.070635","6501100","汐止區"
"221029","298-VK","2018/08/02 18:09:36","新北市汐止區樟樹二路132號","121.639883333333","25.065635","6501100","汐止區"
"221021","299-VK","2018/08/02 18:09:44","新北市汐止區龍安路28巷16號","121.654615","25.0643383333333","6501100","汐止區"
"221002","129-UY","2018/08/02 18:09:51","新北市汐止區福德一路188號","121.635386666667","25.0657283333333","6501100","汐止區"
"221035","622-UM","2018/08/02 18:09:41","新北市汐止區大同路二段200號","121.653253333333","25.0647633333333","6501100","汐止區"
"221025","623-UM","2018/08/02 18:09:40","新北市汐止區秀峰路147號","121.660501666667","25.06216","6501100","汐止區"
"221038","646-BX","2018/08/02 18:09:42","新北市汐止區仁愛路118號","121.662788333333","25.0637","6501100","汐止區"
"221033","647-BX","2018/08/02 18:09:47","新北市汐止區宜興街20巷22號","121.622245","25.0408183333333","6501100","汐止區"
"221018","753-BX","2018/08/02 18:09:44","新北市汐止區忠孝東路384號","121.665571666667","25.0702266666667","6501100","汐止區"
"242015","281-VK","2018/08/02 18:09:34","新北市新莊區中平路152巷45號","121.446721666667","25.0474366666667","6500500","新莊區"
"220103","561-BX","2018/08/02 18:09:40","新北市板橋區三民路一段31巷1號","121.479143333333","25.0231283333333","6500100","板橋區"
"220054","741-BX","2018/08/02 18:05:13","新北市板橋區華東街1-9號","121.44807","24.99493","6500100","板橋區"
"235068","KEA-2873","2018/08/02 18:09:47","新北市中和區員山路36巷16-3號","121.48513","24.9911083333333","6500300","中和區"
"235061","KEA-2875","2018/08/02 18:09:24","新北市中和區連城路508號","121.47694","24.9920266666667","6500300","中和區"
