"lineid","car","time","location","longitude","latitude","cityid","cityname"
"234046","148-BY","2018/08/02 19:29:40","新北市永和區秀朗路二段259號","121.526281666667","24.9991533333333","6500400","永和區"
"234007","207-UY","2018/08/02 19:29:43","新北市永和區永和路一段176-1號","121.51422","25.0088466666667","6500400","永和區"
"234081","298-R6","2018/08/02 19:29:51","新北市永和區環河東路三段52巷7號","121.526335","25.005855","6500400","永和區"
"234064","337-UY","2018/08/02 19:29:37","新北市永和區得和路243巷24號","121.520793333333","25.0010666666667","6500400","永和區"
"234086","338-UY","2018/08/02 19:29:42","新北市永和區林森路66號","121.523818333333","25.0040633333333","6500400","永和區"
"234070","552-UM","2018/08/02 19:29:53","新北市永和區警光街12號","121.51973","25.0095433333333","6500400","永和區"
"234017","745-BX","2018/08/02 19:29:52","新北市永和區環河西路一段7號","121.514983333333","25.0181033333333","6500400","永和區"
"234030","746-BX","2018/08/02 19:29:43","新北市永和區民生路57號","121.522723333333","24.997585","6500400","永和區"
"234054","KEA-2590","2018/08/02 19:29:43","新北市永和區復興街19巷9號","121.516055","25.01317","6500400","永和區"
"234013","KEA-2591","2018/08/02 19:29:41","新北市永和區中山路一段137號","121.510431666667","25.009835","6500400","永和區"
"234061","AAD-866","2018/08/02 19:29:51","新北市永和區中正路500號","121.517403333333","25.0042466666667","6500400","永和區"
"234038","847-RS","2018/08/02 19:29:34","新北市永和區民樂街30巷2號","121.527546666667","25.0012333333333","6500400","永和區"
"234042","862-TW","2018/08/02 19:29:35","新北市永和區水源街39巷30號","121.510788333333","25.0030483333333","6500400","永和區"
"234050","863-TW","2018/08/02 19:29:36","新北市永和區信義路101號","121.512253333333","25.0143366666667","6500400","永和區"
"234026","9371-KE","2018/08/02 19:29:52","新北市中和區安樂路145號","121.51455","24.997","6500400","永和區"
"234011","9373-KE","2018/08/02 19:29:43","新北市永和區保福路二段163巷17號","121.508826666667","25.0146366666667","6500400","永和區"
"249003","593-UM","2018/08/02 19:29:43","新北市八里區中山路二段480號","121.398656666667","25.147135","6502300","八里區"
"248014","025-BX","2018/08/02 19:29:54","新北市五股區民義路一段161號","121.432493333333","25.0875483333333","6501500","五股區"
"248016","026-BX","2018/08/02 19:29:32","新北市五股區成泰路三段544-11號","121.452943333333","25.1023166666667","6501500","五股區"
"248008","095-VK","2018/08/02 19:29:39","新北市五股區中興路一段95巷13號","121.466681666667","25.0722983333333","6501500","五股區"
"248020","225-UY","2018/08/02 19:29:45","新北市五股區凌雲路三段33-16號","121.4317","25.1162166666667","6501500","五股區"
"248012","247-BX","2018/08/02 19:29:44","新北市五股區成泰路二段91巷8號","121.437691666667","25.0844183333333","6501500","五股區"
"248004","677-BX","2018/08/02 19:29:42","新北市五股區工商路118號","121.436741666667","25.0856733333333","6501500","五股區"
"248002","678-BX","2018/08/02 19:29:40","新北市五股區凌雲路一段158巷14-1號","121.447903333333","25.1034583333333","6501500","五股區"
"248010","682-TV","2018/08/02 19:29:35","新北市五股區水碓二路1號","121.430545","25.0712166666667","6501500","五股區"
"234023","9380-KE","2018/08/02 19:29:36","新北市永和區竹林路110號","121.519743333333","25.0118133333333","6500400","永和區"
"234077","969-R7","2018/08/02 19:29:32","新北市永和區民族街43巷10號","121.519028333333","24.998325","6500400","永和區"
"234074","AAC-211","2018/08/02 19:29:39","新北市永和區環河東路一段76號","121.519516666667","25.016585","6500400","永和區"
"234003","AAC-295","2018/08/02 19:29:37","新北市永和區秀朗路一段28號","121.514095","25.0067083333333","6500400","永和區"
"244019","403-UM","2018/08/02 19:29:34","新北市林口區頂福里5鄰34號","121.350823333333","25.0998316666667","6501700","林口區"
"244023","483-VK","2018/08/02 19:29:45","新北市林口區文化三路二段55號","121.373585","25.07971","6501700","林口區"
"243013","AAD-798","2018/08/02 19:29:31","新北市泰山區明志路三段145巷5弄19號","121.425671666667","25.04051","6501600","泰山區"
"243009","297-R6","2018/08/02 19:29:51","新北市泰山區半山雅3號","121.431298333333","25.0674283333333","6501600","泰山區"
"243016","KEA-2801","2018/08/02 19:29:51","新北市泰山區明志路三段352巷10號","121.421086666667","25.03539","6501600","泰山區"
"243015","421-VK","2018/08/02 19:29:40","新北市泰山區民權街11號","121.428266666667","25.0508766666667","6501600","泰山區"
"243011","KEA-2215","2018/08/02 19:29:45","新北市泰山區貴子路120號","121.428296666667","25.0406333333333","6501600","泰山區"
"243010","KEA-2216","2018/08/02 19:29:50","新北市泰山區民生路17巷63號","121.429208333333","25.0509666666667","6501600","泰山區"
"243012","646-TV","2018/08/02 19:29:34","新北市泰山區全興路214號","121.434416666667","25.055665","6501600","泰山區"
"243014","680-BX","2018/08/02 19:29:48","新北市泰山區仁愛路6巷28號","121.431736666667","25.05297","6501600","泰山區"
"222003","436-BY","2018/08/02 19:29:35","新北市深坑區深南路88巷1號","121.621241666667","25.011005","6501800","深坑區"
"222002","659-BX","2018/08/02 19:29:42","新北市深坑區北深路一段177號","121.632541666667","25.0108416666667","6501800","深坑區"
"231041","002-UM","2018/08/02 19:29:45","新北市新店區中正路558號","121.533636666667","24.9872733333333","6500600","新店區"
"231040","047-UY","2018/08/02 19:29:43","新北市新店區北新路一段285號","121.541258333333","24.9668766666667","6500600","新店區"
"231044","106-UY","2018/08/02 19:29:41","新北市新店區中興路三段137號","121.544563333333","24.97978","6500600","新店區"
"231046","107-UY","2018/08/02 19:29:48","新北市新店區光明街187號","121.539795","24.9633766666667","6500600","新店區"
"231052","108-UY","2018/08/02 19:29:45","新北市新店區新烏路二段212-1號","121.547503333333","24.915245","6500600","新店區"
"231047","187-VK","2018/08/02 19:29:45","新北市新店區五峰路157號","121.544911666667","24.9655783333333","6500600","新店區"
"231054","KEA-2219","2018/08/02 19:29:43","新北市新店區文中路40號","121.53963","24.95657","6500600","新店區"
"231057","256-BX","2018/08/02 19:29:38","新北市新店區花園一路四段43號","121.551115","24.932505","6500600","新店區"
"231042","268-BY","2018/08/02 19:29:51","新北市新店區中興路一段24-2號","121.538531666667","24.9583533333333","6500600","新店區"
"231051","278-BY","2018/08/02 19:29:49","新北市新店區中央五街60號","121.527803333333","24.97526","6500600","新店區"
"231050","AAD-862","2018/08/02 19:29:43","新北市新店區竹林路151號","121.555471666667","24.9488133333333","6500600","新店區"
"231059","355-BY","2018/08/02 19:29:42","新北市新店區安和路三段68號","121.518008333333","24.983055","6500600","新店區"
"231058","3713-VJ","2018/08/02 19:29:50","新北市新店區中正路76巷11弄19號","121.543741666667","24.9716666666667","6500600","新店區"
"231066","4716-K9","2018/08/02 19:29:49","新北市新店區安康路三段355巷4號","121.484665","24.95046","6500600","新店區"
"231067","4772-VM","2018/08/02 19:29:53","新北市新店區柴埕路52巷1-6號","121.512783333333","24.96476","6500600","新店區"
"231065","512-UM","2018/08/02 19:29:49","新北市新店區安祥路109巷1弄89號","121.47874","24.9603466666667","6500600","新店區"
"231049","513-UM","2018/08/02 19:29:44","新北市新店區北新路三段65巷34弄28號","121.540033333333","24.9819183333333","6500600","新店區"
"231063","616-UM","2018/08/02 19:29:44","新北市新店區達觀路16-7號","121.502393333333","24.940835","6500600","新店區"
"231045","617-UM","2018/08/02 19:29:34","新北市新店區北宜路二段207號","121.55311","24.95342","6500600","新店區"
"231061","619-UM","2018/08/02 19:29:49","新北市新店區安康路一段285號","121.523253333333","24.9636133333333","6500600","新店區"
"231064","719-UM","2018/08/02 19:29:31","新北市新店區安康路二段85巷44號","121.514408333333","24.9614283333333","6500600","新店區"
"231062","720-UM","2018/08/02 19:29:43","新北市新店區莒光路70號","121.522925","24.9551016666667","6500600","新店區"
"231060","897-TW","2018/08/02 19:29:50","新北市新店區安康路二段3-3號","121.515941666667","24.9636866666667","6500600","新店區"
"231043","899-TW","2018/08/02 19:29:55","新北市新店區北新路二段222號","121.543078333333","24.9771983333333","6500600","新店區"
"231055","AKT-0513","2018/08/02 19:29:42","新北市新店區中華路83巷67號","121.538353333333","24.9673916666667","6500600","新店區"
"241011","013-R5","2018/08/02 19:29:50","新北市三重區龍濱路269號","121.501348333333","25.072915","6500200","三重區"
"241008","059-VK","2018/08/02 19:29:48","新北市三重區永福街135巷30號","121.477505","25.0770433333333","6500200","三重區"
"241022","060-VK","2018/08/02 19:29:34","新北市三重區三民街151號","121.484225","25.0642433333333","6500200","三重區"
"241031","061-VK","2018/08/02 19:29:47","新北市三重區集美街61號","121.488443333333","25.054405","6500200","三重區"
"241017","063-VK","2018/08/02 19:29:45","新北市三重區大仁街29號","121.492468333333","25.0651166666667","6500200","三重區"
"241026","066-VK","2018/08/02 19:29:39","新北市三重區文化南路51號","121.5003","25.0611966666667","6500200","三重區"
"241028","265-UM","2018/08/02 19:29:49","新北市三重區中寮街76號","121.493055","25.058185","6500200","三重區"
"241009","267-UM","2018/08/02 19:29:37","新北市三重區溪尾街242巷65號","121.486096666667","25.0814933333333","6500200","三重區"
"241013","270-UM","2018/08/02 19:29:48","新北市三重區仁愛街129巷4號","121.495771666667","25.0750316666667","6500200","三重區"
"241025","271-UM","2018/08/02 19:29:46","新北市三重區頂崁街210巷28弄5號","121.475781666667","25.067595","6500200","三重區"
"241007","398-BY","2018/08/02 19:29:33","新北市三重區慈愛街151號","121.48953","25.0793933333333","6500200","三重區"
"241035","KEA-2210","2018/08/02 19:29:46","新北市三重區信義西街1號","121.498075","25.0646916666667","6500200","三重區"
"241020","478-VK","2018/08/02 19:29:33","新北市三重區大智街161號","121.489825","25.072305","6500200","三重區"
"241030","480-VK","2018/08/02 19:29:35","新北市三重區成功路41巷9號","121.490325","25.0514866666667","6500200","三重區"
"241006","AAD-863","2018/08/02 19:29:33","新北市三重區國道路一段5號","121.48633","25.07342","6500200","三重區"
"241029","942-UM","2018/08/02 19:29:34","新北市三重區環河南路220-8號","121.493381666667","25.0526466666667","6500200","三重區"
"235066","003-UY","2018/08/02 19:29:47","新北市中和區景新街48號","121.503836666667","24.999225","6500300","中和區"
"235064","005-UY","2018/08/02 19:29:46","新北市中和區南山路81巷6號","121.502316666667","24.9979566666667","6500300","中和區"
"235063","006-UY","2018/08/02 19:29:52","新北市中和區連城路225號","121.494208333333","24.9974216666667","6500300","中和區"
"235056","096-UM","2018/08/02 19:29:51","新北市中和區民富街9號","121.476551666667","25.0072816666667","6500300","中和區"
"235039","097-UM","2018/08/02 19:29:44","新北市中和區秀峰街103巷7弄8號","121.52018","24.989485","6500300","中和區"
"235065","098-UM","2018/08/02 19:29:41","新北市中和區中山路二段2巷7弄1號","121.504365","25.0064833333333","6500300","中和區"
"235040","150-BY","2018/08/02 19:29:46","新北市中和區保健路10巷34號","121.508238333333","24.9964316666667","6500300","中和區"
"235058","151-BY","2018/08/02 19:29:36","新北市中和區連城路467-5號","121.483633333333","24.995985","6500300","中和區"
"235055","183-VK","2018/08/02 19:29:36","新北市中和區莒光路120巷19弄2號","121.47172","25.0006733333333","6500300","中和區"
"235038","185-VK","2018/08/02 19:29:54","新北市中和區自立路115號","121.522053333333","24.99448","6500300","中和區"
"235049","186-VK","2018/08/02 19:29:38","新北市中和區景新街275號","121.509456666667","24.9937066666667","6500300","中和區"
"235067","255-BX","2018/08/02 19:29:44","新北市中和區連城路340巷10弄2號","121.482753333333","24.9965033333333","6500300","中和區"
"235044","293-VK","2018/08/02 19:29:46","新北市中和區捷運路157號","121.506443333333","24.9912166666667","6500300","中和區"
"235072","301-VK","2018/08/02 19:29:54","新北市中和區連城路263巷8弄7號","121.49182","24.9951783333333","6500300","中和區"
"235043","352-BY","2018/08/02 19:29:42","新北市中和區南山路82號","121.502648333333","24.9951383333333","6500300","中和區"
"235042","KEA-2878","2018/08/02 19:29:47","新北市中和區中和路350巷8弄16號","121.510271666667","25.00008","6500300","中和區"
"235050","4979-A6","2018/08/02 19:29:51","新北市中和區景安路208巷9號","121.503468333333","24.9911883333333","6500300","中和區"
"235070","558-UM","2018/08/02 19:29:36","新北市中和區景平路624-1號","121.500418333333","24.9976016666667","6500300","中和區"
"235045","565-BX","2018/08/02 19:29:46","新北市中和區景新街421號","121.51281","24.9891933333333","6500300","中和區"
"235054","640-BX","2018/08/02 19:29:35","新北市中和區國光街112巷22弄20號","121.47064","25.0022883333333","6500300","中和區"
"235060","647-TV","2018/08/02 19:29:37","新北市中和區新生街114巷2號","121.48339","25.0024283333333","6500300","中和區"
"235046","733-UM","2018/08/02 19:29:41","新北市中和區忠孝街37巷67號","121.51056","24.9847616666667","6500300","中和區"
"235071","783-BX","2018/08/02 19:29:40","新北市中和區連城路469巷21弄12號","121.483993333333","24.9949883333333","6500300","中和區"
"235057","801-TS","2018/08/02 19:29:50","新北市中和區中山路三段4號","121.479736666667","25.006105","6500300","中和區"
"235041","802-TS","2018/08/02 19:29:48","新北市中和區中和路400巷27號","121.51186","25.002095","6500300","中和區"
"235052","805-TS","2018/08/02 19:29:39","新北市中和區華新街143巷96號","121.506691666667","24.9788416666667","6500300","中和區"
"235048","896-TW","2018/08/02 19:29:47","新北市中和區忠孝街106巷4號","121.512178333333","24.9843516666667","6500300","中和區"
"235053","900-TW","2018/08/02 19:29:43","新北市中和區華順街2巷6號","121.467575","24.9988783333333","6500300","中和區"
"235051","157-BY","2018/08/02 19:29:47","新北市中和區景新街103號","121.505535","24.9978066666667","6500300","中和區"
"235037","AAC-213","2018/08/02 19:29:46","新北市中和區秀朗路三段10巷14弄18號","121.52492","24.99663","6500300","中和區"
"235059","AAC-215","2018/08/02 19:29:47","新北市中和區圓通路252巷18弄1號","121.49239","24.99251","6500300","中和區"
"220106","013-TV","2018/08/02 19:29:42","新北市板橋區雙十路三段38號","121.471098333333","25.0310683333333","6500100","板橋區"
"220065","072-UY","2018/08/02 19:29:44","新北市板橋區國泰街39巷6弄30號","121.467853333333","25.0055816666667","6500100","板橋區"
"220086","073-UY","2018/08/02 19:29:46","新北市板橋區中正路236巷53號","121.458051666667","25.0195216666667","6500100","板橋區"
"220069","AAD-861","2018/08/02 19:29:38","新北市板橋區貴興路35號","121.457716666667","25.0038916666667","6500100","板橋區"
"247007","056-VK","2018/08/02 19:10:48","新北市五股區中興路三段2巷10號","121.449365","25.0810533333333","6501400","蘆洲區"
"226004","312-R5","2018/08/02 19:29:36","新北市平溪區十分里十分街78號","121.776388333333","25.0421566666667","6502400","平溪區"
"235047","251-BX","2018/08/02 19:29:53","新北市中和區景平路241巷64弄8號","121.5078","24.9926083333333","6500300","中和區"
"228003","097-TW","2018/08/02 19:29:41","新北市貢寮區和美里和美街22-1號","121.912818333333","25.08261","6502600","貢寮區"
"228001","212-TW","2018/08/02 19:29:50","新北市貢寮區真理里延平街68號","121.925355","25.0574266666667","6502600","貢寮區"
"228002","663-BX","2018/08/02 19:29:42","新北市貢寮區龍門里龍門街62-5號","121.931641666667","25.0271083333333","6502600","貢寮區"
"224010","AGQ-8101","2018/08/02 19:29:16","新北市瑞芳區街頂巷56號","121.844045","25.1076933333333","6501200","瑞芳區"
"224002","639-TC","2018/08/02 19:29:50","新北市瑞芳區東和路9號","121.80463","25.10615","6501200","瑞芳區"
"224008","285-BY","2018/08/02 19:29:42","新北市瑞芳區一坑路173-1號","121.801346666667","25.1080766666667","6501200","瑞芳區"
"227004","642-TC","2018/08/02 19:29:36","新北市雙溪區雙溪里光復街14號","121.865071666667","25.0354066666667","6502500","雙溪區"
"227010","400-TW","2018/08/02 19:29:52","新北市雙溪區新基里新基北街43號","121.868165","25.0396833333333","6502500","雙溪區"
"253005","032-BX","2018/08/02 19:29:38","新北市石門區小坑9號","121.594751666667","25.2869266666667","6502200","石門區"
"253006","295-VK","2018/08/02 19:29:50","新北市石門區尖子鹿103-1號","121.581485","25.2954966666667","6502200","石門區"
"222001","KEA-2212","2018/08/02 19:29:41","新北市深坑區北深路二段130號","121.615936666667","25.0029183333333","6501800","深坑區"
"208002","KEA-2872","2018/08/02 19:29:51","新北市金山區仁愛路61號","121.635173333333","25.2209266666667","6502700","金山區"
"208003","665-BX","2018/08/02 19:29:46","新北市金山區中山路263巷14號","121.636418333333","25.22156","6502700","金山區"
"208001","761-BX","2018/08/02 19:29:41","新北市金山區中正路130號","121.632201666667","25.2215","6502700","金山區"
"251009","008-UM","2018/08/02 19:29:34","新北市淡水區大忠街5巷8號","121.443328333333","25.17651","6501000","淡水區"
"251005","010-UM","2018/08/02 19:29:35","新北市淡水區水源街一段71巷24號","121.444115","25.1730183333333","6501000","淡水區"
"251001","011-UM","2018/08/02 19:29:38","新北市淡水區民權路139號","121.460126666667","25.1364933333333","6501000","淡水區"
"251013","KEA-2871","2018/08/02 19:29:34","新北市淡水區安子內20號","121.476026666667","25.2188516666667","6501000","淡水區"
"251016","179-VK","2018/08/02 19:29:49","新北市淡水區淡金路三段350巷18號","121.450626666667","25.208345","6501000","淡水區"
"251014","180-VK","2018/08/02 19:29:52","新北市淡水區小中寮14號","121.485625","25.2307733333333","6501000","淡水區"
"251008","181-VK","2018/08/02 19:29:35","新北市淡水區中正路一段102號","121.423981666667","25.177775","6501000","淡水區"
"251015","182-VK","2018/08/02 19:29:32","新北市淡水區山子頂22-2號","121.492695","25.188875","6501000","淡水區"
"251010","413-VK","2018/08/02 19:29:41","新北市淡水區中正路二段142號","121.422003333333","25.1874883333333","6501000","淡水區"
"251012","441-VK","2018/08/02 19:29:46","新北市淡水區崁頂98號","121.434851666667","25.2037616666667","6501000","淡水區"
"251007","442-VK","2018/08/02 19:29:40","新北市淡水區中正東路二段69-10號","121.460533333333","25.154235","6501000","淡水區"
"251006","561-UM","2018/08/02 19:29:40","新北市淡水區大義街47號","121.44168","25.1782966666667","6501000","淡水區"
"251011","650-BX","2018/08/02 19:29:44","新北市淡水區中正東路二段143巷2弄1號","121.460736666667","25.1474366666667","6501000","淡水區"
"207003","550-UM","2018/08/02 19:29:53","新北市萬里區大鵬里萬里加投197-2號","121.643991666667","25.2150383333333","6502800","萬里區"
"207004","225-TW","2018/08/02 19:29:46","新北市萬里區萬里里瑪鋉路123號","121.689056666667","25.17801","6502800","萬里區"
"252002","178-VK","2018/08/02 19:29:42","新北市三芝區淡金路二段17號","121.502725","25.2594383333333","6502100","三芝區"
"252001","292-VK","2018/08/02 19:29:43","新北市三芝區長勤街63-1號","121.50008","25.2561083333333","6502100","三芝區"
"237007","153-BY","2018/08/02 19:29:48","新北市三峽區二鬮路136巷18弄1號","121.359131666667","24.9080666666667","6500900","三峽區"
"237011","572-TV","2018/08/02 19:29:54","新北市三峽區介壽路二段165號","121.394103333333","24.9359433333333","6500900","三峽區"
"237009","210-TH","2018/08/02 19:29:46","新北市三峽區中山路31號","121.368421666667","24.9344033333333","6500900","三峽區"
"237013","252-BX","2018/08/02 19:29:34","新北市三峽區介壽路一段276巷88弄19號","121.379055","24.9286316666667","6500900","三峽區"
"237012","275-BY","2018/08/02 19:29:51","新北市三峽區民生街2號","121.376335","24.9368883333333","6500900","三峽區"
"237008","302-VK","2018/08/02 19:29:46","新北市三峽區永安街183號","121.373195","24.926715","6500900","三峽區"
"237014","433-BY","2018/08/02 19:29:46","新北市三峽區中山路285號","121.361825","24.9376033333333","6500900","三峽區"
"237006","5529-G3","2018/08/02 19:29:53","新北市三峽區介壽路二段167號","121.394755","24.9360133333333","6500900","三峽區"
"237016","649-BX","2018/08/02 19:29:39","新北市三峽區安坑48-1號","121.459455","24.932255","6500900","三峽區"
"237010","706-TV","2018/08/02 19:29:49","新北市三峽區復興路49號","121.373386666667","24.9370316666667","6500900","三峽區"
"237005","AKY-6261","2018/08/02 19:29:38","新北市三峽區復興路367巷1弄19號","121.364133333333","24.9379383333333","6500900","三峽區"
"236070","105-UM","2018/08/02 19:29:51","新北市土城區學府路一段194號","121.453176666667","24.9859583333333","6501300","土城區"
"236042","107-UM","2018/08/02 19:29:41","新北市土城區學府路一段239號","121.450428333333","24.9833683333333","6501300","土城區"
"236078","166-UM","2018/08/02 19:29:51","新北市土城區中州路27巷69號","121.412865","24.9567116666667","6501300","土城區"
"236026","269-VK","2018/08/02 19:29:44","新北市土城區中央路二段61巷22號","121.44316","24.9787316666667","6501300","土城區"
"236014","270-VK","2018/08/02 19:29:41","新北市土城區廣福街126號","121.45632","24.9928","6501300","土城區"
"236021","401-BY","2018/08/02 19:29:37","新北市土城區峰廷街18號","121.469033333333","24.9872866666667","6501300","土城區"
"236049","913-UM","2018/08/02 19:29:40","新北市土城區清水路200號","121.460418333333","24.9818683333333","6501300","土城區"
"236055","AAC-216","2018/08/02 19:29:41","新北市土城區學府路一段276號","121.450206666667","24.9832833333333","6501300","土城區"
"242023","362-BY","2018/08/02 19:29:43","新北市新莊區新泰路502巷12號","121.442853333333","25.0463933333333","6500500","新莊區"
"242031","135-UY","2018/08/02 19:28:37","新北市新莊區新泰路225巷20號","121.445288333333","25.03929","6500500","新莊區"
"242048","172-VK","2018/08/02 19:29:50","新北市新莊區後港一路19號","121.42409","25.0260883333333","6500500","新莊區"
"242011","173-VK","2018/08/02 19:29:50","新北市新莊區三和路12-21號","121.442145","25.0387083333333","6500500","新莊區"
"242013","351-TH","2018/08/02 19:29:44","新北市新莊區新泰路357巷3弄53號","121.442523333333","25.0398716666667","6500500","新莊區"
"238015","755-BX","2018/08/02 19:29:42","新北市樹林區樹德街71號","121.420708333333","24.9918916666667","6500700","樹林區"
"238023","601-UM","2018/08/02 19:29:50","新北市樹林區三福街40號","121.407991666667","25.016575","6500700","樹林區"
"238019","599-UM","2018/08/02 19:29:50","新北市樹林區鎮前街347巷1弄39號","121.417766666667","24.9843716666667","6500700","樹林區"
"238018","571-TV","2018/08/02 19:29:46","新北市樹林區中華路77號","121.422888333333","24.9830333333333","6500700","樹林區"
"238024","5061-A6","2018/08/02 19:29:34","新北市樹林區中山路三段155巷8弄1號","121.39587","24.9724533333333","6500700","樹林區"
"238022","KEA-2213","2018/08/02 19:29:40","新北市樹林區名園街11號","121.419261666667","24.9795016666667","6500700","樹林區"
"238021","KEA-2539","2018/08/02 19:29:49","新北市樹林區大雅路2-1號","121.380696666667","24.9443583333333","6500700","樹林區"
"238025","303-VK","2018/08/02 19:29:41","新北市樹林區中山路一段71號","121.423696666667","24.99172","6500700","樹林區"
"238017","283-BY","2018/08/02 19:29:37","新北市樹林區保安街二段167巷26號","121.414173333333","25.0028366666667","6500700","樹林區"
"238014","282-BY","2018/08/02 19:29:34","新北市樹林區保安二街64巷5弄1號","121.42442","24.995875","6500700","樹林區"
"238020","268-VK","2018/08/02 19:29:35","新北市樹林區俊英街111巷1-17號","121.423483333333","25.009365","6500700","樹林區"
"238026","172-UY","2018/08/02 19:29:35","新北市樹林區佳園路三段36號","121.387845","24.9536533333333","6500700","樹林區"
"238016","169-UY","2018/08/02 19:29:19","新北市樹林區東和街26號","121.402861666667","24.9812366666667","6500700","樹林區"
"239007","AAC-297","2018/08/02 19:29:47","新北市鶯歌區大湖路94號","121.342523333333","24.9629933333333","6500800","鶯歌區"
"239006","891-R6","2018/08/02 19:29:32","新北市鶯歌區鶯桃路67巷5號","121.340966666667","24.9524033333333","6500800","鶯歌區"
"239008","527-UM","2018/08/02 19:29:34","新北市鶯歌區大湖路458號","121.339961666667","24.9723683333333","6500800","鶯歌區"
"239005","526-UM","2018/08/02 19:29:44","新北市鶯歌區東湖路19-1號","121.357825","24.97352","6500800","鶯歌區"
"239001","417-VK","2018/08/02 19:29:45","新北市鶯歌區鶯桃路39-2號","121.342591666667","24.9509183333333","6500800","鶯歌區"
"239003","360-BY","2018/08/02 19:29:34","新北市鶯歌區中山路133號","121.349291666667","24.9569733333333","6500800","鶯歌區"
"239002","359-BY","2018/08/02 19:29:37","新北市鶯歌區湖山路64巷1號","121.339726666667","24.9767","6500800","鶯歌區"
"239004","193-VK","2018/08/02 19:29:47","新北市鶯歌區鶯華新村1號","121.330011666667","24.9349966666667","6500800","鶯歌區"
"221008","489-VK","2018/08/02 19:29:39","新北市汐止區康寧街235號","121.62391","25.0667916666667","6501100","汐止區"
"221036","130-UY","2018/08/02 19:29:44","新北市汐止區康寧街901號","121.651451666667","25.0749666666667","6501100","汐止區"
"221015","131-UY","2018/08/02 19:29:49","新北市汐止區康寧街901號","121.65162","25.0748716666667","6501100","汐止區"
"221010","269-BY","2018/08/02 19:29:40","新北市汐止區連峰街7號","121.646453333333","25.0772333333333","6501100","汐止區"
"221012","278-VK","2018/08/02 19:29:38","新北市汐止區大同路三段279號","121.674646666667","25.07576","6501100","汐止區"
"221023","279-VK","2018/08/02 19:29:48","新北市汐止區康寧街519-1號","121.633188333333","25.0686366666667","6501100","汐止區"
"221027","281-BY","2018/08/02 19:29:50","新北市汐止區忠孝東路9號","121.658296666667","25.06599","6501100","汐止區"
"221029","298-VK","2018/08/02 19:29:36","新北市汐止區康寧街901號","121.651536666667","25.0749333333333","6501100","汐止區"
"221021","299-VK","2018/08/02 19:29:44","新北市汐止區康寧街901號","121.65153","25.0749983333333","6501100","汐止區"
"221002","129-UY","2018/08/02 19:29:51","新北市汐止區大同路一段337巷11號","121.638065","25.0598933333333","6501100","汐止區"
"221025","623-UM","2018/08/02 19:29:40","新北市汐止區大同路二段424號","121.658933333333","25.06715","6501100","汐止區"
"221038","646-BX","2018/08/02 19:29:42","新北市汐止區大同路二段424號","121.658861666667","25.0672","6501100","汐止區"
"220079","145-BY","2018/08/02 19:29:31","新北市板橋區建國街3-1號","121.457155","25.01707","6500100","板橋區"
"220080","200-UY","2018/08/02 19:29:46","新北市板橋區大觀路二段19巷18號","121.447491666667","25.0030566666667","6500100","板橋區"
"220082","610-BX","2018/08/02 19:29:44","新北市板橋區金門街100-2號","121.433096666667","24.99234","6500100","板橋區"
"220056","276-BY","2018/08/02 19:29:47","新北市板橋區信義路1巷26弄30號","121.45836","24.996545","6500100","板橋區"
"220072","277-BY","2018/08/02 19:29:46","新北市板橋區金門街253巷2弄25號","121.431743333333","24.9877333333333","6500100","板橋區"
"220071","283-VK","2018/08/02 19:29:51","新北市板橋區忠孝路48巷4弄89號","121.46027","25.0006883333333","6500100","板橋區"
"220094","285-UM","2018/08/02 19:29:44","新北市板橋區吳鳳路50巷18號","121.469193333333","25.0302216666667","6500100","板橋區"
"220053","285-VK","2018/08/02 19:29:49","新北市板橋區永豐街122號","121.476593333333","25.0209066666667","6500100","板橋區"
"220083","286-VK","2018/08/02 19:29:32","新北市板橋區大觀路一段38巷158號","121.44225","25.0045166666667","6500100","板橋區"
"220081","287-VK","2018/08/02 19:29:50","新北市板橋區大觀路一段75巷35號","121.448726666667","25.00414","6500100","板橋區"
"220090","288-VK","2018/08/02 19:29:53","新北市板橋區裕民街91號","121.4604","25.02798","6500100","板橋區"
"220061","293-UM","2018/08/02 19:29:48","新北市板橋區中山路二段253號","121.477401666667","25.0176666666667","6500100","板橋區"
"220062","295-UM","2018/08/02 19:29:40","新北市板橋區三民路二段153巷4弄1號","121.479615","25.01476","6500100","板橋區"
"220084","296-UM","2018/08/02 19:29:46","新北市板橋區滿平街84巷120弄28號","121.426048333333","24.9855533333333","6500100","板橋區"
"220075","303-R5","2018/08/02 19:29:51","新北市板橋區南雅西路二段301巷50弄12號","121.452318333333","25.0170166666667","6500100","板橋區"
"220092","307-R5","2018/08/02 19:29:50","新北市板橋區光武街4巷13-1號","121.46824","25.0255833333333","6500100","板橋區"
"220098","317-R6","2018/08/02 19:29:43","新北市板橋區民生路三段263巷4弄2號","121.463751666667","25.0297466666667","6500100","板橋區"
"220064","486-VK","2018/08/02 19:29:37","新北市板橋區中山路一段24號","121.460273333333","25.00833","6500100","板橋區"
"220088","491-VK","2018/08/02 19:29:46","新北市板橋區文化路二段438號","121.474486666667","25.0320683333333","6500100","板橋區"
"220035","560-BX","2018/08/02 19:29:53","新北市板橋區中正路413巷2弄21號","121.453303333333","25.0231533333333","6500100","板橋區"
"220103","561-BX","2018/08/02 19:29:52","新北市板橋區文化路一段220號","121.466588333333","25.0205116666667","6500100","板橋區"
"220063","609-BX","2018/08/02 19:29:38","新北市板橋區萬安街53巷4號","121.483605","25.0238216666667","6500100","板橋區"
"220091","637-BX","2018/08/02 19:29:43","新北市板橋區文聖街149巷48號","121.480328333333","25.0290716666667","6500100","板橋區"
"220057","686-BX","2018/08/02 19:29:47","新北市板橋區和平路61號","121.461155","24.994615","6500100","板橋區"
"220077","687-BX","2018/08/02 19:29:47","新北市板橋區僑中二街114巷2號","121.445748333333","25.0067883333333","6500100","板橋區"
"220093","689-BX","2018/08/02 19:29:49","新北市板橋區英士路76號","121.460126666667","25.0244266666667","6500100","板橋區"
"220054","741-BX","2018/08/02 19:29:42","新北市板橋區光明街61號","121.461791666667","25.0028266666667","6500100","板橋區"
"220102","KEA-2699","2018/08/02 19:29:47","新北市板橋區松柏街2-1號","121.473975","25.0293633333333","6500100","板橋區"
"220055","827-TW","2018/08/02 19:29:50","新北市板橋區重慶路278巷2-3號","121.462711666667","24.9996866666667","6500100","板橋區"
"220067","829-TW","2018/08/02 19:29:55","新北市板橋區漢生東路299巷11號","121.472618333333","25.0088333333333","6500100","板橋區"
"220068","830-TW","2018/08/02 19:29:46","新北市板橋區翠華街6巷84號","121.48165","25.0245716666667","6500100","板橋區"
"220096","831-TW","2018/08/02 19:29:33","新北市板橋區莒光路114巷4號","121.472443333333","25.0234133333333","6500100","板橋區"
"220089","833-TW","2018/08/02 19:29:46","新北市板橋區文化路一段31號","121.460353333333","25.01281","6500100","板橋區"
"220074","895-R6","2018/08/02 19:29:52","新北市板橋區民權路192號","121.459133333333","25.0134683333333","6500100","板橋區"
"220073","985-R7","2018/08/02 19:29:48","新北市板橋區中正路214號","121.455908333333","25.0183483333333","6500100","板橋區"
"220097","AAC-210","2018/08/02 19:29:35","新北市板橋區漢生西路160號","121.463331666667","25.0232633333333","6500100","板橋區"
"220070","AAC-253","2018/08/02 19:29:53","新北市板橋區四川路一段233號","121.459943333333","25.0028833333333","6500100","板橋區"
"235068","KEA-2873","2018/08/02 19:29:47","新北市中和區景平路493巷12弄31號","121.498263333333","24.9968583333333","6500300","中和區"
"235061","KEA-2875","2018/08/02 19:29:24","新北市中和區民利街31巷2弄4號","121.47996","24.9986833333333","6500300","中和區"
