"lineid","car","time","location","longitude","latitude","cityid","cityname"
"234046","148-BY","2018/08/02 19:39:38","新北市永和區永利路326號","121.525045","25.0033483333333","6500400","永和區"
"234007","207-UY","2018/08/02 19:39:43","新北市永和區中和路473號","121.510291666667","25.0017733333333","6500400","永和區"
"234081","298-R6","2018/08/02 19:39:51","新北市永和區國中路104巷8弄16號","121.525175","25.00645","6500400","永和區"
"234064","337-UY","2018/08/02 19:39:37","新北市永和區秀朗路一段192巷6弄14號","121.519111666667","25.002255","6500400","永和區"
"234086","338-UY","2018/08/02 19:39:45","新北市永和區永亨路149號","121.5256","25.0038866666667","6500400","永和區"
"234070","552-UM","2018/08/02 19:39:53","新北市永和區永和路二段239-1號","121.515586666667","25.0146266666667","6500400","永和區"
"234017","745-BX","2018/08/02 19:39:52","新北市永和區永和路二段425巷49號","121.51392","25.0174283333333","6500400","永和區"
"234030","746-BX","2018/08/02 19:39:43","新北市永和區四維街103巷2號","121.523798333333","24.99795","6500400","永和區"
"234054","KEA-2590","2018/08/02 19:39:52","新北市永和區竹林路39巷1號","121.518033333333","25.01431","6500400","永和區"
"234013","KEA-2591","2018/08/02 19:39:41","新北市永和區永平路246號","121.50867","25.0109916666667","6500400","永和區"
"234061","AAD-866","2018/08/02 19:39:51","新北市永和區中正路446號","121.517431666667","25.0028916666667","6500400","永和區"
"234038","847-RS","2018/08/02 19:39:33","新北市永和區民樂街31巷4號","121.527806666667","25.00146","6500400","永和區"
"234042","862-TW","2018/08/02 19:39:35","新北市永和區中和路589號","121.51215","25.004035","6500400","永和區"
"234050","863-TW","2018/08/02 19:39:36","新北市永和區保安路41號","121.509671666667","25.01608","6500400","永和區"
"234026","9371-KE","2018/08/02 19:39:52","新北市永和區中和路501巷2號","121.510498333333","25.0025783333333","6500400","永和區"
"249003","593-UM","2018/08/02 19:39:43","新北市八里區華峰一街35號","121.398846666667","25.1463683333333","6502300","八里區"
"248014","025-BX","2018/08/02 19:39:34","新北市五股區五福路52巷1號","121.433713333333","25.08977","6501500","五股區"
"248016","026-BX","2018/08/02 19:39:32","新北市五股區成泰路四段44號","121.456043333333","25.1106166666667","6501500","五股區"
"248008","095-VK","2018/08/02 19:39:40","新北市五股區四維路118巷13號","121.46922","25.0742783333333","6501500","五股區"
"248020","225-UY","2018/08/02 19:39:45","新北市五股區中直路17-5號","121.422546666667","25.1123733333333","6501500","五股區"
"248012","247-BX","2018/08/02 19:39:54","新北市五股區成泰路一段241巷9號","121.436048333333","25.080955","6501500","五股區"
"248004","677-BX","2018/08/02 19:39:42","新北市五股區成泰路一段222號","121.436485","25.080105","6501500","五股區"
"248002","678-BX","2018/08/02 19:39:40","新北市五股區成泰路三段577巷60號","121.450441666667","25.1033133333333","6501500","五股區"
"248010","682-TV","2018/08/02 19:39:35","新北市五股區自強路115號","121.432266666667","25.0704833333333","6501500","五股區"
"234023","9380-KE","2018/08/02 19:39:47","新北市永和區竹林路91巷60弄2-1號","121.521583333333","25.0129466666667","6500400","永和區"
"234077","969-R7","2018/08/02 19:39:52","新北市永和區民權路3號","121.520213333333","24.998395","6500400","永和區"
"234074","AAC-211","2018/08/02 19:39:39","新北市永和區竹林路223號","121.520786666667","25.00852","6500400","永和區"
"234067","AAC-212","2018/08/02 19:39:46","新北市永和區中山路一段191巷10號","121.50949","25.008255","6500400","永和區"
"234003","AAC-295","2018/08/02 19:39:37","新北市永和區永和路一段93號","121.513433333333","25.0073916666667","6500400","永和區"
"244019","403-UM","2018/08/02 19:39:55","新北市八里區中山路三段390號","121.36808","25.1356683333333","6501700","林口區"
"243013","AAD-798","2018/08/02 19:39:51","新北市泰山區明志路三段6巷16號","121.423883333333","25.0436733333333","6501600","泰山區"
"243009","297-R6","2018/08/02 19:39:51","新北市泰山區美寧街64號","121.430996666667","25.0646733333333","6501600","泰山區"
"243016","KEA-2801","2018/08/02 19:39:51","新北市泰山區中山路三段114號","121.417751666667","25.0321283333333","6501600","泰山區"
"243015","421-VK","2018/08/02 19:39:48","新北市泰山區明志路二段237巷24號","121.427941666667","25.0478866666667","6501600","泰山區"
"243011","KEA-2215","2018/08/02 19:39:45","新北市泰山區中山路二段661號","121.429613333333","25.03987","6501600","泰山區"
"243010","KEA-2216","2018/08/02 19:39:50","新北市泰山區民生路33號","121.430875","25.052135","6501600","泰山區"
"243012","646-TV","2018/08/02 19:39:34","新北市泰山區仁愛路100巷30號","121.433458333333","25.055025","6501600","泰山區"
"243014","680-BX","2018/08/02 19:39:41","新北市泰山區泰林路二段33-8號","121.43518","25.0564666666667","6501600","泰山區"
"222003","436-BY","2018/08/02 19:32:27","新北市深坑區深南路51-1號","121.621215","25.0097983333333","6501800","深坑區"
"222002","659-BX","2018/08/02 19:39:42","新北市深坑區北深路一段177號","121.632545","25.0108216666667","6501800","深坑區"
"231041","002-UM","2018/08/02 19:39:45","新北市新店區中正路485號","121.533776666667","24.9820333333333","6500600","新店區"
"231040","047-UY","2018/08/02 19:39:43","新北市新店區中正路75巷71號","121.543106666667","24.9688733333333","6500600","新店區"
"231044","106-UY","2018/08/02 19:39:41","新北市新店區民權路25號","121.541116666667","24.98283","6500600","新店區"
"231046","107-UY","2018/08/02 19:39:48","新北市新店區中正路329巷1弄2號","121.535565","24.97484","6500600","新店區"
"231052","108-UY","2018/08/02 19:39:45","新北市新店區新烏路二段486號","121.553113333333","24.90799","6500600","新店區"
"231047","187-VK","2018/08/02 19:39:45","新北市新店區中興路一段288巷7號","121.54647","24.96891","6500600","新店區"
"231054","KEA-2219","2018/08/02 19:39:43","新北市新店區文中路45號","121.5396","24.9566416666667","6500600","新店區"
"231057","256-BX","2018/08/02 19:39:34","新北市新店區橘園一路11號","121.547986666667","24.9340016666667","6500600","新店區"
"231042","268-BY","2018/08/02 19:39:51","新北市新店區中興路一段203號","121.54358","24.9654833333333","6500600","新店區"
"231051","278-BY","2018/08/02 19:39:49","新北市新店區中央五街30號","121.528826666667","24.9745616666667","6500600","新店區"
"231050","AAD-862","2018/08/02 19:39:43","新北市新店區秀水路31號","121.554871666667","24.9551683333333","6500600","新店區"
"231059","355-BY","2018/08/02 19:39:42","新北市新店區安和路三段47-1號","121.517923333333","24.9823683333333","6500600","新店區"
"231058","3713-VJ","2018/08/02 19:39:10","新北市新店區力行路5號","121.539345","24.9645233333333","6500600","新店區"
"231066","4716-K9","2018/08/02 19:39:49","新北市新店區安康路三段165巷2弄10號","121.489185","24.9514083333333","6500600","新店區"
"231056","4715-K9","2018/08/02 19:39:45","新北市新店區溪園路365-8號","121.52192","24.9805483333333","6500600","新店區"
"231065","512-UM","2018/08/02 19:39:49","新北市新店區安祥路109巷85弄25號","121.478406666667","24.9599966666667","6500600","新店區"
"231049","513-UM","2018/08/02 19:39:44","新北市新店區大豐路42號","121.54016","24.9799666666667","6500600","新店區"
"231063","616-UM","2018/08/02 19:39:44","新北市新店區達觀路16號","121.503306666667","24.9411683333333","6500600","新店區"
"231045","617-UM","2018/08/02 19:39:34","新北市新店區北宜路二段423-1號","121.560423333333","24.9544833333333","6500600","新店區"
"231061","619-UM","2018/08/02 19:39:49","新北市新店區安民街36號","121.51592","24.965215","6500600","新店區"
"231064","719-UM","2018/08/02 19:39:51","新北市新店區安和路一段52巷2-1號","121.517671666667","24.96626","6500600","新店區"
"231062","720-UM","2018/08/02 19:39:43","新北市新店區精忠路10-1號","121.53262","24.9590833333333","6500600","新店區"
"231060","897-TW","2018/08/02 19:39:50","新北市新店區安康路二段135號","121.51202","24.960305","6500600","新店區"
"231043","899-TW","2018/08/02 19:39:35","新北市新店區中正路123號","121.542096666667","24.9712116666667","6500600","新店區"
"231055","AKT-0513","2018/08/02 19:39:53","新北市新店區新生街3巷2號","121.540356666667","24.9657583333333","6500600","新店區"
"241011","013-R5","2018/08/02 19:39:50","新北市三重區秀江街239號","121.496928333333","25.0715733333333","6500200","三重區"
"241008","059-VK","2018/08/02 19:39:48","新北市三重區永福街135巷2號","121.478563333333","25.07674","6500200","三重區"
"241022","060-VK","2018/08/02 19:39:54","新北市三重區中正北路154號","121.484735","25.065935","6500200","三重區"
"241031","061-VK","2018/08/02 19:39:36","新北市三重區重新路四段248號","121.486098333333","25.05337","6500200","三重區"
"241015","062-VK","2018/08/02 19:39:47","新北市三重區福德北路30號","121.5021","25.0650083333333","6500200","三重區"
"241017","063-VK","2018/08/02 19:39:45","新北市三重區大仁街20-1號","121.49155","25.0633066666667","6500200","三重區"
"241026","066-VK","2018/08/02 19:39:39","新北市三重區文化南路65巷27號","121.499211666667","25.06078","6500200","三重區"
"241003","091-VK","2018/08/02 19:39:43","新北市三重區五華街93巷103號","121.494471666667","25.0853183333333","6500200","三重區"
"241028","265-UM","2018/08/02 19:39:49","新北市三重區中正南路200號","121.493835","25.0558816666667","6500200","三重區"
"241009","267-UM","2018/08/02 19:39:37","新北市三重區三和路四段406巷18號","121.4804","25.0794616666667","6500200","三重區"
"241032","269-UM","2018/08/02 19:39:41","新北市三重區重陽路一段60巷76號","121.484245","25.0582116666667","6500200","三重區"
"241013","270-UM","2018/08/02 19:39:48","新北市三重區仁賢街9號","121.495933333333","25.0746083333333","6500200","三重區"
"241025","271-UM","2018/08/02 19:39:47","新北市三重區大有街1-11號","121.477513333333","25.0662733333333","6500200","三重區"
"241007","398-BY","2018/08/02 19:39:53","新北市三重區三和路四段135巷39號","121.487118333333","25.0786533333333","6500200","三重區"
"241035","KEA-2210","2018/08/02 19:39:47","新北市三重區正義北路61-3號","121.497593333333","25.0645366666667","6500200","三重區"
"241001","413-TH","2018/08/02 19:39:41","新北市三重區仁愛街315巷5號","121.493045","25.0795233333333","6500200","三重區"
"241020","478-VK","2018/08/02 19:39:53","新北市三重區三和路四段28號","121.490895","25.0742766666667","6500200","三重區"
"241030","480-VK","2018/08/02 19:39:35","新北市三重區新興路24號","121.492085","25.05329","6500200","三重區"
"241014","543-UM","2018/08/02 19:39:41","新北市三重區長榮路130號","121.503735","25.0694316666667","6500200","三重區"
"241023","545-UM","2018/08/02 19:39:47","新北市三重區忠孝路三段99巷15號","121.479535","25.0643116666667","6500200","三重區"
"241019","KEA-2593","2018/08/02 19:39:51","新北市三重區安慶街297巷3弄2號","121.488575","25.068195","6500200","三重區"
"241006","AAD-863","2018/08/02 19:39:53","新北市三重區三和路四段160巷67號","121.486133333333","25.0750933333333","6500200","三重區"
"241012","941-UM","2018/08/02 19:39:51","新北市三重區仁義街17號","121.500026666667","25.0757916666667","6500200","三重區"
"241029","942-UM","2018/08/02 19:39:54","新北市三重區中正南路186號","121.493928333333","25.056305","6500200","三重區"
"235066","003-UY","2018/08/02 19:39:47","新北市中和區南華路89號","121.50555","24.9975683333333","6500300","中和區"
"235064","005-UY","2018/08/02 19:39:46","新北市中和區南山路129號","121.50221","24.99713","6500300","中和區"
"235063","006-UY","2018/08/02 19:39:52","新北市中和區連城路203巷10弄33號","121.495653333333","24.9963183333333","6500300","中和區"
"235056","096-UM","2018/08/02 19:39:51","新北市中和區員山路581巷2弄1號","121.478005","25.0092333333333","6500300","中和區"
"235039","097-UM","2018/08/02 19:39:44","新北市中和區景平路150號","121.518115","24.992105","6500300","中和區"
"235065","098-UM","2018/08/02 19:39:41","新北市中和區永和路9巷1號","121.499191666667","25.0039816666667","6500300","中和區"
"235040","150-BY","2018/08/02 19:39:46","新北市中和區安平路62號","121.510556666667","24.995975","6500300","中和區"
"235058","151-BY","2018/08/02 19:39:36","新北市中和區員山路124巷11號","121.481881666667","24.9960066666667","6500300","中和區"
"235055","183-VK","2018/08/02 19:39:36","新北市中和區中山路三段181巷4號","121.472821666667","25.0059283333333","6500300","中和區"
"235038","185-VK","2018/08/02 19:39:54","新北市中和區自強路27巷22號","121.521586666667","24.99325","6500300","中和區"
"235049","186-VK","2018/08/02 19:39:37","新北市中和區景安路143號","121.505591666667","24.995445","6500300","中和區"
"235067","255-BX","2018/08/02 19:39:43","新北市中和區新生街235號","121.483888333333","24.9990816666667","6500300","中和區"
"235044","293-VK","2018/08/02 19:39:46","新北市中和區南山路519號","121.507921666667","24.987395","6500300","中和區"
"235072","301-VK","2018/08/02 19:39:34","新北市中和區錦和路95號","121.490131666667","24.9956183333333","6500300","中和區"
"235043","352-BY","2018/08/02 19:39:42","新北市中和區興南路一段25號","121.511241666667","24.99069","6500300","中和區"
"235042","KEA-2878","2018/08/02 19:39:47","新北市中和區景安路79巷37弄16-6號","121.508315","24.9960616666667","6500300","中和區"
"235050","4979-A6","2018/08/02 19:39:51","新北市中和區中正路458號","121.490641666667","24.9941383333333","6500300","中和區"
"235070","558-UM","2018/08/02 19:39:36","新北市中和區景平路634-8號","121.499013333333","24.99918","6500300","中和區"
"235045","565-BX","2018/08/02 19:39:46","新北市新店區安和路三段175號","121.515673333333","24.9863533333333","6500300","中和區"
"235054","640-BX","2018/08/02 19:39:35","新北市中和區國光街107巷2弄29號","121.469368333333","24.9989583333333","6500300","中和區"
"235060","647-TV","2018/08/02 19:39:37","新北市中和區員山路314巷7弄2號","121.48222","25.003055","6500300","中和區"
"235046","733-UM","2018/08/02 19:39:41","新北市中和區四維街7號","121.513533333333","24.9872866666667","6500300","中和區"
"235071","783-BX","2018/08/02 19:39:40","新北市中和區中正路839巷31號","121.483698333333","25.0022733333333","6500300","中和區"
"235057","801-TS","2018/08/02 19:39:50","新北市中和區員山路164號","121.481346666667","24.99976","6500300","中和區"
"235041","802-TS","2018/08/02 19:39:48","新北市永和區中和路603號","121.512325","25.00431","6500300","中和區"
"235052","805-TS","2018/08/02 19:39:39","新北市中和區華新街133號","121.506695","24.9817516666667","6500300","中和區"
"235048","896-TW","2018/08/02 19:39:47","新北市中和區華新街22號","121.507556666667","24.9848916666667","6500300","中和區"
"235053","900-TW","2018/08/02 19:39:43","新北市中和區國光街205巷2號","121.466833333333","25.00196","6500300","中和區"
"235051","157-BY","2018/08/02 19:39:41","新北市中和區南山路231號","121.50352","24.9932383333333","6500300","中和區"
"235037","AAC-213","2018/08/02 19:39:46","新北市中和區秀朗路三段50巷4弄1號","121.525695","24.99548","6500300","中和區"
"235059","AAC-215","2018/08/02 19:39:47","新北市中和區錦和路175號","121.49068","24.991295","6500300","中和區"
"220106","013-TV","2018/08/02 19:39:42","新北市板橋區江寧路三段125號","121.473561666667","25.0332416666667","6500100","板橋區"
"220065","072-UY","2018/08/02 19:39:44","新北市板橋區國泰街38巷4弄6號","121.468083333333","25.006705","6500100","板橋區"
"220086","073-UY","2018/08/02 19:39:46","新北市板橋區中正路1巷4號","121.455666666667","25.0118966666667","6500100","板橋區"
"220069","AAD-861","2018/08/02 19:39:38","新北市板橋區貴興路88-3號","121.456013333333","25.0032666666667","6500100","板橋區"
"220106","120-SR","2018/08/02 19:33:58","新北市板橋區民生路二段188號","121.470256666667","25.0203116666667","6500100","板橋區"
"247004","337-TH","2018/08/02 19:39:38","新北市蘆洲區長安街98巷21號","121.463053333333","25.081965","6501400","蘆洲區"
"247007","056-VK","2018/08/02 19:10:48","新北市五股區中興路三段2巷10號","121.449365","25.0810533333333","6501400","蘆洲區"
"247002","002-UY","2018/08/02 19:39:45","新北市蘆洲區長榮路709號","121.461038333333","25.0929783333333","6501400","蘆洲區"
"226004","312-R5","2018/08/02 19:39:36","新北市平溪區十分里十分街94號","121.777108333333","25.0422616666667","6502400","平溪區"
"235047","251-BX","2018/08/02 19:39:33","新北市中和區南山路283巷12號","121.504561666667","24.992535","6500300","中和區"
"228003","097-TW","2018/08/02 19:39:41","新北市貢寮區真理里美艷山街19-1號","121.923436666667","25.068515","6502600","貢寮區"
"228001","212-TW","2018/08/02 19:39:50","新北市貢寮區真理里延平街79號","121.924583333333","25.0560916666667","6502600","貢寮區"
"224010","AGQ-8101","2018/08/02 19:39:36","新北市瑞芳區汽車路9-5號","121.845468333333","25.109785","6501200","瑞芳區"
"224002","639-TC","2018/08/02 19:39:50","新北市瑞芳區三爪子坑路13巷47號","121.814223333333","25.1067233333333","6501200","瑞芳區"
"227004","642-TC","2018/08/02 19:39:36","新北市雙溪區雙溪里太平路60號","121.864983333333","25.0357416666667","6502500","雙溪區"
"227010","400-TW","2018/08/02 19:39:32","新北市雙溪區新基里中華路10號","121.866063333333","25.036545","6502500","雙溪區"
"222001","KEA-2212","2018/08/02 19:39:41","新北市深坑區深坑街142號","121.613063333333","25.0015516666667","6501800","深坑區"
"208002","KEA-2872","2018/08/02 19:39:40","新北市金山區中山路313巷23號","121.635128333333","25.22302","6502700","金山區"
"208003","665-BX","2018/08/02 19:39:47","新北市金山區仁愛路9號","121.637951666667","25.2195533333333","6502700","金山區"
"208001","761-BX","2018/08/02 19:39:51","新北市金山區六股里頂六股6號","121.612068333333","25.22228","6502700","金山區"
"251009","008-UM","2018/08/02 19:39:34","新北市淡水區中山北路一段198巷13號","121.445361666667","25.17924","6501000","淡水區"
"251005","010-UM","2018/08/02 19:39:55","新北市淡水區原德路98號","121.443176666667","25.1733333333333","6501000","淡水區"
"251001","011-UM","2018/08/02 19:39:48","新北市淡水區民權路39號","121.459783333333","25.1407366666667","6501000","淡水區"
"251013","KEA-2871","2018/08/02 19:39:34","新北市淡水區頂田寮路147號","121.462345","25.216435","6501000","淡水區"
"251016","179-VK","2018/08/02 19:39:49","新北市淡水區下圭柔山119-51號","121.450698333333","25.2084666666667","6501000","淡水區"
"251014","180-VK","2018/08/02 19:39:51","新北市淡水區北勢子13號","121.478406666667","25.2309533333333","6501000","淡水區"
"251008","181-VK","2018/08/02 19:39:35","新北市淡水區中正路32巷1號","121.430963333333","25.175315","6501000","淡水區"
"251015","182-VK","2018/08/02 19:39:52","新北市淡水區泉洲厝8-1號","121.485201666667","25.1888916666667","6501000","淡水區"
"251010","413-VK","2018/08/02 19:39:41","新北市淡水區新市二路三段18號","121.433746666667","25.19374","6501000","淡水區"
"251012","441-VK","2018/08/02 19:39:46","新北市淡水區淡金路二段605號","121.446125","25.193465","6501000","淡水區"
"251007","442-VK","2018/08/02 19:39:40","新北市淡水區中正東路一段111巷23-1號","121.455345","25.16098","6501000","淡水區"
"251006","561-UM","2018/08/02 19:39:40","新北市淡水區中山北路一段207巷66號","121.441758333333","25.1792416666667","6501000","淡水區"
"251011","650-BX","2018/08/02 19:39:44","新北市淡水區八勢路20號","121.46077","25.153355","6501000","淡水區"
"207003","550-UM","2018/08/02 19:39:52","新北市萬里區大鵬里下社33-2號","121.649253333333","25.2165416666667","6502800","萬里區"
"207004","225-TW","2018/08/02 19:39:46","新北市萬里區萬里里瑪鋉路5-1號","121.68686","25.17525","6502800","萬里區"
"252002","178-VK","2018/08/02 19:39:42","新北市三芝區中正路一段18巷52號","121.504208333333","25.2588633333333","6502100","三芝區"
"252001","292-VK","2018/08/02 19:39:43","新北市三芝區公正街9號","121.49975","25.257475","6502100","三芝區"
"237004","KEA-2597","2018/08/02 19:39:34","新北市三峽區有木3號","121.421555","24.8657083333333","6500900","三峽區"
"237007","153-BY","2018/08/02 19:39:48","新北市三峽區二鬮路136巷119號","121.355836666667","24.9104566666667","6500900","三峽區"
"237011","572-TV","2018/08/02 19:39:34","新北市三峽區介壽路一段237號","121.379458333333","24.930365","6500900","三峽區"
"237009","210-TH","2018/08/02 19:39:46","新北市三峽區中園街63號","121.36818","24.92583","6500900","三峽區"
"237013","252-BX","2018/08/02 19:39:34","新北市三峽區介壽路一段406號","121.383846666667","24.9309583333333","6500900","三峽區"
"237012","275-BY","2018/08/02 19:39:51","新北市三峽區光明路29號","121.373406666667","24.930975","6500900","三峽區"
"237008","302-VK","2018/08/02 19:39:46","新北市三峽區光明路60號","121.374836666667","24.9294783333333","6500900","三峽區"
"237014","433-BY","2018/08/02 19:39:42","新北市三峽區民權街151-1號","121.368555","24.9314383333333","6500900","三峽區"
"237006","5529-G3","2018/08/02 19:39:33","新北市三峽區中正路一段336巷15弄2號","121.36998","24.9249366666667","6500900","三峽區"
"237016","649-BX","2018/08/02 19:39:39","新北市三峽區成福路259號","121.42791","24.9235166666667","6500900","三峽區"
"237005","AKY-6261","2018/08/02 19:39:38","新北市三峽區中山路219巷7號","121.363205","24.9363533333333","6500900","三峽區"
"236070","105-UM","2018/08/02 19:39:46","新北市土城區學府路二段43號","121.450111666667","24.9795916666667","6501300","土城區"
"236042","107-UM","2018/08/02 19:39:41","新北市土城區裕民路253-1號","121.45482","24.983075","6501300","土城區"
"236078","166-UM","2018/08/02 19:39:31","新北市土城區溪頭路7巷2號","121.412796666667","24.955485","6501300","土城區"
"236030","253-BX","2018/08/02 19:39:37","新北市土城區福祥街58號","121.441541666667","24.9815016666667","6501300","土城區"
"236026","269-VK","2018/08/02 19:39:44","新北市土城區中央路二段61巷20號","121.443125","24.9789133333333","6501300","土城區"
"236038","271-VK","2018/08/02 19:39:40","新北市土城區青雲路281巷13弄6號","121.459875","24.980485","6501300","土城區"
"236021","401-BY","2018/08/02 19:39:37","新北市土城區峰廷街3號","121.469063333333","24.9872766666667","6501300","土城區"
"236049","913-UM","2018/08/02 19:39:51","新北市土城區明德路一段69巷3號","121.465506666667","24.9838633333333","6501300","土城區"
"236063","915-UM","2018/08/02 19:39:45","新北市土城區延平街60號","121.467873333333","24.9926483333333","6501300","土城區"
"236055","AAC-216","2018/08/02 19:39:45","新北市土城區學府路一段52號","121.457458333333","24.98854","6501300","土城區"
"242046","497-BY","2018/08/02 19:39:35","新北市新莊區環河路462號","121.440166666667","25.0196433333333","6500500","新莊區"
"242036","415-TV","2018/08/02 19:39:36","新北市新莊區民安路181巷2弄9號","121.42654","25.0227566666667","6500500","新莊區"
"242023","362-BY","2018/08/02 19:39:43","新北市新莊區復興路三段117號","121.464416666667","25.044465","6500500","新莊區"
"242031","135-UY","2018/08/02 19:39:46","新北市新莊區公園一路138號","121.446326666667","25.0382033333333","6500500","新莊區"
"242048","172-VK","2018/08/02 19:39:50","新北市新莊區後港一路17巷5號","121.424286666667","25.0267766666667","6500500","新莊區"
"242011","173-VK","2018/08/02 19:39:50","新北市新莊區新泰路255巷83號","121.442171666667","25.0388766666667","6500500","新莊區"
"242004","176-VK","2018/08/02 19:39:42","新北市新莊區化成路25-21號","121.463401666667","25.0438883333333","6500500","新莊區"
"242021","348-TH","2018/08/02 19:39:41","新北市新莊區景德路308號","121.44749","25.03368","6500500","新莊區"
"242013","351-TH","2018/08/02 19:39:44","新北市新莊區中誠街119號","121.449413333333","25.0474833333333","6500500","新莊區"
"238015","755-BX","2018/08/02 19:39:42","新北市樹林區中山路一段108巷41號","121.421731666667","24.9914916666667","6500700","樹林區"
"238023","601-UM","2018/08/02 19:39:50","新北市樹林區三寶街12號","121.406453333333","25.01536","6500700","樹林區"
"238024","5061-A6","2018/08/02 19:39:54","新北市樹林區八德街1262號","121.390123333333","24.9688933333333","6500700","樹林區"
"238022","KEA-2213","2018/08/02 19:39:40","新北市樹林區國凱街50巷2號","121.420396666667","24.97857","6500700","樹林區"
"238021","KEA-2539","2018/08/02 19:39:49","新北市樹林區佳園路三段145巷26號","121.387901666667","24.94905","6500700","樹林區"
"238025","303-VK","2018/08/02 19:39:41","新北市樹林區中山路二段44號","121.416871666667","24.984735","6500700","樹林區"
"238017","283-BY","2018/08/02 19:39:37","新北市樹林區保安街二段111號","121.415346666667","25.001195","6500700","樹林區"
"238014","282-BY","2018/08/02 19:39:34","新北市樹林區千歲街30巷26弄6號","121.426278333333","24.9959383333333","6500700","樹林區"
"238026","172-UY","2018/08/02 19:39:35","新北市樹林區佳園路二段41號","121.391661666667","24.9625566666667","6500700","樹林區"
"239007","AAC-297","2018/08/02 19:39:47","新北市鶯歌區大湖路326巷26號","121.346246666667","24.9698416666667","6500800","鶯歌區"
"239006","891-R6","2018/08/02 19:39:52","新北市鶯歌區永昌街120號","121.340535","24.9499566666667","6500800","鶯歌區"
"239005","526-UM","2018/08/02 19:39:42","新北市鶯歌區中湖街269號","121.348378333333","24.9763433333333","6500800","鶯歌區"
"239003","360-BY","2018/08/02 19:37:14","新北市樹林區中山路三段210-2號","121.380731666667","24.9674833333333","6500800","鶯歌區"
"239002","359-BY","2018/08/02 19:39:37","新北市鶯歌區大湖路382號","121.34562","24.9730916666667","6500800","鶯歌區"
"239004","193-VK","2018/08/02 19:39:47","新北市鶯歌區二甲路中心巷1號","121.337613333333","24.9357266666667","6500800","鶯歌區"
"221008","489-VK","2018/08/02 19:39:39","新北市汐止區康寧街61巷65號","121.620176666667","25.0678233333333","6501100","汐止區"
"221036","130-UY","2018/08/02 19:39:44","新北市汐止區康寧街901號","121.651483333333","25.0749233333333","6501100","汐止區"
"221015","131-UY","2018/08/02 19:39:49","新北市汐止區康寧街901號","121.65138","25.0749116666667","6501100","汐止區"
"221010","269-BY","2018/08/02 19:39:40","新北市汐止區汐萬路二段9號","121.649483333333","25.0804383333333","6501100","汐止區"
"221012","278-VK","2018/08/02 19:39:38","新北市汐止區茄安路241號","121.678991666667","25.070675","6501100","汐止區"
"221023","279-VK","2018/08/02 19:39:48","新北市汐止區民族六街21-2號","121.630138333333","25.0690116666667","6501100","汐止區"
"221032","280-BY","2018/08/02 19:39:49","新北市汐止區南興路9號","121.652028333333","25.0624883333333","6501100","汐止區"
"221027","281-BY","2018/08/02 19:39:50","新北市汐止區忠孝東路9號","121.658278333333","25.06603","6501100","汐止區"
"221029","298-VK","2018/08/02 19:39:36","新北市汐止區康寧街901號","121.651553333333","25.074935","6501100","汐止區"
"221021","299-VK","2018/08/02 19:39:44","新北市汐止區南興路28號","121.652263333333","25.0612366666667","6501100","汐止區"
"221002","129-UY","2018/08/02 19:39:51","新北市汐止區大同路一段219巷27號","121.633281666667","25.0583966666667","6501100","汐止區"
"221025","623-UM","2018/08/02 19:39:40","新北市汐止區新台五路二段90號","121.662568333333","25.0654766666667","6501100","汐止區"
"221038","646-BX","2018/08/02 19:39:47","新北市汐止區忠孝東路239號","121.662676666667","25.0673383333333","6501100","汐止區"
"221033","647-BX","2018/08/02 19:39:47","台北市南港區舊莊街二段17號","121.625588333333","25.0374716666667","6501100","汐止區"
"220079","145-BY","2018/08/02 19:39:51","新北市板橋區建國街93號","121.4597","25.0174116666667","6500100","板橋區"
"220080","200-UY","2018/08/02 19:39:39","新北市板橋區大觀路二段37巷256號","121.450011666667","25.00201","6500100","板橋區"
"220082","610-BX","2018/08/02 19:39:44","新北市板橋區大觀路三段160巷36號","121.429961666667","24.9940483333333","6500100","板橋區"
"220101","245-BX","2018/08/02 19:39:35","新北市板橋區縣民大道三段33巷6弄1號","121.473975","25.0212183333333","6500100","板橋區"
"220056","276-BY","2018/08/02 19:39:47","新北市板橋區四川路二段47巷11號","121.454346666667","24.9943016666667","6500100","板橋區"
"220072","277-BY","2018/08/02 19:39:46","新北市板橋區金門街215巷109號","121.433378333333","24.9879583333333","6500100","板橋區"
"220071","283-VK","2018/08/02 19:39:51","新北市板橋區四川路一段367號","121.458353333333","24.99973","6500100","板橋區"
"220094","285-UM","2018/08/02 19:39:43","新北市板橋區宏國路97-3號","121.469861666667","25.03229","6500100","板橋區"
"220053","285-VK","2018/08/02 19:39:49","新北市板橋區中山路二段229號","121.476873333333","25.0172316666667","6500100","板橋區"
"220083","286-VK","2018/08/02 19:39:52","新北市板橋區龍興街65巷23號","121.442943333333","25.0016583333333","6500100","板橋區"
"220081","287-VK","2018/08/02 19:39:46","新北市板橋區大觀路一段29巷179弄22號","121.449345","25.0045983333333","6500100","板橋區"
"220090","288-VK","2018/08/02 19:39:54","新北市板橋區長江路一段48巷13號","121.459278333333","25.02832","6500100","板橋區"
"220061","293-UM","2018/08/02 19:39:48","新北市板橋區中山路一段272巷18-1號","121.469475","25.0137033333333","6500100","板橋區"
"220062","295-UM","2018/08/02 19:39:40","新北市板橋區三民路二段81巷24號","121.480401666667","25.0167016666667","6500100","板橋區"
"220084","296-UM","2018/08/02 19:39:46","新北市板橋區滿平二街10巷4號","121.425518333333","24.9867083333333","6500100","板橋區"
"220075","303-R5","2018/08/02 19:39:51","新北市板橋區中正路225號","121.455845","25.0177533333333","6500100","板橋區"
"220092","307-R5","2018/08/02 19:39:50","新北市板橋區文化路一段387巷17號","121.466138333333","25.0220616666667","6500100","板橋區"
"220098","317-R6","2018/08/02 19:39:42","新北市板橋區四維路279巷63號","121.46062","25.0274183333333","6500100","板橋區"
"220064","486-VK","2018/08/02 19:39:37","新北市板橋區民權路45號","121.462166666667","25.01126","6500100","板橋區"
"220088","491-VK","2018/08/02 19:39:48","新北市板橋區仁化街143號","121.477598333333","25.0330583333333","6500100","板橋區"
"220035","560-BX","2018/08/02 19:39:42","新北市板橋區英士路190巷2號","121.458023333333","25.0224083333333","6500100","板橋區"
"220103","561-BX","2018/08/02 19:39:50","新北市板橋區文化路一段286巷2號","121.467651666667","25.0213766666667","6500100","板橋區"
"220063","609-BX","2018/08/02 19:39:47","新北市板橋區中山路二段537號","121.483496666667","25.0214716666667","6500100","板橋區"
"220091","637-BX","2018/08/02 19:39:43","新北市板橋區懷德街127巷14弄1號","121.479446666667","25.0310466666667","6500100","板橋區"
"220057","686-BX","2018/08/02 19:39:47","新北市板橋區和平路安樂巷40號","121.461853333333","24.99322","6500100","板橋區"
"220077","687-BX","2018/08/02 19:39:47","新北市板橋區僑中二街114巷2號","121.445765","25.0067233333333","6500100","板橋區"
"220093","689-BX","2018/08/02 19:39:49","新北市板橋區長江路一段141號","121.460751666667","25.0302733333333","6500100","板橋區"
"220054","741-BX","2018/08/02 19:39:42","新北市板橋區忠孝路239巷37號","121.46717","25.0035583333333","6500100","板橋區"
"220102","KEA-2699","2018/08/02 19:39:47","新北市板橋區文化路二段410巷28號","121.474493333333","25.0307433333333","6500100","板橋區"
"220055","827-TW","2018/08/02 19:39:50","新北市板橋區國慶路149巷3弄1號","121.461245","24.996805","6500100","板橋區"
"220067","829-TW","2018/08/02 19:39:35","新北市板橋區漢生東路193巷57號","121.471768333333","25.01167","6500100","板橋區"
"220068","830-TW","2018/08/02 19:39:49","新北市板橋區中山路二段505巷3號","121.48243","25.021175","6500100","板橋區"
"220096","831-TW","2018/08/02 19:39:53","新北市板橋區民生路二段240巷53號","121.469825","25.0229616666667","6500100","板橋區"
"220089","833-TW","2018/08/02 19:39:46","新北市板橋區英士路18號","121.461911666667","25.0252916666667","6500100","板橋區"
"220074","895-R6","2018/08/02 19:39:32","新北市板橋區福德街2巷17號","121.455586666667","25.00905","6500100","板橋區"
"220073","985-R7","2018/08/02 19:39:36","新北市板橋區國光路49巷17號","121.458901666667","25.0188116666667","6500100","板橋區"
"220097","AAC-210","2018/08/02 19:39:35","新北市板橋區幸福路32巷6號","121.461588333333","25.02062","6500100","板橋區"
"220070","AAC-253","2018/08/02 19:39:33","新北市板橋區民族路199號","121.46889","25.0074033333333","6500100","板橋區"
"235068","KEA-2873","2018/08/02 19:39:47","新北市中和區泰和街2號","121.500036666667","25.00119","6500300","中和區"
"235061","KEA-2875","2018/08/02 19:39:54","新北市中和區員山路226巷5弄2號","121.481708333333","25.00064","6500300","中和區"
