"lineid","car","time","location","longitude","latitude","cityid","cityname"
"234046","148-BY","2018/08/02 19:59:38","新北市永和區成功路一段71號","121.527005","25.0033533333333","6500400","永和區"
"234007","207-UY","2018/08/02 19:59:42","新北市永和區保生路22巷19弄6號","121.50712","25.0082583333333","6500400","永和區"
"234081","298-R6","2018/08/02 19:59:31","新北市永和區永亨路98號","121.52299","25.0047116666667","6500400","永和區"
"234064","337-UY","2018/08/02 19:59:37","新北市永和區中正路412巷2弄11號","121.518541666667","25.001895","6500400","永和區"
"234086","338-UY","2018/08/02 19:59:54","新北市永和區福和路83號","121.522348333333","25.0079133333333","6500400","永和區"
"234070","552-UM","2018/08/02 19:59:53","新北市永和區國光路12巷1號","121.519296666667","25.0084716666667","6500400","永和區"
"234017","745-BX","2018/08/02 19:59:52","新北市永和區文化路70號","121.514246666667","25.015145","6500400","永和區"
"234030","746-BX","2018/08/02 19:59:43","新北市永和區民生路22巷17號","121.521633333333","24.9970566666667","6500400","永和區"
"234054","KEA-2590","2018/08/02 19:59:43","新北市永和區環河東路一段122號","121.520626666667","25.0154483333333","6500400","永和區"
"234013","KEA-2591","2018/08/02 19:59:41","新北市永和區保生路55號","121.504705","25.010555","6500400","永和區"
"234061","AAD-866","2018/08/02 19:59:51","新北市永和區得和路45巷2號","121.516525","25.000155","6500400","永和區"
"234038","847-RS","2018/08/02 19:59:47","新北市永和區成功路二段140號","121.526575","24.997195","6500400","永和區"
"234042","862-TW","2018/08/02 19:59:35","新北市永和區中和路421巷5弄29號","121.508323333333","25.0004833333333","6500400","永和區"
"234050","863-TW","2018/08/02 19:59:36","新北市永和區保安路153號","121.506808333333","25.0129516666667","6500400","永和區"
"234026","9371-KE","2018/08/02 19:59:53","新北市永和區水源街27巷5號","121.511226666667","25.0041083333333","6500400","永和區"
"234011","9373-KE","2018/08/02 19:59:44","新北市永和區仁愛路352巷120號","121.500258333333","25.0085466666667","6500400","永和區"
"249005","172-UM","2018/08/02 19:59:39","新北市八里區楓林路3-1號","121.382475","25.1305133333333","6502300","八里區"
"249001","173-UM","2018/08/02 19:59:48","新北市八里區中華路二段312號","121.403695","25.148335","6502300","八里區"
"249004","303-UY","2018/08/02 19:59:45","新北市八里區中華路一段331巷8號","121.413635","25.153415","6502300","八里區"
"249003","593-UM","2018/08/02 19:59:43","新北市八里區中華路二段558號","121.39862","25.145275","6502300","八里區"
"248014","025-BX","2018/08/02 19:59:34","新北市五股區五福路14巷26號","121.435486666667","25.0888816666667","6501500","五股區"
"248016","026-BX","2018/08/02 19:59:52","新北市五股區成泰路三段577巷80弄48號","121.449858333333","25.1051166666667","6501500","五股區"
"248008","095-VK","2018/08/02 19:59:39","新北市五股區四維路30巷17號","121.46793","25.0715133333333","6501500","五股區"
"248020","225-UY","2018/08/02 19:59:45","新北市五股區凌雲路三段30-9號","121.431438333333","25.10707","6501500","五股區"
"248012","247-BX","2018/08/02 19:59:34","新北市五股區民義路一段109-1號","121.433985","25.0865283333333","6501500","五股區"
"248004","677-BX","2018/08/02 19:59:42","新北市五股區成泰路一段48-1號","121.43536","25.0692833333333","6501500","五股區"
"248002","678-BX","2018/08/02 19:59:40","新北市五股區成泰路三段487號","121.450676666667","25.09917","6501500","五股區"
"248010","682-TV","2018/08/02 19:59:35","新北市五股區成泰路一段61巷16號","121.433823333333","25.0687983333333","6501500","五股區"
"234023","9380-KE","2018/08/02 19:59:36","新北市永和區中山路一段10號","121.514081666667","25.0105083333333","6500400","永和區"
"234077","969-R7","2018/08/02 19:59:52","新北市永和區民有街23巷1號","121.516868333333","24.9963616666667","6500400","永和區"
"234074","AAC-211","2018/08/02 19:59:39","新北市永和區豫溪街215巷5號","121.523963333333","25.0097666666667","6500400","永和區"
"234067","AAC-212","2018/08/02 19:59:46","新北市永和區永貞路376號","121.509865","25.006885","6500400","永和區"
"234003","AAC-295","2018/08/02 19:59:37","新北市永和區中正路577巷7號","121.516198333333","25.008815","6500400","永和區"
"243013","AAD-798","2018/08/02 19:41:05","新北市泰山區明志路三段6巷16號","121.423883333333","25.0436733333333","6501600","泰山區"
"243009","297-R6","2018/08/02 19:59:51","新北市泰山區楓江路16巷15號","121.433941666667","25.06174","6501600","泰山區"
"243016","KEA-2801","2018/08/02 19:59:52","新北市泰山區明志路三段521號","121.421071666667","25.03167","6501600","泰山區"
"243015","421-VK","2018/08/02 19:59:40","新北市泰山區明志路二段194號","121.427498333333","25.0496483333333","6501600","泰山區"
"243011","KEA-2215","2018/08/02 19:59:45","新北市泰山區明志路三段196巷37號","121.422013333333","25.0396316666667","6501600","泰山區"
"243010","KEA-2216","2018/08/02 19:59:50","新北市泰山區中華街9號","121.42772","25.0523783333333","6501600","泰山區"
"243012","646-TV","2018/08/02 19:59:34","新北市泰山區福興三街31號","121.434158333333","25.0575466666667","6501600","泰山區"
"243014","680-BX","2018/08/02 19:59:41","新北市泰山區泰林路二段165號","121.433795","25.06053","6501600","泰山區"
"222003","436-BY","2018/08/02 19:59:54","新北市深坑區埔新街14號","121.620706666667","25.00396","6501800","深坑區"
"222002","659-BX","2018/08/02 19:59:42","新北市深坑區北深路二段81巷8弄2號","121.618303333333","25.0030933333333","6501800","深坑區"
"231041","002-UM","2018/08/02 19:59:45","新北市新店區中正路354號","121.535795","24.9756083333333","6500600","新店區"
"231040","047-UY","2018/08/02 19:59:43","新北市新店區中正路56號","121.544385","24.9700616666667","6500600","新店區"
"231044","106-UY","2018/08/02 19:59:41","新北市新店區復興路44-1號","121.538601666667","24.9866766666667","6500600","新店區"
"231046","107-UY","2018/08/02 19:59:48","新北市新店區三民路159巷19弄8號","121.532668333333","24.9739733333333","6500600","新店區"
"231052","108-UY","2018/08/02 19:59:45","新北市新店區新烏路三段寶島巷4號","121.551573333333","24.8992316666667","6500600","新店區"
"231047","187-VK","2018/08/02 19:59:45","新北市新店區寶宏路38號","121.549435","24.9754816666667","6500600","新店區"
"231054","KEA-2219","2018/08/02 19:59:43","新北市新店區光明街137號","121.539485","24.9620133333333","6500600","新店區"
"231057","256-BX","2018/08/02 19:59:34","新北市新店區花園二路一段11號","121.555511666667","24.93245","6500600","新店區"
"231042","268-BY","2018/08/02 19:59:51","新北市新店區中興路一段290號","121.545911666667","24.9691016666667","6500600","新店區"
"231051","278-BY","2018/08/02 19:59:49","新北市新店區中央二街9號","121.529153333333","24.973335","6500600","新店區"
"231050","AAD-862","2018/08/02 19:59:43","新北市新店區北宜路二段579巷17號","121.56495","24.9542966666667","6500600","新店區"
"231059","355-BY","2018/08/02 19:59:42","新北市新店區安民街2號","121.515358333333","24.9637183333333","6500600","新店區"
"231058","3713-VJ","2018/08/02 19:59:50","新北市新店區薏仁坑路自強巷6號","121.496836666667","24.9584866666667","6500600","新店區"
"231066","4716-K9","2018/08/02 19:59:49","新北市新店區薏仁坑路自強巷6號","121.49648","24.9584033333333","6500600","新店區"
"231056","4715-K9","2018/08/02 19:59:46","新北市新店區北新路二段29巷2弄2號","121.54229","24.9729","6500600","新店區"
"231067","4772-VM","2018/08/02 19:59:33","新北市新店區精忠路10-1號","121.532675","24.959045","6500600","新店區"
"231065","512-UM","2018/08/02 19:59:49","新北市新店區安祥路106巷6弄1號","121.478966666667","24.962545","6500600","新店區"
"231049","513-UM","2018/08/02 19:59:47","新北市新店區明德路38號","121.541455","24.9778733333333","6500600","新店區"
"231063","616-UM","2018/08/02 19:59:49","新北市新店區黎明路11號","121.502068333333","24.9499766666667","6500600","新店區"
"231045","617-UM","2018/08/02 19:59:54","新北市新店區北宜路二段92號","121.555228333333","24.9535783333333","6500600","新店區"
"231061","619-UM","2018/08/02 19:59:49","新北市新店區安民街301號","121.51762","24.973745","6500600","新店區"
"231068","718-UY","2018/08/02 19:59:46","新北市新店區安一路一段1-1號","121.519436666667","24.9611133333333","6500600","新店區"
"231064","719-UM","2018/08/02 19:59:51","新北市新店區碧安街15巷18號","121.516985","24.9692483333333","6500600","新店區"
"231062","720-UM","2018/08/02 19:59:43","新北市新店區華潭街31號","121.5299","24.95449","6500600","新店區"
"231060","897-TW","2018/08/02 19:59:50","新北市新店區安康路二段393號","121.494405","24.9541416666667","6500600","新店區"
"231043","899-TW","2018/08/02 19:59:35","新北市新店區中正路263-5號","121.538166666667","24.9737583333333","6500600","新店區"
"231055","AKT-0513","2018/08/02 19:59:42","新北市新店區中華路83巷61號","121.538453333333","24.9674183333333","6500600","新店區"
"241011","013-R5","2018/08/02 19:59:50","新北市三重區三和路二段165號","121.49794","25.0696266666667","6500200","三重區"
"241008","059-VK","2018/08/02 19:59:48","新北市三重區永福街179巷1號","121.478765","25.0749633333333","6500200","三重區"
"241022","060-VK","2018/08/02 19:59:34","新北市三重區過圳街19號","121.488666666667","25.0605616666667","6500200","三重區"
"241031","061-VK","2018/08/02 19:59:36","新北市三重區重新路四段144巷30號","121.487201666667","25.0551766666667","6500200","三重區"
"241015","062-VK","2018/08/02 19:59:47","新北市三重區三和路二段14-2號","121.500813333333","25.06715","6500200","三重區"
"241017","063-VK","2018/08/02 19:59:45","新北市三重區重陽路三段154號","121.489686666667","25.0675416666667","6500200","三重區"
"241024","065-VK","2018/08/02 19:59:51","新北市三重區力行路一段182號","121.482056666667","25.0716566666667","6500200","三重區"
"241026","066-VK","2018/08/02 19:59:39","新北市三重區仁慈街3號","121.501601666667","25.0630383333333","6500200","三重區"
"241002","090-VK","2018/08/02 19:59:42","新北市三重區仁愛街274號","121.492756666667","25.0787133333333","6500200","三重區"
"241003","091-VK","2018/08/02 19:59:43","新北市三重區仁愛街445巷1號","121.489935","25.082285","6500200","三重區"
"241005","262-UM","2018/08/02 19:59:43","新北市三重區溪尾街325巷40弄1號","121.488728333333","25.083315","6500200","三重區"
"241028","265-UM","2018/08/02 19:59:49","新北市三重區重新路三段82號","121.493063333333","25.0610683333333","6500200","三重區"
"241016","266-UM","2018/08/02 19:59:48","新北市三重區正義北路50號","121.497043333333","25.06369","6500200","三重區"
"241009","267-UM","2018/08/02 19:59:37","新北市三重區三和路四段390巷24號","121.481068333333","25.0787366666667","6500200","三重區"
"241018","268-UM","2018/08/02 19:59:32","新北市三重區雙園街57巷9號","121.494915","25.0678466666667","6500200","三重區"
"241032","269-UM","2018/08/02 19:59:41","新北市三重區朝陽街4巷1號","121.483608333333","25.0564283333333","6500200","三重區"
"241013","270-UM","2018/08/02 19:59:48","新北市三重區三和路三段125巷33號","121.493996666667","25.073705","6500200","三重區"
"241025","271-UM","2018/08/02 19:59:46","新北市三重區頂崁街210巷16號","121.476505","25.0676716666667","6500200","三重區"
"241007","398-BY","2018/08/02 19:59:53","新北市三重區慈愛街149號","121.489418333333","25.0795216666667","6500200","三重區"
"241035","KEA-2210","2018/08/02 19:59:46","新北市三重區大榮街7號","121.498195","25.0630033333333","6500200","三重區"
"241001","413-TH","2018/08/02 19:59:41","新北市三重區仁愛街283巷40號","121.494548333333","25.0800766666667","6500200","三重區"
"241004","475-VK","2018/08/02 19:59:50","新北市三重區仁愛街425巷91-1號","121.492303333333","25.0826483333333","6500200","三重區"
"241020","478-VK","2018/08/02 19:59:53","新北市三重區三和路4段20巷26-1號","121.490141666667","25.0733616666667","6500200","三重區"
"241030","480-VK","2018/08/02 19:59:35","新北市三重區重新路四段244巷10號","121.486263333333","25.0535083333333","6500200","三重區"
"241014","543-UM","2018/08/02 19:59:41","新北市三重區三和路二段156號","121.499448333333","25.0684183333333","6500200","三重區"
"241023","545-UM","2018/08/02 19:59:47","新北市三重區頂崁街168號","121.477548333333","25.0659016666667","6500200","三重區"
"241019","KEA-2593","2018/08/02 19:59:51","新北市三重區自強路二段24號","121.489608333333","25.0692383333333","6500200","三重區"
"241006","AAD-863","2018/08/02 19:59:53","新北市三重區力行路二段93號","121.482648333333","25.075845","6500200","三重區"
"241012","941-UM","2018/08/02 19:59:51","新北市三重區仁義街27號","121.499821666667","25.0763333333333","6500200","三重區"
"241029","942-UM","2018/08/02 19:59:54","新北市三重區重安街14號","121.490205","25.0582083333333","6500200","三重區"
"241033","AAC-255","2018/08/02 19:59:53","新北市三重區中興北街24號","121.469693333333","25.0486183333333","6500200","三重區"
"235066","003-UY","2018/08/02 19:59:52","新北市中和區中山路二段61號","121.504185","25.0047683333333","6500300","中和區"
"235056","096-UM","2018/08/02 19:59:51","新北市中和區中山路三段170巷6弄23號","121.47323","25.0074933333333","6500300","中和區"
"235039","097-UM","2018/08/02 19:59:48","新北市中和區景平路278巷14弄1號","121.513906666667","24.9930533333333","6500300","中和區"
"235065","098-UM","2018/08/02 19:59:41","新北市中和區福美路230號","121.499113333333","25.0052733333333","6500300","中和區"
"235040","150-BY","2018/08/02 19:59:26","新北市中和區景安路79巷19弄23號","121.507601666667","24.9975533333333","6500300","中和區"
"235058","151-BY","2018/08/02 19:59:39","新北市中和區員山路148巷31號","121.4823","24.9971766666667","6500300","中和區"
"235055","183-VK","2018/08/02 19:59:36","新北市中和區民生街21-6號","121.470733333333","25.005555","6500300","中和區"
"235049","186-VK","2018/08/02 19:59:37","新北市中和區景平路423號","121.501701666667","24.9952533333333","6500300","中和區"
"235067","255-BX","2018/08/02 19:59:43","新北市中和區新生街219號","121.48383","24.999505","6500300","中和區"
"235044","293-VK","2018/08/02 19:59:46","新北市中和區南山路291號","121.504458333333","24.99197","6500300","中和區"
"235043","352-BY","2018/08/02 19:59:42","新北市中和區興南路二段159巷12號","121.505093333333","24.9831633333333","6500300","中和區"
"247010","KEA-2869","2018/08/02 19:59:43","新北市蘆洲區集賢路213號","121.483228333333","25.0870666666667","6501400","蘆洲區"
"235050","4979-A6","2018/08/02 19:59:51","新北市中和區景平路241巷84弄54號","121.506116666667","24.9924016666667","6500300","中和區"
"235069","4980-A6","2018/08/02 19:59:46","新北市中和區南山路14號","121.502035","24.998485","6500300","中和區"
"235070","558-UM","2018/08/02 19:59:36","新北市中和區圓通路172號","121.497336666667","24.9946066666667","6500300","中和區"
"235054","640-BX","2018/08/02 19:59:55","新北市中和區莒光路50號","121.472183333333","25.0035333333333","6500300","中和區"
"235060","647-TV","2018/08/02 19:59:37","新北市中和區新生街52號","121.483328333333","25.003","6500300","中和區"
"235046","733-UM","2018/08/02 19:59:41","新北市中和區興南路一段93巷83號","121.510576666667","24.9863383333333","6500300","中和區"
"235041","802-TS","2018/08/02 19:59:48","新北市中和區安平路126號","121.51199","24.9977683333333","6500300","中和區"
"235052","805-TS","2018/08/02 19:59:40","新北市中和區華新街30巷29號","121.506726666667","24.9840666666667","6500300","中和區"
"235048","896-TW","2018/08/02 19:59:47","新北市中和區景新街491號","121.513738333333","24.9872816666667","6500300","中和區"
"235053","900-TW","2018/08/02 19:59:43","新北市中和區莒光路222-8號","121.469135","24.9948016666667","6500300","中和區"
"235051","157-BY","2018/08/02 19:59:41","新北市中和區復興路301巷16號","121.501485","24.989555","6500300","中和區"
"235037","AAC-213","2018/08/02 19:59:46","新北市中和區自立路20巷1號","121.522171666667","24.9934166666667","6500300","中和區"
"235059","AAC-215","2018/08/02 19:59:47","新北市中和區圓通路365號","121.491328333333","24.9897916666667","6500300","中和區"
"220106","013-TV","2018/08/02 19:59:48","新北市板橋區文化路二段606號","121.477185","25.0350266666667","6500100","板橋區"
"220065","072-UY","2018/08/02 19:59:44","新北市板橋區海山路27號","121.467711666667","25.0089533333333","6500100","板橋區"
"220069","AAD-861","2018/08/02 19:59:38","新北市板橋區大明街11號","121.459033333333","25.0025116666667","6500100","板橋區"
"220106","120-SR","2018/08/02 19:33:58","新北市板橋區民生路二段188號","121.470256666667","25.0203116666667","6500100","板橋區"
"247024","893-R6","2018/08/02 19:59:42","新北市蘆洲區光榮路120巷12號","121.465506666667","25.088365","6501400","蘆洲區"
"247014","546-UM","2018/08/02 19:59:46","新北市蘆洲區成功路121號","121.472371666667","25.0821083333333","6501400","蘆洲區"
"247012","339-TH","2018/08/02 19:59:50","新北市蘆洲區民族路220號","121.479626666667","25.0878766666667","6501400","蘆洲區"
"247004","337-TH","2018/08/02 19:59:41","新北市蘆洲區永康街29號","121.45762","25.085125","6501400","蘆洲區"
"247006","336-TH","2018/08/02 19:59:39","新北市蘆洲區九芎街109號","121.465666666667","25.0797483333333","6501400","蘆洲區"
"247016","007-UY","2018/08/02 19:59:47","新北市蘆洲區中正路117號","121.46964","25.0843183333333","6501400","蘆洲區"
"247002","002-UY","2018/08/02 19:59:45","新北市蘆洲區長安街274巷2號","121.457558333333","25.0869866666667","6501400","蘆洲區"
"247020","001-UY","2018/08/02 19:59:34","新北市蘆洲區民義街68巷6號","121.472995","25.08982","6501400","蘆洲區"
"226004","312-R5","2018/08/02 19:59:36","新北市平溪區石底里公園街18-3號","121.733211666667","25.0258316666667","6502400","平溪區"
"235047","251-BX","2018/08/02 19:59:53","新北市中和區和平街83號","121.505375","24.99212","6500300","中和區"
"228003","097-TW","2018/08/02 19:59:41","新北市貢寮區仁理村仁和路242號","121.924061666667","25.0538866666667","6502600","貢寮區"
"224010","AGQ-8101","2018/08/02 19:59:46","新北市瑞芳區輕便路338-1號","121.839763333333","25.1086266666667","6501200","瑞芳區"
"224002","639-TC","2018/08/02 19:59:50","新北市瑞芳區員山子路員山巷2-1號","121.81712","25.1036333333333","6501200","瑞芳區"
"227004","642-TC","2018/08/02 19:59:36","新北市雙溪區雙溪里長安街16號","121.865","25.0346983333333","6502500","雙溪區"
"227010","400-TW","2018/08/02 19:59:52","新北市雙溪區新基里朝陽街3號","121.866233333333","25.0385833333333","6502500","雙溪區"
"222001","KEA-2212","2018/08/02 19:59:41","新北市深坑區北深路三段165-1號","121.602115","25.0032833333333","6501800","深坑區"
"208002","KEA-2872","2018/08/02 19:59:40","新北市金山區中華路182-2號","121.632815","25.2234966666667","6502700","金山區"
"208003","665-BX","2018/08/02 19:59:51","新北市金山區永興里濆水路10號","121.623963333333","25.2712166666667","6502700","金山區"
"208001","761-BX","2018/08/02 19:59:41","新北市金山區南勢湖27號","121.619451666667","25.2183416666667","6502700","金山區"
"251009","008-UM","2018/08/02 19:59:34","新北市淡水區英專路28巷2弄8-4號","121.445865","25.16981","6501000","淡水區"
"251004","009-UM","2018/08/02 19:59:34","新北市淡水區民權路177巷7號","121.460913333333","25.1356266666667","6501000","淡水區"
"251005","010-UM","2018/08/02 19:59:35","新北市淡水區學府路136巷29號","121.451535","25.1727516666667","6501000","淡水區"
"251001","011-UM","2018/08/02 19:59:38","新北市淡水區淡金路二段599號","121.44596","25.19248","6501000","淡水區"
"251013","KEA-2871","2018/08/02 19:59:54","新北市淡水區頂田寮2-1號","121.460893333333","25.2127733333333","6501000","淡水區"
"251016","179-VK","2018/08/02 19:59:49","新北市淡水區番子田16-13號","121.453696666667","25.23173","6501000","淡水區"
"251014","180-VK","2018/08/02 19:59:51","新北市淡水區石頭厝12-3號","121.461635","25.2363866666667","6501000","淡水區"
"251008","181-VK","2018/08/02 19:59:35","新北市淡水區淡海路61號","121.422991666667","25.1809266666667","6501000","淡水區"
"251015","182-VK","2018/08/02 19:59:32","新北市淡水區埤島80-2號","121.449083333333","25.1892966666667","6501000","淡水區"
"251010","413-VK","2018/08/02 19:59:41","新北市淡水區崁頂128號","121.432155","25.20499","6501000","淡水區"
"251012","441-VK","2018/08/02 19:59:46","新北市淡水區下圭柔山100-10號","121.440368333333","25.211705","6501000","淡水區"
"251006","561-UM","2018/08/02 19:59:40","新北市淡水區水碓街40巷1號","121.444463333333","25.1772916666667","6501000","淡水區"
"251011","650-BX","2018/08/02 19:59:44","新北市淡水區崁頂55-3號","121.442323333333","25.1966","6501000","淡水區"
"251003","766-UM","2018/08/02 19:59:41","新北市淡水區中山北路二段189巷15弄31號","121.443466666667","25.1841033333333","6501000","淡水區"
"207003","550-UM","2018/08/02 19:59:52","新北市萬里區磺潭里公館崙5號","121.641903333333","25.2142266666667","6502800","萬里區"
"207004","225-TW","2018/08/02 19:59:46","新北市萬里區北基里忠二街23號","121.685353333333","25.1755116666667","6502800","萬里區"
"252002","178-VK","2018/08/02 19:59:42","新北市三芝區三民街39巷36號","121.505375","25.2575916666667","6502100","三芝區"
"252001","292-VK","2018/08/02 19:59:43","新北市三芝區公正街66號","121.499785","25.257485","6502100","三芝區"
"237004","KEA-2597","2018/08/02 19:59:34","新北市三峽區添福15-32號","121.372565","24.9047716666667","6500900","三峽區"
"237007","153-BY","2018/08/02 19:59:48","新北市三峽區麻園15-1號","121.363078333333","24.9134716666667","6500900","三峽區"
"237011","572-TV","2018/08/02 19:59:34","新北市三峽區中正路一段532號","121.369143333333","24.9200866666667","6500900","三峽區"
"237009","210-TH","2018/08/02 19:59:46","新北市三峽區民族街78巷2弄1號","121.36876","24.9296733333333","6500900","三峽區"
"237012","275-BY","2018/08/02 19:59:51","新北市三峽區安溪路315號","121.37115","24.93047","6500900","三峽區"
"237008","302-VK","2018/08/02 19:59:46","新北市三峽區中正路一段292巷19弄11號","121.370703333333","24.9258683333333","6500900","三峽區"
"237014","433-BY","2018/08/02 19:59:42","新北市三峽區添福108-1號","121.373796666667","24.9019766666667","6500900","三峽區"
"237006","5529-G3","2018/08/02 19:59:53","新北市三峽區中正路二段168號","121.365993333333","24.9157","6500900","三峽區"
"237016","649-BX","2018/08/02 19:59:39","新北市三峽區溪東路218巷1號","121.40745","24.9317266666667","6500900","三峽區"
"237005","AKY-6261","2018/08/02 19:59:38","新北市三峽區民生街1巷27-1號","121.379605","24.9340383333333","6500900","三峽區"
"236070","105-UM","2018/08/02 19:59:46","新北市土城區忠義路92號","121.44431","24.9623016666667","6501300","土城區"
"236042","107-UM","2018/08/02 19:59:54","新北市土城區學府路一段98巷9號","121.455758333333","24.9883216666667","6501300","土城區"
"236078","166-UM","2018/08/02 19:59:51","新北市土城區三民路25號","121.420178333333","24.9636083333333","6501300","土城區"
"236030","253-BX","2018/08/02 19:59:37","新北市土城區中央路一段248-3號","121.444436666667","24.9846216666667","6501300","土城區"
"236026","269-VK","2018/08/02 19:59:44","新北市土城區中央路二段98號","121.442306666667","24.978525","6501300","土城區"
"236014","270-VK","2018/08/02 19:59:40","新北市土城區廣福街121號","121.456288333333","24.9928233333333","6501300","土城區"
"236038","271-VK","2018/08/02 19:59:40","新北市土城區國際路52號","121.466368333333","24.97836","6501300","土城區"
"236021","401-BY","2018/08/02 19:59:37","新北市土城區延吉街111巷12弄15-3號","121.471565","24.9849783333333","6501300","土城區"
"236059","912-UM","2018/08/02 19:59:45","新北市土城區中央路一段279號","121.444631666667","24.9846716666667","6501300","土城區"
"236049","913-UM","2018/08/02 19:59:51","新北市土城區金城路三段315號","121.475143333333","24.991285","6501300","土城區"
"236063","915-UM","2018/08/02 19:59:44","新北市土城區延和路62巷6弄1號","121.46604","24.9886333333333","6501300","土城區"
"236055","AAC-216","2018/08/02 19:59:41","新北市土城區延和路11號","121.46393","24.988035","6501300","土城區"
"242034","AAC-296","2018/08/02 19:59:52","新北市新莊區中正路318巷23號","121.446248333333","25.0362816666667","6500500","新莊區"
"242058","986-R7","2018/08/02 19:59:32","新北市新莊區新樹路223號","121.435368333333","25.0230133333333","6500500","新莊區"
"242053","751-BX","2018/08/02 19:59:35","新北市新莊區西盛街427號","121.427213333333","25.0121083333333","6500500","新莊區"
"242025","613-BX","2018/08/02 19:59:28","新北市新莊區五工一路91號","121.461021666667","25.0676483333333","6500500","新莊區"
"242046","497-BY","2018/08/02 19:59:35","新北市新莊區裕民街19巷4號","121.419693333333","25.02519","6500500","新莊區"
"242007","442-UM","2018/08/02 19:59:50","新北市新莊區中原路2號","121.458546666667","25.0562966666667","6500500","新莊區"
"242056","440-UM","2018/08/02 19:59:44","新北市新莊區新豐街20巷11號","121.447681666667","25.0344416666667","6500500","新莊區"
"242036","415-TV","2018/08/02 19:59:36","新北市新莊區建安街41巷2號","121.42885","25.02543","6500500","新莊區"
"242044","400-BY","2018/08/02 19:59:51","新北市新莊區中正路746巷45-1號","121.411456666667","25.02533","6500500","新莊區"
"242023","362-BY","2018/08/02 19:59:43","新北市新莊區化成路388號","121.46589","25.0502816666667","6500500","新莊區"
"242061","353-BY","2018/08/02 19:59:48","新北市新莊區瓊泰路19號","121.444328333333","25.0286183333333","6500500","新莊區"
"242039","133-UY","2018/08/02 19:59:46","新北市新莊區民安路316號","121.428593333333","25.0220416666667","6500500","新莊區"
"242031","135-UY","2018/08/02 19:59:46","新北市新莊區公園一路90號","121.443298333333","25.0370633333333","6500500","新莊區"
"242048","172-VK","2018/08/02 19:59:50","新北市新莊區富國路109巷2號","121.423743333333","25.02499","6500500","新莊區"
"242011","173-VK","2018/08/02 19:59:10","新北市新莊區中港路531巷12號","121.450665","25.0515533333333","6500500","新莊區"
"242017","175-VK","2018/08/02 19:59:50","新北市新莊區中安街37號","121.45263","25.0466633333333","6500500","新莊區"
"242004","176-VK","2018/08/02 19:59:42","新北市新莊區化成路350號","121.465823333333","25.0490666666667","6500500","新莊區"
"242021","348-TH","2018/08/02 19:59:41","新北市新莊區建中街32巷20號","121.448685","25.038375","6500500","新莊區"
"242002","349-TH","2018/08/02 19:59:36","新北市新莊區新泰路99號","121.448946666667","25.03487","6500500","新莊區"
"242019","350-TH","2018/08/02 19:59:44","新北市新莊區中港路177號","121.454823333333","25.0413766666667","6500500","新莊區"
"242013","351-TH","2018/08/02 19:59:44","新北市新莊區幸福路626號","121.451021666667","25.049405","6500500","新莊區"
"238015","755-BX","2018/08/02 19:59:42","新北市樹林區中山路三段210-2號","121.381906666667","24.9655716666667","6500700","樹林區"
"238021","KEA-2539","2018/08/02 19:59:49","新北市樹林區佳園路三段99巷19號","121.38934","24.9521533333333","6500700","樹林區"
"239006","891-R6","2018/08/02 19:59:52","新北市鶯歌區文化路181號","121.35549","24.9540833333333","6500800","鶯歌區"
"239002","359-BY","2018/08/02 19:59:37","新北市鶯歌區中正一路461-5號","121.363078333333","24.95648","6500800","鶯歌區"
"221008","489-VK","2018/08/02 19:59:39","台北市內湖區康樂街117號","121.619158333333","25.0708716666667","6501100","汐止區"
"221036","130-UY","2018/08/02 19:59:44","新北市汐止區忠孝東路258巷11弄7號","121.66393","25.0674933333333","6501100","汐止區"
"221015","131-UY","2018/08/02 19:59:49","新北市汐止區建成路13號","121.66454","25.072545","6501100","汐止區"
"221010","269-BY","2018/08/02 19:59:40","新北市汐止區連峰街225巷1號","121.644836666667","25.0809066666667","6501100","汐止區"
"221012","278-VK","2018/08/02 19:59:38","新北市汐止區大同路三段451號","121.678656666667","25.0712616666667","6501100","汐止區"
"221023","279-VK","2018/08/02 19:59:48","新北市汐止區明峰街295號","121.625615","25.0679166666667","6501100","汐止區"
"221032","280-BY","2018/08/02 19:59:49","新北市汐止區橫科路18巷13號","121.617778333333","25.050375","6501100","汐止區"
"221027","281-BY","2018/08/02 19:59:50","新北市汐止區中正路81號","121.661416666667","25.069425","6501100","汐止區"
"221029","298-VK","2018/08/02 19:59:36","新北市汐止區樟樹一路137巷26號","121.640975","25.0659633333333","6501100","汐止區"
"221021","299-VK","2018/08/02 19:59:44","新北市汐止區水源路一段137號","121.656075","25.062335","6501100","汐止區"
"221035","622-UM","2018/08/02 19:59:40","新北市汐止區長江街39巷10號","121.655491666667","25.0718183333333","6501100","汐止區"
"221025","623-UM","2018/08/02 19:59:40","新北市汐止區秀峰路109巷26弄8號","121.661041666667","25.0634466666667","6501100","汐止區"
"221038","646-BX","2018/08/02 19:59:42","新北市汐止區忠孝東路512號","121.66685","25.075435","6501100","汐止區"
"221033","647-BX","2018/08/02 19:59:47","新北市汐止區東勢街201巷5號","121.633891666667","25.0426683333333","6501100","汐止區"
"221018","753-BX","2018/08/02 19:59:49","新北市汐止區忠孝東路397號","121.665725","25.0707983333333","6501100","汐止區"
"220079","145-BY","2018/08/02 19:59:51","新北市板橋區南雅西路二段124號","121.452058333333","25.0124916666667","6500100","板橋區"
"220080","200-UY","2018/08/02 19:59:52","新北市板橋區大觀路二段59巷29號","121.447325","25.0025283333333","6500100","板橋區"
"220082","610-BX","2018/08/02 19:59:44","新北市板橋區大觀路三段201號","121.431746666667","24.9931783333333","6500100","板橋區"
"220101","245-BX","2018/08/02 19:59:35","新北市板橋區莒光路180巷23號","121.47319","25.0228333333333","6500100","板橋區"
"220072","277-BY","2018/08/02 19:59:46","新北市板橋區金門街109巷14號","121.433876666667","24.991825","6500100","板橋區"
"220071","283-VK","2018/08/02 19:59:51","新北市板橋區和平路174巷14號","121.464236666667","24.9949483333333","6500100","板橋區"
"220094","285-UM","2018/08/02 19:59:43","新北市板橋區漢生西路197-1號","121.463211666667","25.0244283333333","6500100","板橋區"
"220053","285-VK","2018/08/02 19:59:49","新北市板橋區永豐街8號","121.475008333333","25.0167366666667","6500100","板橋區"
"220083","286-VK","2018/08/02 19:59:52","新北市板橋區僑中二街18號","121.446375","25.0106333333333","6500100","板橋區"
"220081","287-VK","2018/08/02 19:59:46","新北市板橋區僑中一街80巷12弄1號","121.448121666667","25.0131716666667","6500100","板橋區"
"220090","288-VK","2018/08/02 19:59:53","新北市板橋區幸福路32巷4弄9號","121.461158333333","25.0215816666667","6500100","板橋區"
"220061","293-UM","2018/08/02 19:59:48","新北市板橋區觀光街1巷4號","121.471988333333","25.015475","6500100","板橋區"
"220062","295-UM","2018/08/02 19:59:40","新北市板橋區光復街192巷16弄20號","121.486476666667","25.0195366666667","6500100","板橋區"
"242015","281-VK","2018/08/02 19:59:54","新北市新莊區復興路一段33巷1號","121.446345","25.04201","6500500","新莊區"
"220092","307-R5","2018/08/02 19:59:50","新北市板橋區互助街79號","121.460111666667","25.02602","6500100","板橋區"
"220098","317-R6","2018/08/02 19:59:35","新北市板橋區新海路72巷64號","121.461843333333","25.0235583333333","6500100","板橋區"
"220064","486-VK","2018/08/02 19:59:45","新北市板橋區區運路5號","121.465251666667","25.009545","6500100","板橋區"
"220088","491-VK","2018/08/02 19:59:46","新北市板橋區懷德街54號","121.477376666667","25.0324433333333","6500100","板橋區"
"220035","560-BX","2018/08/02 19:59:42","新北市板橋區新生街87巷23號","121.456703333333","25.0220983333333","6500100","板橋區"
"220103","561-BX","2018/08/02 19:59:50","新北市板橋區自由路15號","121.465515","25.0227416666667","6500100","板橋區"
"220091","637-BX","2018/08/02 19:59:43","新北市板橋區文聖街91號","121.477628333333","25.0298166666667","6500100","板橋區"
"220093","689-BX","2018/08/02 19:59:52","新北市板橋區長江路二段280-13號","121.470461666667","25.0329566666667","6500100","板橋區"
"220054","741-BX","2018/08/02 19:59:44","新北市板橋區忠孝路201巷89號","121.464698333333","25.0046616666667","6500100","板橋區"
"220102","KEA-2699","2018/08/02 19:59:47","新北市板橋區仁化街66號","121.475775","25.0317316666667","6500100","板橋區"
"220055","827-TW","2018/08/02 19:59:50","新北市板橋區仁愛路62巷15弄2號","121.459993333333","24.99846","6500100","板橋區"
"220067","829-TW","2018/08/02 19:59:55","新北市板橋區中山路一段291-2號","121.470721666667","25.0142316666667","6500100","板橋區"
"220068","830-TW","2018/08/02 19:59:53","新北市板橋區光復街170號","121.485221666667","25.0196133333333","6500100","板橋區"
"220096","831-TW","2018/08/02 19:59:50","新北市板橋區莒光路133巷11號","121.472306666667","25.0246783333333","6500100","板橋區"
"220089","833-TW","2018/08/02 19:59:46","新北市板橋區龍泉街57號","121.457056666667","25.025955","6500100","板橋區"
"220074","895-R6","2018/08/02 19:59:52","新北市板橋區文化路一段52巷29號","121.461466666667","25.0111516666667","6500100","板橋區"
"220073","985-R7","2018/08/02 19:59:36","新北市板橋區南雅西路二段106號","121.45225","25.0119066666667","6500100","板橋區"
"220097","AAC-210","2018/08/02 19:59:35","新北市板橋區光正街45巷24號","121.461691666667","25.0165333333333","6500100","板橋區"
"220070","AAC-253","2018/08/02 19:59:53","新北市板橋區四川路一段133號","121.459836666667","25.004505","6500100","板橋區"
"235068","KEA-2873","2018/08/02 19:59:47","新北市中和區景平路736巷1弄9號","121.497535","25.0041533333333","6500300","中和區"
