"lineid","car","time","location","longitude","latitude","cityid","cityname"
"234046","148-BY","2018/08/02 20:09:38","新北市永和區得和路328號","121.523333333333","24.999565","6500400","永和區"
"234007","207-UY","2018/08/02 20:09:43","新北市永和區保順路11號","121.50433","25.009675","6500400","永和區"
"234081","298-R6","2018/08/02 20:09:51","新北市永和區國中路101號","121.524101666667","25.0061216666667","6500400","永和區"
"234064","337-UY","2018/08/02 20:09:37","新北市永和區秀朗路二段43號","121.521546666667","25.002465","6500400","永和區"
"234086","338-UY","2018/08/02 20:09:52","新北市永和區中正路614號","121.517175","25.0075416666667","6500400","永和區"
"234070","552-UM","2018/08/02 20:09:37","新北市永和區福和路169號","121.520108333333","25.0074316666667","6500400","永和區"
"234017","745-BX","2018/08/02 20:09:52","新北市永和區文化路120號","121.513183333333","25.0153016666667","6500400","永和區"
"234030","746-BX","2018/08/02 20:09:43","新北市永和區民權路49巷37號","121.522003333333","24.9976","6500400","永和區"
"234054","KEA-2590","2018/08/02 20:09:43","新北市永和區博愛街20巷2號","121.517836666667","25.015775","6500400","永和區"
"234013","KEA-2591","2018/08/02 20:09:41","新北市永和區永貞路387號","121.50801","25.0086933333333","6500400","永和區"
"234061","AAD-866","2018/08/02 20:09:51","新北市永和區安樂路100巷26號","121.515435","24.9987216666667","6500400","永和區"
"234038","847-RS","2018/08/02 20:09:54","新北市永和區成功路一段47巷15號","121.527593333333","25.003995","6500400","永和區"
"234042","862-TW","2018/08/02 20:09:55","新北市永和區雙和街64巷25號","121.509686666667","25.0032483333333","6500400","永和區"
"234050","863-TW","2018/08/02 20:09:52","新北市永和區永平路350號","121.506128333333","25.01351","6500400","永和區"
"234026","9371-KE","2018/08/02 20:09:52","新北市永和區保生路55-1號","121.504481666667","25.010895","6500400","永和區"
"234011","9373-KE","2018/08/02 20:09:44","新北市永和區仁愛路352巷122弄11號","121.50064","25.00881","6500400","永和區"
"249005","172-UM","2018/08/02 20:09:39","新北市八里區下罟子50-1號","121.383796666667","25.13811","6502300","八里區"
"249001","173-UM","2018/08/02 20:09:39","新北市八里區中華路二段316號","121.403575","25.14818","6502300","八里區"
"249004","303-UY","2018/08/02 20:09:45","新北市八里區中山路一段189巷3號","121.411875","25.1582033333333","6502300","八里區"
"249003","593-UM","2018/08/02 20:09:43","新北市八里區中山路二段540巷9弄2號","121.396948333333","25.1471266666667","6502300","八里區"
"248014","025-BX","2018/08/02 20:09:34","新北市五股區新五路三段181號","121.448548333333","25.0928166666667","6501500","五股區"
"248016","026-BX","2018/08/02 20:09:51","新北市五股區凌雲路一段158巷50弄21號","121.447853333333","25.1043616666667","6501500","五股區"
"248008","095-VK","2018/08/02 20:09:39","新北市五股區中興路一段1巷12弄3號","121.469371666667","25.0713333333333","6501500","五股區"
"248020","225-UY","2018/08/02 20:09:46","新北市五股區凌雲路二段5號","121.445388333333","25.1025116666667","6501500","五股區"
"248012","247-BX","2018/08/02 20:09:54","新北市五股區六合街94號","121.431205","25.0910366666667","6501500","五股區"
"248004","677-BX","2018/08/02 20:09:51","新北市五股區成泰路一段210號","121.43617","25.07914","6501500","五股區"
"248002","678-BX","2018/08/02 20:09:40","新北市五股區成泰路三段311-2號","121.447818333333","25.0948666666667","6501500","五股區"
"248010","682-TV","2018/08/02 20:09:35","新北市五股區成泰路一段7巷13號","121.432708333333","25.06699","6501500","五股區"
"234023","9380-KE","2018/08/02 20:09:36","新北市永和區中正路662巷8號","121.51738","25.0087266666667","6500400","永和區"
"234077","969-R7","2018/08/02 20:09:52","新北市永和區民光街12號","121.515481666667","24.9960416666667","6500400","永和區"
"234074","AAC-211","2018/08/02 20:09:39","新北市永和區豫溪街185號","121.522508333333","25.0103316666667","6500400","永和區"
"234067","AAC-212","2018/08/02 20:09:46","新北市永和區保平路214巷8弄1號","121.509485","25.006255","6500400","永和區"
"234003","AAC-295","2018/08/02 20:09:45","新北市永和區自強街37號","121.51593","25.0080116666667","6500400","永和區"
"243013","AAD-798","2018/08/02 20:09:52","新北市泰山區明志路三段74巷21號","121.424133333333","25.0416866666667","6501600","泰山區"
"243009","297-R6","2018/08/02 20:09:51","新北市泰山區泰林路二段142巷7弄6號","121.434623333333","25.0604","6501600","泰山區"
"243016","KEA-2801","2018/08/02 20:09:51","新北市泰山區貴陽街4-1號","121.421626666667","25.033275","6501600","泰山區"
"243015","421-VK","2018/08/02 20:09:47","新北市泰山區明志路一段326號","121.431368333333","25.0591616666667","6501600","泰山區"
"243011","KEA-2215","2018/08/02 20:09:45","新北市泰山區明志路三段339號","121.422145","25.035485","6501600","泰山區"
"243010","KEA-2216","2018/08/02 20:09:50","新北市泰山區明志路二段214巷16弄35號","121.426681666667","25.0501366666667","6501600","泰山區"
"243012","646-TV","2018/08/02 20:09:34","新北市泰山區楓江路48號","121.435333333333","25.06253","6501600","泰山區"
"243014","680-BX","2018/08/02 20:09:47","新北市泰山區明志路一段8號","121.433573333333","25.065935","6501600","泰山區"
"222003","436-BY","2018/08/02 20:09:33","新北市深坑區埔新街63號","121.620321666667","25.0024166666667","6501800","深坑區"
"222002","659-BX","2018/08/02 20:09:42","新北市深坑區北深路三段168號","121.602465","25.0036966666667","6501800","深坑區"
"231041","002-UM","2018/08/02 20:09:45","新北市新店區中正路468號","121.534016666667","24.9794083333333","6500600","新店區"
"231040","047-UY","2018/08/02 20:09:43","新北市新店區中正路108號","121.543076666667","24.97058","6500600","新店區"
"231044","106-UY","2018/08/02 20:09:41","新北市新店區寶慶街58巷2號","121.542048333333","24.986775","6500600","新店區"
"231052","108-UY","2018/08/02 20:09:45","新北市新店區新烏路三段286號","121.549808333333","24.89832","6500600","新店區"
"231047","187-VK","2018/08/02 20:09:45","新北市新店區永華街32號","121.544611666667","24.9755766666667","6500600","新店區"
"231054","KEA-2219","2018/08/02 20:09:45","新北市新店區檳榔路17-2號","121.541451666667","24.9640116666667","6500600","新店區"
"231057","256-BX","2018/08/02 20:09:34","新北市新店區花園一路一段2號","121.553123333333","24.9324083333333","6500600","新店區"
"231042","268-BY","2018/08/02 20:09:51","新北市新店區中興路二段89號","121.547105","24.97139","6500600","新店區"
"231051","278-BY","2018/08/02 20:09:29","新北市新店區中央五街3-2號","121.53035","24.9743316666667","6500600","新店區"
"231050","AAD-862","2018/08/02 20:09:42","新北市新店區北新路一段41號","121.53801","24.959285","6500600","新店區"
"231059","355-BY","2018/08/02 20:09:42","新北市新店區安德街84號","121.510063333333","24.9614566666667","6500600","新店區"
"231058","3713-VJ","2018/08/02 20:09:50","新北市新店區中央路238號","121.52904","24.9720816666667","6500600","新店區"
"231066","4716-K9","2018/08/02 20:09:49","新北市新店區柴埕路51號","121.513765","24.9653233333333","6500600","新店區"
"231056","4715-K9","2018/08/02 20:09:46","新北市新店區中正路275巷33號","121.536813333333","24.9729133333333","6500600","新店區"
"231067","4772-VM","2018/08/02 20:09:33","新北市新店區安康路一段35號","121.531735","24.960735","6500600","新店區"
"231065","512-UM","2018/08/02 20:09:49","新北市新店區安祥路106巷84號","121.47426","24.9600483333333","6500600","新店區"
"231049","513-UM","2018/08/02 20:09:44","新北市新店區北新路二段121巷1-1號","121.542301666667","24.9748833333333","6500600","新店區"
"231063","616-UM","2018/08/02 20:09:44","新北市新店區黎明路52巷7號","121.502065","24.9487233333333","6500600","新店區"
"231045","617-UM","2018/08/02 20:09:54","新北市新店區北宜路一段152-2號","121.540233333333","24.95373","6500600","新店區"
"231061","619-UM","2018/08/02 20:09:49","新北市新店區安興路69號","121.516021666667","24.9751366666667","6500600","新店區"
"231068","718-UY","2018/08/02 20:09:46","新北市新店區寶中路45-3號","121.545261666667","24.9789266666667","6500600","新店區"
"231064","719-UM","2018/08/02 20:03:11","新北市新店區安民街14號","121.515355","24.9644683333333","6500600","新店區"
"231062","720-UM","2018/08/02 20:09:43","新北市新店區安康路一段222-3號","121.522515","24.963725","6500600","新店區"
"231060","897-TW","2018/08/02 20:09:50","新北市新店區安康路三段456號","121.4843","24.95116","6500600","新店區"
"231043","899-TW","2018/08/02 20:09:55","新北市新店區民族路182號","121.536978333333","24.9761916666667","6500600","新店區"
"231055","AKT-0513","2018/08/02 20:09:42","新北市新店區北新路一段297巷33號","121.540381666667","24.96834","6500600","新店區"
"241011","013-R5","2018/08/02 20:09:50","新北市三重區秀江街253號","121.495995","25.071615","6500200","三重區"
"241008","059-VK","2018/08/02 20:09:48","新北市三重區永福街197巷35號","121.478288333333","25.0743383333333","6500200","三重區"
"241022","060-VK","2018/08/02 20:09:54","新北市三重區新北大道一段66號","121.487265","25.0614316666667","6500200","三重區"
"241031","061-VK","2018/08/02 20:09:36","新北市三重區過圳街9-1號","121.488796666667","25.0600983333333","6500200","三重區"
"241015","062-VK","2018/08/02 20:09:47","新北市三重區福德北路24號","121.502213333333","25.06472","6500200","三重區"
"241017","063-VK","2018/08/02 20:09:45","新北市三重區自強路一段256號","121.492635","25.0675983333333","6500200","三重區"
"241024","065-VK","2018/08/02 20:09:41","新北市三重區中正北路314號","121.479286666667","25.0690583333333","6500200","三重區"
"241026","066-VK","2018/08/02 20:09:39","新北市三重區福德南路65巷1號","121.502358333333","25.060535","6500200","三重區"
"241002","090-VK","2018/08/02 20:09:42","新北市三重區仁忠街25號","121.496153333333","25.082155","6500200","三重區"
"241003","091-VK","2018/08/02 20:09:43","新北市三重區富華街18號","121.489646666667","25.0824616666667","6500200","三重區"
"241005","262-UM","2018/08/02 20:09:43","新北市三重區三信路59號","121.487676666667","25.0852916666667","6500200","三重區"
"241028","265-UM","2018/08/02 20:09:49","新北市三重區仁化街163號","121.494786666667","25.0569716666667","6500200","三重區"
"241016","266-UM","2018/08/02 20:09:49","新北市三重區大同北路61號","121.495258333333","25.0633883333333","6500200","三重區"
"241009","267-UM","2018/08/02 20:09:37","新北市三重區永福街46-2號","121.482021666667","25.0781816666667","6500200","三重區"
"241018","268-UM","2018/08/02 20:09:52","新北市三重區正義北路256巷98號","121.493935","25.0679416666667","6500200","三重區"
"241032","269-UM","2018/08/02 20:09:41","新北市三重區捷運路65號","121.483436666667","25.0556116666667","6500200","三重區"
"241013","270-UM","2018/08/02 20:09:48","新北市三重區三和路三段151巷43號","121.493923333333","25.074295","6500200","三重區"
"241025","271-UM","2018/08/02 20:09:50","新北市三重區中正北路420號","121.474961666667","25.0708766666667","6500200","三重區"
"241007","398-BY","2018/08/02 20:09:53","新北市三重區三和路四段111-15號","121.486951666667","25.0776616666667","6500200","三重區"
"241035","KEA-2210","2018/08/02 20:09:46","新北市三重區平安街41號","121.498081666667","25.06418","6500200","三重區"
"241001","413-TH","2018/08/02 20:09:41","新北市三重區溪尾街24-1號","121.491078333333","25.0763666666667","6500200","三重區"
"241004","475-VK","2018/08/02 20:09:50","新北市三重區自強路四段112號","121.491635","25.08008","6500200","三重區"
"241020","478-VK","2018/08/02 20:09:51","新北市三重區三和路三段170巷63號","121.490363333333","25.072565","6500200","三重區"
"241030","480-VK","2018/08/02 20:09:35","新北市三重區成功路145巷35號","121.487771666667","25.0532216666667","6500200","三重區"
"241014","543-UM","2018/08/02 20:09:41","新北市三重區長樂街90號","121.501378333333","25.0694333333333","6500200","三重區"
"241023","545-UM","2018/08/02 20:09:50","新北市三重區頂崁街210巷5弄1號","121.476833333333","25.067825","6500200","三重區"
"241019","KEA-2593","2018/08/02 20:09:51","新北市三重區自強路二段47巷22號","121.48968","25.06992","6500200","三重區"
"241006","AAD-863","2018/08/02 20:09:53","新北市三重區車路頭街135-1號","121.48425","25.076175","6500200","三重區"
"241012","941-UM","2018/08/02 20:09:51","新北市三重區仁愛街125巷89號","121.498071666667","25.0759566666667","6500200","三重區"
"241029","942-UM","2018/08/02 20:09:34","新北市三重區光明路32巷23弄1號","121.492021666667","25.0586866666667","6500200","三重區"
"241033","AAC-255","2018/08/02 20:09:53","新北市三重區光復路一段61巷27號","121.473661666667","25.04925","6500200","三重區"
"235066","003-UY","2018/08/02 20:09:47","新北市中和區保平路231號","121.508023333333","25.0042416666667","6500300","中和區"
"235039","097-UM","2018/08/02 20:09:48","新北市中和區大勇街25巷5號","121.517","24.9931766666667","6500300","中和區"
"235065","098-UM","2018/08/02 20:09:41","新北市中和區福美路256巷10號","121.498111666667","25.0057433333333","6500300","中和區"
"235040","150-BY","2018/08/02 20:09:46","新北市中和區保健路44巷1號","121.50961","24.9971816666667","6500300","中和區"
"247010","KEA-2869","2018/08/02 20:09:43","新北市蘆洲區中山一路74巷55號","121.479958333333","25.08159","6501400","蘆洲區"
"235050","4979-A6","2018/08/02 20:09:51","新北市中和區景平路241巷82弄16號","121.507073333333","24.9921533333333","6500300","中和區"
"235069","4980-A6","2018/08/02 20:09:46","新北市中和區景新街64巷16號","121.503783333333","24.9983583333333","6500300","中和區"
"235070","558-UM","2018/08/02 20:09:36","新北市中和區建八路116號","121.488101666667","24.9985016666667","6500300","中和區"
"235046","733-UM","2018/08/02 20:09:41","新北市中和區忠孝街29號","121.510545","24.9831116666667","6500300","中和區"
"235048","896-TW","2018/08/02 20:09:47","新北市中和區中正路222號","121.496363333333","24.9938633333333","6500300","中和區"
"235051","157-BY","2018/08/02 20:09:41","新北市中和區景安路220巷1弄2號","121.503206666667","24.99101","6500300","中和區"
"235037","AAC-213","2018/08/02 20:09:46","新北市中和區自強路64號","121.520038333333","24.994395","6500300","中和區"
"235059","AAC-215","2018/08/02 20:09:47","新北市中和區圓通路335巷37弄1號","121.493865","24.9890583333333","6500300","中和區"
"220106","013-TV","2018/08/02 20:09:42","新北市板橋區民治街71巷15號","121.480305","25.0328116666667","6500100","板橋區"
"220069","AAD-861","2018/08/02 20:09:38","新北市板橋區大明街20巷21號","121.45862","25.003315","6500100","板橋區"
"247024","893-R6","2018/08/02 20:09:48","新北市蘆洲區光明路116號","121.46367","25.0882366666667","6501400","蘆洲區"
"247014","546-UM","2018/08/02 20:09:46","新北市蘆洲區中山二路273號","121.469713333333","25.07952","6501400","蘆洲區"
"247022","500-BY","2018/08/02 20:09:35","新北市蘆洲區三民路148號","121.470433333333","25.087915","6501400","蘆洲區"
"247012","339-TH","2018/08/02 20:09:50","新北市蘆洲區民族路250巷4號","121.479391666667","25.088805","6501400","蘆洲區"
"247004","337-TH","2018/08/02 20:09:38","新北市蘆洲區永安南路二段328巷15弄15號","121.455861666667","25.0835833333333","6501400","蘆洲區"
"247006","336-TH","2018/08/02 20:09:38","新北市蘆洲區中山二路309號","121.468806666667","25.0774716666667","6501400","蘆洲區"
"247018","057-VK","2018/08/02 20:09:46","新北市蘆洲區民族路314巷24號","121.4779","25.0904633333333","6501400","蘆洲區"
"247016","007-UY","2018/08/02 20:09:47","新北市蘆洲區光華路127號","121.466443333333","25.082385","6501400","蘆洲區"
"247002","002-UY","2018/08/02 20:09:45","新北市蘆洲區永康街58號","121.459245","25.08609","6501400","蘆洲區"
"247020","001-UY","2018/08/02 20:09:54","新北市蘆洲區民權路106巷5弄22號","121.474315","25.0891516666667","6501400","蘆洲區"
"224010","AGQ-8101","2018/08/02 20:09:36","新北市瑞芳區輕便路129號","121.84379","25.1091266666667","6501200","瑞芳區"
"224002","639-TC","2018/08/02 20:09:50","新北市瑞芳區蛇子形路2號","121.823988333333","25.1028816666667","6501200","瑞芳區"
"222001","KEA-2212","2018/08/02 20:09:41","新北市深坑區北深路三段210號","121.601211666667","25.0037733333333","6501800","深坑區"
"208002","KEA-2872","2018/08/02 20:09:40","新北市金山區自強路20-1號","121.639585","25.217265","6502700","金山區"
"208003","665-BX","2018/08/02 20:09:46","新北市金山區海興路35-2號","121.629516666667","25.23669","6502700","金山區"
"251009","008-UM","2018/08/02 20:09:44","新北市淡水區英專路38號","121.445685","25.1701966666667","6501000","淡水區"
"251004","009-UM","2018/08/02 20:09:34","新北市淡水區民族路31巷41號","121.462011666667","25.13671","6501000","淡水區"
"251005","010-UM","2018/08/02 20:09:35","新北市淡水區忠愛街1-1號","121.454856666667","25.1713733333333","6501000","淡水區"
"251001","011-UM","2018/08/02 20:09:38","新北市淡水區淡金路二段599號","121.445956666667","25.1924716666667","6501000","淡水區"
"251013","KEA-2871","2018/08/02 20:09:34","新北市淡水區奎柔山路75號","121.453648333333","25.2059633333333","6501000","淡水區"
"251016","179-VK","2018/08/02 20:09:49","新北市淡水區番子田19號","121.457525","25.2287933333333","6501000","淡水區"
"251014","180-VK","2018/08/02 20:09:51","新北市淡水區石頭厝1號","121.458721666667","25.235515","6501000","淡水區"
"251008","181-VK","2018/08/02 20:09:42","新北市淡水區淡海路72巷30弄8號","121.42462","25.18245","6501000","淡水區"
"251015","182-VK","2018/08/02 20:09:52","新北市淡水區埤島3-23號","121.447773333333","25.189735","6501000","淡水區"
"251010","413-VK","2018/08/02 20:09:41","新北市淡水區新市二路二段2號","121.426418333333","25.19593","6501000","淡水區"
"251012","441-VK","2018/08/02 20:09:46","新北市淡水區淡金路三段260號","121.448925","25.2065333333333","6501000","淡水區"
"251006","561-UM","2018/08/02 20:09:40","新北市淡水區北新路141巷29號","121.448095","25.179605","6501000","淡水區"
"251003","766-UM","2018/08/02 20:09:41","新北市淡水區中山北路二段189巷15弄31號","121.443576666667","25.1838516666667","6501000","淡水區"
"207003","550-UM","2018/08/02 20:09:33","新北市萬里區大鵬里萬里加投186號","121.642826666667","25.21565","6502800","萬里區"
"207004","225-TW","2018/08/02 20:09:46","新北市萬里區北基里愛三街11號","121.681748333333","25.1766266666667","6502800","萬里區"
"252002","178-VK","2018/08/02 20:09:42","新北市三芝區中正路一段72號","121.503953333333","25.2576383333333","6502100","三芝區"
"252001","292-VK","2018/08/02 20:09:43","新北市三芝區公正街66號","121.499768333333","25.25747","6502100","三芝區"
"237007","153-BY","2018/08/02 20:09:48","新北市三峽區文化路207號","121.366346666667","24.935595","6500900","三峽區"
"237011","572-TV","2018/08/02 20:09:54","新北市三峽區民權街205號","121.36775","24.9285766666667","6500900","三峽區"
"237009","210-TH","2018/08/02 20:09:46","新北市三峽區民族街16號","121.369083333333","24.931195","6500900","三峽區"
"237008","302-VK","2018/08/02 20:09:46","新北市三峽區中華路75巷29號","121.373188333333","24.929665","6500900","三峽區"
"237014","433-BY","2018/08/02 20:09:42","新北市三峽區正義街79號","121.368995","24.91803","6500900","三峽區"
"237006","5529-G3","2018/08/02 20:09:33","新北市三峽區嘉添109-11號","121.369691666667","24.90963","6500900","三峽區"
"237016","649-BX","2018/08/02 20:09:39","新北市三峽區橫溪路53-1號","121.396726666667","24.93537","6500900","三峽區"
"237005","AKY-6261","2018/08/02 20:09:47","新北市三峽區三樹路106號","121.378271666667","24.9391083333333","6500900","三峽區"
"236070","105-UM","2018/08/02 20:09:46","新北市土城區中央路三段183號","121.431321666667","24.965335","6501300","土城區"
"236042","107-UM","2018/08/02 20:09:41","新北市土城區學成路5號","121.453398333333","24.986395","6501300","土城區"
"236078","166-UM","2018/08/02 20:09:51","新北市土城區德安街4巷2號","121.42223","24.9648633333333","6501300","土城區"
"236030","253-BX","2018/08/02 20:09:37","新北市土城區中央路一段145號","121.44679","24.9879366666667","6501300","土城區"
"236026","269-VK","2018/08/02 20:09:54","新北市土城區裕生路75號","121.447015","24.98449","6501300","土城區"
"236014","270-VK","2018/08/02 20:09:40","新北市土城區廣興街19號","121.455933333333","24.9916416666667","6501300","土城區"
"236038","271-VK","2018/08/02 20:09:40","新北市土城區明德路一段60巷14號","121.464723333333","24.9834933333333","6501300","土城區"
"236021","401-BY","2018/08/02 20:09:37","新北市土城區和城路二段255巷66-1號","121.474863333333","24.987355","6501300","土城區"
"236059","912-UM","2018/08/02 20:09:45","新北市土城區中央路二段207號","121.441736666667","24.9744316666667","6501300","土城區"
"236049","913-UM","2018/08/02 20:09:51","新北市土城區清水路294號","121.462415","24.9837783333333","6501300","土城區"
"236063","915-UM","2018/08/02 20:09:44","新北市土城區立德路135巷5弄1號","121.464885","24.9869433333333","6501300","土城區"
"236055","AAC-216","2018/08/02 20:09:41","新北市土城區學成路139號","121.449125","24.9894966666667","6501300","土城區"
"242034","AAC-296","2018/08/02 20:06:46","新北市新莊區建中街71巷16號","121.44769","25.0360983333333","6500500","新莊區"
"242058","986-R7","2018/08/02 20:09:52","新北市新莊區八德街56號","121.425033333333","25.0224916666667","6500500","新莊區"
"242053","751-BX","2018/08/02 20:09:52","新北市新莊區西盛街397號","121.427831666667","25.0128233333333","6500500","新莊區"
"242027","615-BX","2018/08/02 20:09:37","新北市新莊區幸福路785號","121.446658333333","25.04906","6500500","新莊區"
"242025","613-BX","2018/08/02 20:08:00","新北市新莊區五權一路12巷25弄26號","121.458776666667","25.06482","6500500","新莊區"
"242042","566-BX","2018/08/02 20:09:50","新北市新莊區青山路一段226-3號","121.399245","25.0309716666667","6500500","新莊區"
"242046","497-BY","2018/08/02 20:09:35","新北市新莊區裕民街103巷13號","121.41911","25.0229233333333","6500500","新莊區"
"242007","442-UM","2018/08/02 20:09:50","新北市新莊區思源路425號","121.459353333333","25.0529683333333","6500500","新莊區"
"242051","441-UM","2018/08/02 20:09:53","新北市新莊區民安西路172巷2弄2號","121.425761666667","25.0159983333333","6500500","新莊區"
"242056","440-UM","2018/08/02 20:09:44","新北市新莊區新莊路649巷15弄13號","121.44556","25.031585","6500500","新莊區"
"242036","415-TV","2018/08/02 20:09:41","新北市新莊區建安街17巷13號","121.429638333333","25.0265333333333","6500500","新莊區"
"242044","400-BY","2018/08/02 20:09:51","新北市新莊區萬壽路一段21巷17弄14號","121.411005","25.0199766666667","6500500","新莊區"
"242023","362-BY","2018/08/02 20:09:43","新北市新莊區化成路562號","121.4662","25.0540366666667","6500500","新莊區"
"242061","353-BY","2018/08/02 20:09:48","新北市新莊區瓊林路96-5號","121.443946666667","25.0271916666667","6500500","新莊區"
"242009","132-UY","2018/08/02 20:09:54","新北市新莊區昌隆街28號","121.454078333333","25.050745","6500500","新莊區"
"242039","133-UY","2018/08/02 20:09:46","新北市新莊區民安西路107號","121.426866666667","25.0184366666667","6500500","新莊區"
"242031","135-UY","2018/08/02 20:09:45","新北市新莊區中正路380號","121.442965","25.0341216666667","6500500","新莊區"
"242048","172-VK","2018/08/02 20:09:50","新北市新莊區四維路152巷32號","121.42196","25.0224216666667","6500500","新莊區"
"242011","173-VK","2018/08/02 20:09:28","新北市新莊區中信街63巷2弄12號","121.44856","25.05053","6500500","新莊區"
"242017","175-VK","2018/08/02 20:09:45","新北市新莊區中港一街1號","121.451773333333","25.0456583333333","6500500","新莊區"
"242004","176-VK","2018/08/02 20:09:54","新北市新莊區頭興街26號","121.464746666667","25.0535166666667","6500500","新莊區"
"242021","348-TH","2018/08/02 20:09:41","新北市新莊區中興街40號","121.44927","25.03691","6500500","新莊區"
"242002","349-TH","2018/08/02 20:09:49","新北市新莊區中正路145-13號","121.458781666667","25.0378116666667","6500500","新莊區"
"242019","350-TH","2018/08/02 20:09:46","新北市新莊區民樂街65巷10號","121.457411666667","25.0417916666667","6500500","新莊區"
"242013","351-TH","2018/08/02 20:09:44","新北市新莊區幸福路678巷3弄2號","121.450433333333","25.0496666666667","6500500","新莊區"
"239006","891-R6","2018/08/02 20:09:52","新北市鶯歌區中正一路420號","121.361088333333","24.9570483333333","6500800","鶯歌區"
"239003","360-BY","2018/08/02 20:01:59","新北市鶯歌區二甲路13號","121.344066666667","24.9354666666667","6500800","鶯歌區"
"221008","489-VK","2018/08/02 20:09:39","台北市內湖區康樂街235號","121.623165","25.0782316666667","6501100","汐止區"
"221036","130-UY","2018/08/02 20:09:44","新北市汐止區新台五路二段80號","121.662308333333","25.0659233333333","6501100","汐止區"
"221015","131-UY","2018/08/02 20:09:49","新北市汐止區建成路37巷1號","121.663571666667","25.0728483333333","6501100","汐止區"
"221010","269-BY","2018/08/02 20:09:40","新北市汐止區八連路一段206號","121.642458333333","25.080975","6501100","汐止區"
"221012","278-VK","2018/08/02 20:09:54","新北市汐止區汐平路一段112號","121.685111666667","25.0689566666667","6501100","汐止區"
"221023","279-VK","2018/08/02 20:09:48","新北市汐止區明峰街309號","121.625056666667","25.0675116666667","6501100","汐止區"
"221032","280-BY","2018/08/02 20:09:49","新北市汐止區弘道街8巷1弄2號","121.617055","25.0482983333333","6501100","汐止區"
"221027","281-BY","2018/08/02 20:09:50","新北市汐止區中正路129號","121.66015","25.0692683333333","6501100","汐止區"
"221029","298-VK","2018/08/02 20:09:39","新北市汐止區樟樹一路119巷8-6號","121.64125","25.0644366666667","6501100","汐止區"
"221021","299-VK","2018/08/02 20:09:47","新北市汐止區新台五路一段154號","121.654011666667","25.062355","6501100","汐止區"
"221002","129-UY","2018/08/02 20:09:50","新北市汐止區工建路328號","121.633925","25.0599833333333","6501100","汐止區"
"221035","622-UM","2018/08/02 20:09:40","新北市汐止區長江街67巷2弄7號","121.656715","25.07248","6501100","汐止區"
"221025","623-UM","2018/08/02 20:09:40","新北市汐止區秀峰路80號","121.659908333333","25.0641583333333","6501100","汐止區"
"221038","646-BX","2018/08/02 20:09:42","新北市汐止區橋東街5巷2號","121.66705","25.0759033333333","6501100","汐止區"
"221033","647-BX","2018/08/02 20:09:47","新北市汐止區東勢街201巷104號","121.633578333333","25.0428916666667","6501100","汐止區"
"221018","753-BX","2018/08/02 20:09:49","新北市汐止區茄福街35巷25號","121.673176666667","25.0664366666667","6501100","汐止區"
"220080","200-UY","2018/08/02 20:09:53","新北市板橋區大觀路二段153巷6號","121.445958333333","25.00057","6500100","板橋區"
"220101","245-BX","2018/08/02 20:09:39","新北市板橋區雙十路二段69巷12號","121.474761666667","25.0263066666667","6500100","板橋區"
"220053","285-VK","2018/08/02 20:09:49","新北市板橋區懷仁街64號","121.477063333333","25.0186333333333","6500100","板橋區"
"220083","286-VK","2018/08/02 20:09:52","新北市板橋區僑中二街90巷30-2號","121.444826666667","25.00941","6500100","板橋區"
"220081","287-VK","2018/08/02 20:09:46","新北市板橋區僑中一街124巷18弄45號","121.447971666667","25.0135483333333","6500100","板橋區"
"220061","293-UM","2018/08/02 20:09:48","新北市板橋區縣民大道二段200巷15號","121.470181666667","25.0174483333333","6500100","板橋區"
"242015","281-VK","2018/08/02 20:09:34","新北市新莊區中平路26巷36號","121.446343333333","25.0432783333333","6500500","新莊區"
"220092","307-R5","2018/08/02 20:09:50","新北市板橋區文化路一段27-1號","121.460168333333","25.012715","6500100","板橋區"
"220098","317-R6","2018/08/02 20:09:37","新北市板橋區新海路72巷75號","121.461461666667","25.0232866666667","6500100","板橋區"
"220064","486-VK","2018/08/02 20:09:49","新北市板橋區長安街331巷27號","121.473643333333","25.0126366666667","6500100","板橋區"
"220088","491-VK","2018/08/02 20:09:46","新北市板橋區懷德街211號","121.480743333333","25.0290216666667","6500100","板橋區"
"220035","560-BX","2018/08/02 20:09:42","新北市板橋區新生街52號","121.456876666667","25.0210533333333","6500100","板橋區"
"220103","561-BX","2018/08/02 20:09:50","新北市板橋區自由路2號","121.465451666667","25.0222883333333","6500100","板橋區"
"220093","689-BX","2018/08/02 20:09:49","新北市板橋區溪頭街82號","121.458138333333","25.03021","6500100","板橋區"
"220102","KEA-2699","2018/08/02 20:09:47","新北市板橋區懷德街76巷8號","121.47759","25.0317483333333","6500100","板橋區"
"220055","827-TW","2018/08/02 20:09:50","新北市板橋區仁愛路84號","121.460963333333","24.9996266666667","6500100","板橋區"
"220067","829-TW","2018/08/02 20:09:35","新北市板橋區民生路一段80號","121.473421666667","25.0154933333333","6500100","板橋區"
"220068","830-TW","2018/08/02 20:09:43","新北市板橋區中山路二段312號","121.479921666667","25.019055","6500100","板橋區"
"220089","833-TW","2018/08/02 20:09:46","新北市板橋區互助街33號","121.461416666667","25.02676","6500100","板橋區"
"220074","895-R6","2018/08/02 20:09:52","新北市板橋區府後街8號","121.459006666667","25.010565","6500100","板橋區"
"220073","985-R7","2018/08/02 20:06:56","新北市板橋區大觀路一段27號","121.45001","25.00849","6500100","板橋區"
"220097","AAC-210","2018/08/02 20:09:35","新北市板橋區光正街18巷9號","121.462591666667","25.0175816666667","6500100","板橋區"
"220070","AAC-253","2018/08/02 20:09:53","新北市板橋區四川路二段245巷93號","121.452885","24.9932316666667","6500100","板橋區"
"235068","KEA-2873","2018/08/02 20:09:47","新北市中和區福祥路72號","121.499268333333","25.00542","6500300","中和區"
