"lineid","car","time","location","longitude","latitude","cityid","cityname"
"234077","969-R7","2018/08/02 21:38:52","新北市中和區橋和路281巷1號","121.495831666667","25.0077333333333","6500400","永和區"
"231047","187-VK","2018/08/02 21:26:45","新北市新店區安興路65巷18號","121.516103333333","24.9732783333333","6500600","新店區"
"231063","616-UM","2018/08/02 21:36:44","新北市新店區安康路二段341巷1號","121.497056666667","24.9553416666667","6500600","新店區"
"231061","619-UM","2018/08/02 21:16:29","新北市新店區永平街45號","121.516161666667","24.98398","6500600","新店區"
"241022","060-VK","2018/08/02 21:38:53","新北市八里區中山路三段382號","121.36856","25.1359266666667","6500200","三重區"
"241005","262-UM","2018/08/02 21:37:23","新北市三重區碧華街50號","121.483518333333","25.081275","6500200","三重區"
"241025","271-UM","2018/08/02 21:23:46","新北市三重區忠孝路三段84巷5號","121.480196666667","25.064365","6500200","三重區"
"241006","AAD-863","2018/08/02 21:37:32","新北市八里區中山路三段335號","121.376816666667","25.140305","6500200","三重區"
"241033","AAC-255","2018/08/02 21:25:13","新北市三重區光復路二段88巷38號","121.470456666667","25.057215","6500200","三重區"
"247010","KEA-2869","2018/08/02 21:39:03","新北市五股區凌雲路三段24巷21-9號","121.433781666667","25.1076216666667","6501400","蘆洲區"
"247014","546-UM","2018/08/02 21:23:26","新北市蘆洲區中正路261號","121.467531666667","25.0872616666667","6501400","蘆洲區"
"247006","336-TH","2018/08/02 21:35:38","新北市八里區荖阡坑路32號","121.403656666667","25.1275383333333","6501400","蘆洲區"
"251009","008-UM","2018/08/02 21:33:54","新北市淡水區民族路29巷3弄19號","121.464096666667","25.13719","6501000","淡水區"
"251004","009-UM","2018/08/02 21:28:34","新北市淡水區民族路2號","121.460378333333","25.1369","6501000","淡水區"
"251005","010-UM","2018/08/02 21:36:15","新北市淡水區水源街一段85-1號","121.445141666667","25.17235","6501000","淡水區"
"251001","011-UM","2018/08/02 21:33:58","新北市淡水區新市二路三段152號","121.435368333333","25.1942316666667","6501000","淡水區"
"251013","KEA-2871","2018/08/02 21:30:34","新北市淡水區埤島57號","121.460563333333","25.1961566666667","6501000","淡水區"
"251016","179-VK","2018/08/02 21:37:29","新北市淡水區淡金路三段170號","121.448763333333","25.2029983333333","6501000","淡水區"
"251014","180-VK","2018/08/02 21:30:31","新北市淡水區溪口1-2號","121.447518333333","25.2392266666667","6501000","淡水區"
"251008","181-VK","2018/08/02 21:24:30","新北市淡水區水源街二段174號","121.455813333333","25.1756866666667","6501000","淡水區"
"251010","413-VK","2018/08/02 21:31:41","新北市淡水區沙崙路25巷21號","121.420508333333","25.182515","6501000","淡水區"
"251012","441-VK","2018/08/02 21:39:06","新北市淡水區淡金路四段215號","121.451706666667","25.2223683333333","6501000","淡水區"
"251007","442-VK","2018/08/02 21:33:19","新北市淡水區淡金路一段69號","121.458213333333","25.17352","6501000","淡水區"
"251006","561-UM","2018/08/02 21:36:20","新北市淡水區公明街58號","121.443453333333","25.1686166666667","6501000","淡水區"
"251011","650-BX","2018/08/02 21:27:24","新北市淡水區新民街150號","121.437383333333","25.17815","6501000","淡水區"
"251003","766-UM","2018/08/02 21:38:47","新北市淡水區新春街55號","121.438058333333","25.1819266666667","6501000","淡水區"
"221010","269-BY","2018/08/02 21:16:57","新北市汐止區汐萬路一段256巷3號","121.65213","25.07474","6501100","汐止區"
"220070","AAC-253","2018/08/02 21:39:13","新北市板橋區大觀路一段29巷131弄125號","121.451808333333","25.0054166666667","6500100","板橋區"
