"lineid","car","time","location","longitude","latitude","cityid","cityname"
"231061","619-UM","2018/08/02 21:48:37","新北市新店區安華路28-1號","121.519486666667","24.9606516666667","6500600","新店區"
"241022","060-VK","2018/08/02 21:57:34","新北市五股區凌雲路三段17-2號","121.430266666667","25.1082783333333","6500200","三重區"
"241005","262-UM","2018/08/02 21:45:43","新北市三重區五華街141巷22號","121.491756666667","25.085395","6500200","三重區"
"241006","AAD-863","2018/08/02 21:57:53","新北市五股區凌雲路二段18巷12號","121.443085","25.106545","6500200","三重區"
"247010","KEA-2869","2018/08/02 21:55:23","新北市林口區太平里180號","121.367126666667","25.1336916666667","6501400","蘆洲區"
"247006","336-TH","2018/08/02 21:57:18","新北市八里區荖阡坑路34號","121.401576666667","25.1296416666667","6501400","蘆洲區"
"251009","008-UM","2018/08/02 21:58:14","新北市淡水區民族路35巷7號","121.46475","25.1374866666667","6501000","淡水區"
"251004","009-UM","2018/08/02 21:51:50","新北市淡水區民權路233號","121.460543333333","25.1272833333333","6501000","淡水區"
"251005","010-UM","2018/08/02 21:59:15","新北市淡水區鄧公路30巷2弄28號","121.453755","25.1692166666667","6501000","淡水區"
"251001","011-UM","2018/08/02 21:58:38","新北市淡水區新市三路一段306號","121.429428333333","25.197355","6501000","淡水區"
"251014","180-VK","2018/08/02 21:59:11","新北市淡水區下圭柔山90-8號","121.43155","25.21177","6501000","淡水區"
"251008","181-VK","2018/08/02 21:43:50","新北市淡水區水源街二段2號","121.448746666667","25.1734733333333","6501000","淡水區"
"251010","413-VK","2018/08/02 21:56:41","新北市淡水區中正路二段211號","121.426201666667","25.189075","6501000","淡水區"
"251007","442-VK","2018/08/02 21:58:59","新北市淡水區北新路184巷50號","121.450813333333","25.1776633333333","6501000","淡水區"
"251006","561-UM","2018/08/02 21:58:20","新北市淡水區中正路11巷3號","121.437851666667","25.1707983333333","6501000","淡水區"
"251011","650-BX","2018/08/02 21:39:24","新北市淡水區新民街280號","121.435311666667","25.181895","6501000","淡水區"
"251003","766-UM","2018/08/02 21:53:21","新北市淡水區新春街81號","121.438775","25.1824083333333","6501000","淡水區"
