"lineid","car","time","location","longitude","latitude","cityid","cityname"
"241022","060-VK","2018/08/02 22:29:53","新北市三重區金華街61巷6號","121.477448333333","25.0641916666667","6500200","三重區"
"241006","AAD-863","2018/08/02 22:29:53","新北市三重區重新路四段121號","121.48489","25.0520483333333","6500200","三重區"
"247005","336-TH","2018/08/02 22:25:36","新北市五股區中興路三段2巷10號","121.449021666667","25.080865","6501400","蘆洲區"
"251004","009-UM","2018/08/02 22:29:41","新北市淡水區民族路33號","121.46236","25.1358183333333","6501000","淡水區"
"251008","181-VK","2018/08/02 22:29:50","新北市淡水區學府路104號","121.449845","25.171785","6501000","淡水區"
"251010","413-VK","2018/08/02 22:29:41","新北市淡水區沙崙路200號","121.424671666667","25.1838933333333","6501000","淡水區"
"251007","442-VK","2018/08/02 22:29:39","新北市淡水區北新路139號","121.44947","25.1788783333333","6501000","淡水區"
"251011","650-BX","2018/08/02 22:29:44","新北市淡水區水碓街7號","121.44317","25.1771433333333","6501000","淡水區"
