"lineid","car","time","location","longitude","latitude","cityid","cityname"
"234001","149-BY","2018/09/15 08:08:59","新北市永和區福和路1號","121.52641","25.01003","6500400","永和區"
"244005","248-BX","2018/09/15 08:08:57","新北市林口區下福里135號","121.296628333333","25.1196383333333","6501700","林口區"
"222004","289-BY","2018/09/15 08:05:44","新北市深坑區昇高坑路66號","121.630305","24.9922966666667","6501800","深坑區"
"231007","189-VK","2018/09/15 08:09:01","新北市新店區新潭路一段2號","121.523111666667","24.943655","6500600","新店區"
"231008","192-VK","2018/09/15 08:08:57","新北市新店區行政街14巷1號","121.543161666667","24.9660816666667","6500600","新店區"
"235001","611-BX","2018/09/15 08:09:00","新北市中和區圓通路367巷33弄103號","121.495411666667","24.9841133333333","6500300","中和區"
"226005","5620-A6","2018/09/15 08:08:57","新北市平溪區靜安路二段551號","121.74935","25.0253116666667","6502400","平溪區"
"226007","7418-A5","2018/09/15 08:09:06","新北市平溪區十分里姜仔坑2號","121.766525","25.035235","6502400","平溪區"
"226003","AGD-0702","2018/09/15 08:09:03","新北市平溪區十分里十分街45號","121.774443333333","25.0407916666667","6502400","平溪區"
"223006","022-BY","2018/09/15 08:08:58","新北市石碇區北宜路五段1號","121.624541666667","24.9536033333333","6501900","石碇區"
"223004","437-BY","2018/09/15 08:09:04","新北市石碇區外按11-5號","121.651558333333","24.9998","6501900","石碇區"
"223001","592-UM","2018/09/15 08:03:31","新北市石碇區樟空子10-2號","121.66695","24.961945","6501900","石碇區"
"223007","661-BX","2018/09/15 08:09:05","新北市石碇區靜安路一段266號","121.683978333333","25.0090983333333","6501900","石碇區"
"223005","677-TV","2018/09/15 08:09:04","新北市石碇區外按11-5號","121.65151","24.99976","6501900","石碇區"
"227006","030-BX","2018/09/15 08:09:08","新北市雙溪區牡丹里聖南13號","121.856508333333","25.0506116666667","6502500","雙溪區"
"252004","249-BX","2018/09/15 08:08:56","新北市三芝區興華里車埕59號","121.498678333333","25.1969333333333","6502100","三芝區"
"252007","AAC-283","2018/09/15 08:08:55","新北市三芝區後厝里土地公坑999號","121.464598333333","25.2487533333333","6502100","三芝區"
"237001","159-UY","2018/09/15 08:08:50","新北市三峽區三樹路253號","121.379033333333","24.9425666666667","6500900","三峽區"
"236002","165-UM","2018/09/15 08:08:52","新北市土城區青雲路587巷9-5號","121.465813333333","24.9703783333333","6501300","土城區"
"236002","339-SR","2018/09/15 08:09:05","新北市土城區龍泉路39號","121.414268333333","24.9438716666667","6501300","土城區"
"236006","498-BY","2018/09/15 08:09:06","新北市土城區永平街51號","121.427811666667","24.9590483333333","6501300","土城區"
