"lineid","car","time","location","longitude","latitude","cityid","cityname"
"234001","149-BY","2018/09/15 08:39:19","新北市永和區永貞路149號","121.51573","25.0040516666667","6500400","永和區"
"222004","289-BY","2018/09/15 08:39:24","新北市深坑區文山路一段64號","121.623713333333","25.0006616666667","6501800","深坑區"
"231007","189-VK","2018/09/15 08:37:21","新北市新店區新潭路三段236號","121.500833333333","24.9027216666667","6500600","新店區"
"231008","192-VK","2018/09/15 08:39:36","新北市新店區新烏路三段366-1號","121.54691","24.89283","6500600","新店區"
"235001","611-BX","2018/09/15 08:39:20","新北市中和區民享街86巷27號","121.472976666667","25.0004133333333","6500300","中和區"
"226005","5620-A6","2018/09/15 08:39:37","新北市平溪區南山里南山坪126號","121.785545","25.0462466666667","6502400","平溪區"
"226007","7418-A5","2018/09/15 08:39:26","新北市平溪區東勢里芊蓁坑29號","121.730076666667","24.9796833333333","6502400","平溪區"
"226003","AGD-0702","2018/09/15 08:39:22","新北市平溪區十分里十分街236號","121.778191666667","25.0440766666667","6502400","平溪區"
"223006","022-BY","2018/09/15 08:39:37","新北市石碇區靜安路一段33號","121.642476666667","25.0119433333333","6501900","石碇區"
"223008","406-TH","2018/09/15 08:39:20","新北市石碇區碇南路二段松柏崎巷37-1號","121.678756666667","25.0233316666667","6501900","石碇區"
"223004","437-BY","2018/09/15 08:39:24","新北市石碇區崩山47-1號","121.678543333333","24.9706716666667","6501900","石碇區"
"223001","592-UM","2018/09/15 08:39:31","新北市石碇區北宜路六段直潭巷10號","121.660981666667","24.9349083333333","6501900","石碇區"
"223007","661-BX","2018/09/15 08:39:24","新北市石碇區碇南路二段松柏崎巷8號","121.67481","25.0194033333333","6501900","石碇區"
"223005","677-TV","2018/09/15 08:39:31","新北市石碇區崩山43號","121.67991","24.9665","6501900","石碇區"
"227006","030-BX","2018/09/15 08:39:28","新北市雙溪區上林里大瀨1號","121.829966666667","25.0252416666667","6502500","雙溪區"
"252004","249-BX","2018/09/15 08:39:36","新北市三芝區興華里楓子林38號","121.49054","25.2079133333333","6502100","三芝區"
"252007","AAC-283","2018/09/15 08:39:35","新北市三芝區錫板里棟板頭38-2號","121.492223333333","25.2332733333333","6502100","三芝區"
"237001","159-UY","2018/09/15 08:39:30","新北市三峽區大德路489號","121.374113333333","24.9480533333333","6500900","三峽區"
"236002","165-UM","2018/09/15 08:39:32","新北市土城區金城路二段14號","121.44931","24.9774566666667","6501300","土城區"
"236002","339-SR","2018/09/15 08:39:26","新北市土城區金城路一段12號","121.439098333333","24.9687483333333","6501300","土城區"
"236006","498-BY","2018/09/15 08:39:26","新北市土城區中央路三段249巷13號","121.428103333333","24.9635666666667","6501300","土城區"
"242001","233-RS","2018/09/15 08:39:30","新北市樹林區中山路三段214號","121.379863333333","24.9676383333333","6500500","新莊區"
