"lineid","car","time","location","longitude","latitude","cityid","cityname"
"231007","189-VK","2018/09/15 09:58:01","新北市新店區新潭路三段215巷25號","121.508171666667","24.90411","6500600","新店區"
"231008","192-VK","2018/09/15 09:57:36","新北市新店區小坑一路35巷1號","121.529153333333","24.9101933333333","6500600","新店區"
"227006","030-BX","2018/09/15 09:58:08","新北市雙溪區長源里柑腳18號","121.804673333333","25.0142666666667","6502500","雙溪區"
"252004","249-BX","2018/09/15 09:57:56","新北市三芝區福德里埔尾22號","121.504905","25.2437466666667","6502100","三芝區"
"252007","AAC-283","2018/09/15 09:57:55","新北市三芝區新庄里新庄子87號","121.510081666667","25.269845","6502100","三芝區"
"242001","233-RS","2018/09/15 09:28:44","新北市新莊區環河路636-7號","121.437375","25.011695","6500500","新莊區"
