"lineid","car","time","location","longitude","latitude","cityid","cityname"
"234044","148-BY","2018/09/15 12:38:28","新北市永和區永元路126號","121.522776666667","25.0029266666667","6500400","永和區"
"234001","149-BY","2018/09/15 12:38:27","新北市永和區福和路1號","121.526283333333","25.00982","6500400","永和區"
"234078","298-R6","2018/09/15 12:38:34","新北市永和區林森路30號","121.525735","25.0051766666667","6500400","永和區"
"234036","336-UY","2018/09/15 12:38:41","新北市永和區福和路1號","121.526508333333","25.009985","6500400","永和區"
"234084","338-UY","2018/09/15 12:38:28","新北市永和區中正路342號","121.517771666667","25.0001516666667","6500400","永和區"
"234068","552-UM","2018/09/15 12:38:44","新北市永和區福和路1號","121.525436666667","25.0093166666667","6500400","永和區"
"234015","745-BX","2018/09/15 12:38:25","新北市永和區福和路1號","121.526355","25.0095","6500400","永和區"
"234028","746-BX","2018/09/15 12:38:29","新北市永和區福和路7巷15弄20號","121.52622","25.0072733333333","6500400","永和區"
"234012","KEA-2591","2018/09/15 12:38:26","新北市永和區保安路116號","121.509263333333","25.0156633333333","6500400","永和區"
"234040","862-TW","2018/09/15 12:38:35","新北市永和區永貞路306號","121.511868333333","25.0048316666667","6500400","永和區"
"234025","9371-KE","2018/09/15 12:38:29","新北市永和區福和路1號","121.52679","25.0101633333333","6500400","永和區"
"234010","9373-KE","2018/09/15 12:38:29","新北市永和區福和路1號","121.525611666667","25.0093116666667","6500400","永和區"
"248017","225-UY","2018/09/15 12:38:36","新北市五股區中興路二段83巷26-6號","121.460105","25.075265","6501500","五股區"
"234076","969-R7","2018/09/15 12:38:42","新北市永和區中正路78號","121.51368","24.9951966666667","6500400","永和區"
"234066","AAC-212","2018/09/15 12:38:45","新北市永和區豫溪街217巷29號","121.52459","25.0104583333333","6500400","永和區"
"231023","KEA-2219","2018/09/15 12:38:30","新北市新店區安一路一段1-1號","121.520118333333","24.9611616666667","6500600","新店區"
"231035","719-UM","2018/09/15 12:38:36","新北市新店區安一路一段1-1號","121.519478333333","24.961115","6500600","新店區"
"235031","255-BX","2018/09/15 12:38:43","新北市中和區新生街136號","121.483596666667","25.0009883333333","6500300","中和區"
"235001","611-BX","2018/09/15 12:38:24","新北市中和區員山路111號","121.480841666667","24.9949083333333","6500300","中和區"
"228005","097-TW","2018/09/15 12:38:34","新北市貢寮區福連里蓬萊街16號","121.984518333333","24.9950483333333","6502600","貢寮區"
"228004","212-TW","2018/09/15 12:38:30","新北市貢寮區吉林里枋腳街7-1號","121.888086666667","25.00899","6502600","貢寮區"
"207002","749-BX","2018/09/15 12:38:28","新北市萬里區雙興里太和路7-2號","121.658616666667","25.1741583333333","6502800","萬里區"
"221010","269-BY","2018/09/15 12:38:26","新北市汐止區康寧街376號","121.629013333333","25.067645","6501100","汐止區"
