"lineid","car","time","location","longitude","latitude","cityid","cityname"
"234044","148-BY","2018/09/15 12:58:48","新北市永和區得和路373巷16弄1號","121.525115","25.0003266666667","6500400","永和區"
"234001","149-BY","2018/09/15 12:58:47","新北市永和區民生路67巷22號","121.52381","24.99718","6500400","永和區"
"234005","207-UY","2018/09/15 12:58:29","新北市永和區永和路二段46號","121.514806666667","25.0106616666667","6500400","永和區"
"234078","298-R6","2018/09/15 12:58:34","新北市永和區國中路198號","121.522343333333","25.0062666666667","6500400","永和區"
"234036","336-UY","2018/09/15 12:58:41","新北市永和區成功路二段203號","121.526658333333","24.9959983333333","6500400","永和區"
"234062","337-UY","2018/09/15 12:58:36","新北市永和區秀朗路一段199號","121.518028333333","25.0035866666667","6500400","永和區"
"234084","338-UY","2018/09/15 12:58:40","新北市永和區永利路1號","121.517353333333","25.006125","6500400","永和區"
"234068","552-UM","2018/09/15 12:58:44","新北市永和區竹林路96巷21號","121.518545","25.01183","6500400","永和區"
"234015","745-BX","2018/09/15 12:58:45","新北市永和區永和路二段299號","121.516085","25.0161466666667","6500400","永和區"
"234028","746-BX","2018/09/15 12:58:29","新北市永和區秀朗路二段258號","121.526156666667","24.9986916666667","6500400","永和區"
"234052","KEA-2590","2018/09/15 12:58:40","新北市永和區竹林路64號","121.518228333333","25.0134633333333","6500400","永和區"
"234012","KEA-2591","2018/09/15 12:58:46","新北市永和區信義路15號","121.514323333333","25.0120233333333","6500400","永和區"
"234060","AAD-866","2018/09/15 12:58:36","新北市永和區福和路309巷1號","121.516318333333","25.0070783333333","6500400","永和區"
"234040","862-TW","2018/09/15 12:58:35","新北市永和區永貞路267號","121.511828333333","25.00473","6500400","永和區"
"234048","863-TW","2018/09/15 12:58:35","新北市永和區保安路2號","121.510798333333","25.0174883333333","6500400","永和區"
"234025","9371-KE","2018/09/15 12:58:29","新北市永和區永和路一段45-1號","121.512866666667","25.006295","6500400","永和區"
"234010","9373-KE","2018/09/15 12:58:29","新北市永和區文化路113巷10號","121.512976666667","25.0145683333333","6500400","永和區"
"248017","225-UY","2018/09/15 12:58:36","新北市五股區中興路二段83巷26-6號","121.460073333333","25.0752333333333","6501500","五股區"
"234022","9380-KE","2018/09/15 12:58:28","新北市永和區竹林路75巷33弄3號","121.520543333333","25.0142883333333","6500400","永和區"
"234076","969-R7","2018/09/15 12:58:42","新北市永和區智光街126號","121.515051666667","24.9956283333333","6500400","永和區"
"234066","AAC-212","2018/09/15 12:58:25","新北市永和區中和路625號","121.513018333333","25.0049366666667","6500400","永和區"
"234001","AAC-295","2018/09/15 12:58:42","新北市永和區永平路9號","121.513466666667","25.0087133333333","6500400","永和區"
"244005","248-BX","2018/09/15 12:58:28","新北市林口區中山路153號","121.386705","25.0793083333333","6501700","林口區"
"231002","002-UM","2018/09/15 12:58:32","新北市新店區安華路28-1號","121.519646666667","24.9607566666667","6500600","新店區"
"231027","0291-UT","2018/09/15 12:58:43","新北市新店區安華路1-1號","121.519171666667","24.9604366666667","6500600","新店區"
"231028","046-UY","2018/09/15 12:58:26","新北市新店區安華路28-1號","121.51951","24.9610066666667","6500600","新店區"
"231001","047-UY","2018/09/15 12:58:37","新北市新店區安一路一段1-1號","121.519103333333","24.9609783333333","6500600","新店區"
"231005","106-UY","2018/09/15 12:58:43","新北市新店區安華路28-1號","121.519495","24.9607833333333","6500600","新店區"
"231010","107-UY","2018/09/15 12:58:38","新北市新店區安一路一段1-1號","121.519221666667","24.9612883333333","6500600","新店區"
"231020","108-UY","2018/09/15 12:58:36","新北市新店區安一路一段1-1號","121.519385","24.961245","6500600","新店區"
"231036","110-UY","2018/09/15 12:58:42","新北市新店區安康路一段359-27號","121.51862","24.9613783333333","6500600","新店區"
"231023","KEA-2219","2018/09/15 12:58:30","新北市新店區安一路一段1-1號","121.520046666667","24.9611683333333","6500600","新店區"
"231003","268-BY","2018/09/15 12:58:34","新北市新店區安華路3號","121.518976666667","24.960525","6500600","新店區"
"231017","AAD-862","2018/09/15 12:58:43","新北市新店區安一路一段1-1號","121.519876666667","24.9611316666667","6500600","新店區"
"231013","513-UM","2018/09/15 12:58:31","新北市新店區安一路一段1-1號","121.519666666667","24.96117","6500600","新店區"
"231030","619-UM","2018/09/15 12:58:26","新北市新店區安華路28-1號","121.51938","24.9608583333333","6500600","新店區"
"231035","719-UM","2018/09/15 12:58:36","新北市新店區安一路一段1-1號","121.51932","24.9612533333333","6500600","新店區"
"231033","720-UM","2018/09/15 12:58:28","新北市新店區安一路一段1-1號","121.518973333333","24.9613716666667","6500600","新店區"
"235028","005-UY","2018/09/15 12:58:33","新北市中和區員山路36巷16-3號","121.484926666667","24.9917366666667","6500300","中和區"
"235027","006-UY","2018/09/15 12:58:27","新北市中和區員山路36巷16-3號","121.485121666667","24.99127","6500300","中和區"
"235029","098-UM","2018/09/15 12:58:31","新北市中和區中山路二段293號","121.495836666667","25.0020783333333","6500300","中和區"
"235022","151-BY","2018/09/15 12:58:44","新北市中和區錦和路400號","121.491","24.9898333333333","6500300","中和區"
"235002","185-VK","2018/09/15 12:58:46","新北市中和區成功路139號","121.525986666667","24.9904016666667","6500300","中和區"
"235031","255-BX","2018/09/15 12:58:43","新北市中和區中正路899號","121.484198333333","25.0050483333333","6500300","中和區"
"235006","KEA-2878","2018/09/15 12:58:28","新北市中和區員山路36巷16-2號","121.485316666667","24.9916883333333","6500300","中和區"
"235034","558-UM","2018/09/15 12:58:26","新北市中和區員山路36巷16-3號","121.484991666667","24.9916966666667","6500300","中和區"
"235018","640-BX","2018/09/15 12:58:29","新北市中和區員山路36巷16-2號","121.485183333333","24.9918416666667","6500300","中和區"
"235005","802-TS","2018/09/15 12:58:34","新北市中和區員山路36巷16-2號","121.485331666667","24.9917","6500300","中和區"
"235016","805-TS","2018/09/15 12:58:40","新北市中和區員山路36巷16號","121.484483333333","24.9914116666667","6500300","中和區"
"235017","900-TW","2018/09/15 12:58:37","新北市中和區員山路36巷16號","121.484636666667","24.9917066666667","6500300","中和區"
"235001","AAC-213","2018/09/15 12:58:38","新北市中和區中正路291號","121.49328","24.9939533333333","6500300","中和區"
"235026","251-BX","2018/09/15 12:58:38","新北市中和區員山路36巷16-3號","121.484935","24.9916516666667","6500300","中和區"
"228005","097-TW","2018/09/15 12:58:34","新北市貢寮區福連里香蘭街2-1號","121.970365","25.0240416666667","6502600","貢寮區"
"228004","212-TW","2018/09/15 12:58:30","新北市貢寮區吉林里內寮街10號","121.888903333333","24.9918466666667","6502600","貢寮區"
"207002","749-BX","2018/09/15 12:58:28","新北市萬里區雙興里大坪路39號","121.625383333333","25.1714866666667","6502800","萬里區"
"252005","073-UM","2018/09/15 12:58:41","新北市三芝區忠孝街148-1號","121.506145","25.2583216666667","6502100","三芝區"
"236006","498-BY","2018/09/15 12:58:40","新北市土城區亞洲路28號","121.436248333333","24.9743933333333","6501300","土城區"
"221010","269-BY","2018/09/15 12:58:26","新北市汐止區忠三街8號","121.624756666667","25.0784616666667","6501100","汐止區"
"221025","623-UM","2018/09/15 12:58:29","新北市汐止區大同路一段511號","121.645258333333","25.0622066666667","6501100","汐止區"
"235032","KEA-2873","2018/09/15 12:58:40","新北市中和區員山路36巷16-3號","121.48502","24.9913333333333","6500300","中和區"
"235025","KEA-2875","2018/09/15 12:58:16","新北市中和區和城路一段271巷1號","121.485435","24.9921216666667","6500300","中和區"
