"lineid","car","time","location","longitude","latitude","cityid","cityname"
"234044","148-BY","2018/09/15 13:29:08","新北市永和區秀朗路二段232號","121.526211666667","24.9994","6500400","永和區"
"234001","149-BY","2018/09/15 13:29:07","新北市永和區得和路324號","121.52316","24.999585","6500400","永和區"
"234005","207-UY","2018/09/15 13:29:09","新北市永和區中山路一段186號","121.5091","25.008985","6500400","永和區"
"234078","298-R6","2018/09/15 13:29:13","新北市永和區林森路4號","121.526716666667","25.0058083333333","6500400","永和區"
"234036","336-UY","2018/09/15 13:29:01","新北市永和區成功路二段1巷11號","121.527406666667","25.0015","6500400","永和區"
"234062","337-UY","2018/09/15 13:29:16","新北市永和區中正路368巷1弄88號","121.520505","25.00075","6500400","永和區"
"234084","338-UY","2018/09/15 13:29:08","新北市永和區林森路80號","121.523503333333","25.0038333333333","6500400","永和區"
"234068","552-UM","2018/09/15 13:29:04","新北市永和區警光街12號","121.519725","25.0095833333333","6500400","永和區"
"234015","745-BX","2018/09/15 13:29:05","新北市永和區環河西路一段63號","121.513388333333","25.0180833333333","6500400","永和區"
"234028","746-BX","2018/09/15 13:29:10","新北市永和區民生路49號","121.522711666667","24.99786","6500400","永和區"
"234052","KEA-2590","2018/09/15 13:29:00","新北市永和區竹林路9號","121.516653333333","25.0149183333333","6500400","永和區"
"234012","KEA-2591","2018/09/15 13:29:06","新北市永和區中山路一段184巷10弄16號","121.509016666667","25.0096266666667","6500400","永和區"
"234060","AAD-866","2018/09/15 13:28:59","新北市永和區中正路399號","121.517113333333","25.00423","6500400","永和區"
"234040","862-TW","2018/09/15 13:29:15","新北市永和區中和路523號","121.51104","25.0028383333333","6500400","永和區"
"234048","863-TW","2018/09/15 13:29:14","新北市永和區信義路126號","121.512371666667","25.0148083333333","6500400","永和區"
"234025","9371-KE","2018/09/15 13:29:09","新北市永和區中正路708號","121.515983333333","25.0100383333333","6500400","永和區"
"234010","9373-KE","2018/09/15 13:29:09","新北市永和區仁愛路141巷3弄6號","121.511945","25.0124566666667","6500400","永和區"
"248017","225-UY","2018/09/15 13:29:17","新北市五股區御史路300號","121.41807","25.1077616666667","6501500","五股區"
"234022","9380-KE","2018/09/15 13:29:06","新北市永和區環河東路二段36號","121.52275","25.0124716666667","6500400","永和區"
"234076","969-R7","2018/09/15 13:29:02","新北市永和區民治街82號","121.517461666667","24.998405","6500400","永和區"
"234072","AAC-211","2018/09/15 13:29:10","新北市永和區永和路二段314號","121.516195","25.0161983333333","6500400","永和區"
"234066","AAC-212","2018/09/15 13:29:05","新北市永和區保平路188號","121.510501666667","25.0064633333333","6500400","永和區"
"234001","AAC-295","2018/09/15 13:29:02","新北市永和區永和路一段118號","121.513953333333","25.00785","6500400","永和區"
"231002","002-UM","2018/09/15 13:29:12","新北市新店區環河路60號","121.537063333333","24.962605","6500600","新店區"
"231027","0291-UT","2018/09/15 13:29:02","新北市新店區北新路一段35號","121.537966666667","24.9591383333333","6500600","新店區"
"231028","046-UY","2018/09/15 13:29:06","新北市新店區安華路28-1號","121.519518333333","24.9608783333333","6500600","新店區"
"231001","047-UY","2018/09/15 13:28:57","新北市新店區中央路165-1號","121.532876666667","24.970625","6500600","新店區"
"231005","106-UY","2018/09/15 13:28:43","新北市新店區中興路二段252號","121.547428333333","24.9759366666667","6500600","新店區"
"231010","107-UY","2018/09/15 13:28:58","新北市新店區中央路5號","121.533485","24.9786883333333","6500600","新店區"
"231020","108-UY","2018/09/15 13:28:56","新北市新店區北宜路一段119號","121.540278333333","24.9539666666667","6500600","新店區"
"231036","110-UY","2018/09/15 13:29:02","新北市新店區建業路20號","121.481771666667","24.9535533333333","6500600","新店區"
"231012","187-VK","2018/09/15 13:28:58","新北市新店區力行路11巷57號","121.53852","24.9617166666667","6500600","新店區"
"231023","KEA-2219","2018/09/15 13:29:10","新北市新店區新店路13號","121.540298333333","24.9528883333333","6500600","新店區"
"231026","256-BX","2018/09/15 13:29:02","新北市新店區環河路1-2號","121.538096666667","24.96157","6500600","新店區"
"231003","268-BY","2018/09/15 13:29:14","新北市新店區安康路一段52巷1號","121.529828333333","24.9612833333333","6500600","新店區"
"231018","278-BY","2018/09/15 13:29:11","新北市新店區中央路208號","121.5302","24.97389","6500600","新店區"
"231017","AAD-862","2018/09/15 13:29:03","新北市新店區新烏路一段9-1號","121.547288333333","24.9513783333333","6500600","新店區"
"231038","3712-VJ","2018/09/15 13:29:11","新北市新店區安華路28-1號","121.519225","24.960625","6500600","新店區"
"231037","4716-K9","2018/09/15 13:28:59","新北市新店區安豐路30-1號","121.50068","24.95689","6500600","新店區"
"231025","4715-K9","2018/09/15 13:28:55","新北市新店區中央六街56號","121.527873333333","24.975755","6500600","新店區"
"231013","513-UM","2018/09/15 13:29:11","新北市新店區中央路151號","121.529248333333","24.9721616666667","6500600","新店區"
"231006","617-UM","2018/09/15 13:29:15","新北市新店區安康路一段52巷2號","121.530046666667","24.9611783333333","6500600","新店區"
"231030","619-UM","2018/09/15 13:29:06","新北市新店區安華路1-1號","121.519545","24.960315","6500600","新店區"
"231034","641-BX","2018/09/15 13:29:00","新北市新店區安華路16號","121.51683","24.9581383333333","6500600","新店區"
"231035","719-UM","2018/09/15 13:29:16","新北市新店區安一路一段1-1號","121.519535","24.9613116666667","6500600","新店區"
"231033","720-UM","2018/09/15 13:29:08","新北市新店區安豐路49號","121.500025","24.9540533333333","6500600","新店區"
"231029","897-TW","2018/09/15 13:29:08","新北市新店區安康路二段356號","121.502181666667","24.9574683333333","6500600","新店區"
"231004","899-TW","2018/09/15 13:29:08","新北市新店區安康路一段258號","121.52066","24.9639466666667","6500600","新店區"
"231024","AKT-0513","2018/09/15 13:29:06","新北市新店區中正路128巷11號","121.542488333333","24.9720166666667","6500600","新店區"
"235030","003-UY","2018/09/15 13:29:11","新北市中和區中山路二段120號","121.502758333333","25.00377","6500300","中和區"
"235028","005-UY","2018/09/15 13:29:13","新北市中和區連城路139巷63號","121.496915","24.9971283333333","6500300","中和區"
"235027","006-UY","2018/09/15 13:29:07","新北市中和區中正路532號","121.487735","24.9943533333333","6500300","中和區"
"235020","096-UM","2018/09/15 13:29:07","新北市中和區新生街132號","121.483591666667","25.0011016666667","6500300","中和區"
"235003","097-UM","2018/09/15 13:29:14","新北市中和區景平路166號","121.517058333333","24.9922566666667","6500300","中和區"
"235029","098-UM","2018/09/15 13:29:11","新北市中和區莊敬路49巷20弄24號","121.502818333333","25.0058566666667","6500300","中和區"
"235004","150-BY","2018/09/15 13:29:14","新北市中和區安平路59號","121.509546666667","24.995095","6500300","中和區"
"235022","151-BY","2018/09/15 13:29:03","新北市中和區圓通路369巷126號","121.488716666667","24.9815366666667","6500300","中和區"
"235055","183-VK","2018/09/15 13:29:00","新北市中和區民享街283號","121.471428333333","24.9961383333333","6500300","中和區"
"235002","185-VK","2018/09/15 13:29:05","新北市中和區秀朗路三段128巷17弄6號","121.524198333333","24.9934833333333","6500300","中和區"
"235013","186-VK","2018/09/15 13:29:08","新北市中和區景安路157號","121.505305","24.99481","6500300","中和區"
"235031","255-BX","2018/09/15 13:29:03","新北市中和區連城路340巷14弄18號","121.482948333333","24.9971766666667","6500300","中和區"
"235036","301-VK","2018/09/15 13:29:07","新北市中和區錦和路85號","121.489906666667","24.995955","6500300","中和區"
"235007","352-BY","2018/09/15 13:29:17","新北市中和區景平路335號","121.505661666667","24.99312","6500300","中和區"
"235006","KEA-2878","2018/09/15 13:28:48","新北市中和區秀朗路三段150巷2號","121.524118333333","24.9909266666667","6500300","中和區"
"235014","4979-A6","2018/09/15 13:29:15","新北市中和區景新街410巷18弄24號","121.511896666667","24.9900633333333","6500300","中和區"
"235033","4980-A6","2018/09/15 13:29:02","新北市中和區連城路127巷36號","121.497006666667","24.9976733333333","6500300","中和區"
"235034","558-UM","2018/09/15 13:29:06","新北市中和區南華路30號","121.503343333333","24.996195","6500300","中和區"
"235009","565-BX","2018/09/15 13:29:03","新北市中和區南山路236巷22弄23號","121.504948333333","24.989255","6500300","中和區"
"235018","640-BX","2018/09/15 13:29:09","新北市中和區民享街117巷1號","121.474638333333","24.9992233333333","6500300","中和區"
"235011","732-UM","2018/09/15 13:28:50","新北市中和區復興路268號","121.50294","24.990385","6500300","中和區"
"235035","783-BX","2018/09/15 13:29:14","新北市中和區中板路30號","121.482898333333","25.01204","6500300","中和區"
"235021","801-TS","2018/09/15 13:29:11","新北市中和區民安街47號","121.479833333333","25.0001616666667","6500300","中和區"
"235005","802-TS","2018/09/15 13:29:14","新北市中和區中和路324巷6弄2號","121.50973","25.000535","6500300","中和區"
"235016","805-TS","2018/09/15 13:29:00","新北市中和區興南路二段133號","121.505208333333","24.9841483333333","6500300","中和區"
"235012","896-TW","2018/09/15 13:29:13","新北市中和區建八路12號","121.486688333333","24.9986316666667","6500300","中和區"
"235017","900-TW","2018/09/15 13:28:57","新北市中和區民享街467號","121.46983","24.9925316666667","6500300","中和區"
"235024","911-UM","2018/09/15 13:28:49","新北市中和區員山路150-24號","121.48129","24.9980666666667","6500300","中和區"
"235015","157-BY","2018/09/15 13:29:16","新北市中和區興南路二段142巷20弄8號","121.502705","24.984545","6500300","中和區"
"235001","AAC-213","2018/09/15 13:28:58","新北市中和區景德街89巷1號","121.516271666667","24.9913266666667","6500300","中和區"
"235023","AAC-215","2018/09/15 13:28:58","新北市中和區員山路36巷16-3號","121.484936666667","24.9913566666667","6500300","中和區"
"220034","073-UY","2018/09/15 13:29:12","新北市板橋區南雅南路二段120-11號","121.452075","24.9993616666667","6500100","板橋區"
"247023","500-BY","2018/09/15 13:29:17","新北市五股區中興路三段2巷10號","121.449143333333","25.0808566666667","6501400","蘆洲區"
"247009","056-VK","2018/09/15 13:29:10","新北市五股區中興路三段163號","121.449196666667","25.0807033333333","6501400","蘆洲區"
"235026","251-BX","2018/09/15 13:28:58","新北市中和區景平路743號","121.496288333333","25.0045416666667","6500300","中和區"
"228005","097-TW","2018/09/15 13:29:14","新北市貢寮區美豐里文秀坑8號","121.902331666667","25.0502316666667","6502600","貢寮區"
"228004","212-TW","2018/09/15 13:29:10","新北市貢寮區龍崗里石壁坑街17號","121.910373333333","24.9895233333333","6502600","貢寮區"
"253003","6232-TK","2018/09/15 13:29:03","新北市石門區內石門81-9號","121.566998333333","25.26542","6502200","石門區"
"253001","6251-TK","2018/09/15 13:29:02","新北市石門區下員坑20號","121.511308333333","25.2789683333333","6502200","石門區"
"253002","637-UY","2018/09/15 13:29:11","新北市石門區老崩山40-2號","121.562513333333","25.267365","6502200","石門區"
"253004","8270-PC","2018/09/15 13:27:42","新北市石門區竹子湖11號","121.617896666667","25.25857","6502200","石門區"
"207002","749-BX","2018/09/15 13:29:08","新北市萬里區崁腳里崁腳路166號","121.645075","25.1558283333333","6502800","萬里區"
"252005","073-UM","2018/09/15 13:29:01","新北市三芝區圓山里木屐寮31號","121.531698333333","25.2209016666667","6502100","三芝區"
"207001","662-BX","2018/09/15 13:27:47","新北市萬里區龜吼里海景路1號","121.683733333333","25.1912966666667","6502800","萬里區"
"236006","498-BY","2018/09/15 13:29:00","新北市土城區慶祥街96巷1號","121.435673333333","24.9728516666667","6501300","土城區"
"221010","269-BY","2018/09/15 13:29:06","新北市汐止區長青路131巷2弄14號","121.605185","25.1104116666667","6501100","汐止區"
"221025","623-UM","2018/09/15 13:29:09","新北市汐止區大同路一段154-1號","121.632078333333","25.0559366666667","6501100","汐止區"
"220027","145-BY","2018/09/15 13:29:00","新北市板橋區華東街1-10號","121.448343333333","24.9951216666667","6500100","板橋區"
"220030","610-BX","2018/09/15 13:29:12","新北市樹林區樹新路106巷1號","121.430031666667","24.99772","6500100","板橋區"
"220004","276-BY","2018/09/15 13:29:10","新北市板橋區華東街1-9號","121.448178333333","24.9949966666667","6500100","板橋區"
"220019","283-VK","2018/09/15 13:29:05","新北市板橋區華東街1-9號","121.44803","24.9949016666667","6500100","板橋區"
"220031","286-VK","2018/09/15 13:29:05","新北市板橋區華東街1-10號","121.448353333333","24.9951083333333","6500100","板橋區"
"220012","486-VK","2018/09/15 13:29:14","新北市板橋區南雅南路二段120-8號","121.452238333333","24.9995183333333","6500100","板橋區"
"220104","560-BX","2018/09/15 13:29:13","新北市板橋區南雅南路二段116號","121.453193333333","25.000195","6500100","板橋區"
"220032","568-UM","2018/09/15 13:28:56","新北市板橋區華東街1-9號","121.448156666667","24.9949833333333","6500100","板橋區"
"220025","687-BX","2018/09/15 13:28:59","新北市板橋區篤行路一段37號","121.431916666667","24.9939433333333","6500100","板橋區"
"220002","741-BX","2018/09/15 13:29:10","新北市板橋區華東街1-9號","121.448135","24.9949666666667","6500100","板橋區"
"220014","829-TW","2018/09/15 13:29:15","新北市板橋區民生路二段161巷17號","121.470303333333","25.0193083333333","6500100","板橋區"
"220022","895-R6","2018/09/15 13:29:15","新北市板橋區華東街1-9號","121.448191666667","24.99497","6500100","板橋區"
"220021","985-R7","2018/09/15 13:29:01","新北市板橋區華東街1-10號","121.448231666667","24.9950183333333","6500100","板橋區"
"220018","AAC-253","2018/09/15 13:29:09","新北市板橋區華東街1-9號","121.448266666667","24.9948716666667","6500100","板橋區"
"235032","KEA-2873","2018/09/15 13:29:10","新北市中和區員山路36巷16-3號","121.485031666667","24.991175","6500300","中和區"
"235025","KEA-2875","2018/09/15 13:29:16","新北市中和區民享街116巷24號","121.473613333333","24.9990983333333","6500300","中和區"
