"lineid","car","time","location","longitude","latitude","cityid","cityname"
"234010","9373-KE","2018/09/15 15:48:08","新北市永和區福和路1號","121.526758333333","25.0100166666667","6500400","永和區"
"231005","106-UY","2018/09/15 15:48:03","新北市新店區光華街38巷3號","121.515566666667","24.969905","6500600","新店區"
"231046","107-UY","2018/09/15 15:48:12","新北市新店區安一路一段1-1號","121.519588333333","24.9612883333333","6500600","新店區"
"231020","108-UY","2018/09/15 15:48:16","新北市新店區金興路35號","121.552821666667","24.9314766666667","6500600","新店區"
"231012","187-VK","2018/09/15 15:48:16","新北市新店區文化路58號","121.54461","24.981155","6500600","新店區"
"231023","KEA-2219","2018/09/15 15:48:10","新北市新店區大新街9巷14號","121.543996666667","24.96736","6500600","新店區"
"231026","256-BX","2018/09/15 15:48:05","新北市新店區中正路457號","121.533878333333","24.980165","6500600","新店區"
"231003","268-BY","2018/09/15 15:48:14","新北市新店區寶興路60巷4號","121.549816666667","24.9718666666667","6500600","新店區"
"231018","278-BY","2018/09/15 15:48:11","新北市新店區中正路663巷7弄15號","121.532888333333","24.990095","6500600","新店區"
"231017","AAD-862","2018/09/15 15:48:03","新北市新店區中華路83巷4弄11號","121.538516666667","24.9685133333333","6500600","新店區"
"231038","3712-VJ","2018/09/15 15:48:11","新北市新店區安康路二段228巷41弄9號","121.509373333333","24.960145","6500600","新店區"
"231037","4716-K9","2018/09/15 15:47:59","新北市新店區安興路112號","121.514601666667","24.9776633333333","6500600","新店區"
"231013","513-UM","2018/09/15 15:48:11","新北市新店區永業路81巷3弄17號","121.530296666667","24.949725","6500600","新店區"
"231030","619-UM","2018/09/15 15:48:06","新北市新店區永安街58號","121.518546666667","24.9869666666667","6500600","新店區"
"231034","641-BX","2018/09/15 15:48:00","新北市新店區吉祥街15巷1號","121.497733333333","24.9456633333333","6500600","新店區"
"231039","718-UY","2018/09/15 15:47:58","新北市新店區中興路二段199號","121.548216666667","24.974005","6500600","新店區"
"231035","719-UM","2018/09/15 15:48:16","新北市新店區安興路83號","121.515256666667","24.9753616666667","6500600","新店區"
"231033","720-UM","2018/09/15 15:48:18","新北市新店區雙城路45巷16號","121.492888333333","24.948135","6500600","新店區"
"241011","013-R5","2018/09/15 15:48:03","新北市三重區文化北路246號","121.497523333333","25.0699133333333","6500200","三重區"
"241028","022-UY","2018/09/15 15:48:06","新北市三重區中正南路47號","121.49401","25.05962","6500200","三重區"
"241008","059-VK","2018/09/15 15:48:05","新北市三重區重新路四段121號","121.484733333333","25.052415","6500200","三重區"
"241015","062-VK","2018/09/15 15:48:11","新北市三重區重新路四段121號","121.48477","25.0525733333333","6500200","三重區"
"241017","063-VK","2018/09/15 15:48:07","新北市三重區大仁街1號","121.491615","25.0636733333333","6500200","三重區"
"241026","066-VK","2018/09/15 15:47:57","新北市三重區成功路1號","121.490791666667","25.0498933333333","6500200","三重區"
"241002","090-VK","2018/09/15 15:48:09","新北市三重區重新路四段121號","121.484665","25.05255","6500200","三重區"
"241003","091-VK","2018/09/15 15:48:18","新北市三重區環河南路222號","121.49257","25.0518216666667","6500200","三重區"
"241016","266-UM","2018/09/15 15:48:08","新北市三重區重新路四段121號","121.484808333333","25.05256","6500200","三重區"
"241018","268-UM","2018/09/15 15:48:20","新北市三重區重新路四段121號","121.484865","25.0526683333333","6500200","三重區"
"241032","269-UM","2018/09/15 15:48:20","新北市三重區三陽路100巷3弄13號","121.482975","25.0582066666667","6500200","三重區"
"241013","270-UM","2018/09/15 15:48:08","新北市三重區六張街5號","121.495601666667","25.0707416666667","6500200","三重區"
"241025","271-UM","2018/09/15 15:48:08","新北市三重區重新路四段121號","121.48432","25.0521816666667","6500200","三重區"
"241007","398-BY","2018/09/15 15:48:16","新北市三重區新北大道一段252號","121.479861666667","25.0616616666667","6500200","三重區"
"241004","475-VK","2018/09/15 15:48:18","新北市三重區重新路四段121號","121.484765","25.0523566666667","6500200","三重區"
"241020","478-VK","2018/09/15 15:48:10","新北市三重區忠孝路二段54號","121.484991666667","25.0704266666667","6500200","三重區"
"241030","480-VK","2018/09/15 15:48:05","新北市三重區重新路四段121號","121.485063333333","25.0524783333333","6500200","三重區"
"241014","543-UM","2018/09/15 15:48:09","新北市三重區重新路四段121號","121.48514","25.0522766666667","6500200","三重區"
"241023","545-UM","2018/09/15 15:48:04","新北市三重區三民街146巷3弄1號","121.481811666667","25.0646983333333","6500200","三重區"
"241001","547-UM","2018/09/15 15:48:02","新北市三重區重新路四段121號","121.48472","25.0524233333333","6500200","三重區"
"241019","KEA-2593","2018/09/15 15:48:12","新北市三重區重新路四段121號","121.484668333333","25.052325","6500200","三重區"
"241006","AAD-863","2018/09/15 15:47:59","新北市三重區重新路四段121號","121.484721666667","25.0523083333333","6500200","三重區"
"241005","887-TS","2018/09/15 15:48:13","新北市三重區三信路128-1號","121.489395","25.0873083333333","6500200","三重區"
"241012","941-UM","2018/09/15 15:48:15","新北市三重區自強路一段61-1號","121.497925","25.0674716666667","6500200","三重區"
"241029","942-UM","2018/09/15 15:48:04","新北市三重區正義南路165號","121.49867","25.057485","6500200","三重區"
"241033","AAC-255","2018/09/15 15:48:19","新北市三重區光復路一段77號","121.472078333333","25.049985","6500200","三重區"
"235033","4980-A6","2018/09/15 15:48:02","新北市中和區連城路469巷79弄2號","121.483506666667","24.9938533333333","6500300","中和區"
"235023","AAC-215","2018/09/15 15:47:58","新北市中和區員山路49-6號","121.480583333333","24.99144","6500300","中和區"
"227010","642-TC","2018/09/15 15:48:01","新北市雙溪區牡丹里聖南3號","121.860025","25.0510816666667","6502500","雙溪區"
"227002","400-TW","2018/09/15 15:48:14","新北市雙溪區平林里外平林44號","121.852923333333","25.0363666666667","6502500","雙溪區"
"236068","105-UM","2018/09/15 15:48:11","新北市土城區金安街48巷37號","121.42052","24.9654766666667","6501300","土城區"
"236074","166-UM","2018/09/15 15:48:08","新北市土城區中山路5號","121.413476666667","24.961215","6501300","土城區"
"236013","270-VK","2018/09/15 15:48:13","新北市土城區廣明街102號","121.454655","24.9945133333333","6501300","土城區"
"236057","912-UM","2018/09/15 15:48:02","新北市土城區中央路二段193號","121.442191666667","24.9752733333333","6501300","土城區"
"236045","913-UM","2018/09/15 15:48:13","新北市土城區清水路67號","121.455551666667","24.9813216666667","6501300","土城區"
"236054","AAC-216","2018/09/15 15:48:11","新北市土城區中華路一段236號","121.439891666667","24.9799416666667","6501300","土城區"
