"lineid","car","time","location","longitude","latitude","cityid","cityname"
"231046","107-UY","2018/09/15 16:26:12","新北市新店區灣潭路3-2號","121.538263333333","24.950795","6500600","新店區"
"241011","013-R5","2018/09/15 16:26:03","新北市三重區龍濱路285號","121.501051666667","25.0733516666667","6500200","三重區"
"241028","022-UY","2018/09/15 16:26:10","新北市三重區重安街170巷4號","121.496243333333","25.054775","6500200","三重區"
"241008","059-VK","2018/09/15 16:26:05","新北市三重區力行路二段136巷49弄4號","121.479295","25.0753533333333","6500200","三重區"
"241022","060-VK","2018/09/15 16:26:15","新北市三重區新北大道一段70號","121.486456666667","25.0616366666667","6500200","三重區"
"241015","062-VK","2018/09/15 16:26:11","新北市三重區福德北路79號","121.501916666667","25.0658716666667","6500200","三重區"
"241017","063-VK","2018/09/15 16:26:07","新北市三重區大同北路91號","121.494741666667","25.0636683333333","6500200","三重區"
"241024","065-VK","2018/09/15 16:26:14","新北市三重區中正北路193巷37號","121.475821666667","25.070775","6500200","三重區"
"241026","066-VK","2018/09/15 16:26:17","新北市三重區中央南路141巷32-2號","121.500538333333","25.0590566666667","6500200","三重區"
"241002","090-VK","2018/09/15 16:26:09","新北市三重區仁義街101巷2號","121.498078333333","25.0794883333333","6500200","三重區"
"241003","091-VK","2018/09/15 16:21:38","新北市三重區仁義街379號","121.494758333333","25.0851683333333","6500200","三重區"
"241016","266-UM","2018/09/15 16:26:08","新北市三重區大智街29號","121.494103333333","25.0660383333333","6500200","三重區"
"241009","267-UM","2018/09/15 16:26:13","新北市三重區三和路四段203巷191號","121.486215","25.0805483333333","6500200","三重區"
"241018","268-UM","2018/09/15 16:26:20","新北市三重區重陽路三段182號","121.490155","25.06811","6500200","三重區"
"241032","269-UM","2018/09/15 16:26:00","新北市三重區三陽路100巷3弄13號","121.482998333333","25.05817","6500200","三重區"
"241013","270-UM","2018/09/15 16:26:08","新北市三重區三和路三段83巷148號","121.498355","25.07334","6500200","三重區"
"241025","271-UM","2018/09/15 16:26:08","新北市三重區中正北路560巷100弄2號","121.472608333333","25.0682683333333","6500200","三重區"
"241007","398-BY","2018/09/15 16:26:16","新北市三重區三和路四段167巷157號","121.488295","25.0803016666667","6500200","三重區"
"241004","475-VK","2018/09/15 16:26:18","新北市三重區自強路五段1號","121.492016666667","25.0801766666667","6500200","三重區"
"241020","478-VK","2018/09/15 16:26:10","新北市三重區車路頭街31巷10號","121.484506666667","25.0710866666667","6500200","三重區"
"241030","480-VK","2018/09/15 16:26:05","新北市三重區成功路173號","121.48596","25.05273","6500200","三重區"
"241014","543-UM","2018/09/15 16:26:09","新北市三重區河邊北街96-1號","121.504023333333","25.0699083333333","6500200","三重區"
"241023","545-UM","2018/09/15 16:26:04","新北市三重區忠孝路三段84巷24號","121.481258333333","25.064435","6500200","三重區"
"241001","547-UM","2018/09/15 16:26:02","新北市三重區仁愛街331號","121.49219","25.0795866666667","6500200","三重區"
"241019","KEA-2593","2018/09/15 16:26:12","新北市三重區重陽路三段97號","121.490341666667","25.0679666666667","6500200","三重區"
"241006","AAD-863","2018/09/15 16:26:18","新北市三重區永福街10巷7-1號","121.483265","25.0777533333333","6500200","三重區"
"241031","743-BX","2018/09/15 16:26:07","新北市三重區重陽路一段45號","121.486668333333","25.058095","6500200","三重區"
"241005","887-TS","2018/09/15 16:26:13","新北市三重區溪尾街300-2號","121.487483333333","25.0836783333333","6500200","三重區"
"241012","941-UM","2018/09/15 16:26:15","新北市三重區河邊北街325號","121.502396666667","25.0750366666667","6500200","三重區"
"241029","942-UM","2018/09/15 16:26:09","新北市三重區新興路55號","121.491228333333","25.05385","6500200","三重區"
"241033","AAC-255","2018/09/15 16:26:19","新北市三重區重新路五段317巷1弄20號","121.478136666667","25.0494983333333","6500200","三重區"
"224007","275-VK","2018/09/15 16:26:03","新北市瑞芳區大埔路103巷72號","121.763231666667","25.102125","6501200","瑞芳區"
"224005","271-BY","2018/09/15 16:26:07","新北市瑞芳區阿美家園53號","121.820813333333","25.11743","6501200","瑞芳區"
"227010","642-TC","2018/09/15 16:26:01","新北市雙溪區三港里雙澳路42-1號","121.875306666667","25.0518033333333","6502500","雙溪區"
"227002","400-TW","2018/09/15 16:26:14","新北市雙溪區上林里內平林105號","121.826361666667","25.02712","6502500","雙溪區"
"251013","KEA-2871","2018/09/15 16:26:10","新北市淡水區北新路三段162號","121.492373333333","25.1915583333333","6501000","淡水區"
"251014","180-VK","2018/09/15 16:26:01","新北市淡水區中正路二段31號","121.419483333333","25.18166","6501000","淡水區"
"251008","443-VK","2018/09/15 16:26:03","新北市淡水區大同路89號","121.462398333333","25.1402416666667","6501000","淡水區"
"236045","913-UM","2018/09/15 16:26:13","新北市土城區自強街27-1號","121.431343333333","24.9721716666667","6501300","土城區"
