"lineid","car","time","location","longitude","latitude","cityid","cityname"
"249005","172-UM","2018/09/15 16:49:16","新北市八里區大堀湖1-5號","121.422915","25.1543583333333","6502300","八里區"
"249001","173-UM","2018/09/15 16:49:05","新北市八里區博物館路195號","121.405756666667","25.1568233333333","6502300","八里區"
"249004","303-UY","2018/09/15 16:49:12","新北市八里區博物館路202巷38號","121.40529","25.1595633333333","6502300","八里區"
"249002","305-UY","2018/09/15 16:49:10","新北市八里區牛寮埔31號","121.42909","25.1463733333333","6502300","八里區"
"249003","593-UM","2018/09/15 16:49:07","新北市八里區中山路二段283號","121.401528333333","25.1487516666667","6502300","八里區"
"244025","837-TS","2018/09/15 16:49:16","新北市林口區粉寮路二段88巷100-12號","121.409581666667","25.0902283333333","6501700","林口區"
"231046","107-UY","2018/09/15 16:49:12","新北市新店區灣潭路15-12號","121.542235","24.9416283333333","6500600","新店區"
"241011","013-R5","2018/09/15 16:49:03","新北市三重區仁愛街53巷154號","121.499703333333","25.0727583333333","6500200","三重區"
"241028","022-UY","2018/09/15 16:49:06","新北市三重區光興街91號","121.497411666667","25.0599233333333","6500200","三重區"
"241008","059-VK","2018/09/15 16:49:13","新北市三重區永安北路一段17巷24號","121.477473333333","25.0752","6500200","三重區"
"241022","060-VK","2018/09/15 16:49:15","新北市三重區貴陽街47巷2弄9號","121.484896666667","25.0631466666667","6500200","三重區"
"241015","062-VK","2018/09/15 16:49:11","新北市三重區文化北路43巷6號","121.499168333333","25.0655866666667","6500200","三重區"
"241017","063-VK","2018/09/15 16:49:11","新北市三重區國隆路7號","121.493416666667","25.063695","6500200","三重區"
"241024","065-VK","2018/09/15 16:47:40","新北市三重區中正北路317巷16-1號","121.475155","25.0730416666667","6500200","三重區"
"241026","066-VK","2018/09/15 16:49:17","新北市三重區文化南路12號","121.500383333333","25.0620066666667","6500200","三重區"
"241002","090-VK","2018/09/15 16:49:17","新北市三重區仁義街143巷2號","121.49726","25.0808466666667","6500200","三重區"
"241003","091-VK","2018/09/15 16:21:38","新北市三重區仁義街379號","121.494758333333","25.0851683333333","6500200","三重區"
"241016","266-UM","2018/09/15 16:49:08","新北市三重區大同北路115巷19號","121.493815","25.0647766666667","6500200","三重區"
"241009","267-UM","2018/09/15 16:49:13","新北市三重區三和路四段203巷192號","121.486085","25.0806283333333","6500200","三重區"
"241018","268-UM","2018/09/15 16:49:00","新北市三重區正義北路269號","121.49536","25.0698866666667","6500200","三重區"
"241032","269-UM","2018/09/15 16:49:20","新北市三重區三光街30巷1號","121.484753333333","25.060495","6500200","三重區"
"241013","270-UM","2018/09/15 16:49:08","新北市三重區仁壽街56號","121.497785","25.073785","6500200","三重區"
"241025","271-UM","2018/09/15 16:49:08","新北市三重區中正北路365號","121.47225","25.0718633333333","6500200","三重區"
"241007","398-BY","2018/09/15 16:49:16","新北市三重區三和路四段181巷76號","121.48429","25.0795816666667","6500200","三重區"
"241004","475-VK","2018/09/15 16:49:18","新北市三重區仁愛街397巷24號","121.491561666667","25.0812933333333","6500200","三重區"
"241020","478-VK","2018/09/15 16:49:10","新北市三重區忠孝路二段35號","121.485785","25.0710866666667","6500200","三重區"
"241030","480-VK","2018/09/15 16:49:05","新北市三重區中正南路263號","121.492841666667","25.05293","6500200","三重區"
"241014","543-UM","2018/09/15 16:49:09","新北市三重區長榮路75號","121.502595","25.0690816666667","6500200","三重區"
"241023","545-UM","2018/09/15 16:49:04","新北市三重區中華路76巷37-1號","121.482041666667","25.0627516666667","6500200","三重區"
"241001","547-UM","2018/09/15 16:49:02","新北市三重區溪尾街27巷38號","121.493586666667","25.0762533333333","6500200","三重區"
"241019","KEA-2593","2018/09/15 16:49:12","新北市三重區三張街149巷13號","121.486783333333","25.07011","6500200","三重區"
"241006","AAD-863","2018/09/15 16:49:18","新北市三重區力行路二段182-3號","121.483398333333","25.0775083333333","6500200","三重區"
"241031","743-BX","2018/09/15 16:49:07","新北市三重區過圳街20號","121.488596666667","25.0589533333333","6500200","三重區"
"241005","887-TS","2018/09/15 16:49:13","新北市三重區仁安街51號","121.48427","25.084075","6500200","三重區"
"241012","941-UM","2018/09/15 16:49:15","新北市三重區龍門路274巷19號","121.50158","25.07473","6500200","三重區"
"241029","942-UM","2018/09/15 16:49:04","新北市三重區中正南路201巷12號","121.492438333333","25.0540466666667","6500200","三重區"
"241033","AAC-255","2018/09/15 16:49:19","新北市新莊區新北大道二段143號","121.465833333333","25.061295","6500200","三重區"
"247024","500-BY","2018/09/15 16:49:16","新北市蘆洲區光榮路47號","121.460313333333","25.08839","6501400","蘆洲區"
"247006","337-TH","2018/09/15 16:49:00","新北市蘆洲區永安南路二段132-1號","121.46254","25.0785783333333","6501400","蘆洲區"
"247008","336-TH","2018/09/15 16:49:15","新北市五股區四維路171巷10號","121.467446666667","25.075495","6501400","蘆洲區"
"247010","056-VK","2018/09/15 16:49:16","新北市蘆洲區復興路323巷188號","121.475986666667","25.09704","6501400","蘆洲區"
"247022","001-UY","2018/09/15 16:49:06","新北市蘆洲區中正路385號","121.46386","25.09226","6501400","蘆洲區"
"228003","097-TW","2018/09/15 16:49:11","新北市貢寮區貢寮里朝陽街1-2號","121.912378333333","25.0213333333333","6502600","貢寮區"
"228002","663-BX","2018/09/15 16:49:17","新北市貢寮區貢寮里長潭街22號","121.896741666667","25.0234516666667","6502600","貢寮區"
"224006","676-BX","2018/09/15 16:49:11","新北市瑞芳區大寮路356-1號","121.784771666667","25.1032633333333","6501200","瑞芳區"
"224008","285-BY","2018/09/15 16:49:02","新北市瑞芳區大寮路356-1號","121.784971666667","25.1032416666667","6501200","瑞芳區"
"224007","275-VK","2018/09/15 16:49:03","新北市瑞芳區中央路48巷吉祥園3號","121.76004","25.1037833333333","6501200","瑞芳區"
"224009","273-VK","2018/09/15 16:49:19","新北市瑞芳區明燈路一段267號","121.816438333333","25.1086933333333","6501200","瑞芳區"
"224005","271-BY","2018/09/15 16:49:07","新北市瑞芳區洞頂路157號","121.86133","25.1227183333333","6501200","瑞芳區"
"227010","642-TC","2018/09/15 16:49:21","新北市雙溪區牡丹里五分11號","121.865515","25.0474466666667","6502500","雙溪區"
"227002","400-TW","2018/09/15 16:49:14","新北市雙溪區外柑里外柑腳71號","121.807138333333","25.0176483333333","6502500","雙溪區"
"251013","KEA-2871","2018/09/15 16:49:10","新北市淡水區泉洲厝32號","121.489261666667","25.19261","6501000","淡水區"
"251016","179-VK","2018/09/15 16:49:16","新北市淡水區水頭42號","121.478126666667","25.1851033333333","6501000","淡水區"
"251014","180-VK","2018/09/15 16:49:21","新北市淡水區淡金路四段478號","121.45243","25.2239616666667","6501000","淡水區"
"251015","181-VK","2018/09/15 16:49:00","新北市淡水區中正東路71號","121.44729","25.1676383333333","6501000","淡水區"
"251007","442-VK","2018/09/15 16:49:09","新北市淡水區中正東路36-1號","121.448803333333","25.165775","6501000","淡水區"
"251008","443-VK","2018/09/15 16:49:03","新北市淡水區樹梅坑45號","121.474688333333","25.1445466666667","6501000","淡水區"
"251011","650-BX","2018/09/15 16:49:05","新北市淡水區中正路一段156巷1號","121.420856666667","25.1799833333333","6501000","淡水區"
"252002","178-VK","2018/09/15 16:49:08","新北市三芝區忠孝街156號","121.50626","25.2586433333333","6502100","三芝區"
"252001","292-VK","2018/09/15 16:49:15","新北市三芝區淡金路二段76-1號","121.503873333333","25.2608766666667","6502100","三芝區"
"242019","175-VK","2018/09/15 16:49:07","新北市新莊區三和路12-21號","121.442016666667","25.0386483333333","6500500","新莊區"
"242021","350-TH","2018/09/15 16:49:13","新北市新莊區新泰路357巷3弄57號","121.441906666667","25.0391233333333","6500500","新莊區"
"242015","351-TH","2018/09/15 16:49:13","新北市新莊區新泰路357巷3弄57號","121.441775","25.03957","6500500","新莊區"
"239007","AAC-297","2018/09/15 16:49:02","新北市鶯歌區二甲路13-16號","121.3449","24.9351733333333","6500800","鶯歌區"
