"lineid","car","time","location","longitude","latitude","cityid","cityname"
"234026","9371-KE","2018/09/15 17:38:05","新北市永和區中正路696-1號","121.516488333333","25.0098616666667","6500400","永和區"
"249005","172-UM","2018/09/15 17:38:16","新北市八里區荖阡坑路41-10號","121.40236","25.133165","6502300","八里區"
"249001","173-UM","2018/09/15 17:38:05","新北市八里區龍米路二段148號","121.437396666667","25.15549","6502300","八里區"
"249004","303-UY","2018/09/15 17:38:12","新北市八里區賢二街37號","121.418943333333","25.157835","6502300","八里區"
"249002","305-UY","2018/09/15 17:38:10","新北市八里區石壁腳19號","121.441708333333","25.135405","6502300","八里區"
"249003","593-UM","2018/09/15 17:38:07","新北市八里區中山路二段175號","121.404931666667","25.150405","6502300","八里區"
"248004","677-BX","2018/09/15 17:38:15","新北市五股區中興路二段83巷26-6號","121.459648333333","25.0749683333333","6501500","五股區"
"232011","375-UM","2018/09/15 17:38:15","新北市坪林區北宜路八段157號","121.707343333333","24.9345666666667","6502000","坪林區"
"244023","069-UM","2018/09/15 17:38:15","新北市林口區興林路366號","121.38896","25.0692733333333","6501700","林口區"
"244007","080-UY","2018/09/15 17:38:06","新北市林口區竹林路554號","121.386915","25.0844933333333","6501700","林口區"
"244019","403-UM","2018/09/15 17:38:05","新北市林口區文化一路一段83巷14弄68號","121.372753333333","25.0717283333333","6501700","林口區"
"244013","KEA-2802","2018/09/15 17:38:10","新北市林口區文化一路二段202號","121.383253333333","25.0808","6501700","林口區"
"244017","485-VK","2018/09/15 17:38:07","新北市林口區文化二路一段232號","121.369686666667","25.0726016666667","6501700","林口區"
"244009","656-BX","2018/09/15 17:38:17","新北市林口區寶林路123號","121.383206666667","25.08548","6501700","林口區"
"244011","657-BX","2018/09/15 17:38:02","新北市林口區佳林路211號","121.384221666667","25.0771166666667","6501700","林口區"
"244025","837-TS","2018/09/15 17:38:16","新北市林口區文化三路一段359-1號","121.364635","25.0728433333333","6501700","林口區"
"244021","838-TS","2018/09/15 17:38:15","新北市林口區醒吾新村3號","121.39639","25.0791966666667","6501700","林口區"
"231046","107-UY","2018/09/15 17:38:12","新北市新店區直潭路92號","121.5309","24.9376283333333","6500600","新店區"
"241017","063-VK","2018/09/15 17:38:07","新北市三重區新北大道一段9號","121.489391666667","25.061465","6500200","三重區"
"241024","065-VK","2018/09/15 17:38:20","新北市三重區力行路二段9巷12號","121.482958333333","25.07219","6500200","三重區"
"241016","266-UM","2018/09/15 17:38:08","新北市三重區重新路二段23號","121.497863333333","25.0625566666667","6500200","三重區"
"241018","268-UM","2018/09/15 17:38:20","新北市新莊區化成路1008號","121.465508333333","25.0658733333333","6500200","三重區"
"241007","398-BY","2018/09/15 17:38:16","新北市三重區慈愛街8號","121.484465","25.078405","6500200","三重區"
"241030","480-VK","2018/09/15 17:38:05","新北市三重區名源街26號","121.482198333333","25.0601783333333","6500200","三重區"
"241014","543-UM","2018/09/15 17:38:09","新北市三重區河邊北街72-6號","121.50433","25.068615","6500200","三重區"
"241023","545-UM","2018/09/15 17:38:04","新北市三重區三民街157巷2號","121.483616666667","25.064755","6500200","三重區"
"241019","KEA-2593","2018/09/15 17:38:11","新北市三重區六張街241號","121.487816666667","25.068435","6500200","三重區"
"241005","887-TS","2018/09/15 17:38:13","新北市三重區仁愛街519號","121.487348333333","25.082265","6500200","三重區"
"241012","941-UM","2018/09/15 17:38:15","新北市三重區仁興街39巷95號","121.501108333333","25.076555","6500200","三重區"
"241033","AAC-255","2018/09/15 17:38:19","新北市三重區光復路一段74號","121.47202","25.0498266666667","6500200","三重區"
"247012","KEA-2869","2018/09/15 17:38:15","新北市蘆洲區民權路40號","121.476113333333","25.0864916666667","6501400","蘆洲區"
"247002","893-R6","2018/09/15 17:38:20","新北市蘆洲區永平街62號","121.45731","25.0917033333333","6501400","蘆洲區"
"247016","546-UM","2018/09/15 17:38:09","新北市蘆洲區光華路46巷5號","121.468438333333","25.0832233333333","6501400","蘆洲區"
"247024","500-BY","2018/09/15 17:38:16","新北市蘆洲區長樂路125-1號","121.462163333333","25.0881133333333","6501400","蘆洲區"
"247006","337-TH","2018/09/15 17:38:20","新北市蘆洲區長安街68巷5號","121.462828333333","25.080385","6501400","蘆洲區"
"247008","336-TH","2018/09/15 17:38:21","新北市蘆洲區和平路15號","121.47272","25.0792083333333","6501400","蘆洲區"
"247020","057-VK","2018/09/15 17:38:13","新北市蘆洲區民族路460號","121.472115","25.0918433333333","6501400","蘆洲區"
"247010","056-VK","2018/09/15 17:38:16","新北市蘆洲區集賢路416號","121.479761666667","25.081315","6501400","蘆洲區"
"247014","053-VK","2018/09/15 17:38:10","新北市蘆洲區中正路50號","121.47086","25.0827316666667","6501400","蘆洲區"
"247018","007-UY","2018/09/15 17:38:09","新北市蘆洲區三民路98巷11號","121.47265","25.087235","6501400","蘆洲區"
"247004","002-UY","2018/09/15 17:38:13","新北市蘆洲區長安街249巷42號","121.457708333333","25.082555","6501400","蘆洲區"
"247022","001-UY","2018/09/15 17:38:06","新北市蘆洲區三民路279號","121.467423333333","25.0896533333333","6501400","蘆洲區"
"228003","097-TW","2018/09/15 17:38:11","新北市貢寮區仁理村仁和路188號","121.923481666667","25.0525483333333","6502600","貢寮區"
"228001","212-TW","2018/09/15 17:38:17","新北市貢寮區仁理村仁愛路95-1號","121.927668333333","25.0555033333333","6502600","貢寮區"
"228002","663-BX","2018/09/15 17:38:17","新北市貢寮區福隆里龜壽谷街26號","121.952561666667","25.0090383333333","6502600","貢寮區"
"224010","AGQ-8101","2018/09/15 17:34:32","新北市瑞芳區中山路251號","121.798535","25.1086066666667","6501200","瑞芳區"
"224006","676-BX","2018/09/15 17:38:15","新北市瑞芳區傑魚坑路26號","121.794261666667","25.1106233333333","6501200","瑞芳區"
"224008","285-BY","2018/09/15 17:38:22","新北市瑞芳區瑞柑新村21號","121.829648333333","25.1065883333333","6501200","瑞芳區"
"224009","273-VK","2018/09/15 17:38:19","新北市瑞芳區新山路181號","121.851208333333","25.1089333333333","6501200","瑞芳區"
"224005","271-BY","2018/09/15 17:38:07","新北市瑞芳區海濱路8-6號","121.831748333333","25.126175","6501200","瑞芳區"
"227010","642-TC","2018/09/15 17:38:21","新北市雙溪區三貂里定福路1-2號","121.850763333333","25.0634333333333","6502500","雙溪區"
"251009","008-UM","2018/09/15 17:38:14","新北市淡水區中正路32號","121.443903333333","25.169245","6501000","淡水區"
"251004","009-UM","2018/09/15 17:38:09","新北市淡水區中正東路二段88巷37-22號","121.45934","25.1438283333333","6501000","淡水區"
"251005","010-UM","2018/09/15 17:38:12","新北市淡水區鄧公路33巷13號","121.45196","25.1709616666667","6501000","淡水區"
"251001","011-UM","2018/09/15 17:38:18","新北市淡水區民權路92巷35-1號","121.462165","25.1266983333333","6501000","淡水區"
"251002","012-UM","2018/09/15 17:37:51","新北市淡水區中山路143-2號","121.44051","25.1719533333333","6501000","淡水區"
"251013","KEA-2871","2018/09/15 17:38:19","新北市淡水區演戲埔腳7號","121.471265","25.194105","6501000","淡水區"
"251016","179-VK","2018/09/15 17:38:16","新北市淡水區埤島39-15號","121.452793333333","25.195865","6501000","淡水區"
"251014","180-VK","2018/09/15 17:38:20","新北市淡水區公埔子16-6號","121.481023333333","25.2244933333333","6501000","淡水區"
"251015","181-VK","2018/09/15 17:38:00","新北市淡水區樹林口12號","121.478941666667","25.1682","6501000","淡水區"
"251010","413-VK","2018/09/15 17:38:18","新北市淡水區淡海路280巷33弄1號","121.419736666667","25.1900716666667","6501000","淡水區"
"251012","441-VK","2018/09/15 17:38:18","新北市淡水區北新路200巷8號","121.451751666667","25.1796933333333","6501000","淡水區"
"251007","442-VK","2018/09/15 17:38:20","新北市淡水區民生路124巷23號","121.464323333333","25.13762","6501000","淡水區"
"251008","443-VK","2018/09/15 17:38:03","新北市淡水區八勢路一段48號","121.466031666667","25.15499","6501000","淡水區"
"251006","561-UM","2018/09/15 17:38:16","新北市淡水區大信街30號","121.442038333333","25.1770133333333","6501000","淡水區"
"251011","650-BX","2018/09/15 17:38:05","新北市淡水區小坪頂18-3號","121.484715","25.15873","6501000","淡水區"
"251003","673-BX","2018/09/15 17:38:08","新北市淡水區中山北路一段52號","121.4419","25.175595","6501000","淡水區"
"207003","550-UM","2018/09/15 17:38:10","新北市萬里區龜吼里漁澳路61-1號","121.687135","25.1951683333333","6502800","萬里區"
"207004","225-TW","2018/09/15 17:38:16","新北市萬里區中幅里中福路30-1號","121.680253333333","25.1667033333333","6502800","萬里區"
"252002","178-VK","2018/09/15 17:38:08","新北市三芝區智成街80號","121.505026666667","25.2557666666667","6502100","三芝區"
"252001","292-VK","2018/09/15 17:38:15","新北市三芝區淡金路二段4號","121.502383333333","25.2592116666667","6502100","三芝區"
"237011","572-TV","2018/09/15 17:38:16","新北市三峽區中山路323號","121.360461666667","24.9380933333333","6500900","三峽區"
"237013","252-BX","2018/09/15 17:38:14","新北市三峽區愛國路1-1號","121.374991666667","24.9346866666667","6500900","三峽區"
"237016","649-BX","2018/09/15 17:38:18","新北市三峽區正義街125號","121.36853","24.91679","6500900","三峽區"
"237010","706-TV","2018/09/15 17:38:22","新北市三峽區中山路175號","121.363676666667","24.9368466666667","6500900","三峽區"
"236049","913-UM","2018/09/15 17:38:14","新北市土城區城林路6巷80號","121.438475","24.9796333333333","6501300","土城區"
"242036","AAC-296","2018/09/15 17:38:20","新北市新莊區後港一路167號","121.431981666667","25.0281433333333","6500500","新莊區"
"242056","751-BX","2018/09/15 17:38:19","新北市新莊區泰豐街3號","121.448505","25.0312566666667","6500500","新莊區"
"242058","705-TV","2018/09/15 17:38:09","新北市新莊區中正路618號","121.423715","25.0294016666667","6500500","新莊區"
"242027","615-BX","2018/09/15 17:38:16","新北市新莊區福壽街114號","121.458071666667","25.0506866666667","6500500","新莊區"
"242025","613-BX","2018/09/15 17:38:14","新北市新莊區思源路155號","121.459675","25.044425","6500500","新莊區"
"242044","566-BX","2018/09/15 17:38:12","新北市新莊區富國路32號","121.418865","25.0261766666667","6500500","新莊區"
"242048","497-BY","2018/09/15 17:38:05","新北市新莊區萬安街131號","121.420623333333","25.0222","6500500","新莊區"
"242053","442-UM","2018/09/15 17:38:21","新北市新莊區新樹路699巷42號","121.433063333333","25.0010883333333","6500500","新莊區"
"242004","440-UM","2018/09/15 17:38:04","新北市新莊區自立街188號","121.456285","25.0455666666667","6500500","新莊區"
"242039","415-TV","2018/09/15 17:38:17","新北市新莊區民全街16號","121.429058333333","25.02197","6500500","新莊區"
"242046","400-BY","2018/09/15 17:35:24","新北市新莊區福營路74號","121.438331666667","25.0326116666667","6500500","新莊區"
"242023","362-BY","2018/09/15 17:38:04","新北市新莊區民樂街66號","121.45797","25.0423083333333","6500500","新莊區"
"242061","353-BY","2018/09/15 17:38:22","新北市新莊區瓊林南路75號","121.434871666667","25.01446","6500500","新莊區"
"242011","132-UY","2018/09/15 17:38:06","新北市新莊區中港路550號","121.451478333333","25.052655","6500500","新莊區"
"242042","133-UY","2018/09/15 17:38:03","新北市新莊區建國一路88號","121.43451","25.0301733333333","6500500","新莊區"
"242034","135-UY","2018/09/15 17:38:09","新北市新莊區新莊路500號","121.446208333333","25.033305","6500500","新莊區"
"242051","172-VK","2018/09/15 17:38:21","新北市新莊區西盛街169號","121.428095","25.0174766666667","6500500","新莊區"
"242019","175-VK","2018/09/15 17:38:07","新北市新莊區中港路176號","121.454948333333","25.041975","6500500","新莊區"
"242007","176-VK","2018/09/15 17:38:16","新北市新莊區福樂街120號","121.457088333333","25.0478133333333","6500500","新莊區"
"242002","347-TH","2018/09/15 17:38:15","新北市新莊區新莊路316號","121.450748333333","25.0337666666667","6500500","新莊區"
"242031","348-TH","2018/09/15 17:38:09","新北市新莊區新泰路361巷3號","121.443585","25.043065","6500500","新莊區"
"242021","350-TH","2018/09/15 17:38:13","新北市新莊區中華路一段68號","121.452028333333","25.038785","6500500","新莊區"
"242015","351-TH","2018/09/15 17:38:13","新北市新莊區新泰路227號","121.44625","25.0394","6500500","新莊區"
"238015","755-BX","2018/09/15 17:38:12","新北市樹林區啟智街44巷1號","121.420411666667","24.99285","6500700","樹林區"
"238023","601-UM","2018/09/15 17:38:12","新北市樹林區三福街60號","121.405326666667","25.0163","6500700","樹林區"
"238019","599-UM","2018/09/15 17:38:18","新北市樹林區太順街5巷1號","121.420141666667","24.9800016666667","6500700","樹林區"
"238018","571-TV","2018/09/15 17:38:14","新北市樹林區博愛街8號","121.427701666667","24.9929766666667","6500700","樹林區"
"238024","5061-A6","2018/09/15 17:38:18","新北市樹林區八德街437-1號","121.405356666667","24.9694216666667","6500700","樹林區"
"238022","KEA-2213","2018/09/15 17:38:09","新北市樹林區中華路187巷3號","121.420628333333","24.9814333333333","6500700","樹林區"
"238021","KEA-2539","2018/09/15 17:38:15","新北市樹林區柑園街一段253巷14號","121.396048333333","24.955615","6500700","樹林區"
"238025","303-VK","2018/09/15 17:38:12","新北市樹林區保安街二段301號","121.412615","25.006515","6500700","樹林區"
"238017","283-BY","2018/09/15 17:38:19","新北市樹林區中正路442-1號","121.413403333333","25.011745","6500700","樹林區"
"238014","282-BY","2018/09/15 17:38:06","新北市樹林區保安街一段338號","121.41807","24.9980783333333","6500700","樹林區"
"238020","268-VK","2018/09/15 17:38:17","新北市樹林區俊英街116巷29弄2號","121.428321666667","25.0063716666667","6500700","樹林區"
"238026","172-UY","2018/09/15 17:38:20","新北市樹林區新興街10號","121.400135","24.9737016666667","6500700","樹林區"
"238016","169-UY","2018/09/15 17:38:06","新北市樹林區育英街134號","121.419663333333","24.989435","6500700","樹林區"
"239007","AAC-297","2018/09/15 17:38:02","新北市鶯歌區鶯桃路120巷12號","121.338911666667","24.9550466666667","6500800","鶯歌區"
"239006","891-R6","2018/09/15 17:38:07","新北市鶯歌區永和街58號","121.33345","24.9680666666667","6500800","鶯歌區"
"239008","527-UM","2018/09/15 17:38:01","新北市鶯歌區大湖路732巷15弄1號","121.333011666667","24.977685","6500800","鶯歌區"
"239005","526-UM","2018/09/15 17:38:20","新北市鶯歌區福隆二街7號","121.325336666667","24.9720183333333","6500800","鶯歌區"
"239001","417-VK","2018/09/15 17:38:01","新北市鶯歌區中正三路220號","121.331625","24.9375933333333","6500800","鶯歌區"
"239003","360-BY","2018/09/15 17:38:09","新北市鶯歌區鶯桃路206巷36號","121.337885","24.9599283333333","6500800","鶯歌區"
"239002","359-BY","2018/09/15 17:38:04","新北市鶯歌區建國路280-1號","121.346468333333","24.9539433333333","6500800","鶯歌區"
"239004","193-VK","2018/09/15 17:38:19","新北市三峽區隆恩街250號","121.357018333333","24.9408283333333","6500800","鶯歌區"
"221008","489-VK","2018/09/15 17:38:16","新北市汐止區康寧街901號","121.651345","25.0750983333333","6501100","汐止區"
"221010","269-BY","2018/09/15 17:38:14","新北市汐止區汐萬路一段418巷39號","121.650833333333","25.07882","6501100","汐止區"
"221012","278-VK","2018/09/15 17:38:18","新北市汐止區汐萬路一段256巷1號","121.651835","25.074895","6501100","汐止區"
"221021","299-VK","2018/09/15 17:38:12","新北市汐止區汐萬路一段256巷1號","121.652035","25.0747883333333","6501100","汐止區"
"221025","623-UM","2018/09/15 17:38:12","新北市汐止區汐萬路一段256巷1號","121.651743333333","25.0749016666667","6501100","汐止區"
"221018","753-BX","2018/09/15 17:38:21","新北市汐止區康寧街901號","121.651568333333","25.0750216666667","6501100","汐止區"
"242017","281-VK","2018/09/15 17:38:19","新北市新莊區復興路一段149巷21弄21號","121.449155","25.0438783333333","6500500","新莊區"
"242009","280-VK","2018/09/15 17:38:08","新北市新莊區福壽街169巷12號","121.457351666667","25.05378","6500500","新莊區"
"220054","741-BX","2018/09/15 17:27:36","新北市板橋區華東街1-9號","121.448116666667","24.9949616666667","6500100","板橋區"
