"lineid","car","time","location","longitude","latitude","cityid","cityname"
"234007","207-UY","2018/09/15 20:18:09","新北市永和區環河西路二段217巷3號","121.501491666667","25.0100433333333","6500400","永和區"
"234081","298-R6","2018/09/15 20:18:07","新北市永和區國中路104巷2弄1號","121.524423333333","25.006815","6500400","永和區"
"234038","336-UY","2018/09/15 20:18:14","新北市永和區成功路一段91號","121.527041666667","25.00276","6500400","永和區"
"234064","337-UY","2018/09/15 20:18:19","新北市永和區得和路128號","121.518915","25.0001183333333","6500400","永和區"
"234086","338-UY","2018/09/15 20:18:25","新北市永和區永和路二段100號","121.515076666667","25.011875","6500400","永和區"
"234070","552-UM","2018/09/15 20:18:08","新北市永和區永寧街115巷1號","121.518271666667","25.0061883333333","6500400","永和區"
"234017","745-BX","2018/09/15 20:18:13","新北市永和區永和路二段207號","121.515548333333","25.0137566666667","6500400","永和區"
"234030","746-BX","2018/09/15 20:18:18","新北市永和區民有街25巷10號","121.517331666667","24.9965516666667","6500400","永和區"
"234054","KEA-2590","2018/09/15 20:18:08","新北市永和區光復街2巷16弄15號","121.517653333333","25.0163933333333","6500400","永和區"
"234013","KEA-2591","2018/09/15 20:18:17","新北市永和區保生路46號","121.505698333333","25.0085016666667","6500400","永和區"
"234061","AAD-866","2018/09/15 20:18:25","新北市永和區安樂路156號","121.514411666667","25.00067","6500400","永和區"
"234042","862-TW","2018/09/15 20:18:20","新北市永和區雙和街12號","121.50958","25.0019116666667","6500400","永和區"
"234050","863-TW","2018/09/15 20:18:09","新北市永和區新生路2-4號","121.509253333333","25.01697","6500400","永和區"
"234026","9371-KE","2018/09/15 20:18:05","新北市永和區保生路55號","121.504556666667","25.010765","6500400","永和區"
"249005","172-UM","2018/09/15 20:18:16","新北市八里區下罟子1-3號","121.3884","25.14187","6502300","八里區"
"249001","173-UM","2018/09/15 20:18:10","新北市八里區中華路二段470號","121.40055","25.1459566666667","6502300","八里區"
"249004","303-UY","2018/09/15 20:18:08","新北市八里區中山路一段129巷19-1號","121.413953333333","25.15861","6502300","八里區"
"249002","305-UY","2018/09/15 20:18:11","新北市八里區龍米路一段100巷17號","121.45363","25.1251183333333","6502300","八里區"
"249003","593-UM","2018/09/15 20:18:13","新北市八里區中山路二段447巷23號","121.397511666667","25.1452083333333","6502300","八里區"
"248014","025-BX","2018/09/15 20:18:15","新北市八里區商港路88-4號","121.393533333333","25.1490683333333","6501500","五股區"
"248012","247-BX","2018/09/15 20:18:16","新北市五股區民義路一段212號","121.430575","25.0893366666667","6501500","五股區"
"248016","261-SL","2018/09/15 20:18:15","新北市五股區凌雲路一段158巷39弄12號","121.446508333333","25.10408","6501500","五股區"
"248010","272-BY","2018/09/15 20:18:23","新北市五股區新五路二段2巷2-1號","121.438383333333","25.0654616666667","6501500","五股區"
"248004","677-BX","2018/09/15 20:18:14","新北市五股區中興路四段23號","121.438905","25.082715","6501500","五股區"
"248002","678-BX","2018/09/15 20:18:10","新北市五股區成泰路三段243號","121.446423333333","25.0933883333333","6501500","五股區"
"234023","9380-KE","2018/09/15 20:18:21","新北市永和區復興街2巷2號","121.515646666667","25.0125766666667","6500400","永和區"
"234077","969-R7","2018/09/15 20:18:23","新北市永和區民享街8號","121.515215","24.995405","6500400","永和區"
"234074","AAC-211","2018/09/15 20:18:10","新北市永和區竹林路201巷22弄23號","121.522908333333","25.009415","6500400","永和區"
"234067","AAC-212","2018/09/15 20:18:22","新北市永和區保平路232號","121.509185","25.0056216666667","6500400","永和區"
"234003","AAC-295","2018/09/15 20:18:14","新北市永和區自強街17號","121.514776666667","25.0081316666667","6500400","永和區"
"243013","AAD-798","2018/09/15 20:18:22","新北市泰山區新民路38號","121.427115","25.0443833333333","6501600","泰山區"
"243009","297-R6","2018/09/15 20:18:17","新北市泰山區福泰街11號","121.432691666667","25.0604033333333","6501600","泰山區"
"243016","KEA-2801","2018/09/15 20:18:26","新北市泰山區明志路三段112號","121.424975","25.04072","6501600","泰山區"
"243015","421-VK","2018/09/15 20:18:23","新北市泰山區仁愛路90號","121.432998333333","25.0553733333333","6501600","泰山區"
"243012","539-UM","2018/09/15 20:18:11","新北市泰山區楓江路121號","121.439066666667","25.0645483333333","6501600","泰山區"
"243011","KEA-2215","2018/09/15 20:18:04","新北市新莊區壽山路160巷4號","121.417163333333","25.0315266666667","6501600","泰山區"
"243010","KEA-2216","2018/09/15 20:18:14","新北市泰山區明志路二段254巷7號","121.426076666667","25.0477733333333","6501600","泰山區"
"243014","680-BX","2018/09/15 20:18:21","新北市泰山區泰林路二段376號","121.42833","25.063905","6501600","泰山區"
"222003","436-BY","2018/09/15 20:18:10","新北市深坑區文化街74號","121.61814","25.00191","6501800","深坑區"
"222002","659-BX","2018/09/15 20:18:24","新北市深坑區萬福路75巷27號","121.598968333333","25.0096816666667","6501800","深坑區"
"231041","002-UM","2018/09/15 20:18:10","新北市新店區民權路68號","121.538308333333","24.9830266666667","6500600","新店區"
"231059","046-UY","2018/09/15 20:18:07","新北市新店區安德街60巷19-1號","121.51083","24.96298","6500600","新店區"
"231040","047-UY","2018/09/15 20:18:21","新北市新店區中正路224號","121.540128333333","24.9727483333333","6500600","新店區"
"231044","106-UY","2018/09/15 20:18:14","新北市新店區北新路三段196號","121.541456666667","24.9832583333333","6500600","新店區"
"231052","108-UY","2018/09/15 20:18:21","新北市新店區新烏路二段300號","121.548311666667","24.9128883333333","6500600","新店區"
"231065","110-UY","2018/09/15 20:18:14","新北市新店區安祥路106巷40號","121.477085","24.961785","6500600","新店區"
"231048","187-VK","2018/09/15 20:18:14","新北市新店區永華街33巷34號","121.544511666667","24.9769716666667","6500600","新店區"
"231054","KEA-2219","2018/09/15 20:18:24","新北市新店區檳榔路174號","121.543901666667","24.9620283333333","6500600","新店區"
"231057","256-BX","2018/09/15 20:18:15","新北市新店區花園十路二段7-6號","121.55424","24.9345316666667","6500600","新店區"
"231042","268-BY","2018/09/15 20:18:22","新北市新店區中興路二段22-2號","121.546738333333","24.9703566666667","6500600","新店區"
"231051","278-BY","2018/09/15 20:18:08","新北市新店區中央六街63號","121.52757","24.9760933333333","6500600","新店區"
"231050","AAD-862","2018/09/15 20:18:13","新北市新店區博愛街9巷2號","121.54085","24.9729983333333","6500600","新店區"
"231066","4716-K9","2018/09/15 20:18:23","新北市新店區柴埕路52巷1-2號","121.512125","24.9651266666667","6500600","新店區"
"231056","4715-K9","2018/09/15 20:18:17","新北市新店區中正路328巷42弄4號","121.5383","24.9761783333333","6500600","新店區"
"231067","4772-VM","2018/09/15 20:18:20","新北市新店區安康路一段92號","121.527993333333","24.9620183333333","6500600","新店區"
"231049","513-UM","2018/09/15 20:18:08","新北市新店區北新路一段303號","121.541378333333","24.96743","6500600","新店區"
"231045","617-UM","2018/09/15 20:18:20","新北市新店區中興路一段216號","121.544225","24.96558","6500600","新店區"
"231061","619-UM","2018/09/15 20:18:06","新北市新店區安興路33-1號","121.515821666667","24.9703983333333","6500600","新店區"
"231063","641-BX","2018/09/15 20:18:16","新北市新店區柴埕路100-2號","121.503071666667","24.95935","6500600","新店區"
"231068","718-UY","2018/09/15 20:18:08","新北市新店區寶安街30-1號","121.54215","24.9823433333333","6500600","新店區"
"231064","719-UM","2018/09/15 20:16:24","新北市新店區安樂街1號","121.519735","24.97381","6500600","新店區"
"231062","720-UM","2018/09/15 20:18:15","新北市新店區安泰路7巷16號","121.485673333333","24.9509616666667","6500600","新店區"
"231060","897-TW","2018/09/15 20:18:25","新北市新店區錦秀路13號","121.479511666667","24.94479","6500600","新店區"
"231043","899-TW","2018/09/15 20:18:16","新北市新店區建國路133號","121.539313333333","24.9782316666667","6500600","新店區"
"231055","AKT-0513","2018/09/15 20:18:25","新北市新店區溪園路397號","121.523495","24.97789","6500600","新店區"
"241011","013-R5","2018/09/15 20:18:20","新北市三重區龍門路230號","121.500361666667","25.073585","6500200","三重區"
"241028","022-UY","2018/09/15 20:18:06","新北市三重區大同南路162號","121.496643333333","25.0575333333333","6500200","三重區"
"241008","059-VK","2018/09/15 20:18:07","新北市三重區永福街211巷15號","121.479401666667","25.0740966666667","6500200","三重區"
"241022","060-VK","2018/09/15 20:18:20","新北市三重區新北大道一段32號","121.488285","25.0614466666667","6500200","三重區"
"241015","062-VK","2018/09/15 20:18:16","新北市三重區重新路一段102號","121.500978333333","25.063315","6500200","三重區"
"241017","063-VK","2018/09/15 20:18:11","新北市三重區自強路一段161號","121.493276666667","25.06723","6500200","三重區"
"241024","065-VK","2018/09/15 20:18:20","新北市三重區忠孝路三段1號","121.481898333333","25.067645","6500200","三重區"
"241026","066-VK","2018/09/15 20:18:23","新北市三重區福德南路23號","121.502608333333","25.06282","6500200","三重區"
"241002","090-VK","2018/09/15 20:18:09","新北市三重區五華街1巷96號","121.497288333333","25.0805983333333","6500200","三重區"
"241003","091-VK","2018/09/15 20:18:16","新北市三重區富華街39號","121.490723333333","25.0831616666667","6500200","三重區"
"241016","266-UM","2018/09/15 20:18:07","新北市三重區大同北路54巷5號","121.494021666667","25.0633933333333","6500200","三重區"
"241009","267-UM","2018/09/15 20:18:12","新北市三重區三和路四段384號","121.48225","25.0787183333333","6500200","三重區"
"241018","268-UM","2018/09/15 20:18:07","新北市三重區自強路一段155-1號","121.493613333333","25.0672016666667","6500200","三重區"
"241032","269-UM","2018/09/15 20:18:18","新北市三重區捷運路19巷6弄2號","121.484891666667","25.056945","6500200","三重區"
"241013","270-UM","2018/09/15 20:18:18","新北市三重區三和路三段167巷3號","121.492103333333","25.0741166666667","6500200","三重區"
"241025","271-UM","2018/09/15 20:18:09","新北市三重區三民街224號","121.480018333333","25.0674133333333","6500200","三重區"
"241007","398-BY","2018/09/15 20:18:16","新北市三重區溪尾街108巷42-1號","121.487773333333","25.0782916666667","6500200","三重區"
"241035","462-BY","2018/09/15 20:18:15","新北市三重區文化北路20號","121.499165","25.063985","6500200","三重區"
"241004","475-VK","2018/09/15 20:18:07","新北市三重區仁政街205號","121.490518333333","25.0805433333333","6500200","三重區"
"241020","478-VK","2018/09/15 20:18:09","新北市三重區大智街242號","121.489321666667","25.07303","6500200","三重區"
"241030","480-VK","2018/09/15 20:18:04","新北市三重區集美街89巷33號","121.48807","25.0524516666667","6500200","三重區"
"241014","543-UM","2018/09/15 20:18:09","新北市三重區龍濱路199號","121.50183","25.071455","6500200","三重區"
"241023","545-UM","2018/09/15 20:18:23","新北市三重區大有街1-10號","121.477588333333","25.0661183333333","6500200","三重區"
"241001","547-UM","2018/09/15 20:18:07","新北市三重區自強路四段31巷3號","121.489508333333","25.0766366666667","6500200","三重區"
"241019","KEA-2593","2018/09/15 20:18:14","新北市三重區忠孝路一段30巷58號","121.49043","25.0713083333333","6500200","三重區"
"241006","AAD-863","2018/09/15 20:18:18","新北市三重區車路頭街135-1號","121.484248333333","25.0761583333333","6500200","三重區"
"241031","743-BX","2018/09/15 20:18:06","新北市三重區三寧街15號","121.489525","25.0598016666667","6500200","三重區"
"241005","887-TS","2018/09/15 20:18:11","新北市三重區碧華街213號","121.488633333333","25.0827233333333","6500200","三重區"
"241012","941-UM","2018/09/15 20:18:15","新北市三重區仁厚街88號","121.500891666667","25.0770133333333","6500200","三重區"
"241029","942-UM","2018/09/15 20:18:22","新北市三重區重安街98號","121.492606666667","25.0562366666667","6500200","三重區"
"241033","AAC-255","2018/09/15 20:18:20","新北市三重區五谷王北街42巷2號","121.475661666667","25.0493283333333","6500200","三重區"
"235066","003-UY","2018/09/15 20:18:04","新北市中和區保平路336號","121.506748333333","25.00418","6500300","中和區"
"235039","097-UM","2018/09/15 20:18:18","新北市中和區大勇街27巷16號","121.516678333333","24.99393","6500300","中和區"
"235065","098-UM","2018/09/15 20:18:10","新北市中和區橋和路314號","121.497238333333","25.0070016666667","6500300","中和區"
"247012","KEA-2869","2018/09/15 20:18:08","新北市蘆洲區中興街15巷25號","121.480055","25.087875","6501400","蘆洲區"
"235050","4979-A6","2018/09/15 20:18:22","新北市中和區景新街274巷10號","121.510511666667","24.992185","6500300","中和區"
"235069","4980-A6","2018/09/15 20:18:22","新北市中和區圓通路176-1號","121.497205","24.994495","6500300","中和區"
"235070","558-UM","2018/09/15 20:18:11","新北市土城區青雲路322巷28號","121.456918333333","24.9752283333333","6500300","中和區"
"235059","AAC-215","2018/09/15 20:18:08","新北市中和區圓通路429號","121.488143333333","24.9888466666667","6500300","中和區"
"220069","AAD-861","2018/09/15 20:18:19","新北市五股區新五路二段100號","121.437305","25.0754766666667","6500100","板橋區"
"247002","893-R6","2018/09/15 20:18:10","新北市蘆洲區長安街331巷26號","121.456258333333","25.0866366666667","6501400","蘆洲區"
"247016","546-UM","2018/09/15 20:18:12","新北市蘆洲區光華路132巷39號","121.465795","25.0837316666667","6501400","蘆洲區"
"247024","500-BY","2018/09/15 20:18:20","新北市蘆洲區光榮路120巷8弄39號","121.464606666667","25.0879","6501400","蘆洲區"
"247006","337-TH","2018/09/15 20:18:20","新北市蘆洲區九芎街136號","121.464955","25.078985","6501400","蘆洲區"
"247008","336-TH","2018/09/15 20:18:04","新北市蘆洲區集賢路271號","121.480921666667","25.0835766666667","6501400","蘆洲區"
"247020","057-VK","2018/09/15 20:18:19","新北市蘆洲區仁愛街57號","121.471828333333","25.093215","6501400","蘆洲區"
"247010","056-VK","2018/09/15 20:18:20","新北市蘆洲區信義路222巷32弄16號","121.480425","25.084735","6501400","蘆洲區"
"247014","053-VK","2018/09/15 20:18:10","新北市蘆洲區中山二路137巷42號","121.472405","25.080775","6501400","蘆洲區"
"247018","007-UY","2018/09/15 20:18:23","新北市蘆洲區民族路378號","121.475538333333","25.0911416666667","6501400","蘆洲區"
"247004","002-UY","2018/09/15 20:18:07","新北市蘆洲區永康街28號","121.458803333333","25.08563","6501400","蘆洲區"
"247022","001-UY","2018/09/15 20:18:20","新北市蘆洲區中正路192巷2弄2號","121.46756","25.088335","6501400","蘆洲區"
"224010","AGQ-8101","2018/09/15 20:17:57","新北市瑞芳區輕便路204號","121.845096666667","25.1103216666667","6501200","瑞芳區"
"222001","KEA-2212","2018/09/15 20:18:14","新北市深坑區北深路三段243巷12弄9號","121.59872","25.0038733333333","6501800","深坑區"
"251009","008-UM","2018/09/15 20:18:14","新北市淡水區中正東路17號","121.44565","25.1683433333333","6501000","淡水區"
"251005","010-UM","2018/09/15 20:18:12","新北市淡水區淡金路二段145號","121.45016","25.18257","6501000","淡水區"
"251001","011-UM","2018/09/15 20:18:17","新北市淡水區淡金路二段599號","121.445933333333","25.1924533333333","6501000","淡水區"
"251002","012-UM","2018/09/15 20:18:11","新北市淡水區中正路129號","121.439268333333","25.1703983333333","6501000","淡水區"
"251013","KEA-2871","2018/09/15 20:18:10","新北市淡水區相公山2號","121.474648333333","25.2065366666667","6501000","淡水區"
"251016","179-VK","2018/09/15 20:18:16","新北市淡水區番子田24-6號","121.460626666667","25.228715","6501000","淡水區"
"251014","180-VK","2018/09/15 20:18:20","新北市淡水區石頭厝1號","121.458716666667","25.2355366666667","6501000","淡水區"
"251015","181-VK","2018/09/15 20:18:20","新北市淡水區興仁路165號","121.451168333333","25.220455","6501000","淡水區"
"251010","413-VK","2018/09/15 20:18:18","新北市淡水區新民街一段151號","121.427525","25.1887333333333","6501000","淡水區"
"251012","441-VK","2018/09/15 20:18:12","新北市淡水區下圭柔山431-1號","121.449836666667","25.2102116666667","6501000","淡水區"
"251007","442-VK","2018/09/15 20:18:20","新北市淡水區淡金路一段69號","121.45809","25.1734766666667","6501000","淡水區"
"251008","443-VK","2018/09/15 20:18:23","新北市淡水區淡海路180巷37號","121.422158333333","25.184515","6501000","淡水區"
"251006","561-UM","2018/09/15 20:18:04","新北市淡水區北新路169巷39號","121.4492","25.18046","6501000","淡水區"
"251003","673-BX","2018/09/15 20:18:08","新北市淡水區中山北路一段196號","121.44451","25.1794166666667","6501000","淡水區"
"207004","225-TW","2018/09/15 20:18:19","新北市萬里區北基里仁四街2號","121.682023333333","25.1753216666667","6502800","萬里區"
"252002","178-VK","2018/09/15 20:18:08","新北市三芝區中正路一段23號","121.502928333333","25.2585733333333","6502100","三芝區"
"252001","292-VK","2018/09/15 20:18:14","新北市三芝區中山路一段35號","121.500683333333","25.2579683333333","6502100","三芝區"
"237006","5529-G3","2018/09/15 20:18:21","新北市三峽區中正路二段218號","121.365923333333","24.9138033333333","6500900","三峽區"
"236070","105-UM","2018/09/15 20:18:25","新北市土城區福安街42巷16號","121.41873","24.9651966666667","6501300","土城區"
"236030","253-BX","2018/09/15 20:18:06","新北市土城區中央路一段45巷2弄2號","121.44844","24.9902583333333","6501300","土城區"
"236026","269-VK","2018/09/15 20:18:10","新北市土城區裕生路100巷10號","121.446426666667","24.9850533333333","6501300","土城區"
"236014","270-VK","2018/09/15 20:18:22","新北市土城區廣明街90巷20號","121.455493333333","24.99455","6501300","土城區"
"236038","271-VK","2018/09/15 20:18:09","新北市土城區明德路一段48巷12號","121.464651666667","24.9837533333333","6501300","土城區"
"236059","912-UM","2018/09/15 20:18:17","新北市土城區大安路10號","121.43257","24.9659216666667","6501300","土城區"
"242036","AAC-296","2018/09/15 20:18:08","新北市新莊區建安街55號","121.428313333333","25.0253116666667","6500500","新莊區"
"242056","751-BX","2018/09/15 20:18:20","新北市新莊區豐年街28巷25號","121.445436666667","25.0323383333333","6500500","新莊區"
"242058","705-TV","2018/09/15 20:18:16","新北市新莊區龍安路266巷2號","121.421581666667","25.019165","6500500","新莊區"
"242027","615-BX","2018/09/15 20:18:17","新北市新莊區中華路二段89號","121.452651666667","25.0492316666667","6500500","新莊區"
"242025","613-BX","2018/09/15 20:18:19","新北市新莊區五工二路78巷12號","121.46043","25.066345","6500500","新莊區"
"242044","566-BX","2018/09/15 20:18:14","新北市新莊區中正路895-6號","121.412591666667","25.0215683333333","6500500","新莊區"
"242048","497-BY","2018/09/15 20:18:24","新北市新莊區四維路212巷11號","121.421076666667","25.0201133333333","6500500","新莊區"
"242053","442-UM","2018/09/15 20:18:21","新北市新莊區民安西路261巷22號","121.426936666667","25.0130216666667","6500500","新莊區"
"242004","440-UM","2018/09/15 20:18:04","新北市新莊區頭前路30號","121.467598333333","25.0524716666667","6500500","新莊區"
"242039","415-TV","2018/09/15 20:18:11","新北市新莊區龍安路438號","121.42435","25.0185366666667","6500500","新莊區"
"242046","400-BY","2018/09/15 20:18:24","新北市新莊區中正路新生巷10號","121.416848333333","25.0239266666667","6500500","新莊區"
"242023","362-BY","2018/09/15 20:18:25","新北市新莊區化成路934號","121.464741666667","25.0623366666667","6500500","新莊區"
"242061","353-BY","2018/09/15 20:18:22","新北市新莊區新樹路65-7號","121.439303333333","25.0307","6500500","新莊區"
"242011","132-UY","2018/09/15 20:18:05","新北市新莊區中信街35號","121.450383333333","25.0508016666667","6500500","新莊區"
"242042","133-UY","2018/09/15 20:18:14","新北市新莊區壽山路55-5號","121.412285","25.0316516666667","6500500","新莊區"
"242034","135-UY","2018/09/15 20:18:09","新北市新莊區建中街90巷6號","121.446895","25.0372166666667","6500500","新莊區"
"242051","172-VK","2018/09/15 20:18:21","新北市新莊區民安西路212巷6號","121.4254","25.01495","6500500","新莊區"
"242013","173-VK","2018/09/15 20:17:31","新北市新莊區中信街63巷2弄10號","121.448725","25.0505216666667","6500500","新莊區"
"242019","175-VK","2018/09/15 20:18:09","新北市新莊區復興路二段191號","121.459406666667","25.0446166666667","6500500","新莊區"
"242007","176-VK","2018/09/15 20:18:19","新北市新莊區福壽街124巷37號","121.45922","25.0513583333333","6500500","新莊區"
"242002","347-TH","2018/09/15 20:18:25","新北市新莊區化成路2號","121.464533333333","25.041995","6500500","新莊區"
"242031","348-TH","2018/09/15 20:18:07","新北市新莊區三泰路24-7號","121.43961","25.0344833333333","6500500","新莊區"
"242021","350-TH","2018/09/15 20:18:23","新北市新莊區新泰路305巷1號","121.44526","25.0409533333333","6500500","新莊區"
"242015","351-TH","2018/09/15 20:18:13","新北市新莊區中和街31巷22號","121.44718","25.0438916666667","6500500","新莊區"
"239002","359-BY","2018/09/15 20:18:24","新北市鶯歌區二甲路12-2號","121.345671666667","24.9348883333333","6500800","鶯歌區"
"221008","489-VK","2018/09/15 20:18:16","新北市汐止區康寧街338號","121.62783","25.0674833333333","6501100","汐止區"
"221036","130-UY","2018/09/15 20:18:22","新北市汐止區福安街61巷18號","121.665083333333","25.0635516666667","6501100","汐止區"
"221010","269-BY","2018/09/15 20:18:13","新北市汐止區八連路二段324號","121.62945","25.0997916666667","6501100","汐止區"
"221012","278-VK","2018/09/15 20:18:17","新北市汐止區保新街267號","121.690471666667","25.0681666666667","6501100","汐止區"
"221032","280-BY","2018/09/15 20:18:11","新北市汐止區民權街二段34號","121.619411666667","25.049655","6501100","汐止區"
"221027","281-BY","2018/09/15 20:18:19","新北市汐止區大同路二段462號","121.660008333333","25.0678066666667","6501100","汐止區"
"221029","298-VK","2018/09/15 20:18:20","新北市汐止區樟樹一路99巷7弄2號","121.641141666667","25.0635883333333","6501100","汐止區"
"221021","299-VK","2018/09/15 20:18:12","新北市汐止區水源路一段286號","121.65427","25.05823","6501100","汐止區"
"221031","353-TW","2018/09/15 20:18:07","新北市汐止區原興路56號","121.63286","25.0652533333333","6501100","汐止區"
"221035","622-UM","2018/09/15 20:18:24","新北市汐止區長江街101-5號","121.658746666667","25.0731716666667","6501100","汐止區"
"221025","623-UM","2018/09/15 20:18:12","新北市汐止區水源路二段32號","121.65491","25.0573316666667","6501100","汐止區"
"221038","646-BX","2018/09/15 20:18:19","新北市汐止區忠孝東路470號","121.666253333333","25.0732183333333","6501100","汐止區"
"221002","707-TV","2018/09/15 20:18:04","新北市汐止區福德三路20號","121.637181666667","25.0694383333333","6501100","汐止區"
"221018","753-BX","2018/09/15 20:18:21","新北市汐止區茄安路14號","121.673086666667","25.0677516666667","6501100","汐止區"
"220101","245-BX","2018/09/15 20:18:10","新北市板橋區萬板路478號","121.479978333333","25.02605","6500100","板橋區"
"220083","286-VK","2018/09/15 20:18:15","新北市板橋區僑中二街102巷44號","121.444471666667","25.0085433333333","6500100","板橋區"
"220081","287-VK","2018/09/15 20:18:26","新北市板橋區僑中一街80巷8號","121.447925","25.0125583333333","6500100","板橋區"
"220061","293-UM","2018/09/15 20:18:16","新北市板橋區四川路一段286巷26號","121.457895","25.001265","6500100","板橋區"
"220097","299-UM","2018/09/15 20:18:24","新北市板橋區光正街45巷6弄16號","121.461101666667","25.0170766666667","6500100","板橋區"
"242017","281-VK","2018/09/15 20:18:23","新北市新莊區中港二街104號","121.448976666667","25.045765","6500500","新莊區"
"242009","280-VK","2018/09/15 20:18:21","新北市新莊區昌隆街58巷1弄1號","121.454958333333","25.0504733333333","6500500","新莊區"
"220103","561-BX","2018/09/15 20:18:20","新北市板橋區陽明街245號","121.462998333333","25.02475","6500100","板橋區"
"220102","KEA-2699","2018/09/15 20:18:18","新北市板橋區文化路二段367號","121.47316","25.0309316666667","6500100","板橋區"
"220055","827-TW","2018/09/15 20:18:17","新北市板橋區仁愛路35號","121.4591","24.9994916666667","6500100","板橋區"
"220089","833-TW","2018/09/15 20:18:09","新北市板橋區四維路133號","121.465071666667","25.025225","6500100","板橋區"
"220070","AAC-253","2018/09/15 20:18:11","新北市板橋區四川路二段245巷3號","121.450545","24.9934","6500100","板橋區"
"235068","KEA-2873","2018/09/15 20:18:03","新北市中和區景平路741號","121.496238333333","25.0044666666667","6500300","中和區"
