"lineid","car","time","location","longitude","latitude","cityid","cityname"
"234064","337-UY","2018/09/15 20:49:39","新北市三重區五谷王北街181-2號","121.477086666667","25.05578","6500400","永和區"
"234013","KEA-2591","2018/09/15 20:49:50","新北市八里區中山路三段380號","121.369126666667","25.1363916666667","6500400","永和區"
"249004","303-UY","2018/09/15 20:49:48","新北市八里區中山路一段63號","121.418303333333","25.159395","6502300","八里區"
"234074","AAC-211","2018/09/15 20:49:50","新北市永和區環河東路二段36號","121.52272","25.0124483333333","6500400","永和區"
"244018","403-UM","2018/09/15 20:49:46","新北市林口區粉寮路二段88巷100-12號","121.409535","25.0902166666667","6501700","林口區"
"222003","436-BY","2018/09/15 20:49:50","新北市深坑區文山路三段48-1號","121.60989","24.9985083333333","6501800","深坑區"
"222002","659-BX","2018/09/15 20:49:48","新北市深坑區北深路三段93巷47號","121.604385","25.0004916666667","6501800","深坑區"
"231059","046-UY","2018/09/15 20:49:48","新北市新店區僑愛三路2號","121.499938333333","24.944695","6500600","新店區"
"231040","047-UY","2018/09/15 20:49:21","新北市新店區中正路251號","121.538975","24.973475","6500600","新店區"
"231044","106-UY","2018/09/15 20:49:34","新北市新店區中正路414號","121.534288333333","24.9777633333333","6500600","新店區"
"231052","108-UY","2018/09/15 20:49:50","新北市新店區新烏路一段215號","121.548865","24.9311333333333","6500600","新店區"
"231065","110-UY","2018/09/15 20:49:54","新北市新店區安祥路104巷6弄28號","121.48259","24.9626633333333","6500600","新店區"
"231048","187-VK","2018/09/15 20:49:55","新北市新店區寶元路二段1巷2號","121.55074","24.9840783333333","6500600","新店區"
"231054","KEA-2219","2018/09/15 20:49:44","新北市新店區北新路一段329號","121.541756666667","24.96846","6500600","新店區"
"231057","256-BX","2018/09/15 20:49:55","新北市新店區永興路41號","121.543653333333","24.938305","6500600","新店區"
"231042","268-BY","2018/09/15 20:49:39","新北市新店區寶高路120巷1號","121.554633333333","24.9761","6500600","新店區"
"231051","278-BY","2018/09/15 20:49:47","新北市新店區民生路156巷94號","121.52731","24.98215","6500600","新店區"
"231050","AAD-862","2018/09/15 20:49:53","新北市新店區三民路30號","121.536761666667","24.97116","6500600","新店區"
"231058","3713-VJ","2018/09/15 20:49:55","新北市新店區中央路99號","121.53108","24.975025","6500600","新店區"
"231066","4716-K9","2018/09/15 20:49:43","新北市新店區安興路105-1號","121.51468","24.9776916666667","6500600","新店區"
"231056","4715-K9","2018/09/15 20:49:36","新北市新店區薏仁坑路自強巷6號","121.496465","24.9584466666667","6500600","新店區"
"231067","4772-VM","2018/09/15 20:22:41","新北市新店區安華路28-1號","121.519621666667","24.96085","6500600","新店區"
"231049","513-UM","2018/09/15 20:49:48","新北市新店區永業路81巷1弄8號","121.530031666667","24.9498483333333","6500600","新店區"
"231045","617-UM","2018/09/15 20:49:54","新北市新店區北新路一段193號","121.540226666667","24.964735","6500600","新店區"
"231061","619-UM","2018/09/15 20:49:46","新北市新店區新和街97號","121.521211666667","24.9865916666667","6500600","新店區"
"231063","641-BX","2018/09/15 20:49:56","新北市新店區如意街8號","121.494761666667","24.9481766666667","6500600","新店區"
"231068","718-UY","2018/09/15 20:49:48","新北市新店區寶元路二段11-1號","121.54612","24.9823116666667","6500600","新店區"
"231064","719-UM","2018/09/15 20:49:43","新北市新店區安民街379巷5號","121.516015","24.9761583333333","6500600","新店區"
"231062","720-UM","2018/09/15 20:49:55","新北市新店區和成街19巷47號","121.488516666667","24.9459383333333","6500600","新店區"
"231060","897-TW","2018/09/15 20:49:44","新北市新店區安康路三段628號","121.478846666667","24.9458766666667","6500600","新店區"
"231043","899-TW","2018/09/15 20:49:55","新北市新店區建國路99巷1號","121.540318333333","24.9771583333333","6500600","新店區"
"241011","013-R5","2018/09/15 20:49:51","新北市三重區龍濱路203號","121.501978333333","25.0716533333333","6500200","三重區"
"241028","022-UY","2018/09/15 20:49:46","新北市三重區中正南路50號","121.493915","25.0599266666667","6500200","三重區"
"241008","059-VK","2018/09/15 20:49:47","新北市三重區永福街72巷11號","121.479435","25.0768066666667","6500200","三重區"
"241022","060-VK","2018/09/15 20:49:40","新北市三重區重陽路二段19巷12號","121.48808","25.0624483333333","6500200","三重區"
"241015","062-VK","2018/09/15 20:49:36","新北市三重區自強路一段1號","121.498878333333","25.0685333333333","6500200","三重區"
"241017","063-VK","2018/09/15 20:49:51","新北市三重區自強路一段179號","121.4925","25.0677033333333","6500200","三重區"
"241024","065-VK","2018/09/15 20:49:40","新北市三重區大勇街49號","121.481286666667","25.0719766666667","6500200","三重區"
"241026","066-VK","2018/09/15 20:49:43","新北市三重區和平街1號","121.500063333333","25.0623633333333","6500200","三重區"
"241002","090-VK","2018/09/15 20:49:49","新北市三重區仁義街157巷74號","121.498618333333","25.08183","6500200","三重區"
"241016","266-UM","2018/09/15 20:49:47","新北市三重區正義北路151號","121.496485","25.066995","6500200","三重區"
"241009","267-UM","2018/09/15 20:49:53","新北市三重區三和路四段388-2號","121.482105","25.0791266666667","6500200","三重區"
"241018","268-UM","2018/09/15 20:49:47","新北市三重區正義北路227號","121.495938333333","25.0689366666667","6500200","三重區"
"241032","269-UM","2018/09/15 20:49:58","新北市三重區重陽路一段120巷35號","121.48509","25.0602483333333","6500200","三重區"
"241013","270-UM","2018/09/15 20:49:38","新北市三重區仁賢街12-1號","121.495643333333","25.074885","6500200","三重區"
"241025","271-UM","2018/09/15 20:49:49","新北市三重區貴陽街21號","121.4844","25.061905","6500200","三重區"
"241007","398-BY","2018/09/15 20:49:56","新北市三重區慈愛街8號","121.484448333333","25.0783516666667","6500200","三重區"
"241035","462-BY","2018/09/15 20:49:55","新北市三重區雙園街10-7號","121.497456666667","25.0682066666667","6500200","三重區"
"241004","475-VK","2018/09/15 20:49:47","新北市三重區分子尾街35號","121.48929","25.08145","6500200","三重區"
"241020","478-VK","2018/09/15 20:49:49","新北市三重區忠孝路一段101號","121.489471666667","25.0721383333333","6500200","三重區"
"241030","480-VK","2018/09/15 20:49:44","新北市三重區環河南路221巷10號","121.49194","25.0522333333333","6500200","三重區"
"241014","543-UM","2018/09/15 20:49:49","新北市三重區萬全街80號","121.50155","25.0702783333333","6500200","三重區"
"241023","545-UM","2018/09/15 20:49:43","新北市三重區忠孝路三段84巷1號","121.480246666667","25.0645833333333","6500200","三重區"
"241001","547-UM","2018/09/15 20:49:46","新北市三重區三和路四段118巷2號","121.488948333333","25.07482","6500200","三重區"
"241019","KEA-2593","2018/09/15 20:49:54","新北市三重區三張街49號","121.491261666667","25.071085","6500200","三重區"
"241006","AAD-863","2018/09/15 20:49:38","新北市三重區車路頭街139巷14號","121.48427","25.07622","6500200","三重區"
"241031","743-BX","2018/09/15 20:49:46","新北市三重區重陽路一段113巷2弄2號","121.487503333333","25.0599183333333","6500200","三重區"
"241005","887-TS","2018/09/15 20:49:51","新北市三重區五華街141巷35號","121.492485","25.08573","6500200","三重區"
"241012","941-UM","2018/09/15 20:49:54","新北市三重區仁信街27號","121.501263333333","25.07555","6500200","三重區"
"241029","942-UM","2018/09/15 20:49:53","新北市三重區重安街16號","121.490386666667","25.05823","6500200","三重區"
"241033","AAC-255","2018/09/15 20:49:40","新北市三重區光復路二段1號","121.472241666667","25.053355","6500200","三重區"
"247012","KEA-2869","2018/09/15 20:49:48","新北市蘆洲區復興路340巷31號","121.483403333333","25.0891333333333","6501400","蘆洲區"
"235069","4980-A6","2018/09/15 20:49:42","新北市中和區員山路375號","121.480951666667","25.0023233333333","6500300","中和區"
"247002","893-R6","2018/09/15 20:49:50","新北市蘆洲區長安街248號","121.457591666667","25.0861183333333","6501400","蘆洲區"
"247016","546-UM","2018/09/15 20:49:52","新北市蘆洲區中正路69號","121.470436666667","25.0827316666667","6501400","蘆洲區"
"247024","500-BY","2018/09/15 20:49:20","新北市蘆洲區長樂路118號","121.46205","25.0900316666667","6501400","蘆洲區"
"247006","337-TH","2018/09/15 20:49:40","新北市蘆洲區永安南路二段18號","121.467705","25.077175","6501400","蘆洲區"
"247008","336-TH","2018/09/15 20:49:52","新北市蘆洲區集賢路269巷28號","121.48229","25.0832033333333","6501400","蘆洲區"
"247020","057-VK","2018/09/15 20:49:39","新北市蘆洲區仁愛街60號","121.471541666667","25.0938366666667","6501400","蘆洲區"
"247010","056-VK","2018/09/15 20:49:40","新北市蘆洲區三民路52號","121.475315","25.08364","6501400","蘆洲區"
"247014","053-VK","2018/09/15 20:49:50","新北市蘆洲區三民路95號","121.474131666667","25.0847866666667","6501400","蘆洲區"
"247004","002-UY","2018/09/15 20:49:47","新北市蘆洲區長安街103號","121.461535","25.0808233333333","6501400","蘆洲區"
"247022","001-UY","2018/09/15 20:49:40","新北市蘆洲區中正路187號","121.468623333333","25.085585","6501400","蘆洲區"
"222001","KEA-2212","2018/09/15 20:49:53","新北市深坑區北深路三段86號","121.607391666667","25.00153","6501800","深坑區"
"251009","008-UM","2018/09/15 20:49:34","新北市淡水區民權路187巷17號","121.460286666667","25.1334883333333","6501000","淡水區"
"251005","010-UM","2018/09/15 20:49:52","新北市淡水區水源街一段83巷149-15號","121.448586666667","25.1733516666667","6501000","淡水區"
"251001","011-UM","2018/09/15 20:49:57","新北市淡水區淡金路一段69號","121.458808333333","25.1731116666667","6501000","淡水區"
"251002","012-UM","2018/09/15 20:49:51","新北市淡水區中正東路6號","121.446985","25.1670283333333","6501000","淡水區"
"251013","KEA-2871","2018/09/15 20:49:49","新北市淡水區行忠路151號","121.454883333333","25.2000266666667","6501000","淡水區"
"251016","179-VK","2018/09/15 20:49:36","新北市淡水區淡金路四段457號","121.451818333333","25.2231716666667","6501000","淡水區"
"251014","180-VK","2018/09/15 20:49:40","新北市淡水區公埔子32-8號","121.461658333333","25.2323583333333","6501000","淡水區"
"251015","181-VK","2018/09/15 20:49:40","新北市淡水區淡金路四段542巷17號","121.452731666667","25.22708","6501000","淡水區"
"251010","413-VK","2018/09/15 20:49:58","新北市淡水區沙崙路145號","121.423371666667","25.1830883333333","6501000","淡水區"
"251012","441-VK","2018/09/15 20:49:52","新北市淡水區淡金路四段526-1號","121.45199","25.2264733333333","6501000","淡水區"
"251007","442-VK","2018/09/15 20:49:40","新北市淡水區學府路102巷51弄9號","121.452498333333","25.1718216666667","6501000","淡水區"
"251011","650-BX","2018/09/15 20:49:38","新北市淡水區新民街一段13-1號","121.433045","25.1845416666667","6501000","淡水區"
"251003","673-BX","2018/09/15 20:49:48","新北市淡水區中山北路一段247巷86號","121.442416666667","25.1794366666667","6501000","淡水區"
"242036","AAC-296","2018/09/15 20:49:48","新北市新莊區建安街5號","121.428811666667","25.0267466666667","6500500","新莊區"
"242058","705-TV","2018/09/15 20:49:36","新北市樹林區俊英街246號","121.424641666667","25.0107633333333","6500500","新莊區"
"242027","615-BX","2018/09/15 20:49:37","新北市新莊區瓊林南路305巷35號","121.436136666667","25.0055333333333","6500500","新莊區"
"242044","566-BX","2018/09/15 20:49:54","新北市新莊區龍安路108號","121.418365","25.020485","6500500","新莊區"
"242053","442-UM","2018/09/15 20:49:41","新北市新莊區新樹路629-8號","121.4337","25.0024833333333","6500500","新莊區"
"242039","415-TV","2018/09/15 20:49:51","新北市新莊區環河路462號","121.440155","25.0195683333333","6500500","新莊區"
"242023","362-BY","2018/09/15 20:49:45","新北市新莊區新樹路647-1號","121.435706666667","25.0033616666667","6500500","新莊區"
"242011","132-UY","2018/09/15 20:49:45","新北市新莊區立信一街41號","121.442256666667","25.04944","6500500","新莊區"
"242042","133-UY","2018/09/15 20:49:54","新北市新莊區富國路70號","121.419883333333","25.0259516666667","6500500","新莊區"
"242051","172-VK","2018/09/15 20:49:40","新北市新莊區民安西路90-2號","121.426968333333","25.0191416666667","6500500","新莊區"
"242002","347-TH","2018/09/15 20:49:45","新北市新莊區利濟街18號","121.452955","25.0332266666667","6500500","新莊區"
"242031","348-TH","2018/09/15 20:49:47","新北市新莊區中正路535-11號","121.43752","25.03299","6500500","新莊區"
"242015","351-TH","2018/09/15 20:49:53","新北市新莊區中正路222號","121.448581666667","25.035695","6500500","新莊區"
"221036","130-UY","2018/09/15 20:49:42","新北市汐止區大同路二段132-2號","121.65164","25.0640316666667","6501100","汐止區"
"221027","281-BY","2018/09/15 20:49:39","新北市汐止區汐萬路一段144號","121.653126666667","25.0711333333333","6501100","汐止區"
"221029","298-VK","2018/09/15 20:49:40","新北市汐止區樟樹二路341號","121.642071666667","25.072225","6501100","汐止區"
"221035","622-UM","2018/09/15 20:49:44","新北市汐止區汐萬路一段256巷3號","121.652093333333","25.0746866666667","6501100","汐止區"
"221025","623-UM","2018/09/15 20:49:52","新北市汐止區汐萬路一段256巷3號","121.652328333333","25.074635","6501100","汐止區"
"221038","646-BX","2018/09/15 20:49:38","新北市汐止區汐萬路一段256巷1號","121.652016666667","25.074715","6501100","汐止區"
"221002","707-TV","2018/09/15 20:49:44","新北市汐止區福德二路二段170號","121.629346666667","25.064915","6501100","汐止區"
"221018","753-BX","2018/09/15 20:49:41","新北市汐止區汐萬路一段117號","121.654191666667","25.07094","6501100","汐止區"
"220081","287-VK","2018/09/15 20:49:46","新北市八里區商港路105巷15-1號","121.393171666667","25.1496433333333","6500100","板橋區"
"220070","AAC-253","2018/09/15 20:49:51","新北市林口區汕頭32號","121.36634","25.134725","6500100","板橋區"
