"lineid","car","time","location","longitude","latitude","cityid","cityname"
"234013","KEA-2591","2018/09/15 22:00:58","新北市永和區福和路1號","121.526141666667","25.0094366666667","6500400","永和區"
"251004","009-UM","2018/09/15 22:03:17","新北市淡水區民族路35號","121.462558333333","25.1356266666667","6501000","淡水區"
"251005","010-UM","2018/09/15 22:03:12","新北市淡水區鄧公路30巷2弄61號","121.454261666667","25.1692716666667","6501000","淡水區"
"251010","413-VK","2018/09/15 22:03:18","新北市淡水區沙崙路181巷27號","121.423251666667","25.1848683333333","6501000","淡水區"
"251007","442-VK","2018/09/15 22:03:20","新北市淡水區北新路184巷15號","121.450013333333","25.1783016666667","6501000","淡水區"
"251008","443-VK","2018/09/15 22:03:22","新北市淡水區學府路104號","121.44988","25.17183","6501000","淡水區"
"251011","650-BX","2018/09/15 22:03:18","新北市淡水區水碓街7號","121.443195","25.1771483333333","6501000","淡水區"
"242031","348-TH","2018/09/15 22:03:27","新北市新莊區環河路455號","121.440515","25.0209083333333","6500500","新莊區"
