"lineid","car","time","location","longitude","latitude","cityid","cityname"
"248005","653-BX","2018/05/28 09:59:24","新北市五股區蓬萊路6巷10號","121.435755","25.0800183333333","6501500","五股區"
"244018","403-UM","2018/05/28 09:59:11","新北市林口區麗園二街58號","121.381261666667","25.0685766666667","6501700","林口區"
"244022","483-VK","2018/05/28 09:59:26","新北市林口區文化三路一段617巷126號","121.370795","25.07854","6501700","林口區"
"231007","189-VK","2018/05/28 09:59:09","新北市新店區新潭路三段215巷25號","121.508146666667","24.904085","6500600","新店區"
"231008","192-VK","2018/05/28 09:40:52","新北市新店區平廣路一段256號","121.507396666667","24.8879366666667","6500600","新店區"
"223002","KEA-2673","2018/05/28 09:30:00","新北市石碇區小粗坑(潭邊里)9-2號","121.678721666667","24.985725","6501900","石碇區"
"227005","282-VK","2018/05/28 09:59:09","新北市雙溪區泰平里灣潭路36號","121.811438333333","24.9287933333333","6502500","雙溪區"
"252004","249-BX","2018/05/28 09:59:26","新北市三芝區福德里埔尾32號","121.507976666667","25.2400816666667","6502100","三芝區"
"252006","AAC-283","2018/05/28 09:59:11","新北市三芝區新庄里新庄子51-25號","121.507586666667","25.27815","6502100","三芝區"
"237001","159-UY","2018/05/28 09:59:22","新北市三峽區國際一街19號","121.37371","24.9427166666667","6500900","三峽區"
"236005","498-BY","2018/05/28 09:59:22","新北市土城區城林路6巷80號","121.438696666667","24.9797933333333","6501300","土城區"
"242030","135-UY","2018/05/28 09:59:16","新北市新莊區中正路510-1號","121.434651666667","25.032685","6500500","新莊區"
"242001","KEA-2550","2018/05/28 09:59:16","新北市五股區芳洲路49號","121.441806666667","25.083975","6500500","新莊區"
"242043","280-VK","2018/05/28 09:59:23","新北市新莊區中正路新生巷85弄1號","121.417055","25.0216033333333","6500500","新莊區"
