"lineid","car","time","location","longitude","latitude","cityid","cityname"
"248005","653-BX","2018/05/28 10:09:24","新北市五股區中興路二段83巷26-6號","121.459536666667","25.0751666666667","6501500","五股區"
"244018","403-UM","2018/05/28 10:09:11","新北市林口區麗園二街81-1號","121.382178333333","25.067845","6501700","林口區"
"244022","483-VK","2018/05/28 10:09:06","新北市林口區文化三路一段555巷1號","121.369778333333","25.0760016666667","6501700","林口區"
"231007","189-VK","2018/05/28 10:09:09","新北市新店區新潭路三段215巷25號","121.508145","24.9040966666667","6500600","新店區"
"231008","192-VK","2018/05/28 10:09:12","新北市新店區平廣路一段9號","121.537806666667","24.907525","6500600","新店區"
"227005","282-VK","2018/05/28 10:09:09","新北市雙溪區泰平里灣潭路36號","121.812193333333","24.9287616666667","6502500","雙溪區"
"252004","249-BX","2018/05/28 10:09:26","新北市三芝區中興街二段260號","121.501096666667","25.2536316666667","6502100","三芝區"
"252006","AAC-283","2018/05/28 10:09:11","新北市三芝區古庄里古庄99-7號","121.49371","25.2707916666667","6502100","三芝區"
"237001","159-UY","2018/05/28 10:09:22","新北市三峽區國際二街81號","121.370625","24.9421833333333","6500900","三峽區"
"242001","KEA-2550","2018/05/28 10:09:16","新北市八里區荖阡坑路4-31號","121.39843","25.1421033333333","6500500","新莊區"
