"lineid","car","time","location","longitude","latitude","cityid","cityname"
"234044","148-BY","2018/05/28 12:49:21","新北市永和區秀朗路二段124-3號","121.524815","25.0015666666667","6500400","永和區"
"234005","207-UY","2018/05/28 12:49:35","新北市永和區文化路7號","121.515413333333","25.01501","6500400","永和區"
"234078","298-R6","2018/05/28 12:49:25","新北市永和區永利路108號","121.521258333333","25.0034083333333","6500400","永和區"
"234036","336-UY","2018/05/28 12:49:22","新北市永和區豫溪街217巷1號","121.524933333333","25.0092466666667","6500400","永和區"
"234062","337-UY","2018/05/28 12:49:20","新北市永和區福和路1號","121.526368333333","25.009775","6500400","永和區"
"234084","338-UY","2018/05/28 12:49:31","新北市永和區中正路51號","121.514616666667","24.9962466666667","6500400","永和區"
"234068","553-UM","2018/05/28 12:49:25","新北市永和區竹林路96巷4號","121.519133333333","25.01216","6500400","永和區"
"234015","745-BX","2018/05/28 12:49:34","新北市永和區忠孝街26巷8號","121.515471666667","25.016645","6500400","永和區"
"234028","746-BX","2018/05/28 12:49:26","新北市永和區得和路381號","121.524931666667","24.9994233333333","6500400","永和區"
"234052","KEA-2590","2018/05/28 12:49:21","新北市永和區環河東路一段122號","121.520483333333","25.0154516666667","6500400","永和區"
"234012","KEA-2591","2018/05/28 12:49:40","新北市永和區保福路二段133巷25號","121.509328333333","25.013645","6500400","永和區"
"234060","AAD-866","2018/05/28 12:49:36","新北市永和區福和路299號","121.516448333333","25.0072283333333","6500400","永和區"
"234040","862-TW","2018/05/28 12:49:38","新北市永和區永貞路308號","121.51179","25.0048616666667","6500400","永和區"
"234048","863-TW","2018/05/28 12:49:24","新北市永和區福和路1號","121.526696666667","25.0097216666667","6500400","永和區"
"234025","9371-KE","2018/05/28 12:49:35","新北市永和區中正路748號","121.514756666667","25.0102966666667","6500400","永和區"
"234010","9373-KE","2018/05/28 12:49:23","新北市永和區保福路二段162巷2號","121.509035","25.0151233333333","6500400","永和區"
"248007","095-VK","2018/05/28 12:49:32","新北市五股區中興路二段83巷26-6號","121.460065","25.0751183333333","6501500","五股區"
"248019","225-UY","2018/05/28 12:49:18","新北市五股區中興路二段83巷26-6號","121.459938333333","25.07526","6501500","五股區"
"234022","9380-KE","2018/05/28 12:49:38","新北市永和區竹林路119巷45號","121.521955","25.011855","6500400","永和區"
"234076","969-R7","2018/05/28 12:49:21","新北市中和區安樂路101-3號","121.51352","24.9950766666667","6500400","永和區"
"234066","AAC-212","2018/05/28 12:49:29","新北市永和區永和路一段22號","121.51308","25.0048233333333","6500400","永和區"
"234001","AAC-295","2018/05/28 12:49:27","新北市永和區中正路742-1號","121.515098333333","25.0102583333333","6500400","永和區"
"243004","646-TV","2018/05/28 12:25:31","新北市泰山區黎明路25號","121.422138333333","25.0607716666667","6501600","泰山區"
"231002","002-UM","2018/05/28 12:49:24","新北市新店區安華路28-1號","121.519705","24.9608083333333","6500600","新店區"
"231028","046-UY","2018/05/28 12:49:22","新北市新店區安華路28-1號","121.519663333333","24.960895","6500600","新店區"
"231005","106-UY","2018/05/28 12:49:32","新北市新店區安華路28-1號","121.519723333333","24.96096","6500600","新店區"
"231023","KEA-2219","2018/05/28 12:49:23","新北市新店區安華路3號","121.519405","24.9597616666667","6500600","新店區"
"231003","268-BY","2018/05/28 12:49:28","新北市新店區安華路28-1號","121.519423333333","24.96061","6500600","新店區"
"231014","AAD-862","2018/05/28 12:49:39","新北市新店區安一路一段1-1號","121.51976","24.96116","6500600","新店區"
"231037","4716-K9","2018/05/28 12:49:25","新北市新店區安一路一段1-1號","121.519273333333","24.9612433333333","6500600","新店區"
"231036","512-UM","2018/05/28 12:49:25","新北市新店區安一路一段1-1號","121.519271666667","24.961325","6500600","新店區"
"231013","513-UM","2018/05/28 12:49:25","新北市新店區安一路一段1-1號","121.519766666667","24.9613316666667","6500600","新店區"
"231030","619-UM","2018/05/28 12:49:34","新北市新店區安一路一段1-1號","121.519568333333","24.96132","6500600","新店區"
"231004","899-TW","2018/05/28 12:49:34","新北市新店區安華路28-1號","121.519075","24.9608983333333","6500600","新店區"
"231024","AKT-0513","2018/05/28 12:49:24","新北市新店區安華路28-1號","121.519396666667","24.9607783333333","6500600","新店區"
"235028","005-UY","2018/05/28 12:49:36","新北市中和區員山路36巷16-3號","121.485035","24.9913283333333","6500300","中和區"
"235027","006-UY","2018/05/28 12:49:33","新北市中和區員山路36巷16-3號","121.48469","24.9912966666667","6500300","中和區"
"235029","098-UM","2018/05/28 12:49:23","新北市中和區員山路36巷16-3號","121.485053333333","24.9913283333333","6500300","中和區"
"235002","185-VK","2018/05/28 12:49:29","新北市中和區中正路637巷60弄61號","121.485496666667","24.99306","6500300","中和區"
"235031","255-BX","2018/05/28 12:49:28","新北市中和區中山路二段570號","121.483011666667","25.0051883333333","6500300","中和區"
"235016","805-TS","2018/05/28 12:49:32","新北市中和區員山路36巷16號","121.48445","24.9915583333333","6500300","中和區"
"235030","911-UM","2018/05/28 12:49:22","新北市中和區員山路36巷16-2號","121.485231666667","24.9917533333333","6500300","中和區"
"207001","662-BX","2018/05/28 12:49:27","新北市萬里區萬里里獅頭路23號","121.693358333333","25.17824","6502800","萬里區"
"236005","498-BY","2018/05/28 12:49:18","新北市土城區永寧路29號","121.430456666667","24.9632366666667","6501300","土城區"
"221032","280-BY","2018/05/28 12:49:21","新北市汐止區汐萬路一段81號","121.654708333333","25.0699316666667","6501100","汐止區"
