"lineid","car","time","location","longitude","latitude","cityid","cityname"
"234044","148-BY","2018/05/28 14:09:21","新北市永和區永亨路203號","121.526116666667","25.0026833333333","6500400","永和區"
"234005","207-UY","2018/05/28 14:09:15","新北市中和區中和路265號","121.50554","24.9997433333333","6500400","永和區"
"234078","298-R6","2018/05/28 14:09:25","新北市永和區永亨路100號","121.523121666667","25.00482","6500400","永和區"
"234036","336-UY","2018/05/28 14:09:22","新北市永和區成功路一段72號","121.52688","25.0035433333333","6500400","永和區"
"234062","337-UY","2018/05/28 14:09:20","新北市永和區永利路96號","121.520921666667","25.0037466666667","6500400","永和區"
"234084","338-UY","2018/05/28 14:09:11","新北市永和區福和路213號","121.519318333333","25.007375","6500400","永和區"
"234068","553-UM","2018/05/28 14:09:24","新北市永和區福和路287號","121.517266666667","25.0074283333333","6500400","永和區"
"234015","745-BX","2018/05/28 14:09:14","新北市永和區仁愛路15號","121.514693333333","25.013375","6500400","永和區"
"234028","746-BX","2018/05/28 14:09:26","新北市永和區民生路22巷27號","121.521176666667","24.9970166666667","6500400","永和區"
"234052","KEA-2590","2018/05/28 14:09:21","新北市永和區環河東路一段122號","121.520643333333","25.0155016666667","6500400","永和區"
"234012","KEA-2591","2018/05/28 14:09:19","新北市永和區永貞路435號","121.506913333333","25.0099133333333","6500400","永和區"
"234060","AAD-866","2018/05/28 14:09:16","新北市中和區安平路222號","121.51404","25.000115","6500400","永和區"
"234040","862-TW","2018/05/28 14:09:18","新北市永和區雙和街64巷25號","121.509713333333","25.0033016666667","6500400","永和區"
"234048","863-TW","2018/05/28 14:09:25","新北市永和區環河西路二段23號","121.50761","25.0158233333333","6500400","永和區"
"234025","9371-KE","2018/05/28 14:09:15","新北市永和區安樂路423號","121.514461666667","25.0041166666667","6500400","永和區"
"234010","9373-KE","2018/05/28 14:09:23","新北市永和區環河西路二段241號","121.50065","25.0092866666667","6500400","永和區"
"248015","026-BX","2018/05/28 14:09:18","新北市五股區成泰路三段543巷56號","121.449571666667","25.10313","6501500","五股區"
"248007","095-VK","2018/05/28 14:09:12","新北市五股區中興路二段83巷26-6號","121.459693333333","25.0749316666667","6501500","五股區"
"248019","225-UY","2018/05/28 14:01:17","新北市五股區凌雲路三段57號","121.425196666667","25.1250516666667","6501500","五股區"
"248011","247-BX","2018/05/28 14:09:27","新北市五股區成泰路二段158號","121.438491666667","25.0839016666667","6501500","五股區"
"248009","272-BY","2018/05/28 14:09:12","新北市五股區水碓一路23號","121.43064","25.0713633333333","6501500","五股區"
"248003","677-BX","2018/05/28 14:09:25","新北市五股區民義路一段185-4號","121.431738333333","25.0884916666667","6501500","五股區"
"248001","678-BX","2018/05/28 14:09:28","新北市五股區成泰路三段577巷82號","121.449656666667","25.1037833333333","6501500","五股區"
"234022","9380-KE","2018/05/28 14:09:18","新北市永和區博愛街32巷17-1號","121.51888","25.015245","6500400","永和區"
"234076","969-R7","2018/05/28 14:09:21","新北市永和區民族街81巷62號","121.520328333333","24.9964483333333","6500400","永和區"
"234072","AAC-211","2018/05/28 14:09:21","新北市永和區豫溪街160巷2-1號","121.523021666667","25.0095066666667","6500400","永和區"
"234066","AAC-212","2018/05/28 14:09:09","新北市永和區保平路214巷3弄10號","121.508835","25.0060616666667","6500400","永和區"
"234001","AAC-295","2018/05/28 14:09:27","新北市永和區中正路708號","121.51608","25.0099783333333","6500400","永和區"
"243005","AAD-798","2018/05/28 14:09:18","新北市泰山區台麗街16巷12號","121.424343333333","25.037625","6501600","泰山區"
"243001","297-R6","2018/05/28 14:09:23","新北市泰山區楓江路25巷3號","121.434458333333","25.063095","6501600","泰山區"
"243008","380-SR","2018/05/28 14:09:29","新北市泰山區明志路二段345巷27號","121.425561666667","25.0442516666667","6501600","泰山區"
"243007","421-VK","2018/05/28 14:09:24","新北市泰山區公園路4號","121.429943333333","25.0539683333333","6501600","泰山區"
"243003","KEA-2215","2018/05/28 14:09:17","新北市泰山區明志路二段368號","121.425645","25.0448983333333","6501600","泰山區"
"243002","KEA-2216","2018/05/28 14:09:26","新北市泰山區明志路一段481號","121.431085","25.05542","6501600","泰山區"
"243004","646-TV","2018/05/28 14:09:30","新北市泰山區明志路一段395號","121.430805","25.05745","6501600","泰山區"
"243006","680-BX","2018/05/28 14:09:14","新北市泰山區泰林路二段462-1號","121.425805","25.0641966666667","6501600","泰山區"
"231002","002-UM","2018/05/28 14:09:24","新北市新店區中正路542-10號","121.533686666667","24.9849483333333","6500600","新店區"
"231028","046-UY","2018/05/28 14:09:23","新北市新店區安和路三段37號","121.517838333333","24.98192","6500600","新店區"
"231001","047-UY","2018/05/28 14:08:56","新北市新店區中華路62號","121.539255","24.9689366666667","6500600","新店區"
"231005","106-UY","2018/05/28 14:09:12","新北市新店區中興路三段297號","121.542158333333","24.985175","6500600","新店區"
"231019","108-UY","2018/05/28 14:09:20","新北市新店區新烏路二段321號","121.54992","24.910945","6500600","新店區"
"231011","187-VK","2018/05/28 14:09:24","新北市新店區五峰路149號","121.544971666667","24.9656783333333","6500600","新店區"
"231010","188-VK","2018/05/28 14:09:11","新北市新店區安康路一段351-1號","121.519643333333","24.9637266666667","6500600","新店區"
"231023","KEA-2219","2018/05/28 14:09:24","新北市新店區文中路45號","121.539548333333","24.95661","6500600","新店區"
"231003","268-BY","2018/05/28 14:09:28","新北市新店區北宜路一段3號","121.538451666667","24.9584566666667","6500600","新店區"
"231018","278-BY","2018/05/28 14:09:14","新北市新店區中央五街46號","121.528121666667","24.9752","6500600","新店區"
"231014","AAD-862","2018/05/28 14:09:19","新北市新店區北宜路二段150號","121.557733333333","24.95292","6500600","新店區"
"231038","3712-VJ","2018/05/28 14:09:18","新北市新店區溪洲路8巷66號","121.533078333333","24.96247","6500600","新店區"
"231027","3713-VJ","2018/05/28 14:09:25","新北市新店區光明街138巷13弄9號","121.540153333333","24.9614983333333","6500600","新店區"
"231037","4716-K9","2018/05/28 14:09:25","新北市新店區安康路三段165巷2弄12號","121.489095","24.9513666666667","6500600","新店區"
"231025","4715-K9","2018/05/28 14:09:27","新北市新店區二十張路129巷5弄7號","121.536713333333","24.9788716666667","6500600","新店區"
"231036","512-UM","2018/05/28 14:09:25","新北市新店區安祥路109巷1弄73號","121.478443333333","24.9606333333333","6500600","新店區"
"231013","513-UM","2018/05/28 14:09:25","新北市新店區北新路三段65巷34弄12號","121.540058333333","24.981435","6500600","新店區"
"231035","515-UM","2018/05/28 14:09:16","新北市新店區安和路一段52巷2-1號","121.51768","24.9664366666667","6500600","新店區"
"231034","616-UM","2018/05/28 14:09:26","新北市新店區車子路11號","121.503078333333","24.95208","6500600","新店區"
"231030","619-UM","2018/05/28 14:09:17","新北市新店區安興路7號","121.514971666667","24.9682583333333","6500600","新店區"
"231031","720-UM","2018/05/28 14:09:13","新北市新店區碧潭路63號","121.534265","24.9566233333333","6500600","新店區"
"231029","897-TW","2018/05/28 14:09:29","新北市新店區安康路二段140號","121.512478333333","24.96171","6500600","新店區"
"231006","898-TW","2018/05/28 14:09:30","新北市新店區北宜路二段341號","121.557751666667","24.9540366666667","6500600","新店區"
"231004","899-TW","2018/05/28 14:09:18","新北市新店區北新路二段172號","121.54302","24.97583","6500600","新店區"
"235028","005-UY","2018/05/28 14:09:16","新北市中和區中和路26巷17號","121.499245","25.001445","6500300","中和區"
"235027","006-UY","2018/05/28 14:09:13","新北市中和區連城路249巷5號","121.493691666667","24.99683","6500300","中和區"
"235020","096-UM","2018/05/28 14:09:13","新北市中和區員山路520號","121.478918333333","25.0096033333333","6500300","中和區"
"235003","097-UM","2018/05/28 14:09:24","新北市中和區秀峰街119巷6弄2號","121.519641666667","24.9900783333333","6500300","中和區"
"235029","098-UM","2018/05/28 14:09:23","新北市中和區中山路二段64巷12弄17號","121.504258333333","25.0057016666667","6500300","中和區"
"235004","150-BY","2018/05/28 14:09:16","新北市中和區宜安路111號","121.510318333333","24.99773","6500300","中和區"
"235022","151-BY","2018/05/28 14:09:30","新北市中和區員山路126號","121.48112","24.995975","6500300","中和區"
"235019","183-VK","2018/05/28 14:09:30","新北市中和區德光路113號","121.468113333333","25.0032366666667","6500300","中和區"
"235002","185-VK","2018/05/28 14:09:29","新北市中和區大仁街10巷17號","121.518631666667","24.9925733333333","6500300","中和區"
"235013","186-VK","2018/05/28 14:09:21","新北市中和區景新街205-15號","121.507348333333","24.995055","6500300","中和區"
"235031","255-BX","2018/05/28 14:09:08","新北市中和區新生街233巷10號","121.484445","24.9985766666667","6500300","中和區"
"235008","293-VK","2018/05/28 14:09:19","新北市中和區復興路325號","121.500801666667","24.990135","6500300","中和區"
"235036","301-VK","2018/05/28 14:09:17","新北市中和區福美路270號","121.498006666667","25.005075","6500300","中和區"
"235007","352-BY","2018/05/28 14:09:29","新北市中和區景平路4號","121.524236666667","24.99063","6500300","中和區"
"235014","4979-A6","2018/05/28 14:09:27","新北市中和區復興路280巷18弄6號","121.502271666667","24.9916633333333","6500300","中和區"
"235033","4980-A6","2018/05/28 14:09:20","新北市中和區中和路165巷3號","121.502853333333","25.000205","6500300","中和區"
"235006","551-UM","2018/05/28 14:09:19","新北市中和區自立路129號","121.52193","24.9940283333333","6500300","中和區"
"235034","558-UM","2018/05/28 14:09:15","新北市中和區中和路179號","121.503268333333","24.999815","6500300","中和區"
"235009","565-BX","2018/05/28 14:09:11","新北市中和區景新街467巷35弄10號","121.514371666667","24.9890733333333","6500300","中和區"
"235018","640-BX","2018/05/28 14:09:25","新北市中和區國光街107巷2弄32號","121.46932","24.9990083333333","6500300","中和區"
"235024","647-TV","2018/05/28 14:09:13","新北市中和區中山路三段122號","121.474621666667","25.0062266666667","6500300","中和區"
"235010","733-UM","2018/05/28 14:09:08","新北市中和區忠孝街1巷50號","121.508398333333","24.9843516666667","6500300","中和區"
"235035","783-BX","2018/05/28 14:09:18","新北市中和區橋和路77號","121.489291666667","25.0052","6500300","中和區"
"235026","800-TS","2018/05/28 14:09:08","新北市中和區中山路二段362-1號","121.492356666667","25.003405","6500300","中和區"
"235021","801-TS","2018/05/28 14:09:14","新北市中和區民利街56號","121.479165","24.9987416666667","6500300","中和區"
"235005","802-TS","2018/05/28 14:09:29","新北市中和區中安街178巷2號","121.51099","24.9995516666667","6500300","中和區"
"235016","805-TS","2018/05/28 14:09:12","新北市中和區興南路二段128巷9弄1號","121.50341","24.9841916666667","6500300","中和區"
"235012","896-TW","2018/05/28 14:09:23","新北市中和區工專路147號","121.508471666667","24.9788366666667","6500300","中和區"
"235017","900-TW","2018/05/28 14:09:14","新北市中和區民德路274號","121.467748333333","24.9964616666667","6500300","中和區"
"235030","911-UM","2018/05/28 14:09:22","新北市中和區廣福路12-3號","121.505401666667","25.0027833333333","6500300","中和區"
"235015","157-BY","2018/05/28 14:09:24","新北市中和區興南路一段88號","121.5099","24.9891883333333","6500300","中和區"
"235001","AAC-213","2018/05/28 14:09:23","新北市中和區秀朗路三段50巷2弄2號","121.526226666667","24.9955466666667","6500300","中和區"
"235023","AAC-215","2018/05/28 14:09:12","新北市中和區圓通路296巷31弄1號","121.488611666667","24.990485","6500300","中和區"
"220016","013-TV","2018/05/28 14:09:23","新北市板橋區翠華街6巷59號","121.48128","25.0250033333333","6500100","板橋區"
"220013","072-UY","2018/05/28 14:09:21","新北市板橋區民族路219巷7號","121.469325","25.0079716666667","6500100","板橋區"
"220034","073-UY","2018/05/28 14:09:25","新北市板橋區中正路216巷48-1號","121.45731","25.018825","6500100","板橋區"
"220105","075-UY","2018/05/28 14:09:23","新北市板橋區雙十路三段9號","121.471575","25.030135","6500100","板橋區"
"220017","AAD-861","2018/05/28 14:09:11","新北市板橋區華興街56號","121.45803","25.00476","6500100","板橋區"
"220045","120-SR","2018/05/28 14:01:29","新北市板橋區民生路二段161巷5號","121.470153333333","25.019705","6500100","板橋區"
"247023","893-R6","2018/05/28 14:09:28","新北市蘆洲區光榮路112號","121.464406666667","25.0893366666667","6501400","蘆洲區"
"247013","546-UM","2018/05/28 14:09:19","新北市蘆洲區忠孝路92號","121.471398333333","25.08583","6501400","蘆洲區"
"247021","500-BY","2018/05/28 14:09:28","新北市蘆洲區三民路130號","121.470855","25.0874616666667","6501400","蘆洲區"
"247009","341-TH","2018/05/28 14:09:17","新北市蘆洲區信義路172號","121.479255","25.0839516666667","6501400","蘆洲區"
"247011","339-TH","2018/05/28 14:09:19","新北市蘆洲區信義路343巷1號","121.477901666667","25.0870233333333","6501400","蘆洲區"
"247003","337-TH","2018/05/28 14:09:13","新北市蘆洲區長安街102巷18號","121.462576666667","25.08193","6501400","蘆洲區"
"247005","336-TH","2018/05/28 14:09:20","新北市蘆洲區九芎街10號","121.467451666667","25.07868","6501400","蘆洲區"
"247017","057-VK","2018/05/28 14:09:19","新北市蘆洲區復興路105巷11號","121.476331666667","25.0883833333333","6501400","蘆洲區"
"247007","056-VK","2018/05/28 14:09:19","新北市蘆洲區中山一路276號","121.471576666667","25.0792416666667","6501400","蘆洲區"
"247015","007-UY","2018/05/28 14:09:31","新北市蘆洲區中正路185巷19號","121.46749","25.0848966666667","6501400","蘆洲區"
"247001","002-UY","2018/05/28 14:09:19","新北市蘆洲區永平街56號","121.457645","25.0915033333333","6501400","蘆洲區"
"247019","001-UY","2018/05/28 14:09:27","新北市蘆洲區民族路426巷48號","121.472933333333","25.0933666666667","6501400","蘆洲區"
"235011","251-BX","2018/05/28 14:09:18","新北市中和區興南路二段36號","121.50697","24.9853466666667","6500300","中和區"
"253003","6232-TK","2018/05/28 14:09:23","新北市石門區尖子鹿47-2號","121.58067","25.2686366666667","6502200","石門區"
"253001","6251-TK","2018/05/28 14:09:12","新北市石門區八甲27-1號","121.528398333333","25.2778783333333","6502200","石門區"
"253002","637-UY","2018/05/28 14:09:24","新北市石門區七股34號","121.552853333333","25.2611116666667","6502200","石門區"
"253004","8270-PC","2018/05/28 14:09:22","新北市石門區草埔尾34-5號","121.602546666667","25.2649033333333","6502200","石門區"
"207002","749-BX","2018/05/28 14:09:12","新北市萬里區溪底里瑞泉路1號","121.610768333333","25.1457616666667","6502800","萬里區"
"252005","073-UM","2018/05/28 14:09:17","新北市三芝區橫山里橫山57-2號","121.534643333333","25.253805","6502100","三芝區"
"207001","662-BX","2018/05/28 14:09:27","新北市萬里區磺潭里清水18號","121.63767","25.197675","6502800","萬里區"
"236064","105-UM","2018/05/28 14:09:28","新北市土城區明德路一段126號","121.463703333333","24.979125","6501300","土城區"
"236040","107-UM","2018/05/28 14:09:26","新北市土城區裕生路102巷20號","121.446336666667","24.9847983333333","6501300","土城區"
"236074","166-UM","2018/05/28 14:09:16","新北市土城區永寧路18號","121.43036","24.9625483333333","6501300","土城區"
"236029","253-BX","2018/05/28 14:09:10","新北市土城區城林路6巷80號","121.438505","24.9797983333333","6501300","土城區"
"236024","269-VK","2018/05/28 14:09:21","新北市土城區承天路18號","121.439455","24.96348","6501300","土城區"
"236012","270-VK","2018/05/28 14:09:18","新北市土城區學府路一段210號","121.452388333333","24.9853633333333","6501300","土城區"
"236032","271-VK","2018/05/28 14:09:12","新北市土城區明德路一段369號","121.455406666667","24.9780083333333","6501300","土城區"
"236016","401-BY","2018/05/28 14:09:27","新北市土城區城林路6巷80號","121.43856","24.979775","6501300","土城區"
"236005","498-BY","2018/05/28 14:09:18","新北市土城區中央路一段21號","121.44853","24.990945","6501300","土城區"
"236057","912-UM","2018/05/28 14:09:25","新北市土城區中央路四段196-1號","121.416308333333","24.9577433333333","6501300","土城區"
"236045","913-UM","2018/05/28 14:09:14","新北市土城區明德路一段365-1號","121.453548333333","24.979045","6501300","土城區"
"236060","915-UM","2018/05/28 14:09:11","新北市土城區金城路三段177號","121.469411666667","24.9886316666667","6501300","土城區"
"236054","AAC-216","2018/05/28 14:09:14","新北市土城區城林路6巷80號","121.438561666667","24.9798316666667","6501300","土城區"
"220027","145-BY","2018/05/28 14:09:15","新北市板橋區民權路202巷6弄2號","121.460035","25.01461","6500100","板橋區"
"220028","200-UY","2018/05/28 14:09:18","新北市板橋區大觀路二段3巷5號","121.447566666667","25.0038533333333","6500100","板橋區"
"220030","610-BX","2018/05/28 14:09:14","新北市板橋區溪崑二街40號","121.428285","24.9909366666667","6500100","板橋區"
"220050","245-BX","2018/05/28 14:09:17","新北市板橋區萬板路13號","121.470491666667","25.0210266666667","6500100","板橋區"
"220004","276-BY","2018/05/28 14:09:23","新北市板橋區信義路74巷2弄2號","121.45724","24.9932516666667","6500100","板橋區"
"220020","277-BY","2018/05/28 14:09:24","新北市板橋區篤行路三段79-6號","121.427478333333","24.9850716666667","6500100","板橋區"
"220043","280-UM","2018/05/28 14:09:21","新北市板橋區光武街127巷2號","121.465925","25.0288183333333","6500100","板橋區"
"220019","283-VK","2018/05/28 14:09:26","新北市板橋區大豐街18號","121.46222","25.0014366666667","6500100","板橋區"
"220001","285-VK","2018/05/28 14:09:16","新北市板橋區懷仁街34巷10號","121.476105","25.019235","6500100","板橋區"
"220031","286-VK","2018/05/28 14:09:24","新北市板橋區大觀路二段174巷196弄1號","121.442535","25.0038866666667","6500100","板橋區"
"220029","287-VK","2018/05/28 14:09:15","新北市板橋區南雅西路二段160號","121.451735","25.0134466666667","6500100","板橋區"
"220039","288-VK","2018/05/28 14:09:19","新北市板橋區四維路291巷2弄1號","121.46273","25.0282433333333","6500100","板橋區"
"220009","293-UM","2018/05/28 14:09:13","新北市板橋區三民路二段21巷13號","121.479861666667","25.0182166666667","6500100","板橋區"
"220010","295-UM","2018/05/28 14:09:13","新北市板橋區三民路二段居仁巷2弄25號","121.479973333333","25.0130216666667","6500100","板橋區"
"220032","296-UM","2018/05/28 14:09:24","新北市板橋區溪崑一街47巷2號","121.430395","24.9909316666667","6500100","板橋區"
"220023","303-R5","2018/05/28 14:09:18","新北市板橋區林園街54號","121.453901666667","25.01072","6500100","板橋區"
"220041","307-R5","2018/05/28 14:09:11","新北市板橋區文化路一段152號","121.46541","25.0191366666667","6500100","板橋區"
"220047","317-R6","2018/05/28 14:09:17","新北市板橋區自由路51巷12號","121.46481","25.0235733333333","6500100","板橋區"
"220012","486-VK","2018/05/28 14:09:25","新北市板橋區板新路1號","121.475526666667","25.0123066666667","6500100","板橋區"
"220037","491-VK","2018/05/28 14:09:14","新北市板橋區莊敬路38號","121.47278","25.0269816666667","6500100","板橋區"
"220104","560-BX","2018/05/28 14:09:09","新北市板橋區中正路415號","121.454093333333","25.0226333333333","6500100","板橋區"
"220052","561-BX","2018/05/28 14:09:07","新北市板橋區文化路一段188巷9弄21號","121.468506666667","25.01959","6500100","板橋區"
"220011","609-BX","2018/05/28 14:09:20","新北市板橋區三民路二段72號","121.479286666667","25.0170433333333","6500100","板橋區"
"220040","637-BX","2018/05/28 14:09:22","新北市板橋區萬板路516號","121.480598333333","25.026395","6500100","板橋區"
"220005","686-BX","2018/05/28 14:09:26","新北市板橋區重慶路319號","121.463861666667","24.9985833333333","6500100","板橋區"
"220025","687-BX","2018/05/28 14:09:17","新北市板橋區龍興街69號","121.443543333333","25.00158","6500100","板橋區"
"220042","689-BX","2018/05/28 14:09:19","新北市板橋區民生路三段219號","121.464881666667","25.0282983333333","6500100","板橋區"
"220002","741-BX","2018/05/28 14:09:16","新北市板橋區重慶路69巷8號","121.462253333333","25.0068966666667","6500100","板橋區"
"220051","KEA-2699","2018/05/28 14:09:20","新北市板橋區田單街51號","121.482715","25.02789","6500100","板橋區"
"220021","806-UM","2018/05/28 14:09:21","新北市板橋區中正路163-1號","121.456581666667","25.0163083333333","6500100","板橋區"
"220003","827-TW","2018/05/28 14:09:09","新北市板橋區中山路一段140號","121.463498333333","25.0108733333333","6500100","板橋區"
"220014","829-TW","2018/05/28 14:09:14","新北市板橋區民享街116巷2弄16號","121.47741","25.0155416666667","6500100","板橋區"
"220045","831-TW","2018/05/28 14:09:25","新北市板橋區雙十路二段47巷32號","121.475388333333","25.0257733333333","6500100","板橋區"
"220038","833-TW","2018/05/28 14:09:20","新北市板橋區文化路二段446號","121.474555","25.0324016666667","6500100","板橋區"
"220022","895-R6","2018/05/28 14:09:20","新北市板橋區府中路161號","121.454976666667","25.0093616666667","6500100","板橋區"
"220046","AAC-210","2018/05/28 14:09:23","新北市板橋區英士路151號","121.45999","25.024195","6500100","板橋區"
"220018","AAC-253","2018/05/28 14:09:20","新北市板橋區忠孝路33-1號","121.460796666667","25.002045","6500100","板橋區"
"235032","KEA-2873","2018/05/28 14:09:23","新北市中和區圓通路158巷9弄25號","121.497446666667","24.9963766666667","6500300","中和區"
"235025","KEA-2875","2018/05/28 14:09:08","新北市中和區員山路467號","121.480371666667","25.00453","6500300","中和區"
