"lineid","car","time","location","longitude","latitude","cityid","cityname"
"234044","148-BY","2018/05/28 14:19:07","新北市永和區成功路一段16巷7號","121.526513333333","25.0054066666667","6500400","永和區"
"234005","207-UY","2018/05/28 14:18:55","新北市永和區中山路一段30號","121.51365","25.0105166666667","6500400","永和區"
"234078","298-R6","2018/05/28 14:19:05","新北市永和區國中路130號","121.523491666667","25.0068466666667","6500400","永和區"
"234036","336-UY","2018/05/28 14:19:02","新北市永和區成功路一段93巷11-1號","121.527608333333","25.0027616666667","6500400","永和區"
"234062","337-UY","2018/05/28 14:19:00","新北市永和區得和路108號","121.518286666667","25.00016","6500400","永和區"
"234084","338-UY","2018/05/28 14:19:11","新北市永和區中正路708號","121.516091666667","25.0099183333333","6500400","永和區"
"234068","553-UM","2018/05/28 14:19:04","新北市永和區永寧街113號","121.518123333333","25.0062033333333","6500400","永和區"
"234015","745-BX","2018/05/28 14:18:54","新北市永和區仁愛路91號","121.512981666667","25.0131816666667","6500400","永和區"
"234028","746-BX","2018/05/28 14:19:06","新北市永和區民權路49巷21號","121.52111","24.9974016666667","6500400","永和區"
"234052","KEA-2590","2018/05/28 14:19:01","新北市永和區光復街4號","121.516408333333","25.0167366666667","6500400","永和區"
"234012","KEA-2591","2018/05/28 14:18:59","新北市永和區保生路24號","121.506511666667","25.0077","6500400","永和區"
"234060","AAD-866","2018/05/28 14:18:56","新北市永和區安樂路170號","121.514761666667","25.0008383333333","6500400","永和區"
"234040","862-TW","2018/05/28 14:18:58","新北市中和區中安街182號","121.511146666667","24.9994866666667","6500400","永和區"
"234048","863-TW","2018/05/28 14:19:05","新北市永和區新生路18號","121.508958333333","25.0164583333333","6500400","永和區"
"234025","9371-KE","2018/05/28 14:18:54","新北市永和區安樂路144巷31號","121.515356666667","24.9997383333333","6500400","永和區"
"234010","9373-KE","2018/05/28 14:19:03","新北市永和區保生路55-1號","121.50453","25.0109266666667","6500400","永和區"
"248015","026-BX","2018/05/28 14:18:58","新北市五股區成洲五路12號","121.452303333333","25.101595","6501500","五股區"
"248007","095-VK","2018/05/28 14:18:52","新北市五股區中興路二段83巷26-3號","121.46002","25.07547","6501500","五股區"
"248019","225-UY","2018/05/28 14:01:17","新北市五股區凌雲路三段57號","121.425196666667","25.1250516666667","6501500","五股區"
"248011","247-BX","2018/05/28 14:19:01","新北市五股區成泰路二段87號","121.43815","25.0841916666667","6501500","五股區"
"248009","272-BY","2018/05/28 14:18:53","新北市五股區水碓一路23號","121.430663333333","25.0713383333333","6501500","五股區"
"248003","677-BX","2018/05/28 14:19:05","新北市五股區五福路56號","121.433311666667","25.0896716666667","6501500","五股區"
"248001","678-BX","2018/05/28 14:19:07","新北市五股區成泰路四段6-3號","121.453","25.106415","6501500","五股區"
"234022","9380-KE","2018/05/28 14:18:58","新北市永和區竹林路30號","121.51711","25.0147133333333","6500400","永和區"
"234076","969-R7","2018/05/28 14:19:01","新北市永和區民族街81巷48號","121.519841666667","24.9965316666667","6500400","永和區"
"234072","AAC-211","2018/05/28 14:19:01","新北市永和區豫溪街191巷7弄10號","121.523476666667","25.0108016666667","6500400","永和區"
"234066","AAC-212","2018/05/28 14:19:09","新北市永和區保平路268巷32號","121.507466666667","25.0066033333333","6500400","永和區"
"234001","AAC-295","2018/05/28 14:19:07","新北市永和區中正路620號","121.517133333333","25.0077783333333","6500400","永和區"
"244001","248-BX","2018/05/28 14:18:56","新北市林口區嘉寶里42號","121.333638333333","25.12285","6501700","林口區"
"243005","AAD-798","2018/05/28 14:19:09","新北市泰山區明志路三段145巷11弄1號","121.42567","25.03983","6501600","泰山區"
"243001","297-R6","2018/05/28 14:18:54","新北市泰山區和平街13巷23號","121.43443","25.0656933333333","6501600","泰山區"
"243008","380-SR","2018/05/28 14:18:49","新北市泰山區明志路三段153-1號","121.42484","25.03986","6501600","泰山區"
"243007","421-VK","2018/05/28 14:19:04","新北市泰山區明志路二段51號","121.429275","25.052815","6501600","泰山區"
"243003","KEA-2215","2018/05/28 14:18:57","新北市泰山區中央路11巷16號","121.426695","25.0424816666667","6501600","泰山區"
"243002","KEA-2216","2018/05/28 14:19:06","新北市泰山區明志路二段25號","121.429781666667","25.0533233333333","6501600","泰山區"
"243004","646-TV","2018/05/28 14:18:51","新北市泰山區仁義路195號","121.433085","25.0539266666667","6501600","泰山區"
"243006","680-BX","2018/05/28 14:18:54","新北市泰山區泰林路二段168號","121.433855","25.0604483333333","6501600","泰山區"
"231002","002-UM","2018/05/28 14:19:04","新北市新店區中正路457號","121.533858333333","24.97997","6500600","新店區"
"231028","046-UY","2018/05/28 14:19:02","新北市新店區安和路二段213號","121.517663333333","24.9754883333333","6500600","新店區"
"231001","047-UY","2018/05/28 14:18:56","新北市新店區中正路75巷71號","121.543123333333","24.9688266666667","6500600","新店區"
"231005","106-UY","2018/05/28 14:18:52","新北市新店區中興路三段221-3號","121.543476666667","24.9825166666667","6500600","新店區"
"231019","108-UY","2018/05/28 14:19:08","新北市新店區桂山路51巷6-1號","121.561918333333","24.9015266666667","6500600","新店區"
"231011","187-VK","2018/05/28 14:19:04","新北市新店區五峰路63巷12號","121.54646","24.9686283333333","6500600","新店區"
"231023","KEA-2219","2018/05/28 14:19:04","新北市新店區光明街73號","121.538898333333","24.9606083333333","6500600","新店區"
"231003","268-BY","2018/05/28 14:19:08","新北市新店區中興路一段180號","121.543216666667","24.9646866666667","6500600","新店區"
"231018","278-BY","2018/05/28 14:18:54","新北市新店區中央四街47號","121.527888333333","24.9749516666667","6500600","新店區"
"231014","AAD-862","2018/05/28 14:18:59","新北市新店區中生路149號","121.568708333333","24.9505833333333","6500600","新店區"
"231038","3712-VJ","2018/05/28 14:18:58","新北市新店區溪洲路6巷88號","121.533411666667","24.9634833333333","6500600","新店區"
"231027","3713-VJ","2018/05/28 14:19:05","新北市新店區北新路一段100號","121.542123333333","24.9694566666667","6500600","新店區"
"231037","4716-K9","2018/05/28 14:19:05","新北市新店區安康路二段317號","121.499408333333","24.9566766666667","6500600","新店區"
"231025","4715-K9","2018/05/28 14:19:07","新北市新店區民族路161號","121.537771666667","24.9767033333333","6500600","新店區"
"231036","512-UM","2018/05/28 14:19:05","新北市新店區安祥路109巷85弄25號","121.478361666667","24.9600266666667","6500600","新店區"
"231013","513-UM","2018/05/28 14:19:05","新北市新店區大豐路73號","121.539181666667","24.979475","6500600","新店區"
"231035","515-UM","2018/05/28 14:18:56","新北市新店區安和路二段117巷10號","121.518331666667","24.9702333333333","6500600","新店區"
"231034","616-UM","2018/05/28 14:19:06","新北市新店區車子路11號","121.503078333333","24.9520983333333","6500600","新店區"
"231030","619-UM","2018/05/28 14:18:54","新北市新店區安光路10-1號","121.513571666667","24.96419","6500600","新店區"
"231031","720-UM","2018/05/28 14:18:53","新北市新店區太平路8號","121.534508333333","24.958195","6500600","新店區"
"231029","897-TW","2018/05/28 14:19:09","新北市新店區安康路二段203號","121.509055","24.9589933333333","6500600","新店區"
"231006","898-TW","2018/05/28 14:18:50","新北市新店區北宜路二段599號","121.568138333333","24.9556366666667","6500600","新店區"
"231004","899-TW","2018/05/28 14:18:54","新北市新店區中正路146號","121.541768333333","24.9715083333333","6500600","新店區"
"235028","005-UY","2018/05/28 14:18:56","新北市中和區連城路3號","121.499348333333","25.0022366666667","6500300","中和區"
"235027","006-UY","2018/05/28 14:18:53","新北市中和區連勝街121巷16號","121.495136666667","24.99443","6500300","中和區"
"235020","096-UM","2018/05/28 14:18:53","新北市中和區員山路533號","121.479676666667","25.007025","6500300","中和區"
"235003","097-UM","2018/05/28 14:19:04","新北市中和區秀峰街119巷6弄24號","121.518466666667","24.9902366666667","6500300","中和區"
"235029","098-UM","2018/05/28 14:19:09","新北市中和區莊敬路23號","121.500088333333","25.004575","6500300","中和區"
"235004","150-BY","2018/05/28 14:18:56","新北市中和區宜安路47巷2號","121.511631666667","24.9964433333333","6500300","中和區"
"235022","151-BY","2018/05/28 14:18:50","新北市中和區連城路469巷91號","121.484136666667","24.993445","6500300","中和區"
"235019","183-VK","2018/05/28 14:19:10","新北市中和區莒光路3巷11號","121.472308333333","25.0060716666667","6500300","中和區"
"235002","185-VK","2018/05/28 14:19:09","新北市中和區大仁街10巷27弄3號","121.519176666667","24.9926966666667","6500300","中和區"
"235013","186-VK","2018/05/28 14:19:01","新北市中和區景新街228-6號","121.508171666667","24.9941266666667","6500300","中和區"
"235031","255-BX","2018/05/28 14:19:08","新北市中和區連城路338號","121.482973333333","24.9958183333333","6500300","中和區"
"235008","293-VK","2018/05/28 14:18:59","新北市中和區復興路316號","121.500925","24.9903766666667","6500300","中和區"
"235036","301-VK","2018/05/28 14:18:57","新北市中和區中山路二段3巷22弄24號","121.505988333333","25.00453","6500300","中和區"
"235007","352-BY","2018/05/28 14:19:03","新北市中和區景平路296號","121.512906666667","24.99276","6500300","中和區"
"235014","4979-A6","2018/05/28 14:19:07","新北市中和區復興路279-1號","121.502203333333","24.990315","6500300","中和區"
"235033","4980-A6","2018/05/28 14:19:00","新北市中和區景平路736巷1弄6號","121.497281666667","25.00399","6500300","中和區"
"235006","551-UM","2018/05/28 14:18:57","新北市永和區民有街1號","121.51572","24.9973316666667","6500300","中和區"
"235034","558-UM","2018/05/28 14:18:55","新北市中和區中和路27號","121.499878333333","25.00181","6500300","中和區"
"235009","565-BX","2018/05/28 14:18:58","新北市中和區景新街383巷57號","121.51373","24.9907516666667","6500300","中和區"
"235018","640-BX","2018/05/28 14:19:05","新北市中和區國光街107巷2弄3號","121.47002","24.999915","6500300","中和區"
"235024","647-TV","2018/05/28 14:18:53","新北市中和區員山路467號","121.480446666667","25.0045833333333","6500300","中和區"
"235010","733-UM","2018/05/28 14:19:08","新北市中和區華新街170號","121.5073","24.9822616666667","6500300","中和區"
"235035","783-BX","2018/05/28 14:18:58","新北市中和區連城路358號","121.482058333333","24.9956116666667","6500300","中和區"
"235026","800-TS","2018/05/28 14:19:09","新北市中和區中山路二段380-2號","121.490866666667","25.00351","6500300","中和區"
"235021","801-TS","2018/05/28 14:18:54","新北市中和區員山路423巷4號","121.480485","25.0032616666667","6500300","中和區"
"235005","802-TS","2018/05/28 14:19:09","新北市中和區中安街218號","121.511961666667","24.998965","6500300","中和區"
"235016","805-TS","2018/05/28 14:19:11","新北市中和區興南路二段128巷1號","121.503888333333","24.983665","6500300","中和區"
"235012","896-TW","2018/05/28 14:19:03","新北市中和區華新街109巷24號","121.508533333333","24.98038","6500300","中和區"
"235017","900-TW","2018/05/28 14:19:09","新北市中和區華安街17巷43號","121.467988333333","24.998505","6500300","中和區"
"235030","911-UM","2018/05/28 14:19:02","新北市中和區中和路155號","121.502675","24.99984","6500300","中和區"
"235015","157-BY","2018/05/28 14:18:54","新北市中和區興南路一段56巷26號","121.510373333333","24.9912866666667","6500300","中和區"
"235001","AAC-213","2018/05/28 14:19:10","新北市中和區自立路15巷15號","121.523046666667","24.996025","6500300","中和區"
"235023","AAC-215","2018/05/28 14:18:51","新北市中和區圓通路252巷5弄38號","121.492043333333","24.9915516666667","6500300","中和區"
"220016","013-TV","2018/05/28 14:18:59","新北市板橋區林森街1巷1號","121.48201","25.0241466666667","6500100","板橋區"
"220013","072-UY","2018/05/28 14:19:01","新北市板橋區國泰街76巷34號","121.467091666667","25.0071783333333","6500100","板橋區"
"220034","073-UY","2018/05/28 14:19:10","新北市板橋區中正路250巷37號","121.4572","25.0196333333333","6500100","板橋區"
"220105","075-UY","2018/05/28 14:19:03","新北市板橋區雙十路三段15號","121.471028333333","25.03111","6500100","板橋區"
"220017","AAD-861","2018/05/28 14:18:52","新北市板橋區華興街21巷23號","121.458795","25.0036716666667","6500100","板橋區"
"220045","120-SR","2018/05/28 14:01:29","新北市板橋區民生路二段161巷5號","121.470153333333","25.019705","6500100","板橋區"
"247023","893-R6","2018/05/28 14:19:07","新北市蘆洲區長榮路641號","121.459838333333","25.0908283333333","6501400","蘆洲區"
"247013","546-UM","2018/05/28 14:18:59","新北市蘆洲區成功路63號","121.472708333333","25.080635","6501400","蘆洲區"
"247021","500-BY","2018/05/28 14:19:08","新北市蘆洲區三民路128巷112號","121.469178333333","25.0910316666667","6501400","蘆洲區"
"247009","341-TH","2018/05/28 14:18:57","新北市蘆洲區三民路26巷30號","121.477873333333","25.0830083333333","6501400","蘆洲區"
"247011","339-TH","2018/05/28 14:18:59","新北市蘆洲區民權路3巷10號","121.475981666667","25.0853833333333","6501400","蘆洲區"
"247003","337-TH","2018/05/28 14:19:05","新北市蘆洲區長安街168號","121.459201666667","25.0831833333333","6501400","蘆洲區"
"247005","336-TH","2018/05/28 14:19:00","新北市蘆洲區九芎街153巷14號","121.465591666667","25.07875","6501400","蘆洲區"
"247017","057-VK","2018/05/28 14:19:00","新北市蘆洲區民權路80號","121.47473","25.0876566666667","6501400","蘆洲區"
"247015","007-UY","2018/05/28 14:18:51","新北市蘆洲區光華路70巷11號","121.467486666667","25.0831883333333","6501400","蘆洲區"
"247001","002-UY","2018/05/28 14:18:59","新北市蘆洲區永樂街52-2號","121.457456666667","25.0886416666667","6501400","蘆洲區"
"247019","001-UY","2018/05/28 14:19:07","新北市蘆洲區仁愛街37號","121.47223","25.0928783333333","6501400","蘆洲區"
"235011","251-BX","2018/05/28 14:18:58","新北市中和區和平街38巷28號","121.509765","24.9913383333333","6500300","中和區"
"253003","6232-TK","2018/05/28 14:19:03","新北市石門區內石門62號","121.577863333333","25.2659116666667","6502200","石門區"
"253001","6251-TK","2018/05/28 14:18:52","新北市石門區海灣新城1號","121.523885","25.28536","6502200","石門區"
"253002","637-UY","2018/05/28 14:19:04","新北市石門區大溪墘8-1號","121.551133333333","25.275795","6502200","石門區"
"253004","8270-PC","2018/05/28 14:19:03","新北市石門區小坑36號","121.59667","25.2671633333333","6502200","石門區"
"207002","749-BX","2018/05/28 14:18:52","新北市萬里區溪底里瑞泉路7號","121.603811666667","25.1394783333333","6502800","萬里區"
"252005","073-UM","2018/05/28 14:18:58","新北市三芝區橫山里橫山33號","121.541685","25.2588516666667","6502100","三芝區"
"207001","662-BX","2018/05/28 14:19:07","新北市萬里區磺潭里清水18號","121.63772","25.19778","6502800","萬里區"
"236064","105-UM","2018/05/28 14:19:08","新北市土城區明德路一段181號","121.464021666667","24.9791633333333","6501300","土城區"
"236040","107-UM","2018/05/28 14:19:06","新北市土城區裕民路3巷32號","121.448593333333","24.9865183333333","6501300","土城區"
"236074","166-UM","2018/05/28 14:18:56","新北市土城區永平街7號","121.427836666667","24.9630783333333","6501300","土城區"
"236029","253-BX","2018/05/28 14:18:50","新北市土城區順風路45號","121.440293333333","24.9770166666667","6501300","土城區"
"236024","269-VK","2018/05/28 14:19:01","新北市土城區承天路67號","121.439536666667","24.9634766666667","6501300","土城區"
"236012","270-VK","2018/05/28 14:18:58","新北市土城區青雲路39巷7號","121.460338333333","24.9875683333333","6501300","土城區"
"236032","271-VK","2018/05/28 14:19:12","新北市土城區青雲路451巷8弄2號","121.459543333333","24.9744666666667","6501300","土城區"
"236016","401-BY","2018/05/28 14:18:47","新北市土城區明德路一段385-1號","121.452865","24.980255","6501300","土城區"
"236005","498-BY","2018/05/28 14:18:58","新北市土城區中華路一段56巷22號","121.444553333333","24.989545","6501300","土城區"
"236057","912-UM","2018/05/28 14:19:05","新北市土城區中央路四段400號","121.41246","24.953975","6501300","土城區"
"236045","913-UM","2018/05/28 14:18:54","新北市土城區明德路一段361-1號","121.45676","24.9775983333333","6501300","土城區"
"236060","915-UM","2018/05/28 14:18:51","新北市土城區延壽路44巷15號","121.471438333333","24.993025","6501300","土城區"
"236054","AAC-216","2018/05/28 14:18:54","新北市土城區中華路二段102號","121.438046666667","24.9743833333333","6501300","土城區"
"220027","145-BY","2018/05/28 14:19:07","新北市板橋區民權路202巷9弄16號","121.459875","25.0156033333333","6500100","板橋區"
"220028","200-UY","2018/05/28 14:19:12","新北市板橋區大觀路二段19巷110號","121.44997","25.0026933333333","6500100","板橋區"
"220030","610-BX","2018/05/28 14:18:54","新北市板橋區篤行路三段71號","121.4273","24.9854966666667","6500100","板橋區"
"220050","245-BX","2018/05/28 14:18:57","新北市板橋區莊敬路6-1號","121.473811666667","25.0279866666667","6500100","板橋區"
"220004","276-BY","2018/05/28 14:19:03","新北市板橋區信義路237號","121.46007","24.99095","6500100","板橋區"
"220020","277-BY","2018/05/28 14:19:05","新北市板橋區金門街337巷7弄1號","121.430248333333","24.9848516666667","6500100","板橋區"
"220043","280-UM","2018/05/28 14:19:00","新北市板橋區吳鳳路82號","121.466958333333","25.0312883333333","6500100","板橋區"
"220019","283-VK","2018/05/28 14:19:06","新北市板橋區忠孝路48巷64號","121.461131666667","25.0000766666667","6500100","板橋區"
"220001","285-VK","2018/05/28 14:18:56","新北市板橋區富山街5號","121.478641666667","25.0215616666667","6500100","板橋區"
"220031","286-VK","2018/05/28 14:19:04","新北市板橋區龍興街73巷19號","121.443038333333","25.002485","6500100","板橋區"
"220029","287-VK","2018/05/28 14:19:07","新北市板橋區南雅西路一段10巷7弄17號","121.453953333333","25.0043966666667","6500100","板橋區"
"220039","288-VK","2018/05/28 14:18:59","新北市板橋區裕民街4號","121.462445","25.0292216666667","6500100","板橋區"
"220009","293-UM","2018/05/28 14:17:42","新北市板橋區中山路二段320號","121.480773333333","25.01948","6500100","板橋區"
"220010","295-UM","2018/05/28 14:18:53","新北市板橋區三民路二段153巷30弄33號","121.481145","25.0146833333333","6500100","板橋區"
"220032","296-UM","2018/05/28 14:19:08","新北市板橋區滿平街136巷8弄11號","121.42733","24.9875733333333","6500100","板橋區"
"220023","303-R5","2018/05/28 14:18:58","新北市板橋區南雅東路1號","121.455406666667","25.0055416666667","6500100","板橋區"
"220041","307-R5","2018/05/28 14:19:11","新北市板橋區光武街36巷30號","121.468463333333","25.0263233333333","6500100","板橋區"
"220047","317-R6","2018/05/28 14:18:56","新北市板橋區民有街82號","121.465125","25.0270966666667","6500100","板橋區"
"220012","486-VK","2018/05/28 14:19:04","新北市板橋區板新路238號","121.468226666667","25.0160683333333","6500100","板橋區"
"220037","491-VK","2018/05/28 14:18:54","新北市板橋區文化路二段182巷3弄71號","121.472648333333","25.0290816666667","6500100","板橋區"
"220104","560-BX","2018/05/28 14:19:08","新北市板橋區中正路332-11號","121.45426","25.02322","6500100","板橋區"
"220052","561-BX","2018/05/28 14:19:07","新北市板橋區介壽街37號","121.468626666667","25.0198416666667","6500100","板橋區"
"220011","609-BX","2018/05/28 14:19:00","新北市板橋區三民路二段203-7號","121.479195","25.0134533333333","6500100","板橋區"
"220040","637-BX","2018/05/28 14:18:52","新北市板橋區文聖街221號","121.480395","25.0257416666667","6500100","板橋區"
"220005","686-BX","2018/05/28 14:19:06","新北市板橋區和平路153號","121.463293333333","24.9956683333333","6500100","板橋區"
"220025","687-BX","2018/05/28 14:19:03","新北市板橋區大觀路二段251號","121.443383333333","24.999105","6500100","板橋區"
"220042","689-BX","2018/05/28 14:18:59","新北市板橋區文化路一段311號","121.46621","25.020285","6500100","板橋區"
"220002","741-BX","2018/05/28 14:19:11","新北市板橋區重慶路155巷23號","121.463126666667","25.004115","6500100","板橋區"
"220051","KEA-2699","2018/05/28 14:18:59","新北市板橋區文聖街205巷4號","121.480153333333","25.0265583333333","6500100","板橋區"
"220021","806-UM","2018/05/28 14:19:01","新北市板橋區中正路221號","121.456141666667","25.0176683333333","6500100","板橋區"
"220003","827-TW","2018/05/28 14:19:09","新北市板橋區新民街9號","121.463916666667","25.0097916666667","6500100","板橋區"
"220014","829-TW","2018/05/28 14:18:54","新北市板橋區長安街138巷1弄69號","121.474491666667","25.0108366666667","6500100","板橋區"
"220045","831-TW","2018/05/28 14:19:05","新北市板橋區大同街37號","121.47799","25.0273083333333","6500100","板橋區"
"220038","833-TW","2018/05/28 14:19:00","新北市板橋區文化路一段413號","121.46744","25.02223","6500100","板橋區"
"220022","895-R6","2018/05/28 14:19:00","新北市板橋區民權路182號","121.459188333333","25.0134166666667","6500100","板橋區"
"220046","AAC-210","2018/05/28 14:19:03","新北市板橋區漢生西路89巷3弄5號","121.461433333333","25.0193733333333","6500100","板橋區"
"220018","AAC-253","2018/05/28 14:19:10","新北市板橋區忠孝路173號","121.464035","25.002525","6500100","板橋區"
"235032","KEA-2873","2018/05/28 14:19:08","新北市中和區景平路493巷9號","121.499556666667","24.9973183333333","6500300","中和區"
"235025","KEA-2875","2018/05/28 14:19:08","新北市中和區連城路456巷7號","121.478735","24.9951383333333","6500300","中和區"
