"lineid","car","time","location","longitude","latitude","cityid","cityname"
"234044","148-BY","2018/05/28 14:29:32","新北市永和區得和路395號","121.525378333333","24.9992366666667","6500400","永和區"
"234005","207-UY","2018/05/28 14:29:15","新北市永和區中正路518號","121.517296666667","25.0048016666667","6500400","永和區"
"234078","298-R6","2018/05/28 14:29:25","新北市永和區永貞路78號","121.52021","25.005085","6500400","永和區"
"234036","336-UY","2018/05/28 14:29:22","新北市永和區民樂街39巷23號","121.528915","25.00057","6500400","永和區"
"234062","337-UY","2018/05/28 14:29:20","新北市永和區中正路433號","121.517173333333","25.0051033333333","6500400","永和區"
"234084","338-UY","2018/05/28 14:29:31","新北市永和區永和路二段233號","121.515576666667","25.0142","6500400","永和區"
"234068","553-UM","2018/05/28 14:29:25","新北市永和區永亨路35號","121.519821666667","25.006295","6500400","永和區"
"234028","746-BX","2018/05/28 14:29:26","新北市中和區立人街16號","121.519328333333","24.9941866666667","6500400","永和區"
"234052","KEA-2590","2018/05/28 14:29:25","新北市永和區光復街60巷25號","121.517955","25.01747","6500400","永和區"
"234060","AAD-866","2018/05/28 14:29:25","新北市永和區安樂路194巷18號","121.516313333333","25.0009466666667","6500400","永和區"
"234040","862-TW","2018/05/28 14:29:18","新北市永和區安樂路330號","121.514491666667","25.0058416666667","6500400","永和區"
"234048","863-TW","2018/05/28 14:29:24","新北市永和區保福路三段22號","121.508065","25.0159566666667","6500400","永和區"
"234025","9371-KE","2018/05/28 14:29:15","新北市中和區安平路222號","121.513998333333","25.00007","6500400","永和區"
"248013","025-BX","2018/05/28 14:29:22","新北市五股區民義路一段157號","121.432663333333","25.0876433333333","6501500","五股區"
"248015","026-BX","2018/05/28 14:29:18","新北市五股區成泰路四段26號","121.454953333333","25.1082566666667","6501500","五股區"
"248007","095-VK","2018/05/28 14:29:12","新北市五股區中興路一段95巷9號","121.46661","25.07239","6501500","五股區"
"248019","225-UY","2018/05/28 14:01:17","新北市五股區凌雲路三段57號","121.425196666667","25.1250516666667","6501500","五股區"
"248011","247-BX","2018/05/28 14:29:21","新北市五股區蓬萊路24號","121.434005","25.0799233333333","6501500","五股區"
"248009","272-BY","2018/05/28 14:29:12","新北市五股區水碓一路23號","121.43066","25.0713366666667","6501500","五股區"
"248003","677-BX","2018/05/28 14:29:25","新北市五股區五福路37號","121.433421666667","25.08939","6501500","五股區"
"248001","678-BX","2018/05/28 14:29:28","新北市五股區成泰路三段487號","121.450775","25.099355","6501500","五股區"
"234072","AAC-211","2018/05/28 14:29:21","新北市永和區竹林路39巷3號","121.5182","25.0144233333333","6500400","永和區"
"234001","AAC-295","2018/05/28 14:29:27","新北市永和區大新街4號","121.514505","25.00859","6500400","永和區"
"244001","248-BX","2018/05/28 14:29:16","新北市林口區湖南里10鄰93號","121.375373333333","25.0899566666667","6501700","林口區"
"243005","AAD-798","2018/05/28 14:29:18","新北市泰山區明志路二段385號","121.425083333333","25.04361","6501600","泰山區"
"243001","297-R6","2018/05/28 14:29:14","新北市泰山區半山雅42號","121.430718333333","25.06754","6501600","泰山區"
"243008","380-SR","2018/05/28 14:29:29","新北市泰山區明志路三段267號","121.423185","25.0372016666667","6501600","泰山區"
"243007","421-VK","2018/05/28 14:29:24","新北市泰山區文程路18巷33號","121.428155","25.0482983333333","6501600","泰山區"
"243003","KEA-2215","2018/05/28 14:29:17","新北市泰山區貴子路67巷22號","121.431116666667","25.040985","6501600","泰山區"
"243002","KEA-2216","2018/05/28 14:29:26","新北市泰山區民生路17巷32號","121.42955","25.0516966666667","6501600","泰山區"
"243004","646-TV","2018/05/28 14:29:30","新北市泰山區全興路19號","121.432405","25.0588233333333","6501600","泰山區"
"243006","680-BX","2018/05/28 14:29:14","新北市泰山區仁義路220巷53號","121.432096666667","25.0527116666667","6501600","泰山區"
"231002","002-UM","2018/05/28 14:29:24","新北市新店區中央路111號","121.530938333333","24.9746066666667","6500600","新店區"
"231028","046-UY","2018/05/28 14:29:23","新北市新店區安康路二段1-3號","121.516721666667","24.9637866666667","6500600","新店區"
"231001","047-UY","2018/05/28 14:29:16","新北市新店區中正路75巷71號","121.543191666667","24.96882","6500600","新店區"
"231005","106-UY","2018/05/28 14:29:32","新北市新店區北新路三段49號","121.541861666667","24.9805383333333","6500600","新店區"
"231019","108-UY","2018/05/28 14:29:20","新北市新店區桂山路2-1號","121.556808333333","24.9044733333333","6500600","新店區"
"231011","187-VK","2018/05/28 14:29:24","新北市新店區寶興路65巷1號","121.550911666667","24.9717233333333","6500600","新店區"
"231023","KEA-2219","2018/05/28 14:29:24","新北市新店區光明街137號","121.539506666667","24.962015","6500600","新店區"
"231003","268-BY","2018/05/28 14:29:28","新北市新店區中興路一段268-3號","121.545141666667","24.96791","6500600","新店區"
"231018","278-BY","2018/05/28 14:29:14","新北市新店區中央三街74號","121.52641","24.9752483333333","6500600","新店區"
"231014","AAD-862","2018/05/28 14:29:21","新北市新店區北宜路三段262-1號","121.599305","24.9535933333333","6500600","新店區"
"231038","3712-VJ","2018/05/28 14:29:18","新北市新店區溪洲路182號","121.528753333333","24.9658766666667","6500600","新店區"
"231027","3713-VJ","2018/05/28 14:29:25","新北市新店區寶橋路80號","121.54611","24.9755733333333","6500600","新店區"
"231037","4716-K9","2018/05/28 14:29:25","新北市新店區車子路1-1號","121.504648333333","24.9576283333333","6500600","新店區"
"231036","512-UM","2018/05/28 14:29:25","新北市新店區安祥路109巷151弄12號","121.478093333333","24.9589133333333","6500600","新店區"
"231013","513-UM","2018/05/28 14:29:25","新北市新店區民權路88-5號","121.536313333333","24.9835366666667","6500600","新店區"
"231035","515-UM","2018/05/28 14:29:29","新北市新店區光華街7巷2號","121.517555","24.9690933333333","6500600","新店區"
"231034","616-UM","2018/05/28 14:29:26","新北市新店區車子路11號","121.503111666667","24.9521166666667","6500600","新店區"
"231030","619-UM","2018/05/28 14:29:14","新北市新店區安民街65巷6號","121.516118333333","24.9669566666667","6500600","新店區"
"231031","720-UM","2018/05/28 14:29:13","新北市新店區安業街231號","121.523548333333","24.9717083333333","6500600","新店區"
"231029","897-TW","2018/05/28 14:29:29","新北市新店區安康路二段454號","121.494423333333","24.954235","6500600","新店區"
"231006","898-TW","2018/05/28 14:29:30","新北市新店區北宜路二段431-1號","121.560855","24.9542916666667","6500600","新店區"
"231004","899-TW","2018/05/28 14:29:14","新北市新店區中正路263-1號","121.538476666667","24.9736833333333","6500600","新店區"
"231024","AKT-0513","2018/05/28 14:29:24","新北市新店區安和路三段4巷3號","121.51914","24.9809383333333","6500600","新店區"
"235028","005-UY","2018/05/28 14:29:16","新北市中和區南華路17-2號","121.502566666667","24.9956816666667","6500300","中和區"
"235027","006-UY","2018/05/28 14:29:21","新北市中和區連城路203巷10弄27號","121.495231666667","24.9965766666667","6500300","中和區"
"235020","096-UM","2018/05/28 14:29:13","新北市中和區民富街25-1號","121.476463333333","25.0076666666667","6500300","中和區"
"235003","097-UM","2018/05/28 14:29:24","新北市中和區宜安路60號","121.511593333333","24.9969466666667","6500300","中和區"
"235029","098-UM","2018/05/28 14:29:23","新北市中和區永和路8巷17號","121.500618333333","25.0035033333333","6500300","中和區"
"235004","150-BY","2018/05/28 14:29:16","新北市中和區宜安路1巷8號","121.513095","24.9950916666667","6500300","中和區"
"235022","151-BY","2018/05/28 14:29:30","新北市中和區連城路517號","121.482155","24.9953533333333","6500300","中和區"
"235019","183-VK","2018/05/28 14:29:25","新北市中和區德光路24號","121.470913333333","25.004415","6500300","中和區"
"235002","185-VK","2018/05/28 14:29:29","新北市中和區自立路31號","121.522198333333","24.9957216666667","6500300","中和區"
"235013","186-VK","2018/05/28 14:29:21","新北市中和區景新街285巷8號","121.510188333333","24.9935533333333","6500300","中和區"
"235031","255-BX","2018/05/28 14:29:28","新北市中和區新生街184號","121.483696666667","24.99974","6500300","中和區"
"235008","293-VK","2018/05/28 14:29:19","新北市中和區捷運路102號","121.50563","24.9914983333333","6500300","中和區"
"235036","301-VK","2018/05/28 14:29:17","新北市中和區中和路49號","121.500255","25.0013816666667","6500300","中和區"
"235007","352-BY","2018/05/28 14:29:23","新北市中和區景平路370號","121.511035","24.9929333333333","6500300","中和區"
"235014","4979-A6","2018/05/28 14:29:27","新北市中和區中正路637巷52弄1號","121.485358333333","24.9936533333333","6500300","中和區"
"235033","4980-A6","2018/05/28 14:29:20","新北市中和區連城路134巷18號","121.495235","25.0001233333333","6500300","中和區"
"235006","551-UM","2018/05/28 14:29:17","新北市中和區中安街175號","121.510931666667","24.999845","6500300","中和區"
"235034","558-UM","2018/05/28 14:29:15","新北市中和區連城路4號","121.499106666667","25.0025933333333","6500300","中和區"
"235009","565-BX","2018/05/28 14:29:11","新北市中和區景新街467巷20弄110號","121.514916666667","24.986675","6500300","中和區"
"235018","640-BX","2018/05/28 14:29:25","新北市中和區國光街112巷15號","121.469681666667","25.0019833333333","6500300","中和區"
"235024","647-TV","2018/05/28 14:29:13","新北市中和區新生街112巷18號","121.482705","25.0029533333333","6500300","中和區"
"235010","733-UM","2018/05/28 14:29:28","新北市中和區忠孝街37巷44號","121.510631666667","24.9847016666667","6500300","中和區"
"235035","783-BX","2018/05/28 14:29:18","新北市中和區連城路469巷33號","121.483538333333","24.994685","6500300","中和區"
"235026","800-TS","2018/05/28 14:29:28","新北市中和區中山路二段488-1號","121.487418333333","25.0048633333333","6500300","中和區"
"235021","801-TS","2018/05/28 14:29:14","新北市中和區中山路三段8號","121.479605","25.00616","6500300","中和區"
"235005","802-TS","2018/05/28 14:29:29","新北市中和區景安路2號","121.507856666667","24.9990466666667","6500300","中和區"
"235016","805-TS","2018/05/28 14:29:12","新北市中和區華新街143巷67弄14號","121.507215","24.9790316666667","6500300","中和區"
"235012","896-TW","2018/05/28 14:29:23","新北市中和區忠孝街28號","121.510598333333","24.9830983333333","6500300","中和區"
"235017","900-TW","2018/05/28 14:29:13","新北市中和區民德路197-1號","121.468451666667","24.998895","6500300","中和區"
"235030","911-UM","2018/05/28 14:29:21","新北市中和區中和路136號","121.503463333333","24.99941","6500300","中和區"
"235015","157-BY","2018/05/28 14:29:14","新北市中和區南山路146巷5號","121.503508333333","24.992355","6500300","中和區"
"235001","AAC-213","2018/05/28 14:29:10","新北市中和區秀朗路三段10巷12弄2號","121.525526666667","24.9965083333333","6500300","中和區"
"235023","AAC-215","2018/05/28 14:29:11","新北市中和區圓通路262-3號","121.492798333333","24.9908016666667","6500300","中和區"
"220016","013-TV","2018/05/28 14:29:19","新北市板橋區中山路二段595號","121.484866666667","25.022275","6500100","板橋區"
"220013","072-UY","2018/05/28 14:29:22","新北市板橋區國泰街75巷2弄9號","121.467185","25.00604","6500100","板橋區"
"220034","073-UY","2018/05/28 14:29:25","新北市板橋區漢生西路89巷4弄11號","121.461315","25.0186283333333","6500100","板橋區"
"220105","075-UY","2018/05/28 14:29:23","新北市板橋區文化路二段441巷6-1號","121.47447","25.0336066666667","6500100","板橋區"
"220017","AAD-861","2018/05/28 14:29:31","新北市板橋區大明街20巷29弄2號","121.458185","25.0035483333333","6500100","板橋區"
"220045","120-SR","2018/05/28 14:01:29","新北市板橋區民生路二段161巷5號","121.470153333333","25.019705","6500100","板橋區"
"247023","893-R6","2018/05/28 14:29:27","新北市蘆洲區中正路263巷2號","121.467315","25.0874683333333","6501400","蘆洲區"
"247013","546-UM","2018/05/28 14:29:19","新北市蘆洲區成功路131巷8-1號","121.471606666667","25.08187","6501400","蘆洲區"
"247021","500-BY","2018/05/28 14:29:28","新北市蘆洲區水湳街36-21號","121.470818333333","25.0893616666667","6501400","蘆洲區"
"247009","341-TH","2018/05/28 14:29:17","新北市蘆洲區鷺江街28號","121.478053333333","25.0824533333333","6501400","蘆洲區"
"247011","339-TH","2018/05/28 14:29:21","新北市蘆洲區中興街125號","121.482128333333","25.089575","6501400","蘆洲區"
"247003","337-TH","2018/05/28 14:29:02","新北市蘆洲區長安街220巷4號","121.458576666667","25.0846133333333","6501400","蘆洲區"
"247005","336-TH","2018/05/28 14:29:20","新北市蘆洲區永安南路二段226號","121.460948333333","25.0792383333333","6501400","蘆洲區"
"247017","057-VK","2018/05/28 14:29:19","新北市蘆洲區民族路336巷42弄5號","121.478376666667","25.0912116666667","6501400","蘆洲區"
"247007","056-VK","2018/05/28 14:29:19","新北市蘆洲區民生街22號","121.475161666667","25.0789716666667","6501400","蘆洲區"
"247015","007-UY","2018/05/28 14:29:11","新北市蘆洲區中正路185巷23弄17號","121.467458333333","25.0841933333333","6501400","蘆洲區"
"247001","002-UY","2018/05/28 14:29:19","新北市蘆洲區永樂街38巷19弄50號","121.456583333333","25.0894866666667","6501400","蘆洲區"
"247019","001-UY","2018/05/28 14:29:27","新北市蘆洲區仁愛街101巷6號","121.470726666667","25.09438","6501400","蘆洲區"
"235011","251-BX","2018/05/28 14:29:17","新北市中和區景平路239巷1號","121.509885","24.992685","6500300","中和區"
"253003","6232-TK","2018/05/28 14:29:23","新北市石門區尖子鹿29號","121.58263","25.2625133333333","6502200","石門區"
"253001","6251-TK","2018/05/28 14:29:12","新北市石門區崁子腳91號","121.530038333333","25.27913","6502200","石門區"
"253002","637-UY","2018/05/28 14:29:24","新北市石門區七股9-1號","121.54782","25.2652416666667","6502200","石門區"
"253004","8270-PC","2018/05/28 14:29:22","新北市石門區內阿里磅6號","121.58956","25.2527533333333","6502200","石門區"
"207002","749-BX","2018/05/28 14:29:12","新北市萬里區溪底里溪底路21號","121.612796666667","25.1492416666667","6502800","萬里區"
"252005","073-UM","2018/05/28 14:29:17","新北市三芝區橫山里大坑87-1號","121.530898333333","25.259395","6502100","三芝區"
"207001","662-BX","2018/05/28 14:29:07","新北市萬里區磺潭里員潭路9號","121.646601666667","25.19929","6502800","萬里區"
"236064","105-UM","2018/05/28 14:29:28","新北市土城區永豐路255巷27弄33號","121.476523333333","24.9734433333333","6501300","土城區"
"236040","107-UM","2018/05/28 14:29:26","新北市土城區學成路91巷10號","121.450665","24.988045","6501300","土城區"
"236074","166-UM","2018/05/28 14:29:26","新北市土城區大暖路26號","121.423525","24.9598583333333","6501300","土城區"
"236029","253-BX","2018/05/28 14:29:30","新北市土城區福仁街10號","121.440298333333","24.9761583333333","6501300","土城區"
"236024","269-VK","2018/05/28 14:29:21","新北市土城區承天路20號","121.439538333333","24.9634066666667","6501300","土城區"
"236012","270-VK","2018/05/28 14:29:18","新北市土城區青雲路39巷7號","121.46032","24.9875616666667","6501300","土城區"
"236032","271-VK","2018/05/28 14:29:12","新北市土城區青雲路483巷13弄36號","121.460286666667","24.9743516666667","6501300","土城區"
"236016","401-BY","2018/05/28 14:29:27","新北市土城區永豐路202巷7-1號","121.46618","24.983345","6501300","土城區"
"236005","498-BY","2018/05/28 14:29:18","新北市土城區日新街33巷8號","121.442566666667","24.9874933333333","6501300","土城區"
"236057","912-UM","2018/05/28 14:29:25","新北市土城區中央路四段127號","121.416171666667","24.95756","6501300","土城區"
"236045","913-UM","2018/05/28 14:29:15","新北市土城區青雲路457號","121.458653333333","24.9744833333333","6501300","土城區"
"236060","915-UM","2018/05/28 14:29:21","新北市土城區延壽路111巷24號","121.468376666667","24.9936333333333","6501300","土城區"
"236054","AAC-216","2018/05/28 14:29:14","新北市土城區福祥街101巷1號","121.440976666667","24.9817633333333","6501300","土城區"
"221032","280-BY","2018/05/28 14:29:21","新北市汐止區長江街65號","121.656696666667","25.0719033333333","6501100","汐止區"
"220027","145-BY","2018/05/28 14:29:26","新北市板橋區民權路260巷7號","121.458376666667","25.0153933333333","6500100","板橋區"
"220028","200-UY","2018/05/28 14:29:18","新北市板橋區大觀路二段37巷180號","121.449515","25.0022133333333","6500100","板橋區"
"220030","610-BX","2018/05/28 14:29:14","新北市板橋區金門街320號","121.428613333333","24.9850516666667","6500100","板橋區"
"220050","245-BX","2018/05/28 14:29:18","新北市板橋區縣民大道三段133巷6號","121.477636666667","25.0234383333333","6500100","板橋區"
"220004","276-BY","2018/05/28 14:29:23","新北市板橋區干城路20巷3號","121.459151666667","24.993395","6500100","板橋區"
"220020","277-BY","2018/05/28 14:29:24","新北市板橋區篤行路二段139號","121.429808333333","24.9882966666667","6500100","板橋區"
"220043","280-UM","2018/05/28 14:29:27","新北市板橋區吳鳳路50巷20號","121.469755","25.03035","6500100","板橋區"
"220019","283-VK","2018/05/28 14:29:25","新北市板橋區四川路一段325巷1弄2號","121.459183333333","25.0002683333333","6500100","板橋區"
"220001","285-VK","2018/05/28 14:29:16","新北市板橋區富山街65號","121.477175","25.021895","6500100","板橋區"
"220031","286-VK","2018/05/28 14:29:23","新北市板橋區龍興街65巷1號","121.443375","25.001455","6500100","板橋區"
"220029","287-VK","2018/05/28 14:29:15","新北市板橋區大觀路一段75巷5號","121.447585","25.00449","6500100","板橋區"
"220039","288-VK","2018/05/28 14:29:19","新北市板橋區長江路一段106巷13弄4號","121.46024","25.02906","6500100","板橋區"
"220009","293-UM","2018/05/28 14:29:15","新北市板橋區成功路6巷10號","121.475916666667","25.017025","6500100","板橋區"
"220010","295-UM","2018/05/28 14:29:13","新北市板橋區三民路二段181巷4弄1號","121.479865","25.01435","6500100","板橋區"
"220032","296-UM","2018/05/28 14:29:24","新北市板橋區滿平街84巷80號","121.426096666667","24.9871866666667","6500100","板橋區"
"220023","303-R5","2018/05/28 14:29:18","新北市板橋區中正路305巷16-1號","121.454728333333","25.0190866666667","6500100","板橋區"
"220041","307-R5","2018/05/28 14:29:11","新北市板橋區文化路二段125巷3號","121.469246666667","25.0266666666667","6500100","板橋區"
"220047","317-R6","2018/05/28 14:29:17","新北市板橋區民生路三段263巷1弄2號","121.463788333333","25.0292816666667","6500100","板橋區"
"220012","486-VK","2018/05/28 14:29:04","新北市板橋區館前東路7號","121.459768333333","25.0073666666667","6500100","板橋區"
"220037","491-VK","2018/05/28 14:29:14","新北市板橋區雙十路二段37-1號","121.476811666667","25.0258533333333","6500100","板橋區"
"220104","560-BX","2018/05/28 14:29:28","新北市板橋區中正路328號","121.454413333333","25.0215383333333","6500100","板橋區"
"220052","561-BX","2018/05/28 14:29:27","新北市板橋區文化路一段216號","121.466523333333","25.0204016666667","6500100","板橋區"
"220011","609-BX","2018/05/28 14:29:20","新北市板橋區三民路二段202-28號","121.478926666667","25.0125666666667","6500100","板橋區"
"220040","637-BX","2018/05/28 14:29:12","新北市板橋區文聖街149巷12號","121.479085","25.028215","6500100","板橋區"
"220005","686-BX","2018/05/28 14:29:26","新北市板橋區和平路182號","121.463561666667","24.9957883333333","6500100","板橋區"
"220025","687-BX","2018/05/28 14:29:24","新北市板橋區大觀路一段28巷18號","121.450005","25.0089833333333","6500100","板橋區"
"220042","689-BX","2018/05/28 14:29:19","新北市板橋區新海路133號","121.46088","25.0231833333333","6500100","板橋區"
"220002","741-BX","2018/05/28 14:29:31","新北市板橋區四川路一段200號","121.459603333333","25.00232","6500100","板橋區"
"220051","KEA-2699","2018/05/28 14:29:19","新北市板橋區雙十路二段130巷2弄7號","121.474328333333","25.02913","6500100","板橋區"
"220021","806-UM","2018/05/28 14:29:21","新北市板橋區新生街89巷6號","121.458006666667","25.0222416666667","6500100","板橋區"
"220003","827-TW","2018/05/28 14:29:29","新北市板橋區重慶路278巷15號","121.462425","24.9996166666667","6500100","板橋區"
"220014","829-TW","2018/05/28 14:29:14","新北市板橋區漢生東路313巷5號","121.472181666667","25.0082333333333","6500100","板橋區"
"220045","831-TW","2018/05/28 14:29:25","新北市板橋區大同街35巷31號","121.476515","25.0275183333333","6500100","板橋區"
"220038","833-TW","2018/05/28 14:29:21","新北市板橋區文化路一段61號","121.460816666667","25.0136983333333","6500100","板橋區"
"220022","895-R6","2018/05/28 14:29:28","新北市板橋區館前西路150號","121.455638333333","25.008365","6500100","板橋區"
"220046","AAC-210","2018/05/28 14:27:30","新北市板橋區新海路162號","121.460508333333","25.0236633333333","6500100","板橋區"
"220018","AAC-253","2018/05/28 14:29:20","新北市板橋區四川路一段76號","121.459686666667","25.005305","6500100","板橋區"
"235032","KEA-2873","2018/05/28 14:29:11","新北市中和區中山路二段191號","121.500158333333","25.0026183333333","6500300","中和區"
"235025","KEA-2875","2018/05/28 14:29:08","新北市中和區民利街31巷2弄8號","121.479825","24.9986483333333","6500300","中和區"
