"lineid","car","time","location","longitude","latitude","cityid","cityname"
"248007","095-VK","2018/05/28 15:39:12","新北市五股區中興路二段37巷28號","121.460128333333","25.0750583333333","6501500","五股區"
"243014","680-BX","2018/05/28 15:31:02","新北市泰山區黎明路25號","121.422073333333","25.0606333333333","6501600","泰山區"
"231002","002-UM","2018/05/28 15:39:04","新北市新店區環河路150-8號","121.534411666667","24.9679166666667","6500600","新店區"
"231028","046-UY","2018/05/28 15:39:22","新北市新店區僑信路18號","121.499735","24.9525416666667","6500600","新店區"
"231005","106-UY","2018/05/28 15:39:12","新北市新店區民族路185號","121.537408333333","24.97646","6500600","新店區"
"231019","108-UY","2018/05/28 15:39:20","新北市新店區新烏路一段87巷3號","121.546208333333","24.9419083333333","6500600","新店區"
"231011","187-VK","2018/05/28 15:39:04","新北市新店區寶元路一段109號","121.54574","24.9831283333333","6500600","新店區"
"231023","KEA-2219","2018/05/28 15:39:04","新北市新店區中興路一段283號","121.545231666667","24.9685433333333","6500600","新店區"
"231026","256-BX","2018/05/28 15:39:06","新北市新店區三民路75巷2弄2號","121.535803333333","24.971225","6500600","新店區"
"231003","268-BY","2018/05/28 15:39:07","新北市新店區中興路二段239號","121.547591666667","24.975425","6500600","新店區"
"231018","278-BY","2018/05/28 15:39:14","新北市新店區溪園路87號","121.528398333333","24.985985","6500600","新店區"
"231014","AAD-862","2018/05/28 15:39:19","新北市新店區北宜路二段26號","121.54822","24.9515366666667","6500600","新店區"
"231038","3712-VJ","2018/05/28 15:39:18","新北市新店區安康路二段16巷22號","121.516418333333","24.9646366666667","6500600","新店區"
"231037","4716-K9","2018/05/28 15:39:05","新北市新店區安興路56號","121.516396666667","24.9747283333333","6500600","新店區"
"231036","512-UM","2018/05/28 15:39:20","新北市新店區安祥路65號","121.483586666667","24.9601333333333","6500600","新店區"
"231013","513-UM","2018/05/28 15:39:04","新北市新店區永業路81巷7弄33號","121.531375","24.9497866666667","6500600","新店區"
"231035","515-UM","2018/05/28 15:39:16","新北市新店區安興路96號","121.515166666667","24.9764483333333","6500600","新店區"
"231034","616-UM","2018/05/28 15:39:06","新北市新店區玫瑰路58巷24號","121.49416","24.9467716666667","6500600","新店區"
"231030","619-UM","2018/05/28 15:39:14","新北市新店區新和街116巷3號","121.521271666667","24.9862433333333","6500600","新店區"
"231039","718-UY","2018/05/28 15:39:04","新北市新店區寶元路二段29號","121.546598333333","24.9818383333333","6500600","新店區"
"231031","720-UM","2018/05/28 15:39:13","新北市新店區雙城路175-2號","121.494646666667","24.9448333333333","6500600","新店區"
"231029","897-TW","2018/05/28 15:39:09","新北市新店區安康路三段49號","121.492665","24.9525166666667","6500600","新店區"
"231004","899-TW","2018/05/28 15:39:14","新北市新店區民族路105號","121.538185","24.9773833333333","6500600","新店區"
"241011","013-R5","2018/05/28 15:39:12","新北市三重區文化北路248號","121.497298333333","25.07003","6500200","三重區"
"241028","022-UY","2018/05/28 15:39:07","新北市三重區重新路四段121號","121.4847","25.0525","6500200","三重區"
"241008","059-VK","2018/05/28 15:39:19","新北市三重區重新路四段121號","121.484856666667","25.0520266666667","6500200","三重區"
"241015","062-VK","2018/05/28 15:39:15","新北市三重區重新路四段121號","121.485113333333","25.0520933333333","6500200","三重區"
"241017","063-VK","2018/05/28 15:39:16","新北市三重區重新路三段145號","121.490661666667","25.05929","6500200","三重區"
"241024","065-VK","2018/05/28 15:39:14","新北市三重區重新路四段121號","121.484841666667","25.0520533333333","6500200","三重區"
"241026","066-VK","2018/05/28 15:39:10","新北市三重區環河南路261號","121.4903","25.0499283333333","6500200","三重區"
"241002","090-VK","2018/05/28 15:39:13","新北市三重區重新路四段121號","121.484883333333","25.05201","6500200","三重區"
"241003","091-VK","2018/05/28 15:39:20","新北市三重區重新路四段121號","121.484941666667","25.05178","6500200","三重區"
"241005","262-UM","2018/05/28 15:39:04","新北市三重區重新路四段121號","121.484858333333","25.0520216666667","6500200","三重區"
"241009","265-UM","2018/05/28 15:39:07","新北市三重區重新路四段121號","121.484973333333","25.0521266666667","6500200","三重區"
"241016","266-UM","2018/05/28 15:39:11","新北市三重區重新路四段121號","121.485165","25.052075","6500200","三重區"
"241018","268-UM","2018/05/28 15:39:09","新北市三重區重新路四段121號","121.484933333333","25.0525","6500200","三重區"
"241032","269-UM","2018/05/28 15:39:12","新北市三重區捷運路11-2號","121.485771666667","25.0562833333333","6500200","三重區"
"241013","270-UM","2018/05/28 15:39:11","新北市三重區正義北路291號","121.494931666667","25.0704733333333","6500200","三重區"
"241025","271-UM","2018/05/28 15:39:05","新北市三重區重新路四段121號","121.484896666667","25.05247","6500200","三重區"
"241007","398-BY","2018/05/28 15:39:17","新北市三重區重新路四段121號","121.485253333333","25.05226","6500200","三重區"
"241004","475-VK","2018/05/28 15:39:07","新北市三重區重新路四段121號","121.484995","25.0519516666667","6500200","三重區"
"241020","478-VK","2018/05/28 15:39:12","新北市三重區忠孝路三段2號","121.48193","25.0676083333333","6500200","三重區"
"241030","480-VK","2018/05/28 15:39:20","新北市三重區重新路四段121號","121.48486","25.0524233333333","6500200","三重區"
"241014","543-UM","2018/05/28 15:39:12","新北市三重區重新路四段121號","121.485135","25.0518933333333","6500200","三重區"
"241023","545-UM","2018/05/28 15:39:12","新北市三重區重新路四段121號","121.484733333333","25.0525133333333","6500200","三重區"
"241001","547-UM","2018/05/28 15:39:09","新北市三重區重新路四段121號","121.48463","25.0523183333333","6500200","三重區"
"241019","KEA-2593","2018/05/28 15:39:22","新北市三重區重新路四段121號","121.48515","25.0519033333333","6500200","三重區"
"241012","941-UM","2018/05/28 15:39:21","新北市三重區正義北路141號","121.496925","25.0668616666667","6500200","三重區"
"241029","942-UM","2018/05/28 15:39:18","新北市三重區大同南路204號","121.49674","25.0566316666667","6500200","三重區"
"235033","4980-A6","2018/05/28 15:39:20","新北市中和區員山路359巷3號","121.480933333333","25.0020183333333","6500300","中和區"
"235026","800-TS","2018/05/28 15:39:08","新北市中和區橋和路91號","121.490428333333","25.0054816666667","6500300","中和區"
"235023","AAC-215","2018/05/28 15:39:11","新北市中和區員山路5-5號","121.483205","24.9844016666667","6500300","中和區"
"220016","013-TV","2018/05/28 15:39:19","新北市林口區汕頭32號","121.366425","25.1350083333333","6500100","板橋區"
"227001","400-TW","2018/05/28 15:39:05","新北市雙溪區牡丹里頂坪5-1號","121.862811666667","25.038725","6502500","雙溪區"
"236064","105-UM","2018/05/28 15:39:21","新北市土城區中央路二段346巷16號","121.439481666667","24.9723","6501300","土城區"
"236040","107-UM","2018/05/28 15:39:06","新北市土城區學享街7號","121.450753333333","24.9872983333333","6501300","土城區"
"236074","166-UM","2018/05/28 15:39:18","新北市土城區福安街73號","121.416893333333","24.9637283333333","6501300","土城區"
"236029","253-BX","2018/05/28 15:39:10","新北市土城區中央路一段45巷2弄14號","121.448288333333","24.9899316666667","6501300","土城區"
"236024","269-VK","2018/05/28 15:39:04","新北市土城區裕生路67巷16號","121.448445","24.9841616666667","6501300","土城區"
"236012","270-VK","2018/05/28 15:39:18","新北市土城區廣明街90巷18號","121.455403333333","24.9944933333333","6501300","土城區"
"236016","401-BY","2018/05/28 15:39:19","新北市土城區延吉街137巷25弄5號","121.471536666667","24.985045","6501300","土城區"
"236057","912-UM","2018/05/28 15:39:05","新北市土城區中央路二段1號","121.443056666667","24.980835","6501300","土城區"
"236045","913-UM","2018/05/28 15:39:17","新北市土城區金城路三段260號","121.474121666667","24.9908483333333","6501300","土城區"
"236054","AAC-216","2018/05/28 15:39:16","新北市土城區學府路一段81號","121.456651666667","24.9881416666667","6501300","土城區"
"238002","755-BX","2018/05/28 15:39:17","新北市樹林區日新街95號","121.421551666667","24.99012","6500700","樹林區"
"238010","601-UM","2018/05/28 15:39:12","新北市樹林區福興街3巷11號","121.404813333333","25.0167766666667","6500700","樹林區"
"238006","599-UM","2018/05/28 15:39:08","新北市樹林區八德街225號","121.421551666667","24.9795116666667","6500700","樹林區"
"238005","571-TV","2018/05/28 15:39:19","新北市樹林區中華路172-3號","121.413941666667","24.9804","6500700","樹林區"
"238011","5061-A6","2018/05/28 15:39:23","新北市樹林區山佳街57-1號","121.392943333333","24.9724783333333","6500700","樹林區"
"238009","KEA-2213","2018/05/28 15:39:20","新北市樹林區太元街15號","121.418085","24.9802416666667","6500700","樹林區"
"238008","KEA-2539","2018/05/28 15:39:05","新北市樹林區柑園街一段351號","121.390128333333","24.9563133333333","6500700","樹林區"
"238012","303-VK","2018/05/28 15:39:22","新北市樹林區鎮前街455號","121.41311","24.9826716666667","6500700","樹林區"
"238004","283-BY","2018/05/28 15:39:12","新北市樹林區光榮街21號","121.41201","25.0037166666667","6500700","樹林區"
"238001","282-BY","2018/05/28 15:39:22","新北市樹林區潭興街143巷18號","121.425203333333","24.9999683333333","6500700","樹林區"
"238007","268-VK","2018/05/28 15:39:20","新北市樹林區俊保路6號","121.425361666667","25.00916","6500700","樹林區"
"238013","172-UY","2018/05/28 15:38:59","新北市樹林區中洲街30巷13弄17號","121.398098333333","24.9721366666667","6500700","樹林區"
"238003","169-UY","2018/05/28 15:39:12","新北市樹林區育英街165巷2號","121.418583333333","24.9894383333333","6500700","樹林區"
"220050","245-BX","2018/05/28 15:39:17","新北市板橋區縣民大道三段42號","121.47206","25.01908","6500100","板橋區"
"220004","461-BY","2018/05/28 15:23:00","新北市板橋區華東街1-10號","121.448675","24.99496","6500100","板橋區"
"220052","561-BX","2018/05/28 15:39:07","新北市板橋區漢生東路63巷1號","121.465835","25.01635","6500100","板橋區"
"220025","687-BX","2018/05/28 15:39:16","新北市林口區汕頭32號","121.36682","25.1350833333333","6500100","板橋區"
"220038","833-TW","2018/05/28 15:39:19","新北市板橋區四維路296號","121.462708333333","25.02933","6500100","板橋區"
