"lineid","car","time","location","longitude","latitude","cityid","cityname"
"231046","188-VK","2018/05/28 16:19:09","新北市新店區灣潭路3-3號","121.538238333333","24.95081","6500600","新店區"
"231018","278-BY","2018/05/28 16:18:54","新北市新店區中正路700巷82號","121.53595","24.9932283333333","6500600","新店區"
"241011","013-R5","2018/05/28 16:18:52","新北市三重區龍門路230號","121.500438333333","25.0735366666667","6500200","三重區"
"241028","022-UY","2018/05/28 16:19:07","新北市三重區正義南路171號","121.49903","25.0573616666667","6500200","三重區"
"241008","059-VK","2018/05/28 16:18:59","新北市三重區力行路二段136巷45弄12號","121.479043333333","25.0753533333333","6500200","三重區"
"241031","061-VK","2018/05/28 16:19:05","新北市三重區成功路163號","121.486375","25.0523933333333","6500200","三重區"
"241015","062-VK","2018/05/28 16:18:55","新北市三重區福德北路79號","121.502011666667","25.0659","6500200","三重區"
"241017","063-VK","2018/05/28 16:18:56","新北市三重區大同北路91號","121.49476","25.0636516666667","6500200","三重區"
"241024","065-VK","2018/05/28 16:18:54","新北市三重區中正北路174-7號","121.483471666667","25.0667833333333","6500200","三重區"
"241026","066-VK","2018/05/28 16:18:50","新北市三重區正義南路38號","121.498243333333","25.060975","6500200","三重區"
"241002","090-VK","2018/05/28 16:18:53","新北市三重區仁義街91號","121.499728333333","25.0795666666667","6500200","三重區"
"241003","091-VK","2018/05/28 16:19:00","新北市三重區五華街57巷18號","121.493468333333","25.0829066666667","6500200","三重區"
"241022","742-BX","2018/05/28 16:19:04","新北市三重區過圳街31巷2號","121.48904","25.0605816666667","6500200","三重區"
"241005","262-UM","2018/05/28 16:19:04","新北市三重區溪尾街300-2號","121.487425","25.0837266666667","6500200","三重區"
"241009","265-UM","2018/05/28 16:19:07","新北市三重區溪尾街192號","121.488101666667","25.0808733333333","6500200","三重區"
"241016","266-UM","2018/05/28 16:19:11","新北市三重區大仁街39號","121.492965","25.0654966666667","6500200","三重區"
"241018","268-UM","2018/05/28 16:19:08","新北市三重區重陽路三段43號","121.489418333333","25.0670533333333","6500200","三重區"
"241032","269-UM","2018/05/28 16:18:52","新北市三重區三陽路100巷3弄13號","121.483011666667","25.0580466666667","6500200","三重區"
"241013","270-UM","2018/05/28 16:18:51","新北市三重區龍門路88號","121.497195","25.0728766666667","6500200","三重區"
"241025","271-UM","2018/05/28 16:19:05","新北市三重區中正北路560巷100弄2號","121.472438333333","25.0682233333333","6500200","三重區"
"241007","398-BY","2018/05/28 16:18:57","新北市三重區三和路四段163巷58號","121.486373333333","25.0795483333333","6500200","三重區"
"241004","475-VK","2018/05/28 16:19:07","新北市三重區自強路五段69號","121.494945","25.0820233333333","6500200","三重區"
"241020","478-VK","2018/05/28 16:18:52","新北市三重區車路頭街17巷9號","121.48439","25.07045","6500200","三重區"
"241030","480-VK","2018/05/28 16:19:00","新北市三重區重新路四段121號","121.48469","25.0525416666667","6500200","三重區"
"241014","543-UM","2018/05/28 16:18:51","新北市三重區河邊北街100巷33-1號","121.502485","25.0702333333333","6500200","三重區"
"241023","545-UM","2018/05/28 16:18:52","新北市三重區忠孝路二段152號","121.482268333333","25.0681866666667","6500200","三重區"
"241001","547-UM","2018/05/28 16:19:09","新北市三重區自強路四段87號","121.491041666667","25.0792766666667","6500200","三重區"
"241019","KEA-2593","2018/05/28 16:19:03","新北市三重區重陽路三段97號","121.490255","25.0679866666667","6500200","三重區"
"241006","AAD-863","2018/05/28 16:18:57","新北市三重區永福街46巷39號","121.482286666667","25.077325","6500200","三重區"
"241012","941-UM","2018/05/28 16:19:00","新北市三重區龍門路253號","121.502348333333","25.0741966666667","6500200","三重區"
"241029","942-UM","2018/05/28 16:18:58","新北市三重區環河南路220-8號","121.493393333333","25.0526783333333","6500200","三重區"
"241033","AAC-255","2018/05/28 16:18:58","新北市三重區五谷王南街20號","121.474651666667","25.04657","6500200","三重區"
"235026","800-TS","2018/05/28 16:18:56","新北市中和區建八路139巷1號","121.490165","24.9989783333333","6500300","中和區"
"220016","013-TV","2018/05/28 16:18:59","新北市板橋區民生路二段120號","121.47044","25.0195216666667","6500100","板橋區"
"224007","275-VK","2018/05/28 16:19:00","新北市瑞芳區大埔路172-1號","121.762205","25.1022266666667","6501200","瑞芳區"
"224005","271-BY","2018/05/28 16:18:54","新北市瑞芳區岳王路94號","121.81197","25.1115","6501200","瑞芳區"
"227008","642-TC","2018/05/28 16:19:08","新北市雙溪區三港里雙澳路78號","121.883756666667","25.0538983333333","6502500","雙溪區"
"227001","400-TW","2018/05/28 16:19:05","新北市雙溪區上林里內平林80號","121.82829","25.0279433333333","6502500","雙溪區"
"251013","KEA-2871","2018/05/28 16:18:58","新北市淡水區北新路二段61號","121.478903333333","25.185635","6501000","淡水區"
"251014","180-VK","2018/05/28 16:18:54","新北市淡水區中正路二段31號","121.419376666667","25.1817216666667","6501000","淡水區"
"251008","181-VK","2018/05/28 16:18:56","新北市淡水區中正東路二段145號","121.45963","25.1472816666667","6501000","淡水區"
"238002","755-BX","2018/05/28 16:18:57","新北市樹林區中山路二段235號","121.402375","24.9761866666667","6500700","樹林區"
"238010","601-UM","2018/05/28 16:19:02","新北市樹林區忠信街15號","121.40769","25.0149866666667","6500700","樹林區"
"238006","599-UM","2018/05/28 16:19:08","新北市樹林區鎮前街421號","121.413876666667","24.9829866666667","6500700","樹林區"
"238004","283-BY","2018/05/28 16:18:52","新北市樹林區中正路433-2號","121.414876666667","25.0082633333333","6500700","樹林區"
"238001","282-BY","2018/05/28 16:19:02","新北市樹林區千歲街63-16號","121.427091666667","24.9987566666667","6500700","樹林區"
"238007","268-VK","2018/05/28 16:19:00","新北市樹林區三俊街65巷18弄40號","121.415345","25.0172","6500700","樹林區"
"238013","172-UY","2018/05/28 16:18:59","新北市樹林區中和街11號","121.392085","24.972905","6500700","樹林區"
"220050","245-BX","2018/05/28 16:18:57","新北市八里區中山路三段169號","121.38496","25.14141","6500100","板橋區"
