"lineid","car","time","location","longitude","latitude","cityid","cityname"
"249005","172-UM","2018/05/28 17:29:05","新北市八里區荖阡坑路71號","121.407325","25.1263116666667","6502300","八里區"
"249001","173-UM","2018/05/28 17:29:07","新北市八里區中華路一段1-5號","121.423301666667","25.1586733333333","6502300","八里區"
"249004","303-UY","2018/05/28 17:29:05","新北市八里區民有街78-2號","121.414801666667","25.1561","6502300","八里區"
"249002","305-UY","2018/05/28 17:28:56","新北市八里區龍米路一段470號","121.449893333333","25.1358283333333","6502300","八里區"
"249003","593-UM","2018/05/28 17:29:03","新北市八里區中山路二段321號","121.400613333333","25.1475016666667","6502300","八里區"
"232011","375-UM","2018/05/28 17:29:12","新北市坪林區鶯子瀨12-1號","121.712536666667","24.9147833333333","6502000","坪林區"
"244013","069-UM","2018/05/28 17:29:13","新北市林口區粉寮路15-3號","121.398226666667","25.08058","6501700","林口區"
"244007","080-UY","2018/05/28 17:29:11","新北市林口區湖子45號","121.384821666667","25.0944983333333","6501700","林口區"
"244019","403-UM","2018/05/28 17:29:14","新北市林口區公園路152號","121.371703333333","25.071795","6501700","林口區"
"244009","410-SL","2018/05/28 17:29:08","新北市林口區文化一路二段337號","121.386201666667","25.0867016666667","6501700","林口區"
"244023","483-VK","2018/05/28 17:29:14","新北市林口區東明三街416號","121.39277","25.0711366666667","6501700","林口區"
"244017","485-VK","2018/05/28 17:29:14","新北市林口區中山路206號","121.38716","25.0792516666667","6501700","林口區"
"244011","701-TV","2018/05/28 17:29:09","新北市林口區中正路345巷1弄1號","121.387993333333","25.0772866666667","6501700","林口區"
"244025","837-TS","2018/05/28 17:29:04","新北市林口區民族路181號","121.367206666667","25.0766416666667","6501700","林口區"
"244021","838-TS","2018/05/28 17:28:53","新北市林口區粉寮路二段457號","121.404368333333","25.09871","6501700","林口區"
"231046","188-VK","2018/05/28 17:29:09","新北市新店區直潭路92號","121.530876666667","24.9375716666667","6500600","新店區"
"241015","062-VK","2018/05/28 17:28:55","新北市三重區長元街65巷16弄10號","121.503383333333","25.066215","6500200","三重區"
"241017","063-VK","2018/05/28 17:28:56","新北市三重區大同北路34巷48號","121.493686666667","25.0620966666667","6500200","三重區"
"241024","065-VK","2018/05/28 17:29:14","新北市三重區大勇街82巷15弄1號","121.479726666667","25.0718016666667","6500200","三重區"
"241003","091-VK","2018/05/28 17:29:00","新北市三重區碧華街378號","121.490973333333","25.0842933333333","6500200","三重區"
"241005","262-UM","2018/05/28 17:29:04","新北市三重區永安北路二段45號","121.482496666667","25.0827","6500200","三重區"
"241009","265-UM","2018/05/28 17:29:07","新北市三重區力行路二段121號","121.48302","25.0765433333333","6500200","三重區"
"241016","266-UM","2018/05/28 17:29:11","新北市三重區大同北路79號","121.495041666667","25.0636866666667","6500200","三重區"
"241018","268-UM","2018/05/28 17:29:09","新北市三重區新北大道一段7號","121.489615","25.06127","6500200","三重區"
"241032","269-UM","2018/05/28 17:29:12","新北市三重區名源街61巷1號","121.482005","25.0593266666667","6500200","三重區"
"241013","270-UM","2018/05/28 17:29:11","新北市三重區仁愛街141巷13號","121.495925","25.07567","6500200","三重區"
"241025","271-UM","2018/05/28 17:29:05","新北市三重區中正北路380號","121.47656","25.0698483333333","6500200","三重區"
"241007","398-BY","2018/05/28 17:28:57","新北市三重區三和路四段145巷80號","121.486296666667","25.078895","6500200","三重區"
"241020","478-VK","2018/05/28 17:29:12","新北市三重區忠孝路一段115號","121.488933333333","25.072095","6500200","三重區"
"241030","480-VK","2018/05/28 17:29:00","新北市三重區新興路7號","121.492698333333","25.05316","6500200","三重區"
"241014","543-UM","2018/05/28 17:29:12","新北市三重區安和路17號","121.501346666667","25.0684533333333","6500200","三重區"
"241023","545-UM","2018/05/28 17:29:11","新北市三重區三民街146巷3弄1號","121.481686666667","25.0647133333333","6500200","三重區"
"241019","KEA-2593","2018/05/28 17:29:02","新北市三重區自強路二段26巷40號","121.488291666667","25.06889","6500200","三重區"
"241012","941-UM","2018/05/28 17:29:00","新北市三重區仁福街64巷1號","121.497993333333","25.074795","6500200","三重區"
"241033","AAC-255","2018/05/28 17:28:58","新北市三重區興德路133號","121.470115","25.0529966666667","6500200","三重區"
"247024","893-R6","2018/05/28 17:29:00","新北市蘆洲區長興路318號","121.461741666667","25.0922683333333","6501400","蘆洲區"
"247014","546-UM","2018/05/28 17:29:01","新北市蘆洲區三民路33號","121.475393333333","25.0830083333333","6501400","蘆洲區"
"247022","500-BY","2018/05/28 17:29:10","新北市蘆洲區三民路277號","121.467751666667","25.0898833333333","6501400","蘆洲區"
"247010","341-TH","2018/05/28 17:29:04","新北市蘆洲區鷺江街16-4號","121.478581666667","25.0824733333333","6501400","蘆洲區"
"247012","339-TH","2018/05/28 17:29:04","新北市蘆洲區民族路38號","121.47654","25.084405","6501400","蘆洲區"
"247004","337-TH","2018/05/28 17:29:08","新北市蘆洲區長安街233巷7號","121.459023333333","25.0827183333333","6501400","蘆洲區"
"247006","336-TH","2018/05/28 17:29:01","新北市蘆洲區長安街22巷31弄27號","121.463856666667","25.08072","6501400","蘆洲區"
"247018","057-VK","2018/05/28 17:17:10","新北市蘆洲區復興路60巷1弄20號","121.475478333333","25.0862666666667","6501400","蘆洲區"
"247008","056-VK","2018/05/28 17:29:07","新北市蘆洲區信義路34巷46號","121.474963333333","25.0781883333333","6501400","蘆洲區"
"247016","007-UY","2018/05/28 17:29:10","新北市蘆洲區光華路22巷45號","121.468295","25.084725","6501400","蘆洲區"
"247002","002-UY","2018/05/28 17:29:13","新北市蘆洲區永樂街38巷57弄10-1號","121.457958333333","25.0903916666667","6501400","蘆洲區"
"247020","001-UY","2018/05/28 17:29:00","新北市蘆洲區仁愛街101巷16號","121.470561666667","25.094025","6501400","蘆洲區"
"228003","097-TW","2018/05/28 17:29:08","新北市貢寮區仁理村仁和路1號","121.924016666667","25.0478716666667","6502600","貢寮區"
"228002","585-TW","2018/05/28 17:29:01","新北市貢寮區福隆里興隆街21-2號","121.932975","25.0188166666667","6502600","貢寮區"
"228001","670-TC","2018/05/28 17:28:57","新北市貢寮區仁理村仁愛路33號","121.924835","25.0532683333333","6502600","貢寮區"
"224010","AGQ-8101","2018/05/28 17:23:28","新北市瑞芳區東和路16巷45號","121.80303","25.105015","6501200","瑞芳區"
"224006","676-BX","2018/05/28 17:28:58","新北市瑞芳區靜安路四段63-1號","121.793296666667","25.1087466666667","6501200","瑞芳區"
"224009","273-VK","2018/05/28 17:29:01","新北市瑞芳區汽車路18號","121.845318333333","25.1101","6501200","瑞芳區"
"224008","272-VK","2018/05/28 17:28:56","新北市瑞芳區九芎橋路8號","121.83229","25.0905716666667","6501200","瑞芳區"
"224005","271-BY","2018/05/28 17:29:14","新北市瑞芳區明里路122號","121.864263333333","25.1223816666667","6501200","瑞芳區"
"227008","642-TC","2018/05/28 17:29:08","新北市雙溪區三貂里定福路1-2號","121.850768333333","25.06343","6502500","雙溪區"
"227001","400-TW","2018/05/28 17:29:05","新北市雙溪區平林里外平林74-1號","121.844378333333","25.0334983333333","6502500","雙溪區"
"251009","008-UM","2018/05/28 17:29:03","新北市淡水區重建街1巷10號","121.439695","25.1738266666667","6501000","淡水區"
"251004","009-UM","2018/05/28 17:28:57","新北市淡水區中正東路二段88巷15號","121.459061666667","25.1505416666667","6501000","淡水區"
"251005","010-UM","2018/05/28 17:29:18","新北市淡水區鄧公路31巷14號","121.451838333333","25.1706433333333","6501000","淡水區"
"251013","KEA-2871","2018/05/28 17:28:58","新北市淡水區大竹圍5號","121.466571666667","25.1952433333333","6501000","淡水區"
"251016","179-VK","2018/05/28 17:29:14","新北市淡水區埤島75號","121.454143333333","25.1945583333333","6501000","淡水區"
"251014","180-VK","2018/05/28 17:29:00","新北市淡水區公埔子20-6號","121.46895","25.2272133333333","6501000","淡水區"
"251008","181-VK","2018/05/28 17:28:56","新北市淡水區大同路124巷18號","121.463618333333","25.1399183333333","6501000","淡水區"
"251015","182-VK","2018/05/28 17:27:37","新北市淡水區樹林口16號","121.478818333333","25.1670183333333","6501000","淡水區"
"251010","413-VK","2018/05/28 17:29:09","新北市淡水區中正路二段150號","121.422971666667","25.1878133333333","6501000","淡水區"
"251007","442-VK","2018/05/28 17:29:13","新北市淡水區民生路47-4號","121.462146666667","25.1380066666667","6501000","淡水區"
"251012","443-VK","2018/05/28 17:29:11","新北市淡水區北新路118號","121.4479","25.1783583333333","6501000","淡水區"
"251006","561-UM","2018/05/28 17:28:58","新北市淡水區大仁街27號","121.442558333333","25.1753116666667","6501000","淡水區"
"251011","650-BX","2018/05/28 17:29:04","新北市淡水區坪頂路712號","121.4825","25.158495","6501000","淡水區"
"251002","672-BX","2018/05/28 17:29:11","新北市淡水區中正路32巷8號","121.430413333333","25.175285","6501000","淡水區"
"251003","766-UM","2018/05/28 17:29:17","新北市淡水區真理街1號","121.43816","25.172895","6501000","淡水區"
"207003","550-UM","2018/05/28 17:29:15","新北市萬里區龜吼里翡翠路17號","121.683438333333","25.186865","6502800","萬里區"
"207004","225-TW","2018/05/28 17:28:59","新北市萬里區萬里里景美路11-2號","121.685388333333","25.17305","6502800","萬里區"
"252002","178-VK","2018/05/28 17:28:59","新北市三芝區忠孝街1-14號","121.505556666667","25.253945","6502100","三芝區"
"252001","292-VK","2018/05/28 17:28:57","新北市三芝區長安街119號","121.498063333333","25.2596633333333","6502100","三芝區"
"237011","572-TV","2018/05/28 17:29:16","新北市三峽區中山路459巷131號","121.351191666667","24.9349533333333","6500900","三峽區"
"237015","649-BX","2018/05/28 17:29:00","新北市三峽區中山路459巷131號","121.351075","24.9348366666667","6500900","三峽區"
"242034","AAC-296","2018/05/28 17:29:13","新北市新莊區新莊路457號","121.449565","25.0334","6500500","新莊區"
"242058","986-R7","2018/05/28 17:28:55","新北市新莊區中正路539-1號","121.435505","25.032795","6500500","新莊區"
"242053","751-BX","2018/05/28 17:29:10","新北市新莊區瓊林南路305巷14號","121.434976666667","25.0050683333333","6500500","新莊區"
"242027","615-BX","2018/05/28 17:29:02","新北市新莊區思源路32號","121.460353333333","25.0404316666667","6500500","新莊區"
"242025","613-BX","2018/05/28 17:29:09","新北市新莊區復興路二段47號","121.454671666667","25.04439","6500500","新莊區"
"242029","612-BX","2018/05/28 17:29:15","新北市新莊區復興路二段172號","121.458448333333","25.04429","6500500","新莊區"
"242042","566-BX","2018/05/28 17:29:09","新北市新莊區新樹路113巷17號","121.439","25.0264283333333","6500500","新莊區"
"242050","442-UM","2018/05/28 17:28:58","新北市新莊區新樹路449巷5號","121.43308","25.01367","6500500","新莊區"
"242046","441-UM","2018/05/28 17:29:06","新北市新莊區新樹路65-4號","121.439511666667","25.0310733333333","6500500","新莊區"
"242056","440-UM","2018/05/28 17:28:57","新北市新莊區景德路211號","121.449276666667","25.0336983333333","6500500","新莊區"
"242036","415-TV","2018/05/28 17:28:59","新北市新莊區建國二路1號","121.434896666667","25.0236933333333","6500500","新莊區"
"242007","413-TV","2018/05/28 17:29:14","新北市新莊區自強街3號","121.454718333333","25.0455983333333","6500500","新莊區"
"242044","400-BY","2018/05/28 17:28:57","新北市新莊區富國路101-1號","121.421326666667","25.0255433333333","6500500","新莊區"
"242023","362-BY","2018/05/28 17:29:10","新北市新莊區公園路148號","121.453103333333","25.0401066666667","6500500","新莊區"
"242060","353-BY","2018/05/28 17:29:16","新北市新莊區瓊林路190-2號","121.439436666667","25.0208983333333","6500500","新莊區"
"242009","132-UY","2018/05/28 17:29:00","新北市新莊區中原路191號","121.452245","25.0543716666667","6500500","新莊區"
"242039","133-UY","2018/05/28 17:29:05","新北市新莊區民安路284號","121.427888333333","25.0215566666667","6500500","新莊區"
"242031","135-UY","2018/05/28 17:29:01","新北市新莊區新泰路401巷28-1號","121.442496666667","25.043995","6500500","新莊區"
"242048","172-VK","2018/05/28 17:29:04","新北市新莊區龍安路252號","121.421195","25.0195733333333","6500500","新莊區"
"242017","175-VK","2018/05/28 17:29:10","新北市新莊區復興路一段213號","121.45248","25.0437683333333","6500500","新莊區"
"242004","176-VK","2018/05/28 17:29:15","新北市新莊區中港路286號","121.452958333333","25.044295","6500500","新莊區"
"242015","346-TH","2018/05/28 17:29:13","新北市新莊區新泰路161號","121.447766666667","25.0370383333333","6500500","新莊區"
"242021","348-TH","2018/05/28 17:29:17","新北市新莊區中華路一段8號","121.452","25.0368633333333","6500500","新莊區"
"242019","350-TH","2018/05/28 17:29:12","新北市新莊區中港路五守新村1巷3號","121.455283333333","25.0384016666667","6500500","新莊區"
"242013","351-TH","2018/05/28 17:29:14","新北市新莊區中誠街18號","121.451903333333","25.0482883333333","6500500","新莊區"
"238015","755-BX","2018/05/28 17:29:10","新北市樹林區大安路267號","121.419001666667","24.9936916666667","6500700","樹林區"
"238019","599-UM","2018/05/28 17:29:18","新北市樹林區太平路25-1號","121.419138333333","24.9834016666667","6500700","樹林區"
"238005","571-TV","2018/05/28 17:29:02","新北市樹林區鎮前街159號","121.423723333333","24.988685","6500700","樹林區"
"238024","5061-A6","2018/05/28 17:29:00","新北市樹林區博愛街194號","121.424923333333","24.9896566666667","6500700","樹林區"
"238022","KEA-2213","2018/05/28 17:29:00","新北市樹林區仁愛街23號","121.42163","24.9817033333333","6500700","樹林區"
"238021","KEA-2539","2018/05/28 17:29:09","新北市樹林區民權街5巷7號","121.395303333333","24.9580683333333","6500700","樹林區"
"238025","303-VK","2018/05/28 17:29:10","新北市樹林區保安街二段2-7號","121.416476666667","25.0001183333333","6500700","樹林區"
"238004","283-BY","2018/05/28 17:29:12","新北市樹林區三德街8號","121.413291666667","25.01279","6500700","樹林區"
"238014","282-BY","2018/05/28 17:29:02","新北市樹林區保安街一段245號","121.419745","24.996395","6500700","樹林區"
"238020","268-VK","2018/05/28 17:29:00","新北市樹林區俊英街48號","121.428806666667","25.0027066666667","6500700","樹林區"
"238026","172-UY","2018/05/28 17:29:13","新北市樹林區中山路三段27巷3弄12-1號","121.401598333333","24.97393","6500700","樹林區"
"238016","169-UY","2018/05/28 17:29:12","新北市樹林區長壽街13號","121.423685","24.99319","6500700","樹林區"
"239006","891-R6","2018/05/28 17:29:10","新北市鶯歌區鶯桃路472巷20號","121.333341666667","24.9655233333333","6500800","鶯歌區"
"239008","527-UM","2018/05/28 17:29:15","新北市鶯歌區大湖路732巷29號","121.333083333333","24.9782266666667","6500800","鶯歌區"
"239005","526-UM","2018/05/28 17:29:13","新北市鶯歌區鶯桃路二段9號","121.326053333333","24.97201","6500800","鶯歌區"
"239001","417-VK","2018/05/28 17:29:13","新北市鶯歌區尖山路235號","121.340111666667","24.9437033333333","6500800","鶯歌區"
"239003","360-BY","2018/05/28 17:28:57","新北市鶯歌區德昌街80號","121.33272","24.9600133333333","6500800","鶯歌區"
"239002","359-BY","2018/05/28 17:29:07","新北市鶯歌區南雅路436號","121.346855","24.953885","6500800","鶯歌區"
"239007","292-BY","2018/05/28 17:29:09","新北市鶯歌區永明街121號","121.34232","24.955735","6500800","鶯歌區"
"239004","193-VK","2018/05/28 17:29:10","新北市鶯歌區文化路226巷5弄1號","121.352533333333","24.9486833333333","6500800","鶯歌區"
"221008","489-VK","2018/05/28 17:29:08","新北市汐止區康寧街901號","121.65133","25.0751083333333","6501100","汐止區"
"221033","647-BX","2018/05/28 17:28:56","新北市汐止區康寧街901號","121.65116","25.0750933333333","6501100","汐止區"
"242002","KEA-2550","2018/05/28 17:29:12","新北市新莊區新莊路154號","121.455213333333","25.0355183333333","6500500","新莊區"
