"lineid","car","time","location","longitude","latitude","cityid","cityname"
"234026","9371-KE","2018/05/28 17:49:43","新北市永和區中山路一段17巷4弄15號","121.51346","25.0100966666667","6500400","永和區"
"234011","9373-KE","2018/05/28 17:46:53","新北市永和區福和路1號","121.525583333333","25.0093116666667","6500400","永和區"
"249005","172-UM","2018/05/28 17:49:44","新北市八里區荖阡坑路41-10號","121.402363333333","25.1335233333333","6502300","八里區"
"249001","173-UM","2018/05/28 17:49:47","新北市八里區龍米路二段125巷25號","121.445961666667","25.1465916666667","6502300","八里區"
"249004","303-UY","2018/05/28 17:49:45","新北市八里區中華路一段81巷24號","121.419825","25.15298","6502300","八里區"
"249002","305-UY","2018/05/28 17:49:36","新北市八里區龍形三街9巷2號","121.450653333333","25.1317366666667","6502300","八里區"
"249003","593-UM","2018/05/28 17:49:43","新北市八里區中山路二段196號","121.405766666667","25.1524316666667","6502300","八里區"
"248016","026-BX","2018/05/28 17:47:09","新北市五股區中興路二段83巷26-6號","121.459865","25.07539","6501500","五股區"
"232011","375-UM","2018/05/28 17:49:32","新北市坪林區北宜路八段145號","121.706808333333","24.9344866666667","6502000","坪林區"
"244013","069-UM","2018/05/28 17:49:34","新北市林口區中正路497號","121.383491666667","25.077695","6501700","林口區"
"244007","080-UY","2018/05/28 17:49:31","新北市林口區竹林路155號","121.388671666667","25.0799066666667","6501700","林口區"
"244019","403-UM","2018/05/28 17:49:34","新北市林口區文化一路一段89-5號","121.371943333333","25.0703683333333","6501700","林口區"
"244009","410-SL","2018/05/28 17:49:28","新北市林口區寶林路37號","121.385805","25.0841116666667","6501700","林口區"
"244023","483-VK","2018/05/28 17:49:34","新北市林口區育林街30號","121.385776666667","25.0737366666667","6501700","林口區"
"244017","485-VK","2018/05/28 17:47:54","新北市林口區文化二路一段260巷10號","121.371108333333","25.07307","6501700","林口區"
"244011","701-TV","2018/05/28 17:49:29","新北市林口區佳林路231號","121.38348","25.0764116666667","6501700","林口區"
"244025","837-TS","2018/05/28 17:49:44","新北市林口區文化三路一段191巷12號","121.361128333333","25.0700883333333","6501700","林口區"
"244021","838-TS","2018/05/28 17:49:33","新北市林口區仁愛路一段157號","121.398581666667","25.0722266666667","6501700","林口區"
"222002","659-BX","2018/05/28 17:49:30","新北市深坑區平埔街22巷17弄1號","121.614875","25.000885","6501800","深坑區"
"231046","188-VK","2018/05/28 17:49:29","新北市新店區康雅崙路20號","121.535115","24.92665","6500600","新店區"
"241005","262-UM","2018/05/28 17:49:44","新北市三重區仁愛街519號","121.487315","25.0822533333333","6500200","三重區"
"241016","266-UM","2018/05/28 17:49:31","新北市三重區重新路二段91號","121.496066666667","25.0616916666667","6500200","三重區"
"241024","462-BY","2018/05/28 17:49:34","新北市三重區車路頭街62巷43號","121.483103333333","25.0724066666667","6500200","三重區"
"241033","AAC-255","2018/05/28 17:49:38","新北市三重區重新路五段551號","121.47059","25.0461033333333","6500200","三重區"
"235065","098-UM","2018/05/28 17:49:43","新北市中和區和城路一段271巷1號","121.485453333333","24.992185","6500300","中和區"
"235058","151-BY","2018/05/28 17:49:33","新北市中和區員山路36巷16-2號","121.485221666667","24.99159","6500300","中和區"
"235038","185-VK","2018/05/28 17:49:45","新北市中和區員山路36巷16-8號","121.485461666667","24.99247","6500300","中和區"
"247024","893-R6","2018/05/28 17:49:40","新北市蘆洲區光榮路61巷11號","121.461041666667","25.0889016666667","6501400","蘆洲區"
"247014","546-UM","2018/05/28 17:49:21","新北市蘆洲區保和街69巷16號","121.469521666667","25.0854066666667","6501400","蘆洲區"
"247022","500-BY","2018/05/28 17:49:28","新北市蘆洲區中正路262號","121.465526666667","25.0896933333333","6501400","蘆洲區"
"247010","341-TH","2018/05/28 17:49:44","新北市蘆洲區信義路269號","121.478901666667","25.0849683333333","6501400","蘆洲區"
"247012","339-TH","2018/05/28 17:49:43","新北市蘆洲區復興路101號","121.476633333333","25.08763","6501400","蘆洲區"
"247004","337-TH","2018/05/28 17:49:29","新北市蘆洲區長安街172巷35弄15號","121.460106666667","25.08465","6501400","蘆洲區"
"247006","336-TH","2018/05/28 17:49:41","新北市蘆洲區長安街25號","121.464008333333","25.0791783333333","6501400","蘆洲區"
"247018","057-VK","2018/05/28 17:48:25","新北市蘆洲區復興路307巷7-9號","121.481093333333","25.09076","6501400","蘆洲區"
"247008","056-VK","2018/05/28 17:49:30","新北市蘆洲區中山一路287號","121.471803333333","25.0795033333333","6501400","蘆洲區"
"247016","007-UY","2018/05/28 17:49:30","新北市蘆洲區中正路185巷25弄20號","121.467238333333","25.0837816666667","6501400","蘆洲區"
"247002","002-UY","2018/05/28 17:49:33","新北市蘆洲區永平街32巷21弄31號","121.458061666667","25.0921683333333","6501400","蘆洲區"
"247020","001-UY","2018/05/28 17:49:40","新北市蘆洲區民義街69號","121.473066666667","25.0902016666667","6501400","蘆洲區"
"228003","097-TW","2018/05/28 17:49:48","新北市貢寮區真理里延平街72-5號","121.925173333333","25.0580883333333","6502600","貢寮區"
"228002","585-TW","2018/05/28 17:49:41","新北市貢寮區福隆里外隆林街14-1號","121.959113333333","25.0036583333333","6502600","貢寮區"
"228001","670-TC","2018/05/28 17:49:37","新北市貢寮區仁理村仁愛路95-1號","121.927691666667","25.0554466666667","6502600","貢寮區"
"224010","AGQ-8101","2018/05/28 17:49:28","新北市瑞芳區岳王路11號","121.807028333333","25.110735","6501200","瑞芳區"
"224006","676-BX","2018/05/28 17:49:38","新北市瑞芳區傑魚坑路183號","121.788443333333","25.1082933333333","6501200","瑞芳區"
"224009","273-VK","2018/05/28 17:49:41","新北市瑞芳區山尖路209號","121.8497","25.1120916666667","6501200","瑞芳區"
"224008","272-VK","2018/05/28 17:49:36","新北市瑞芳區明燈路一段175號","121.819248333333","25.1076","6501200","瑞芳區"
"224005","271-BY","2018/05/28 17:49:34","新北市瑞芳區台電新村11號","121.819335","25.1239366666667","6501200","瑞芳區"
"227008","642-TC","2018/05/28 17:49:28","新北市雙溪區三貂里定福路1-2號","121.850735","25.0634033333333","6502500","雙溪區"
"222001","KEA-2212","2018/05/28 17:49:40","新北市深坑區北深路三段25巷15-2號","121.608698333333","24.9995266666667","6501800","深坑區"
"208003","665-BX","2018/05/28 17:49:44","新北市金山區磺清路135號","121.639443333333","25.22773","6502700","金山區"
"251009","008-UM","2018/05/28 17:49:43","新北市淡水區長興街32號","121.444085","25.17129","6501000","淡水區"
"251004","009-UM","2018/05/28 17:49:37","新北市淡水區民權一街22號","121.458508333333","25.1368766666667","6501000","淡水區"
"251005","010-UM","2018/05/28 17:49:38","新北市淡水區學府路102巷6號","121.450493333333","25.171845","6501000","淡水區"
"251001","011-UM","2018/05/28 17:49:28","新北市淡水區民權路92巷35-1號","121.462106666667","25.12657","6501000","淡水區"
"251013","KEA-2871","2018/05/28 17:49:38","新北市淡水區泉洲厝31號","121.479555","25.1910666666667","6501000","淡水區"
"251016","179-VK","2018/05/28 17:49:34","新北市淡水區埤島39-15號","121.452776666667","25.1958733333333","6501000","淡水區"
"251014","180-VK","2018/05/28 17:49:40","新北市淡水區公埔子16-6號","121.480956666667","25.224555","6501000","淡水區"
"251008","181-VK","2018/05/28 17:49:31","新北市淡水區八勢路一段123巷6號","121.466891666667","25.1572116666667","6501000","淡水區"
"251015","182-VK","2018/05/28 17:49:37","新北市淡水區興福寮88巷1號","121.485536666667","25.1650683333333","6501000","淡水區"
"251010","413-VK","2018/05/28 17:49:29","新北市淡水區觀海路27號","121.418555","25.1815316666667","6501000","淡水區"
"251007","442-VK","2018/05/28 17:49:33","新北市淡水區民生路16巷1-1號","121.461011666667","25.1374533333333","6501000","淡水區"
"251012","443-VK","2018/05/28 17:49:31","新北市淡水區水頭43-1號","121.476745","25.1856733333333","6501000","淡水區"
"251006","561-UM","2018/05/28 17:49:38","新北市淡水區新生街51巷32號","121.440853333333","25.1758716666667","6501000","淡水區"
"251011","650-BX","2018/05/28 17:49:23","新北市淡水區吳(仔)厝39號","121.479558333333","25.1496733333333","6501000","淡水區"
"251002","672-BX","2018/05/28 17:49:31","新北市淡水區中山路23號","121.444095","25.17003","6501000","淡水區"
"251003","766-UM","2018/05/28 17:49:37","新北市淡水區大忠街5巷1號","121.443071666667","25.176395","6501000","淡水區"
"207003","550-UM","2018/05/28 17:49:35","新北市萬里區野柳里東澳路66號","121.692686666667","25.2009516666667","6502800","萬里區"
"207004","225-TW","2018/05/28 17:49:39","新北市萬里區萬里里瑪鋉頂街100-1號","121.68782","25.1805033333333","6502800","萬里區"
"252002","178-VK","2018/05/28 17:49:39","新北市三芝區中山路一段88巷15號","121.50274","25.256755","6502100","三芝區"
"252001","292-VK","2018/05/28 17:49:37","新北市三芝區中興街一段12號","121.497455","25.259215","6502100","三芝區"
"237011","572-TV","2018/05/28 17:49:36","新北市三峽區中正路一段39號","121.375785","24.9306233333333","6500900","三峽區"
"237009","210-TH","2018/05/28 17:49:32","新北市三峽區大勇路27號","121.367211666667","24.9363816666667","6500900","三峽區"
"237013","252-BX","2018/05/28 17:49:46","新北市三峽區介壽路一段22號","121.375521666667","24.932835","6500900","三峽區"
"237012","275-BY","2018/05/28 17:49:30","新北市三峽區文化路41-1號","121.372558333333","24.93612","6500900","三峽區"
"237008","302-VK","2018/05/28 17:49:27","新北市三峽區中正路一段524號","121.36927","24.9200466666667","6500900","三峽區"
"237014","433-BY","2018/05/28 17:49:40","新北市三峽區復興路101巷1弄59號","121.37131","24.9370116666667","6500900","三峽區"
"237006","5529-G3","2018/05/28 17:49:13","新北市三峽區介壽路二段136巷120弄2-1號","121.392341666667","24.9323016666667","6500900","三峽區"
"237015","649-BX","2018/05/28 17:49:40","新北市三峽區白雞129-1號","121.396791666667","24.9075566666667","6500900","三峽區"
"237010","706-TV","2018/05/28 17:49:44","新北市三峽區文化路164號","121.369943333333","24.9360883333333","6500900","三峽區"
"237005","AKY-6261","2018/05/28 17:49:25","新北市三峽區中山路321-2號","121.36087","24.9380583333333","6500900","三峽區"
"236069","105-UM","2018/05/28 17:49:26","新北市土城區城林路6巷80號","121.438448333333","24.9797883333333","6501300","土城區"
"236042","107-UM","2018/05/28 17:49:42","新北市土城區城林路6巷80號","121.438501666667","24.9797883333333","6501300","土城區"
"236078","166-UM","2018/05/28 17:49:28","新北市土城區永寧路7-2號","121.43046","24.9643916666667","6501300","土城區"
"236030","253-BX","2018/05/28 17:49:46","新北市土城區城林路6巷80號","121.438641666667","24.9797266666667","6501300","土城區"
"236014","270-VK","2018/05/28 17:49:47","新北市土城區城林路6巷80號","121.438558333333","24.9795966666667","6501300","土城區"
"236039","271-VK","2018/05/28 17:49:48","新北市土城區城林路6巷80號","121.43847","24.9798083333333","6501300","土城區"
"236020","401-BY","2018/05/28 17:49:38","新北市土城區中華路二段2號","121.438878333333","24.9797366666667","6501300","土城區"
"236059","912-UM","2018/05/28 17:49:43","新北市土城區中華路二段184號","121.437455","24.971265","6501300","土城區"
"236048","913-UM","2018/05/28 17:49:30","新北市土城區城林路6巷80號","121.438695","24.979675","6501300","土城區"
"236063","915-UM","2018/05/28 17:49:31","新北市土城區城林路6巷80號","121.438441666667","24.9797933333333","6501300","土城區"
"236055","AAC-216","2018/05/28 17:49:43","新北市土城區城林路6巷80號","121.438456666667","24.9796233333333","6501300","土城區"
"242034","AAC-296","2018/05/28 17:49:34","新北市新莊區新莊路682-6號","121.441075","25.0327533333333","6500500","新莊區"
"242058","986-R7","2018/05/28 17:49:35","新北市新莊區中正路726-10號","121.415426666667","25.0239633333333","6500500","新莊區"
"242053","751-BX","2018/05/28 17:49:30","新北市新莊區新樹路609-5號","121.433375","25.0043516666667","6500500","新莊區"
"242027","615-BX","2018/05/28 17:49:42","新北市新莊區福壽街171號","121.458028333333","25.0537983333333","6500500","新莊區"
"242025","613-BX","2018/05/28 17:49:07","新北市三重區新北大道二段135號","121.466085","25.0613","6500500","新莊區"
"242029","612-BX","2018/05/28 17:49:35","新北市新莊區復興路一段27號","121.446301666667","25.0415966666667","6500500","新莊區"
"242042","566-BX","2018/05/28 17:49:27","新北市新莊區中正路612-1號","121.426071666667","25.0302183333333","6500500","新莊區"
"242050","442-UM","2018/05/28 17:49:38","新北市新莊區西盛街245巷19號","121.428866666667","25.0162","6500500","新莊區"
"242046","441-UM","2018/05/28 17:49:46","新北市新莊區福營路125巷17號","121.433618333333","25.0309283333333","6500500","新莊區"
"242056","440-UM","2018/05/28 17:49:38","新北市新莊區瓊林路40巷29號","121.4466","25.0301566666667","6500500","新莊區"
"242036","415-TV","2018/05/28 17:49:39","新北市新莊區建福路68號","121.426835","25.0269266666667","6500500","新莊區"
"242007","413-TV","2018/05/28 17:49:38","新北市新莊區福樂街120號","121.457095","25.0478083333333","6500500","新莊區"
"242044","400-BY","2018/05/28 17:49:43","新北市新莊區中正路855巷21號","121.420276666667","25.0269233333333","6500500","新莊區"
"242023","362-BY","2018/05/28 17:49:29","新北市新莊區福樂街78號","121.457711666667","25.04673","6500500","新莊區"
"242060","353-BY","2018/05/28 17:49:36","新北市新莊區新樹路601號","121.433186666667","25.00586","6500500","新莊區"
"242009","132-UY","2018/05/28 17:49:40","新北市新莊區昌明街42號","121.45631","25.0522416666667","6500500","新莊區"
"242039","133-UY","2018/05/28 17:49:45","新北市新莊區民安路178號","121.425173333333","25.0238616666667","6500500","新莊區"
"242031","135-UY","2018/05/28 17:49:43","新北市新莊區新泰路305巷47號","121.44298","25.0406533333333","6500500","新莊區"
"242048","172-VK","2018/05/28 17:49:44","新北市新莊區萬安街60巷13號","121.420598333333","25.0232266666667","6500500","新莊區"
"242017","175-VK","2018/05/28 17:49:28","新北市新莊區中港路341號","121.452175","25.0453716666667","6500500","新莊區"
"242004","176-VK","2018/05/28 17:49:42","新北市新莊區自立街231號","121.458103333333","25.0454816666667","6500500","新莊區"
"242015","346-TH","2018/05/28 17:49:41","新北市新莊區新泰路502巷40號","121.443635","25.0462433333333","6500500","新莊區"
"242021","348-TH","2018/05/28 17:49:44","新北市新莊區永寧街30巷2號","121.452838333333","25.0389366666667","6500500","新莊區"
"242019","350-TH","2018/05/28 17:49:32","新北市新莊區長青街2號","121.457886666667","25.04268","6500500","新莊區"
"242013","351-TH","2018/05/28 17:49:43","新北市新莊區中和街108巷11號","121.448171666667","25.04696","6500500","新莊區"
"238015","755-BX","2018/05/28 17:49:30","新北市樹林區長壽街70巷1弄1號","121.42148","24.9942816666667","6500700","樹林區"
"238023","601-UM","2018/05/28 17:49:42","新北市樹林區龍興街32巷22號","121.402051666667","25.0155783333333","6500700","樹林區"
"238019","599-UM","2018/05/28 17:49:28","新北市樹林區太元街66號","121.418578333333","24.9790866666667","6500700","樹林區"
"238005","571-TV","2018/05/28 17:49:42","新北市樹林區樹新路98號","121.429426666667","24.9976033333333","6500700","樹林區"
"238022","KEA-2213","2018/05/28 17:49:40","新北市樹林區福順街75-1號","121.416128333333","24.9780833333333","6500700","樹林區"
"238021","KEA-2539","2018/05/28 17:49:29","新北市樹林區柑園街一段68號","121.402213333333","24.960285","6500700","樹林區"
"238025","303-VK","2018/05/28 17:49:30","新北市樹林區俊興街209號","121.417345","25.0138566666667","6500700","樹林區"
"238004","283-BY","2018/05/28 17:49:32","新北市樹林區俊德街42號","121.415253333333","25.0139233333333","6500700","樹林區"
"238014","282-BY","2018/05/28 17:49:42","新北市樹林區保安街一段293號","121.417991666667","24.9972516666667","6500700","樹林區"
"238020","268-VK","2018/05/28 17:49:40","新北市樹林區三俊街265號","121.422668333333","25.01422","6500700","樹林區"
"238026","172-UY","2018/05/28 17:49:33","新北市樹林區中洲街51巷4號","121.396693333333","24.971045","6500700","樹林區"
"238016","169-UY","2018/05/28 17:49:32","新北市樹林區大安路493號","121.414475","24.9867033333333","6500700","樹林區"
"239006","891-R6","2018/05/28 17:49:30","新北市鶯歌區鶯桃路413巷38號","121.33084","24.9634883333333","6500800","鶯歌區"
"239008","527-UM","2018/05/28 17:49:35","新北市鶯歌區香賓街11巷1號","121.336735","24.9794483333333","6500800","鶯歌區"
"239005","526-UM","2018/05/28 17:49:33","新北市鶯歌區鳳吉五街31號","121.327336666667","24.9726816666667","6500800","鶯歌區"
"239001","417-VK","2018/05/28 17:49:33","新北市鶯歌區中正三路328號","121.327788333333","24.9350233333333","6500800","鶯歌區"
"239003","360-BY","2018/05/28 17:49:37","新北市鶯歌區鶯桃路285巷2-5號","121.33436","24.959135","6500800","鶯歌區"
"239002","359-BY","2018/05/28 17:49:47","新北市鶯歌區育德街23-1號","121.344575","24.95457","6500800","鶯歌區"
"239007","292-BY","2018/05/28 17:49:40","新北市鶯歌區永樂街28號","121.342111666667","24.9535733333333","6500800","鶯歌區"
"239004","193-VK","2018/05/28 17:49:29","新北市鶯歌區三鶯路9號","121.356203333333","24.9410133333333","6500800","鶯歌區"
"221008","489-VK","2018/05/28 17:49:28","新北市汐止區康寧街901號","121.651335","25.075","6501100","汐止區"
"221036","130-UY","2018/05/28 17:49:32","新北市汐止區汐萬路一段37號","121.655501666667","25.068285","6501100","汐止區"
"221015","131-UY","2018/05/28 17:49:36","新北市汐止區長江街249-1號","121.662945","25.0792683333333","6501100","汐止區"
"221010","269-BY","2018/05/28 17:49:37","新北市汐止區汐萬路二段109號","121.648305","25.0836966666667","6501100","汐止區"
"221012","278-VK","2018/05/28 17:49:36","新北市汐止區長江街256巷1號","121.664811666667","25.0800466666667","6501100","汐止區"
"221023","279-VK","2018/05/28 17:49:40","新北市汐止區民族一街1-2號","121.634833333333","25.070825","6501100","汐止區"
"221032","280-BY","2018/05/28 17:49:42","新北市汐止區大同路一段138號","121.630916666667","25.0550283333333","6501100","汐止區"
"221027","281-BY","2018/05/28 17:49:30","新北市汐止區康寧街901號","121.651391666667","25.07506","6501100","汐止區"
"221029","298-VK","2018/05/28 17:49:29","新北市汐止區康寧街901號","121.651563333333","25.07487","6501100","汐止區"
"221021","299-VK","2018/05/28 17:49:31","新北市汐止區水源路一段22號","121.65706","25.0664833333333","6501100","汐止區"
"221031","353-TW","2018/05/28 17:49:44","新北市汐止區中興路60號","121.635546666667","25.0614216666667","6501100","汐止區"
"221035","622-UM","2018/05/28 17:49:48","新北市汐止區汐萬路一段191號","121.652393333333","25.07174","6501100","汐止區"
"221025","623-UM","2018/05/28 17:49:33","新北市汐止區大同路二段171號","121.651641666667","25.064885","6501100","汐止區"
"221038","646-BX","2018/05/28 17:49:37","新北市汐止區汐萬路一段312號","121.65051","25.075345","6501100","汐止區"
"221033","647-BX","2018/05/28 17:45:56","新北市汐止區東勢街13號","121.62416","25.0398433333333","6501100","汐止區"
"221002","707-TV","2018/05/28 17:49:44","新北市汐止區康寧街901號","121.651538333333","25.074995","6501100","汐止區"
"221018","753-BX","2018/05/28 17:49:40","新北市汐止區忠孝東路343號","121.665458333333","25.0701533333333","6501100","汐止區"
"242002","KEA-2550","2018/05/28 17:49:32","新北市新莊區景德路174號","121.450156666667","25.034175","6500500","新莊區"
