"lineid","car","time","location","longitude","latitude","cityid","cityname"
"234046","148-BY","2018/05/28 19:39:44","新北市永和區秀朗路二段99號","121.52342","25.001755","6500400","永和區"
"234007","207-UY","2018/05/28 19:39:37","新北市中和區中和路442號","121.512006666667","25.003585","6500400","永和區"
"234081","298-R6","2018/05/28 19:39:56","新北市永和區林森路42號","121.525326666667","25.0048566666667","6500400","永和區"
"234038","336-UY","2018/05/28 19:39:39","新北市永和區成功路一段135號","121.52687","25.0016366666667","6500400","永和區"
"234064","337-UY","2018/05/28 19:39:37","新北市永和區秀朗路一段192巷6弄14號","121.519105","25.0023116666667","6500400","永和區"
"234086","338-UY","2018/05/28 19:39:52","新北市永和區林森路41巷31號","121.526215","25.0042433333333","6500400","永和區"
"234070","552-UM","2018/05/28 19:39:42","新北市永和區永和路二段237-1號","121.515636666667","25.0144833333333","6500400","永和區"
"234017","745-BX","2018/05/28 19:39:50","新北市永和區永和路二段425巷57弄7號","121.513581666667","25.0171","6500400","永和區"
"234030","746-BX","2018/05/28 19:39:54","新北市永和區民生路47巷1號","121.523018333333","24.9978566666667","6500400","永和區"
"234054","KEA-2590","2018/05/28 19:39:52","新北市永和區竹林路39巷22號","121.519005","25.0147333333333","6500400","永和區"
"234013","KEA-2591","2018/05/28 19:39:49","新北市永和區永平路203巷1號","121.509326666667","25.009855","6500400","永和區"
"234061","AAD-866","2018/05/28 19:39:45","新北市永和區永貞路172號","121.51677","25.004335","6500400","永和區"
"234042","862-TW","2018/05/28 19:39:51","新北市永和區中和路603號","121.512455","25.00426","6500400","永和區"
"234050","863-TW","2018/05/28 19:39:35","新北市永和區保安路132號","121.508928333333","25.015415","6500400","永和區"
"234026","9371-KE","2018/05/28 19:39:43","新北市永和區中和路501巷8號","121.51055","25.002635","6500400","永和區"
"234011","9373-KE","2018/05/28 19:39:41","新北市永和區保生路55號","121.504668333333","25.01069","6500400","永和區"
"249004","303-UY","2018/05/28 19:39:48","新北市八里區中山路一段268巷5弄11號","121.414323333333","25.1603233333333","6502300","八里區"
"249002","305-UY","2018/05/28 19:39:36","新北市八里區頂寮二街33-1號","121.450366666667","25.1252316666667","6502300","八里區"
"249003","593-UM","2018/05/28 19:39:39","新北市八里區中華路二段546號","121.398991666667","25.14545","6502300","八里區"
"248014","025-BX","2018/05/28 19:39:36","新北市五股區五福路68巷2弄1號","121.433566666667","25.09044","6501500","五股區"
"248016","026-BX","2018/05/28 19:39:51","新北市五股區成泰路3段651-1號","121.452923333333","25.1053816666667","6501500","五股區"
"248008","095-VK","2018/05/28 19:39:53","新北市五股區四維路118巷13號","121.46919","25.0742033333333","6501500","五股區"
"248018","225-UY","2018/05/28 19:28:57","新北市五股區壟路14-9號","121.41539","25.08622","6501500","五股區"
"248012","247-BX","2018/05/28 19:39:50","新北市五股區成泰路二段136號","121.43811","25.0837083333333","6501500","五股區"
"248010","272-BY","2018/05/28 19:39:34","新北市五股區自強路111號","121.432326666667","25.070555","6501500","五股區"
"248004","677-BX","2018/05/28 19:39:37","新北市五股區工商路108號","121.437391666667","25.0854233333333","6501500","五股區"
"248002","678-BX","2018/05/28 19:39:52","新北市五股區成泰路三段577巷49號","121.45074","25.103165","6501500","五股區"
"234077","969-R7","2018/05/28 19:39:46","新北市永和區民族街67巷8號","121.518948333333","24.9971783333333","6500400","永和區"
"234074","AAC-211","2018/05/28 19:39:38","新北市永和區竹林路225巷9號","121.521365","25.0085383333333","6500400","永和區"
"234067","AAC-212","2018/05/28 19:39:50","新北市永和區永貞路406巷28號","121.509721666667","25.007945","6500400","永和區"
"234003","AAC-295","2018/05/28 19:39:47","新北市永和區永和路一段25號","121.512911666667","25.0059","6500400","永和區"
"244019","403-UM","2018/05/28 19:39:34","新北市林口區四維路132號","121.379226666667","25.0770983333333","6501700","林口區"
"243013","AAD-798","2018/05/28 19:30:06","新北市泰山區貴子路28號","121.425921666667","25.04177","6501600","泰山區"
"243009","297-R6","2018/05/28 19:39:54","新北市泰山區美寧街60號","121.430968333333","25.06463","6501600","泰山區"
"243016","380-SR","2018/05/28 19:39:49","新北市泰山區新北大道七段30號","121.419803333333","25.0322416666667","6501600","泰山區"
"243015","421-VK","2018/05/28 19:39:52","新北市泰山區文程路18巷22號","121.428153333333","25.0484933333333","6501600","泰山區"
"243010","KEA-2216","2018/05/28 19:39:36","新北市泰山區明志路二段7巷4號","121.430495","25.0534516666667","6501600","泰山區"
"243012","646-TV","2018/05/28 19:39:48","新北市泰山區仁愛路100巷27號","121.43348","25.0550633333333","6501600","泰山區"
"243014","680-BX","2018/05/28 19:39:39","新北市泰山區泰林路二段33-7號","121.435165","25.0563733333333","6501600","泰山區"
"222003","436-BY","2018/05/28 19:39:49","新北市深坑區深南路51-1號","121.6213","25.0098316666667","6501800","深坑區"
"222002","659-BX","2018/05/28 19:39:50","新北市深坑區北深路一段177號","121.63247","25.0108716666667","6501800","深坑區"
"231041","002-UM","2018/05/28 19:39:46","新北市新店區中正路487號","121.533895","24.9821683333333","6500600","新店區"
"231059","046-UY","2018/05/28 19:39:46","新北市新店區安和路三段157號","121.516515","24.9856966666667","6500600","新店區"
"231040","047-UY","2018/05/28 19:39:46","新北市新店區中正路75巷71號","121.543155","24.9688416666667","6500600","新店區"
"231044","106-UY","2018/05/28 19:39:42","新北市新店區北新路三段109號","121.541413333333","24.9822266666667","6500600","新店區"
"231052","108-UY","2018/05/28 19:39:52","新北市新店區新烏路二段486號","121.553095","24.9079316666667","6500600","新店區"
"231047","187-VK","2018/05/28 19:39:44","新北市新店區五峰路63巷8弄72號","121.548013333333","24.9685483333333","6500600","新店區"
"231046","188-VK","2018/05/28 19:39:49","新北市新店區中正路329巷3弄2號","121.535395","24.974605","6500600","新店區"
"231054","KEA-2219","2018/05/28 19:39:46","新北市新店區文中路45號","121.539448333333","24.95661","6500600","新店區"
"231057","256-BX","2018/05/28 19:39:51","新北市新店區橘園一路11號","121.54799","24.93402","6500600","新店區"
"231042","268-BY","2018/05/28 19:39:47","新北市新店區中興路一段216號","121.543893333333","24.9656766666667","6500600","新店區"
"231051","278-BY","2018/05/28 19:39:47","新北市新店區中央路212號","121.529853333333","24.9736033333333","6500600","新店區"
"231050","AAD-862","2018/05/28 19:39:48","新北市新店區秀水路28號","121.554958333333","24.9548666666667","6500600","新店區"
"231058","3713-VJ","2018/05/28 19:39:43","新北市新店區北新路二段2號","121.542781666667","24.970685","6500600","新店區"
"231066","4716-K9","2018/05/28 19:39:40","新北市新店區安康路二段341巷50號","121.49668","24.954305","6500600","新店區"
"231067","4772-VM","2018/05/28 19:39:44","新北市新店區太平路57號","121.532715","24.9590133333333","6500600","新店區"
"231065","512-UM","2018/05/28 19:39:49","新北市新店區安祥路109巷77號","121.477621666667","24.9601083333333","6500600","新店區"
"231049","513-UM","2018/05/28 19:39:52","新北市新店區大豐路41巷2號","121.540296666667","24.9797283333333","6500600","新店區"
"231064","515-UM","2018/05/28 19:39:50","新北市新店區安和路一段52巷2號","121.517633333333","24.96618","6500600","新店區"
"231061","619-UM","2018/05/28 19:39:35","新北市新店區安康路一段355-4號","121.517373333333","24.9639433333333","6500600","新店區"
"231063","641-BX","2018/05/28 19:39:43","新北市新店區達觀路32號","121.502318333333","24.939875","6500600","新店區"
"231062","720-UM","2018/05/28 19:39:50","新北市新店區合作路23號","121.532933333333","24.9576433333333","6500600","新店區"
"231060","897-TW","2018/05/28 19:39:52","新北市新店區安康路二段145號","121.511575","24.9601383333333","6500600","新店區"
"231045","898-TW","2018/05/28 19:39:42","新北市新店區北宜路二段150-2號","121.557901666667","24.953985","6500600","新店區"
"231043","899-TW","2018/05/28 19:39:40","新北市新店區北新路二段68號","121.543055","24.972345","6500600","新店區"
"231055","AKT-0513","2018/05/28 19:39:37","新北市新店區中華路83巷67號","121.538358333333","24.9673716666667","6500600","新店區"
"241011","013-R5","2018/05/28 19:39:36","新北市三重區秀江街160號","121.498405","25.0717083333333","6500200","三重區"
"241028","022-UY","2018/05/28 19:39:47","新北市三重區中正南路150號","121.49415","25.0573083333333","6500200","三重區"
"241008","059-VK","2018/05/28 19:39:49","新北市三重區永福街137號","121.47868","25.07675","6500200","三重區"
"241031","061-VK","2018/05/28 19:39:45","新北市三重區重新路四段248號","121.486045","25.053415","6500200","三重區"
"241015","062-VK","2018/05/28 19:39:53","新北市三重區福德北路36號","121.501985","25.06528","6500200","三重區"
"241017","063-VK","2018/05/28 19:39:36","新北市三重區大仁街11號","121.491708333333","25.0642","6500200","三重區"
"241026","066-VK","2018/05/28 19:39:50","新北市三重區文化南路38-1號","121.500318333333","25.06109","6500200","三重區"
"241003","091-VK","2018/05/28 19:39:44","新北市三重區五華街93巷97號","121.494176666667","25.0850833333333","6500200","三重區"
"241022","742-BX","2018/05/28 19:39:43","新北市三重區中正北路122號","121.485503333333","25.0652883333333","6500200","三重區"
"241009","265-UM","2018/05/28 19:39:46","新北市三重區三和路四段412號","121.480886666667","25.079835","6500200","三重區"
"241032","269-UM","2018/05/28 19:39:37","新北市三重區重陽路一段60巷73號","121.484341666667","25.0582333333333","6500200","三重區"
"241013","270-UM","2018/05/28 19:39:43","新北市三重區仁賢街7號","121.495921666667","25.0745516666667","6500200","三重區"
"241025","271-UM","2018/05/28 19:39:50","新北市三重區頂崁街191號","121.477568333333","25.0664783333333","6500200","三重區"
"241007","398-BY","2018/05/28 19:39:37","新北市三重區溪尾街120巷40號","121.488178333333","25.0787433333333","6500200","三重區"
"241035","KEA-2210","2018/05/28 19:39:45","新北市三重區正義北路61-2號","121.49747","25.0645033333333","6500200","三重區"
"241020","478-VK","2018/05/28 19:39:52","新北市三重區自強路三段41號","121.487153333333","25.0727683333333","6500200","三重區"
"241030","480-VK","2018/05/28 19:39:40","新北市三重區新興路32號","121.492018333333","25.0534083333333","6500200","三重區"
"241023","545-UM","2018/05/28 19:39:52","新北市三重區忠孝路三段99巷8號","121.479768333333","25.0642316666667","6500200","三重區"
"241019","KEA-2593","2018/05/28 19:39:53","新北市三重區六張街194巷1弄11號","121.488161666667","25.06817","6500200","三重區"
"241006","AAD-863","2018/05/28 19:39:53","新北市三重區聯華街94號","121.485573333333","25.075175","6500200","三重區"
"241012","941-UM","2018/05/28 19:39:46","新北市三重區河邊北街256巷31號","121.500626666667","25.075925","6500200","三重區"
"241029","942-UM","2018/05/28 19:39:27","新北市三重區同安街122-1號","121.493275","25.0559883333333","6500200","三重區"
"235064","005-UY","2018/05/28 19:39:52","新北市中和區南山路125號","121.502366666667","24.99716","6500300","中和區"
"235063","006-UY","2018/05/28 19:39:48","新北市中和區連城路203巷10弄33號","121.495543333333","24.9963383333333","6500300","中和區"
"235056","096-UM","2018/05/28 19:39:38","新北市中和區員山路581巷31弄31號","121.47655","25.0103883333333","6500300","中和區"
"235039","097-UM","2018/05/28 19:39:53","新北市中和區大勇街23號","121.51702","24.9928583333333","6500300","中和區"
"235065","098-UM","2018/05/28 19:39:43","新北市中和區永和路9巷1號","121.499223333333","25.00397","6500300","中和區"
"235040","150-BY","2018/05/28 19:39:40","新北市中和區安平路70號","121.51079","24.996345","6500300","中和區"
"235058","151-BY","2018/05/28 19:39:53","新北市中和區連城路372-3號","121.481476666667","24.9952633333333","6500300","中和區"
"235055","183-VK","2018/05/28 19:39:47","新北市中和區中山路三段209號","121.471908333333","25.006375","6500300","中和區"
"235038","185-VK","2018/05/28 19:39:45","新北市中和區自強路19號","121.520478333333","24.9932366666667","6500300","中和區"
"235049","186-VK","2018/05/28 19:39:44","新北市中和區明仁街11號","121.506006666667","24.99555","6500300","中和區"
"235067","255-BX","2018/05/28 19:39:36","新北市中和區新生街232號","121.484031666667","24.9981816666667","6500300","中和區"
"235044","293-VK","2018/05/28 19:39:37","新北市中和區興南路一段88號","121.509848333333","24.9892816666667","6500300","中和區"
"235043","352-BY","2018/05/28 19:39:47","新北市中和區華新街228號","121.506148333333","24.981705","6500300","中和區"
"235050","4979-A6","2018/05/28 19:39:49","新北市中和區錦和路350-1號","121.490341666667","24.9935633333333","6500300","中和區"
"235042","551-UM","2018/05/28 19:39:55","新北市中和區中和路262巷33號","121.509588333333","24.9994633333333","6500300","中和區"
"235070","558-UM","2018/05/28 19:39:39","新北市中和區景平路593號","121.497395","25.0005516666667","6500300","中和區"
"235045","565-BX","2018/05/28 19:39:48","新北市中和區景新街440號","121.513138333333","24.9882366666667","6500300","中和區"
"235054","640-BX","2018/05/28 19:39:50","新北市中和區國光街107巷2弄29號","121.46932","24.9989783333333","6500300","中和區"
"235060","647-TV","2018/05/28 19:39:53","新北市中和區中山路二段523巷8號","121.48161","25.0047216666667","6500300","中和區"
"235046","733-UM","2018/05/28 19:39:52","新北市中和區忠孝街73號","121.512118333333","24.9850233333333","6500300","中和區"
"235071","783-BX","2018/05/28 19:39:38","新北市中和區中正路839巷29號","121.483593333333","25.00237","6500300","中和區"
"235057","801-TS","2018/05/28 19:39:38","新北市中和區員山路246號","121.481388333333","25.0014833333333","6500300","中和區"
"235041","802-TS","2018/05/28 19:39:47","新北市中和區永貞路229號","121.513308333333","25.0036583333333","6500300","中和區"
"235052","805-TS","2018/05/28 19:39:56","新北市中和區華新街206巷18號","121.506225","24.9826816666667","6500300","中和區"
"235048","896-TW","2018/05/28 19:39:40","新北市中和區忠孝街1巷2-1號","121.509155","24.9830283333333","6500300","中和區"
"235053","900-TW","2018/05/28 19:39:46","新北市中和區國光街184巷12號","121.467273333333","25.0019933333333","6500300","中和區"
"235066","911-UM","2018/05/28 19:39:40","新北市中和區中和路196巷11號","121.505193333333","24.999145","6500300","中和區"
"235051","157-BY","2018/05/28 19:39:40","新北市中和區南山路269號","121.503975","24.9925216666667","6500300","中和區"
"235037","AAC-213","2018/05/28 19:39:50","新北市中和區秀朗路三段50巷4弄2號","121.525676666667","24.995645","6500300","中和區"
"235059","AAC-215","2018/05/28 19:39:43","新北市中和區錦和路183號","121.490705","24.99107","6500300","中和區"
"220068","013-TV","2018/05/28 19:39:45","新北市板橋區萬安街4號","121.484785","25.0224066666667","6500100","板橋區"
"220065","072-UY","2018/05/28 19:39:45","新北市板橋區國泰街39巷5弄1號","121.46854","25.0060866666667","6500100","板橋區"
"220086","073-UY","2018/05/28 19:39:52","新北市板橋區中正路91號","121.456458333333","25.0144566666667","6500100","板橋區"
"220106","075-UY","2018/05/28 19:39:42","新北市板橋區雙十路三段15號","121.470888333333","25.030965","6500100","板橋區"
"220069","AAD-861","2018/05/28 19:39:43","新北市板橋區貴興路115號","121.455718333333","25.0024433333333","6500100","板橋區"
"247004","337-TH","2018/05/28 19:39:52","新北市蘆洲區長安街98巷22號","121.463088333333","25.0818416666667","6501400","蘆洲區"
"247008","056-VK","2018/05/28 19:39:36","新北市蘆洲區中山一路165號","121.475295","25.0815133333333","6501400","蘆洲區"
"247002","002-UY","2018/05/28 19:39:49","新北市蘆洲區三民路593-1號","121.460936666667","25.0934766666667","6501400","蘆洲區"
"226004","312-R5","2018/05/28 19:39:48","新北市平溪區十分里十分街57號","121.775586666667","25.041455","6502400","平溪區"
"235047","251-BX","2018/05/28 19:39:42","新北市中和區和平街182巷3號","121.505116666667","24.9925833333333","6500300","中和區"
"228003","097-TW","2018/05/28 19:39:48","新北市貢寮區真理里美艷山街15-3號","121.92368","25.0679983333333","6502600","貢寮區"
"228001","670-TC","2018/05/28 19:39:57","新北市貢寮區真理里延平街36號","121.924448333333","25.056405","6502600","貢寮區"
"224002","639-TC","2018/05/28 19:39:53","新北市瑞芳區民享新村13號","121.816585","25.10571","6501200","瑞芳區"
"227008","642-TC","2018/05/28 19:39:48","新北市雙溪區新基里新基北街18號","121.867176666667","25.03857","6502500","雙溪區"
"227001","400-TW","2018/05/28 19:39:48","新北市雙溪區雙溪里內挖路43號","121.863345","25.036515","6502500","雙溪區"
"222001","KEA-2212","2018/05/28 19:39:40","新北市深坑區深坑街150號","121.612975","25.0014783333333","6501800","深坑區"
"208002","KEA-2872","2018/05/28 19:39:45","新北市金山區中山路313巷8號","121.63539","25.2234166666667","6502700","金山區"
"208003","665-BX","2018/05/28 19:39:44","新北市金山區仁愛路23號","121.637323333333","25.21912","6502700","金山區"
"208001","761-BX","2018/05/28 19:39:40","新北市金山區南勢湖16號","121.620961666667","25.2192616666667","6502700","金山區"
"251009","008-UM","2018/05/28 19:39:43","新北市淡水區中山北路一段186巷13弄2號","121.44539","25.1788766666667","6501000","淡水區"
"251005","010-UM","2018/05/28 19:39:43","新北市淡水區原德路116巷1號","121.443685","25.1741966666667","6501000","淡水區"
"251001","011-UM","2018/05/28 19:39:48","新北市淡水區民權路51號","121.459683333333","25.1390833333333","6501000","淡水區"
"251013","KEA-2871","2018/05/28 19:39:38","新北市淡水區店子後9號","121.459856666667","25.2185633333333","6501000","淡水區"
"251016","179-VK","2018/05/28 19:39:34","新北市淡水區下圭柔山119-51號","121.450698333333","25.20847","6501000","淡水區"
"251014","180-VK","2018/05/28 19:39:40","新北市淡水區北勢子21號","121.47736","25.2303333333333","6501000","淡水區"
"251008","181-VK","2018/05/28 19:39:45","新北市淡水區中正路32巷2號","121.430895","25.1753016666667","6501000","淡水區"
"251015","182-VK","2018/05/28 19:39:37","新北市淡水區泉洲厝26-3號","121.484173333333","25.1906433333333","6501000","淡水區"
"251010","413-VK","2018/05/28 19:39:49","新北市淡水區崁頂三路101號","121.432088333333","25.1999366666667","6501000","淡水區"
"251007","442-VK","2018/05/28 19:39:53","新北市淡水區中正東路一段111巷32號","121.455233333333","25.1612616666667","6501000","淡水區"
"251012","443-VK","2018/05/28 19:39:51","新北市淡水區中山北路三段138號","121.445678333333","25.1950116666667","6501000","淡水區"
"251006","561-UM","2018/05/28 19:39:38","新北市淡水區中山北路一段207巷21號","121.443495","25.17916","6501000","淡水區"
"251011","650-BX","2018/05/28 19:39:48","新北市淡水區八勢路20號","121.460676666667","25.1534766666667","6501000","淡水區"
"207003","550-UM","2018/05/28 19:39:55","新北市萬里區大鵬里下社1-4號","121.6478","25.215935","6502800","萬里區"
"207004","225-TW","2018/05/28 19:39:39","新北市萬里區萬里里瑪鋉路11號","121.687145","25.175325","6502800","萬里區"
"252002","178-VK","2018/05/28 19:39:39","新北市三芝區三民街31號","121.504576666667","25.2585483333333","6502100","三芝區"
"252001","292-VK","2018/05/28 19:39:37","新北市三芝區公正街9號","121.499761666667","25.25747","6502100","三芝區"
"237004","KEA-2597","2018/05/28 19:39:45","新北市三峽區插角217-1號","121.414746666667","24.8685516666667","6500900","三峽區"
"237007","153-BY","2018/05/28 19:39:55","新北市三峽區二鬮路136巷24弄27號","121.356455","24.9105516666667","6500900","三峽區"
"237009","210-TH","2018/05/28 19:39:52","新北市三峽區中園街79號","121.367988333333","24.9251783333333","6500900","三峽區"
"237013","252-BX","2018/05/28 19:39:40","新北市三峽區介壽路二段106號","121.39318","24.9356166666667","6500900","三峽區"
"237012","275-BY","2018/05/28 19:39:50","新北市三峽區光明路39號","121.373808333333","24.930605","6500900","三峽區"
"237008","302-VK","2018/05/28 19:39:47","新北市三峽區中正路一段231號","121.372118333333","24.9268866666667","6500900","三峽區"
"237014","433-BY","2018/05/28 19:39:40","新北市三峽區中園街18號","121.368118333333","24.92713","6500900","三峽區"
"237006","5529-G3","2018/05/28 19:39:33","新北市三峽區中正路一段336巷15弄2號","121.369971666667","24.9249633333333","6500900","三峽區"
"237015","649-BX","2018/05/28 19:39:40","新北市三峽區成福路119號","121.419905","24.9297866666667","6500900","三峽區"
"237005","AKY-6261","2018/05/28 19:39:45","新北市三峽區中山路219巷17弄6號","121.363408333333","24.93619","6500900","三峽區"
"236069","105-UM","2018/05/28 19:39:46","新北市土城區學士路33巷10號","121.453275","24.980695","6501300","土城區"
"236042","107-UM","2018/05/28 19:39:41","新北市土城區學士路11號","121.45367","24.982965","6501300","土城區"
"236078","166-UM","2018/05/28 19:39:48","新北市土城區中州路63號","121.412541666667","24.9578233333333","6501300","土城區"
"236030","253-BX","2018/05/28 19:39:46","新北市土城區福祥街101巷11號","121.441463333333","24.98155","6501300","土城區"
"236026","269-VK","2018/05/28 19:39:47","新北市土城區中央路二段61巷22號","121.44314","24.9786216666667","6501300","土城區"
"236039","271-VK","2018/05/28 19:39:44","新北市土城區青雲路281巷13弄6號","121.459873333333","24.980465","6501300","土城區"
"236020","401-BY","2018/05/28 19:39:38","新北市土城區峰廷街18號","121.46893","24.9872783333333","6501300","土城區"
"236048","913-UM","2018/05/28 19:39:48","新北市土城區明德路一段97號","121.465678333333","24.9829716666667","6501300","土城區"
"236055","AAC-216","2018/05/28 19:39:43","新北市土城區學府路一段107號","121.455896666667","24.987615","6501300","土城區"
"242036","415-TV","2018/05/28 19:39:38","新北市新莊區民安路207巷17號","121.426776666667","25.0230466666667","6500500","新莊區"
"242039","133-UY","2018/05/28 19:39:50","新北市新莊區建國二路83-21號","121.430788333333","25.0256016666667","6500500","新莊區"
"242031","135-UY","2018/05/28 19:39:50","新北市新莊區公園一路136號","121.446228333333","25.0380783333333","6500500","新莊區"
"242048","172-VK","2018/05/28 19:39:44","新北市新莊區後港一路17巷22號","121.424258333333","25.02685","6500500","新莊區"
"242011","173-VK","2018/05/28 19:37:48","新北市新莊區三和路12-21號","121.442073333333","25.03868","6500500","新莊區"
"242004","176-VK","2018/05/28 19:39:42","新北市新莊區化成路29巷59號","121.462505","25.043935","6500500","新莊區"
"242021","348-TH","2018/05/28 19:39:39","新北市新莊區新泰路125號","121.448325","25.0361533333333","6500500","新莊區"
"242013","351-TH","2018/05/28 19:39:43","新北市新莊區中誠街119號","121.449488333333","25.0475183333333","6500500","新莊區"
"238015","755-BX","2018/05/28 19:39:52","新北市樹林區日新街90號","121.42152","24.9902266666667","6500700","樹林區"
"238023","601-UM","2018/05/28 19:39:41","新北市樹林區三福街114號","121.406468333333","25.01624","6500700","樹林區"
"238019","599-UM","2018/05/28 19:39:48","新北市樹林區八德街3號","121.417831666667","24.9845483333333","6500700","樹林區"
"238024","5061-A6","2018/05/28 19:39:40","新北市樹林區育德街121巷7號","121.389456666667","24.9681266666667","6500700","樹林區"
"238022","KEA-2213","2018/05/28 19:39:39","新北市樹林區名園街53號","121.419911666667","24.97831","6500700","樹林區"
"238021","KEA-2539","2018/05/28 19:39:54","新北市樹林區佳園路三段219巷10號","121.386245","24.94609","6500700","樹林區"
"238025","303-VK","2018/05/28 19:39:50","新北市樹林區中山路二段166號","121.412125","24.982665","6500700","樹林區"
"238004","283-BY","2018/05/28 19:39:52","新北市樹林區保安街二段167巷26號","121.414265","25.002795","6500700","樹林區"
"238014","282-BY","2018/05/28 19:39:42","新北市樹林區千歲街57號","121.425751666667","24.9969783333333","6500700","樹林區"
"238020","268-VK","2018/05/28 19:39:40","新北市樹林區俊英街48號","121.42875","25.00255","6500700","樹林區"
"238026","172-UY","2018/05/28 19:39:33","新北市樹林區佳園路二段34號","121.391495","24.9623316666667","6500700","樹林區"
"238016","169-UY","2018/05/28 19:39:52","新北市樹林區東和街2號","121.405158333333","24.9802916666667","6500700","樹林區"
"239006","891-R6","2018/05/28 19:39:50","新北市鶯歌區鶯桃路35-1號","121.343166666667","24.9506666666667","6500800","鶯歌區"
"239001","417-VK","2018/05/28 19:39:53","新北市鶯歌區尖山埔路237號","121.344461666667","24.950145","6500800","鶯歌區"
"239003","360-BY","2018/05/28 19:38:56","新北市樹林區中山路三段214號","121.380465","24.96798","6500800","鶯歌區"
"239004","193-VK","2018/05/28 19:39:49","新北市鶯歌區中正三路鄭厝巷16-1號","121.334645","24.93446","6500800","鶯歌區"
"221008","489-VK","2018/05/28 19:39:48","新北市汐止區康寧街147號","121.621535","25.0670683333333","6501100","汐止區"
"221036","130-UY","2018/05/28 19:39:52","新北市汐止區康寧街901號","121.650958333333","25.0752666666667","6501100","汐止區"
"221015","131-UY","2018/05/28 19:39:55","新北市汐止區康寧街901號","121.65153","25.0750233333333","6501100","汐止區"
"221010","269-BY","2018/05/28 19:39:37","新北市汐止區汐萬路一段355-1號","121.65002","25.0775566666667","6501100","汐止區"
"221012","278-VK","2018/05/28 19:39:36","新北市汐止區汐平路一段5號","121.68075","25.0711733333333","6501100","汐止區"
"221023","279-VK","2018/05/28 19:39:45","新北市汐止區中興路284號","121.62834","25.0694683333333","6501100","汐止區"
"221027","281-BY","2018/05/28 19:39:50","新北市汐止區忠孝東路9號","121.658315","25.0659216666667","6501100","汐止區"
"221029","298-VK","2018/05/28 19:39:49","新北市汐止區康寧街901號","121.65152","25.0749566666667","6501100","汐止區"
"221021","299-VK","2018/05/28 19:39:51","新北市汐止區南興路6巷2號","121.651721666667","25.0632883333333","6501100","汐止區"
"221031","353-TW","2018/05/28 19:39:44","新北市汐止區康寧街901號","121.650843333333","25.0752683333333","6501100","汐止區"
"221025","623-UM","2018/05/28 19:39:33","新北市汐止區新台五路二段72號","121.661756666667","25.06566","6501100","汐止區"
"221038","646-BX","2018/05/28 19:39:36","新北市汐止區忠孝東路200號","121.661541666667","25.06598","6501100","汐止區"
"221033","647-BX","2018/05/28 19:39:37","新北市汐止區南勢街1巷4號","121.626833333333","25.0375183333333","6501100","汐止區"
"221002","707-TV","2018/05/28 19:39:44","新北市汐止區大同路一段219巷27號","121.633301666667","25.0584183333333","6501100","汐止區"
"220079","145-BY","2018/05/28 19:39:39","新北市板橋區復興街135號","121.461086666667","25.017965","6500100","板橋區"
"220080","200-UY","2018/05/28 19:39:53","新北市板橋區大觀路二段37巷258號","121.449975","25.0018616666667","6500100","板橋區"
"220082","610-BX","2018/05/28 19:39:50","新北市板橋區大觀路三段160巷34弄7號","121.430135","24.9942816666667","6500100","板橋區"
"220101","245-BX","2018/05/28 19:39:44","新北市板橋區縣民大道三段33巷17-1號","121.47392","25.021245","6500100","板橋區"
"220056","276-BY","2018/05/28 19:39:54","新北市板橋區四川路一段338號","121.456855","24.9967083333333","6500100","板橋區"
"220072","277-BY","2018/05/28 19:39:50","新北市板橋區金門街215巷2弄1號","121.432485","24.9889183333333","6500100","板橋區"
"220094","280-UM","2018/05/28 19:39:53","新北市板橋區銘傳街96-3號","121.469658333333","25.0316066666667","6500100","板橋區"
"220071","283-VK","2018/05/28 19:39:45","新北市板橋區信義路185號","121.459011666667","24.9918533333333","6500100","板橋區"
"220053","285-VK","2018/05/28 19:39:43","新北市板橋區中山路二段176號","121.477245","25.0173416666667","6500100","板橋區"
"220083","286-VK","2018/05/28 19:39:49","新北市板橋區龍興街65巷38號","121.442838333333","25.0017466666667","6500100","板橋區"
"220081","287-VK","2018/05/28 19:39:53","新北市板橋區大觀路一段29巷139號","121.449655","25.005505","6500100","板橋區"
"220090","288-VK","2018/05/28 19:39:50","新北市板橋區長江路一段48巷1弄2號","121.459023333333","25.0287983333333","6500100","板橋區"
"220061","293-UM","2018/05/28 19:39:51","新北市板橋區中山路一段265巷36弄2號","121.469191666667","25.0151283333333","6500100","板橋區"
"220084","296-UM","2018/05/28 19:39:48","新北市板橋區滿平二街1-3號","121.425535","24.986285","6500100","板橋區"
"220075","303-R5","2018/05/28 19:39:53","新北市板橋區大勇街20號","121.45431","25.017175","6500100","板橋區"
"220062","305-R5","2018/05/28 19:39:36","新北市板橋區三民路二段123巷31號","121.4806","25.0156566666667","6500100","板橋區"
"220092","307-R5","2018/05/28 19:39:50","新北市板橋區民生路二段236號","121.468168333333","25.02312","6500100","板橋區"
"220098","317-R6","2018/05/28 19:39:47","新北市板橋區四維路269巷53號","121.460991666667","25.027195","6500100","板橋區"
"220064","486-VK","2018/05/28 19:39:37","新北市板橋區民權路41號","121.462095","25.0110116666667","6500100","板橋區"
"220088","491-VK","2018/05/28 19:39:48","新北市板橋區文化路二段474號","121.475071666667","25.032835","6500100","板橋區"
"220035","560-BX","2018/05/28 19:39:49","新北市板橋區金華街85巷19號","121.458308333333","25.0214466666667","6500100","板橋區"
"220103","561-BX","2018/05/28 19:39:35","新北市板橋區文化路一段288號","121.46746","25.0214316666667","6500100","板橋區"
"220063","609-BX","2018/05/28 19:39:43","新北市板橋區中山路二段531巷17弄20號","121.48217","25.02206","6500100","板橋區"
"220091","637-BX","2018/05/28 19:39:49","新北市板橋區懷德街139巷3號","121.479423333333","25.0305633333333","6500100","板橋區"
"220057","686-BX","2018/05/28 19:39:45","新北市板橋區和平路安樂巷23號","121.46159","24.99364","6500100","板橋區"
"220077","687-BX","2018/05/28 19:39:48","新北市板橋區僑中一街70號","121.447491666667","25.0114133333333","6500100","板橋區"
"220093","689-BX","2018/05/28 19:39:48","新北市板橋區長江路一段61號","121.459026666667","25.0294066666667","6500100","板橋區"
"220054","741-BX","2018/05/28 19:39:43","新北市板橋區忠孝路239巷14號","121.466621666667","25.0032483333333","6500100","板橋區"
"220102","KEA-2699","2018/05/28 19:39:41","新北市板橋區松柏街42-1號","121.475185","25.0299683333333","6500100","板橋區"
"220055","827-TW","2018/05/28 19:39:41","新北市板橋區國慶路149巷13弄13號","121.460376666667","24.99703","6500100","板橋區"
"220067","829-TW","2018/05/28 19:39:38","新北市板橋區漢生東路279巷8號","121.471881666667","25.008975","6500100","板橋區"
"220096","831-TW","2018/05/28 19:39:33","新北市板橋區民生路二段234巷77號","121.470288333333","25.0226216666667","6500100","板橋區"
"220089","833-TW","2018/05/28 19:39:39","新北市板橋區雨農路27巷2號","121.461195","25.02425","6500100","板橋區"
"220074","895-R6","2018/05/28 19:39:44","新北市板橋區館前西路131號","121.456521666667","25.0076833333333","6500100","板橋區"
"220073","985-R7","2018/05/28 19:39:40","新北市板橋區大仁街39號","121.455108333333","25.0166266666667","6500100","板橋區"
"220097","AAC-210","2018/05/28 19:39:41","新北市板橋區幸福路32巷6號","121.46155","25.0206233333333","6500100","板橋區"
"220070","AAC-253","2018/05/28 19:39:49","新北市板橋區民族路180號","121.467758333333","25.0077016666667","6500100","板橋區"
"235068","KEA-2873","2018/05/28 19:39:50","新北市中和區景平路493-7號","121.499856666667","24.9978233333333","6500300","中和區"
"235061","KEA-2875","2018/05/28 19:39:47","新北市中和區民利街9巷2弄12號","121.480253333333","24.9987483333333","6500300","中和區"
