"lineid","car","time","location","longitude","latitude","cityid","cityname"
"234046","148-BY","2018/05/28 19:59:44","新北市永和區永元路118號","121.522761666667","25.00254","6500400","永和區"
"234007","207-UY","2018/05/28 19:59:36","新北市永和區保生路22巷13號","121.506988333333","25.0080816666667","6500400","永和區"
"234081","298-R6","2018/05/28 19:59:46","新北市永和區林森路112巷12弄12號","121.522761666667","25.0045316666667","6500400","永和區"
"234038","336-UY","2018/05/28 19:59:37","新北市永和區成功路二段163號","121.526718333333","24.99721","6500400","永和區"
"234064","337-UY","2018/05/28 19:59:37","新北市永和區中正路412巷20弄10號","121.518705","25.00169","6500400","永和區"
"234086","338-UY","2018/05/28 19:59:32","新北市永和區福和路188號","121.520245","25.00776","6500400","永和區"
"234070","552-UM","2018/05/28 19:59:42","新北市永和區國光路39-1號","121.519096666667","25.008285","6500400","永和區"
"234017","745-BX","2018/05/28 19:59:40","新北市永和區文化路69號","121.513981666667","25.0150683333333","6500400","永和區"
"234030","746-BX","2018/05/28 19:59:37","新北市永和區民生路22巷27號","121.521196666667","24.9969666666667","6500400","永和區"
"234054","KEA-2590","2018/05/28 19:59:32","新北市永和區環河東路一段122號","121.520608333333","25.0154616666667","6500400","永和區"
"234013","KEA-2591","2018/05/28 19:59:38","新北市永和區保生路55號","121.504741666667","25.0106033333333","6500400","永和區"
"234061","AAD-866","2018/05/28 19:59:39","新北市永和區中正路283巷13號","121.516781666667","25.000475","6500400","永和區"
"234042","862-TW","2018/05/28 19:59:31","新北市永和區中和路335巷14號","121.507555","25.000295","6500400","永和區"
"234050","863-TW","2018/05/28 19:59:35","新北市永和區保安路250號","121.506383333333","25.0124833333333","6500400","永和區"
"234026","9371-KE","2018/05/28 19:59:43","新北市永和區水源街21巷14弄4號","121.511398333333","25.0037933333333","6500400","永和區"
"234011","9373-KE","2018/05/28 19:59:21","新北市永和區仁愛路352巷92弄16號","121.501331666667","25.0082516666667","6500400","永和區"
"249005","172-UM","2018/05/28 19:59:24","新北市八里區楓林路3-29號","121.382736666667","25.1299333333333","6502300","八里區"
"249001","173-UM","2018/05/28 19:59:48","新北市八里區中華路二段310號","121.403855","25.14837","6502300","八里區"
"249004","303-UY","2018/05/28 19:59:48","新北市八里區中山路一段217巷38號","121.411641666667","25.1557033333333","6502300","八里區"
"249002","305-UY","2018/05/28 19:59:36","新北市八里區頂寮二街1號","121.451045","25.1238616666667","6502300","八里區"
"249003","593-UM","2018/05/28 19:59:39","新北市八里區中華路二段538-3號","121.398881666667","25.1450583333333","6502300","八里區"
"248014","025-BX","2018/05/28 19:59:36","新北市五股區五福路14巷29號","121.435456666667","25.0889733333333","6501500","五股區"
"248016","026-BX","2018/05/28 19:59:31","新北市五股區成泰路三段577巷80弄7號","121.449498333333","25.10427","6501500","五股區"
"248008","095-VK","2018/05/28 19:59:43","新北市五股區四維路30巷34弄2號","121.468301666667","25.0714833333333","6501500","五股區"
"248018","225-UY","2018/05/28 19:59:37","新北市五股區登林路118-4號","121.41448","25.0759733333333","6501500","五股區"
"248012","247-BX","2018/05/28 19:59:30","新北市五股區民義路一段128號","121.434745","25.0859383333333","6501500","五股區"
"248010","272-BY","2018/05/28 19:59:34","新北市五股區登林路65號","121.428958333333","25.0693233333333","6501500","五股區"
"248004","677-BX","2018/05/28 19:59:37","新北市五股區成泰路一段59-1號","121.434388333333","25.0675216666667","6501500","五股區"
"248002","678-BX","2018/05/28 19:44:12","新北市五股區成泰路三段577巷9號","121.451821666667","25.10271","6501500","五股區"
"234077","969-R7","2018/05/28 19:59:46","新北市永和區民有街23巷55號","121.517761666667","24.9973716666667","6500400","永和區"
"234074","AAC-211","2018/05/28 19:59:38","新北市永和區福和路10巷17號","121.52415","25.0093416666667","6500400","永和區"
"234067","AAC-212","2018/05/28 19:59:30","新北市永和區中山路一段281巷3號","121.507285","25.0067716666667","6500400","永和區"
"234003","AAC-295","2018/05/28 19:59:47","新北市永和區中正路657號","121.514818333333","25.010215","6500400","永和區"
"243013","AAD-798","2018/05/28 19:30:06","新北市泰山區貴子路28號","121.425921666667","25.04177","6501600","泰山區"
"243009","297-R6","2018/05/28 19:59:45","新北市泰山區泰林路二段164巷37號","121.434205","25.0612816666667","6501600","泰山區"
"243016","380-SR","2018/05/28 19:59:46","新北市泰山區明志路三段521號","121.42128","25.0314316666667","6501600","泰山區"
"243015","421-VK","2018/05/28 19:59:42","新北市泰山區文程路1號","121.427541666667","25.0496","6501600","泰山區"
"243010","KEA-2216","2018/05/28 19:59:36","新北市泰山區中華街9號","121.42773","25.0523783333333","6501600","泰山區"
"243012","646-TV","2018/05/28 19:59:28","新北市泰山區全興路105號","121.433635","25.056835","6501600","泰山區"
"243014","680-BX","2018/05/28 19:59:47","新北市泰山區泰林路二段171號","121.433695","25.0606516666667","6501600","泰山區"
"222003","436-BY","2018/05/28 19:59:29","新北市深坑區埔新街14號","121.620723333333","25.003945","6501800","深坑區"
"222002","659-BX","2018/05/28 19:59:35","新北市深坑區北深路二段55巷12弄21號","121.618516666667","25.0031766666667","6501800","深坑區"
"231041","002-UM","2018/05/28 19:59:26","新北市新店區中正路352號","121.535925","24.9755733333333","6500600","新店區"
"231059","046-UY","2018/05/28 19:59:27","新北市新店區安和路一段6-6號","121.517493333333","24.9656316666667","6500600","新店區"
"231040","047-UY","2018/05/28 19:59:26","新北市新店區北新路一段126巷27號","121.54306","24.9695816666667","6500600","新店區"
"231044","106-UY","2018/05/28 19:59:42","新北市新店區復興路32號","121.539133333333","24.9868316666667","6500600","新店區"
"231052","108-UY","2018/05/28 19:59:31","新北市新店區新烏路三段寶島巷4號","121.551591666667","24.8992416666667","6500600","新店區"
"231047","187-VK","2018/05/28 19:59:44","新北市新店區寶宏路18號","121.54928","24.9761983333333","6500600","新店區"
"231054","KEA-2219","2018/05/28 19:59:46","新北市新店區光明街170號","121.539553333333","24.9619866666667","6500600","新店區"
"231057","256-BX","2018/05/28 19:59:30","新北市新店區花園二路一段11號","121.555541666667","24.9324733333333","6500600","新店區"
"231042","268-BY","2018/05/28 19:59:46","新北市新店區中興路一段290號","121.545895","24.9690916666667","6500600","新店區"
"231051","278-BY","2018/05/28 19:59:27","新北市新店區中央路218號","121.529813333333","24.9730333333333","6500600","新店區"
"231050","AAD-862","2018/05/28 19:59:48","新北市新店區北宜路二段151-1號","121.551875","24.9531116666667","6500600","新店區"
"231066","4716-K9","2018/05/28 19:59:40","新北市新店區柴埕路2-1號","121.515048333333","24.9659916666667","6500600","新店區"
"231056","4715-K9","2018/05/28 19:59:29","新北市新店區民權路42巷35號","121.539161666667","24.9836833333333","6500600","新店區"
"231067","4772-VM","2018/05/28 19:59:44","新北市新店區秀山路45巷10號","121.531038333333","24.96022","6500600","新店區"
"231065","512-UM","2018/05/28 19:59:29","新北市新店區安祥路109巷8號","121.47547","24.958845","6500600","新店區"
"231049","513-UM","2018/05/28 19:59:40","新北市新店區明德路89號","121.541548333333","24.9783033333333","6500600","新店區"
"231064","515-UM","2018/05/28 19:59:30","新北市新店區光華街18-2號","121.517181666667","24.96919","6500600","新店區"
"231061","619-UM","2018/05/28 19:59:34","新北市新店區安民街259號","121.51734","24.9726083333333","6500600","新店區"
"231063","641-BX","2018/05/28 19:59:43","新北市新店區車子路11號","121.502886666667","24.9514466666667","6500600","新店區"
"231068","718-UY","2018/05/28 19:59:45","新北市新店區安華路8號","121.51984","24.9624866666667","6500600","新店區"
"231062","720-UM","2018/05/28 19:59:48","新北市新店區華城路36號","121.528428333333","24.95554","6500600","新店區"
"231060","897-TW","2018/05/28 19:59:43","新北市新店區安康路二段454號","121.49435","24.9542933333333","6500600","新店區"
"231045","898-TW","2018/05/28 19:59:42","新北市新店區北宜路二段82-13號","121.55471","24.9534133333333","6500600","新店區"
"231043","899-TW","2018/05/28 19:59:39","新北市新店區中正路263-3號","121.538316666667","24.9737383333333","6500600","新店區"
"231055","AKT-0513","2018/05/28 19:59:38","新北市新店區中華路83巷67號","121.538301666667","24.9672383333333","6500600","新店區"
"241011","013-R5","2018/05/28 19:59:37","新北市三重區介壽路11號","121.498988333333","25.0692583333333","6500200","三重區"
"241028","022-UY","2018/05/28 19:59:27","新北市三重區中正南路50號","121.493935","25.0599366666667","6500200","三重區"
"241008","059-VK","2018/05/28 19:59:28","新北市三重區永福街181號","121.479001666667","25.0750083333333","6500200","三重區"
"241031","061-VK","2018/05/28 19:59:45","新北市三重區重新路四段144巷23號","121.487026666667","25.0552683333333","6500200","三重區"
"241015","062-VK","2018/05/28 19:59:33","新北市三重區三和路二段35-1號","121.500876666667","25.067145","6500200","三重區"
"241017","063-VK","2018/05/28 19:59:36","新北市三重區重陽路四段1號","121.491058333333","25.0686283333333","6500200","三重區"
"241024","065-VK","2018/05/28 19:59:33","新北市三重區力行路一段186號","121.48198","25.0718133333333","6500200","三重區"
"241026","066-VK","2018/05/28 19:59:30","新北市三重區中央南路47號","121.501326666667","25.0618916666667","6500200","三重區"
"241002","090-VK","2018/05/28 19:59:33","新北市三重區仁愛街269巷6-1號","121.493348333333","25.078915","6500200","三重區"
"241003","091-VK","2018/05/28 19:59:45","新北市三重區仁愛街445巷33號","121.490825","25.0829183333333","6500200","三重區"
"241022","742-BX","2018/05/28 19:59:32","新北市三重區過圳街31巷2號","121.488963333333","25.060535","6500200","三重區"
"241005","262-UM","2018/05/28 19:59:44","新北市三重區溪尾街325巷25號","121.488663333333","25.0833266666667","6500200","三重區"
"241009","265-UM","2018/05/28 19:59:26","新北市三重區三和路四段390巷28號","121.480891666667","25.0787366666667","6500200","三重區"
"241016","266-UM","2018/05/28 19:59:31","新北市三重區正義北路46號","121.497355","25.06379","6500200","三重區"
"241018","268-UM","2018/05/28 19:59:35","新北市三重區正義北路244巷84號","121.493713333333","25.0676083333333","6500200","三重區"
"241032","269-UM","2018/05/28 19:59:37","新北市三重區捷運路37巷32號","121.483908333333","25.05756","6500200","三重區"
"241013","270-UM","2018/05/28 19:59:43","新北市三重區三和路三段125巷23號","121.493595","25.0735716666667","6500200","三重區"
"241025","271-UM","2018/05/28 19:59:30","新北市三重區頂崁街210巷16號","121.476501666667","25.0677516666667","6500200","三重區"
"241007","398-BY","2018/05/28 19:59:37","新北市三重區三和路四段145巷182號","121.48869","25.0795733333333","6500200","三重區"
"241035","KEA-2210","2018/05/28 19:59:34","新北市三重區大榮街7號","121.498243333333","25.0630466666667","6500200","三重區"
"241004","475-VK","2018/05/28 19:59:31","新北市三重區五華街86號","121.493126666667","25.0822233333333","6500200","三重區"
"241020","478-VK","2018/05/28 19:59:32","新北市三重區三和路三段170巷63號","121.490376666667","25.0726216666667","6500200","三重區"
"241030","480-VK","2018/05/28 19:59:40","新北市三重區重新路四段248號","121.486135","25.0534166666667","6500200","三重區"
"241014","543-UM","2018/05/28 19:59:41","新北市三重區三和路二段105號","121.499321666667","25.068635","6500200","三重區"
"241023","545-UM","2018/05/28 19:59:31","新北市三重區大有街1-1號","121.477688333333","25.0655933333333","6500200","三重區"
"241001","547-UM","2018/05/28 19:59:46","新北市三重區仁愛街283巷17號","121.493653333333","25.0794166666667","6500200","三重區"
"241019","KEA-2593","2018/05/28 19:59:32","新北市三重區重陽路四段5號","121.490993333333","25.068995","6500200","三重區"
"241006","AAD-863","2018/05/28 19:59:33","新北市三重區力行路二段106號","121.48206","25.0749083333333","6500200","三重區"
"241012","941-UM","2018/05/28 19:59:46","新北市三重區仁厚街65號","121.500751666667","25.0767366666667","6500200","三重區"
"241029","942-UM","2018/05/28 19:59:38","新北市三重區重新路三段204號","121.49007","25.0583633333333","6500200","三重區"
"241033","AAC-255","2018/05/28 19:59:32","新北市三重區中興北街61號","121.469515","25.0473883333333","6500200","三重區"
"235056","096-UM","2018/05/28 19:59:38","新北市中和區中山路三段170巷8弄11號","121.472885","25.0076666666667","6500300","中和區"
"235039","097-UM","2018/05/28 19:59:33","新北市中和區大勇街25巷39弄1號","121.514906666667","24.9942583333333","6500300","中和區"
"235065","098-UM","2018/05/28 19:59:43","新北市中和區福美路250號","121.49849","25.00513","6500300","中和區"
"235040","150-BY","2018/05/28 19:59:40","新北市中和區保健路10巷21弄1號","121.507676666667","24.996965","6500300","中和區"
"235058","151-BY","2018/05/28 19:59:34","新北市中和區員山路150巷2弄21號","121.481693333333","24.9978283333333","6500300","中和區"
"235055","183-VK","2018/05/28 19:59:47","新北市中和區民生街35巷2弄2號","121.470325","25.0051816666667","6500300","中和區"
"235049","186-VK","2018/05/28 19:59:24","新北市中和區南華路15號","121.502423333333","24.9956316666667","6500300","中和區"
"235067","255-BX","2018/05/28 19:59:36","新北市中和區新生街163號","121.483635","25.001125","6500300","中和區"
"235044","293-VK","2018/05/28 19:59:37","新北市中和區板南路168號","121.501461666667","24.9928033333333","6500300","中和區"
"235050","4979-A6","2018/05/28 19:59:29","新北市中和區景平路155巷2弄2號","121.513283333333","24.992015","6500300","中和區"
"235069","4980-A6","2018/05/28 19:59:37","新北市中和區南山路8號","121.501925","24.9987216666667","6500300","中和區"
"235070","558-UM","2018/05/28 19:59:39","新北市中和區圓通路123號","121.499271666667","24.9960566666667","6500300","中和區"
"235054","640-BX","2018/05/28 19:59:29","新北市中和區莒光路74號","121.472253333333","25.003045","6500300","中和區"
"235046","733-UM","2018/05/28 19:59:32","新北市中和區興南路一段93巷79號","121.51051","24.9864683333333","6500300","中和區"
"235041","802-TS","2018/05/28 19:59:27","新北市中和區安和路39號","121.50965","24.99477","6500300","中和區"
"235052","805-TS","2018/05/28 19:59:36","新北市中和區華新街192巷22弄9號","121.506563333333","24.9832","6500300","中和區"
"235048","896-TW","2018/05/28 19:59:40","新北市中和區景新街467巷20弄110號","121.514841666667","24.9865983333333","6500300","中和區"
"235053","900-TW","2018/05/28 19:59:45","新北市中和區華安街98-1號","121.468366666667","24.9961033333333","6500300","中和區"
"235066","911-UM","2018/05/28 19:59:40","新北市中和區中山路二段4號","121.505205","25.005705","6500300","中和區"
"235051","157-BY","2018/05/28 19:59:40","新北市中和區中興街233巷10號","121.501476666667","24.9894633333333","6500300","中和區"
"235037","AAC-213","2018/05/28 19:59:30","新北市中和區自立路99巷20號","121.52326","24.9946733333333","6500300","中和區"
"235059","AAC-215","2018/05/28 19:59:23","新北市中和區圓通路335巷33弄15號","121.493063333333","24.989035","6500300","中和區"
"220068","013-TV","2018/05/28 19:59:42","新北市板橋區光復街192巷11號","121.485746666667","25.02011","6500100","板橋區"
"220065","072-UY","2018/05/28 19:59:41","新北市板橋區中山路一段154巷3弄2號","121.465408333333","25.0104133333333","6500100","板橋區"
"220106","075-UY","2018/05/28 19:59:42","新北市板橋區民治街71巷15號","121.48027","25.032785","6500100","板橋區"
"220069","AAD-861","2018/05/28 19:59:43","新北市板橋區大明街37號","121.458066666667","25.002705","6500100","板橋區"
"247024","893-R6","2018/05/28 19:59:40","新北市蘆洲區光榮路120巷21號","121.465678333333","25.0883316666667","6501400","蘆洲區"
"247014","546-UM","2018/05/28 19:59:34","新北市蘆洲區成功路135號","121.472295","25.0823983333333","6501400","蘆洲區"
"247012","339-TH","2018/05/28 19:59:43","新北市蘆洲區民族路220號","121.479633333333","25.0879616666667","6501400","蘆洲區"
"247004","337-TH","2018/05/28 19:59:35","新北市蘆洲區長安街303號","121.457968333333","25.0850233333333","6501400","蘆洲區"
"247006","336-TH","2018/05/28 19:59:44","新北市蘆洲區九芎街113號","121.465541666667","25.0795983333333","6501400","蘆洲區"
"247008","056-VK","2018/05/28 19:59:36","新北市蘆洲區信義路113巷1弄20號","121.477531666667","25.0803216666667","6501400","蘆洲區"
"247016","007-UY","2018/05/28 19:59:40","新北市蘆洲區光華路10號","121.469735","25.08348","6501400","蘆洲區"
"247002","002-UY","2018/05/28 19:59:29","新北市蘆洲區永樂街31巷1號","121.458191666667","25.0875283333333","6501400","蘆洲區"
"247020","001-UY","2018/05/28 19:59:37","新北市蘆洲區民義街66號","121.47295","25.0898183333333","6501400","蘆洲區"
"226004","312-R5","2018/05/28 19:59:27","新北市平溪區石底里公園街18-3號","121.733388333333","25.025735","6502400","平溪區"
"235047","251-BX","2018/05/28 19:59:42","新北市中和區和平街33號","121.50693","24.99145","6500300","中和區"
"228003","097-TW","2018/05/28 19:59:28","新北市貢寮區仁理村仁和路248號","121.924113333333","25.0539833333333","6502600","貢寮區"
"224010","AGQ-8101","2018/05/28 19:59:28","新北市瑞芳區基山街217-1號","121.842255","25.107015","6501200","瑞芳區"
"224002","639-TC","2018/05/28 19:59:37","新北市瑞芳區國中新村34號","121.816268333333","25.1079966666667","6501200","瑞芳區"
"227008","642-TC","2018/05/28 19:59:28","新北市雙溪區新基里新基南街25號","121.866255","25.0381483333333","6502500","雙溪區"
"227001","400-TW","2018/05/28 19:59:47","新北市雙溪區共和里東榮街1號","121.865183333333","25.034495","6502500","雙溪區"
"222001","KEA-2212","2018/05/28 19:59:40","新北市深坑區北深路三段164號","121.602275","25.00336","6501800","深坑區"
"208002","KEA-2872","2018/05/28 19:59:45","新北市金山區中華路168號","121.632738333333","25.2225166666667","6502700","金山區"
"208003","665-BX","2018/05/28 19:59:44","新北市金山區永興里跳石4號","121.633518333333","25.25639","6502700","金山區"
"208001","761-BX","2018/05/28 19:59:40","新北市金山區重和里茅埔頭22號","121.601561666667","25.2132633333333","6502700","金山區"
"251009","008-UM","2018/05/28 19:59:42","新北市淡水區英專路21巷12-3號","121.445","25.1697666666667","6501000","淡水區"
"251004","009-UM","2018/05/28 19:59:44","新北市淡水區民族路50巷30號","121.460913333333","25.13565","6501000","淡水區"
"251005","010-UM","2018/05/28 19:59:38","新北市淡水區學府路136巷29號","121.451495","25.1727466666667","6501000","淡水區"
"251001","011-UM","2018/05/28 19:59:28","新北市淡水區淡金路二段270-1號","121.447026666667","25.1890866666667","6501000","淡水區"
"251013","KEA-2871","2018/05/28 19:59:38","新北市淡水區下圭柔山63-7號","121.45175","25.2061783333333","6501000","淡水區"
"251016","179-VK","2018/05/28 19:59:34","新北市淡水區淡金路四段514號","121.452028333333","25.2257966666667","6501000","淡水區"
"251014","180-VK","2018/05/28 19:59:40","新北市淡水區石頭厝3-2號","121.45926","25.235235","6501000","淡水區"
"251008","181-VK","2018/05/28 19:59:45","新北市淡水區淡海路72巷24號","121.42417","25.18108","6501000","淡水區"
"251015","182-VK","2018/05/28 19:59:37","新北市淡水區埤島76-3號","121.451296666667","25.1925216666667","6501000","淡水區"
"251012","443-VK","2018/05/28 19:59:31","新北市淡水區下圭柔山109-5號","121.441948333333","25.211255","6501000","淡水區"
"251006","561-UM","2018/05/28 19:59:38","新北市淡水區水碓街39號","121.444011666667","25.1773416666667","6501000","淡水區"
"251011","650-BX","2018/05/28 19:59:48","新北市淡水區崁頂55-3號","121.44227","25.19661","6501000","淡水區"
"251003","766-UM","2018/05/28 19:59:37","新北市淡水區中山北路二段189巷15弄29號","121.443435","25.18425","6501000","淡水區"
"207003","550-UM","2018/05/28 19:59:34","新北市萬里區大鵬里萬里加投62-1號","121.642291666667","25.2122016666667","6502800","萬里區"
"207004","225-TW","2018/05/28 19:59:39","新北市萬里區北基里忠二街35號","121.685638333333","25.1757166666667","6502800","萬里區"
"252002","178-VK","2018/05/28 19:59:39","新北市三芝區忠孝街116-3號","121.50554","25.2575633333333","6502100","三芝區"
"252001","292-VK","2018/05/28 19:59:37","新北市三芝區公正街66號","121.499831666667","25.2574583333333","6502100","三芝區"
"237004","KEA-2597","2018/05/28 19:59:45","新北市三峽區添福6號","121.372023333333","24.9058533333333","6500900","三峽區"
"237007","153-BY","2018/05/28 19:59:35","新北市三峽區麻園46號","121.363813333333","24.9212466666667","6500900","三峽區"
"237009","210-TH","2018/05/28 19:59:34","新北市三峽區民族街28巷2-5號","121.369078333333","24.930805","6500900","三峽區"
"237012","275-BY","2018/05/28 19:59:30","新北市三峽區中華路83號","121.371736666667","24.92973","6500900","三峽區"
"237008","302-VK","2018/05/28 19:59:27","新北市三峽區中正路一段174巷9號","121.371928333333","24.928875","6500900","三峽區"
"237014","433-BY","2018/05/28 19:59:39","新北市三峽區添福59-1號","121.37488","24.9034766666667","6500900","三峽區"
"237006","5529-G3","2018/05/28 19:59:33","新北市三峽區中正路二段176巷24號","121.365381666667","24.9148083333333","6500900","三峽區"
"237015","649-BX","2018/05/28 19:59:40","新北市三峽區介壽路三段5號","121.395498333333","24.93626","6500900","三峽區"
"237005","AKY-6261","2018/05/28 19:59:25","新北市三峽區民生街1巷20號","121.379543333333","24.93473","6500900","三峽區"
"236069","105-UM","2018/05/28 19:59:26","新北市土城區忠義路45巷2號","121.441115","24.96947","6501300","土城區"
"236042","107-UM","2018/05/28 19:59:41","新北市土城區學府路一段141號","121.453748333333","24.9861966666667","6501300","土城區"
"236078","166-UM","2018/05/28 19:59:28","新北市土城區中山路10號","121.416255","24.9619183333333","6501300","土城區"
"236030","253-BX","2018/05/28 19:59:25","新北市土城區中央路一段250巷1號","121.4442","24.98463","6501300","土城區"
"236026","269-VK","2018/05/28 19:59:38","新北市土城區中央路二段89號","121.442281666667","24.97814","6501300","土城區"
"236014","270-VK","2018/05/28 19:59:47","新北市土城區廣福街123號","121.456235","24.9929383333333","6501300","土城區"
"236039","271-VK","2018/05/28 19:59:44","新北市土城區國際路70號","121.466526666667","24.9782416666667","6501300","土城區"
"236020","401-BY","2018/05/28 19:59:38","新北市土城區延吉街87巷7號","121.472288333333","24.9868183333333","6501300","土城區"
"236059","912-UM","2018/05/28 19:59:43","新北市土城區中央路一段269-6號","121.444773333333","24.98502","6501300","土城區"
"236048","913-UM","2018/05/28 19:59:27","新北市中和區連城路534巷2號","121.475315","24.991275","6501300","土城區"
"236063","915-UM","2018/05/28 19:59:31","新北市土城區延和路174號","121.468871666667","24.99036","6501300","土城區"
"236055","AAC-216","2018/05/28 19:59:43","新北市土城區青雲路38號","121.459878333333","24.988425","6501300","土城區"
"242034","AAC-296","2018/05/28 19:59:33","新北市新莊區中正路318巷25號","121.446318333333","25.0364016666667","6500500","新莊區"
"242058","986-R7","2018/05/28 19:59:44","新北市新莊區八德街45號","121.424906666667","25.0222283333333","6500500","新莊區"
"242053","751-BX","2018/05/28 19:59:29","新北市新莊區西盛街421號","121.4273","25.012205","6500500","新莊區"
"242025","613-BX","2018/05/28 19:59:11","新北市新莊區五工一路91號","121.460913333333","25.067645","6500500","新莊區"
"242029","612-BX","2018/05/28 19:59:34","新北市新莊區中榮街152巷18號","121.446023333333","25.053425","6500500","新莊區"
"242050","442-UM","2018/05/28 19:59:38","新北市新莊區西盛街131號","121.428318333333","25.01861","6500500","新莊區"
"242056","440-UM","2018/05/28 19:59:41","新北市新莊區中正路347巷17弄4號","121.447343333333","25.0343166666667","6500500","新莊區"
"242036","415-TV","2018/05/28 19:59:37","新北市新莊區建安街43號","121.428873333333","25.0255316666667","6500500","新莊區"
"242007","413-TV","2018/05/28 19:59:33","新北市新莊區思源路593巷5弄20號","121.458095","25.059395","6500500","新莊區"
"242044","400-BY","2018/05/28 19:59:46","新北市新莊區中正路746巷43-3號","121.411821666667","25.02438","6500500","新莊區"
"242023","362-BY","2018/05/28 19:59:43","新北市新莊區化成路380-1號","121.465878333333","25.0500616666667","6500500","新莊區"
"242060","353-BY","2018/05/28 19:59:27","新北市新莊區瓊泰路19號","121.444303333333","25.0286116666667","6500500","新莊區"
"242039","133-UY","2018/05/28 19:59:46","新北市新莊區民安路287-3號","121.428848333333","25.0228983333333","6500500","新莊區"
"242031","135-UY","2018/05/28 19:59:30","新北市新莊區公園一路98號","121.44349","25.0374116666667","6500500","新莊區"
"242048","172-VK","2018/05/28 19:59:44","新北市新莊區四維路3號","121.42389","25.025085","6500500","新莊區"
"242011","173-VK","2018/05/28 19:59:28","新北市新莊區中港路531巷118號","121.449971666667","25.05166","6500500","新莊區"
"242017","175-VK","2018/05/28 19:59:47","新北市新莊區中安街33號","121.45252","25.0460033333333","6500500","新莊區"
"242004","176-VK","2018/05/28 19:59:42","新北市新莊區化成路231號","121.465945","25.0525266666667","6500500","新莊區"
"242015","346-TH","2018/05/28 19:59:27","新北市新莊區泰順街33巷4號","121.446278333333","25.0426083333333","6500500","新莊區"
"242021","348-TH","2018/05/28 19:59:39","新北市新莊區建中街32巷19號","121.448776666667","25.038125","6500500","新莊區"
"242019","350-TH","2018/05/28 19:59:44","新北市新莊區民生街24號","121.456098333333","25.0421383333333","6500500","新莊區"
"242013","351-TH","2018/05/28 19:59:43","新北市新莊區幸福路670巷2弄1號","121.450973333333","25.04955","6500500","新莊區"
"238015","755-BX","2018/05/28 19:59:32","新北市樹林區中山路三段96號","121.393061666667","24.97223","6500700","樹林區"
"238021","KEA-2539","2018/05/28 19:59:34","新北市樹林區佳園路三段101巷62弄10號","121.393506666667","24.95015","6500700","樹林區"
"239006","891-R6","2018/05/28 19:59:30","新北市鶯歌區文化路149號","121.356428333333","24.95431","6500800","鶯歌區"
"239003","360-BY","2018/05/28 19:59:36","新北市鶯歌區二甲路12-2號","121.345985","24.9350666666667","6500800","鶯歌區"
"239004","193-VK","2018/05/28 19:59:29","新北市鶯歌區二甲路55-25號","121.338231666667","24.9298733333333","6500800","鶯歌區"
"221008","489-VK","2018/05/28 19:59:48","新北市汐止區康寧街13號","121.617953333333","25.067335","6501100","汐止區"
"221036","130-UY","2018/05/28 19:59:32","新北市汐止區新台五路二段85巷20號","121.664231666667","25.0674483333333","6501100","汐止區"
"221015","131-UY","2018/05/28 19:59:35","新北市汐止區橋東街7號","121.666656666667","25.07602","6501100","汐止區"
"221010","269-BY","2018/05/28 19:59:37","新北市汐止區八連路一段86巷1號","121.644583333333","25.0803616666667","6501100","汐止區"
"221012","278-VK","2018/05/28 19:59:36","新北市汐止區大同路三段194號","121.674461666667","25.0743216666667","6501100","汐止區"
"221023","279-VK","2018/05/28 19:59:40","新北市汐止區中興路201號","121.629251666667","25.06843","6501100","汐止區"
"221032","280-BY","2018/05/28 19:59:42","新北市汐止區橫科路407巷25弄17-5號","121.627365","25.0500433333333","6501100","汐止區"
"221027","281-BY","2018/05/28 19:59:30","新北市汐止區中正路90號","121.66148","25.0695583333333","6501100","汐止區"
"221029","298-VK","2018/05/28 19:59:29","新北市汐止區樟樹一路137巷26號","121.641006666667","25.06602","6501100","汐止區"
"221021","299-VK","2018/05/28 19:59:31","新北市汐止區新台五路一段206號","121.655618333333","25.06286","6501100","汐止區"
"221031","353-TW","2018/05/28 19:59:44","新北市汐止區福德一路176巷1弄1號","121.635616666667","25.0662416666667","6501100","汐止區"
"221035","622-UM","2018/05/28 19:59:38","新北市汐止區長江街39巷10號","121.655491666667","25.071795","6501100","汐止區"
"221025","623-UM","2018/05/28 19:59:33","新北市汐止區秀峰路109巷26弄7號","121.661223333333","25.0634516666667","6501100","汐止區"
"221038","646-BX","2018/05/28 19:59:36","新北市汐止區忠孝東路430號","121.666073333333","25.0721616666667","6501100","汐止區"
"221033","647-BX","2018/05/28 19:59:37","新北市汐止區東勢街102號","121.633766666667","25.041615","6501100","汐止區"
"221002","707-TV","2018/05/28 19:59:44","新北市汐止區大同路一段219巷27號","121.633281666667","25.05837","6501100","汐止區"
"221018","753-BX","2018/05/28 19:59:40","新北市汐止區茄苳路85號","121.666811666667","25.0706416666667","6501100","汐止區"
"220079","145-BY","2018/05/28 19:59:39","新北市板橋區南雅西路二段145巷10號","121.451746666667","25.0119733333333","6500100","板橋區"
"220080","200-UY","2018/05/28 19:59:38","新北市板橋區大觀路二段153巷18號","121.446463333333","25.000345","6500100","板橋區"
"242002","KEA-2550","2018/05/28 19:59:31","新北市新莊區中正路219號","121.45097","25.0357583333333","6500500","新莊區"
"220082","610-BX","2018/05/28 19:59:46","新北市板橋區篤行路二段110號","121.431348333333","24.9910566666667","6500100","板橋區"
"220101","245-BX","2018/05/28 19:59:44","新北市板橋區莊敬路234號","121.473275","25.02143","6500100","板橋區"
"220072","277-BY","2018/05/28 19:59:37","新北市板橋區篤行路二段1巷5-3號","121.432268333333","24.9929333333333","6500100","板橋區"
"220094","280-UM","2018/05/28 19:59:33","新北市板橋區陽明街239號","121.463163333333","25.024565","6500100","板橋區"
"220071","283-VK","2018/05/28 19:59:45","新北市板橋區和平路174巷23號","121.464611666667","24.99455","6500100","板橋區"
"220053","285-VK","2018/05/28 19:59:43","新北市板橋區中山路二段92號","121.475283333333","25.0163366666667","6500100","板橋區"
"220083","286-VK","2018/05/28 19:59:29","新北市板橋區僑中二街18號","121.446178333333","25.0106116666667","6500100","板橋區"
"220081","287-VK","2018/05/28 19:59:43","新北市板橋區大觀路一段28巷104號","121.450133333333","25.0111533333333","6500100","板橋區"
"220090","288-VK","2018/05/28 19:59:30","新北市板橋區英士路153號","121.459781666667","25.024035","6500100","板橋區"
"220061","293-UM","2018/05/28 19:59:31","新北市板橋區觀光街3巷3號","121.471746666667","25.0155516666667","6500100","板橋區"
"220084","296-UM","2018/05/28 19:59:28","新北市樹林區水源街213號","121.424265","24.9870566666667","6500100","板橋區"
"220075","303-R5","2018/05/28 19:59:44","新北市板橋區金華街10巷124號","121.459518333333","25.0205166666667","6500100","板橋區"
"220062","305-R5","2018/05/28 19:59:37","新北市板橋區光復街33巷30號","121.48251","25.018885","6500100","板橋區"
"220092","307-R5","2018/05/28 19:59:30","新北市板橋區四維路259巷59號","121.46116","25.0270016666667","6500100","板橋區"
"220098","317-R6","2018/05/28 19:59:41","新北市板橋區漢生西路165巷1號","121.462825","25.0233433333333","6500100","板橋區"
"220064","486-VK","2018/05/28 19:59:37","新北市板橋區海山路29號","121.467568333333","25.00905","6500100","板橋區"
"220088","491-VK","2018/05/28 19:59:33","新北市板橋區大同街89號","121.480003333333","25.028315","6500100","板橋區"
"220035","560-BX","2018/05/28 19:59:29","新北市板橋區新生街29巷4弄7號","121.457018333333","25.02181","6500100","板橋區"
"220103","561-BX","2018/05/28 19:59:35","新北市板橋區陽明街29巷1弄1號","121.46506","25.0213166666667","6500100","板橋區"
"220063","609-BX","2018/05/28 19:59:43","新北市板橋區中山路二段62號","121.474186666667","25.0158166666667","6500100","板橋區"
"220091","637-BX","2018/05/28 19:59:39","新北市板橋區民治街119巷7號","121.478568333333","25.0306483333333","6500100","板橋區"
"220057","686-BX","2018/05/28 19:59:25","新北市板橋區南雅南路二段43號","121.451346666667","24.9944383333333","6500100","板橋區"
"220093","689-BX","2018/05/28 19:59:28","新北市板橋區長江路三段122號","121.475295","25.0342083333333","6500100","板橋區"
"220054","741-BX","2018/05/28 19:59:43","新北市板橋區實踐路93巷10號","121.464508333333","25.0054","6500100","板橋區"
"220102","KEA-2699","2018/05/28 19:59:39","新北市板橋區仁化街64巷14號","121.475725","25.0315083333333","6500100","板橋區"
"220055","827-TW","2018/05/28 19:59:41","新北市板橋區仁愛路76巷1弄2號","121.460548333333","24.9994133333333","6500100","板橋區"
"220067","829-TW","2018/05/28 19:59:38","新北市板橋區漢生東路193巷58號","121.472886666667","25.011855","6500100","板橋區"
"220096","831-TW","2018/05/28 19:59:37","新北市板橋區莒光路15巷7-1號","121.469896666667","25.025","6500100","板橋區"
"220089","833-TW","2018/05/28 19:59:39","新北市板橋區龍泉街57號","121.457073333333","25.0259483333333","6500100","板橋區"
"220074","895-R6","2018/05/28 19:59:44","新北市板橋區府後街1巷14號","121.459485","25.011105","6500100","板橋區"
"220073","985-R7","2018/05/28 19:59:40","新北市板橋區大觀路一段21號","121.450258333333","25.00849","6500100","板橋區"
"220097","AAC-210","2018/05/28 19:59:46","新北市板橋區光正街45巷5號","121.461786666667","25.01689","6500100","板橋區"
"220070","AAC-253","2018/05/28 19:59:29","新北市板橋區成都街73-3號","121.462551666667","25.005035","6500100","板橋區"
"235068","KEA-2873","2018/05/28 19:59:20","新北市中和區福美路301巷2號","121.497205","25.0047016666667","6500300","中和區"
"235061","KEA-2875","2018/05/28 19:59:17","新北市中和區新生街148巷20號","121.482566666667","25.0006366666667","6500300","中和區"
