"lineid","car","time","location","longitude","latitude","cityid","cityname"
"234081","298-R6","2018/05/28 20:29:16","新北市永和區永貞路76號","121.5203","25.00506","6500400","永和區"
"234038","336-UY","2018/05/28 20:28:57","新北市永和區成功路一段108號","121.526795","25.002745","6500400","永和區"
"234064","337-UY","2018/05/28 20:28:57","新北市永和區中正路435號","121.517123333333","25.0051333333333","6500400","永和區"
"234086","338-UY","2018/05/28 20:29:12","新北市永和區永和路二段234號","121.51581","25.014615","6500400","永和區"
"234070","552-UM","2018/05/28 20:29:02","新北市永和區永寧街2號","121.520356666667","25.0065716666667","6500400","永和區"
"234017","745-BX","2018/05/28 20:29:10","新北市永和區仁愛路72號","121.513","25.013245","6500400","永和區"
"234030","746-BX","2018/05/28 20:29:14","新北市永和區民族街81巷58號","121.520055","24.9965316666667","6500400","永和區"
"234054","KEA-2590","2018/05/28 20:29:12","新北市永和區環河東路一段42號","121.518761666667","25.0170083333333","6500400","永和區"
"234061","AAD-866","2018/05/28 20:28:59","新北市永和區得和路2號","121.51483","25.0006483333333","6500400","永和區"
"234042","862-TW","2018/05/28 20:29:11","新北市永和區安樂路431號","121.514461666667","25.004215","6500400","永和區"
"234050","863-TW","2018/05/28 20:29:01","新北市永和區新生路136號","121.506748333333","25.0143266666667","6500400","永和區"
"249001","173-UM","2018/05/28 20:29:08","新北市八里區中山路三段106號","121.391698333333","25.1427083333333","6502300","八里區"
"249004","303-UY","2018/05/28 20:29:08","新北市八里區中山路一段129巷31號","121.414141666667","25.1585216666667","6502300","八里區"
"249002","305-UY","2018/05/28 20:29:15","新北市八里區龍米路二段125巷1號","121.446386666667","25.14514","6502300","八里區"
"249003","593-UM","2018/05/28 20:28:59","新北市八里區華峰一街27-1號","121.399156666667","25.1465666666667","6502300","八里區"
"248002","678-BX","2018/05/28 20:29:12","新北市五股區新五路三段12號","121.443788333333","25.08734","6501500","五股區"
"234023","9380-KE","2018/05/28 20:29:16","新北市永和區復興街60號","121.516573333333","25.013295","6500400","永和區"
"234074","AAC-211","2018/05/28 20:28:58","新北市永和區豫溪街160巷3號","121.523495","25.0096716666667","6500400","永和區"
"234067","AAC-212","2018/05/28 20:29:10","新北市永和區保平路292巷13弄2號","121.507305","25.0053216666667","6500400","永和區"
"234003","AAC-295","2018/05/28 20:29:07","新北市永和區中正路618號","121.51702","25.0076616666667","6500400","永和區"
"243009","297-R6","2018/05/28 20:29:14","新北市泰山區忠孝街38號","121.428398333333","25.0653616666667","6501600","泰山區"
"243016","380-SR","2018/05/28 20:29:13","新北市泰山區新生路23號","121.427155","25.0454716666667","6501600","泰山區"
"243015","421-VK","2018/05/28 20:29:02","新北市泰山區泰林路二段65號","121.435198333333","25.0580966666667","6501600","泰山區"
"243010","KEA-2216","2018/05/28 20:29:17","新北市泰山區新生路33-11號","121.427696666667","25.0459033333333","6501600","泰山區"
"243012","646-TV","2018/05/28 20:29:08","新北市泰山區忠孝街19巷3弄1號","121.427471666667","25.0658666666667","6501600","泰山區"
"243014","680-BX","2018/05/28 20:29:09","新北市泰山區泰林路二段573號","121.422318333333","25.063375","6501600","泰山區"
"222003","436-BY","2018/05/28 20:29:09","新北市深坑區深坑街27號","121.615976666667","25.0024083333333","6501800","深坑區"
"222002","659-BX","2018/05/28 20:29:10","新北市深坑區萬福路16巷36-1號","121.61165","25.0085216666667","6501800","深坑區"
"231041","002-UM","2018/05/28 20:29:06","新北市新店區中正路501-2號","121.53369","24.983675","6500600","新店區"
"231059","046-UY","2018/05/28 20:29:07","新北市新店區安康路二段262號","121.508746666667","24.9590966666667","6500600","新店區"
"231040","047-UY","2018/05/28 20:29:06","新北市新店區中正路331-1號","121.536053333333","24.9753166666667","6500600","新店區"
"231044","106-UY","2018/05/28 20:29:03","新北市新店區民族路60號","121.53974","24.9784433333333","6500600","新店區"
"231052","108-UY","2018/05/28 20:29:12","新北市新店區松林路16巷31號","121.546248333333","24.910225","6500600","新店區"
"231047","187-VK","2018/05/28 20:29:04","新北市新店區寶慶街58巷21-1號","121.54203","24.9872816666667","6500600","新店區"
"231054","KEA-2219","2018/05/28 20:29:06","新北市新店區檳榔路109號","121.544471666667","24.9615416666667","6500600","新店區"
"231057","256-BX","2018/05/28 20:29:11","新北市新店區花園五路二段1號","121.55348","24.93419","6500600","新店區"
"231042","268-BY","2018/05/28 20:29:06","新北市新店區寶橋路156-3號","121.548668333333","24.97701","6500600","新店區"
"231051","278-BY","2018/05/28 20:29:07","新北市新店區中央七街29號","121.529478333333","24.9754633333333","6500600","新店區"
"231050","AAD-862","2018/05/28 20:29:08","新北市新店區建興街9巷1號","121.539901666667","24.9763333333333","6500600","新店區"
"231058","3713-VJ","2018/05/28 20:29:07","新北市新店區自由街41號","121.534668333333","24.9739233333333","6500600","新店區"
"231066","4716-K9","2018/05/28 20:29:00","新北市新店區安民街365巷1弄8號","121.516415","24.97519","6500600","新店區"
"231056","4715-K9","2018/05/28 20:29:09","新北市新店區中正路328巷42弄12號","121.538548333333","24.9759716666667","6500600","新店區"
"231067","4772-VM","2018/05/28 20:29:04","新北市新店區安華路28-1號","121.519623333333","24.96093","6500600","新店區"
"231065","512-UM","2018/05/28 20:29:09","新北市新店區安祥路102巷28號","121.484085","24.9639933333333","6500600","新店區"
"231049","513-UM","2018/05/28 20:29:11","新北市新店區環河路29巷1號","121.537255","24.9613583333333","6500600","新店區"
"231064","515-UM","2018/05/28 20:29:10","新北市新店區安和路三段101號","121.518071666667","24.9844783333333","6500600","新店區"
"231061","619-UM","2018/05/28 20:29:15","新北市新店區安業街2號","121.515531666667","24.9789033333333","6500600","新店區"
"231063","641-BX","2018/05/28 20:29:03","新北市新店區安康路三段50-1號","121.492693333333","24.9527133333333","6500600","新店區"
"231068","718-UY","2018/05/28 20:29:05","新北市新店區民權路10號","121.542391666667","24.9829133333333","6500600","新店區"
"231062","720-UM","2018/05/28 20:29:02","新北市新店區安泰路17號","121.485171666667","24.9498516666667","6500600","新店區"
"231060","897-TW","2018/05/28 20:29:03","新北市新店區錦秀路47號","121.47914","24.9435983333333","6500600","新店區"
"231045","898-TW","2018/05/28 20:29:02","新北市新店區新坡一街2號","121.548185","24.960465","6500600","新店區"
"231043","899-TW","2018/05/28 20:29:06","新北市新店區民族路14-1號","121.541455","24.97886","6500600","新店區"
"241011","013-R5","2018/05/28 20:29:17","新北市三重區龍門路83號","121.497011666667","25.07259","6500200","三重區"
"241028","022-UY","2018/05/28 20:29:07","新北市三重區大同南路58號","121.49603","25.0596316666667","6500200","三重區"
"241008","059-VK","2018/05/28 20:29:09","新北市三重區下竹圍街42-1號","121.481008333333","25.0748916666667","6500200","三重區"
"241031","061-VK","2018/05/28 20:29:05","新北市三重區三寧街15號","121.489505","25.0597133333333","6500200","三重區"
"241015","062-VK","2018/05/28 20:29:13","新北市三重區長元街2-2號","121.498773333333","25.065795","6500200","三重區"
"241017","063-VK","2018/05/28 20:28:55","新北市三重區自強路一段195號","121.491721666667","25.068195","6500200","三重區"
"241024","065-VK","2018/05/28 20:29:16","新北市三重區中正北路276巷22號","121.480383333333","25.06758","6500200","三重區"
"241026","066-VK","2018/05/28 20:29:10","新北市三重區重新路一段12號","121.503976666667","25.0638966666667","6500200","三重區"
"241002","090-VK","2018/05/28 20:29:13","新北市三重區仁義街192號","121.496633333333","25.0817483333333","6500200","三重區"
"241003","091-VK","2018/05/28 20:29:04","新北市三重區富華街180號","121.492863333333","25.0847666666667","6500200","三重區"
"241022","742-BX","2018/05/28 20:29:12","新北市三重區民生街61巷31弄1號","121.487733333333","25.0630866666667","6500200","三重區"
"241005","262-UM","2018/05/28 20:29:04","新北市三重區分子尾街113號","121.488411666667","25.0829066666667","6500200","三重區"
"241009","265-UM","2018/05/28 20:29:06","新北市三重區永福街58巷1弄5號","121.481125","25.0778883333333","6500200","三重區"
"241016","266-UM","2018/05/28 20:29:11","新北市三重區正義北路190巷7號","121.496026666667","25.0668083333333","6500200","三重區"
"241018","268-UM","2018/05/28 20:29:14","新北市三重區正義北路234號","121.495996666667","25.067915","6500200","三重區"
"241032","269-UM","2018/05/28 20:28:58","新北市三重區重陽路一段120巷35號","121.485078333333","25.0601716666667","6500200","三重區"
"241013","270-UM","2018/05/28 20:29:02","新北市三重區溪尾街5巷20號","121.492385","25.0745816666667","6500200","三重區"
"241025","271-UM","2018/05/28 20:29:10","新北市三重區頂崁街210巷23弄1號","121.475836666667","25.06813","6500200","三重區"
"241007","398-BY","2018/05/28 20:28:56","新北市三重區自強路四段51號","121.489871666667","25.0780783333333","6500200","三重區"
"241035","KEA-2210","2018/05/28 20:29:01","新北市三重區重新路二段58號","121.498073333333","25.0622283333333","6500200","三重區"
"241004","475-VK","2018/05/28 20:29:07","新北市三重區慈愛街183號","121.49014","25.0803916666667","6500200","三重區"
"241020","478-VK","2018/05/28 20:29:12","新北市三重區明德街35號","121.4925","25.0722533333333","6500200","三重區"
"241030","480-VK","2018/05/28 20:29:00","新北市三重區成功路62號","121.488608333333","25.05106","6500200","三重區"
"241014","543-UM","2018/05/28 20:29:01","新北市三重區龍濱路68號","121.502161666667","25.0692616666667","6500200","三重區"
"241023","545-UM","2018/05/28 20:29:11","新北市三重區自由街16號","121.479831666667","25.066505","6500200","三重區"
"241001","547-UM","2018/05/28 20:29:11","新北市三重區自強路四段33號","121.48898","25.0766","6500200","三重區"
"241019","KEA-2593","2018/05/28 20:29:12","新北市三重區重陽路四段83號","121.492588333333","25.0710516666667","6500200","三重區"
"241006","AAD-863","2018/05/28 20:29:12","新北市三重區車路頭街139巷14號","121.484313333333","25.0761816666667","6500200","三重區"
"241012","941-UM","2018/05/28 20:29:06","新北市三重區龍濱路251號","121.501468333333","25.0727133333333","6500200","三重區"
"241029","942-UM","2018/05/28 20:28:58","新北市三重區集美街227號","121.492136666667","25.0551516666667","6500200","三重區"
"241033","AAC-255","2018/05/28 20:29:12","新北市三重區五谷王北街139號","121.476166666667","25.0520983333333","6500200","三重區"
"235050","4979-A6","2018/05/28 20:29:09","新北市中和區景新街160巷5弄1號","121.505398333333","24.9970383333333","6500300","中和區"
"235069","4980-A6","2018/05/28 20:28:57","新北市中和區中正路432巷30號","121.490896666667","24.9956666666667","6500300","中和區"
"235059","AAC-215","2018/05/28 20:29:02","新北市中和區員山路35-1號","121.48158","24.988795","6500300","中和區"
"247024","893-R6","2018/05/28 20:29:00","新北市蘆洲區光復路70巷19號","121.464888333333","25.085265","6501400","蘆洲區"
"247014","546-UM","2018/05/28 20:29:14","新北市蘆洲區中山二路123號","121.472171666667","25.0816416666667","6501400","蘆洲區"
"247022","500-BY","2018/05/28 20:29:14","新北市蘆洲區三民路164號","121.470103333333","25.0880933333333","6501400","蘆洲區"
"247010","341-TH","2018/05/28 20:28:58","新北市蘆洲區信義路222巷41號","121.480331666667","25.085575","6501400","蘆洲區"
"247012","339-TH","2018/05/28 20:29:03","新北市蘆洲區復興路260號","121.479985","25.08967","6501400","蘆洲區"
"247004","337-TH","2018/05/28 20:29:12","新北市蘆洲區永康街79-8號","121.456346666667","25.0848733333333","6501400","蘆洲區"
"247006","336-TH","2018/05/28 20:29:04","新北市蘆洲區九芎街167巷54號","121.4662","25.0778633333333","6501400","蘆洲區"
"247018","057-VK","2018/05/28 20:28:57","新北市蘆洲區民族路327巷11弄3號","121.474775","25.0908933333333","6501400","蘆洲區"
"247008","056-VK","2018/05/28 20:28:56","新北市蘆洲區永安北路二段76巷15號","121.482621666667","25.0852066666667","6501400","蘆洲區"
"247016","007-UY","2018/05/28 20:29:00","新北市蘆洲區光華路121號","121.466615","25.08245","6501400","蘆洲區"
"247002","002-UY","2018/05/28 20:29:09","新北市蘆洲區長安街347巷30號","121.455581666667","25.087015","6501400","蘆洲區"
"247020","001-UY","2018/05/28 20:29:00","新北市蘆洲區仁愛街102號","121.470088333333","25.0946316666667","6501400","蘆洲區"
"222001","KEA-2212","2018/05/28 20:29:00","新北市深坑區北深路三段329號","121.597291666667","25.0050466666667","6501800","深坑區"
"251009","008-UM","2018/05/28 20:29:02","新北市淡水區崁頂111號","121.43294","25.204425","6501000","淡水區"
"251001","011-UM","2018/05/28 20:29:08","新北市淡水區新市一路三段8號","121.445018333333","25.1829516666667","6501000","淡水區"
"251013","KEA-2871","2018/05/28 20:28:58","新北市淡水區後坑子7號","121.463831666667","25.2055666666667","6501000","淡水區"
"251016","179-VK","2018/05/28 20:29:13","新北市淡水區後洲子19號","121.450253333333","25.223825","6501000","淡水區"
"251014","180-VK","2018/05/28 20:28:59","新北市淡水區淡金路五段118巷3號","121.458126666667","25.2366766666667","6501000","淡水區"
"251008","181-VK","2018/05/28 20:29:05","新北市淡水區淡海路189巷10號","121.419751666667","25.1844466666667","6501000","淡水區"
"251015","182-VK","2018/05/28 20:29:17","新北市淡水區淡金路四段542巷17號","121.452705","25.22711","6501000","淡水區"
"251010","413-VK","2018/05/28 20:29:08","新北市淡水區沙崙路181巷15號","121.423986666667","25.1843333333333","6501000","淡水區"
"251012","443-VK","2018/05/28 20:29:11","新北市淡水區興仁路100號","121.451823333333","25.217965","6501000","淡水區"
"251006","561-UM","2018/05/28 20:29:18","新北市淡水區商工路296號","121.460626666667","25.185985","6501000","淡水區"
"251002","672-BX","2018/05/28 20:29:11","新北市淡水區中正路11-3號","121.44311","25.1695783333333","6501000","淡水區"
"251003","766-UM","2018/05/28 20:29:17","新北市淡水區新生街108巷2號","121.440138333333","25.1747183333333","6501000","淡水區"
"207004","225-TW","2018/05/28 20:28:59","新北市萬里區北基里忠五街16號","121.684468333333","25.176305","6502800","萬里區"
"252002","178-VK","2018/05/28 20:28:59","新北市三芝區淡金路二段47-2號","121.503726666667","25.2604833333333","6502100","三芝區"
"252001","292-VK","2018/05/28 20:28:57","新北市三芝區中山路一段14號","121.500681666667","25.2580416666667","6502100","三芝區"
"236069","105-UM","2018/05/28 20:29:06","新北市土城區福安街100-5號","121.417416666667","24.96425","6501300","土城區"
"242034","AAC-296","2018/05/28 20:29:13","新北市新莊區公園一路148號","121.446766666667","25.0383683333333","6500500","新莊區"
"242058","986-R7","2018/05/28 20:28:59","新北市新莊區四維路196號","121.421831666667","25.0206433333333","6500500","新莊區"
"242053","751-BX","2018/05/28 20:29:10","新北市新莊區西盛街362巷1號","121.427821666667","25.013595","6500500","新莊區"
"242027","615-BX","2018/05/28 20:29:04","新北市新莊區幸福路46號","121.457703333333","25.04949","6500500","新莊區"
"242025","613-BX","2018/05/28 20:28:11","新北市新莊區五工三路62巷26號","121.460166666667","25.0653283333333","6500500","新莊區"
"242029","612-BX","2018/05/28 20:28:54","新北市新莊區昌平街31巷9號","121.45427","25.0513333333333","6500500","新莊區"
"242042","566-BX","2018/05/28 20:29:08","新北市新莊區天祥街54巷2弄1號","121.41672","25.0292216666667","6500500","新莊區"
"242050","442-UM","2018/05/28 20:28:58","新北市新莊區民安西路252巷25號","121.42519","25.0135366666667","6500500","新莊區"
"242056","440-UM","2018/05/28 20:29:01","新北市新莊區瓊泰路152號","121.443215","25.0324083333333","6500500","新莊區"
"242036","415-TV","2018/05/28 20:29:17","新北市新莊區後港一路76巷3弄1號","121.427271666667","25.0259966666667","6500500","新莊區"
"242007","413-TV","2018/05/28 20:29:13","新北市新莊區福壽街94巷5號","121.458588333333","25.0500933333333","6500500","新莊區"
"242044","400-BY","2018/05/28 20:29:03","新北市新莊區中正路新建巷25號","121.414246666667","25.02215","6500500","新莊區"
"242023","362-BY","2018/05/28 20:29:14","新北市新莊區化成路1002號","121.465163333333","25.0647066666667","6500500","新莊區"
"242060","353-BY","2018/05/28 20:29:07","新北市新莊區民安路322號","121.428921666667","25.02197","6500500","新莊區"
"242009","132-UY","2018/05/28 20:29:12","新北市新莊區昌盛街81巷2弄1號","121.45549","25.0503766666667","6500500","新莊區"
"242039","133-UY","2018/05/28 20:28:56","新北市新莊區成功街61號","121.424918333333","25.020335","6500500","新莊區"
"242031","135-UY","2018/05/28 20:29:10","新北市新莊區義豐街15巷10號","121.440478333333","25.0349783333333","6500500","新莊區"
"242048","172-VK","2018/05/28 20:29:04","新北市新莊區福營路456號","121.419891666667","25.024905","6500500","新莊區"
"242011","173-VK","2018/05/28 20:29:13","新北市新莊區中義街14號","121.451126666667","25.0512216666667","6500500","新莊區"
"242017","175-VK","2018/05/28 20:29:07","新北市新莊區中港三街9巷2弄2號","121.451113333333","25.0463766666667","6500500","新莊區"
"242004","176-VK","2018/05/28 20:29:02","新北市新莊區化成路403巷33號","121.463491666667","25.0586666666667","6500500","新莊區"
"242015","346-TH","2018/05/28 20:29:07","新北市新莊區中平路36巷15號","121.44543","25.04369","6500500","新莊區"
"242021","348-TH","2018/05/28 20:29:12","新北市新莊區公園路30號","121.448613333333","25.039145","6500500","新莊區"
"242019","350-TH","2018/05/28 20:29:04","新北市新莊區長青街2號","121.458098333333","25.04284","6500500","新莊區"
"242013","351-TH","2018/05/28 20:29:03","新北市新莊區中榮街81巷6號","121.445456666667","25.0524833333333","6500500","新莊區"
"221008","489-VK","2018/05/28 20:29:08","新北市汐止區康寧街451號","121.631248333333","25.0682733333333","6501100","汐止區"
"221036","130-UY","2018/05/28 20:29:12","新北市汐止區新台五路二段138號","121.663841666667","25.0664383333333","6501100","汐止區"
"221015","131-UY","2018/05/28 20:28:55","新北市汐止區建成路160巷16號","121.661823333333","25.0740233333333","6501100","汐止區"
"221010","269-BY","2018/05/28 20:29:17","新北市汐止區八連路二段376-1號","121.629351666667","25.1014233333333","6501100","汐止區"
"221012","278-VK","2018/05/28 20:29:16","新北市汐止區大同路三段424號","121.682735","25.07245","6501100","汐止區"
"221023","279-VK","2018/05/28 20:29:00","新北市汐止區湖東街5巷112-2號","121.635373333333","25.0744116666667","6501100","汐止區"
"221032","280-BY","2018/05/28 20:29:02","新北市汐止區民權街二段37號","121.619541666667","25.0495583333333","6501100","汐止區"
"221027","281-BY","2018/05/28 20:29:10","新北市汐止區中正路233號","121.657841666667","25.0687033333333","6501100","汐止區"
"221029","298-VK","2018/05/28 20:29:09","新北市汐止區樟樹一路135巷35號","121.640711666667","25.0656916666667","6501100","汐止區"
"221021","299-VK","2018/05/28 20:29:11","新北市汐止區水源路一段282巷3號","121.653985","25.0580716666667","6501100","汐止區"
"221031","353-TW","2018/05/28 20:29:04","新北市汐止區中興路110巷12號","121.633935","25.064245","6501100","汐止區"
"221035","622-UM","2018/05/28 20:28:58","新北市汐止區長江街101-5號","121.658728333333","25.0731866666667","6501100","汐止區"
"221025","623-UM","2018/05/28 20:29:13","新北市汐止區水源路二段84號","121.656278333333","25.0560016666667","6501100","汐止區"
"221038","646-BX","2018/05/28 20:28:56","新北市汐止區忠孝東路424號","121.666023333333","25.0715033333333","6501100","汐止區"
"221033","647-BX","2018/05/28 20:28:37","新北市汐止區林森街132巷6弄6號","121.624578333333","25.040545","6501100","汐止區"
"221002","707-TV","2018/05/28 20:29:12","新北市汐止區福德二路31號","121.634873333333","25.06779","6501100","汐止區"
"221018","753-BX","2018/05/28 20:29:00","新北市汐止區茄苳路225巷11弄2號","121.671531666667","25.06938","6501100","汐止區"
"242002","KEA-2550","2018/05/28 20:29:11","新北市新莊區中正路11號","121.464085","25.0411616666667","6500500","新莊區"
"220083","286-VK","2018/05/28 20:29:09","新北市板橋區僑中二街104巷1號","121.445811666667","25.0078533333333","6500100","板橋區"
"220061","293-UM","2018/05/28 20:29:15","新北市板橋區文華街3巷1號","121.457466666667","25.0006","6500100","板橋區"
"220088","491-VK","2018/05/28 20:29:13","新北市八里區荖阡坑路20-9號","121.398481666667","25.1368216666667","6500100","板橋區"
"220103","561-BX","2018/05/28 20:29:13","新北市板橋區新海路5-1號","121.46269","25.0204583333333","6500100","板橋區"
"220091","637-BX","2018/05/28 20:28:59","新北市林口區汕頭32號","121.366563333333","25.134985","6500100","板橋區"
"220102","KEA-2699","2018/05/28 20:29:06","新北市板橋區民生路二段179號","121.46952","25.020305","6500100","板橋區"
"220089","833-TW","2018/05/28 20:28:59","新北市板橋區四維路286號","121.462955","25.0289883333333","6500100","板橋區"
"220070","AAC-253","2018/05/28 20:29:09","新北市板橋區華東街310號","121.452783333333","25.00296","6500100","板橋區"
