"lineid","car","time","location","longitude","latitude","cityid","cityname"
"234061","AAD-866","2018/05/28 20:49:19","新北市永和區中正路26號","121.512841666667","24.9941483333333","6500400","永和區"
"249004","303-UY","2018/05/28 20:49:08","新北市八里區中山路一段63號","121.418363333333","25.1595133333333","6502300","八里區"
"234023","9380-KE","2018/05/28 20:49:16","新北市永和區竹林路25巷34號","121.518161666667","25.01495","6500400","永和區"
"234074","AAC-211","2018/05/28 20:49:18","新北市永和區環河東路二段10號","121.522188333333","25.01326","6500400","永和區"
"222003","436-BY","2018/05/28 20:49:09","新北市深坑區阿柔洋40號","121.610281666667","24.9984816666667","6501800","深坑區"
"222002","659-BX","2018/05/28 20:49:10","新北市深坑區北深路三段107巷29號","121.604363333333","25.0006983333333","6501800","深坑區"
"231059","046-UY","2018/05/28 20:49:08","新北市新店區僑愛二路1號","121.499868333333","24.9451583333333","6500600","新店區"
"231040","047-UY","2018/05/28 20:49:06","新北市新店區中正路268號","121.538981666667","24.9735116666667","6500600","新店區"
"231044","106-UY","2018/05/28 20:49:23","新北市新店區民族路233號","121.53662","24.9757583333333","6500600","新店區"
"231052","108-UY","2018/05/28 20:49:12","新北市新店區新烏路一段245-3號","121.54828","24.93054","6500600","新店區"
"231047","187-VK","2018/05/28 20:49:04","新北市新店區寶元路二段1巷2號","121.550735","24.9840616666667","6500600","新店區"
"231054","KEA-2219","2018/05/28 20:49:06","新北市新店區北新路一段126巷21號","121.54286","24.9696066666667","6500600","新店區"
"231057","256-BX","2018/05/28 20:49:11","新北市新店區新烏路一段127-1號","121.546958333333","24.9369","6500600","新店區"
"231042","268-BY","2018/05/28 20:49:06","新北市新店區寶高路120巷1號","121.554611666667","24.9760783333333","6500600","新店區"
"231051","278-BY","2018/05/28 20:49:07","新北市新店區民生路156巷83號","121.527353333333","24.9819966666667","6500600","新店區"
"231050","AAD-862","2018/05/28 20:49:08","新北市新店區三民路20巷8號","121.537678333333","24.9708433333333","6500600","新店區"
"231058","3713-VJ","2018/05/28 20:49:07","新北市新店區中央八街127號","121.52498","24.97907","6500600","新店區"
"231066","4716-K9","2018/05/28 20:49:00","新北市新店區安興路56號","121.516693333333","24.9743383333333","6500600","新店區"
"231056","4715-K9","2018/05/28 20:49:08","新北市新店區中央七街61巷28號","121.529546666667","24.9757383333333","6500600","新店區"
"231067","4772-VM","2018/05/28 20:49:24","新北市新店區安康路二段52號","121.515176666667","24.9637266666667","6500600","新店區"
"231065","512-UM","2018/05/28 20:49:09","新北市新店區安祥路104巷50號","121.482673333333","24.9634833333333","6500600","新店區"
"231049","513-UM","2018/05/28 20:49:11","新北市新店區永業路81巷9弄10號","121.531176666667","24.9507033333333","6500600","新店區"
"231064","515-UM","2018/05/28 20:49:10","新北市新店區安民街377號","121.51627","24.97629","6500600","新店區"
"231061","619-UM","2018/05/28 20:49:15","新北市新店區新和街97號","121.521206666667","24.986615","6500600","新店區"
"231063","641-BX","2018/05/28 20:49:23","新北市新店區如意街7-5號","121.49507","24.948465","6500600","新店區"
"231068","718-UY","2018/05/28 20:49:05","新北市新店區中興路三段220巷19號","121.54488","24.9833683333333","6500600","新店區"
"231062","720-UM","2018/05/28 20:49:02","新北市新店區和成街19巷17號","121.487575","24.9461066666667","6500600","新店區"
"231060","897-TW","2018/05/28 20:49:03","新北市新店區安康路三段567-1號","121.475651666667","24.943635","6500600","新店區"
"231045","898-TW","2018/05/28 20:49:22","新北市新店區北新路一段2號","121.540915","24.9651066666667","6500600","新店區"
"231043","899-TW","2018/05/28 20:49:19","新北市新店區建國路31號","121.540268333333","24.97417","6500600","新店區"
"241011","013-R5","2018/05/28 20:49:16","新北市三重區環河北路一段352號","121.503248333333","25.0726","6500200","三重區"
"241028","022-UY","2018/05/28 20:49:07","新北市三重區中正南路54號","121.493966666667","25.0598633333333","6500200","三重區"
"241008","059-VK","2018/05/28 20:49:09","新北市三重區永福街72巷11號","121.479396666667","25.076825","6500200","三重區"
"241031","061-VK","2018/05/28 20:49:05","新北市三重區重陽路一段113巷2弄2號","121.487545","25.05991","6500200","三重區"
"241015","062-VK","2018/05/28 20:49:13","新北市三重區自強路一段8號","121.498826666667","25.068245","6500200","三重區"
"241017","063-VK","2018/05/28 20:49:16","新北市三重區民生街18號","121.491973333333","25.0673466666667","6500200","三重區"
"241024","065-VK","2018/05/28 20:49:13","新北市三重區國道路一段58巷20號","121.481191666667","25.07205","6500200","三重區"
"241026","066-VK","2018/05/28 20:49:10","新北市三重區文化南路7號","121.50004","25.0623366666667","6500200","三重區"
"241002","090-VK","2018/05/28 20:49:13","新北市三重區仁義街157巷36號","121.497906666667","25.0815466666667","6500200","三重區"
"241003","091-VK","2018/05/28 20:49:04","新北市三重區五華街141巷60號","121.493473333333","25.0866766666667","6500200","三重區"
"241022","742-BX","2018/05/28 20:49:12","新北市三重區過圳街27-5號","121.48799","25.0623633333333","6500200","三重區"
"241005","262-UM","2018/05/28 20:49:04","新北市三重區五華街141巷60號","121.493555","25.08674","6500200","三重區"
"241009","265-UM","2018/05/28 20:49:06","新北市三重區三和路四段388-2號","121.482078333333","25.07917","6500200","三重區"
"241016","266-UM","2018/05/28 20:49:11","新北市三重區自強路一段103號","121.495525","25.06635","6500200","三重區"
"241018","268-UM","2018/05/28 20:49:14","新北市三重區正義北路227號","121.495936666667","25.0689183333333","6500200","三重區"
"241032","269-UM","2018/05/28 20:49:18","新北市三重區重陽路一段120巷48號","121.485078333333","25.060155","6500200","三重區"
"241013","270-UM","2018/05/28 20:49:23","新北市三重區仁賢街12-1號","121.495653333333","25.07488","6500200","三重區"
"241025","271-UM","2018/05/28 20:49:10","新北市三重區貴陽街21號","121.484351666667","25.061925","6500200","三重區"
"241007","398-BY","2018/05/28 20:49:17","新北市三重區慈愛街8號","121.484473333333","25.0784266666667","6500200","三重區"
"241035","KEA-2210","2018/05/28 20:49:14","新北市三重區文化北路141號","121.49768","25.06929","6500200","三重區"
"241004","475-VK","2018/05/28 20:49:07","新北市三重區慈愛街118號","121.489821666667","25.0804966666667","6500200","三重區"
"241020","478-VK","2018/05/28 20:49:11","新北市三重區忠孝路一段101號","121.489478333333","25.072145","6500200","三重區"
"241030","480-VK","2018/05/28 20:49:19","新北市三重區昌隆街26號","121.492","25.0522883333333","6500200","三重區"
"241014","543-UM","2018/05/28 20:49:21","新北市三重區安和路105號","121.500826666667","25.0700816666667","6500200","三重區"
"241023","545-UM","2018/05/28 20:49:11","新北市三重區忠孝路三段84巷1號","121.480321666667","25.06462","6500200","三重區"
"241001","547-UM","2018/05/28 20:49:06","新北市三重區車路頭街109巷12號","121.485516666667","25.0744533333333","6500200","三重區"
"241019","KEA-2593","2018/05/28 20:49:18","新北市三重區大智街139號","121.490765","25.07094","6500200","三重區"
"241006","AAD-863","2018/05/28 20:49:12","新北市三重區車路頭街139巷14號","121.48429","25.0761683333333","6500200","三重區"
"241012","941-UM","2018/05/28 20:49:06","新北市三重區仁信街6號","121.501335","25.0755","6500200","三重區"
"241029","942-UM","2018/05/28 20:49:18","新北市三重區重安街18號","121.49027","25.0581","6500200","三重區"
"241033","AAC-255","2018/05/28 20:49:12","新北市三重區光復路二段1號","121.47229","25.0532816666667","6500200","三重區"
"235069","4980-A6","2018/05/28 20:49:20","新北市中和區員山路359巷1弄8號","121.481","25.0015933333333","6500300","中和區"
"247024","893-R6","2018/05/28 20:49:20","新北市蘆洲區長樂路239號","121.462476666667","25.0912416666667","6501400","蘆洲區"
"247014","546-UM","2018/05/28 20:49:14","新北市蘆洲區三民路95號","121.473926666667","25.0848633333333","6501400","蘆洲區"
"247022","500-BY","2018/05/28 20:49:06","新北市蘆洲區中正路185巷46弄14號","121.467035","25.0853933333333","6501400","蘆洲區"
"247010","341-TH","2018/05/28 20:49:18","新北市蘆洲區中山一路138號","121.47633","25.0817783333333","6501400","蘆洲區"
"247012","339-TH","2018/05/28 20:49:23","新北市蘆洲區集賢路215號","121.483085","25.0869866666667","6501400","蘆洲區"
"247004","337-TH","2018/05/28 20:49:12","新北市蘆洲區長安街100號","121.461706666667","25.0808366666667","6501400","蘆洲區"
"247006","336-TH","2018/05/28 20:49:05","新北市蘆洲區和平路121巷8弄2號","121.467176666667","25.07992","6501400","蘆洲區"
"247008","056-VK","2018/05/28 20:49:16","新北市蘆洲區集賢路269巷17號","121.482028333333","25.0833566666667","6501400","蘆洲區"
"247016","007-UY","2018/05/28 20:49:20","新北市蘆洲區中正路44號","121.471066666667","25.0825066666667","6501400","蘆洲區"
"247002","002-UY","2018/05/28 20:49:09","新北市蘆洲區長榮路269巷22號","121.459683333333","25.0861066666667","6501400","蘆洲區"
"247020","001-UY","2018/05/28 20:49:17","新北市蘆洲區仁愛街66號","121.47152","25.093875","6501400","蘆洲區"
"222001","KEA-2212","2018/05/28 20:49:20","新北市深坑區北深路三段133號","121.603935","25.00249","6501800","深坑區"
"251009","008-UM","2018/05/28 20:49:22","新北市淡水區忠愛街12號","121.457281666667","25.175015","6501000","淡水區"
"251001","011-UM","2018/05/28 20:49:08","新北市淡水區淡金路一段69號","121.458785","25.1731516666667","6501000","淡水區"
"251013","KEA-2871","2018/05/28 20:49:18","新北市淡水區埤島41號","121.451956666667","25.1976166666667","6501000","淡水區"
"251016","179-VK","2018/05/28 20:49:13","新北市淡水區淡金路四段469號","121.451755","25.2238366666667","6501000","淡水區"
"251014","180-VK","2018/05/28 20:49:20","新北市淡水區公埔子32-8號","121.461658333333","25.2323633333333","6501000","淡水區"
"251015","182-VK","2018/05/28 20:49:17","新北市淡水區淡金路四段542巷17號","121.452705","25.2270816666667","6501000","淡水區"
"251010","413-VK","2018/05/28 20:49:08","新北市淡水區沙崙路126號","121.423468333333","25.1829783333333","6501000","淡水區"
"251007","442-VK","2018/05/28 20:49:13","新北市淡水區水源街二段177巷32弄20號","121.45582","25.1772133333333","6501000","淡水區"
"251012","443-VK","2018/05/28 20:49:11","新北市淡水區淡金路四段508號","121.452086666667","25.22551","6501000","淡水區"
"251011","650-BX","2018/05/28 20:49:08","新北市淡水區新民街一段21-1號","121.432475","25.1849483333333","6501000","淡水區"
"251002","672-BX","2018/05/28 20:49:11","新北市淡水區清水街2號","121.445621666667","25.17041","6501000","淡水區"
"251003","766-UM","2018/05/28 20:49:17","新北市淡水區新興街63號","121.441676666667","25.17975","6501000","淡水區"
"242034","AAC-296","2018/05/28 20:49:13","新北市新莊區中正路268號","121.447631666667","25.0350866666667","6500500","新莊區"
"242053","751-BX","2018/05/28 20:49:13","新北市新莊區民安西路230號","121.425946666667","25.0143966666667","6500500","新莊區"
"242029","612-BX","2018/05/28 20:49:15","新北市泰山區新五路一段1號","121.442778333333","25.05826","6500500","新莊區"
"242042","566-BX","2018/05/28 20:49:07","新北市新莊區天祥街31巷2弄2號","121.417041666667","25.0282066666667","6500500","新莊區"
"242050","442-UM","2018/05/28 20:49:18","新北市新莊區民安西路99號","121.426981666667","25.0188266666667","6500500","新莊區"
"242056","440-UM","2018/05/28 20:49:21","新北市新莊區瓊泰路77巷16號","121.442546666667","25.0293666666667","6500500","新莊區"
"242036","415-TV","2018/05/28 20:49:17","新北市新莊區福營路103號","121.433703333333","25.0322433333333","6500500","新莊區"
"242007","413-TV","2018/05/28 20:49:13","新北市新莊區思源路123號","121.45983","25.042675","6500500","新莊區"
"242044","400-BY","2018/05/28 20:49:03","新北市新莊區龍安路108號","121.418438333333","25.0204916666667","6500500","新莊區"
"242023","362-BY","2018/05/28 20:49:14","新北市新莊區思源路353號","121.460123333333","25.0505566666667","6500500","新莊區"
"242009","132-UY","2018/05/28 20:49:11","新北市新莊區幸福路64巷3弄3號","121.456975","25.04991","6500500","新莊區"
"242039","133-UY","2018/05/28 20:49:16","新北市新莊區瓊林北路33-1號","121.439003333333","25.0216533333333","6500500","新莊區"
"221036","130-UY","2018/05/28 20:49:12","新北市汐止區新台五路一段238號","121.657061666667","25.0637783333333","6501100","汐止區"
"221015","131-UY","2018/05/28 20:49:15","新北市汐止區大同路二段607號","121.664113333333","25.0706883333333","6501100","汐止區"
"221032","280-BY","2018/05/28 20:49:22","新北市汐止區橫科路221巷19-1號","121.621565","25.0495133333333","6501100","汐止區"
"221027","281-BY","2018/05/28 20:49:10","新北市汐止區大同路二段370號","121.657656666667","25.0671683333333","6501100","汐止區"
"221029","298-VK","2018/05/28 20:49:09","新北市汐止區樟樹二路351-1號","121.643583333333","25.0738466666667","6501100","汐止區"
"221035","622-UM","2018/05/28 20:49:18","新北市汐止區汐萬路一段312號","121.650545","25.0752","6501100","汐止區"
"221038","646-BX","2018/05/28 20:49:16","新北市汐止區汐萬路一段256巷1號","121.652038333333","25.0747766666667","6501100","汐止區"
"221033","647-BX","2018/05/28 20:49:16","台北市南港區合順街8巷7弄36號","121.620155","25.04182","6501100","汐止區"
"221002","707-TV","2018/05/28 20:49:04","新北市汐止區福德一路310巷7弄1-1號","121.62927","25.0646083333333","6501100","汐止區"
"221018","753-BX","2018/05/28 20:49:20","新北市汐止區茄苳路2巷1號","121.664568333333","25.0705916666667","6501100","汐止區"
"242002","KEA-2550","2018/05/28 20:49:11","新北市新莊區中港路50號","121.45535","25.0383866666667","6500500","新莊區"
"220088","491-VK","2018/05/28 20:49:13","新北市林口區太平里180號","121.366563333333","25.1345983333333","6500100","板橋區"
"220103","561-BX","2018/05/28 20:49:13","新北市板橋區漢生東路83巷28號","121.467471666667","25.0168333333333","6500100","板橋區"
"220091","637-BX","2018/05/28 20:47:19","新北市八里區荖阡坑路34號","121.401606666667","25.1295083333333","6500100","板橋區"
"220070","AAC-253","2018/05/28 20:49:09","新北市八里區下罟子8-10號","121.384888333333","25.1450216666667","6500100","板橋區"
