"lineid","car","time","location","longitude","latitude","cityid","cityname"
"234061","AAD-866","2018/05/28 20:59:19","新北市板橋區長江路二段35號","121.463805","25.0316416666667","6500400","永和區"
"249004","303-UY","2018/05/28 20:59:08","新北市八里區中山路二段210巷151號","121.402186666667","25.155205","6502300","八里區"
"234074","AAC-211","2018/05/28 20:59:18","新北市永和區環河西路二段17號","121.507793333333","25.0161633333333","6500400","永和區"
"231059","046-UY","2018/05/28 20:59:07","新北市新店區僑信路132巷1號","121.50071","24.9457783333333","6500600","新店區"
"231040","047-UY","2018/05/28 20:59:06","新北市新店區中正路114號","121.542435","24.9710166666667","6500600","新店區"
"231052","108-UY","2018/05/28 20:59:12","新北市新店區北宜路一段3號","121.538196666667","24.9585416666667","6500600","新店區"
"231047","187-VK","2018/05/28 20:59:04","新北市新店區寶元路二段1巷2號","121.550745","24.9840566666667","6500600","新店區"
"231054","KEA-2219","2018/05/28 20:59:06","新北市新店區中正路75巷71號","121.543155","24.9690016666667","6500600","新店區"
"231042","268-BY","2018/05/28 20:59:06","新北市新店區寶橋路98號","121.547073333333","24.9760316666667","6500600","新店區"
"231051","278-BY","2018/05/28 20:59:07","新北市新店區中正路663巷7弄15號","121.532941666667","24.990075","6500600","新店區"
"231050","AAD-862","2018/05/28 20:59:08","新北市新店區三民路75巷5弄1號","121.535613333333","24.9708616666667","6500600","新店區"
"231066","4716-K9","2018/05/28 20:59:00","新北市新店區吉安街10號","121.516808333333","24.9657633333333","6500600","新店區"
"231056","4715-K9","2018/05/28 20:59:08","新北市新店區安興路39號","121.516448333333","24.9709333333333","6500600","新店區"
"231067","4772-VM","2018/05/28 20:59:04","新北市新店區安德街148巷12弄9號","121.508143333333","24.9604233333333","6500600","新店區"
"231065","512-UM","2018/05/28 20:59:09","新北市新店區安祥路69巷21號","121.481866666667","24.96124","6500600","新店區"
"231049","513-UM","2018/05/28 20:59:11","新北市新店區安康路一段258號","121.520318333333","24.9639483333333","6500600","新店區"
"231064","515-UM","2018/05/28 20:59:10","新北市新店區安民街251巷10弄2號","121.516698333333","24.972675","6500600","新店區"
"231061","619-UM","2018/05/28 20:59:15","新北市新店區永安街107號","121.52101","24.985595","6500600","新店區"
"231063","641-BX","2018/05/28 20:59:06","新北市新店區富貴街8巷1號","121.494276666667","24.9498033333333","6500600","新店區"
"231068","718-UY","2018/05/28 20:59:05","新北市新店區寶元路二段68號","121.547275","24.9809966666667","6500600","新店區"
"231062","720-UM","2018/05/28 20:59:02","新北市新店區裕合街143號","121.489178333333","24.9491","6500600","新店區"
"231060","897-TW","2018/05/28 20:59:03","新北市新店區安康路三段263號","121.48658","24.951845","6500600","新店區"
"231043","899-TW","2018/05/28 20:59:19","新北市新店區民族路188號","121.536843333333","24.9759933333333","6500600","新店區"
"241011","013-R5","2018/05/28 20:59:16","新北市三重區秀江街119號","121.499658333333","25.0722433333333","6500200","三重區"
"241028","022-UY","2018/05/28 20:59:06","新北市三重區重新路二段106號","121.496571666667","25.0616983333333","6500200","三重區"
"241008","059-VK","2018/05/28 20:59:09","新北市三重區下竹圍街1號","121.480923333333","25.0763883333333","6500200","三重區"
"241031","061-VK","2018/05/28 20:59:05","新北市三重區重陽路一段113巷2弄2號","121.487546666667","25.059875","6500200","三重區"
"241015","062-VK","2018/05/28 20:59:13","新北市三重區福德北路61號","121.502093333333","25.06549","6500200","三重區"
"241017","063-VK","2018/05/28 20:59:16","新北市三重區大仁街52號","121.49207","25.06467","6500200","三重區"
"241024","065-VK","2018/05/28 20:59:13","新北市三重區國道路一段58巷20號","121.48125","25.072055","6500200","三重區"
"241026","066-VK","2018/05/28 20:59:10","新北市三重區文化南路45號","121.500203333333","25.0614483333333","6500200","三重區"
"241002","090-VK","2018/05/28 20:59:13","新北市三重區仁義街161號","121.497146666667","25.0811566666667","6500200","三重區"
"241003","091-VK","2018/05/28 20:59:04","新北市三重區進安街198號","121.493943333333","25.0859833333333","6500200","三重區"
"241022","742-BX","2018/05/28 20:59:12","新北市三重區過圳街27-5號","121.488028333333","25.062335","6500200","三重區"
"241005","262-UM","2018/05/28 20:59:04","新北市三重區五華街163號","121.490405","25.0849316666667","6500200","三重區"
"241009","265-UM","2018/05/28 20:59:06","新北市三重區三和路四段322號","121.483903333333","25.077955","6500200","三重區"
"241016","266-UM","2018/05/28 20:59:11","新北市三重區自強路一段77號","121.49633","25.0663916666667","6500200","三重區"
"241018","268-UM","2018/05/28 20:59:14","新北市三重區自強路一段155-1號","121.493748333333","25.0672633333333","6500200","三重區"
"241032","269-UM","2018/05/28 20:59:22","新北市三重區中華路18號","121.48321","25.0606333333333","6500200","三重區"
"241013","270-UM","2018/05/28 20:59:02","新北市三重區仁愛街129巷2號","121.495631666667","25.0749266666667","6500200","三重區"
"241025","271-UM","2018/05/28 20:59:10","新北市三重區貴陽街21號","121.484321666667","25.061905","6500200","三重區"
"241007","398-BY","2018/05/28 20:59:17","新北市三重區慈愛街10號","121.484641666667","25.0785","6500200","三重區"
"241004","475-VK","2018/05/28 20:59:07","新北市三重區仁愛街423-1號","121.490361666667","25.0814466666667","6500200","三重區"
"241020","478-VK","2018/05/28 20:59:11","新北市三重區忠孝路二段31號","121.485975","25.071035","6500200","三重區"
"241030","480-VK","2018/05/28 20:59:19","新北市三重區環河南路220-8號","121.493383333333","25.05267","6500200","三重區"
"241014","543-UM","2018/05/28 20:59:21","新北市三重區長榮路75號","121.502573333333","25.0690916666667","6500200","三重區"
"241023","545-UM","2018/05/28 20:59:11","新北市三重區洛陽街45巷15號","121.482356666667","25.0637383333333","6500200","三重區"
"241001","547-UM","2018/05/28 20:59:06","新北市三重區自強路三段103號","121.487946666667","25.0755716666667","6500200","三重區"
"241019","KEA-2593","2018/05/28 20:59:12","新北市三重區三張街104號","121.487913333333","25.0699","6500200","三重區"
"241006","AAD-863","2018/05/28 20:59:12","新北市三重區永福街23號","121.481798333333","25.078205","6500200","三重區"
"241012","941-UM","2018/05/28 20:59:06","新北市三重區仁信街6號","121.50135","25.0754833333333","6500200","三重區"
"241029","942-UM","2018/05/28 20:59:08","新北市三重區大同南路134巷34號","121.498033333333","25.058505","6500200","三重區"
"241033","AAC-255","2018/05/28 20:59:12","新北市三重區光復路二段2號","121.472176666667","25.0532383333333","6500200","三重區"
"235069","4980-A6","2018/05/28 20:59:00","新北市中和區連城路469巷70弄14號","121.482938333333","24.9936316666667","6500300","中和區"
"247024","893-R6","2018/05/28 20:59:00","新北市蘆洲區長興路213號","121.461153333333","25.0863566666667","6501400","蘆洲區"
"247014","546-UM","2018/05/28 20:59:14","新北市蘆洲區中山二路36巷16號","121.474403333333","25.0828183333333","6501400","蘆洲區"
"247022","500-BY","2018/05/28 20:59:06","新北市蘆洲區水湳街74號","121.470363333333","25.090185","6501400","蘆洲區"
"247010","341-TH","2018/05/28 20:59:18","新北市蘆洲區鷺江街72號","121.477238333333","25.083765","6501400","蘆洲區"
"247012","339-TH","2018/05/28 20:59:03","新北市蘆洲區民權路6號","121.477033333333","25.0855133333333","6501400","蘆洲區"
"247004","337-TH","2018/05/28 20:59:12","新北市蘆洲區永安南路二段268號","121.45864","25.0807283333333","6501400","蘆洲區"
"247006","336-TH","2018/05/28 20:59:04","新北市蘆洲區永安南路二段18號","121.467736666667","25.0771633333333","6501400","蘆洲區"
"247018","057-VK","2018/05/28 20:59:16","新北市蘆洲區民權路134巷1號","121.47333","25.089025","6501400","蘆洲區"
"247016","007-UY","2018/05/28 20:59:09","新北市蘆洲區正和街79號","121.468438333333","25.0809233333333","6501400","蘆洲區"
"247020","001-UY","2018/05/28 20:59:17","新北市蘆洲區民族路488號","121.471163333333","25.091325","6501400","蘆洲區"
"222001","KEA-2212","2018/05/28 20:59:20","新北市深坑區北深路三段25巷13-3號","121.608741666667","25.00026","6501800","深坑區"
"251009","008-UM","2018/05/28 20:59:02","新北市淡水區民族路112巷72號","121.461663333333","25.1338533333333","6501000","淡水區"
"251005","010-UM","2018/05/28 20:59:18","新北市淡水區學府路71號","121.44835","25.1699033333333","6501000","淡水區"
"251001","011-UM","2018/05/28 20:59:08","新北市淡水區淡金路二段147號","121.449753333333","25.18282","6501000","淡水區"
"251013","KEA-2871","2018/05/28 20:59:18","新北市淡水區中洲(子)6號","121.47024","25.200905","6501000","淡水區"
"251016","179-VK","2018/05/28 20:59:13","新北市淡水區牛埔子11-1號","121.450306666667","25.21849","6501000","淡水區"
"251014","180-VK","2018/05/28 20:59:19","新北市淡水區溪口7-3號","121.455601666667","25.2365966666667","6501000","淡水區"
"251015","182-VK","2018/05/28 20:59:16","新北市淡水區淡金路四段542巷17號","121.452703333333","25.22708","6501000","淡水區"
"251010","413-VK","2018/05/28 20:59:08","新北市淡水區淡海路23號","121.423715","25.1790916666667","6501000","淡水區"
"251007","442-VK","2018/05/28 20:59:13","新北市淡水區鄧公路23巷2號","121.451253333333","25.170065","6501000","淡水區"
"251012","443-VK","2018/05/28 20:59:11","新北市淡水區淡金路五段89號","121.456125","25.23581","6501000","淡水區"
"251011","650-BX","2018/05/28 20:59:08","新北市淡水區新民街322巷1號","121.435326666667","25.1838216666667","6501000","淡水區"
"251002","672-BX","2018/05/28 20:59:11","新北市淡水區水源街一段118號","121.447176666667","25.1718583333333","6501000","淡水區"
"251003","766-UM","2018/05/28 20:59:16","新北市淡水區新春街148號","121.442426666667","25.1811433333333","6501000","淡水區"
"242009","132-UY","2018/05/28 20:59:11","新北市新莊區思源路59號","121.459925","25.0403166666667","6500500","新莊區"
"221027","281-BY","2018/05/28 20:59:10","新北市汐止區汐萬路一段256巷1號","121.651748333333","25.07487","6501100","汐止區"
"221029","298-VK","2018/05/28 20:59:09","新北市汐止區汐萬路一段256巷1號","121.65172","25.0748966666667","6501100","汐止區"
"221018","753-BX","2018/05/28 20:59:20","新北市汐止區汐萬路一段256巷3號","121.653326666667","25.074645","6501100","汐止區"
"242002","KEA-2550","2018/05/28 20:59:11","新北市新莊區中港路32號","121.45515","25.0374816666667","6500500","新莊區"
"220088","491-VK","2018/05/28 20:59:13","新北市五股區中直路17-4號","121.42271","25.111165","6500100","板橋區"
"220091","637-BX","2018/05/28 20:59:19","新北市三重區後埔街82-1號","121.47847","25.04643","6500100","板橋區"
"220070","AAC-253","2018/05/28 20:59:09","新北市八里區中山路三段409號","121.36877","25.134225","6500100","板橋區"
