"lineid","car","time","location","longitude","latitude","cityid","cityname"
"234074","AAC-211","2018/05/28 21:28:58","新北市林口區太平里180號","121.367873333333","25.1337616666667","6500400","永和區"
"231047","187-VK","2018/05/28 21:29:04","新北市新店區安興路37號","121.516296666667","24.9707616666667","6500600","新店區"
"231054","KEA-2219","2018/05/28 21:28:46","新北市新店區柴埕路116號","121.505103333333","24.9600316666667","6500600","新店區"
"231063","641-BX","2018/05/28 21:28:43","新北市新店區吉祥街2巷2號","121.497278333333","24.9475766666667","6500600","新店區"
"241011","013-R5","2018/05/28 21:28:56","新北市三重區龍濱路269號","121.501288333333","25.073135","6500200","三重區"
"241017","063-VK","2018/05/28 21:28:55","新北市三重區中正北路25巷2號","121.493186666667","25.06273","6500200","三重區"
"241024","065-VK","2018/05/28 21:28:53","新北市三重區中正北路115巷6號","121.484076666667","25.06769","6500200","三重區"
"241026","066-VK","2018/05/28 21:28:50","新北市三重區集美街257號","121.492413333333","25.05571","6500200","三重區"
"241003","091-VK","2018/05/28 21:28:47","新北市三重區進安街196號","121.493845","25.0861383333333","6500200","三重區"
"241005","262-UM","2018/05/28 21:29:04","新北市三重區仁華街85號","121.485818333333","25.0829933333333","6500200","三重區"
"241016","266-UM","2018/05/28 21:28:51","新北市三重區中正北路23號","121.492341666667","25.0618616666667","6500200","三重區"
"241018","268-UM","2018/05/28 21:28:55","新北市五股區成泰路四段22巷10-2號","121.454255","25.1046883333333","6500200","三重區"
"241007","398-BY","2018/05/28 21:28:56","新北市三重區正義北路113號","121.496903333333","25.0657566666667","6500200","三重區"
"241001","547-UM","2018/05/28 21:28:46","新北市三重區五華街141巷60號","121.493608333333","25.0867516666667","6500200","三重區"
"241033","AAC-255","2018/05/28 21:28:52","新北市三重區中興北街193-2號","121.469618333333","25.0571966666667","6500200","三重區"
"247024","893-R6","2018/05/28 21:29:00","新北市五股區凌雲路三段24巷10號","121.435876666667","25.1070666666667","6501400","蘆洲區"
"247022","500-BY","2018/05/28 21:28:46","新北市蘆洲區環堤大道202號","121.456905","25.09112","6501400","蘆洲區"
"247010","341-TH","2018/05/28 21:28:58","新北市蘆洲區中山二路46巷13號","121.474276666667","25.08227","6501400","蘆洲區"
"247012","339-TH","2018/05/28 21:28:43","新北市蘆洲區復興路323巷166-1號","121.4784","25.0964483333333","6501400","蘆洲區"
"247006","336-TH","2018/05/28 21:28:44","新北市蘆洲區長榮路68號","121.46247","25.0835316666667","6501400","蘆洲區"
"251009","008-UM","2018/05/28 21:28:42","新北市淡水區民族路65巷60號","121.463455","25.135905","6501000","淡水區"
"251004","009-UM","2018/05/28 21:28:48","新北市淡水區民權路119號","121.46013","25.1369916666667","6501000","淡水區"
"251005","010-UM","2018/05/28 21:28:57","新北市淡水區水源街一段34巷9號","121.44327","25.1718066666667","6501000","淡水區"
"251001","011-UM","2018/05/28 21:28:48","新北市淡水區新市二路三段18號","121.432745","25.1937133333333","6501000","淡水區"
"251013","KEA-2871","2018/05/28 21:29:03","新北市淡水區埤島61-5號","121.459793333333","25.1953433333333","6501000","淡水區"
"251016","179-VK","2018/05/28 21:28:53","新北市淡水區前洲子28號","121.44113","25.2192283333333","6501000","淡水區"
"251014","180-VK","2018/05/28 21:28:59","新北市淡水區六塊厝2-1號","121.450136666667","25.2404833333333","6501000","淡水區"
"251008","181-VK","2018/05/28 21:28:47","新北市淡水區水源街二段126號","121.45323","25.1747183333333","6501000","淡水區"
"251015","182-VK","2018/05/28 21:28:57","新北市淡水區淡金路三段2-2號","121.446973333333","25.1980433333333","6501000","淡水區"
"251010","413-VK","2018/05/28 21:28:48","新北市淡水區沙崙路25巷21號","121.42056","25.1824966666667","6501000","淡水區"
"251007","442-VK","2018/05/28 21:28:53","新北市淡水區淡金路一段69號","121.458196666667","25.17345","6501000","淡水區"
"251012","443-VK","2018/05/28 21:28:51","新北市淡水區淡金路五段35巷46號","121.452491666667","25.2347666666667","6501000","淡水區"
"251006","561-UM","2018/05/28 21:28:58","新北市淡水區公明街41號","121.443225","25.1688833333333","6501000","淡水區"
"251011","650-BX","2018/05/28 21:28:56","新北市淡水區新民街164號","121.437031666667","25.1783483333333","6501000","淡水區"
"251003","766-UM","2018/05/28 21:28:56","新北市淡水區崁頂15-5號","121.438996666667","25.1858433333333","6501000","淡水區"
"220064","486-VK","2018/05/28 21:28:57","新北市板橋區華東街1-10號","121.448416666667","24.9949866666667","6500100","板橋區"
"220070","AAC-253","2018/05/28 21:28:48","新北市五股區成泰路三段320號","121.450335","25.0969116666667","6500100","板橋區"
