"lineid","car","time","location","longitude","latitude","cityid","cityname"
"241018","268-UM","2018/05/28 22:28:34","新北市五股區中興路三段2巷10號","121.449085","25.08113","6500200","三重區"
"251004","009-UM","2018/05/28 22:28:47","新北市淡水區民族路33號","121.462315","25.1358","6501000","淡水區"
"251008","181-VK","2018/05/28 22:28:41","新北市淡水區學府路104號","121.449871666667","25.17177","6501000","淡水區"
"251010","413-VK","2018/05/28 22:28:48","新北市淡水區沙崙路200號","121.424691666667","25.183925","6501000","淡水區"
"251007","442-VK","2018/05/28 22:28:33","新北市淡水區北新路180號","121.449358333333","25.1787916666667","6501000","淡水區"
"251011","650-BX","2018/05/28 22:28:48","新北市淡水區水碓街7號","121.443193333333","25.17716","6501000","淡水區"
