"lineid","car","time","location","longitude","latitude","cityid","cityname"
"248005","653-BX","2018/05/29 06:59:21","新北市五股區中興路二段83巷26-6號","121.45978","25.0752116666667","6501500","五股區"
"232002","290-BY","2018/05/29 06:59:34","新北市坪林區下坑子口15-1號","121.716196666667","24.9494333333333","6502000","坪林區"
"232013","291-BY","2018/05/29 06:59:31","新北市坪林區灣潭7-6號","121.67852","24.9342083333333","6502000","坪林區"
"232006","758-BX","2018/05/29 06:59:20","新北市坪林區北宜路九段70號","121.733746666667","24.89531","6502000","坪林區"
"244002","248-BX","2018/05/29 06:59:20","新北市林口區民族路180-1號","121.367781666667","25.0768366666667","6501700","林口區"
"222004","289-BY","2018/05/29 06:59:34","新北市深坑區深坑街69號","121.614938333333","25.0012016666667","6501800","深坑區"
"235043","352-BY","2018/05/29 06:59:27","新北市中和區和平街29-1號","121.5075","24.9910233333333","6500300","中和區"
"235001","611-BX","2018/05/29 06:59:32","新北市中和區圓通路367巷4號","121.491383333333","24.9893166666667","6500300","中和區"
"223006","022-BY","2018/05/29 06:59:17","新北市石碇區碇坪路一段208號","121.671466666667","24.9820766666667","6501900","石碇區"
"223001","205-TH","2018/05/29 06:55:23","新北市石碇區石碇東街143號","121.658951666667","24.9890733333333","6501900","石碇區"
"223001","592-UM","2018/05/29 06:59:18","新北市石碇區石崁33號","121.658876666667","24.9917183333333","6501900","石碇區"
"223004","660-BX","2018/05/29 06:59:20","新北市石碇區碇坪路一段62號","121.657221666667","24.9915933333333","6501900","石碇區"
"223007","661-BX","2018/05/29 06:59:23","新北市石碇區十八重溪16-2號","121.677271666667","25.0113066666667","6501900","石碇區"
"223005","677-TV","2018/05/29 06:59:31","新北市石碇區碇坪路一段66號","121.657221666667","24.99153","6501900","石碇區"
"227006","282-VK","2018/05/29 06:59:32","新北市雙溪區新基里自強路5號","121.8663","25.0390333333333","6502500","雙溪區"
"252005","073-UM","2018/05/29 06:59:11","新北市三芝區中山路二段50號","121.503153333333","25.2542466666667","6502100","三芝區"
"252004","249-BX","2018/05/29 06:59:33","新北市三芝區埔坪里埔頭坑41號","121.504736666667","25.26412","6502100","三芝區"
"252007","AAC-283","2018/05/29 06:59:34","新北市三芝區埔坪里埔頭坑107號","121.504598333333","25.26173","6502100","三芝區"
"236008","165-UM","2018/05/29 06:59:20","新北市土城區永平街51號","121.42798","24.9591483333333","6501300","土城區"
