"lineid","car","time","location","longitude","latitude","cityid","cityname"
"248005","653-BX","2018/05/29 07:37:25","新北市五股區明德路10號","121.433396666667","25.0717366666667","6501500","五股區"
"244002","248-BX","2018/05/29 07:49:22","新北市林口區下福里10-1號","121.313006666667","25.1118533333333","6501700","林口區"
"222004","289-BY","2018/05/29 07:49:28","新北市深坑區文化街45號","121.616936666667","25.0016966666667","6501800","深坑區"
"231007","189-VK","2018/05/29 07:49:25","新北市新店區安一路一段1-1號","121.519768333333","24.961145","6500600","新店區"
"231009","192-VK","2018/05/29 07:49:29","新北市新店區安一路一段1-1號","121.519261666667","24.9613183333333","6500600","新店區"
"235043","352-BY","2018/05/29 07:49:27","新北市中和區和平街29-1號","121.507578333333","24.9910216666667","6500300","中和區"
"235001","611-BX","2018/05/29 07:49:32","新北市中和區圓通路367巷6號","121.491498333333","24.9891983333333","6500300","中和區"
"226005","5620-A6","2018/05/29 07:49:27","新北市平溪區靜安路二段440號","121.740028333333","25.0249566666667","6502400","平溪區"
"226002","7418-A5","2018/05/29 07:49:24","新北市平溪區平湖里坑頭3號","121.783015","25.0261516666667","6502400","平溪區"
"226006","AGD-0702","2018/05/29 07:49:34","新北市平溪區新寮里頂寮子4號","121.773831666667","25.0518","6502400","平溪區"
"223006","022-BY","2018/05/29 07:49:37","新北市坪林區北宜路八段558號","121.71734","24.9094783333333","6501900","石碇區"
"223001","205-TH","2018/05/29 07:49:20","新北市石碇區樟空子10號","121.665843333333","24.9626633333333","6501900","石碇區"
"223001","592-UM","2018/05/29 07:49:18","新北市石碇區四分子6-7號","121.662663333333","24.9621633333333","6501900","石碇區"
"223004","660-BX","2018/05/29 07:49:20","新北市石碇區楓子林36-3號","121.642336666667","25.0095266666667","6501900","石碇區"
"223007","661-BX","2018/05/29 07:31:51","新北市石碇區靜安路一段337號","121.698891666667","25.0146083333333","6501900","石碇區"
"223005","677-TV","2018/05/29 07:49:30","新北市石碇區楓子林30號","121.64231","25.0096183333333","6501900","石碇區"
"227006","282-VK","2018/05/29 07:49:32","新北市雙溪區雙溪里太平路43號","121.864765","25.035565","6502500","雙溪區"
"252005","073-UM","2018/05/29 07:49:30","新北市三芝區中正路二段48-1號","121.503198333333","25.2544133333333","6502100","三芝區"
"252004","249-BX","2018/05/29 07:49:33","新北市三芝區興華里車埕36-8號","121.505766666667","25.1930333333333","6502100","三芝區"
"252007","AAC-283","2018/05/29 07:49:33","新北市三芝區海景一街47號","121.475343333333","25.24668","6502100","三芝區"
"237001","159-UY","2018/05/29 07:49:30","新北市三峽區學成路250號","121.374813333333","24.9419816666667","6500900","三峽區"
"236008","165-UM","2018/05/29 07:49:20","新北市土城區清水路306號","121.462821666667","24.98399","6501300","土城區"
"236002","339-SR","2018/05/29 07:49:29","新北市土城區龍泉路89-1號","121.44634","24.9422233333333","6501300","土城區"
