"lineid","car","time","location","longitude","latitude","cityid","cityname"
"248005","653-BX","2018/06/21 10:29:27","新北市五股區中興路二段37巷24號","121.460695","25.0749616666667","6501500","五股區"
"244022","483-VK","2018/06/21 10:29:26","新北市林口區文化北路二段234號","121.372875","25.0855116666667","6501700","林口區"
"222006","289-BY","2018/06/21 10:29:23","新北市深坑區阿柔洋35-1號","121.613193333333","24.9976333333333","6501800","深坑區"
"231069","189-VK","2018/06/21 10:29:27","新北市新店區小坑三路51-2號","121.516895","24.9085183333333","6500600","新店區"
"231008","192-VK","2018/06/21 10:29:14","新北市新店區小坑一路71號","121.53065","24.9104166666667","6500600","新店區"
"252007","AAC-283","2018/06/21 10:29:21","新北市三芝區新庄里番社后4-2號","121.501361666667","25.267845","6502100","三芝區"
"237001","159-UY","2018/06/21 10:29:19","新北市三峽區隆恩街245號","121.357715","24.94086","6500900","三峽區"
"242035","415-TV","2018/06/21 10:29:30","新北市樹林區八德街395號","121.415636666667","24.9717666666667","6500500","新莊區"
