"lineid","car","time","location","longitude","latitude","cityid","cityname"
"244019","403-UM","2018/06/21 12:03:27","新北市林口區粉寮69號","121.405093333333","25.0908","6501700","林口區"
"243008","380-SR","2018/06/21 12:03:50","新北市泰山區黎明路25號","121.42239","25.0614916666667","6501600","泰山區"
"231008","192-VK","2018/06/21 12:09:34","","121.54544","24.9303116666667","6500600","新店區"
"235031","255-BX","2018/06/21 11:59:20","新北市中和區和城路一段271巷1號","121.485715","24.991745","6500300","中和區"
"228005","097-TW","2018/06/21 12:09:30","新北市貢寮區福隆里興隆街36號","121.941746666667","25.016905","6502600","貢寮區"
"228004","212-TW","2018/06/21 12:09:24","","121.9079","25.0188716666667","6502600","貢寮區"
