"lineid","car","time","location","longitude","latitude","cityid","cityname"
"234044","148-BY","2018/06/21 13:09:28","新北市永和區永元路18巷17號","121.523405","25.000225","6500400","永和區"
"234005","207-UY","2018/06/21 13:09:29","新北市永和區中山路一段145號","121.510248333333","25.0096733333333","6500400","永和區"
"234078","298-R6","2018/06/21 13:09:25","新北市永和區永貞路39巷13號","121.522371666667","25.0063633333333","6500400","永和區"
"234036","336-UY","2018/06/21 13:09:34","新北市永和區民樂街92巷2號","121.527331666667","24.9973316666667","6500400","永和區"
"234062","337-UY","2018/06/21 13:09:29","新北市永和區秀朗路二段17號","121.521005","25.002655","6500400","永和區"
"234084","338-UY","2018/06/21 13:09:20","新北市永和區永貞路142號","121.518166666667","25.0044183333333","6500400","永和區"
"234068","552-UM","2018/06/21 13:09:23","新北市永和區豫溪街137巷1弄22號","121.518485","25.01043","6500400","永和區"
"234015","745-BX","2018/06/21 13:09:27","新北市永和區文化路90巷9弄2號","121.513808333333","25.0158233333333","6500400","永和區"
"234028","746-BX","2018/06/21 13:09:24","新北市永和區民生路21號","121.522811666667","24.9988833333333","6500400","永和區"
"234052","KEA-2590","2018/06/21 13:09:30","新北市永和區竹林路72巷8號","121.518743333333","25.01282","6500400","永和區"
"234012","KEA-2591","2018/06/21 13:09:36","新北市永和區保福路二段14-1號","121.510966666667","25.0113333333333","6500400","永和區"
"234060","AAD-866","2018/06/21 13:09:27","新北市永和區自由街33號","121.514401666667","25.0061633333333","6500400","永和區"
"234040","862-TW","2018/06/21 13:09:34","新北市永和區保平路109號","121.511055","25.0066316666667","6500400","永和區"
"234048","863-TW","2018/06/21 13:09:20","新北市永和區文化路135巷26弄2號","121.510608333333","25.01452","6500400","永和區"
"234025","9371-KE","2018/06/21 13:09:22","新北市永和區秀朗路一段10巷21號","121.513315","25.0063266666667","6500400","永和區"
"234010","9373-KE","2018/06/21 13:09:24","新北市永和區仁愛路31巷2弄15號","121.513475","25.01289","6500400","永和區"
"248013","025-BX","2018/06/21 13:09:22","新北市五股區中興路四段49號","121.438178333333","25.0828633333333","6501500","五股區"
"248015","026-BX","2018/06/21 13:09:31","新北市五股區新城一路12號","121.441416666667","25.08335","6501500","五股區"
"248005","077-UY","2018/06/21 13:09:17","新北市五股區中興路二段94號","121.460438333333","25.07746","6501500","五股區"
"248007","095-VK","2018/06/21 13:09:20","新北市五股區中興路二段182巷16號","121.456566666667","25.0808366666667","6501500","五股區"
"248017","225-UY","2018/06/21 13:09:25","新北市五股區西雲路2號","121.442535","25.0898316666667","6501500","五股區"
"248011","247-BX","2018/06/21 13:09:30","新北市五股區中興路三段196號","121.442226666667","25.081815","6501500","五股區"
"248009","272-BY","2018/06/21 13:09:20","新北市五股區成泰路一段219-19號","121.43449","25.0776583333333","6501500","五股區"
"248003","677-BX","2018/06/21 13:09:31","新北市五股區工商路42號","121.439215","25.0838816666667","6501500","五股區"
"248001","678-BX","2018/06/21 13:09:26","新北市五股區新五路二段258號","121.440835","25.08226","6501500","五股區"
"234022","9380-KE","2018/06/21 13:09:32","新北市永和區中興街10巷40號","121.515836666667","25.0111583333333","6500400","永和區"
"234076","969-R7","2018/06/21 13:09:31","新北市永和區民光街11號","121.515503333333","24.9962133333333","6500400","永和區"
"234072","AAC-211","2018/06/21 13:09:25","新北市永和區竹林路150號","121.520118333333","25.0108033333333","6500400","永和區"
"234066","AAC-212","2018/06/21 13:09:28","新北市永和區永和路一段63號","121.51315","25.0070416666667","6500400","永和區"
"234001","AAC-295","2018/06/21 13:09:36","新北市永和區中山路一段9號","121.513991666667","25.0104766666667","6500400","永和區"
"244003","248-BX","2018/06/21 13:09:39","新北市林口區頂福里34號","121.35491","25.0997583333333","6501700","林口區"
"243005","AAD-798","2018/06/21 13:09:19","新北市泰山區南林路99巷23號","121.418845","25.0503","6501600","泰山區"
"231002","002-UM","2018/06/21 13:09:29","新北市新店區安華路28-1號","121.51979","24.9607966666667","6500600","新店區"
"231027","0293-UT","2018/06/21 13:09:36","新北市新店區安華路28-1號","121.519595","24.9606","6500600","新店區"
"231028","046-UY","2018/06/21 13:09:29","新北市新店區安華路28-1號","121.51959","24.9607183333333","6500600","新店區"
"231001","047-UY","2018/06/21 13:09:30","新北市新店區安一路一段1-1號","121.519075","24.9609633333333","6500600","新店區"
"231005","106-UY","2018/06/21 13:09:25","新北市新店區安華路28-1號","121.519618333333","24.9607666666667","6500600","新店區"
"231021","108-UY","2018/06/21 13:09:33","新北市新店區安一路一段1-1號","121.51958","24.96137","6500600","新店區"
"231011","187-VK","2018/06/21 13:09:27","新北市新店區安一路一段1-1號","121.519763333333","24.9610816666667","6500600","新店區"
"231010","188-VK","2018/06/21 13:09:40","新北市新店區安一路一段1-1號","121.519215","24.9613466666667","6500600","新店區"
"231023","KEA-2219","2018/06/21 13:09:21","新北市新店區安一路一段1-1號","121.519843333333","24.9612483333333","6500600","新店區"
"231003","268-BY","2018/06/21 13:09:32","新北市新店區安華路28-1號","121.51937","24.960635","6500600","新店區"
"231017","AAD-862","2018/06/21 13:09:20","新北市新店區安一路一段1-1號","121.519921666667","24.96111","6500600","新店區"
"231037","4716-K9","2018/06/21 13:09:22","新北市新店區安一路一段1-1號","121.519205","24.9611566666667","6500600","新店區"
"231025","4715-K9","2018/06/21 13:09:20","新北市新店區安華路1-1號","121.51922","24.96037","6500600","新店區"
"231013","513-UM","2018/06/21 13:09:30","新北市新店區安華路28-1號","121.51971","24.9610416666667","6500600","新店區"
"231034","616-UM","2018/06/21 13:09:24","新北市新店區安華路1-1號","121.519516666667","24.9604066666667","6500600","新店區"
"231030","619-UM","2018/06/21 13:09:24","新北市新店區安華路28-1號","121.51969","24.9610216666667","6500600","新店區"
"231064","719-UM","2018/06/21 13:09:28","新北市新店區安一路一段1-1號","121.519715","24.9612716666667","6500600","新店區"
"231031","720-UM","2018/06/21 13:09:17","新北市新店區安一路一段1-1號","121.519141666667","24.9611533333333","6500600","新店區"
"231029","897-TW","2018/06/21 13:09:38","新北市新店區安華路28-1號","121.519721666667","24.9606683333333","6500600","新店區"
"231006","898-TW","2018/06/21 13:09:33","新北市新店區安華路28-1號","121.519378333333","24.9608716666667","6500600","新店區"
"231004","899-TW","2018/06/21 13:09:39","新北市新店區安華路28-1號","121.519011666667","24.9609","6500600","新店區"
"231024","AKT-0513","2018/06/21 13:09:34","新北市新店區安華路1-1號","121.519358333333","24.9605","6500600","新店區"
"235028","005-UY","2018/06/21 13:09:25","新北市中和區中正路277-6號","121.495093333333","24.99384","6500300","中和區"
"235003","097-UM","2018/06/21 13:09:25","新北市中和區和城路一段271巷1號","121.485498333333","24.992","6500300","中和區"
"235029","098-UM","2018/06/21 13:09:20","新北市中和區莊敬路49巷20弄20號","121.50263","25.0057866666667","6500300","中和區"
"235004","150-BY","2018/06/21 13:09:30","新北市中和區中正路501號","121.488875","24.9935416666667","6500300","中和區"
"235022","151-BY","2018/06/21 13:09:38","新北市中和區圓通路367巷33弄15號","121.495115","24.98521","6500300","中和區"
"235002","185-VK","2018/06/21 13:09:36","新北市中和區立人街3號","121.52186","24.9939633333333","6500300","中和區"
"235031","255-BX","2018/06/21 13:09:26","新北市中和區中正路851號","121.484658333333","25.0028483333333","6500300","中和區"
"235036","301-VK","2018/06/21 13:09:36","新北市中和區和城路一段271巷1號","121.485405","24.9917983333333","6500300","中和區"
"235007","352-BY","2018/06/21 13:09:40","新北市中和區員山路36巷16-8號","121.485398333333","24.9922116666667","6500300","中和區"
"235006","KEA-2878","2018/06/21 13:09:33","新北市中和區中正路269號","121.495888333333","24.9935033333333","6500300","中和區"
"235034","558-UM","2018/06/21 13:09:22","新北市中和區圓通路223號","121.49652","24.994325","6500300","中和區"
"235018","640-BX","2018/06/21 13:09:36","新北市土城區延壽路118-6號","121.469068333333","24.9946983333333","6500300","中和區"
"235011","732-UM","2018/06/21 13:09:18","新北市中和區中正路275號","121.495418333333","24.993765","6500300","中和區"
"235035","783-BX","2018/06/21 13:09:38","新北市中和區立德街211號","121.484081666667","25.00951","6500300","中和區"
"235026","800-TS","2018/06/21 13:09:28","新北市中和區錦和路55號","121.488685","24.99916","6500300","中和區"
"235005","802-TS","2018/06/21 13:09:22","新北市中和區中正路507號","121.488531666667","24.99353","6500300","中和區"
"235016","805-TS","2018/06/21 13:09:20","新北市中和區南山路533號","121.507943333333","24.9869683333333","6500300","中和區"
"235017","900-TW","2018/06/21 13:09:22","新北市中和區員山路36巷16-3號","121.484991666667","24.9916716666667","6500300","中和區"
"235030","911-UM","2018/06/21 13:09:24","新北市中和區枋寮街2號","121.502458333333","24.9998066666667","6500300","中和區"
"235015","157-BY","2018/06/21 13:09:26","新北市中和區板南路100號","121.503843333333","24.9923783333333","6500300","中和區"
"235001","AAC-213","2018/06/21 13:09:21","新北市中和區景平路149號","121.51394","24.9921183333333","6500300","中和區"
"228005","097-TW","2018/06/21 13:09:29","新北市貢寮區仁理村研海街62-2號","121.925733333333","25.0440983333333","6502600","貢寮區"
"228004","212-TW","2018/06/21 13:09:24","新北市貢寮區吉林里內寮街71號","121.891473333333","24.9730916666667","6502600","貢寮區"
"253003","6232-TK","2018/06/21 13:09:34","新北市石門區石崩山27-2號","121.56504","25.279825","6502200","石門區"
"253001","6251-TK","2018/06/21 13:09:32","新北市石門區老梅路43號","121.545305","25.289615","6502200","石門區"
"253002","637-UY","2018/06/21 13:09:22","新北市石門區九芎林3-1號","121.556963333333","25.27366","6502200","石門區"
"253004","8270-PC","2018/06/21 13:09:23","新北市石門區阿里荖33-1號","121.606625","25.2808316666667","6502200","石門區"
"207002","749-BX","2018/06/21 13:09:22","新北市萬里區崁腳里崁腳路93號","121.64758","25.1589716666667","6502800","萬里區"
"252005","073-UM","2018/06/21 13:09:36","新北市三芝區八賢里八連溪25號","121.511763333333","25.2392216666667","6502100","三芝區"
"207001","662-BX","2018/06/21 13:09:21","新北市萬里區萬里里獅頭路22-1號","121.69306","25.178275","6502800","萬里區"
"236005","498-BY","2018/06/21 13:09:24","新北市土城區亞洲路60號","121.435273333333","24.97352","6501300","土城區"
"221032","280-BY","2018/06/21 13:09:35","新北市汐止區大同路二段377號","121.657453333333","25.067255","6501100","汐止區"
"235032","KEA-2873","2018/06/21 13:09:18","新北市中和區員山路36巷16-3號","121.485063333333","24.991375","6500300","中和區"
"235025","KEA-2875","2018/06/21 13:09:13","新北市中和區連城路607號","121.478498333333","24.99312","6500300","中和區"
