"lineid","car","time","location","longitude","latitude","cityid","cityname"
"234044","148-BY","2018/06/21 13:19:28","新北市永和區得和路373巷3-1號","121.524733333333","24.999665","6500400","永和區"
"234005","207-UY","2018/06/21 13:19:29","新北市永和區保平路268巷51弄14號","121.506258333333","25.006305","6500400","永和區"
"234078","298-R6","2018/06/21 13:19:25","新北市永和區福和路38號","121.523841666667","25.008325","6500400","永和區"
"234036","336-UY","2018/06/21 13:19:34","新北市永和區民樂街59巷1-1號","121.527733333333","24.99831","6500400","永和區"
"234062","337-UY","2018/06/21 13:19:29","新北市永和區永元路17巷6弄2號","121.52141","25.0006466666667","6500400","永和區"
"234084","338-UY","2018/06/21 13:19:40","新北市永和區永利路4巷29號","121.517741666667","25.0048116666667","6500400","永和區"
"234068","552-UM","2018/06/21 13:19:23","新北市永和區豫溪街55號","121.5172","25.0098966666667","6500400","永和區"
"234015","745-BX","2018/06/21 13:19:37","新北市永和區文化路144巷31弄12號","121.512228333333","25.0168316666667","6500400","永和區"
"234028","746-BX","2018/06/21 13:19:24","新北市永和區厚德街91號","121.523903333333","24.99881","6500400","永和區"
"234052","KEA-2590","2018/06/21 13:19:27","新北市永和區中興街51號","121.516585","25.0116933333333","6500400","永和區"
"234012","KEA-2591","2018/06/21 13:19:26","新北市永和區信義路67巷1號","121.512715","25.0126966666667","6500400","永和區"
"234060","AAD-866","2018/06/21 13:19:27","新北市永和區秀朗路一段175號","121.517043333333","25.0036766666667","6500400","永和區"
"234040","862-TW","2018/06/21 13:19:34","新北市永和區保平路177巷6弄10號","121.509425","25.0045583333333","6500400","永和區"
"234048","863-TW","2018/06/21 13:19:20","新北市永和區保福路二段88巷7號","121.510925","25.0135166666667","6500400","永和區"
"234025","9371-KE","2018/06/21 13:19:22","新北市永和區豫溪街28巷22號","121.515008333333","25.0089666666667","6500400","永和區"
"234010","9373-KE","2018/06/21 13:19:24","新北市永和區文化路126巷15弄2號","121.513073333333","25.0158533333333","6500400","永和區"
"248013","025-BX","2018/06/21 13:19:22","新北市五股區自強路19巷5-1號","121.434606666667","25.073915","6501500","五股區"
"248015","026-BX","2018/06/21 13:19:31","新北市五股區成泰路三段477巷18號","121.4499","25.0988883333333","6501500","五股區"
"248005","077-UY","2018/06/21 13:19:37","新北市五股區中興路一段181號","121.464395","25.0738333333333","6501500","五股區"
"248007","095-VK","2018/06/21 13:19:20","新北市五股區更洲路32巷8弄14號","121.459248333333","25.0796316666667","6501500","五股區"
"248017","225-UY","2018/06/21 13:19:25","新北市五股區御史路136-1號","121.433775","25.0987433333333","6501500","五股區"
"248011","247-BX","2018/06/21 13:19:30","新北市五股區御史路1巷101弄2號","121.440995","25.091235","6501500","五股區"
"248009","272-BY","2018/06/21 13:19:20","新北市五股區成泰路一段139巷2弄2號","121.435071666667","25.0729616666667","6501500","五股區"
"248003","677-BX","2018/06/21 13:19:32","新北市五股區成泰路二段101號","121.438293333333","25.0842533333333","6501500","五股區"
"248001","678-BX","2018/06/21 13:19:29","新北市五股區西雲路66號","121.443593333333","25.0913066666667","6501500","五股區"
"234022","9380-KE","2018/06/21 13:19:32","新北市永和區竹林路111號","121.519805","25.0118133333333","6500400","永和區"
"234076","969-R7","2018/06/21 13:19:31","新北市永和區民有街69號","121.517841666667","24.995685","6500400","永和區"
"234072","AAC-211","2018/06/21 13:19:25","新北市永和區竹林路30號","121.517145","25.01469","6500400","永和區"
"234066","AAC-212","2018/06/21 13:19:33","新北市永和區保平路30巷12號","121.511683333333","25.007635","6500400","永和區"
"234001","AAC-295","2018/06/21 13:19:36","新北市永和區中山路一段102號","121.511156666667","25.010555","6500400","永和區"
"244003","248-BX","2018/06/21 13:18:39","新北市林口區寶斗厝坑89-2號","121.334011666667","25.1200183333333","6501700","林口區"
"243005","AAD-798","2018/06/21 13:18:39","新北市泰山區錢厝坑13號","121.41648","25.038","6501600","泰山區"
"231002","002-UM","2018/06/21 13:19:29","新北市新店區安華路28-1號","121.51976","24.96079","6500600","新店區"
"231027","0293-UT","2018/06/21 13:19:37","新北市新店區環河路15-1號","121.537768333333","24.9613616666667","6500600","新店區"
"231028","046-UY","2018/06/21 13:19:29","新北市新店區安華路28-1號","121.519558333333","24.9607266666667","6500600","新店區"
"231001","047-UY","2018/06/21 13:19:30","新北市新店區安華路28-1號","121.51929","24.9608633333333","6500600","新店區"
"231005","106-UY","2018/06/21 13:19:25","新北市新店區安華路28-1號","121.519616666667","24.960745","6500600","新店區"
"231021","108-UY","2018/06/21 13:19:33","新北市新店區安一路一段1-1號","121.51954","24.9612833333333","6500600","新店區"
"231011","187-VK","2018/06/21 13:19:27","新北市新店區安康路一段355號","121.519836666667","24.9632033333333","6500600","新店區"
"231010","188-VK","2018/06/21 13:19:19","新北市新店區安康路一段231號","121.525363333333","24.9631583333333","6500600","新店區"
"231023","KEA-2219","2018/06/21 13:19:21","新北市新店區安康路一段194號","121.524593333333","24.9633616666667","6500600","新店區"
"231026","256-BX","2018/06/21 13:19:34","新北市新店區安一路一段1-1號","121.519693333333","24.9611116666667","6500600","新店區"
"231003","268-BY","2018/06/21 13:19:32","新北市新店區安華路28-1號","121.519393333333","24.9606316666667","6500600","新店區"
"231018","278-BY","2018/06/21 13:19:24","新北市新店區中央路183-3號","121.536265","24.9686966666667","6500600","新店區"
"231017","AAD-862","2018/06/21 13:19:20","新北市新店區安康路一段235號","121.525258333333","24.963205","6500600","新店區"
"231038","3712-VJ","2018/06/21 13:19:23","新北市新店區安華路28-1號","121.519218333333","24.960625","6500600","新店區"
"231037","4716-K9","2018/06/21 13:19:22","新北市新店區安華路28-1號","121.51965","24.960995","6500600","新店區"
"231025","4715-K9","2018/06/21 13:19:20","新北市新店區中央五街7號","121.530021666667","24.9741616666667","6500600","新店區"
"231036","512-UM","2018/06/21 13:19:21","新北市新店區安豐路3號","121.501903333333","24.9573716666667","6500600","新店區"
"231013","513-UM","2018/06/21 13:19:30","新北市新店區安一路一段1-1號","121.519681666667","24.9610633333333","6500600","新店區"
"231034","616-UM","2018/06/21 13:19:24","新北市新店區安華路1-1號","121.51949","24.9603466666667","6500600","新店區"
"231030","619-UM","2018/06/21 13:19:24","新北市新店區安華路28-1號","121.519596666667","24.9610083333333","6500600","新店區"
"231035","719-UM","2018/06/21 13:19:28","新北市新店區安華路28-1號","121.519576666667","24.9608833333333","6500600","新店區"
"231031","720-UM","2018/06/21 13:19:38","新北市新店區安一路一段1-1號","121.51916","24.961115","6500600","新店區"
"231029","897-TW","2018/06/21 13:19:18","新北市新店區安華路28-1號","121.519678333333","24.9606183333333","6500600","新店區"
"231006","898-TW","2018/06/21 13:19:33","新北市新店區安華路28-1號","121.519343333333","24.9609366666667","6500600","新店區"
"231004","899-TW","2018/06/21 13:19:19","新北市新店區安一路一段1-1號","121.51895","24.960945","6500600","新店區"
"231024","AKT-0513","2018/06/21 13:19:34","新北市新店區環河路8號","121.538183333333","24.9616833333333","6500600","新店區"
"235028","005-UY","2018/06/21 13:19:25","新北市中和區中正路218-2號","121.496365","24.99404","6500300","中和區"
"235027","006-UY","2018/06/21 13:19:33","新北市中和區中正路503號","121.488708333333","24.9939716666667","6500300","中和區"
"235003","097-UM","2018/06/21 13:19:25","新北市中和區安平路38號","121.509908333333","24.9951133333333","6500300","中和區"
"235029","098-UM","2018/06/21 13:19:41","新北市中和區莊敬路49巷20弄18號","121.50259","25.005755","6500300","中和區"
"235004","150-BY","2018/06/21 13:19:30","新北市中和區保健路50巷66號","121.509291666667","24.99517","6500300","中和區"
"235022","151-BY","2018/06/21 13:19:29","新北市中和區圓通路367巷15-1號","121.492193333333","24.9874166666667","6500300","中和區"
"235019","183-VK","2018/06/21 13:19:25","新北市中和區中正路637巷52弄1號","121.485421666667","24.9933983333333","6500300","中和區"
"235002","185-VK","2018/06/21 13:19:36","新北市中和區大智街42巷12號","121.522233333333","24.9919583333333","6500300","中和區"
"235013","186-VK","2018/06/21 13:19:35","新北市中和區和城路一段271巷1號","121.485395","24.9918466666667","6500300","中和區"
"235031","255-BX","2018/06/21 13:19:26","新北市中和區民樂路81號","121.484585","25.001285","6500300","中和區"
"235036","301-VK","2018/06/21 13:19:36","新北市中和區連城路265巷1號","121.491388333333","24.99631","6500300","中和區"
"235007","352-BY","2018/06/21 13:19:19","新北市中和區景平路381號","121.50398","24.9934066666667","6500300","中和區"
"235006","KEA-2878","2018/06/21 13:19:33","新北市中和區景平路298號","121.51276","24.9925066666667","6500300","中和區"
"235014","4979-A6","2018/06/21 13:19:31","新北市中和區捷運路61巷2號","121.508735","24.989695","6500300","中和區"
"235033","4980-A6","2018/06/21 13:19:23","新北市中和區連城路261-2號","121.492468333333","24.9966716666667","6500300","中和區"
"235034","558-UM","2018/06/21 13:19:22","新北市中和區圓通路78號","121.500048333333","24.9970433333333","6500300","中和區"
"235009","565-BX","2018/06/21 13:19:22","新北市中和區景安路202號","121.504116666667","24.9911083333333","6500300","中和區"
"235018","640-BX","2018/06/21 13:19:36","新北市中和區國光街6巷2號","121.47213","25.0002566666667","6500300","中和區"
"235011","732-UM","2018/06/21 13:19:38","新北市中和區南山路300號","121.507856666667","24.9871166666667","6500300","中和區"
"235035","783-BX","2018/06/21 13:19:18","新北市中和區中板路18巷1弄2號","121.483961666667","25.01227","6500300","中和區"
"235026","800-TS","2018/06/21 13:19:28","新北市中和區景平路999巷2號","121.495431666667","25.0060233333333","6500300","中和區"
"235005","802-TS","2018/06/21 13:19:22","新北市中和區中和路260-1號","121.50816","24.999365","6500300","中和區"
"235016","805-TS","2018/06/21 13:19:20","新北市中和區興南路二段96號","121.505013333333","24.9840216666667","6500300","中和區"
"235017","900-TW","2018/06/21 13:19:22","新北市中和區員山路36巷16-3號","121.48499","24.9917516666667","6500300","中和區"
"235030","911-UM","2018/06/21 13:19:24","新北市中和區中山路二段64巷14弄1號","121.503435","25.00557","6500300","中和區"
"235015","157-BY","2018/06/21 13:19:26","新北市中和區忠孝街39-13號","121.512098333333","24.9844366666667","6500300","中和區"
"235001","AAC-213","2018/06/21 13:19:36","新北市中和區景德街78號","121.516581666667","24.9914816666667","6500300","中和區"
"235023","AAC-215","2018/06/21 13:19:35","新北市中和區員山路36巷16-3號","121.484886666667","24.9914216666667","6500300","中和區"
"247019","001-UY","2018/06/21 13:19:31","新北市五股區中興路三段163號","121.449006666667","25.080775","6501400","蘆洲區"
"235021","251-BX","2018/06/21 13:19:29","新北市中和區員山路179號","121.481183333333","24.9969","6500300","中和區"
"228005","097-TW","2018/06/21 13:19:30","新北市貢寮區美豐里丹裡街18號","121.912828333333","25.0571983333333","6502600","貢寮區"
"228004","212-TW","2018/06/21 13:19:04","新北市貢寮區吉林里內寮街35-2號","121.900351666667","24.9819033333333","6502600","貢寮區"
"253003","6232-TK","2018/06/21 13:19:34","新北市石門區老崩山39-3號","121.565365","25.26627","6502200","石門區"
"253001","6251-TK","2018/06/21 13:19:32","新北市石門區楓林6號","121.537335","25.2967566666667","6502200","石門區"
"253002","637-UY","2018/06/21 13:19:22","新北市石門區豬槽潭2-1號","121.554753333333","25.267425","6502200","石門區"
"253004","8270-PC","2018/06/21 13:19:23","新北市石門區阿里荖69號","121.61123","25.27186","6502200","石門區"
"207002","749-BX","2018/06/21 13:19:22","新北市萬里區崁腳里崁腳路166號","121.645076666667","25.1558116666667","6502800","萬里區"
"252005","073-UM","2018/06/21 13:19:36","新北市三芝區福德里土地公埔67-3號","121.519906666667","25.2277516666667","6502100","三芝區"
"207001","662-BX","2018/06/21 13:19:29","新北市萬里區龜吼里玉田路56-1號","121.680665","25.1931966666667","6502800","萬里區"
"236005","498-BY","2018/06/21 13:19:24","新北市土城區亞洲路106號","121.434246666667","24.9723483333333","6501300","土城區"
"221032","280-BY","2018/06/21 13:19:35","新北市汐止區龍安路44號","121.654125","25.0635916666667","6501100","汐止區"
"220030","610-BX","2018/06/21 13:19:16","新北市板橋區華東街1-9號","121.448241666667","24.9949383333333","6500100","板橋區"
"220023","303-R5","2018/06/21 13:19:30","新北市板橋區華東街1-10號","121.448245","24.9949566666667","6500100","板橋區"
"220025","687-BX","2018/06/21 13:18:57","新北市板橋區華東街1-10號","121.448345","24.9949733333333","6500100","板橋區"
"235032","KEA-2873","2018/06/21 13:19:18","新北市中和區和城路一段271巷1號","121.485645","24.992145","6500300","中和區"
"235025","KEA-2875","2018/06/21 13:19:13","新北市中和區民德路187號","121.468555","24.9992016666667","6500300","中和區"
