"lineid","car","time","location","longitude","latitude","cityid","cityname"
"234044","148-BY","2018/06/21 13:59:28","新北市永和區永利路156號","121.522705","25.0027033333333","6500400","永和區"
"234005","207-UY","2018/06/21 13:59:29","新北市永和區中和路449號","121.509838333333","25.0012933333333","6500400","永和區"
"234078","298-R6","2018/06/21 13:59:37","新北市永和區林森路112巷12弄34號","121.522763333333","25.0045983333333","6500400","永和區"
"234036","336-UY","2018/06/21 13:59:34","新北市永和區成功路二段187號","121.526678333333","24.9965483333333","6500400","永和區"
"234062","337-UY","2018/06/21 13:59:29","新北市永和區中正路368巷1弄47號","121.519203333333","25.0012266666667","6500400","永和區"
"234084","338-UY","2018/06/21 13:59:31","新北市永和區永利路42號","121.518708333333","25.005415","6500400","永和區"
"234068","552-UM","2018/06/21 13:59:23","新北市永和區國光路6號","121.519775","25.0084666666667","6500400","永和區"
"234015","745-BX","2018/06/21 13:59:32","新北市永和區文化路128號","121.513055","25.0152833333333","6500400","永和區"
"234028","746-BX","2018/06/21 13:59:30","新北市永和區民生路47巷52號","121.525276666667","24.9978016666667","6500400","永和區"
"234052","KEA-2590","2018/06/21 13:59:27","新北市永和區竹林路39巷42弄1號","121.520146666667","25.01522","6500400","永和區"
"234012","KEA-2591","2018/06/21 13:59:26","新北市永和區保生路55號","121.50471","25.01057","6500400","永和區"
"234060","AAD-866","2018/06/21 13:59:37","新北市永和區中正路283巷53弄2號","121.515913333333","24.9992983333333","6500400","永和區"
"234040","862-TW","2018/06/21 13:59:33","新北市永和區中和路335巷12號","121.50754","25.0001966666667","6500400","永和區"
"234048","863-TW","2018/06/21 13:59:23","新北市永和區保安路224號","121.507241666667","25.0134166666667","6500400","永和區"
"234025","9371-KE","2018/06/21 13:59:22","新北市永和區自由街58號","121.513795","25.0059283333333","6500400","永和區"
"234010","9373-KE","2018/06/21 13:59:24","新北市永和區保生路55-1號","121.504501666667","25.010905","6500400","永和區"
"248013","025-BX","2018/06/21 13:59:22","新北市五股區民義路一段107巷21-1號","121.432706666667","25.0845766666667","6501500","五股區"
"248015","026-BX","2018/06/21 13:59:31","新北市五股區成泰路三段543巷12弄6號","121.451241666667","25.1021616666667","6501500","五股區"
"248007","095-VK","2018/06/21 13:59:20","新北市五股區中興路一段128巷57號","121.465683333333","25.075405","6501500","五股區"
"248017","225-UY","2018/06/21 13:59:25","新北市五股區民義路一段287巷2-2號","121.423865","25.0910333333333","6501500","五股區"
"248011","247-BX","2018/06/21 13:59:30","新北市五股區成泰路二段195巷1號","121.440431666667","25.087385","6501500","五股區"
"248009","272-BY","2018/06/21 13:59:40","新北市五股區自強路90巷72號","121.430766666667","25.07127","6501500","五股區"
"248003","677-BX","2018/06/21 13:59:33","新北市五股區民義路二段54-3號","121.407545","25.1064783333333","6501500","五股區"
"248001","678-BX","2018/06/21 13:59:26","新北市五股區天乙路3號","121.44884","25.1026866666667","6501500","五股區"
"234022","9380-KE","2018/06/21 13:59:32","新北市永和區永和路二段280號","121.515981666667","25.0153866666667","6500400","永和區"
"234076","969-R7","2018/06/21 13:59:31","新北市永和區民權路58巷3號","121.519648333333","24.9983166666667","6500400","永和區"
"234072","AAC-211","2018/06/21 13:59:39","新北市永和區豫溪街169巷2-1號","121.521996666667","25.01041","6500400","永和區"
"234066","AAC-212","2018/06/21 13:59:28","新北市永和區永貞路335號","121.509616666667","25.00709","6500400","永和區"
"234001","AAC-295","2018/06/21 13:59:36","新北市永和區福和路299號","121.516438333333","25.007295","6500400","永和區"
"243005","AAD-798","2018/06/21 13:59:26","新北市泰山區明志路三段239號","121.42352","25.0377566666667","6501600","泰山區"
"243008","380-SR","2018/06/21 13:59:29","新北市泰山區明志路二段135號","121.427645","25.0507416666667","6501600","泰山區"
"243007","421-VK","2018/06/21 13:59:20","新北市泰山區美寧街2號","121.430128333333","25.0632416666667","6501600","泰山區"
"243003","KEA-2215","2018/06/21 13:59:19","新北市泰山區明志路二段246-1號","121.42698","25.048045","6501600","泰山區"
"243002","KEA-2216","2018/06/21 13:59:28","新北市泰山區辭修路24號","121.429003333333","25.0581516666667","6501600","泰山區"
"243004","646-TV","2018/06/21 13:59:24","新北市泰山區福興一街87號","121.432018333333","25.0577283333333","6501600","泰山區"
"243006","680-BX","2018/06/21 13:59:33","新北市泰山區黎明路23號","121.420921666667","25.0626","6501600","泰山區"
"231002","002-UM","2018/06/21 13:59:29","新北市新店區中正路695巷2號","121.534015","24.9906966666667","6500600","新店區"
"231027","0293-UT","2018/06/21 13:59:36","新北市新店區中興路一段24號","121.538706666667","24.9583333333333","6500600","新店區"
"231028","046-UY","2018/06/21 13:59:29","新北市新店區安和路三段7號","121.518025","24.9806183333333","6500600","新店區"
"231001","047-UY","2018/06/21 13:59:30","新北市新店區三民路43號","121.537133333333","24.970875","6500600","新店區"
"231005","106-UY","2018/06/21 13:59:25","新北市新店區中興路三段168號","121.54429","24.9808166666667","6500600","新店區"
"231021","108-UY","2018/06/21 13:59:33","新北市新店區新烏路二段40號","121.544828333333","24.9282833333333","6500600","新店區"
"231011","187-VK","2018/06/21 13:59:27","新北市新店區中興路二段57巷21號","121.545468333333","24.9708016666667","6500600","新店區"
"231010","188-VK","2018/06/21 13:59:19","新北市新店區平等街48巷23號","121.53503","24.9734533333333","6500600","新店區"
"231023","KEA-2219","2018/06/21 13:59:21","新北市新店區文中路51號","121.53977","24.9566083333333","6500600","新店區"
"231026","256-BX","2018/06/21 13:59:34","新北市新店區安康路一段35-1號","121.532083333333","24.9606016666667","6500600","新店區"
"231003","268-BY","2018/06/21 13:59:32","新北市新店區中興路一段97號","121.541065","24.96227","6500600","新店區"
"231018","278-BY","2018/06/21 13:59:25","新北市新店區中央路133巷2號","121.530511666667","24.9736366666667","6500600","新店區"
"231017","AAD-862","2018/06/21 13:59:20","新北市新店區北宜路二段82-1號","121.553458333333","24.9532716666667","6500600","新店區"
"231038","3712-VJ","2018/06/21 13:59:22","新北市新店區溪洲路8巷64號","121.533063333333","24.9624283333333","6500600","新店區"
"231037","4716-K9","2018/06/21 13:59:22","新北市新店區安康路三段355巷45號","121.48504","24.9493583333333","6500600","新店區"
"231025","4715-K9","2018/06/21 13:59:20","新北市新店區中正路330號","121.536998333333","24.9750433333333","6500600","新店區"
"231036","512-UM","2018/06/21 13:59:37","新北市新店區安祥路110巷23號","121.473695","24.9562883333333","6500600","新店區"
"231013","513-UM","2018/06/21 13:59:30","新北市新店區明德路119號","121.541241666667","24.97979","6500600","新店區"
"231034","616-UM","2018/06/21 13:59:24","新北市新店區達觀路12號","121.50503","24.9410533333333","6500600","新店區"
"231030","619-UM","2018/06/21 13:59:24","新北市新店區安康路一段214號","121.523946666667","24.96348","6500600","新店區"
"231035","719-UM","2018/06/21 13:59:28","新北市新店區安和路一段47號","121.517488333333","24.9657516666667","6500600","新店區"
"231031","720-UM","2018/06/21 13:59:37","新北市新店區華城路6號","121.530196666667","24.96041","6500600","新店區"
"231029","897-TW","2018/06/21 13:59:38","新北市新店區安和路一段1號","121.516501666667","24.9637533333333","6500600","新店區"
"231006","898-TW","2018/06/21 13:59:33","新北市新店區北宜路二段213號","121.55323","24.9533683333333","6500600","新店區"
"231004","899-TW","2018/06/21 13:59:19","新北市新店區北新路二段131號","121.542941666667","24.975265","6500600","新店區"
"231024","AKT-0513","2018/06/21 13:59:34","新北市新店區中央一街43號","121.527286666667","24.9735316666667","6500600","新店區"
"235028","005-UY","2018/06/21 13:59:25","新北市中和區泰和街46巷2號","121.498671666667","25.00014","6500300","中和區"
"235027","006-UY","2018/06/21 13:59:33","新北市中和區連城路355號","121.487883333333","24.9962166666667","6500300","中和區"
"235020","096-UM","2018/06/21 13:59:30","新北市中和區中正路1184號","121.48108","25.0102133333333","6500300","中和區"
"235003","097-UM","2018/06/21 13:59:25","新北市中和區秀朗路三段179號","121.524486666667","24.9908916666667","6500300","中和區"
"235029","098-UM","2018/06/21 13:59:20","新北市中和區莊敬路39號","121.500841666667","25.00499","6500300","中和區"
"235004","150-BY","2018/06/21 13:59:30","新北市中和區保健路46巷26弄2號","121.50848","24.995385","6500300","中和區"
"235022","151-BY","2018/06/21 13:59:29","新北市中和區連城路534巷2號","121.47528","24.9914183333333","6500300","中和區"
"235019","183-VK","2018/06/21 13:59:25","新北市板橋區民族路276巷3弄15號","121.470183333333","25.0062416666667","6500300","中和區"
"235002","185-VK","2018/06/21 13:59:35","新北市中和區立人街24-4號","121.518938333333","24.9941983333333","6500300","中和區"
"235013","186-VK","2018/06/21 13:59:35","新北市中和區景安路169號","121.505311666667","24.99451","6500300","中和區"
"235031","255-BX","2018/06/21 13:59:26","新北市中和區新生街268號","121.483485","24.9971416666667","6500300","中和區"
"235008","293-VK","2018/06/21 13:59:26","新北市中和區中興街161巷4弄2號","121.500488333333","24.990875","6500300","中和區"
"235036","301-VK","2018/06/21 13:59:36","新北市中和區中山路二段12號","121.505","25.0055833333333","6500300","中和區"
"235007","352-BY","2018/06/21 13:59:19","新北市中和區秀朗路三段103號","121.526445","24.9947566666667","6500300","中和區"
"235006","KEA-2878","2018/06/21 13:59:33","新北市中和區秀朗路三段22巷5號","121.525973333333","24.9962083333333","6500300","中和區"
"235014","4979-A6","2018/06/21 13:59:31","新北市中和區華新街50巷7號","121.507648333333","24.9838883333333","6500300","中和區"
"235033","4980-A6","2018/06/21 13:59:23","新北市中和區圓通路109巷20號","121.499936666667","24.99623","6500300","中和區"
"235034","558-UM","2018/06/21 13:59:22","新北市中和區安和路163號","121.506178333333","24.9974683333333","6500300","中和區"
"235009","565-BX","2018/06/21 13:59:22","新北市中和區景新街467巷20弄94號","121.514553333333","24.9874266666667","6500300","中和區"
"235018","640-BX","2018/06/21 13:59:36","新北市中和區民享街5號","121.47392","25.00565","6500300","中和區"
"235024","647-TV","2018/06/21 13:59:29","新北市中和區中山路三段148號","121.473636666667","25.0062316666667","6500300","中和區"
"235011","732-UM","2018/06/21 13:59:38","新北市中和區興南路二段54巷11弄6號","121.50562","24.9854616666667","6500300","中和區"
"235010","733-UM","2018/06/21 13:59:26","新北市中和區興南路二段11號","121.508238333333","24.986105","6500300","中和區"
"235035","783-BX","2018/06/21 13:59:38","新北市中和區立德街112號","121.487296666667","25.00854","6500300","中和區"
"235026","800-TS","2018/06/21 13:59:28","新北市中和區中山路二段340巷63號","121.492921666667","25.0048216666667","6500300","中和區"
"235005","802-TS","2018/06/21 13:59:22","新北市中和區中安街42號","121.512918333333","25.00275","6500300","中和區"
"235016","805-TS","2018/06/21 13:59:20","新北市中和區興南路二段131-10號","121.50409","24.9808283333333","6500300","中和區"
"235012","896-TW","2018/06/21 13:59:31","新北市中和區華新街61號","121.507981666667","24.9842483333333","6500300","中和區"
"235017","900-TW","2018/06/21 13:59:22","新北市中和區壽德街20-1號","121.46618","24.9947216666667","6500300","中和區"
"235030","911-UM","2018/06/21 13:59:24","新北市中和區中山路二段131巷5弄4號","121.502901666667","25.0028583333333","6500300","中和區"
"235015","157-BY","2018/06/21 13:59:26","新北市中和區忠孝街11巷8號","121.510083333333","24.9832183333333","6500300","中和區"
"235001","AAC-213","2018/06/21 13:59:41","新北市中和區秀朗路三段10巷14弄39號","121.524113333333","24.996155","6500300","中和區"
"235023","AAC-215","2018/06/21 13:59:35","新北市中和區圓通路367巷20弄31號","121.491365","24.9881","6500300","中和區"
"220016","013-TV","2018/06/21 13:59:33","新北市板橋區中山路二段465巷46號","121.481195","25.0215266666667","6500100","板橋區"
"220020","015-TV","2018/06/21 13:59:36","新北市板橋區大觀路三段50巷59號","121.431836666667","24.9960383333333","6500100","板橋區"
"220013","072-UY","2018/06/21 13:59:40","新北市板橋區漢生東路337號","121.472031666667","25.0075466666667","6500100","板橋區"
"220034","073-UY","2018/06/21 13:59:20","新北市板橋區中正路236巷54號","121.457581666667","25.019215","6500100","板橋區"
"220105","075-UY","2018/06/21 13:59:37","新北市板橋區文化路二段124巷24號","121.471153333333","25.025715","6500100","板橋區"
"220017","AAD-861","2018/06/21 13:59:35","新北市板橋區華興街70號","121.45741","25.00498","6500100","板橋區"
"247013","546-UM","2018/06/21 13:59:25","新北市蘆洲區中正路173號","121.468815","25.0851716666667","6501400","蘆洲區"
"247009","341-TH","2018/06/21 13:59:20","新北市蘆洲區集賢路400號","121.48025","25.0821766666667","6501400","蘆洲區"
"247003","337-TH","2018/06/21 13:59:33","新北市蘆洲區長榮路41號","121.462968333333","25.0829066666667","6501400","蘆洲區"
"247005","336-TH","2018/06/21 13:59:30","新北市蘆洲區永安南路二段50號","121.466066666667","25.0776166666667","6501400","蘆洲區"
"247017","057-VK","2018/06/21 13:59:13","新北市蘆洲區民族路227巷22弄19號","121.476273333333","25.0894616666667","6501400","蘆洲區"
"247007","053-VK","2018/06/21 13:59:24","新北市蘆洲區集賢路283號","121.481116666667","25.082795","6501400","蘆洲區"
"247015","007-UY","2018/06/21 13:59:37","新北市蘆洲區光華路43號","121.468921666667","25.0829966666667","6501400","蘆洲區"
"247001","002-UY","2018/06/21 13:59:24","新北市蘆洲區永平街32巷64弄2號","121.460123333333","25.093055","6501400","蘆洲區"
"247019","001-UY","2018/06/21 13:59:33","新北市蘆洲區民族路422巷35號","121.473446666667","25.0935216666667","6501400","蘆洲區"
"235021","251-BX","2018/06/21 13:59:29","新北市中和區民利街13號","121.480545","24.9991016666667","6500300","中和區"
"228005","097-TW","2018/06/21 13:59:29","新北市貢寮區美豐里雞母嶺街52號","121.889613333333","25.0680733333333","6502600","貢寮區"
"228004","212-TW","2018/06/21 13:59:24","新北市貢寮區龍崗里嵩陽街55號","121.907073333333","25.016505","6502600","貢寮區"
"253003","6232-TK","2018/06/21 13:59:34","新北市石門區尖子鹿17-4號","121.576345","25.2790066666667","6502200","石門區"
"253001","6251-TK","2018/06/21 13:59:32","新北市石門區八甲55號","121.523958333333","25.2737516666667","6502200","石門區"
"253002","637-UY","2018/06/21 13:59:22","新北市石門區七股33-1號","121.552706666667","25.26124","6502200","石門區"
"253004","8270-PC","2018/06/21 13:59:26","新北市石門區小坑43-2號","121.600293333333","25.2644466666667","6502200","石門區"
"207002","749-BX","2018/06/21 13:59:22","新北市萬里區溪底里富士坪路1號","121.631695","25.15032","6502800","萬里區"
"252005","073-UM","2018/06/21 13:59:36","新北市三芝區圓山里二坪頂47號","121.536525","25.245615","6502100","三芝區"
"207001","662-BX","2018/06/21 13:59:41","新北市萬里區磺潭里清水18號","121.637825","25.1977183333333","6502800","萬里區"
"236040","107-UM","2018/06/21 13:59:28","新北市土城區城林路6巷80號","121.438665","24.9796483333333","6501300","土城區"
"236074","166-UM","2018/06/21 13:59:29","新北市土城區永寧路32巷10弄23號","121.4289","24.9610766666667","6501300","土城區"
"236029","253-BX","2018/06/21 13:59:40","新北市土城區城林路6巷80號","121.438565","24.979725","6501300","土城區"
"236024","269-VK","2018/06/21 13:59:31","新北市土城區中央路三段46號","121.437261666667","24.9675816666667","6501300","土城區"
"236012","270-VK","2018/06/21 13:59:23","新北市土城區城林路6巷80號","121.438566666667","24.9797266666667","6501300","土城區"
"236032","271-VK","2018/06/21 13:59:36","新北市土城區城林路6巷80號","121.438736666667","24.979905","6501300","土城區"
"236068","KEA-2877","2018/06/21 13:59:34","新北市土城區金城路一段88巷24號","121.445961666667","24.9731933333333","6501300","土城區"
"236017","401-BY","2018/06/21 13:59:26","新北市土城區城林路6巷80號","121.438433333333","24.9798066666667","6501300","土城區"
"236005","498-BY","2018/06/21 13:59:24","新北市土城區中正路75號","121.445358333333","24.9757566666667","6501300","土城區"
"236060","752-BX","2018/06/21 13:59:27","新北市土城區城林路6巷80號","121.438655","24.9796683333333","6501300","土城區"
"236057","912-UM","2018/06/21 13:59:35","新北市土城區中央路三段250號","121.427685","24.9641866666667","6501300","土城區"
"236045","913-UM","2018/06/21 13:59:35","新北市土城區城林路6巷80號","121.438463333333","24.9797466666667","6501300","土城區"
"236054","AAC-216","2018/06/21 13:59:18","新北市土城區城林路6巷80號","121.438563333333","24.9797266666667","6501300","土城區"
"220027","145-BY","2018/06/21 13:59:37","新北市板橋區民權路202巷7弄24號","121.459096666667","25.0150033333333","6500100","板橋區"
"220028","200-UY","2018/06/21 13:59:35","新北市板橋區合宜一路53號","121.443961666667","24.9961516666667","6500100","板橋區"
"220030","610-BX","2018/06/21 13:59:36","新北市板橋區滿平街135號","121.428923333333","24.9881983333333","6500100","板橋區"
"220050","245-BX","2018/06/21 13:59:18","新北市板橋區文化路二段182巷17號","121.47216","25.02654","6500100","板橋區"
"220003","256-TC","2018/06/21 13:59:37","新北市板橋區中山路一段158巷33-2號","121.466626666667","25.0109766666667","6500100","板橋區"
"220004","276-BY","2018/06/21 13:59:39","新北市板橋區信義路117號","121.457741666667","24.9934083333333","6500100","板橋區"
"220019","283-VK","2018/06/21 13:59:33","新北市板橋區重慶路245巷54號","121.46524","25.0008983333333","6500100","板橋區"
"220043","285-UM","2018/06/21 13:59:28","新北市板橋區文化路二段76號","121.469175","25.0250783333333","6500100","板橋區"
"220001","285-VK","2018/06/21 13:59:15","新北市板橋區中山路二段89巷48號","121.47375","25.0171916666667","6500100","板橋區"
"220031","286-VK","2018/06/21 13:59:33","新北市板橋區大觀路二段22巷37號","121.444615","25.00364","6500100","板橋區"
"220029","287-VK","2018/06/21 13:59:39","新北市板橋區光華街19巷6號","121.453758333333","25.0121166666667","6500100","板橋區"
"220039","288-VK","2018/06/21 13:59:25","新北市板橋區四維路177巷1弄2號","121.464125","25.0262466666667","6500100","板橋區"
"220009","293-UM","2018/06/21 13:59:37","新北市板橋區永豐街120巷2弄11號","121.476378333333","25.02021","6500100","板橋區"
"220010","295-UM","2018/06/21 13:59:16","新北市板橋區三民路二段245巷28號","121.480323333333","25.0125366666667","6500100","板橋區"
"220032","296-UM","2018/06/21 13:59:22","新北市板橋區大觀路三段24號","121.434301666667","24.9957033333333","6500100","板橋區"
"220023","303-R5","2018/06/21 13:59:30","新北市板橋區館前西路269號","121.453673333333","25.0086916666667","6500100","板橋區"
"220041","307-R5","2018/06/21 13:59:35","新北市板橋區文化路一段104巷1弄5號","121.465295","25.0179116666667","6500100","板橋區"
"220047","317-R6","2018/06/21 13:59:38","新北市板橋區民有街16號","121.466238333333","25.0249016666667","6500100","板橋區"
"220012","486-VK","2018/06/21 13:59:25","新北市板橋區板新路157號","121.469705","25.0155316666667","6500100","板橋區"
"220037","491-VK","2018/06/21 13:59:29","新北市板橋區民生路二段206號","121.469606666667","25.021115","6500100","板橋區"
"220104","560-BX","2018/06/21 13:59:33","新北市板橋區中正路341巷8號","121.454498333333","25.02038","6500100","板橋區"
"220052","561-BX","2018/06/21 13:59:33","新北市板橋區介壽街115號","121.47035","25.01842","6500100","板橋區"
"220011","609-BX","2018/06/21 13:59:32","新北市板橋區中山路二段214號","121.477955","25.0178483333333","6500100","板橋區"
"220040","637-BX","2018/06/21 13:59:22","新北市板橋區大同街32號","121.478268333333","25.0273516666667","6500100","板橋區"
"220005","686-BX","2018/06/21 13:59:37","新北市板橋區重慶路186號","121.46262","25.00324","6500100","板橋區"
"220025","687-BX","2018/06/21 13:59:37","新北市板橋區大觀路二段174巷190號","121.442221666667","25.0038583333333","6500100","板橋區"
"220042","689-BX","2018/06/21 13:59:37","新北市板橋區民生路三段50號","121.467156666667","25.0250416666667","6500100","板橋區"
"220002","741-BX","2018/06/21 13:59:41","新北市板橋區重慶路139巷21號","121.463691666667","25.0047566666667","6500100","板橋區"
"220051","KEA-2699","2018/06/21 13:59:37","新北市板橋區田單街2巷32號","121.481495","25.027585","6500100","板橋區"
"220014","830-TW","2018/06/21 13:59:28","新北市板橋區三民路二段正隆巷12弄15號","121.477695","25.0134516666667","6500100","板橋區"
"220045","831-TW","2018/06/21 13:59:32","新北市板橋區莒光路101號","121.472606666667","25.0240316666667","6500100","板橋區"
"220038","833-TW","2018/06/21 13:59:23","新北市板橋區文化路二段313號","121.472078333333","25.0296766666667","6500100","板橋區"
"220022","895-R6","2018/06/21 13:59:35","新北市板橋區南雅南路一段2-2號","121.456231666667","25.00686","6500100","板橋區"
"220021","985-R7","2018/06/21 13:59:35","新北市板橋區館前西路154-3號","121.455205","25.0084","6500100","板橋區"
"220046","AAC-210","2018/06/21 13:59:34","新北市板橋區國光路209號","121.462108333333","25.018675","6500100","板橋區"
"220018","AAC-253","2018/06/21 13:59:30","新北市板橋區四川路一段256號","121.459051666667","25.00131","6500100","板橋區"
"235032","KEA-2873","2018/06/21 13:59:18","新北市中和區圓通路162巷37弄1號","121.49623","24.9954166666667","6500300","中和區"
"235025","KEA-2875","2018/06/21 13:59:13","新北市中和區民有街8號","121.475493333333","25.0056633333333","6500300","中和區"
