"lineid","car","time","location","longitude","latitude","cityid","cityname"
"234028","746-BX","2018/06/21 14:49:24","新北市五股區中興路三段3-6號","121.449995","25.0784783333333","6500400","永和區"
"234025","9371-KE","2018/06/21 14:49:22","新北市永和區雙和街52巷1-1號","121.509105","25.003165","6500400","永和區"
"248013","025-BX","2018/06/21 14:49:22","新北市五股區五福路14巷10號","121.43486","25.088645","6501500","五股區"
"248015","026-BX","2018/06/21 14:49:30","新北市五股區成泰路三段577巷80弄54號","121.44976","25.105055","6501500","五股區"
"248007","095-VK","2018/06/21 14:49:20","新北市蘆洲區中山二路300巷1號","121.468528333333","25.0768333333333","6501500","五股區"
"248017","225-UY","2018/06/21 14:20:45","新北市五股區壟路16號","121.415013333333","25.0854","6501500","五股區"
"248011","247-BX","2018/06/21 14:49:30","新北市五股區六合街118號","121.430273333333","25.09079","6501500","五股區"
"248009","272-BY","2018/06/21 14:49:40","新北市五股區成泰路一段2號","121.433895","25.0667533333333","6501500","五股區"
"248003","677-BX","2018/06/21 14:49:31","新北市五股區成泰路一段82號","121.435658333333","25.0704466666667","6501500","五股區"
"248001","678-BX","2018/06/21 14:49:40","新北市五股區成泰路三段157號","121.445036666667","25.0916833333333","6501500","五股區"
"244003","248-BX","2018/06/21 14:49:18","新北市林口區竹林路266號","121.389705","25.0807283333333","6501700","林口區"
"243005","AAD-798","2018/06/21 14:49:26","新北市泰山區明志路三段76號","121.42486","25.0417283333333","6501600","泰山區"
"243001","297-R6","2018/06/21 14:49:32","新北市泰山區泰林路二段146號","121.434248333333","25.0598616666667","6501600","泰山區"
"243008","380-SR","2018/06/21 14:49:29","新北市泰山區貴陽街49號","121.422908333333","25.0327633333333","6501600","泰山區"
"243007","421-VK","2018/06/21 14:49:40","新北市泰山區明志路一段505號","121.43067","25.0546783333333","6501600","泰山區"
"243003","KEA-2215","2018/06/21 14:49:39","新北市泰山區明志路三段166號","121.42423","25.0394","6501600","泰山區"
"243002","KEA-2216","2018/06/21 14:49:28","新北市泰山區明志路二段214巷19號","121.42661","25.0491383333333","6501600","泰山區"
"243004","646-TV","2018/06/21 14:49:23","新北市泰山區楓江路67-1號","121.43641","25.063","6501600","泰山區"
"243006","680-BX","2018/06/21 14:49:33","新北市泰山區明志路一段24號","121.433643333333","25.06553","6501600","泰山區"
"231002","002-UM","2018/06/21 14:49:29","新北市新店區民權路115-1號","121.536125","24.9826583333333","6500600","新店區"
"231027","0293-UT","2018/06/21 14:49:36","新北市新店區安民街133巷26號","121.515423333333","24.9694766666667","6500600","新店區"
"231028","046-UY","2018/06/21 14:49:29","新北市新店區安德街116巷24號","121.5087","24.9611466666667","6500600","新店區"
"231001","047-UY","2018/06/21 14:49:30","新北市新店區三民路127號","121.534576666667","24.97243","6500600","新店區"
"231005","106-UY","2018/06/21 14:49:26","新北市新店區復興路2號","121.532488333333","24.9882166666667","6500600","新店區"
"231021","108-UY","2018/06/21 14:49:33","新北市新店區桂山路37號","121.563003333333","24.9045983333333","6500600","新店區"
"231011","187-VK","2018/06/21 14:49:27","新北市新店區寶橋路77號","121.545861666667","24.975345","6500600","新店區"
"231023","KEA-2219","2018/06/21 14:49:21","新北市新店區檳榔路109號","121.544451666667","24.9616183333333","6500600","新店區"
"231003","268-BY","2018/06/21 14:49:32","新北市新店區寶興路42巷37號","121.547523333333","24.971935","6500600","新店區"
"231018","278-BY","2018/06/21 14:49:24","新北市新店區中央路208號","121.530168333333","24.9739383333333","6500600","新店區"
"231017","AAD-862","2018/06/21 14:49:20","新北市新店區北宜路三段88-1號","121.578001666667","24.9511983333333","6500600","新店區"
"231038","3712-VJ","2018/06/21 14:49:22","新北市新店區安華路28-1號","121.519601666667","24.9610116666667","6500600","新店區"
"231037","4716-K9","2018/06/21 14:49:42","新北市新店區柴埕路60巷2號","121.509921666667","24.964185","6500600","新店區"
"231025","4715-K9","2018/06/21 14:49:40","新北市新店區民族路161號","121.53765","24.97671","6500600","新店區"
"231036","512-UM","2018/06/21 14:49:37","新北市新店區安祥路106巷66號","121.474996666667","24.96036","6500600","新店區"
"231013","513-UM","2018/06/21 14:49:30","新北市新店區北新路二段97巷9弄15號","121.542218333333","24.97385","6500600","新店區"
"231034","616-UM","2018/06/21 14:49:24","新北市新店區安康路二段385-1號","121.494816666667","24.9545183333333","6500600","新店區"
"231030","619-UM","2018/06/21 14:49:24","新北市新店區安民街252號","121.517636666667","24.97318","6500600","新店區"
"231039","718-UY","2018/06/21 14:49:36","新北市新店區安一路一段1-1號","121.519348333333","24.9610416666667","6500600","新店區"
"231035","719-UM","2018/06/21 14:49:28","新北市新店區安樂街16號","121.520825","24.9732533333333","6500600","新店區"
"231029","897-TW","2018/06/21 14:49:38","新北市新店區錦秀路11巷38號","121.48084","24.9438716666667","6500600","新店區"
"231006","898-TW","2018/06/21 14:49:33","新北市新店區北宜路一段152-1號","121.540263333333","24.9538216666667","6500600","新店區"
"231004","899-TW","2018/06/21 14:49:39","新北市新店區民族路81號","121.538966666667","24.9778766666667","6500600","新店區"
"231024","AKT-0513","2018/06/21 14:49:34","新北市新店區力行路5號","121.539438333333","24.9645966666667","6500600","新店區"
"235028","005-UY","2018/06/21 14:49:25","新北市中和區圓通路43號","121.500876666667","24.9975433333333","6500300","中和區"
"235020","096-UM","2018/06/21 14:49:33","新北市中和區員山路581巷31弄18號","121.476835","25.010355","6500300","中和區"
"235003","097-UM","2018/06/21 14:49:25","新北市中和區宜安路8號","121.513473333333","24.9955433333333","6500300","中和區"
"235029","098-UM","2018/06/21 14:49:41","新北市中和區永和路57巷1號","121.49709","25.0053033333333","6500300","中和區"
"235004","150-BY","2018/06/21 14:49:39","新北市中和區安和路159號","121.506341666667","24.9973583333333","6500300","中和區"
"235022","151-BY","2018/06/21 14:49:29","新北市中和區員山路142巷14號","121.482055","24.9965","6500300","中和區"
"235019","183-VK","2018/06/21 14:49:25","新北市中和區民德路19號","121.468825","25.0028166666667","6500300","中和區"
"235002","185-VK","2018/06/21 14:49:15","新北市中和區更生街66號","121.521696666667","24.99615","6500300","中和區"
"235013","186-VK","2018/06/21 14:49:35","新北市中和區景平路566號","121.501813333333","24.9953116666667","6500300","中和區"
"235031","255-BX","2018/06/21 14:49:26","新北市中和區新生街213號","121.48379","24.999645","6500300","中和區"
"235008","293-VK","2018/06/21 14:49:26","新北市中和區南山路231號","121.503468333333","24.993285","6500300","中和區"
"235036","301-VK","2018/06/21 14:49:36","新北市中和區中和路74號","121.500748333333","25.0001533333333","6500300","中和區"
"235007","352-BY","2018/06/21 14:49:39","新北市中和區安樂路34號","121.511871666667","24.992315","6500300","中和區"
"235014","4979-A6","2018/06/21 14:49:36","新北市中和區景平路329巷1弄5號","121.506081666667","24.99259","6500300","中和區"
"235034","558-UM","2018/06/21 14:49:22","新北市中和區連城路171巷41弄1號","121.49611","24.9965383333333","6500300","中和區"
"235018","640-BX","2018/06/21 14:49:36","新北市中和區莒光路191-1號","121.471258333333","24.9974316666667","6500300","中和區"
"235024","647-TV","2018/06/21 14:49:28","新北市中和區員山路390號","121.480581666667","25.004535","6500300","中和區"
"235011","732-UM","2018/06/21 14:49:38","新北市中和區和平街29-1號","121.507686666667","24.9910933333333","6500300","中和區"
"235010","733-UM","2018/06/21 14:49:26","新北市中和區仁愛街60號","121.51124","24.9878766666667","6500300","中和區"
"235035","783-BX","2018/06/21 14:49:38","新北市中和區建六路57號","121.486545","25.0022083333333","6500300","中和區"
"235026","800-TS","2018/06/21 14:49:28","新北市中和區建六路67巷3號","121.486458333333","25.0025066666667","6500300","中和區"
"235016","805-TS","2018/06/21 14:49:20","新北市中和區華新街30巷16號","121.506795","24.9844866666667","6500300","中和區"
"235012","896-TW","2018/06/21 14:49:31","新北市中和區信義街115號","121.512216666667","24.98683","6500300","中和區"
"235017","900-TW","2018/06/21 14:49:22","新北市中和區國光街215巷4弄1號","121.466381666667","25.0017966666667","6500300","中和區"
"235030","911-UM","2018/06/21 14:49:24","新北市中和區中和路206號","121.505483333333","24.9995583333333","6500300","中和區"
"235015","157-BY","2018/06/21 14:49:26","新北市中和區中興街233巷10號","121.501538333333","24.9893666666667","6500300","中和區"
"235001","AAC-213","2018/06/21 14:49:41","新北市中和區秀朗路三段128巷1弄15號","121.523721666667","24.9915466666667","6500300","中和區"
"235023","AAC-215","2018/06/21 14:49:35","新北市中和區圓通路305巷5弄55號","121.494975","24.9902833333333","6500300","中和區"
"220016","013-TV","2018/06/21 14:49:33","新北市板橋區光復街150號","121.484748333333","25.0194583333333","6500100","板橋區"
"220020","015-TV","2018/06/21 14:49:36","新北市板橋區金門街215巷109號","121.433498333333","24.9880683333333","6500100","板橋區"
"220013","072-UY","2018/06/21 14:49:32","新北市中和區民生街28巷13號","121.469595","25.0058133333333","6500100","板橋區"
"220034","073-UY","2018/06/21 14:49:40","新北市板橋區南雅西路二段7巷25號","121.451913333333","25.0094866666667","6500100","板橋區"
"220105","075-UY","2018/06/21 14:49:38","新北市板橋區民治街26巷5號","121.477788333333","25.033995","6500100","板橋區"
"220017","AAD-861","2018/06/21 14:49:35","新北市板橋區南雅南路二段15號","121.453935","25.0011116666667","6500100","板橋區"
"247023","893-R6","2018/06/21 14:49:29","新北市蘆洲區和平路79號","121.469106666667","25.0792216666667","6501400","蘆洲區"
"247013","546-UM","2018/06/21 14:49:25","新北市蘆洲區得勝街50號","121.473261666667","25.083635","6501400","蘆洲區"
"247021","500-BY","2018/06/21 14:49:33","新北市蘆洲區三民路300巷3號","121.466283333333","25.0910083333333","6501400","蘆洲區"
"247009","341-TH","2018/06/21 14:49:40","新北市蘆洲區中山一路293-1號","121.471646666667","25.0791866666667","6501400","蘆洲區"
"247005","336-TH","2018/06/21 14:49:35","新北市蘆洲區中華街3號","121.463936666667","25.0818133333333","6501400","蘆洲區"
"247007","053-VK","2018/06/21 14:49:23","新北市蘆洲區中山一路95巷20弄33號","121.476216666667","25.0799866666667","6501400","蘆洲區"
"247015","007-UY","2018/06/21 14:49:36","新北市蘆洲區正和街96巷52號","121.467456666667","25.081655","6501400","蘆洲區"
"247001","002-UY","2018/06/21 14:47:24","新北市蘆洲區長安街369號","121.45727","25.0876783333333","6501400","蘆洲區"
"247019","001-UY","2018/06/21 14:49:30","新北市蘆洲區民義街71巷28號","121.472495","25.09091","6501400","蘆洲區"
"235021","251-BX","2018/06/21 14:49:29","新北市中和區員山路130號","121.481138333333","24.9963016666667","6500300","中和區"
"228005","097-TW","2018/06/21 14:49:29","新北市貢寮區美豐里丹裡街67號","121.906781666667","25.0579033333333","6502600","貢寮區"
"228004","212-TW","2018/06/21 14:49:24","新北市貢寮區福隆里裕隆街5號","121.946103333333","25.0158916666667","6502600","貢寮區"
"253003","6232-TK","2018/06/21 14:49:34","新北市石門區尖子鹿103-2號","121.579906666667","25.2937833333333","6502200","石門區"
"253001","6251-TK","2018/06/21 14:49:32","新北市石門區崁子腳90-3號","121.535418333333","25.2716616666667","6502200","石門區"
"253002","637-UY","2018/06/21 14:49:42","新北市石門區楓林37-2號","121.540056666667","25.287835","6502200","石門區"
"253004","8270-PC","2018/06/21 14:49:32","新北市石門區內阿里磅2-1號","121.59179","25.2523033333333","6502200","石門區"
"207002","749-BX","2018/06/21 14:49:22","新北市萬里區崁腳里崁腳路73號","121.647693333333","25.15955","6502800","萬里區"
"252005","073-UM","2018/06/21 14:49:36","新北市三芝區埔坪里埔頭坑142-1號","121.512921666667","25.2477316666667","6502100","三芝區"
"207001","662-BX","2018/06/21 14:49:21","新北市萬里區雙興里豐稟路33號","121.646843333333","25.1793583333333","6502800","萬里區"
"236040","107-UM","2018/06/21 14:49:33","新北市土城區裕民路136巷29號","121.450715","24.9850416666667","6501300","土城區"
"236074","166-UM","2018/06/21 14:49:24","新北市土城區中央路四段125巷9弄14號","121.417045","24.9576133333333","6501300","土城區"
"236029","253-BX","2018/06/21 14:49:39","新北市土城區忠義路32號","121.440498333333","24.9699116666667","6501300","土城區"
"236024","269-VK","2018/06/21 14:49:31","新北市土城區光明街33號","121.442173333333","24.9741133333333","6501300","土城區"
"236012","270-VK","2018/06/21 14:49:33","新北市土城區金城路二段354巷16號","121.460901666667","24.9843333333333","6501300","土城區"
"236032","271-VK","2018/06/21 14:49:36","新北市土城區仁愛路54巷1-3號","121.462466666667","24.9785633333333","6501300","土城區"
"236068","KEA-2877","2018/06/21 14:49:34","新北市土城區金城路二段237號","121.455701666667","24.98248","6501300","土城區"
"236017","401-BY","2018/06/21 14:49:26","新北市土城區延安街42-2號","121.467493333333","24.985375","6501300","土城區"
"236060","752-BX","2018/06/21 14:49:18","新北市土城區延和路177巷28號","121.470305","24.990985","6501300","土城區"
"236057","912-UM","2018/06/21 14:49:35","新北市土城區中央路三段157號","121.431991666667","24.9653466666667","6501300","土城區"
"236045","913-UM","2018/06/21 14:49:35","新北市土城區廣福街68巷24號","121.458771666667","24.9904283333333","6501300","土城區"
"236054","AAC-216","2018/06/21 14:49:18","新北市土城區裕民路177號","121.453331666667","24.9848133333333","6501300","土城區"
"238012","303-VK","2018/06/21 14:49:36","新北市樹林區育德街78號","121.387485","24.9684383333333","6500700","樹林區"
"221002","707-TV","2018/06/21 14:49:42","新北市汐止區莊敬街21號","121.657318333333","25.06141","6501100","汐止區"
"220027","145-BY","2018/06/21 14:49:34","新北市板橋區建國街58號","121.458895","25.017085","6500100","板橋區"
"220028","200-UY","2018/06/21 14:49:35","新北市板橋區大觀路二段79巷2弄16號","121.44735","25.0016133333333","6500100","板橋區"
"220030","610-BX","2018/06/21 14:49:37","新北市板橋區篤行路一段37號","121.431993333333","24.9938516666667","6500100","板橋區"
"220050","245-BX","2018/06/21 14:49:38","新北市板橋區縣民大道三段93巷28號","121.474856666667","25.0225533333333","6500100","板橋區"
"220003","256-TC","2018/06/21 14:49:37","新北市板橋區仁愛路49巷2-3號","121.460148333333","24.99951","6500100","板橋區"
"220004","276-BY","2018/06/21 14:49:39","新北市板橋區德興街37巷8號","121.453805","24.9938216666667","6500100","板橋區"
"220019","283-VK","2018/06/21 14:49:29","新北市板橋區五權街30巷26-2號","121.463886666667","24.9930416666667","6500100","板橋區"
"220043","285-UM","2018/06/21 14:49:33","新北市板橋區長江路一段21號","121.458128333333","25.029295","6500100","板橋區"
"220001","285-VK","2018/06/21 14:49:35","新北市板橋區中山路二段148巷19號","121.477115","25.0164933333333","6500100","板橋區"
"220031","286-VK","2018/06/21 14:49:33","新北市板橋區僑中二街10巷7-4號","121.44656","25.0109833333333","6500100","板橋區"
"220029","287-VK","2018/06/21 14:49:39","新北市板橋區大觀路一段28巷107-1號","121.449841666667","25.0122616666667","6500100","板橋區"
"220039","288-VK","2018/06/21 14:49:25","新北市板橋區龍泉街54巷8弄27號","121.457721666667","25.0270483333333","6500100","板橋區"
"220009","293-UM","2018/06/21 14:49:33","新北市板橋區觀光街1巷15號","121.471816666667","25.0151916666667","6500100","板橋區"
"220010","295-UM","2018/06/21 14:49:36","新北市板橋區三民路二段32號","121.479233333333","25.0178533333333","6500100","板橋區"
"220032","296-UM","2018/06/21 14:49:22","新北市樹林區水源街213號","121.424256666667","24.9870583333333","6500100","板橋區"
"220023","303-R5","2018/06/21 14:49:30","新北市板橋區中正路229號","121.455841666667","25.0177683333333","6500100","板橋區"
"220041","307-R5","2018/06/21 14:49:35","新北市板橋區四維路259巷57號","121.461208333333","25.027035","6500100","板橋區"
"220047","317-R6","2018/06/21 14:49:37","新北市板橋區新海路404號","121.458613333333","25.0269283333333","6500100","板橋區"
"220012","486-VK","2018/06/21 14:49:25","新北市板橋區公園街36-1號","121.462433333333","25.0082366666667","6500100","板橋區"
"220037","491-VK","2018/06/21 14:49:29","新北市板橋區民治街32號","121.478101666667","25.03419","6500100","板橋區"
"220104","560-BX","2018/06/21 14:49:33","新北市板橋區金華街84號","121.457983333333","25.020595","6500100","板橋區"
"220052","561-BX","2018/06/21 14:49:33","新北市板橋區陽明街29巷26號","121.464055","25.0225333333333","6500100","板橋區"
"220011","609-BX","2018/06/21 14:49:32","新北市板橋區三民路一段1巷28號","121.480141666667","25.02451","6500100","板橋區"
"220040","637-BX","2018/06/21 14:49:41","新北市板橋區懷德街127巷25號","121.479666666667","25.0313383333333","6500100","板橋區"
"220005","686-BX","2018/06/21 14:49:37","新北市板橋區廣和街138號","121.462615","24.9919083333333","6500100","板橋區"
"220025","687-BX","2018/06/21 14:49:37","新北市板橋區僑中二街10巷1號","121.446935","25.0107983333333","6500100","板橋區"
"220042","689-BX","2018/06/21 14:49:38","新北市板橋區長江路一段154號","121.461051666667","25.030275","6500100","板橋區"
"220002","741-BX","2018/06/21 14:49:21","新北市板橋區忠孝路忠義巷15弄36號","121.465668333333","25.0044133333333","6500100","板橋區"
"220051","KEA-2699","2018/06/21 14:49:37","新北市板橋區松柏街57-4號","121.475703333333","25.0303633333333","6500100","板橋區"
"220014","830-TW","2018/06/21 14:49:23","新北市板橋區民生路一段23號","121.474941666667","25.011645","6500100","板橋區"
"220045","831-TW","2018/06/21 14:49:32","新北市板橋區文化路一段370-3號","121.469768333333","25.0234066666667","6500100","板橋區"
"220038","833-TW","2018/06/21 14:49:37","新北市板橋區英士路199號","121.458798333333","25.023495","6500100","板橋區"
"220022","895-R6","2018/06/21 14:49:35","新北市板橋區府中路27號","121.459115","25.0086683333333","6500100","板橋區"
"220021","985-R7","2018/06/21 14:49:35","新北市板橋區大仁街93號","121.453308333333","25.0159633333333","6500100","板橋區"
"220046","AAC-210","2018/06/21 14:49:34","新北市板橋區文化路一段285巷1弄2號","121.464281666667","25.0187233333333","6500100","板橋區"
"220018","AAC-253","2018/06/21 14:49:30","新北市板橋區民族路259號","121.470468333333","25.0069233333333","6500100","板橋區"
"235032","KEA-2873","2018/06/21 14:49:18","新北市中和區中山路二段248號","121.497745","25.0024633333333","6500300","中和區"
