"lineid","car","time","location","longitude","latitude","cityid","cityname"
"248013","025-BX","2018/06/21 15:09:42","新北市八里區荖阡坑路16-8號","121.398615","25.1390283333333","6501500","五股區"
"248007","095-VK","2018/06/21 15:09:20","新北市五股區中興路一段1巷28號","121.469825","25.0703566666667","6501500","五股區"
"248017","225-UY","2018/06/21 15:09:32","新北市五股區登林路97-2號","121.416018333333","25.0753866666667","6501500","五股區"
"248003","677-BX","2018/06/21 15:09:31","新北市五股區成泰路一段138號","121.435118333333","25.07561","6501500","五股區"
"244003","248-BX","2018/06/21 15:09:39","新北市林口區竹林路266號","121.389693333333","25.0807716666667","6501700","林口區"
"243001","297-R6","2018/06/21 15:09:12","新北市泰山區忠孝街16巷19號","121.428286666667","25.065105","6501600","泰山區"
"243008","380-SR","2018/06/21 15:09:29","新北市泰山區新生路33號","121.427756666667","25.0451666666667","6501600","泰山區"
"243007","421-VK","2018/06/21 15:09:40","新北市泰山區泰林路二段282號","121.431333333333","25.062465","6501600","泰山區"
"243003","KEA-2215","2018/06/21 15:09:39","新北市泰山區新北大道六段391號","121.421635","25.03222","6501600","泰山區"
"243002","KEA-2216","2018/06/21 15:09:28","新北市泰山區明志路二段9號","121.430148333333","25.0536216666667","6501600","泰山區"
"243004","646-TV","2018/06/21 15:09:24","新北市泰山區文化街32號","121.43513","25.0634566666667","6501600","泰山區"
"243006","680-BX","2018/06/21 15:09:33","新北市泰山區橫窠雅2號","121.402121666667","25.0729583333333","6501600","泰山區"
"231002","002-UM","2018/06/21 15:09:34","新北市新店區中正路501-5號","121.53357","24.983885","6500600","新店區"
"231028","046-UY","2018/06/21 15:09:29","新北市新店區僑信路118號","121.500385","24.946535","6500600","新店區"
"231001","047-UY","2018/06/21 15:09:33","新北市新店區中正路162號","121.541341666667","24.971835","6500600","新店區"
"231005","106-UY","2018/06/21 15:09:25","新北市新店區北新路三段141號","121.541335","24.9832166666667","6500600","新店區"
"231021","108-UY","2018/06/21 15:09:33","新北市新店區永福路30-1號","121.548818333333","24.929125","6500600","新店區"
"231011","187-VK","2018/06/21 15:09:27","新北市新店區寶元路一段65號","121.542251666667","24.98575","6500600","新店區"
"231023","KEA-2219","2018/06/21 15:09:41","新北市新店區檳榔路109號","121.544541666667","24.9616666666667","6500600","新店區"
"231026","256-BX","2018/06/21 15:09:32","新北市新店區建安街15巷1號","121.539773333333","24.9754133333333","6500600","新店區"
"231003","268-BY","2018/06/21 15:09:32","新北市新店區寶橋路207號","121.548578333333","24.9770366666667","6500600","新店區"
"231018","278-BY","2018/06/21 15:09:24","新北市新店區溪園路451號","121.524835","24.9775583333333","6500600","新店區"
"231017","AAD-862","2018/06/21 15:06:00","新北市新店區明山路93號","121.565338333333","24.9571016666667","6500600","新店區"
"231038","3712-VJ","2018/06/21 15:09:22","新北市新店區安一路一段1-1號","121.51977","24.9611","6500600","新店區"
"231037","4716-K9","2018/06/21 15:09:42","新北市新店區安民街341-1號","121.516638333333","24.974905","6500600","新店區"
"231025","4715-K9","2018/06/21 15:09:40","新北市新店區二十張路46巷37弄25號","121.536076666667","24.9814816666667","6500600","新店區"
"231036","512-UM","2018/06/21 15:09:37","新北市新店區安祥路102巷70號","121.485603333333","24.9640683333333","6500600","新店區"
"231034","616-UM","2018/06/21 15:09:24","新北市新店區玫瑰路4-1號","121.493603333333","24.95139","6500600","新店區"
"231030","619-UM","2018/06/21 15:09:24","新北市新店區安民街341-1號","121.516718333333","24.974945","6500600","新店區"
"231039","718-UY","2018/06/21 15:09:36","新北市新店區寶安街10號","121.542218333333","24.9813333333333","6500600","新店區"
"231035","719-UM","2018/06/21 15:09:28","新北市新店區永安街34巷23號","121.518335","24.9863316666667","6500600","新店區"
"231031","720-UM","2018/06/21 15:09:37","新北市新店區安泰路109號","121.486735","24.9431233333333","6500600","新店區"
"231029","897-TW","2018/06/21 15:09:38","新北市新店區安康路三段738號","121.473825","24.9420283333333","6500600","新店區"
"231006","898-TW","2018/06/21 15:09:33","新北市新店區新坡一街18巷5弄8-1號","121.550735","24.96185","6500600","新店區"
"231004","899-TW","2018/06/21 15:09:39","新北市新店區建國路40號","121.540555","24.974915","6500600","新店區"
"231024","AKT-0513","2018/06/21 15:09:34","新北市新店區北新路一段297巷17號","121.540856666667","24.9678133333333","6500600","新店區"
"235020","096-UM","2018/06/21 15:09:33","新北市中和區中山路三段170巷2弄1號","121.472885","25.0066616666667","6500300","中和區"
"235003","097-UM","2018/06/21 15:09:25","新北市中和區安平路17號","121.509151666667","24.9942416666667","6500300","中和區"
"235004","150-BY","2018/06/21 15:09:30","新北市中和區景安路79巷21號","121.507133333333","24.9968116666667","6500300","中和區"
"235036","301-VK","2018/06/21 15:09:36","新北市中和區連城路227號","121.494125","24.99753","6500300","中和區"
"235007","352-BY","2018/06/21 15:09:39","新北市中和區興南路二段159巷4號","121.505083333333","24.9833683333333","6500300","中和區"
"235014","4979-A6","2018/06/21 15:09:31","新北市中和區景新街323號","121.51128","24.99219","6500300","中和區"
"235033","4980-A6","2018/06/21 15:09:23","新北市中和區景新街16號","121.502773333333","24.9993416666667","6500300","中和區"
"235034","558-UM","2018/06/21 15:09:22","新北市中和區圓通路183號","121.497463333333","24.9946983333333","6500300","中和區"
"235018","640-BX","2018/06/21 15:09:36","新北市中和區民享街41號","121.474045","25.0030066666667","6500300","中和區"
"235035","783-BX","2018/06/21 15:09:38","新北市中和區中正路988巷7號","121.481955","25.0098933333333","6500300","中和區"
"235012","896-TW","2018/06/21 15:09:31","新北市中和區興南路二段32巷1號","121.507236666667","24.9856566666667","6500300","中和區"
"235030","911-UM","2018/06/21 15:09:24","新北市中和區水源路127巷2弄2號","121.508065","25.0041533333333","6500300","中和區"
"235015","157-BY","2018/06/21 15:09:26","新北市中和區信義街115號","121.512085","24.986815","6500300","中和區"
"235001","AAC-213","2018/06/21 15:09:41","新北市中和區景平路4號","121.524195","24.9904583333333","6500300","中和區"
"235023","AAC-215","2018/06/21 15:09:35","新北市中和區圓通路335巷33弄11號","121.493175","24.9891583333333","6500300","中和區"
"220016","013-TV","2018/06/21 15:09:33","新北市板橋區光復街215號","121.484723333333","25.0213416666667","6500100","板橋區"
"220020","015-TV","2018/06/21 15:09:36","新北市板橋區篤行路二段1巷11號","121.432268333333","24.9926783333333","6500100","板橋區"
"220013","072-UY","2018/06/21 15:09:24","新北市板橋區南雅南路二段11-29號","121.453725","25.00123","6500100","板橋區"
"220105","075-UY","2018/06/21 15:09:37","新北市板橋區文聖街11巷24號","121.47614","25.0330333333333","6500100","板橋區"
"220017","AAD-861","2018/06/21 15:09:35","新北市板橋區大明街20巷19弄5號","121.458236666667","25.0031333333333","6500100","板橋區"
"247021","500-BY","2018/06/21 15:09:33","新北市蘆洲區中正路472號","121.462368333333","25.0952566666667","6501400","蘆洲區"
"247009","341-TH","2018/06/21 15:09:40","新北市八里區下罟子5-6號","121.387275","25.1462583333333","6501400","蘆洲區"
"228004","212-TW","2018/06/21 15:09:24","新北市貢寮區雙玉里田寮洋街16-2號","121.921761666667","25.02522","6502600","貢寮區"
"253003","6232-TK","2018/06/21 15:09:34","新北市石門區小坑9號","121.59448","25.2891716666667","6502200","石門區"
"253001","6251-TK","2018/06/21 15:09:32","新北市石門區崁子腳30-1號","121.535543333333","25.28842","6502200","石門區"
"253002","637-UY","2018/06/21 15:09:22","新北市石門區尖子鹿77號","121.572015","25.296185","6502200","石門區"
"253004","8270-PC","2018/06/21 15:09:24","新北市石門區小坑22號","121.593096666667","25.2809233333333","6502200","石門區"
"207002","749-BX","2018/06/21 15:09:22","新北市萬里區崁腳里內中福路66號","121.655341666667","25.1668216666667","6502800","萬里區"
"207001","662-BX","2018/06/21 15:09:38","新北市萬里區磺潭里員潭路16-9號","121.64475","25.19553","6502800","萬里區"
"236040","107-UM","2018/06/21 15:09:28","新北市土城區裕民路285號","121.456105","24.9817783333333","6501300","土城區"
"236074","166-UM","2018/06/21 15:09:24","新北市土城區大暖坑11-1號","121.418643333333","24.9539133333333","6501300","土城區"
"236029","253-BX","2018/06/21 15:09:39","新北市土城區福祥街53號","121.440816666667","24.9800433333333","6501300","土城區"
"236024","269-VK","2018/06/21 15:09:31","新北市土城區員林街76號","121.44423","24.9767666666667","6501300","土城區"
"236012","270-VK","2018/06/21 15:09:28","新北市土城區學府路一段75巷16弄16號","121.45661","24.9872066666667","6501300","土城區"
"236032","271-VK","2018/06/21 15:09:36","新北市土城區仁愛路25號","121.46257","24.9784833333333","6501300","土城區"
"236068","KEA-2877","2018/06/21 15:09:34","新北市土城區學成路154號","121.448258333333","24.9894733333333","6501300","土城區"
"236017","401-BY","2018/06/21 15:09:35","新北市土城區延峰街18號","121.468791666667","24.986235","6501300","土城區"
"236060","752-BX","2018/06/21 15:09:27","新北市土城區金城路三段93巷6號","121.467018333333","24.98792","6501300","土城區"
"236057","912-UM","2018/06/21 15:09:35","新北市土城區金城路二段236號","121.456741666667","24.9829066666667","6501300","土城區"
"236045","913-UM","2018/06/21 15:09:35","新北市土城區清水路76號","121.456755","24.9817516666667","6501300","土城區"
"236054","AAC-216","2018/06/21 15:09:18","新北市土城區學府路一段167號","121.452945","24.9855283333333","6501300","土城區"
"238006","599-UM","2018/06/21 15:09:38","新北市樹林區太平路273巷23號","121.42138","24.976855","6500700","樹林區"
"238011","5061-A6","2018/06/21 15:09:39","新北市樹林區環河路10號","121.426535","24.978875","6500700","樹林區"
"238009","KEA-2213","2018/06/21 15:09:20","新北市樹林區環河路10-1號","121.424756666667","24.97633","6500700","樹林區"
"238008","KEA-2539","2018/06/21 15:09:23","新北市樹林區西圳街一段165巷20弄11號","121.395606666667","24.96017","6500700","樹林區"
"238012","303-VK","2018/06/21 15:09:36","新北市樹林區中山路三段125-11號","121.398741666667","24.9738566666667","6500700","樹林區"
"238001","283-BY","2018/06/21 15:09:32","新北市樹林區八德街224號","121.415531666667","24.9717983333333","6500700","樹林區"
"238001","282-BY","2018/06/21 15:09:28","新北市樹林區大安路579號","121.411968333333","24.98349","6500700","樹林區"
"238007","268-VK","2018/06/21 15:09:21","新北市樹林區大安路587號","121.411801666667","24.9834066666667","6500700","樹林區"
"238013","172-UY","2018/06/21 15:09:37","新北市樹林區東豐街2號","121.418056666667","24.9748233333333","6500700","樹林區"
"220027","145-BY","2018/06/21 15:09:34","新北市板橋區大觀路一段35巷1號","121.449505","25.0085066666667","6500100","板橋區"
"220030","610-BX","2018/06/21 15:09:37","新北市板橋區大觀路三段121號","121.432675","24.99452","6500100","板橋區"
"220050","245-BX","2018/06/21 15:09:38","新北市板橋區莒光路165巷32號","121.47446","25.0247033333333","6500100","板橋區"
"220003","256-TC","2018/06/21 15:09:37","新北市板橋區仁愛路26號","121.458828333333","24.999435","6500100","板橋區"
"220043","285-UM","2018/06/21 15:09:28","新北市板橋區陽明街25巷1號","121.466018333333","25.021805","6500100","板橋區"
"220001","285-VK","2018/06/21 15:09:35","新北市板橋區永豐街24號","121.474698333333","25.0170733333333","6500100","板橋區"
"220031","286-VK","2018/06/21 15:09:33","新北市板橋區僑中二街102巷36號","121.444755","25.0086016666667","6500100","板橋區"
"220029","287-VK","2018/06/21 15:09:38","新北市板橋區僑中一街80巷7弄9號","121.447355","25.012685","6500100","板橋區"
"220039","288-VK","2018/06/21 15:09:30","新北市板橋區幸福路32巷46號","121.46055","25.0219233333333","6500100","板橋區"
"220009","293-UM","2018/06/21 15:09:33","新北市板橋區新民街7巷23號","121.463473333333","25.0105183333333","6500100","板橋區"
"220010","295-UM","2018/06/21 15:09:36","新北市板橋區萬安街20巷8弄18號","121.485066666667","25.0233516666667","6500100","板橋區"
"220041","307-R5","2018/06/21 15:09:35","新北市板橋區民權路202巷14弄15號","121.461423333333","25.0157483333333","6500100","板橋區"
"220012","486-VK","2018/06/21 15:09:25","新北市板橋區海山路51號","121.466953333333","25.0102333333333","6500100","板橋區"
"220037","491-VK","2018/06/21 15:09:29","新北市板橋區懷德街57號","121.47739","25.03263","6500100","板橋區"
"220052","561-BX","2018/06/21 15:09:33","新北市板橋區英士路58巷26號","121.46075","25.0255383333333","6500100","板橋區"
"220011","609-BX","2018/06/21 15:09:32","新北市板橋區中山路二段385號","121.480198333333","25.0192966666667","6500100","板橋區"
"220040","637-BX","2018/06/21 15:09:41","新北市板橋區文聖街130號","121.478265","25.0283516666667","6500100","板橋區"
"220042","689-BX","2018/06/21 15:09:37","新北市板橋區長江路三段58號","121.473611666667","25.03394","6500100","板橋區"
"220051","KEA-2699","2018/06/21 15:09:37","新北市板橋區懷德街81號","121.477925","25.031975","6500100","板橋區"
"220014","830-TW","2018/06/21 15:09:35","新北市板橋區中山路一段206巷81號","121.471743333333","25.01334","6500100","板橋區"
"220038","833-TW","2018/06/21 15:09:23","新北市板橋區龍泉街55巷24號","121.457558333333","25.025195","6500100","板橋區"
"220022","895-R6","2018/06/21 15:09:35","新北市板橋區館前西路68號","121.45762","25.0070666666667","6500100","板橋區"
"220046","AAC-210","2018/06/21 15:09:34","新北市板橋區復興街131號","121.460933333333","25.0180416666667","6500100","板橋區"
"220018","AAC-253","2018/06/21 15:09:30","新北市板橋區成都街10號","121.460355","25.0045533333333","6500100","板橋區"
