"lineid","car","time","location","longitude","latitude","cityid","cityname"
"249005","172-UM","2018/06/21 17:19:35","新北市五股區中直路崩山巷36號","121.417","25.1269266666667","6502300","八里區"
"249001","173-UM","2018/06/21 17:19:30","新北市八里區中華路二段165巷3號","121.407675","25.1509","6502300","八里區"
"249004","303-UY","2018/06/21 17:19:33","新北市八里區文化街39號","121.423401666667","25.1598466666667","6502300","八里區"
"249002","305-UY","2018/06/21 17:19:30","新北市八里區龍米路二段117巷42號","121.444298333333","25.1419266666667","6502300","八里區"
"249003","593-UM","2018/06/21 17:19:18","新北市八里區中山路二段459號","121.396245","25.1455","6502300","八里區"
"244007","080-UY","2018/06/21 17:19:19","新北市林口區中湖26-6號","121.377338333333","25.0949816666667","6501700","林口區"
"244019","403-UM","2018/06/21 17:19:18","新北市林口區公園路231-3號","121.375538333333","25.0752866666667","6501700","林口區"
"244013","742-UY","2018/06/21 17:19:30","新北市林口區粉寮69號","121.404991666667","25.0908483333333","6501700","林口區"
"244023","483-VK","2018/06/21 17:19:27","新北市林口區興林路26號","121.389706666667","25.075895","6501700","林口區"
"244017","485-VK","2018/06/21 17:19:30","新北市林口區粉寮路37-1號","121.401121666667","25.0849533333333","6501700","林口區"
"244009","656-BX","2018/06/21 17:19:21","新北市林口區文化北路二段550巷30弄36號","121.378133333333","25.091015","6501700","林口區"
"244011","657-BX","2018/06/21 17:19:25","新北市林口區粉寮路37-1號","121.401043333333","25.084845","6501700","林口區"
"244025","837-TS","2018/06/21 17:19:28","新北市林口區中山路516號","121.378918333333","25.08312","6501700","林口區"
"244021","838-TS","2018/06/21 17:19:18","新北市林口區粉寮路89-1號","121.40575","25.0978366666667","6501700","林口區"
"231046","188-VK","2018/06/21 17:19:17","新北市新店區直潭路92號","121.530918333333","24.9375733333333","6500600","新店區"
"241011","013-R5","2018/06/21 17:19:24","新北市三重區河邊北街100巷21號","121.503016666667","25.07024","6500200","三重區"
"241028","022-UY","2018/06/21 17:19:36","新北市三重區中正南路96號","121.494265","25.0587483333333","6500200","三重區"
"241008","059-VK","2018/06/21 17:19:26","新北市三重區力行路二段136巷29弄15號","121.48078","25.0758116666667","6500200","三重區"
"241022","060-VK","2018/06/21 17:19:31","新北市三重區中正北路64巷11號","121.486303333333","25.0640333333333","6500200","三重區"
"241015","062-VK","2018/06/21 17:19:24","新北市三重區長元街82-1號","121.501863333333","25.0663133333333","6500200","三重區"
"241017","063-VK","2018/06/21 17:19:21","新北市三重區大同北路61號","121.495151666667","25.063325","6500200","三重區"
"241026","066-VK","2018/06/21 17:19:30","新北市三重區文化南路31-4號","121.499948333333","25.06175","6500200","三重區"
"241002","090-VK","2018/06/21 17:19:38","新北市三重區仁愛街355號","121.491861666667","25.08003","6500200","三重區"
"241005","262-UM","2018/06/21 17:19:22","新北市三重區永安北路二段25巷37號","121.482983333333","25.0817566666667","6500200","三重區"
"241003","265-UM","2018/06/21 17:19:27","新北市三重區五華街123號","121.491526666667","25.0841783333333","6500200","三重區"
"241016","266-UM","2018/06/21 17:19:35","新北市三重區大同北路108號","121.493375","25.0638816666667","6500200","三重區"
"241009","267-UM","2018/06/21 17:19:20","新北市三重區仁愛街604號","121.483863333333","25.08072","6500200","三重區"
"241018","268-UM","2018/06/21 17:19:17","新北市三重區安慶街132號","121.494796666667","25.0689033333333","6500200","三重區"
"241032","269-UM","2018/06/21 17:19:22","新北市三重區興華街106號","121.48393","25.0597733333333","6500200","三重區"
"241013","270-UM","2018/06/21 17:19:36","新北市三重區仁愛街82巷8號","121.495043333333","25.0734016666667","6500200","三重區"
"241025","271-UM","2018/06/21 17:19:17","新北市三重區中正北路293號","121.474611666667","25.0712066666667","6500200","三重區"
"241007","398-BY","2018/06/21 17:19:31","新北市三重區三和路四段157號","121.483793333333","25.0784533333333","6500200","三重區"
"241024","KEA-2210","2018/06/21 17:19:18","新北市三重區國道路一段58巷15號","121.481388333333","25.0720266666667","6500200","三重區"
"241024","413-TH","2018/06/21 17:19:33","新北市三重區中正北路193巷21弄30號","121.478013333333","25.0709116666667","6500200","三重區"
"241004","475-VK","2018/06/21 17:19:35","新北市三重區五華街110巷17弄1號","121.491045","25.0822483333333","6500200","三重區"
"241020","478-VK","2018/06/21 17:19:29","新北市三重區自強路三段19號","121.487036666667","25.07227","6500200","三重區"
"241030","480-VK","2018/06/21 17:19:28","新北市三重區成功路73巷22號","121.489445","25.0520416666667","6500200","三重區"
"241014","543-UM","2018/06/21 17:19:25","新北市三重區長榮路3號","121.500156666667","25.068405","6500200","三重區"
"241023","545-UM","2018/06/21 17:19:30","新北市三重區三民街195號","121.48206","25.0657116666667","6500200","三重區"
"241001","547-UM","2018/06/21 17:19:31","新北市三重區仁愛街269巷41號","121.494156666667","25.0793616666667","6500200","三重區"
"241019","KEA-2593","2018/06/21 17:19:20","新北市三重區忠孝路二段42號","121.485305","25.070615","6500200","三重區"
"241012","941-UM","2018/06/21 17:19:22","新北市三重區河邊北街256巷12號","121.501445","25.076105","6500200","三重區"
"241029","942-UM","2018/06/21 17:19:30","新北市三重區重新路四段43號","121.48808","25.0575683333333","6500200","三重區"
"241033","AAC-255","2018/06/21 17:19:29","新北市三重區中興北街205號","121.46908","25.0577033333333","6500200","三重區"
"247024","893-R6","2018/06/21 17:19:35","新北市蘆洲區長榮路256號","121.46055","25.0858683333333","6501400","蘆洲區"
"247014","546-UM","2018/06/21 17:19:17","新北市蘆洲區得勝街165號","121.471276666667","25.0828516666667","6501400","蘆洲區"
"247022","500-BY","2018/06/21 17:19:33","新北市蘆洲區三民路128巷47號","121.469848333333","25.0899233333333","6501400","蘆洲區"
"247010","341-TH","2018/06/21 17:19:35","新北市蘆洲區中山一路120巷7弄1號","121.477401666667","25.0818633333333","6501400","蘆洲區"
"247012","339-TH","2018/06/21 17:19:18","新北市蘆洲區信義路319巷10弄3號","121.477566666667","25.0864133333333","6501400","蘆洲區"
"247004","337-TH","2018/06/21 17:19:25","新北市蘆洲區永安南路二段276號","121.458103333333","25.0808466666667","6501400","蘆洲區"
"247006","336-TH","2018/06/21 17:19:17","新北市蘆洲區長安街73巷19號","121.462081666667","25.0793933333333","6501400","蘆洲區"
"247018","057-VK","2018/06/21 17:19:32","新北市蘆洲區民權路68巷16號","121.475485","25.0879633333333","6501400","蘆洲區"
"247008","056-VK","2018/06/21 17:19:26","新北市蘆洲區信義路30巷137號","121.47535","25.0765683333333","6501400","蘆洲區"
"247016","007-UY","2018/06/21 17:19:20","新北市蘆洲區正和街96巷22號","121.467793333333","25.0812233333333","6501400","蘆洲區"
"247002","002-UY","2018/06/21 17:18:08","新北市蘆洲區永樂街38巷19弄61號","121.456391666667","25.0894466666667","6501400","蘆洲區"
"247020","001-UY","2018/06/21 17:19:31","新北市蘆洲區仁愛街2號","121.472511666667","25.0923233333333","6501400","蘆洲區"
"228003","097-TW","2018/06/21 17:19:24","新北市貢寮區福隆里興隆街38號","121.940231666667","25.0180766666667","6502600","貢寮區"
"228001","212-TW","2018/06/21 17:19:25","新北市貢寮區仁理村尖山腳街18-3號","121.9255","25.04829","6502600","貢寮區"
"228002","663-BX","2018/06/21 17:19:31","新北市貢寮區雙玉里田寮洋街26號","121.926543333333","25.013785","6502600","貢寮區"
"224006","676-BX","2018/06/21 17:19:19","新北市瑞芳區傑魚坑路322號","121.78631","25.1046","6501200","瑞芳區"
"224008","285-BY","2018/06/21 17:19:26","新北市瑞芳區侯硐路48號","121.825773333333","25.0829983333333","6501200","瑞芳區"
"224009","273-VK","2018/06/21 17:19:25","新北市瑞芳區汽車路93-9號","121.842915","25.1094916666667","6501200","瑞芳區"
"224005","271-BY","2018/06/21 17:19:29","新北市瑞芳區鼻頭路171號","121.915883333333","25.122775","6501200","瑞芳區"
"227004","642-TC","2018/06/21 17:19:32","新北市雙溪區上林里內平林90號","121.827588333333","25.027465","6502500","雙溪區"
"227010","400-TW","2018/06/21 17:19:31","新北市雙溪區三貂里十三層9-5號","121.853258333333","25.077375","6502500","雙溪區"
"251004","009-UM","2018/06/21 17:19:21","新北市淡水區中正東路二段103號","121.459445","25.1515333333333","6501000","淡水區"
"251013","KEA-2871","2018/06/21 17:19:19","新北市淡水區竹圍子8-1號","121.477208333333","25.193685","6501000","淡水區"
"251016","179-VK","2018/06/21 17:19:20","新北市淡水區鄒厝崙7號","121.4708","25.188045","6501000","淡水區"
"251014","180-VK","2018/06/21 17:19:28","新北市淡水區公埔子45號","121.463846666667","25.23003","6501000","淡水區"
"251008","181-VK","2018/06/21 17:19:22","新北市淡水區大同路263號","121.4668","25.1420683333333","6501000","淡水區"
"251015","182-VK","2018/06/21 17:19:21","新北市淡水區三空泉16-10號","121.472008333333","25.165055","6501000","淡水區"
"251010","413-VK","2018/06/21 17:19:33","新北市淡水區中正路二段211號","121.42624","25.1891566666667","6501000","淡水區"
"251012","441-VK","2018/06/21 17:19:30","新北市淡水區中山北路一段158號","121.444255","25.177935","6501000","淡水區"
"251007","442-VK","2018/06/21 17:19:31","新北市淡水區民生路47-5號","121.462188333333","25.1380466666667","6501000","淡水區"
"251005","443-VK","2018/06/21 17:19:35","新北市淡水區鄧公路19號","121.451416666667","25.1700316666667","6501000","淡水區"
"251006","561-UM","2018/06/21 17:19:27","新北市淡水區新生街124號","121.440995","25.1746083333333","6501000","淡水區"
"251009","575-R6","2018/06/21 17:19:34","新北市淡水區三民街17號","121.438956666667","25.1717883333333","6501000","淡水區"
"251011","650-BX","2018/06/21 17:19:34","新北市淡水區坪頂路131號","121.464738333333","25.1615066666667","6501000","淡水區"
"251002","672-BX","2018/06/21 17:19:38","新北市淡水區中正路二段31號","121.419631666667","25.1818916666667","6501000","淡水區"
"251003","766-UM","2018/06/21 17:19:24","新北市淡水區中正路二段31號","121.419483333333","25.181635","6501000","淡水區"
"207003","550-UM","2018/06/21 17:19:20","新北市萬里區萬里里瑪鋉路314號","121.68824","25.1820866666667","6502800","萬里區"
"252002","178-VK","2018/06/21 17:19:34","新北市三芝區忠孝街1-15號","121.505493333333","25.253885","6502100","三芝區"
"252001","292-VK","2018/06/21 17:19:27","新北市三芝區長安街119號","121.498075","25.2596583333333","6502100","三芝區"
"242058","986-R7","2018/06/21 17:19:27","新北市新莊區新泰路357巷3弄1號","121.44228","25.0415116666667","6500500","新莊區"
"242053","751-BX","2018/06/21 17:19:29","新北市新莊區中正路473-1號","121.441995","25.0332083333333","6500500","新莊區"
"242023","705-TV","2018/06/21 17:19:35","新北市新莊區中港一街142號","121.446775","25.0448766666667","6500500","新莊區"
"242027","615-BX","2018/06/21 17:19:19","新北市新莊區中環路二段392-1號","121.442513333333","25.04542","6500500","新莊區"
"242025","613-BX","2018/06/21 17:19:27","新北市新莊區新泰路486號","121.442468333333","25.045735","6500500","新莊區"
"242029","612-BX","2018/06/21 17:19:18","新北市新莊區新泰路486號","121.442531666667","25.04569","6500500","新莊區"
"242042","566-BX","2018/06/21 17:19:29","新北市新莊區新泰路357巷2號","121.442035","25.0414666666667","6500500","新莊區"
"242046","497-BY","2018/06/21 17:19:34","新北市新莊區新泰路357巷3弄27號","121.441943333333","25.0406383333333","6500500","新莊區"
"242051","441-UM","2018/06/21 17:19:30","新北市新莊區中正路471號","121.442013333333","25.0334416666667","6500500","新莊區"
"242036","415-TV","2018/06/21 17:19:34","新北市新莊區中正路471號","121.441768333333","25.0338616666667","6500500","新莊區"
"242007","413-TV","2018/06/21 17:19:35","新北市新莊區新泰路421-7號","121.442345","25.04511","6500500","新莊區"
"242044","400-BY","2018/06/21 17:19:28","新北市新莊區三和路10號","121.441943333333","25.0358766666667","6500500","新莊區"
"242061","353-BY","2018/06/21 17:19:21","新北市新莊區新泰路357巷3弄23號","121.441933333333","25.0406933333333","6500500","新莊區"
"242009","132-UY","2018/06/21 17:19:27","新北市新莊區中環路二段392-1號","121.4424","25.0454883333333","6500500","新莊區"
"242039","133-UY","2018/06/21 17:19:17","新北市新莊區中正路400號","121.441625","25.03388","6500500","新莊區"
"242048","172-VK","2018/06/21 17:19:33","新北市新莊區中正路475號","121.441618333333","25.0337816666667","6500500","新莊區"
"242017","175-VK","2018/06/21 17:19:26","新北市新莊區新泰路421-7號","121.442428333333","25.0449066666667","6500500","新莊區"
"242004","176-VK","2018/06/21 17:19:33","新北市新莊區中環路二段392-1號","121.442386666667","25.045505","6500500","新莊區"
"242015","346-TH","2018/06/21 17:19:33","新北市新莊區公園一路112號","121.444675","25.0378766666667","6500500","新莊區"
"242021","348-TH","2018/06/21 17:19:19","新北市新莊區新泰路488號","121.442493333333","25.0458333333333","6500500","新莊區"
"242002","349-TH","2018/06/21 17:19:26","新北市新莊區新泰路290號","121.445695","25.0407066666667","6500500","新莊區"
"242019","350-TH","2018/06/21 17:19:32","新北市新莊區中平路82巷36-1號","121.446263333333","25.0449183333333","6500500","新莊區"
"242013","351-TH","2018/06/21 17:19:28","新北市新莊區新泰路421-7號","121.442361666667","25.0452066666667","6500500","新莊區"
"238023","601-UM","2018/06/21 17:19:34","新北市樹林區中正路433-2號","121.415046666667","25.00848","6500700","樹林區"
"238019","599-UM","2018/06/21 17:19:29","新北市樹林區八德街225號","121.421448333333","24.9792383333333","6500700","樹林區"
"238018","571-TV","2018/06/21 17:19:23","新北市樹林區鎮前街269巷2號","121.420208333333","24.9855733333333","6500700","樹林區"
"238024","5061-A6","2018/06/21 17:19:27","新北市樹林區保安街一段48巷26號","121.42649","24.9952133333333","6500700","樹林區"
"238022","KEA-2213","2018/06/21 17:19:20","新北市樹林區忠孝街19號","121.423463333333","24.98257","6500700","樹林區"
"238021","KEA-2539","2018/06/21 17:19:23","新北市樹林區西圳街一段165巷1號","121.395235","24.96246","6500700","樹林區"
"238025","303-VK","2018/06/21 17:19:24","新北市樹林區保安二街67號","121.424631666667","24.9947766666667","6500700","樹林區"
"238017","283-BY","2018/06/21 17:19:32","新北市樹林區中正路234巷10號","121.418558333333","25.007425","6500700","樹林區"
"238014","282-BY","2018/06/21 17:19:28","新北市樹林區長壽街70巷38號","121.421888333333","24.99493","6500700","樹林區"
"238020","268-VK","2018/06/21 17:19:20","新北市樹林區大安路203號","121.42052","24.9955666666667","6500700","樹林區"
"238026","172-UY","2018/06/21 17:19:17","新北市樹林區東順街79巷1號","121.409783333333","24.97654","6500700","樹林區"
"238016","169-UY","2018/06/21 17:19:31","新北市樹林區中山路一段245號","121.42059","24.9866883333333","6500700","樹林區"
"239006","891-R6","2018/06/21 17:19:31","新北市鶯歌區德昌二街73號","121.333353333333","24.9577766666667","6500800","鶯歌區"
"239008","527-UM","2018/06/21 17:19:25","新北市鶯歌區中山路124號","121.35038","24.95704","6500800","鶯歌區"
"239005","526-UM","2018/06/21 17:19:33","新北市鶯歌區福德三街18號","121.329523333333","24.967465","6500800","鶯歌區"
"239001","417-VK","2018/06/21 17:19:28","新北市鶯歌區尖山路173巷31號","121.3451","24.9465416666667","6500800","鶯歌區"
"239003","360-BY","2018/06/21 17:19:29","新北市鶯歌區德昌二街70巷32弄89號","121.330445","24.9566916666667","6500800","鶯歌區"
"239002","359-BY","2018/06/21 17:19:32","新北市鶯歌區建國路211號","121.349118333333","24.9532033333333","6500800","鶯歌區"
"239004","193-VK","2018/06/21 17:19:33","新北市鶯歌區文化路501號","121.352965","24.9487183333333","6500800","鶯歌區"
"242031","280-VK","2018/06/21 17:19:19","新北市新莊區新泰路417-9號","121.44243","25.044795","6500500","新莊區"
