"lineid","car","time","location","longitude","latitude","cityid","cityname"
"234007","207-UY","2018/06/21 18:09:28","新北市永和區新生路24巷11號","121.508526666667","25.016635","6500400","永和區"
"234050","553-UM","2018/06/21 18:09:23","新北市永和區福和路1號","121.52645","25.0098016666667","6500400","永和區"
"234042","862-TW","2018/06/21 18:09:22","新北市永和區福和路1號","121.525895","25.0096283333333","6500400","永和區"
"234026","9371-KE","2018/06/21 18:09:30","新北市永和區秀朗路一段10巷19號","121.513495","25.006135","6500400","永和區"
"249005","172-UM","2018/06/21 18:09:35","新北市八里區荖阡坑路15-40號","121.401745","25.139955","6502300","八里區"
"249001","173-UM","2018/06/21 18:09:30","新北市八里區龍米路二段30號","121.4486","25.1399683333333","6502300","八里區"
"249004","303-UY","2018/06/21 18:09:33","新北市八里區龍米路二段159號","121.439153333333","25.1538733333333","6502300","八里區"
"249002","305-UY","2018/06/21 18:09:30","新北市八里區龍米路一段356巷46號","121.452108333333","25.130375","6502300","八里區"
"249003","593-UM","2018/06/21 18:09:38","新北市八里區松子腳4-3號","121.403008333333","25.1442583333333","6502300","八里區"
"248014","025-BX","2018/06/21 18:09:19","新北市五股區成泰路一段222號","121.436493333333","25.0799033333333","6501500","五股區"
"248016","026-BX","2018/06/21 18:09:22","新北市五股區成泰路三段101-1號","121.44426","25.0903133333333","6501500","五股區"
"248006","077-UY","2018/06/21 18:09:23","新北市五股區中興路二段81號","121.46077","25.0771533333333","6501500","五股區"
"248008","095-VK","2018/06/21 18:09:23","新北市五股區更洲路32巷15弄9號","121.45818","25.0805","6501500","五股區"
"248020","225-UY","2018/06/21 18:09:26","新北市五股區成泰路四段2號","121.452853333333","25.1061233333333","6501500","五股區"
"248012","247-BX","2018/06/21 18:09:33","新北市五股區成泰路三段101-1號","121.444248333333","25.09008","6501500","五股區"
"248010","272-BY","2018/06/21 18:09:26","新北市五股區成泰路一段194-1號","121.435555","25.077945","6501500","五股區"
"248004","677-BX","2018/06/21 18:09:20","新北市五股區成泰路二段140號","121.438185","25.083785","6501500","五股區"
"248002","678-BX","2018/06/21 18:09:21","新北市五股區成泰路三段101-1號","121.444261666667","25.090095","6501500","五股區"
"232011","375-UM","2018/06/21 18:09:38","新北市坪林區國中路4號","121.713443333333","24.9387566666667","6502000","坪林區"
"244007","080-UY","2018/06/21 18:09:19","新北市林口區竹林路411號","121.386905","25.0837833333333","6501700","林口區"
"244019","403-UM","2018/06/21 18:09:18","新北市林口區文化一路一段113號","121.373136666667","25.0711433333333","6501700","林口區"
"244013","742-UY","2018/06/21 18:09:30","新北市林口區中山路130號","121.392215","25.0786883333333","6501700","林口區"
"244023","483-VK","2018/06/21 18:09:27","新北市林口區東湖路153巷135號","121.38221","25.0735683333333","6501700","林口區"
"244017","485-VK","2018/06/21 18:09:30","新北市林口區文化一路一段57-2號","121.370966666667","25.0699066666667","6501700","林口區"
"244009","656-BX","2018/06/21 18:09:21","新北市林口區佳林路86-2號","121.385638333333","25.0800916666667","6501700","林口區"
"244011","657-BX","2018/06/21 18:09:25","新北市林口區中正路79號","121.394925","25.0773766666667","6501700","林口區"
"244025","837-TS","2018/06/21 18:09:28","新北市林口區文化北路一段267號","121.358861666667","25.07154","6501700","林口區"
"244021","838-TS","2018/06/21 18:09:18","新北市林口區自強四街1號","121.39874","25.0768783333333","6501700","林口區"
"243013","AAD-798","2018/06/21 18:09:20","新北市泰山區南林路93號","121.415538333333","25.0511416666667","6501600","泰山區"
"243014","680-BX","2018/06/21 18:09:28","新北市泰山區黎明路25號","121.422221666667","25.0607783333333","6501600","泰山區"
"222003","436-BY","2018/06/21 18:09:30","新北市深坑區阿柔洋49號","121.611703333333","24.9969166666667","6501800","深坑區"
"222002","659-BX","2018/06/21 18:09:28","新北市深坑區文化街52號","121.619008333333","25.001715","6501800","深坑區"
"231041","002-UM","2018/06/21 18:09:27","新北市新店區安華路28-1號","121.520146666667","24.96082","6500600","新店區"
"231059","046-UY","2018/06/21 18:09:21","新北市新店區安華路28-1號","121.519623333333","24.960845","6500600","新店區"
"231040","047-UY","2018/06/21 18:09:23","新北市新店區安華路28-1號","121.519296666667","24.9607066666667","6500600","新店區"
"231044","106-UY","2018/06/21 18:09:32","新北市新店區安華路28-1號","121.519625","24.9606516666667","6500600","新店區"
"231052","108-UY","2018/06/21 18:09:21","新北市新店區安一路一段1-1號","121.519846666667","24.9611133333333","6500600","新店區"
"231047","187-VK","2018/06/21 18:09:21","新北市新店區安一路一段1-1號","121.519525","24.9614016666667","6500600","新店區"
"231046","188-VK","2018/06/21 18:09:37","新北市新店區直潭七街60號","121.532278333333","24.9398266666667","6500600","新店區"
"231054","KEA-2219","2018/06/21 18:09:35","新北市新店區安華路28-1號","121.52005","24.9609733333333","6500600","新店區"
"221035","KEA-2785","2018/06/21 18:09:31","新北市汐止區明峰街190號","121.628151666667","25.069835","6501100","汐止區"
"231051","278-BY","2018/06/21 18:09:33","新北市新店區安一路一段1-1號","121.51992","24.9610933333333","6500600","新店區"
"231050","AAD-862","2018/06/21 18:09:30","新北市新店區安華路28-1號","121.520053333333","24.960965","6500600","新店區"
"231058","3713-VJ","2018/06/21 18:09:33","新北市新店區安華路1-1號","121.519191666667","24.9605716666667","6500600","新店區"
"231066","4716-K9","2018/06/21 18:09:26","新北市新店區安一路一段1-1號","121.519195","24.9611916666667","6500600","新店區"
"231056","4715-K9","2018/06/21 18:09:33","新北市新店區安華路1-1號","121.51945","24.9604733333333","6500600","新店區"
"231067","4772-VM","2018/06/21 18:09:29","新北市新店區安華路1-1號","121.519216666667","24.960345","6500600","新店區"
"231049","513-UM","2018/06/21 18:09:33","新北市新店區安華路28-1號","121.519591666667","24.9609933333333","6500600","新店區"
"231063","616-UM","2018/06/21 18:09:19","新北市新店區安華路1-1號","121.51951","24.9600666666667","6500600","新店區"
"231061","619-UM","2018/06/21 18:09:25","新北市新店區安華路28-1號","121.519413333333","24.9606666666667","6500600","新店區"
"231064","719-UM","2018/06/21 18:09:17","新北市新店區安一路一段1-1號","121.51944","24.9610133333333","6500600","新店區"
"231055","AKT-0513","2018/06/21 18:09:28","新北市新店區安華路1-1號","121.519503333333","24.9603183333333","6500600","新店區"
"241024","KEA-2210","2018/06/21 18:09:38","新北市蘆洲區國道路二段25號","121.47514","25.0738016666667","6500200","三重區"
"241033","AAC-255","2018/06/21 18:09:29","新北市三重區中興北街125號","121.469856666667","25.0491916666667","6500200","三重區"
"235064","005-UY","2018/06/21 18:09:22","新北市中和區中正路271-1號","121.495726666667","24.9935966666667","6500300","中和區"
"235056","096-UM","2018/06/21 18:09:33","新北市中和區連城路469巷13號","121.483611666667","24.995365","6500300","中和區"
"235039","097-UM","2018/06/21 18:09:30","新北市中和區和城路一段271巷1號","121.48556","24.99162","6500300","中和區"
"235065","098-UM","2018/06/21 18:09:30","新北市中和區莊敬路49巷18號","121.501721666667","25.0061083333333","6500300","中和區"
"235040","150-BY","2018/06/21 18:09:20","新北市中和區中正路637巷60弄61號","121.48558","24.9931383333333","6500300","中和區"
"235058","151-BY","2018/06/21 18:09:30","新北市中和區圓通路367巷33弄23號","121.494846666667","24.98526","6500300","中和區"
"235038","185-VK","2018/06/21 18:09:28","新北市中和區景平路155號","121.51365","24.9922366666667","6500300","中和區"
"235043","352-BY","2018/06/21 18:09:22","新北市中和區錦和路350-1號","121.490513333333","24.9935366666667","6500300","中和區"
"235042","KEA-2878","2018/06/21 18:09:24","新北市中和區景平路406號","121.508791666667","24.993225","6500300","中和區"
"235050","4979-A6","2018/06/21 18:09:29","新北市中和區中正路273-2號","121.495633333333","24.9935633333333","6500300","中和區"
"235070","558-UM","2018/06/21 18:09:19","新北市中和區中正路275號","121.49554","24.9938333333333","6500300","中和區"
"235045","565-BX","2018/06/21 18:09:26","新北市中和區錦和路350-1號","121.490543333333","24.9935683333333","6500300","中和區"
"235054","640-BX","2018/06/21 18:09:29","新北市土城區延壽路77巷2號","121.469171666667","24.9927483333333","6500300","中和區"
"235060","647-TV","2018/06/21 18:09:23","新北市中和區員山路36巷16-3號","121.48476","24.991605","6500300","中和區"
"235047","732-UM","2018/06/21 18:09:39","新北市中和區復興路265號","121.502785","24.990345","6500300","中和區"
"235046","733-UM","2018/06/21 18:09:34","新北市中和區員山路36巷13號","121.484056666667","24.99114","6500300","中和區"
"235052","805-TS","2018/06/21 18:09:24","新北市中和區中正路488號","121.489251666667","24.9942816666667","6500300","中和區"
"235053","900-TW","2018/06/21 18:09:34","新北市中和區員山路36巷16-3號","121.484973333333","24.99171","6500300","中和區"
"235051","157-BY","2018/06/21 18:09:26","新北市中和區南山路158號","121.504343333333","24.9919766666667","6500300","中和區"
"235037","AAC-213","2018/06/21 18:09:23","新北市中和區景平路187號","121.511548333333","24.9926216666667","6500300","中和區"
"226004","312-R5","2018/06/21 18:09:21","新北市平溪區白石里白石腳28號","121.719673333333","25.0215166666667","6502400","平溪區"
"235057","251-BX","2018/06/21 18:09:26","新北市中和區中正路637巷52弄1號","121.485483333333","24.9934966666667","6500300","中和區"
"228003","097-TW","2018/06/21 18:09:24","新北市貢寮區真理里美艷山街6-2號","121.92885","25.06071","6502600","貢寮區"
"228001","212-TW","2018/06/21 18:09:25","新北市貢寮區真理里新港街26巷55弄2-1號","121.927415","25.052865","6502600","貢寮區"
"228002","663-BX","2018/06/21 18:09:30","新北市貢寮區福連里馬崗街1號","121.998328333333","25.015105","6502600","貢寮區"
"224010","AGQ-8101","2018/06/21 18:05:34","新北市瑞芳區汽車路5號","121.847493333333","25.111545","6501200","瑞芳區"
"224006","676-BX","2018/06/21 18:09:39","新北市瑞芳區中山路197號","121.801481666667","25.1065783333333","6501200","瑞芳區"
"224002","639-TC","2018/06/21 18:09:27","新北市瑞芳區三爪子坑路94-2號","121.809428333333","25.10539","6501200","瑞芳區"
"224008","285-BY","2018/06/21 18:09:26","新北市瑞芳區員山子路23號","121.82137","25.1029983333333","6501200","瑞芳區"
"224007","275-VK","2018/06/21 18:09:22","新北市瑞芳區四腳亭坑路35-15號","121.771186666667","25.109815","6501200","瑞芳區"
"224009","273-VK","2018/06/21 18:09:18","新北市瑞芳區金光路117號","121.853253333333","25.106115","6501200","瑞芳區"
"224005","271-BY","2018/06/21 18:09:29","新北市瑞芳區深澳路115號","121.818788333333","25.1306916666667","6501200","瑞芳區"
"227004","642-TC","2018/06/21 18:09:25","新北市雙溪區共和里東榮街52號","121.866368333333","25.0337166666667","6502500","雙溪區"
"253005","032-BX","2018/06/21 18:09:24","新北市石門區福安街11號","121.568511666667","25.2927316666667","6502200","石門區"
"253006","295-VK","2018/06/21 18:09:29","新北市石門區老梅路52巷25弄2-1號","121.546636666667","25.2875483333333","6502200","石門區"
"222001","KEA-2212","2018/06/21 18:09:33","新北市深坑區北深路二段182號","121.614138333333","25.0023566666667","6501800","深坑區"
"208002","KEA-2872","2018/06/21 18:09:27","新北市金山區三界壇路99巷23號","121.618885","25.2274066666667","6502700","金山區"
"208003","665-BX","2018/06/21 18:09:21","新北市金山區磺港里磺港路11號","121.649676666667","25.230595","6502700","金山區"
"208001","761-BX","2018/06/21 18:09:31","新北市金山區磺港里磺港路105號","121.64677","25.2270916666667","6502700","金山區"
"251004","009-UM","2018/06/21 18:09:35","新北市淡水區民權路191號","121.459903333333","25.1331283333333","6501000","淡水區"
"251001","011-UM","2018/06/21 18:09:35","新北市淡水區自立路1巷27號","121.462665","25.12956","6501000","淡水區"
"251013","KEA-2871","2018/06/21 18:09:19","新北市淡水區竹圍子9-3號","121.476698333333","25.19251","6501000","淡水區"
"251016","179-VK","2018/06/21 18:09:20","新北市淡水區下圭柔山13號","121.451143333333","25.20072","6501000","淡水區"
"251014","180-VK","2018/06/21 18:09:28","新北市淡水區南平15號","121.488573333333","25.2189833333333","6501000","淡水區"
"251008","181-VK","2018/06/21 18:09:22","新北市淡水區坪頂路70巷41號","121.460728333333","25.160395","6501000","淡水區"
"251015","182-VK","2018/06/21 18:09:21","新北市淡水區興福寮66巷541號","121.484615","25.1651916666667","6501000","淡水區"
"251010","413-VK","2018/06/21 18:09:33","新北市淡水區淡海路111號","121.421831666667","25.1827033333333","6501000","淡水區"
"251012","441-VK","2018/06/21 18:09:30","新北市淡水區北新路三段174號","121.49286","25.1927683333333","6501000","淡水區"
"251005","443-VK","2018/06/21 18:09:35","新北市淡水區水源街一段118號","121.447181666667","25.17185","6501000","淡水區"
"251006","561-UM","2018/06/21 18:09:07","新北市淡水區真理街15號","121.436746666667","25.1742516666667","6501000","淡水區"
"251009","575-R6","2018/06/21 18:09:33","新北市淡水區大忠街34巷7號","121.443666666667","25.175425","6501000","淡水區"
"251011","650-BX","2018/06/21 18:09:34","新北市淡水區三空泉9-2號","121.474116666667","25.16348","6501000","淡水區"
"251002","672-BX","2018/06/21 18:09:18","新北市淡水區中正東路一段127巷2號","121.455538333333","25.1591716666667","6501000","淡水區"
"251003","766-UM","2018/06/21 18:09:24","新北市淡水區大忠街113巷22號","121.44736","25.1773866666667","6501000","淡水區"
"207003","550-UM","2018/06/21 18:09:19","新北市萬里區野柳里港西路68-3號","121.685261666667","25.2045","6502800","萬里區"
"207004","225-TW","2018/06/21 18:09:32","新北市萬里區中幅里中福路149號","121.67517","25.1668266666667","6502800","萬里區"
"252002","178-VK","2018/06/21 18:09:34","新北市三芝區中山路二段40號","121.503003333333","25.2550883333333","6502100","三芝區"
"252003","249-BX","2018/06/21 18:09:23","新北市三芝區埔頭里埔頭37號","121.498663333333","25.2604533333333","6502100","三芝區"
"252001","292-VK","2018/06/21 18:09:27","新北市三芝區中興街二段2號","121.498445","25.25669","6502100","三芝區"
"237007","153-BY","2018/06/21 18:09:34","新北市三峽區中正路二段368號","121.365661666667","24.9097833333333","6500900","三峽區"
"237009","210-TH","2018/06/21 18:09:27","新北市三峽區大仁路50巷10號","121.36539","24.9379583333333","6500900","三峽區"
"237013","252-BX","2018/06/21 18:09:29","新北市三峽區長泰街16號","121.37884","24.9311466666667","6500900","三峽區"
"237012","275-BY","2018/06/21 18:09:27","新北市三峽區民生街1巷1-45號","121.377513333333","24.9361966666667","6500900","三峽區"
"237008","302-VK","2018/06/21 18:09:30","新北市三峽區白雞42-3號","121.379173333333","24.911315","6500900","三峽區"
"237014","433-BY","2018/06/21 18:09:30","新北市三峽區復興路129號","121.371426666667","24.938045","6500900","三峽區"
"237006","5529-G3","2018/06/21 18:09:30","新北市三峽區介壽路二段138巷6號","121.395241666667","24.9351733333333","6500900","三峽區"
"237011","KEA-2596","2018/06/21 18:09:23","新北市三峽區中正路一段73號","121.374928333333","24.9301183333333","6500900","三峽區"
"237016","649-BX","2018/06/21 18:09:31","新北市三峽區紫新路47號","121.42216","24.921795","6500900","三峽區"
"237010","706-TV","2018/06/21 18:09:23","新北市三峽區中園街20號","121.368316666667","24.927045","6500900","三峽區"
"237005","AKY-6261","2018/06/21 18:09:26","新北市三峽區秀川街26巷7號","121.371483333333","24.9342416666667","6500900","三峽區"
"236070","105-UM","2018/06/21 18:09:38","新北市土城區青雲路591號","121.459418333333","24.9710333333333","6501300","土城區"
"236042","107-UM","2018/06/21 18:09:28","新北市土城區中華路二段2號","121.43893","24.97983","6501300","土城區"
"236078","166-UM","2018/06/21 18:09:34","新北市土城區永安街3號","121.43447","24.965285","6501300","土城區"
"236030","253-BX","2018/06/21 18:09:22","新北市土城區城林路6巷80號","121.438621666667","24.9796866666667","6501300","土城區"
"236026","269-VK","2018/06/21 18:09:29","新北市土城區承天路18號","121.439486666667","24.9634983333333","6501300","土城區"
"236014","270-VK","2018/06/21 18:09:35","新北市土城區學府路一段239號","121.45058","24.9836133333333","6501300","土城區"
"236038","271-VK","2018/06/21 18:09:26","新北市土城區青雲路449-1號","121.45891","24.974705","6501300","土城區"
"236021","401-BY","2018/06/21 18:09:34","新北市土城區中華路二段2號","121.439023333333","24.9797816666667","6501300","土城區"
"236063","752-BX","2018/06/21 18:09:37","新北市土城區金城路二段26號","121.449993333333","24.97782","6501300","土城區"
"236059","912-UM","2018/06/21 18:09:33","新北市土城區中央路四段190號","121.416401666667","24.957765","6501300","土城區"
"236049","913-UM","2018/06/21 18:09:20","新北市土城區中正路82號","121.445206666667","24.975675","6501300","土城區"
"236055","AAC-216","2018/06/21 18:09:16","新北市土城區城林路6巷80號","121.438665","24.97966","6501300","土城區"
"242034","AAC-296","2018/06/21 18:09:29","新北市新莊區福海街8號","121.445305","25.03339","6500500","新莊區"
"242058","986-R7","2018/06/21 18:09:27","新北市新莊區新北大道七段241號","121.412998333333","25.0296683333333","6500500","新莊區"
"242053","751-BX","2018/06/21 18:09:29","新北市新莊區西盛街429巷32號","121.427936666667","25.0114","6500500","新莊區"
"242023","705-TV","2018/06/21 18:09:35","新北市新莊區幸福路755號","121.448221666667","25.0489833333333","6500500","新莊區"
"242027","615-BX","2018/06/21 18:09:39","新北市新莊區幸福路53號","121.45763","25.0493","6500500","新莊區"
"242025","613-BX","2018/06/21 18:09:32","新北市新莊區五權一路108號","121.459853333333","25.0679316666667","6500500","新莊區"
"242029","612-BX","2018/06/21 18:09:18","新北市新莊區中平路117號","121.444778333333","25.0465783333333","6500500","新莊區"
"242042","566-BX","2018/06/21 18:09:29","新北市新莊區天祥街135巷8弄1號","121.413668333333","25.0293733333333","6500500","新莊區"
"242046","497-BY","2018/06/21 18:09:34","新北市新莊區福營路336號","121.421661666667","25.0267733333333","6500500","新莊區"
"242051","441-UM","2018/06/21 18:09:30","新北市新莊區民本街25巷17號","121.429095","25.0194983333333","6500500","新莊區"
"242036","415-TV","2018/06/21 18:09:35","新北市新莊區後港一路65巷11弄12號","121.425728333333","25.027165","6500500","新莊區"
"242007","413-TV","2018/06/21 18:09:35","新北市新莊區自立街75號","121.454103333333","25.0454716666667","6500500","新莊區"
"242044","400-BY","2018/06/21 18:09:27","新北市新莊區天泉二街11號","121.415025","25.0249766666667","6500500","新莊區"
"242061","353-BY","2018/06/21 18:09:21","新北市新莊區新樹路267號","121.434318333333","25.02097","6500500","新莊區"
"242009","132-UY","2018/06/21 18:09:27","新北市新莊區昌平街41巷13號","121.454148333333","25.0523833333333","6500500","新莊區"
"242039","133-UY","2018/06/21 18:09:27","新北市新莊區民安西路88巷12弄2號","121.425938333333","25.020025","6500500","新莊區"
"242048","172-VK","2018/06/21 18:09:33","新北市新莊區民安路98巷3號","121.423728333333","25.0256966666667","6500500","新莊區"
"242011","173-VK","2018/06/21 18:05:29","新北市新莊區中港路中慶巷47號","121.448723333333","25.0537216666667","6500500","新莊區"
"242017","175-VK","2018/06/21 18:09:26","新北市新莊區中港路308號","121.452541666667","25.0450966666667","6500500","新莊區"
"242015","346-TH","2018/06/21 18:09:33","新北市新莊區中平路152巷46號","121.446695","25.0473833333333","6500500","新莊區"
"242056","347-TH","2018/06/21 18:09:28","新北市新莊區豐年街豐1巷13號","121.447103333333","25.0311933333333","6500500","新莊區"
"242021","348-TH","2018/06/21 18:09:19","新北市新莊區新興街100號","121.450615","25.038845","6500500","新莊區"
"242002","349-TH","2018/06/21 18:09:32","新北市新莊區新莊路91號","121.45778","25.0366833333333","6500500","新莊區"
"242019","350-TH","2018/06/21 18:09:36","新北市新莊區民樂街23號","121.45768","25.0406933333333","6500500","新莊區"
"242013","351-TH","2018/06/21 18:09:28","新北市新莊區中環路一段38號","121.442205","25.02753","6500500","新莊區"
"238015","755-BX","2018/06/21 18:09:18","新北市樹林區文德街1巷2號","121.419275","24.9913816666667","6500700","樹林區"
"238023","601-UM","2018/06/21 18:09:34","新北市樹林區三寶街7號","121.406661666667","25.015535","6500700","樹林區"
"238019","599-UM","2018/06/21 18:09:30","新北市樹林區忠孝街113巷2號","121.424768333333","24.9803616666667","6500700","樹林區"
"238018","571-TV","2018/06/21 18:09:23","新北市板橋區溪崑二街56巷17號","121.427435","24.9913683333333","6500700","樹林區"
"238024","5061-A6","2018/06/21 18:09:26","新北市樹林區保安街一段179號","121.421523333333","24.9955933333333","6500700","樹林區"
"238022","KEA-2213","2018/06/21 18:09:20","新北市樹林區太平路150巷43號","121.416783333333","24.9771483333333","6500700","樹林區"
"238021","KEA-2539","2018/06/21 18:09:23","新北市樹林區田尾街48-5號","121.409221666667","24.9615466666667","6500700","樹林區"
"238025","303-VK","2018/06/21 18:09:36","新北市樹林區保安街一段327-1號","121.417645","24.9983383333333","6500700","樹林區"
"238017","283-BY","2018/06/21 18:09:32","新北市樹林區保安街二段333巷2號","121.412436666667","25.0076066666667","6500700","樹林區"
"238014","282-BY","2018/06/21 18:09:28","新北市樹林區潭興街6號","121.424966666667","24.99865","6500700","樹林區"
"238020","268-VK","2018/06/21 18:09:20","新北市樹林區俊興街298號","121.4186","25.017985","6500700","樹林區"
"238026","172-UY","2018/06/21 18:09:37","新北市樹林區佳園路一段92號","121.39351","24.9691983333333","6500700","樹林區"
"238016","169-UY","2018/06/21 18:09:30","新北市樹林區日新街182號","121.41977","24.98776","6500700","樹林區"
"239006","891-R6","2018/06/21 18:09:30","新北市鶯歌區鶯桃路381巷2弄9號","121.33301","24.9636533333333","6500800","鶯歌區"
"239008","527-UM","2018/06/21 18:09:25","新北市鶯歌區朝陽街24巷2號","121.336635","24.9769416666667","6500800","鶯歌區"
"239005","526-UM","2018/06/21 18:09:33","新北市鶯歌區鶯桃路668巷73號","121.329893333333","24.9717766666667","6500800","鶯歌區"
"239001","417-VK","2018/06/21 18:09:28","新北市鶯歌區中正三路33號","121.339168333333","24.94227","6500800","鶯歌區"
"239003","360-BY","2018/06/21 18:09:29","新北市鶯歌區鶯桃路344號","121.333913333333","24.962405","6500800","鶯歌區"
"239002","359-BY","2018/06/21 18:09:32","新北市鶯歌區光明街48巷2號","121.347996666667","24.9561416666667","6500800","鶯歌區"
"221008","489-VK","2018/06/21 18:09:36","新北市汐止區康寧街315號","121.627015","25.0678116666667","6501100","汐止區"
"221036","130-UY","2018/06/21 18:09:21","新北市汐止區大同路三段109號","121.66849","25.07756","6501100","汐止區"
"221015","131-UY","2018/06/21 18:09:23","新北市汐止區長江街367-1號","121.668111666667","25.08245","6501100","汐止區"
"221010","269-BY","2018/06/21 18:09:36","新北市汐止區汐萬路二段275巷3弄1號","121.645296666667","25.08876","6501100","汐止區"
"221012","278-VK","2018/06/21 18:09:24","新北市汐止區保長路37巷42號","121.674165","25.07987","6501100","汐止區"
"221032","280-BY","2018/06/21 18:09:34","新北市汐止區橫科路61號","121.61865","25.0508933333333","6501100","汐止區"
"221027","281-BY","2018/06/21 18:09:30","新北市汐止區大同路二段486號","121.660438333333","25.0679416666667","6501100","汐止區"
"221029","298-VK","2018/06/21 18:09:28","新北市汐止區樟樹二路134號","121.640021666667","25.06581","6501100","汐止區"
"221021","299-VK","2018/06/21 18:09:21","新北市汐止區龍安路202巷28號","121.652593333333","25.0634233333333","6501100","汐止區"
"221031","353-TW","2018/06/21 18:09:26","新北市汐止區中興路181-3號","121.630523333333","25.066845","6501100","汐止區"
"221035","622-UM","2018/06/21 18:09:35","新北市汐止區大同路二段202號","121.653295","25.0648916666667","6501100","汐止區"
"221025","623-UM","2018/06/21 18:09:26","新北市汐止區秀峰路133號","121.660246666667","25.0625416666667","6501100","汐止區"
"221038","646-BX","2018/06/21 18:09:17","新北市汐止區莊敬街141巷5號","121.654548333333","25.06041","6501100","汐止區"
"221033","647-BX","2018/06/21 18:09:24","新北市汐止區宜興街10巷21號","121.62206","25.04073","6501100","汐止區"
"221002","707-TV","2018/06/21 18:09:33","新北市汐止區福德一路201巷32號","121.635891666667","25.064915","6501100","汐止區"
"221018","753-BX","2018/06/21 18:09:20","新北市汐止區忠孝東路384號","121.665533333333","25.0702516666667","6501100","汐止區"
"242031","280-VK","2018/06/21 18:09:19","新北市新莊區新泰路277巷22號","121.444656666667","25.0403516666667","6500500","新莊區"
"235068","KEA-2873","2018/06/21 18:09:33","新北市中和區員山路36巷16-3號","121.484993333333","24.9911916666667","6500300","中和區"
"235061","KEA-2875","2018/06/21 18:09:31","新北市中和區連城路607號","121.477928333333","24.993155","6500300","中和區"
