"lineid","car","time","location","longitude","latitude","cityid","cityname"
"234046","148-BY","2018/06/21 19:49:31","新北市永和區永利路125號","121.52407","25.0029633333333","6500400","永和區"
"234007","207-UY","2018/06/21 19:49:48","新北市中和區中和路234號","121.506823333333","24.999385","6500400","永和區"
"234081","298-R6","2018/06/21 19:49:44","新北市永和區永亨路127號","121.524401666667","25.00425","6500400","永和區"
"234038","336-UY","2018/06/21 19:49:42","新北市永和區民樂街39巷18弄44號","121.528426666667","24.99899","6500400","永和區"
"234064","337-UY","2018/06/21 19:49:28","新北市永和區中正路368巷18號","121.518453333333","25.000785","6500400","永和區"
"234086","338-UY","2018/06/21 19:49:47","新北市永和區永亨路36號","121.519815","25.00608","6500400","永和區"
"234070","552-UM","2018/06/21 19:49:42","新北市永和區竹林路88號","121.519445","25.0125316666667","6500400","永和區"
"234050","553-UM","2018/06/21 19:49:42","新北市永和區環河西路一段107號","121.511035","25.0174883333333","6500400","永和區"
"234017","745-BX","2018/06/21 19:49:28","新北市永和區永和路二段297號","121.51608","25.0160266666667","6500400","永和區"
"234030","746-BX","2018/06/21 19:49:46","新北市永和區民生路67巷22號","121.523835","24.997135","6500400","永和區"
"234054","KEA-2590","2018/06/21 19:49:38","新北市永和區中興街133巷10號","121.518626666667","25.0131183333333","6500400","永和區"
"234013","KEA-2591","2018/06/21 19:49:47","新北市永和區保安路153號","121.506758333333","25.0128933333333","6500400","永和區"
"234061","AAD-866","2018/06/21 19:49:38","新北市永和區中正路17號","121.514166666667","24.9956583333333","6500400","永和區"
"234042","862-TW","2018/06/21 19:49:42","新北市永和區中和路305巷18弄1號","121.507615","25.0016583333333","6500400","永和區"
"234026","9371-KE","2018/06/21 19:49:30","新北市永和區雙和街25巷7號","121.508945","25.0018533333333","6500400","永和區"
"234011","9373-KE","2018/06/21 19:49:37","新北市永和區仁愛路301號","121.50393","25.008055","6500400","永和區"
"249001","173-UM","2018/06/21 19:49:40","新北市八里區中華路二段252號","121.405383333333","25.1496633333333","6502300","八里區"
"249004","303-UY","2018/06/21 19:49:35","新北市八里區忠孝路423號","121.414473333333","25.1614516666667","6502300","八里區"
"249002","305-UY","2018/06/21 19:49:30","新北市八里區頂寮三街46號","121.451171666667","25.126045","6502300","八里區"
"249003","593-UM","2018/06/21 19:49:39","新北市八里區訊塘路32號","121.397951666667","25.1452966666667","6502300","八里區"
"248014","025-BX","2018/06/21 19:49:40","新北市五股區五福路29號","121.433835","25.08923","6501500","五股區"
"248016","026-BX","2018/06/21 19:49:37","新北市五股區成泰路三段601巷17-1號","121.451788333333","25.103285","6501500","五股區"
"248008","095-VK","2018/06/21 19:49:43","新北市五股區四維路183號","121.468246666667","25.0757666666667","6501500","五股區"
"248012","247-BX","2018/06/21 19:49:33","新北市五股區蓬萊路4號","121.435595","25.0795483333333","6501500","五股區"
"248010","272-BY","2018/06/21 19:49:46","新北市五股區登林路76-5號","121.430506666667","25.0695433333333","6501500","五股區"
"248004","677-BX","2018/06/21 19:49:38","新北市五股區成泰路一段153號","121.435338333333","25.0738333333333","6501500","五股區"
"248002","678-BX","2018/06/21 19:49:41","新北市五股區成泰路四段24-5號","121.453413333333","25.1069116666667","6501500","五股區"
"234023","9380-KE","2018/06/21 19:49:47","新北市永和區保生路55-1號","121.504483333333","25.010905","6500400","永和區"
"234077","969-R7","2018/06/21 19:49:50","新北市永和區智光街48號","121.517026666667","24.997925","6500400","永和區"
"234074","AAC-211","2018/06/21 19:49:32","新北市永和區竹林路179巷16號","121.521323333333","25.0099066666667","6500400","永和區"
"234067","AAC-212","2018/06/21 19:49:41","新北市永和區中山路一段199號","121.508973333333","25.0087683333333","6500400","永和區"
"234003","AAC-295","2018/06/21 19:49:31","新北市永和區福和路343號","121.51565","25.00719","6500400","永和區"
"243013","AAD-798","2018/06/21 19:49:37","新北市泰山區明志路三段6巷16號","121.423926666667","25.043665","6501600","泰山區"
"243009","297-R6","2018/06/21 19:49:46","新北市泰山區美寧街68號","121.431078333333","25.0646716666667","6501600","泰山區"
"243016","380-SR","2018/06/21 19:49:42","新北市泰山區中山路三段114號","121.417991666667","25.0322233333333","6501600","泰山區"
"243015","421-VK","2018/06/21 19:49:51","新北市泰山區明志路二段214巷9號","121.426726666667","25.048835","6501600","泰山區"
"243011","KEA-2215","2018/06/21 19:49:36","新北市泰山區明志路三段196巷21弄26號","121.422498333333","25.038515","6501600","泰山區"
"243010","KEA-2216","2018/06/21 19:49:45","新北市泰山區民生路33號","121.43071","25.0521983333333","6501600","泰山區"
"243012","646-TV","2018/06/21 19:49:49","新北市泰山區全興路20號","121.432378333333","25.058815","6501600","泰山區"
"243014","680-BX","2018/06/21 19:49:29","新北市泰山區泰林路二段33-9號","121.435103333333","25.0566516666667","6501600","泰山區"
"222003","436-BY","2018/06/21 19:33:51","新北市深坑區深南路51號","121.621035","25.00986","6501800","深坑區"
"222002","659-BX","2018/06/21 19:49:48","新北市深坑區北深路一段361號","121.622316666667","25.00494","6501800","深坑區"
"231041","002-UM","2018/06/21 19:49:47","新北市新店區中央路210-1號","121.530056666667","24.973515","6500600","新店區"
"231059","046-UY","2018/06/21 19:49:41","新北市新店區安和路二段222號","121.517458333333","24.97606","6500600","新店區"
"231040","047-UY","2018/06/21 19:49:43","新北市新店區中正路75巷71號","121.54314","24.9688666666667","6500600","新店區"
"231044","106-UY","2018/06/21 19:49:32","新北市新店區復興路121號","121.534123333333","24.9879966666667","6500600","新店區"
"231052","108-UY","2018/06/21 19:49:42","新北市新店區新烏路三段115號","121.552225","24.90291","6500600","新店區"
"231047","187-VK","2018/06/21 19:49:42","新北市新店區中興路二段100巷1號","121.547618333333","24.9714966666667","6500600","新店區"
"231046","188-VK","2018/06/21 19:49:37","新北市新店區福園街10巷3號","121.532648333333","24.97283","6500600","新店區"
"231054","KEA-2219","2018/06/21 19:49:35","新北市新店區光明街75號","121.538928333333","24.9606233333333","6500600","新店區"
"221023","KEA-2785","2018/06/21 19:49:31","新北市汐止區民族三街44號","121.629573333333","25.0700283333333","6501100","汐止區"
"231057","256-BX","2018/06/21 19:49:40","新北市新店區梅崗三路1號","121.558331666667","24.931305","6500600","新店區"
"231042","268-BY","2018/06/21 19:49:49","新北市新店區中興路一段266-6號","121.545153333333","24.9675866666667","6500600","新店區"
"231051","278-BY","2018/06/21 19:49:33","新北市新店區中央三街37號","121.528081666667","24.97438","6500600","新店區"
"231050","AAD-862","2018/06/21 19:49:30","新北市新店區明山路2巷1號","121.56296","24.9538316666667","6500600","新店區"
"231066","4716-K9","2018/06/21 19:49:46","新北市新店區安康路二段341巷21號","121.497118333333","24.9545516666667","6500600","新店區"
"231056","4715-K9","2018/06/21 19:49:33","新北市新店區民權路72號","121.538128333333","24.9831983333333","6500600","新店區"
"231065","512-UM","2018/06/21 19:49:36","新北市新店區安祥路109巷130號","121.476453333333","24.95785","6500600","新店區"
"231049","513-UM","2018/06/21 19:49:33","新北市新店區民權路90巷20號","121.536135","24.9835966666667","6500600","新店區"
"231063","616-UM","2018/06/21 19:49:39","新北市新店區車子路11號","121.50304","24.9520416666667","6500600","新店區"
"231061","619-UM","2018/06/21 19:49:45","新北市新店區安民街210號","121.517298333333","24.9721416666667","6500600","新店區"
"231068","718-UY","2018/06/21 19:49:44","新北市新店區安一路一段1-1號","121.51951","24.9611866666667","6500600","新店區"
"231064","719-UM","2018/06/21 19:49:37","新北市新店區安和路一段52巷2號","121.517635","24.9661766666667","6500600","新店區"
"231062","720-UM","2018/06/21 19:49:32","新北市新店區永業路81巷1弄17號","121.530403333333","24.95043","6500600","新店區"
"231060","897-TW","2018/06/21 19:49:38","新北市新店區安康路二段296-3號","121.506201666667","24.9580933333333","6500600","新店區"
"231045","898-TW","2018/06/21 19:49:47","新北市新店區中生路66號","121.564615","24.95266","6500600","新店區"
"231043","899-TW","2018/06/21 19:49:33","新北市新店區中正路201號","121.540355","24.9725366666667","6500600","新店區"
"231055","AKT-0513","2018/06/21 19:49:48","新北市新店區力行路5號","121.539415","24.9645816666667","6500600","新店區"
"241011","013-R5","2018/06/21 19:49:41","新北市三重區介壽路39巷50號","121.4999","25.070485","6500200","三重區"
"241028","022-UY","2018/06/21 19:49:37","新北市三重區中正南路157號","121.493873333333","25.0561883333333","6500200","三重區"
"241008","059-VK","2018/06/21 19:49:39","新北市三重區永福街101號","121.479281666667","25.0773816666667","6500200","三重區"
"241022","060-VK","2018/06/21 19:49:36","新北市三重區新北大道一段7號","121.489733333333","25.06131","6500200","三重區"
"241031","061-VK","2018/06/21 19:49:46","新北市三重區重新路四段242-2號","121.485881666667","25.0535916666667","6500200","三重區"
"241015","062-VK","2018/06/21 19:49:43","新北市三重區三和路一段2號","121.503861666667","25.0643016666667","6500200","三重區"
"241017","063-VK","2018/06/21 19:49:37","新北市三重區重陽路三段5巷8弄20號","121.48958","25.0665066666667","6500200","三重區"
"241026","066-VK","2018/06/21 19:49:33","新北市三重區文化南路42號","121.5003","25.060195","6500200","三重區"
"241003","265-UM","2018/06/21 19:49:34","新北市三重區五華街93巷6號","121.492153333333","25.0838733333333","6500200","三重區"
"241016","266-UM","2018/06/21 19:49:35","新北市三重區正德街39號","121.49582","25.0626883333333","6500200","三重區"
"241009","267-UM","2018/06/21 19:49:39","新北市三重區三和路四段396巷6號","121.481026666667","25.079115","6500200","三重區"
"241018","268-UM","2018/06/21 19:49:41","新北市三重區雙園街57巷34弄10號","121.49422","25.0683","6500200","三重區"
"241032","269-UM","2018/06/21 19:49:38","新北市三重區重陽路一段10號","121.486175","25.057685","6500200","三重區"
"241013","270-UM","2018/06/21 19:49:45","新北市三重區仁愛街112巷14號","121.494735","25.0739383333333","6500200","三重區"
"241025","271-UM","2018/06/21 19:49:45","新北市三重區忠孝路三段54號","121.480651666667","25.06556","6500200","三重區"
"241007","398-BY","2018/06/21 19:49:30","新北市三重區三和路四段135巷8號","121.48496","25.0781283333333","6500200","三重區"
"241024","413-TH","2018/06/21 19:49:46","新北市三重區大勇街82巷9號","121.479466666667","25.0715883333333","6500200","三重區"
"241035","462-BY","2018/06/21 19:49:44","新北市三重區文化北路25號","121.499566666667","25.0637716666667","6500200","三重區"
"241004","475-VK","2018/06/21 19:49:37","新北市三重區五華街74號","121.493368333333","25.082005","6500200","三重區"
"241020","478-VK","2018/06/21 19:49:29","新北市三重區後竹圍街8號","121.491648333333","25.0736083333333","6500200","三重區"
"241030","480-VK","2018/06/21 19:49:48","新北市三重區環河南路254巷32號","121.490118333333","25.0510583333333","6500200","三重區"
"241014","543-UM","2018/06/21 19:49:45","新北市三重區長元街98巷18弄17號","121.502051666667","25.067525","6500200","三重區"
"241023","545-UM","2018/06/21 19:49:36","新北市三重區頂崁街166號","121.47763","25.0658166666667","6500200","三重區"
"241001","547-UM","2018/06/21 19:49:39","新北市三重區仁愛街327巷50號","121.493336666667","25.0802116666667","6500200","三重區"
"241019","KEA-2593","2018/06/21 19:49:41","新北市三重區自強路二段85號","121.488455","25.070155","6500200","三重區"
"241006","AAD-863","2018/06/21 19:49:33","新北市三重區力行路二段84號","121.481716666667","25.07393","6500200","三重區"
"241012","941-UM","2018/06/21 19:49:42","新北市三重區仁興街56巷46號","121.498081666667","25.07542","6500200","三重區"
"241029","942-UM","2018/06/21 19:49:47","新北市三重區光明路25號","121.491131666667","25.0584583333333","6500200","三重區"
"241033","AAC-255","2018/06/21 19:49:42","新北市三重區中興南街64號","121.470631666667","25.0440716666667","6500200","三重區"
"235064","005-UY","2018/06/21 19:49:42","新北市中和區圓通路15號","121.501541666667","24.997925","6500300","中和區"
"235056","096-UM","2018/06/21 19:49:33","新北市中和區中山路三段114巷1號","121.475485","25.007495","6500300","中和區"
"235039","097-UM","2018/06/21 19:49:49","新北市中和區大勇街27巷19號","121.516613333333","24.9937283333333","6500300","中和區"
"235065","098-UM","2018/06/21 19:49:30","新北市中和區福祥路90巷7弄15號","121.499291666667","25.0064516666667","6500300","中和區"
"235040","150-BY","2018/06/21 19:49:40","新北市中和區安和路39號","121.509673333333","24.99484","6500300","中和區"
"235058","151-BY","2018/06/21 19:49:30","新北市中和區員山路142巷5號","121.481716666667","24.9965966666667","6500300","中和區"
"235055","183-VK","2018/06/21 19:49:44","新北市中和區德光路27巷1弄1號","121.470823333333","25.003975","6500300","中和區"
"235038","185-VK","2018/06/21 19:49:28","新北市中和區自立路9號","121.522488333333","24.9964483333333","6500300","中和區"
"235049","186-VK","2018/06/21 19:49:39","新北市中和區中興街25號","121.501096666667","24.99487","6500300","中和區"
"235067","255-BX","2018/06/21 19:49:45","新北市中和區新生街251號","121.483903333333","24.9984366666667","6500300","中和區"
"235044","293-VK","2018/06/21 19:49:48","新北市中和區南山路273號","121.504021666667","24.9924466666667","6500300","中和區"
"235043","352-BY","2018/06/21 19:49:42","新北市中和區興南路二段159巷12號","121.505155","24.983135","6500300","中和區"
"235042","KEA-2878","2018/06/21 19:49:44","新北市中和區景安路79巷37弄20號","121.507918333333","24.996265","6500300","中和區"
"235050","4979-A6","2018/06/21 19:49:49","新北市中和區景平路241巷84弄54號","121.506145","24.9923633333333","6500300","中和區"
"235069","4980-A6","2018/06/21 19:49:49","新北市中和區中正路589巷7號","121.485893333333","24.99411","6500300","中和區"
"235070","558-UM","2018/06/21 19:49:39","新北市中和區圓通路115號","121.499416666667","24.9963766666667","6500300","中和區"
"235045","565-BX","2018/06/21 19:49:45","新北市中和區景平路314號","121.512371666667","24.99263","6500300","中和區"
"235054","640-BX","2018/06/21 19:49:49","新北市中和區莒光路14號","121.472103333333","25.0043283333333","6500300","中和區"
"235060","647-TV","2018/06/21 19:49:43","新北市中和區中山路二段523巷32弄13號","121.48136","25.0036733333333","6500300","中和區"
"235047","732-UM","2018/06/21 19:49:39","新北市中和區和平街23號","121.50805","24.9908533333333","6500300","中和區"
"235046","733-UM","2018/06/21 19:49:34","新北市中和區仁愛街94號","121.511471666667","24.98726","6500300","中和區"
"235071","783-BX","2018/06/21 19:49:37","新北市中和區中板路7-4號","121.484933333333","25.011105","6500300","中和區"
"235041","802-TS","2018/06/21 19:49:35","新北市中和區永貞路239巷4號","121.512955","25.0036033333333","6500300","中和區"
"235052","805-TS","2018/06/21 19:49:44","新北市中和區興南路二段125號","121.505476666667","24.98412","6500300","中和區"
"235048","896-TW","2018/06/21 19:49:37","新北市中和區興南路二段2號","121.507923333333","24.98631","6500300","中和區"
"235053","900-TW","2018/06/21 19:49:41","新北市中和區國光街189巷12弄2號","121.46748","25.0015083333333","6500300","中和區"
"235066","911-UM","2018/06/21 19:49:44","新北市中和區南工路40號","121.505645","25.0012116666667","6500300","中和區"
"235051","157-BY","2018/06/21 19:49:46","新北市中和區中興街123號","121.500021666667","24.99177","6500300","中和區"
"235037","AAC-213","2018/06/21 19:49:43","新北市中和區秀朗路三段171號","121.524496666667","24.9916583333333","6500300","中和區"
"235059","AAC-215","2018/06/21 19:49:46","新北市中和區圓通路305巷23號","121.494775","24.9891833333333","6500300","中和區"
"220068","013-TV","2018/06/21 19:49:41","新北市板橋區中山路二段416巷1弄4號","121.483296666667","25.0207916666667","6500100","板橋區"
"220072","015-TV","2018/06/21 19:49:39","新北市板橋區金門街151巷3弄1號","121.433033333333","24.990525","6500100","板橋區"
"220065","072-UY","2018/06/21 19:49:43","新北市板橋區海山路39號","121.467238333333","25.0097133333333","6500100","板橋區"
"220106","075-UY","2018/06/21 19:49:36","新北市板橋區文化路二段608巷35-1號","121.47836","25.0347483333333","6500100","板橋區"
"220069","AAD-861","2018/06/21 19:49:35","新北市板橋區貴興路121號","121.455626666667","25.00225","6500100","板橋區"
"247014","546-UM","2018/06/21 19:49:11","新北市蘆洲區復興路11號","121.471975","25.0853116666667","6501400","蘆洲區"
"247004","337-TH","2018/06/21 19:49:35","新北市蘆洲區中原路48號","121.459338333333","25.0823733333333","6501400","蘆洲區"
"247006","336-TH","2018/06/21 19:49:47","新北市蘆洲區永安南路二段38號","121.466885","25.0772683333333","6501400","蘆洲區"
"247008","056-VK","2018/06/21 19:49:36","新北市蘆洲區中山一路1號","121.478493333333","25.08004","6501400","蘆洲區"
"247002","002-UY","2018/06/21 19:49:47","新北市蘆洲區永樂街38巷42弄6號","121.458848333333","25.0897866666667","6501400","蘆洲區"
"226004","312-R5","2018/06/21 19:49:41","新北市平溪區靜安路三段260號","121.77617","25.0403566666667","6502400","平溪區"
"235057","251-BX","2018/06/21 19:49:26","新北市中和區員山路130號","121.48123","24.996265","6500300","中和區"
"228003","097-TW","2018/06/21 19:49:44","新北市貢寮區真理里美艷山街3-1號","121.925605","25.0594983333333","6502600","貢寮區"
"228001","212-TW","2018/06/21 19:49:45","新北市貢寮區仁理村仁愛路95-1號","121.927468333333","25.0556183333333","6502600","貢寮區"
"224010","AGQ-8101","2018/06/21 19:49:34","新北市瑞芳區基山街183號","121.843203333333","25.1078166666667","6501200","瑞芳區"
"224002","639-TC","2018/06/21 19:49:46","新北市瑞芳區民享新村13號","121.816613333333","25.1057966666667","6501200","瑞芳區"
"227004","642-TC","2018/06/21 19:49:45","新北市雙溪區雙溪里內挖路36號","121.863215","25.0367066666667","6502500","雙溪區"
"227010","400-TW","2018/06/21 19:49:31","新北市雙溪區新基里朝陽街18-1號","121.865905","25.03883","6502500","雙溪區"
"222001","KEA-2212","2018/06/21 19:49:33","新北市深坑區北深路三段64號","121.607951666667","25.00137","6501800","深坑區"
"208002","KEA-2872","2018/06/21 19:49:39","新北市金山區三民街15號","121.634616666667","25.2227933333333","6502700","金山區"
"208003","665-BX","2018/06/21 19:49:41","新北市金山區清泉里清水路36號","121.629858333333","25.2312616666667","6502700","金山區"
"208001","761-BX","2018/06/21 19:49:46","新北市金山區重和里六股林口47號","121.60218","25.2195683333333","6502700","金山區"
"251001","011-UM","2018/06/21 19:49:35","新北市淡水區淡金路57號","121.456293333333","25.1612783333333","6501000","淡水區"
"251013","KEA-2871","2018/06/21 19:49:43","新北市淡水區頂田寮2-1號","121.459876666667","25.2136933333333","6501000","淡水區"
"251016","179-VK","2018/06/21 19:49:40","新北市淡水區三塊厝3-3號","121.457045","25.2098","6501000","淡水區"
"251014","180-VK","2018/06/21 19:49:45","新北市淡水區番社前4-6號","121.474185","25.2364216666667","6501000","淡水區"
"251008","181-VK","2018/06/21 19:49:42","新北市淡水區中正路二段24巷2-1號","121.42677","25.17696","6501000","淡水區"
"251015","182-VK","2018/06/21 19:49:41","新北市淡水區北新路三段112號","121.48628","25.188145","6501000","淡水區"
"251010","413-VK","2018/06/21 19:49:33","新北市淡水區下圭柔山91-3號","121.430905","25.2096566666667","6501000","淡水區"
"251012","441-VK","2018/06/21 19:49:50","新北市淡水區淡金路三段70巷3號","121.44839","25.2011833333333","6501000","淡水區"
"251007","442-VK","2018/06/21 19:49:31","新北市淡水區中正東路一段3巷23號","121.451553333333","25.165275","6501000","淡水區"
"251005","443-VK","2018/06/21 19:49:34","新北市淡水區中正東路1號","121.44724","25.1671933333333","6501000","淡水區"
"251006","561-UM","2018/06/21 19:49:47","新北市淡水區水碓街15號","121.443475","25.1769616666667","6501000","淡水區"
"251009","575-R6","2018/06/21 19:49:33","新北市淡水區中正路32號","121.44397","25.1691883333333","6501000","淡水區"
"251011","650-BX","2018/06/21 19:49:34","新北市淡水區淡金路二段600號","121.446663333333","25.192345","6501000","淡水區"
"251003","766-UM","2018/06/21 19:49:44","新北市淡水區崁頂104號","121.433868333333","25.203815","6501000","淡水區"
"207003","550-UM","2018/06/21 19:49:39","新北市萬里區磺潭里公館崙8-1號","121.641958333333","25.2136616666667","6502800","萬里區"
"207004","225-TW","2018/06/21 19:49:44","新北市萬里區萬里里瑪鋉路222號","121.689258333333","25.1803166666667","6502800","萬里區"
"252002","178-VK","2018/06/21 19:49:34","新北市三芝區三民街33-1號","121.504626666667","25.25858","6502100","三芝區"
"252001","292-VK","2018/06/21 19:49:46","新北市三芝區公正街9號","121.49975","25.25746","6502100","三芝區"
"237004","KEA-2597","2018/06/21 19:49:40","新北市三峽區添福295號","121.377823333333","24.884805","6500900","三峽區"
"237007","153-BY","2018/06/21 19:49:30","新北市三峽區二鬮路136巷59號","121.357696666667","24.90906","6500900","三峽區"
"237009","210-TH","2018/06/21 19:49:47","新北市三峽區中園街62-4號","121.368053333333","24.9256","6500900","三峽區"
"237013","252-BX","2018/06/21 19:49:47","新北市三峽區溪北街54號","121.397105","24.9358916666667","6500900","三峽區"
"237012","275-BY","2018/06/21 19:49:27","新北市三峽區中華路13-1號","121.373661666667","24.932075","6500900","三峽區"
"237008","302-VK","2018/06/21 19:49:30","新北市三峽區永安街183號","121.37319","24.92694","6500900","三峽區"
"237014","433-BY","2018/06/21 19:49:29","新北市三峽區嘉添31號","121.368716666667","24.911495","6500900","三峽區"
"237006","5529-G3","2018/06/21 19:49:30","新北市三峽區中正路一段336巷15弄2號","121.369991666667","24.9249616666667","6500900","三峽區"
"237011","KEA-2596","2018/06/21 19:49:43","新北市三峽區中正路一段362號","121.371075","24.924085","6500900","三峽區"
"237016","649-BX","2018/06/21 19:49:31","新北市三峽區成福路39號","121.417688333333","24.9287083333333","6500900","三峽區"
"237005","AKY-6261","2018/06/21 19:49:46","新北市三峽區長泰街18巷1號","121.37909","24.9316916666667","6500900","三峽區"
"236070","105-UM","2018/06/21 19:49:38","新北市土城區水源街33號","121.440893333333","24.97549","6501300","土城區"
"236042","107-UM","2018/06/21 19:49:48","新北市土城區裕民路259巷5-1號","121.455223333333","24.9831433333333","6501300","土城區"
"236078","166-UM","2018/06/21 19:49:29","新北市土城區溪頭路20巷2弄2號","121.412855","24.9555866666667","6501300","土城區"
"236030","253-BX","2018/06/21 19:49:42","新北市土城區中央路一段294號","121.443291666667","24.9823566666667","6501300","土城區"
"236026","269-VK","2018/06/21 19:49:49","新北市土城區中央路二段61巷62號","121.444866666667","24.9784383333333","6501300","土城區"
"236038","271-VK","2018/06/21 19:49:45","新北市土城區國際路158巷24弄2號","121.468521666667","24.9759166666667","6501300","土城區"
"236021","401-BY","2018/06/21 19:49:34","新北市土城區延吉街137巷12弄3號","121.470786666667","24.9854883333333","6501300","土城區"
"236063","752-BX","2018/06/21 19:48:16","新北市土城區延和路105巷8弄1號","121.467238333333","24.9912966666667","6501300","土城區"
"236059","912-UM","2018/06/21 19:49:32","新北市土城區中央路一段205號","121.445858333333","24.986645","6501300","土城區"
"236049","913-UM","2018/06/21 19:49:40","新北市土城區青雲路222號","121.45899","24.9812416666667","6501300","土城區"
"236055","AAC-216","2018/06/21 19:49:49","新北市土城區延和路154號","121.467976666667","24.9902933333333","6501300","土城區"
"242034","AAC-296","2018/06/21 19:49:49","新北市新莊區仁愛街67號","121.44425","25.0376483333333","6500500","新莊區"
"242058","986-R7","2018/06/21 19:49:48","新北市新莊區新樹路123-1號","121.437071666667","25.0261633333333","6500500","新莊區"
"242053","751-BX","2018/06/21 19:49:49","新北市新莊區民安西路415巷3號","121.430823333333","25.0091333333333","6500500","新莊區"
"242023","705-TV","2018/06/21 19:49:50","新北市新莊區化成路218號","121.465595","25.0466083333333","6500500","新莊區"
"242029","612-BX","2018/06/21 19:49:40","新北市新莊區立信五街2號","121.444738333333","25.05153","6500500","新莊區"
"242046","497-BY","2018/06/21 19:49:34","新北市新莊區後港一路160號","121.430721666667","25.027575","6500500","新莊區"
"242036","415-TV","2018/06/21 19:49:46","新北市新莊區建安街101巷2弄1號","121.426823333333","25.0239983333333","6500500","新莊區"
"242007","413-TV","2018/06/21 19:49:35","新北市新莊區思源路593巷6弄23號","121.457838333333","25.05987","6500500","新莊區"
"242039","133-UY","2018/06/21 19:49:47","新北市新莊區民安路299巷51號","121.429598333333","25.0237383333333","6500500","新莊區"
"242048","172-VK","2018/06/21 19:49:33","新北市新莊區建安街92巷13號","121.425673333333","25.0243683333333","6500500","新莊區"
"242004","176-VK","2018/06/21 19:49:48","新北市新莊區化成路63巷24弄25號","121.462475","25.0460066666667","6500500","新莊區"
"242015","346-TH","2018/06/21 19:49:48","新北市新莊區泰順街55號","121.44774","25.0432216666667","6500500","新莊區"
"242021","348-TH","2018/06/21 19:49:42","新北市新莊區建中街43號","121.448373333333","25.0370033333333","6500500","新莊區"
"242019","350-TH","2018/06/21 19:49:31","新北市新莊區中華路一段130號","121.452668333333","25.040965","6500500","新莊區"
"242013","351-TH","2018/06/21 19:49:41","新北市新莊區中泰街38巷9號","121.450675","25.0473016666667","6500500","新莊區"
"238015","755-BX","2018/06/21 19:49:39","新北市樹林區中山路二段110-4號","121.413875","24.983295","6500700","樹林區"
"238023","601-UM","2018/06/21 19:49:34","新北市樹林區中正路391號","121.417786666667","25.0071383333333","6500700","樹林區"
"238021","KEA-2539","2018/06/21 19:49:43","新北市樹林區佳園路三段113巷2號","121.386895","24.95075","6500700","樹林區"
"238025","303-VK","2018/06/21 19:49:44","新北市樹林區中山路一段160-2號","121.41215","24.9828866666667","6500700","樹林區"
"239006","891-R6","2018/06/21 19:49:30","新北市鶯歌區重慶街26號","121.351053333333","24.95214","6500800","鶯歌區"
"239004","193-VK","2018/06/21 19:49:33","新北市鶯歌區二甲路83號","121.339341666667","24.933025","6500800","鶯歌區"
"221008","489-VK","2018/06/21 19:49:36","新北市汐止區康寧街83巷26號","121.620721666667","25.0674083333333","6501100","汐止區"
"221036","130-UY","2018/06/21 19:49:38","新北市汐止區汐萬路一段312號","121.650558333333","25.0754783333333","6501100","汐止區"
"221015","131-UY","2018/06/21 19:49:43","新北市汐止區忠孝東路444號","121.666093333333","25.0725683333333","6501100","汐止區"
"221010","269-BY","2018/06/21 19:49:36","新北市汐止區汐萬路一段333巷1號","121.649891666667","25.0761716666667","6501100","汐止區"
"221018","277-VK","2018/06/21 19:49:43","新北市汐止區康寧街901號","121.651078333333","25.0751333333333","6501100","汐止區"
"221012","278-VK","2018/06/21 19:49:44","新北市汐止區大同路三段545號","121.68125","25.0715116666667","6501100","汐止區"
"221032","280-BY","2018/06/21 19:49:31","新北市汐止區新江北路30巷15號","121.652671666667","25.068535","6501100","汐止區"
"221027","281-BY","2018/06/21 19:49:37","新北市汐止區中正路7號","121.663048333333","25.0701166666667","6501100","汐止區"
"221029","298-VK","2018/06/21 19:49:48","新北市汐止區康寧街901號","121.651581666667","25.07505","6501100","汐止區"
"221021","299-VK","2018/06/21 19:49:41","新北市汐止區莊敬街1號","121.657823333333","25.0615833333333","6501100","汐止區"
"221031","353-TW","2018/06/21 19:49:46","新北市汐止區福德三路127號","121.633688333333","25.067515","6501100","汐止區"
"221035","622-UM","2018/06/21 19:49:39","新北市汐止區長江街13巷4號","121.65475","25.0714016666667","6501100","汐止區"
"221025","623-UM","2018/06/21 19:49:45","新北市汐止區秀峰路81巷18號","121.660796666667","25.0643316666667","6501100","汐止區"
"221038","646-BX","2018/06/21 19:49:37","新北市汐止區忠孝東路403號","121.665786666667","25.07104","6501100","汐止區"
"221033","647-BX","2018/06/21 19:49:43","新北市汐止區東勢街76巷83號","121.635446666667","25.039065","6501100","汐止區"
"220079","145-BY","2018/06/21 19:49:46","新北市板橋區建國街50號","121.458703333333","25.0170266666667","6500100","板橋區"
"220080","200-UY","2018/06/21 19:49:44","新北市板橋區大觀路二段55號","121.446723333333","25.0028","6500100","板橋區"
"220082","610-BX","2018/06/21 19:49:50","新北市板橋區溪崑二街58號","121.428068333333","24.9905816666667","6500100","板橋區"
"220101","245-BX","2018/06/21 19:49:39","新北市板橋區縣民大道三段93巷28號","121.474793333333","25.022465","6500100","板橋區"
"220055","256-TC","2018/06/21 19:49:40","新北市板橋區國慶路149巷4弄16-4號","121.461896666667","24.9970516666667","6500100","板橋區"
"220077","282-UM","2018/06/21 19:49:45","新北市板橋區僑中三街32號","121.445636666667","25.004835","6500100","板橋區"
"220071","283-VK","2018/06/21 19:49:34","新北市板橋區五權街30巷26號","121.463861666667","24.9931183333333","6500100","板橋區"
"220094","285-UM","2018/06/21 19:49:45","新北市板橋區長江路一段27號","121.458396666667","25.029475","6500100","板橋區"
"220053","285-VK","2018/06/21 19:49:31","新北市板橋區中山路二段60巷1弄28號","121.475321666667","25.0157483333333","6500100","板橋區"
"220083","286-VK","2018/06/21 19:49:42","新北市板橋區僑中二街8巷29-3號","121.445706666667","25.011375","6500100","板橋區"
"220081","287-VK","2018/06/21 19:49:48","新北市板橋區大觀路一段29巷61號","121.450418333333","25.00673","6500100","板橋區"
"220090","288-VK","2018/06/21 19:49:38","新北市板橋區新海路431巷20號","121.457746666667","25.0269233333333","6500100","板橋區"
"220061","293-UM","2018/06/21 19:49:29","新北市板橋區漢生東路113巷27號","121.468428333333","25.0155933333333","6500100","板橋區"
"220062","295-UM","2018/06/21 19:49:41","新北市板橋區三民路二段29巷31弄11號","121.481753333333","25.01779","6500100","板橋區"
"220084","296-UM","2018/06/21 19:49:32","新北市板橋區滿平街43號","121.42691","24.9896533333333","6500100","板橋區"
"220075","303-R5","2018/06/21 19:49:45","新北市板橋區金華街10巷48弄79-3號","121.459921666667","25.0204083333333","6500100","板橋區"
"220092","307-R5","2018/06/21 19:49:46","新北市板橋區四維路259巷20號","121.462395","25.0278466666667","6500100","板橋區"
"220098","317-R6","2018/06/21 19:49:38","新北市板橋區四維路269巷86號","121.459833333333","25.0268083333333","6500100","板橋區"
"220064","486-VK","2018/06/21 19:49:47","新北市板橋區實踐路106號","121.464015","25.0046116666667","6500100","板橋區"
"242031","280-VK","2018/06/21 19:49:27","新北市新莊區忠孝街13號","121.443855","25.0349516666667","6500500","新莊區"
"220088","491-VK","2018/06/21 19:49:49","新北市板橋區懷德街55號","121.477265","25.0327633333333","6500100","板橋區"
"220035","560-BX","2018/06/21 19:49:34","新北市板橋區金華街111號","121.459033333333","25.0209166666667","6500100","板橋區"
"220103","561-BX","2018/06/21 19:49:48","新北市板橋區陽明街29巷9號","121.464848333333","25.0217816666667","6500100","板橋區"
"220063","609-BX","2018/06/21 19:49:44","新北市板橋區三民路一段5巷1號","121.479023333333","25.0233733333333","6500100","板橋區"
"220091","637-BX","2018/06/21 19:49:43","新北市板橋區懷德街174巷27號","121.478286666667","25.0291733333333","6500100","板橋區"
"220057","686-BX","2018/06/21 19:49:41","新北市板橋區廣和街75巷2號","121.462661666667","24.99243","6500100","板橋區"
"220093","689-BX","2018/06/21 19:49:40","新北市板橋區長江路二段235號","121.468598333333","25.0326033333333","6500100","板橋區"
"220054","741-BX","2018/06/21 19:49:40","新北市板橋區忠孝路忠義巷15弄1號","121.465853333333","25.0038233333333","6500100","板橋區"
"220102","KEA-2699","2018/06/21 19:49:40","新北市板橋區松柏街50巷2號","121.475758333333","25.0300916666667","6500100","板橋區"
"220067","830-TW","2018/06/21 19:49:42","新北市板橋區長安街138巷1弄91號","121.474693333333","25.0114283333333","6500100","板橋區"
"220096","831-TW","2018/06/21 19:49:34","新北市板橋區莊敬路148-2號","121.470465","25.02253","6500100","板橋區"
"220089","833-TW","2018/06/21 19:49:48","新北市板橋區龍泉街82巷11-4號","121.455836666667","25.0255583333333","6500100","板橋區"
"220074","895-R6","2018/06/21 19:49:39","新北市板橋區東門街30-1號","121.457981666667","25.0083916666667","6500100","板橋區"
"220073","985-R7","2018/06/21 19:49:28","新北市板橋區大仁街75-1號","121.453905","25.0162066666667","6500100","板橋區"
"220097","AAC-210","2018/06/21 19:49:46","新北市板橋區文化路一段299-1號","121.464656666667","25.01923","6500100","板橋區"
"220070","AAC-253","2018/06/21 19:49:40","新北市板橋區實踐路5號","121.463896666667","25.007945","6500100","板橋區"
"235068","KEA-2873","2018/06/21 19:49:33","新北市中和區莊敬路16巷2號","121.499906666667","25.0041383333333","6500300","中和區"
"235061","KEA-2875","2018/06/21 19:49:32","新北市中和區員山路174巷7號","121.481901666667","24.9999033333333","6500300","中和區"
