"lineid","car","time","location","longitude","latitude","cityid","cityname"
"234046","148-BY","2018/06/21 19:59:31","新北市永和區成功路一段69號","121.52703","25.0033633333333","6500400","永和區"
"234007","207-UY","2018/06/21 19:59:28","新北市永和區保生路22巷17號","121.507101666667","25.0081","6500400","永和區"
"234081","298-R6","2018/06/21 19:59:44","新北市永和區永利路81巷2弄2號","121.521596666667","25.00363","6500400","永和區"
"234038","336-UY","2018/06/21 19:59:42","新北市永和區成功路二段173號","121.52662","24.9968633333333","6500400","永和區"
"234064","337-UY","2018/06/21 19:59:28","新北市永和區中正路412巷2弄11號","121.518515","25.0019166666667","6500400","永和區"
"234086","338-UY","2018/06/21 19:59:47","新北市永和區福和路244號","121.518745","25.0076616666667","6500400","永和區"
"234070","552-UM","2018/06/21 19:59:42","新北市永和區國光路8號","121.519331666667","25.0085783333333","6500400","永和區"
"234050","553-UM","2018/06/21 19:59:42","新北市永和區保安路121號","121.50764","25.0138283333333","6500400","永和區"
"234017","745-BX","2018/06/21 19:59:48","新北市永和區文化路75號","121.513791666667","25.0151583333333","6500400","永和區"
"234030","746-BX","2018/06/21 19:59:46","新北市永和區民生路22巷1號","121.522283333333","24.9973033333333","6500400","永和區"
"234054","KEA-2590","2018/06/21 19:59:35","新北市永和區環河東路一段122號","121.520648333333","25.0154616666667","6500400","永和區"
"234013","KEA-2591","2018/06/21 19:59:47","新北市永和區仁愛路295號","121.505208333333","25.0092383333333","6500400","永和區"
"234061","AAD-866","2018/06/21 19:59:38","新北市永和區中正路283巷62號","121.516185","24.9998366666667","6500400","永和區"
"234042","862-TW","2018/06/21 19:59:41","新北市永和區中和路305巷2弄28號","121.507488333333","24.9999883333333","6500400","永和區"
"234026","9371-KE","2018/06/21 19:59:30","新北市永和區水源街27巷14號","121.511336666667","25.0037216666667","6500400","永和區"
"234011","9373-KE","2018/06/21 19:59:37","新北市永和區仁愛路352巷94號","121.50103","25.00783","6500400","永和區"
"249005","172-UM","2018/06/21 19:59:35","新北市八里區楓林路3-1號","121.382575","25.13054","6502300","八里區"
"249001","173-UM","2018/06/21 19:59:40","新北市八里區中華路二段312號","121.403808333333","25.1483283333333","6502300","八里區"
"249004","303-UY","2018/06/21 19:59:35","新北市八里區中華路一段333-1號","121.413386666667","25.1537633333333","6502300","八里區"
"249002","305-UY","2018/06/21 19:59:30","新北市八里區頂寮一街46號","121.450578333333","25.1240766666667","6502300","八里區"
"249003","593-UM","2018/06/21 19:59:39","新北市八里區訊塘路16號","121.398125","25.1447916666667","6502300","八里區"
"248014","025-BX","2018/06/21 19:59:31","新北市五股區五福路14巷8號","121.434788333333","25.0887433333333","6501500","五股區"
"248016","026-BX","2018/06/21 19:59:37","新北市五股區成泰路三段577巷80弄50號","121.449675","25.1048166666667","6501500","五股區"
"248008","095-VK","2018/06/21 19:59:43","新北市五股區四維路30巷15號","121.468198333333","25.0715283333333","6501500","五股區"
"248012","247-BX","2018/06/21 19:59:33","新北市五股區民義路一段84號","121.435983333333","25.08492","6501500","五股區"
"248010","272-BY","2018/06/21 19:59:46","新北市五股區登林路75號","121.428308333333","25.0697916666667","6501500","五股區"
"248004","677-BX","2018/06/21 19:59:38","新北市五股區成泰路一段8巷2-3號","121.434916666667","25.066915","6501500","五股區"
"248002","678-BX","2018/06/21 19:59:41","新北市五股區成泰路三段487號","121.450766666667","25.0992966666667","6501500","五股區"
"234023","9380-KE","2018/06/21 19:59:47","新北市永和區永和路二段35號","121.514515","25.010455","6500400","永和區"
"234077","969-R7","2018/06/21 19:59:51","新北市永和區民有街15號","121.51643","24.9967583333333","6500400","永和區"
"234074","AAC-211","2018/06/21 19:59:32","新北市永和區豫溪街215巷23號","121.523616666667","25.0102266666667","6500400","永和區"
"234067","AAC-212","2018/06/21 19:59:41","新北市永和區中山路一段277號","121.506955","25.0071216666667","6500400","永和區"
"234003","AAC-295","2018/06/21 19:59:31","新北市永和區中正路704號","121.516218333333","25.00997","6500400","永和區"
"243013","AAD-798","2018/06/21 19:59:37","新北市泰山區明志路三段6巷16號","121.423928333333","25.0436566666667","6501600","泰山區"
"243009","297-R6","2018/06/21 19:59:46","新北市泰山區泰林路二段164巷35號","121.43416","25.06121","6501600","泰山區"
"243016","380-SR","2018/06/21 19:59:42","新北市泰山區明志路三段518號","121.420798333333","25.0307366666667","6501600","泰山區"
"243015","421-VK","2018/06/21 19:59:31","新北市泰山區明志路二段188-1號","121.427333333333","25.049945","6501600","泰山區"
"243011","KEA-2215","2018/06/21 19:59:36","新北市泰山區工專路65號","121.422076666667","25.0403733333333","6501600","泰山區"
"243010","KEA-2216","2018/06/21 19:59:45","新北市泰山區中華街9號","121.42774","25.0523916666667","6501600","泰山區"
"243012","646-TV","2018/06/21 19:59:49","新北市泰山區全興路20號","121.432295","25.058835","6501600","泰山區"
"243014","680-BX","2018/06/21 19:59:36","新北市泰山區泰林路二段159號","121.433658333333","25.06037","6501600","泰山區"
"222003","436-BY","2018/06/21 19:59:37","新北市深坑區埔新街14號","121.620758333333","25.0039466666667","6501800","深坑區"
"222002","659-BX","2018/06/21 19:59:28","新北市深坑區北深路二段55巷12弄7號","121.618806666667","25.0032816666667","6501800","深坑區"
"231041","002-UM","2018/06/21 19:59:47","新北市新店區自由街2-1號","121.535768333333","24.9754816666667","6500600","新店區"
"231059","046-UY","2018/06/21 19:59:41","新北市新店區吉安街2號","121.517378333333","24.9656383333333","6500600","新店區"
"231040","047-UY","2018/06/21 19:59:43","新北市新店區中正路56-1號","121.544818333333","24.9700166666667","6500600","新店區"
"231044","106-UY","2018/06/21 19:59:32","新北市新店區復興路27號","121.53908","24.986675","6500600","新店區"
"231052","108-UY","2018/06/21 19:59:41","新北市新店區新烏路三段225號","121.54737","24.8967333333333","6500600","新店區"
"231047","187-VK","2018/06/21 19:59:42","新北市新店區中興路二段236巷9號","121.547811666667","24.97611","6500600","新店區"
"231054","KEA-2219","2018/06/21 19:59:35","新北市新店區光明街159號","121.53962","24.9623933333333","6500600","新店區"
"221023","KEA-2785","2018/06/21 19:59:45","新北市汐止區明峰街190號","121.628141666667","25.0696233333333","6501100","汐止區"
"231057","256-BX","2018/06/21 19:59:40","新北市新店區花園二路一段11號","121.555503333333","24.9324766666667","6500600","新店區"
"231042","268-BY","2018/06/21 19:59:28","新北市新店區中正路5號","121.545811666667","24.9691466666667","6500600","新店區"
"231051","278-BY","2018/06/21 19:59:33","新北市新店區中央二街32號","121.528028333333","24.9737266666667","6500600","新店區"
"231050","AAD-862","2018/06/21 19:59:50","新北市新店區北宜路二段85號","121.550131666667","24.9522266666667","6500600","新店區"
"231056","4715-K9","2018/06/21 19:59:33","新北市新店區明德路26巷2號","121.542256666667","24.977725","6500600","新店區"
"231065","512-UM","2018/06/21 19:59:36","新北市新店區安祥路109巷2號","121.475311666667","24.95875","6500600","新店區"
"231049","513-UM","2018/06/21 19:59:33","新北市新店區建國路222號","121.537655","24.9813433333333","6500600","新店區"
"231063","616-UM","2018/06/21 19:59:39","新北市新店區黎明路54巷1號","121.502358333333","24.9480733333333","6500600","新店區"
"231061","619-UM","2018/06/21 19:59:45","新北市新店區安民街367號","121.516475","24.97586","6500600","新店區"
"231068","718-UY","2018/06/21 19:59:44","新北市新店區安一路一段1-1號","121.519473333333","24.9610983333333","6500600","新店區"
"231064","719-UM","2018/06/21 19:59:37","新北市新店區光華街22號","121.51699","24.9692616666667","6500600","新店區"
"231062","720-UM","2018/06/21 19:59:32","新北市新店區華城路5-3號","121.529253333333","24.9580416666667","6500600","新店區"
"231060","897-TW","2018/06/21 19:59:38","新北市新店區安康路二段458號","121.494338333333","24.9542166666667","6500600","新店區"
"231045","898-TW","2018/06/21 19:59:47","新北市新店區北宜路二段269號","121.55467","24.9535833333333","6500600","新店區"
"231043","899-TW","2018/06/21 19:59:33","新北市新店區中正路282-1號","121.538465","24.9740783333333","6500600","新店區"
"231055","AKT-0513","2018/06/21 19:59:31","新北市新店區中華路50號","121.539653333333","24.968455","6500600","新店區"
"241011","013-R5","2018/06/21 19:59:41","新北市三重區秀江街260號","121.496","25.0712116666667","6500200","三重區"
"241028","022-UY","2018/06/21 19:59:37","新北市三重區重新路三段82號","121.493026666667","25.0610916666667","6500200","三重區"
"241008","059-VK","2018/06/21 19:59:39","新北市三重區永福街124號","121.479371666667","25.0751416666667","6500200","三重區"
"241022","060-VK","2018/06/21 19:59:36","新北市三重區過圳街19號","121.488685","25.0606","6500200","三重區"
"241031","061-VK","2018/06/21 19:59:46","新北市三重區重新路四段184巷16號","121.487133333333","25.05501","6500200","三重區"
"241015","062-VK","2018/06/21 19:59:43","新北市三重區三和路二段8號","121.501043333333","25.0669083333333","6500200","三重區"
"241017","063-VK","2018/06/21 19:59:37","新北市三重區自強路一段316號","121.491038333333","25.0684183333333","6500200","三重區"
"241026","066-VK","2018/06/21 19:59:37","新北市三重區仁慈街10號","121.501705","25.0631266666667","6500200","三重區"
"241002","090-VK","2018/06/21 19:59:30","新北市三重區仁愛街269巷10號","121.493471666667","25.0790883333333","6500200","三重區"
"241003","265-UM","2018/06/21 19:59:34","新北市三重區仁愛街445巷1號","121.489983333333","25.0823283333333","6500200","三重區"
"241016","266-UM","2018/06/21 19:59:36","新北市三重區正義北路37號","121.497411666667","25.0636683333333","6500200","三重區"
"241009","267-UM","2018/06/21 19:59:39","新北市三重區三和路四段390巷22號","121.481101666667","25.078795","6500200","三重區"
"241018","268-UM","2018/06/21 19:59:41","新北市三重區雙園街57巷16號","121.494478333333","25.0678033333333","6500200","三重區"
"241032","269-UM","2018/06/21 19:59:38","新北市三重區朝陽街23號","121.483615","25.056495","6500200","三重區"
"241013","270-UM","2018/06/21 19:59:44","新北市三重區三和路三段125巷40號","121.494006666667","25.0737416666667","6500200","三重區"
"241025","271-UM","2018/06/21 19:59:45","新北市三重區頂崁街210巷26號","121.475946666667","25.06803","6500200","三重區"
"241007","398-BY","2018/06/21 19:59:30","新北市三重區溪尾街169號","121.488955","25.080105","6500200","三重區"
"241024","413-TH","2018/06/21 19:59:36","新北市三重區力行路一段176號","121.482115","25.0714366666667","6500200","三重區"
"241035","462-BY","2018/06/21 19:59:44","新北市三重區大榮街7號","121.498165","25.06316","6500200","三重區"
"241004","475-VK","2018/06/21 19:59:43","新北市三重區仁愛街425巷92號","121.492206666667","25.0827533333333","6500200","三重區"
"241020","478-VK","2018/06/21 19:59:29","新北市三重區忠孝路一段101號","121.489468333333","25.0721266666667","6500200","三重區"
"241030","480-VK","2018/06/21 19:59:48","新北市三重區成功路173號","121.485851666667","25.0526116666667","6500200","三重區"
"241014","543-UM","2018/06/21 19:59:45","新北市三重區三和路二段146號","121.499493333333","25.06837","6500200","三重區"
"241023","545-UM","2018/06/21 19:59:36","新北市三重區頂崁街166號","121.477616666667","25.065805","6500200","三重區"
"241001","547-UM","2018/06/21 19:59:39","新北市三重區仁愛街283巷36號","121.494363333333","25.07995","6500200","三重區"
"241019","KEA-2593","2018/06/21 19:59:41","新北市三重區重陽路四段2號","121.490288333333","25.0688533333333","6500200","三重區"
"241006","AAD-863","2018/06/21 19:59:33","新北市三重區力行路二段84號","121.481876666667","25.07392","6500200","三重區"
"241012","941-UM","2018/06/21 19:59:41","新北市三重區仁厚街43號","121.500236666667","25.07652","6500200","三重區"
"241029","942-UM","2018/06/21 19:59:47","新北市三重區重安街1號","121.489848333333","25.058475","6500200","三重區"
"241033","AAC-255","2018/06/21 19:59:42","新北市三重區中興北街12號","121.46955","25.046855","6500200","三重區"
"235056","096-UM","2018/06/21 19:59:49","新北市中和區中山路三段136巷9號","121.47349","25.0072583333333","6500300","中和區"
"235039","097-UM","2018/06/21 19:59:29","新北市中和區景平路276-1號","121.513923333333","24.9925683333333","6500300","中和區"
"235065","098-UM","2018/06/21 19:59:37","新北市中和區福祥路85巷1號","121.498861666667","25.0057616666667","6500300","中和區"
"235040","150-BY","2018/06/21 19:59:40","新北市中和區保健路10巷3弄1號","121.507758333333","24.9977166666667","6500300","中和區"
"235058","151-BY","2018/06/21 19:59:49","新北市中和區員山路150巷2弄19號","121.481788333333","24.99786","6500300","中和區"
"235055","183-VK","2018/06/21 19:59:44","新北市中和區民生街23巷2弄2號","121.470785","25.0053683333333","6500300","中和區"
"235067","255-BX","2018/06/21 19:59:45","新北市中和區新生街213號","121.483946666667","24.999685","6500300","中和區"
"235044","293-VK","2018/06/21 19:59:48","新北市中和區南山路160號","121.504501666667","24.9919","6500300","中和區"
"235042","KEA-2878","2018/06/21 19:59:44","新北市中和區保健路7巷8號","121.508255","24.9987233333333","6500300","中和區"
"235050","4979-A6","2018/06/21 19:59:29","新北市中和區景平路239巷57號","121.508535","24.992145","6500300","中和區"
"235069","4980-A6","2018/06/21 19:59:29","新北市中和區景平路479號","121.500291666667","24.997275","6500300","中和區"
"235070","558-UM","2018/06/21 19:59:39","新北市中和區圓通路208號","121.495935","24.99402","6500300","中和區"
"235054","640-BX","2018/06/21 19:59:36","新北市中和區莒光路132號","121.472423333333","25.00144","6500300","中和區"
"235046","733-UM","2018/06/21 19:59:34","新北市中和區興南路一段93巷81號","121.510638333333","24.9864266666667","6500300","中和區"
"235041","802-TS","2018/06/21 19:59:35","新北市中和區安平路44號","121.510068333333","24.99549","6500300","中和區"
"235052","805-TS","2018/06/21 19:59:24","新北市中和區華新街192巷22弄8號","121.50695","24.9834183333333","6500300","中和區"
"235048","896-TW","2018/06/21 19:59:37","新北市中和區興南路一段17號","121.511401666667","24.9910766666667","6500300","中和區"
"235066","911-UM","2018/06/21 19:59:44","新北市中和區中山路二段57號","121.504278333333","25.0048983333333","6500300","中和區"
"235051","157-BY","2018/06/21 19:59:46","新北市中和區復興路299號","121.501523333333","24.9902233333333","6500300","中和區"
"235037","AAC-213","2018/06/21 19:59:43","新北市中和區自立路26號","121.522451666667","24.9929783333333","6500300","中和區"
"235059","AAC-215","2018/06/21 19:59:46","新北市中和區圓通路367巷2號","121.491356666667","24.9893933333333","6500300","中和區"
"220068","013-TV","2018/06/21 19:59:47","新北市板橋區光復街192巷16弄6號","121.486271666667","25.0196833333333","6500100","板橋區"
"220072","015-TV","2018/06/21 19:59:39","新北市板橋區篤行路二段1巷11號","121.432365","24.9926466666667","6500100","板橋區"
"220065","072-UY","2018/06/21 19:59:43","新北市板橋區館前東路154號","121.464551666667","25.00792","6500100","板橋區"
"220106","075-UY","2018/06/21 19:59:36","新北市板橋區民治街96巷15號","121.478556666667","25.0321216666667","6500100","板橋區"
"220069","AAD-861","2018/06/21 19:59:35","新北市板橋區大明街44號","121.457936666667","25.0027916666667","6500100","板橋區"
"247024","893-R6","2018/06/21 19:59:34","新北市蘆洲區光榮路120巷12號","121.46551","25.08845","6501400","蘆洲區"
"247014","546-UM","2018/06/21 19:59:31","新北市蘆洲區中山二路100號","121.472555","25.08194","6501400","蘆洲區"
"247010","341-TH","2018/06/21 19:59:37","新北市蘆洲區集賢路202號","121.483543333333","25.087535","6501400","蘆洲區"
"247004","337-TH","2018/06/21 19:59:34","新北市蘆洲區永康街39號","121.45714","25.08508","6501400","蘆洲區"
"247006","336-TH","2018/06/21 19:59:45","新北市蘆洲區九芎街94號","121.465775","25.0798716666667","6501400","蘆洲區"
"247008","056-VK","2018/06/21 19:59:35","新北市蘆洲區中山一路95巷20弄1號","121.477286666667","25.080605","6501400","蘆洲區"
"247016","007-UY","2018/06/21 19:59:40","新北市蘆洲區光華路20號","121.469528333333","25.08336","6501400","蘆洲區"
"247002","002-UY","2018/06/21 19:59:07","新北市蘆洲區長安街274巷1號","121.457685","25.0871316666667","6501400","蘆洲區"
"247020","001-UY","2018/06/21 19:59:39","新北市蘆洲區民義街77號","121.473326666667","25.0902233333333","6501400","蘆洲區"
"226004","312-R5","2018/06/21 19:59:41","新北市平溪區靜安路二段440號","121.740105","25.0249633333333","6502400","平溪區"
"228003","097-TW","2018/06/21 19:59:44","新北市貢寮區仁理村仁和路37號","121.923948333333","25.05392","6502600","貢寮區"
"224010","AGQ-8101","2018/06/21 19:59:34","新北市瑞芳區輕便路308號","121.843056666667","25.108485","6501200","瑞芳區"
"224002","639-TC","2018/06/21 19:59:46","新北市瑞芳區員山子路3-1號","121.818998333333","25.1046366666667","6501200","瑞芳區"
"227004","642-TC","2018/06/21 19:59:45","新北市雙溪區雙溪里長安街16號","121.864953333333","25.0346866666667","6502500","雙溪區"
"227010","400-TW","2018/06/21 19:59:38","新北市雙溪區新基里新基南街24號","121.86628","25.0381566666667","6502500","雙溪區"
"222001","KEA-2212","2018/06/21 19:59:33","新北市深坑區北深路三段125號","121.604566666667","25.0022483333333","6501800","深坑區"
"208002","KEA-2872","2018/06/21 19:59:39","新北市金山區中華路366-1號","121.633203333333","25.22447","6502700","金山區"
"208003","665-BX","2018/06/21 19:59:41","新北市金山區永興里濆水路13號","121.626868333333","25.2685116666667","6502700","金山區"
"208001","761-BX","2018/06/21 19:59:51","新北市金山區重和里茅埔頭1號","121.60481","25.2172516666667","6502700","金山區"
"251004","009-UM","2018/06/21 19:59:28","新北市淡水區民權路173巷15號","121.460626666667","25.1356133333333","6501000","淡水區"
"251001","011-UM","2018/06/21 19:59:35","新北市淡水區淡金路二段513號","121.447055","25.190245","6501000","淡水區"
"251013","KEA-2871","2018/06/21 19:59:39","新北市淡水區下圭柔山63-7號","121.451751666667","25.20618","6501000","淡水區"
"251016","179-VK","2018/06/21 19:59:40","新北市淡水區淡金路四段586號","121.451716666667","25.2281916666667","6501000","淡水區"
"251014","180-VK","2018/06/21 19:59:45","新北市淡水區石頭厝14-19號","121.464341666667","25.2362633333333","6501000","淡水區"
"251008","181-VK","2018/06/21 19:59:42","新北市淡水區淡海路70號","121.423095","25.1809883333333","6501000","淡水區"
"251015","182-VK","2018/06/21 19:59:41","新北市淡水區北投子19-7號","121.454603333333","25.1864416666667","6501000","淡水區"
"251010","413-VK","2018/06/21 19:59:33","新北市淡水區崁頂142號","121.43108","25.2057966666667","6501000","淡水區"
"251012","441-VK","2018/06/21 19:59:30","新北市淡水區下圭柔山99-2號","121.438591666667","25.2113133333333","6501000","淡水區"
"251005","443-VK","2018/06/21 19:59:34","新北市淡水區學府路123號","121.450538333333","25.1730166666667","6501000","淡水區"
"251006","561-UM","2018/06/21 19:59:47","新北市淡水區北新路6號","121.444435","25.17743","6501000","淡水區"
"251009","575-R6","2018/06/21 19:59:42","新北市淡水區英專路28巷2弄1號","121.445956666667","25.1697083333333","6501000","淡水區"
"251011","650-BX","2018/06/21 19:59:34","新北市淡水區崁頂55號","121.442371666667","25.196635","6501000","淡水區"
"251003","766-UM","2018/06/21 19:59:44","新北市淡水區中山北路二段189巷15弄29號","121.443418333333","25.1841916666667","6501000","淡水區"
"207003","550-UM","2018/06/21 19:59:39","新北市萬里區磺潭里公館崙5號","121.641885","25.21424","6502800","萬里區"
"207004","225-TW","2018/06/21 19:59:32","新北市萬里區北基里忠二街31號","121.68555","25.1756616666667","6502800","萬里區"
"252002","178-VK","2018/06/21 19:59:34","新北市三芝區三民街39巷36號","121.505408333333","25.2575466666667","6502100","三芝區"
"252001","292-VK","2018/06/21 19:59:46","新北市三芝區公正街9號","121.499743333333","25.2574783333333","6502100","三芝區"
"237004","KEA-2597","2018/06/21 19:59:40","新北市三峽區添福15-9號","121.37237","24.905185","6500900","三峽區"
"237007","153-BY","2018/06/21 19:59:50","新北市三峽區麻園46號","121.363683333333","24.921275","6500900","三峽區"
"237009","210-TH","2018/06/21 19:59:47","新北市三峽區民族街78巷2弄5號","121.368518333333","24.92988","6500900","三峽區"
"237012","275-BY","2018/06/21 19:59:47","新北市三峽區中華路76-1號","121.37098","24.92881","6500900","三峽區"
"237008","302-VK","2018/06/21 19:59:50","新北市三峽區中正路一段292巷35號","121.370106666667","24.92598","6500900","三峽區"
"237014","433-BY","2018/06/21 19:59:29","新北市三峽區添福141號","121.375271666667","24.9009916666667","6500900","三峽區"
"237006","5529-G3","2018/06/21 19:59:30","新北市三峽區中園街237-1號","121.36712","24.9194533333333","6500900","三峽區"
"237016","649-BX","2018/06/21 19:59:31","新北市三峽區溪東路53號","121.400773333333","24.9348466666667","6500900","三峽區"
"237005","AKY-6261","2018/06/21 19:59:46","新北市三峽區民生街1巷17號","121.380501666667","24.9355816666667","6500900","三峽區"
"236070","105-UM","2018/06/21 19:59:38","新北市土城區忠義路77號","121.443241666667","24.9648066666667","6501300","土城區"
"236042","107-UM","2018/06/21 19:59:48","新北市土城區學府路一段98巷15號","121.455656666667","24.988565","6501300","土城區"
"236078","166-UM","2018/06/21 19:59:29","新北市土城區中州路1-5號","121.414551666667","24.9573483333333","6501300","土城區"
"236030","253-BX","2018/06/21 19:59:42","新北市土城區中央路一段248-3號","121.444375","24.9846666666667","6501300","土城區"
"236026","269-VK","2018/06/21 19:59:36","新北市土城區中央路二段81號","121.4423","24.9783566666667","6501300","土城區"
"236014","270-VK","2018/06/21 19:59:34","新北市土城區廣福街121號","121.456248333333","24.9928","6501300","土城區"
"236038","271-VK","2018/06/21 19:59:45","新北市土城區國際路62號","121.466551666667","24.9775383333333","6501300","土城區"
"236021","401-BY","2018/06/21 19:59:34","新北市土城區延吉街111巷12弄10號","121.471706666667","24.9856316666667","6501300","土城區"
"236063","752-BX","2018/06/21 19:59:36","新北市土城區延和路64號","121.465735","24.9889683333333","6501300","土城區"
"236059","912-UM","2018/06/21 19:59:47","新北市土城區中央路一段278號","121.443643333333","24.9829566666667","6501300","土城區"
"236049","913-UM","2018/06/21 19:59:40","新北市中和區連城路534巷2號","121.475301666667","24.9914233333333","6501300","土城區"
"236055","AAC-216","2018/06/21 19:59:36","新北市土城區立德路37號","121.462338333333","24.9879416666667","6501300","土城區"
"242034","AAC-296","2018/06/21 19:59:37","新北市新莊區建中街102號","121.446468333333","25.03656","6500500","新莊區"
"242058","986-R7","2018/06/21 19:59:48","新北市新莊區八德街64號","121.42482","25.022275","6500500","新莊區"
"242053","751-BX","2018/06/21 19:59:49","新北市新莊區西盛街420號","121.427135","25.0121333333333","6500500","新莊區"
"242023","705-TV","2018/06/21 19:59:30","新北市新莊區化成路197號","121.465888333333","25.0505733333333","6500500","新莊區"
"242025","613-BX","2018/06/21 19:59:35","新北市新莊區五工一路89號","121.461291666667","25.06768","6500500","新莊區"
"242029","612-BX","2018/06/21 19:59:40","新北市新莊區中榮街152巷22號","121.446298333333","25.0532633333333","6500500","新莊區"
"242046","497-BY","2018/06/21 19:59:34","新北市新莊區裕民街19巷4號","121.419635","25.0251816666667","6500500","新莊區"
"242051","441-UM","2018/06/21 19:59:30","新北市新莊區西盛街137號","121.428228333333","25.0185233333333","6500500","新莊區"
"242036","415-TV","2018/06/21 19:59:44","新北市新莊區建安街39號","121.42892","25.0255283333333","6500500","新莊區"
"242007","413-TV","2018/06/21 19:59:35","新北市新莊區思源路710號","121.459691666667","25.0582883333333","6500500","新莊區"
"242061","353-BY","2018/06/21 19:59:49","新北市新莊區瓊林路68號","121.445245","25.0286416666667","6500500","新莊區"
"242039","133-UY","2018/06/21 19:59:27","新北市新莊區民安路280號","121.427771666667","25.0215466666667","6500500","新莊區"
"242048","172-VK","2018/06/21 19:59:33","新北市新莊區富國路109巷2號","121.423765","25.0251033333333","6500500","新莊區"
"242011","173-VK","2018/06/21 19:59:46","新北市新莊區中港路498號","121.451868333333","25.0517016666667","6500500","新莊區"
"242017","175-VK","2018/06/21 19:59:47","新北市新莊區中安街38號","121.45284","25.046465","6500500","新莊區"
"242004","176-VK","2018/06/21 19:59:48","新北市新莊區化成路219號","121.465901666667","25.0524766666667","6500500","新莊區"
"242015","346-TH","2018/06/21 19:59:48","新北市新莊區中平路6巷21號","121.445578333333","25.0427266666667","6500500","新莊區"
"242056","347-TH","2018/06/21 19:59:47","新北市新莊區中正路347巷17弄2號","121.447278333333","25.03435","6500500","新莊區"
"242021","348-TH","2018/06/21 19:59:42","新北市新莊區建中街48巷10弄12號","121.4486","25.03837","6500500","新莊區"
"242002","349-TH","2018/06/21 19:59:46","新北市新莊區新泰路47號","121.449523333333","25.0336783333333","6500500","新莊區"
"242019","350-TH","2018/06/21 19:59:45","新北市新莊區民生街15巷2弄2號","121.45579","25.0422966666667","6500500","新莊區"
"242013","351-TH","2018/06/21 19:59:41","新北市新莊區幸福路672號","121.450993333333","25.0494166666667","6500500","新莊區"
"238015","755-BX","2018/06/21 19:59:39","新北市樹林區中山路三段210-2號","121.380711666667","24.96684","6500700","樹林區"
"238021","KEA-2539","2018/06/21 19:59:43","新北市樹林區田尾街192巷1號","121.400433333333","24.9488883333333","6500700","樹林區"
"239006","891-R6","2018/06/21 19:59:30","新北市鶯歌區文化路72-4號","121.354923333333","24.9537533333333","6500800","鶯歌區"
"221008","489-VK","2018/06/21 19:59:36","新北市汐止區康寧街21號","121.61812","25.0670833333333","6501100","汐止區"
"221036","130-UY","2018/06/21 19:59:38","新北市汐止區新台五路二段85巷18號","121.66433","25.0675133333333","6501100","汐止區"
"221015","131-UY","2018/06/21 19:59:43","新北市汐止區忠孝東路473巷24-1號","121.665278333333","25.0736","6501100","汐止區"
"221010","269-BY","2018/06/21 19:59:36","新北市汐止區連峰街225巷12號","121.64448","25.080985","6501100","汐止區"
"221018","277-VK","2018/06/21 19:59:43","新北市汐止區大同路二段544號","121.661621666667","25.0688666666667","6501100","汐止區"
"221012","278-VK","2018/06/21 19:59:44","新北市汐止區大同路三段279號","121.674091666667","25.075065","6501100","汐止區"
"221032","280-BY","2018/06/21 19:59:31","新北市汐止區橫科路221巷19-1號","121.621608333333","25.0495516666667","6501100","汐止區"
"221027","281-BY","2018/06/21 19:59:29","新北市汐止區中正路81號","121.66135","25.0694","6501100","汐止區"
"221029","298-VK","2018/06/21 19:59:28","新北市汐止區樟樹一路137巷26號","121.640981666667","25.065925","6501100","汐止區"
"221021","299-VK","2018/06/21 19:59:41","新北市汐止區新台五路一段212-1號","121.655816666667","25.0629816666667","6501100","汐止區"
"221031","353-TW","2018/06/21 19:59:46","新北市汐止區福德一路212號","121.634446666667","25.0652533333333","6501100","汐止區"
"221035","622-UM","2018/06/21 19:59:35","新北市汐止區長江街39巷21號","121.655326666667","25.0720416666667","6501100","汐止區"
"221025","623-UM","2018/06/21 19:59:45","新北市汐止區秀峰路109巷5號","121.660465","25.0634433333333","6501100","汐止區"
"221038","646-BX","2018/06/21 19:59:37","新北市汐止區忠孝東路487-3號","121.666146666667","25.07392","6501100","汐止區"
"221033","647-BX","2018/06/21 19:59:43","新北市汐止區東勢街190巷5號","121.633998333333","25.041645","6501100","汐止區"
"220079","145-BY","2018/06/21 19:59:46","新北市板橋區中正路183巷15號","121.45559","25.0160683333333","6500100","板橋區"
"220080","200-UY","2018/06/21 19:59:44","新北市板橋區大觀路二段153巷39弄9號","121.446298333333","25.00074","6500100","板橋區"
"220082","610-BX","2018/06/21 19:59:45","新北市板橋區篤行路二段110號","121.431311666667","24.9910666666667","6500100","板橋區"
"220101","245-BX","2018/06/21 19:59:44","新北市板橋區莒光路180巷23號","121.473038333333","25.0227016666667","6500100","板橋區"
"220055","256-TC","2018/06/21 19:59:40","新北市板橋區仁愛路47巷2號","121.459793333333","24.9994766666667","6500100","板橋區"
"220077","282-UM","2018/06/21 19:59:45","新北市板橋區僑中一街148號","121.444971666667","25.0119166666667","6500100","板橋區"
"220071","283-VK","2018/06/21 19:59:34","新北市中和區和平路200巷1-7號","121.464465","24.9952416666667","6500100","板橋區"
"220094","285-UM","2018/06/21 19:59:38","新北市板橋區陽明街88號","121.464263333333","25.02293","6500100","板橋區"
"220053","285-VK","2018/06/21 19:59:38","新北市板橋區永豐街137號","121.47485","25.0199516666667","6500100","板橋區"
"220083","286-VK","2018/06/21 19:59:42","新北市板橋區僑中二街48巷12號","121.445813333333","25.010435","6500100","板橋區"
"220081","287-VK","2018/06/21 19:59:48","新北市板橋區大觀路一段28巷88號","121.449921666667","25.0110483333333","6500100","板橋區"
"220090","288-VK","2018/06/21 19:59:38","新北市板橋區綠堤街33-4號","121.455691666667","25.0264133333333","6500100","板橋區"
"220061","293-UM","2018/06/21 19:59:30","新北市板橋區觀光街1巷2號","121.472101666667","25.0155466666667","6500100","板橋區"
"220062","295-UM","2018/06/21 19:59:41","新北市板橋區光復街192巷16弄6號","121.486391666667","25.019695","6500100","板橋區"
"220084","296-UM","2018/06/21 19:59:32","新北市樹林區博愛街215號","121.424241666667","24.98704","6500100","板橋區"
"220092","307-R5","2018/06/21 19:59:31","新北市板橋區新海路135巷33號","121.45995","25.0228816666667","6500100","板橋區"
"220098","317-R6","2018/06/21 19:59:38","新北市板橋區英士路199號","121.458615","25.0235583333333","6500100","板橋區"
"220064","486-VK","2018/06/21 19:59:47","新北市板橋區海山路25號","121.468308333333","25.00886","6500100","板橋區"
"242031","280-VK","2018/06/21 19:59:47","新北市新莊區公園一路98號","121.443493333333","25.0373916666667","6500500","新莊區"
"220088","491-VK","2018/06/21 19:59:49","新北市板橋區懷德街228號","121.48052","25.0289066666667","6500100","板橋區"
"220035","560-BX","2018/06/21 19:59:34","新北市板橋區新生街87巷32號","121.456636666667","25.02214","6500100","板橋區"
"220103","561-BX","2018/06/21 19:59:46","新北市板橋區自由路22號","121.465543333333","25.0226616666667","6500100","板橋區"
"220091","637-BX","2018/06/21 19:59:43","新北市板橋區民治街121號","121.47819","25.0309483333333","6500100","板橋區"
"220057","686-BX","2018/06/21 19:59:41","新北市板橋區信義路59號","121.457068333333","24.9956616666667","6500100","板橋區"
"220093","689-BX","2018/06/21 19:59:39","新北市板橋區長江路三段122號","121.47522","25.0344083333333","6500100","板橋區"
"220054","741-BX","2018/06/21 19:59:39","新北市板橋區忠孝路201巷77號","121.464661666667","25.004325","6500100","板橋區"
"220102","KEA-2699","2018/06/21 19:59:50","新北市板橋區仁化街57號","121.475356666667","25.0318183333333","6500100","板橋區"
"220067","830-TW","2018/06/21 19:59:42","新北市板橋區漢生東路193巷7-1號","121.470313333333","25.01184","6500100","板橋區"
"220096","831-TW","2018/06/21 19:59:49","新北市板橋區莒光路16巷3號","121.469651666667","25.0244733333333","6500100","板橋區"
"220089","833-TW","2018/06/21 19:59:48","新北市板橋區龍泉街57號","121.457076666667","25.0259433333333","6500100","板橋區"
"220074","895-R6","2018/06/21 19:59:38","新北市板橋區縣民大道二段1號","121.461771666667","25.01177","6500100","板橋區"
"220073","985-R7","2018/06/21 19:59:48","新北市板橋區南雅西路二段105號","121.452573333333","25.01075","6500100","板橋區"
"220097","AAC-210","2018/06/21 19:59:46","新北市板橋區光正街43號","121.461818333333","25.01722","6500100","板橋區"
"220070","AAC-253","2018/06/21 19:59:40","新北市板橋區四川路一段153號","121.459961666667","25.0041116666667","6500100","板橋區"
"235068","KEA-2873","2018/06/21 19:59:33","新北市中和區中山路二段250巷22號","121.497345","25.0032316666667","6500300","中和區"
