"lineid","car","time","location","longitude","latitude","cityid","cityname"
"234077","969-R7","2018/06/21 21:29:31","新北市中和區橋和路328號","121.497873333333","25.0082516666667","6500400","永和區"
"231047","187-VK","2018/06/21 21:29:41","新北市新店區安民街133巷26號","121.51544","24.9695533333333","6500600","新店區"
"231054","KEA-2219","2018/06/21 21:29:35","新北市新店區柴埕路59號","121.513631666667","24.964915","6500600","新店區"
"221035","KEA-2785","2018/06/21 21:06:19","新北市汐止區汐萬路一段256巷3號","121.65245","25.0745416666667","6501100","汐止區"
"231063","616-UM","2018/06/21 21:29:39","新北市新店區如意街51號","121.493201666667","24.9473766666667","6500600","新店區"
"241017","063-VK","2018/06/21 21:29:37","新北市三重區中正北路25巷2號","121.49322","25.0626633333333","6500200","三重區"
"241005","262-UM","2018/06/21 21:29:42","新北市三重區仁華街58號","121.483898333333","25.0827166666667","6500200","三重區"
"241003","265-UM","2018/06/21 21:29:34","新北市三重區集賢路87-1號","121.493655","25.0868733333333","6500200","三重區"
"241016","266-UM","2018/06/21 21:29:35","新北市三重區信義西街148號","121.495335","25.0639216666667","6500200","三重區"
"241007","398-BY","2018/06/21 21:29:33","新北市三重區正義北路101號","121.497018333333","25.0654366666667","6500200","三重區"
"241024","413-TH","2018/06/21 21:29:36","新北市三重區中正北路117號","121.483458333333","25.0668916666667","6500200","三重區"
"241006","AAD-863","2018/06/21 21:28:33","新北市五股區中直路17-4號","121.422316666667","25.111505","6500200","三重區"
"247010","341-TH","2018/06/21 21:26:57","新北市蘆洲區鷺江街69號","121.477296666667","25.08286","6501400","蘆洲區"
"247012","339-TH","2018/06/21 21:29:47","新北市蘆洲區中正路520巷30號","121.469096666667","25.0986383333333","6501400","蘆洲區"
"247006","336-TH","2018/06/21 21:29:45","新北市蘆洲區中原路45號","121.45928","25.08231","6501400","蘆洲區"
"251004","009-UM","2018/06/21 21:29:48","新北市淡水區民族路10號","121.460468333333","25.1366783333333","6501000","淡水區"
"251001","011-UM","2018/06/21 21:29:35","新北市淡水區新市二路三段22號","121.43302","25.1927183333333","6501000","淡水區"
"251013","KEA-2871","2018/06/21 21:29:41","新北市淡水區埤島57-1號","121.461221666667","25.1966983333333","6501000","淡水區"
"251016","179-VK","2018/06/21 21:29:40","新北市淡水區前洲子11號","121.441015","25.2194","6501000","淡水區"
"251014","180-VK","2018/06/21 21:29:31","新北市淡水區六塊厝2-1號","121.45014","25.24044","6501000","淡水區"
"251008","181-VK","2018/06/21 21:29:43","新北市淡水區水源街二段124號","121.4531","25.174595","6501000","淡水區"
"251015","182-VK","2018/06/21 21:29:41","新北市淡水區淡金路三段70巷1號","121.448128333333","25.2003766666667","6501000","淡水區"
"251010","413-VK","2018/06/21 21:29:33","新北市淡水區沙崙路25巷21號","121.420598333333","25.182475","6501000","淡水區"
"251012","441-VK","2018/06/21 21:29:30","新北市淡水區淡金路五段35巷46號","121.452455","25.2347266666667","6501000","淡水區"
"251007","442-VK","2018/06/21 21:27:38","新北市淡水區淡金路一段69號","121.458138333333","25.1735116666667","6501000","淡水區"
"251005","443-VK","2018/06/21 21:29:34","新北市淡水區水源街一段34巷9號","121.443188333333","25.1718216666667","6501000","淡水區"
"251006","561-UM","2018/06/21 21:29:43","新北市淡水區公明街62號","121.443608333333","25.168575","6501000","淡水區"
"251009","575-R6","2018/06/21 21:29:33","新北市淡水區民族路33巷10-5號","121.46338","25.13627","6501000","淡水區"
"251011","650-BX","2018/06/21 21:29:34","新北市淡水區真理街32號","121.436828333333","25.1785116666667","6501000","淡水區"
"251003","766-UM","2018/06/21 21:29:44","新北市淡水區崁頂15-5號","121.438985","25.1858533333333","6501000","淡水區"
"220070","AAC-253","2018/06/21 21:29:40","新北市泰山區磚雅厝6號","121.442063333333","25.04264","6500100","板橋區"
