"lineid","car","time","location","longitude","latitude","cityid","cityname"
"235010","733-UM","2018/06/21 21:36:10","新北市中和區員山路36巷13號","121.484121666667","24.9908616666667","6500300","中和區"
"247010","341-TH","2018/06/21 21:49:37","新北市八里區中山路三段390號","121.368495","25.1355866666667","6501400","蘆洲區"
"251004","009-UM","2018/06/21 21:49:48","新北市淡水區民權路88-5號","121.458841666667","25.1326433333333","6501000","淡水區"
"251001","011-UM","2018/06/21 21:49:35","新北市淡水區後洲路一段157號","121.427723333333","25.1985883333333","6501000","淡水區"
"251008","181-VK","2018/06/21 21:49:43","新北市淡水區水源街二段2號","121.448945","25.1732566666667","6501000","淡水區"
"251010","413-VK","2018/06/21 21:49:53","新北市淡水區中正路二段206號","121.426223333333","25.1890483333333","6501000","淡水區"
"251012","441-VK","2018/06/21 21:49:50","新北市淡水區淡金路三段317號","121.449085","25.2058683333333","6501000","淡水區"
"251007","442-VK","2018/06/21 21:49:46","新北市淡水區水源街二段177巷58號","121.452505","25.17715","6501000","淡水區"
"251005","443-VK","2018/06/21 21:49:46","新北市淡水區鄧公路30巷32弄3號","121.45361","25.1700916666667","6501000","淡水區"
"251006","561-UM","2018/06/21 21:49:43","新北市淡水區中正路11巷3號","121.437795","25.1707583333333","6501000","淡水區"
"251009","575-R6","2018/06/21 21:49:33","新北市淡水區民族路35巷11號","121.464898333333","25.13754","6501000","淡水區"
"251011","650-BX","2018/06/21 21:49:34","新北市淡水區新民街322巷5弄1-1號","121.436328333333","25.18292","6501000","淡水區"
"251002","672-BX","2018/06/21 21:49:38","新北市淡水區學府路206號","121.44752","25.1764266666667","6501000","淡水區"
"251003","766-UM","2018/06/21 21:49:44","新北市淡水區新春街83號","121.438803333333","25.1824566666667","6501000","淡水區"
"220070","AAC-253","2018/06/21 21:49:40","新北市板橋區華東街1-9號","121.448261666667","24.9948383333333","6500100","板橋區"
