"lineid","car","time","location","longitude","latitude","cityid","cityname"
"248005","653-BX","2018/06/22 07:49:25","新北市五股區明德路10號","121.433391666667","25.071755","6501500","五股區"
"232019","705-BZ","2018/06/22 07:49:13","新北市坪林區乾溪5號","121.741975","24.9725433333333","6502000","坪林區"
"232008","758-BX","2018/06/22 07:49:32","新北市坪林區魚堀9-13號","121.704603333333","24.90657","6502000","坪林區"
"244004","248-BX","2018/06/22 07:49:27","新北市林口區下福里161號","121.304021666667","25.1131483333333","6501700","林口區"
"222004","016-RS","2018/06/22 07:49:16","新北市深坑區北深路一段26號","121.638951666667","25.0104166666667","6501800","深坑區"
"222005","289-BY","2018/06/22 07:49:25","新北市深坑區文化街88號","121.61755","25.0019916666667","6501800","深坑區"
"231007","189-VK","2018/06/22 07:49:33","新北市新店區安一路一段1-1號","121.519566666667","24.9612016666667","6500600","新店區"
"231009","192-VK","2018/06/22 07:49:35","新北市新店區安一路一段1-1號","121.519248333333","24.961565","6500600","新店區"
"235001","611-BX","2018/06/22 07:49:17","新北市中和區圓通路367巷4號","121.49141","24.989245","6500300","中和區"
"226005","5620-A6","2018/06/22 07:49:25","新北市平溪區嶺腳里中華街62號","121.739471666667","25.02507","6502400","平溪區"
"226001","7418-A5","2018/06/22 07:49:25","新北市平溪區平湖里坑頭3號","121.781851666667","25.0263683333333","6502400","平溪區"
"226006","AGD-0702","2018/06/22 07:49:22","新北市平溪區新寮里頂寮子4號","121.773725","25.0518833333333","6502400","平溪區"
"223006","022-BY","2018/06/22 07:49:24","新北市坪林區北宜路八段558號","121.716021666667","24.9090133333333","6501900","石碇區"
"223002","KEA-2673","2018/06/22 07:44:18","新北市石碇區大格門5號","121.667191666667","24.9566983333333","6501900","石碇區"
"223003","205-TH","2018/06/22 07:49:27","新北市石碇區樟空子10-2號","121.666941666667","24.96219","6501900","石碇區"
"223001","592-UM","2018/06/22 07:49:29","新北市石碇區樟空子10-2號","121.666961666667","24.9623283333333","6501900","石碇區"
"223004","660-BX","2018/06/22 07:49:15","新北市石碇區楓子林30號","121.642306666667","25.00955","6501900","石碇區"
"223007","661-BX","2018/06/22 07:34:31","新北市石碇區靜安路一段337號","121.698911666667","25.0144783333333","6501900","石碇區"
"223005","677-TV","2018/06/22 07:49:26","新北市石碇區楓子林30號","121.642343333333","25.00965","6501900","石碇區"
"227005","282-VK","2018/06/22 07:49:16","新北市雙溪區雙溪里太平路54號","121.864763333333","25.0355216666667","6502500","雙溪區"
"237001","159-UY","2018/06/22 07:49:29","新北市三峽區大學路77號","121.376163333333","24.94165","6500900","三峽區"
"236010","165-UM","2018/06/22 07:49:26","新北市土城區金城路三段287巷15號","121.473115","24.9919983333333","6501300","土城區"
"236004","339-SR","2018/06/22 07:49:18","新北市土城區龍泉路89-1號","121.44633","24.9422183333333","6501300","土城區"
