"lineid","car","time","location","longitude","latitude","cityid","cityname"
"248004","653-BX","2018/11/06 09:29:04","新北市五股區登林路貿商巷3弄15號","121.429761666667","25.07001","6501500","五股區"
"222004","289-BY","2018/11/06 09:28:57","新北市深坑區大崙腳8-1號","121.617476666667","24.99374","6501800","深坑區"
"231007","189-VK","2018/11/06 09:28:58","新北市新店區新潭路三段215巷25號","121.508098333333","24.9040916666667","6500600","新店區"
"231009","192-VK","2018/11/06 09:28:58","新北市新店區平廣路一段270-2號","121.504555","24.8863066666667","6500600","新店區"
"235001","611-BX","2018/11/06 09:29:02","新北市中和區連城路607號","121.478211666667","24.9931083333333","6500300","中和區"
"223004","437-BY","2018/11/06 09:28:49","新北市石碇區碇坪路二段22號","121.686986666667","24.9741033333333","6501900","石碇區"
"223001","592-UM","2018/11/06 09:28:48","新北市石碇區內楒仔腳1-10號","121.632526666667","24.9702783333333","6501900","石碇區"
"223005","677-TV","2018/11/06 09:28:53","新北市石碇區大崙7號","121.687113333333","24.97693","6501900","石碇區"
"227006","282-VK","2018/11/06 09:28:48","新北市雙溪區長源里柑腳53-1號","121.794906666667","25.0083466666667","6502500","雙溪區"
"227012","030-BX","2018/11/06 09:28:45","新北市坪林區坪雙路三段12號","121.777256666667","24.97046","6502500","雙溪區"
"252004","249-BX","2018/11/06 09:28:50","新北市三芝區圓山里石曹子坑36-1號","121.508611666667","25.2130216666667","6502100","三芝區"
"252007","AAC-283","2018/11/06 09:28:57","新北市三芝區古庄里山豬堀14-2號","121.492226666667","25.2600283333333","6502100","三芝區"
"237001","159-UY","2018/11/06 09:28:48","新北市樹林區中山路三段210-2號","121.380731666667","24.9667233333333","6500900","三峽區"
