"lineid","car","time","location","longitude","latitude","cityid","cityname"
"248004","653-BX","2018/11/06 09:49:23","新北市五股區成泰路一段7巷4號","121.43342","25.0667266666667","6501500","五股區"
"222004","289-BY","2018/11/06 09:49:17","新北市深坑區文山路二段7號","121.622801666667","25.0003366666667","6501800","深坑區"
"231007","189-VK","2018/11/06 09:49:18","新北市新店區新潭路三段215巷25號","121.508136666667","24.9040616666667","6500600","新店區"
"231009","192-VK","2018/11/06 09:49:18","新北市新店區小坑一路22號","121.533326666667","24.91346","6500600","新店區"
"227006","282-VK","2018/11/06 09:31:08","新北市雙溪區長源里柑腳58-1號","121.794368333333","25.004955","6502500","雙溪區"
"227012","030-BX","2018/11/06 09:49:25","新北市坪林區中心崙2-1號","121.785195","24.95211","6502500","雙溪區"
"252004","249-BX","2018/11/06 09:49:30","新北市三芝區圓山里石曹子坑69號","121.522993333333","25.213625","6502100","三芝區"
"252007","AAC-283","2018/11/06 09:49:35","新北市三芝區新庄里新庄子73號","121.507845","25.2736783333333","6502100","三芝區"
"237001","159-UY","2018/11/06 09:49:28","新北市三峽區國際一街52號","121.373215","24.9424766666667","6500900","三峽區"
