"lineid","car","time","location","longitude","latitude","cityid","cityname"
"248004","653-BX","2018/11/06 10:29:23","新北市五股區中興路二段182巷3號","121.456748333333","25.0781116666667","6501500","五股區"
"231007","189-VK","2018/11/06 10:29:18","新北市新店區新潭路三段80巷41號","121.499426666667","24.9102233333333","6500600","新店區"
"231009","192-VK","2018/11/06 10:25:38","新北市新店區成功路45-1號","121.53957","24.9000133333333","6500600","新店區"
"227006","282-VK","2018/11/06 10:29:28","新北市雙溪區上林里內平林90號","121.828151666667","25.0277416666667","6502500","雙溪區"
"237001","159-UY","2018/11/06 10:29:28","新北市三峽區中山路459巷163-1號","121.349313333333","24.9334083333333","6500900","三峽區"
