"lineid","car","time","location","longitude","latitude","cityid","cityname"
"248004","653-BX","2018/11/06 10:39:23","新北市五股區中興路三段2巷10號","121.449071666667","25.0808983333333","6501500","五股區"
"231007","189-VK","2018/11/06 10:39:18","新北市新店區新潭路二段132號","121.513466666667","24.9217916666667","6500600","新店區"
"231009","192-VK","2018/11/06 10:38:38","新北市新店區成功路230巷2號","121.5291","24.8866483333333","6500600","新店區"
"227006","282-VK","2018/11/06 10:39:28","新北市雙溪區新基里新基東街14-5號","121.873615","25.04258","6502500","雙溪區"
"237001","159-UY","2018/11/06 10:39:28","新北市三峽區中山路459巷163-1號","121.349318333333","24.9334116666667","6500900","三峽區"
