"lineid","car","time","location","longitude","latitude","cityid","cityname"
"231009","192-VK","2018/11/06 11:49:18","新北市新店區安康路一段3-1號","121.53509","24.9610216666667","6500600","新店區"
"235029","098-UM","2018/11/06 11:49:18","新北市中和區員山路36巷16-3號","121.48504","24.991285","6500300","中和區"
"223001","592-UM","2018/11/06 11:49:22","新北市石碇區石崁14號","121.655075","24.9953766666667","6501900","石碇區"
"228004","212-TW","2018/11/06 11:49:21","新北市貢寮區貢寮里朝陽街1-2號","121.912181666667","25.021215","6502600","貢寮區"
"227006","282-VK","2018/11/06 11:49:28","新北市雙溪區牡丹里中正路56號","121.865588333333","25.040525","6502500","雙溪區"
"237001","159-UY","2018/11/06 11:49:28","新北市三峽區中山路459巷163-1號","121.349298333333","24.9334016666667","6500900","三峽區"
