"lineid","car","time","location","longitude","latitude","cityid","cityname"
"234040","862-TW","2018/11/06 12:09:21","新北市永和區福和路1號","121.526451666667","25.0097233333333","6500400","永和區"
"235029","098-UM","2018/11/06 12:06:25","新北市中和區員山路36巷16-3號","121.48508","24.991365","6500300","中和區"
"228004","212-TW","2018/11/06 12:09:21","新北市貢寮區貢寮里長泰路14號","121.907496666667","25.01955","6502600","貢寮區"
"228005","828-UM","2018/11/06 12:09:27","新北市貢寮區福隆里東興街42號","121.948775","25.0178216666667","6502600","貢寮區"
"237001","159-UY","2018/11/06 12:09:27","新北市三峽區中山路459巷163-1號","121.349286666667","24.93341","6500900","三峽區"
