"lineid","car","time","location","longitude","latitude","cityid","cityname"
"234084","338-UY","2018/11/06 12:19:21","新北市永和區福和路1號","121.526116666667","25.00963","6500400","永和區"
"234040","862-TW","2018/11/06 12:19:21","新北市永和區福和路1號","121.526408333333","25.0096716666667","6500400","永和區"
"235029","098-UM","2018/11/06 12:06:25","新北市中和區員山路36巷16-3號","121.48508","24.991365","6500300","中和區"
"235031","255-BX","2018/11/06 12:19:17","新北市中和區員山路36巷16-2號","121.485171666667","24.9917516666667","6500300","中和區"
"228004","212-TW","2018/11/06 12:19:21","新北市貢寮區貢寮里長泰路17-2號","121.89373","25.0206216666667","6502600","貢寮區"
"228005","828-UM","2018/11/06 12:19:27","新北市貢寮區福連里福興街37-2號","121.992231666667","25.01162","6502600","貢寮區"
"237001","159-UY","2018/11/06 12:19:27","新北市三峽區中山路459巷163-1號","121.349295","24.9334016666667","6500900","三峽區"
"235025","KEA-2875","2018/11/06 12:19:13","新北市中和區員山路36巷16號","121.484415","24.9915366666667","6500300","中和區"
