"lineid","car","time","location","longitude","latitude","cityid","cityname"
"234005","207-UY","2018/11/06 14:19:20","新北市永和區中正路666巷2號","121.516865","25.0090183333333","6500400","永和區"
"234078","298-R6","2018/11/06 14:19:17","新北市永和區國中路132巷8號","121.523856666667","25.00741","6500400","永和區"
"234036","336-UY","2018/11/06 14:19:32","新北市永和區成功路一段97號","121.527091666667","25.0026283333333","6500400","永和區"
"234062","337-UY","2018/11/06 14:19:32","新北市永和區得和路160號","121.519271666667","25.0001466666667","6500400","永和區"
"234084","338-UY","2018/11/06 14:19:21","新北市永和區永和路二段201號","121.515398333333","25.0135533333333","6500400","永和區"
"234068","552-UM","2018/11/06 14:19:12","新北市永和區永寧街113號","121.518158333333","25.00621","6500400","永和區"
"234028","746-BX","2018/11/06 14:19:30","新北市永和區民權路49巷10號","121.520651666667","24.9972233333333","6500400","永和區"
"234052","KEA-2590","2018/11/06 14:19:30","新北市永和區光復街2巷26弄1號","121.51768","25.0166483333333","6500400","永和區"
"234060","AAD-866","2018/11/06 14:19:15","新北市永和區安樂路194巷17弄6號","121.516025","25.0012583333333","6500400","永和區"
"234040","862-TW","2018/11/06 14:19:21","新北市中和區中安街188號","121.511283333333","24.9993466666667","6500400","永和區"
"234048","863-TW","2018/11/06 14:19:14","新北市永和區新生路138巷1弄4號","121.50649","25.014405","6500400","永和區"
"234025","9371-KE","2018/11/06 14:19:33","新北市永和區得和路42巷23號","121.515361666667","24.9996166666667","6500400","永和區"
"248017","225-UY","2018/11/06 14:19:26","新北市五股區壟路12-10號","121.415885","25.0887133333333","6501500","五股區"
"234076","969-R7","2018/11/06 14:19:32","新北市永和區民族街81巷60號","121.520145","24.9965316666667","6500400","永和區"
"234072","AAC-211","2018/11/06 14:19:30","新北市永和區竹林路119巷22弄3-3號","121.52199","25.0115683333333","6500400","永和區"
"234066","AAC-212","2018/11/06 14:19:22","新北市永和區保平路290號","121.508123333333","25.0045833333333","6500400","永和區"
"234001","AAC-295","2018/11/06 14:19:20","新北市永和區自強街37號","121.515941666667","25.0081266666667","6500400","永和區"
"244002","248-BX","2018/11/06 14:19:20","新北市林口區竹林路266號","121.389663333333","25.0809","6501700","林口區"
"231002","002-UM","2018/11/06 14:19:26","新北市新店區中央路200號","121.530495","24.9741266666667","6500600","新店區"
"231027","0293-UT","2018/11/06 14:19:21","新北市新店區光明街286巷21號","121.541145","24.96341","6500600","新店區"
"231028","046-UY","2018/11/06 14:19:26","新北市新店區安和路二段220號","121.517783333333","24.9755466666667","6500600","新店區"
"231001","047-UY","2018/11/06 14:19:19","新北市新店區北新路一段126巷32號","121.5433","24.96898","6500600","新店區"
"231005","106-UY","2018/11/06 14:19:27","新北市新店區中興路三段188號","121.544006666667","24.9815683333333","6500600","新店區"
"231020","108-UY","2018/11/06 14:19:25","新北市新店區新烏路二段198巷2弄2號","121.54783","24.916995","6500600","新店區"
"231012","187-VK","2018/11/06 14:19:20","新北市新店區五峰路63巷8弄106號","121.547881666667","24.9686133333333","6500600","新店區"
"231023","KEA-2219","2018/11/06 14:19:31","新北市新店區中興路一段82號","121.539753333333","24.9597966666667","6500600","新店區"
"231003","268-BY","2018/11/06 14:19:24","新北市新店區中興路一段185號","121.543038333333","24.9649633333333","6500600","新店區"
"231018","278-BY","2018/11/06 14:19:18","新北市新店區中央四街10號","121.529635","24.9738116666667","6500600","新店區"
"231015","AAD-862","2018/11/06 14:19:17","新北市新店區北宜路三段66號","121.575731666667","24.950605","6500600","新店區"
"231038","3712-VJ","2018/11/06 14:19:27","新北市新店區溪洲路61-1號","121.533473333333","24.9610266666667","6500600","新店區"
"231037","4716-K9","2018/11/06 14:19:26","新北市新店區安康路二段269號","121.504181666667","24.9573066666667","6500600","新店區"
"231036","512-UM","2018/11/06 14:19:35","新北市新店區安祥路109巷90弄98號","121.475923333333","24.9574383333333","6500600","新店區"
"231013","513-UM","2018/11/06 14:19:33","新北市新店區建國路253號","121.537581666667","24.9827633333333","6500600","新店區"
"231030","619-UM","2018/11/06 14:19:17","新北市新店區安民街3巷21號","121.514186666667","24.9642233333333","6500600","新店區"
"231034","641-BX","2018/11/06 14:19:31","新北市新店區車子路11號","121.503106666667","24.952125","6500600","新店區"
"231035","719-UM","2018/11/06 14:19:18","新北市新店區安和路二段113巷3弄5號","121.517975","24.9699216666667","6500600","新店區"
"231032","720-UM","2018/11/06 14:19:28","新北市新店區溪洲路196-6號","121.530673333333","24.96672","6500600","新店區"
"231029","897-TW","2018/11/06 14:19:33","新北市新店區安康路二段252號","121.50904","24.959005","6500600","新店區"
"231006","898-TW","2018/11/06 14:19:28","新北市新店區北宜路二段599號","121.56815","24.95555","6500600","新店區"
"231004","899-TW","2018/11/06 14:19:24","新北市新店區中正路215號","121.539763333333","24.9728383333333","6500600","新店區"
"231024","AKT-0513","2018/11/06 14:19:15","新北市新店區安民街121巷12號","121.515385","24.9691616666667","6500600","新店區"
"235030","003-UY","2018/11/06 14:19:25","新北市中和區景新街2號","121.50261","24.9996566666667","6500300","中和區"
"235028","005-UY","2018/11/06 14:19:34","新北市中和區連城路2號","121.499276666667","25.0023616666667","6500300","中和區"
"235027","006-UY","2018/11/06 14:19:24","新北市中和區連城路219巷9號","121.494908333333","24.996745","6500300","中和區"
"235020","096-UM","2018/11/06 14:19:30","新北市中和區民富街34號","121.476926666667","25.0066116666667","6500300","中和區"
"235003","097-UM","2018/11/06 14:19:19","新北市中和區秀峰街127巷20號","121.51875","24.990485","6500300","中和區"
"235029","098-UM","2018/11/06 14:19:22","新北市中和區永和路9巷1號","121.499206666667","25.0040183333333","6500300","中和區"
"235004","150-BY","2018/11/06 14:19:33","新北市中和區安平路36巷59號","121.510651666667","24.99458","6500300","中和區"
"235022","151-BY","2018/11/06 14:19:17","新北市中和區中正路637巷60弄61號","121.485508333333","24.99321","6500300","中和區"
"235019","183-VK","2018/11/06 14:19:28","新北市中和區中山路三段181巷22號","121.473048333333","25.0052283333333","6500300","中和區"
"235002","185-VK","2018/11/06 14:19:28","新北市中和區自立路35號","121.522173333333","24.9954016666667","6500300","中和區"
"235013","186-VK","2018/11/06 14:19:31","新北市中和區景新街230巷1號","121.508316666667","24.9940333333333","6500300","中和區"
"235031","255-BX","2018/11/06 14:19:17","新北市中和區中正路711號","121.484488333333","24.9985266666667","6500300","中和區"
"235008","293-VK","2018/11/06 14:19:23","新北市中和區中興街266巷2號","121.49857","24.987415","6500300","中和區"
"235036","301-VK","2018/11/06 14:19:29","新北市中和區莊敬路33巷6號","121.50042","25.005085","6500300","中和區"
"235007","352-BY","2018/11/06 14:19:29","新北市中和區景平路302號","121.512918333333","24.9929483333333","6500300","中和區"
"235006","KEA-2878","2018/11/06 14:19:34","新北市中和區安樂路217巷37號","121.513413333333","24.99797","6500300","中和區"
"247011","KEA-2869","2018/11/06 14:19:28","新北市蘆洲區民權路3巷26號","121.475195","25.0854383333333","6501400","蘆洲區"
"235014","4979-A6","2018/11/06 14:19:29","新北市中和區景安路220巷24號","121.502683333333","24.9916066666667","6500300","中和區"
"235033","4980-A6","2018/11/06 14:19:22","新北市中和區景平路736巷1弄8號","121.497361666667","25.0039383333333","6500300","中和區"
"235034","558-UM","2018/11/06 14:19:26","新北市中和區中山路二段274號","121.496816666667","25.002365","6500300","中和區"
"235009","565-BX","2018/11/06 14:19:27","新北市中和區景新街383巷36號","121.513825","24.9905783333333","6500300","中和區"
"235018","640-BX","2018/11/06 14:19:31","新北市中和區國光街107巷2弄2-1號","121.470073333333","25.0002066666667","6500300","中和區"
"235024","647-TV","2018/11/06 14:19:14","新北市中和區員山路292號","121.481511666667","25.0024466666667","6500300","中和區"
"235011","732-UM","2018/11/06 14:19:32","新北市中和區景平路241巷33號","121.50873","24.9923483333333","6500300","中和區"
"235010","733-UM","2018/11/06 14:19:21","新北市中和區忠孝街2巷11弄2號","121.510388333333","24.9819566666667","6500300","中和區"
"235035","783-BX","2018/11/06 14:19:18","新北市中和區建康路21-1號","121.486175","25.00073","6500300","中和區"
"235026","800-TS","2018/11/06 14:19:19","新北市中和區中山路二段436號","121.489331666667","25.00411","6500300","中和區"
"235021","801-TS","2018/11/06 14:19:19","新北市中和區員山路423巷2弄1號","121.480586666667","25.0032933333333","6500300","中和區"
"235005","802-TS","2018/11/06 14:19:31","新北市中和區宜安路77號","121.510985","24.9973066666667","6500300","中和區"
"235016","805-TS","2018/11/06 14:19:35","新北市中和區興南路二段242巷20號","121.502121666667","24.98322","6500300","中和區"
"235012","896-TW","2018/11/06 14:19:13","新北市中和區華新街109巷1-2號","121.508995","24.9823333333333","6500300","中和區"
"235017","900-TW","2018/11/06 14:19:24","新北市中和區華安街17巷10號","121.467075","24.9982166666667","6500300","中和區"
"235015","157-BY","2018/11/06 14:19:24","新北市中和區捷運路129號","121.507251666667","24.9908083333333","6500300","中和區"
"235001","AAC-213","2018/11/06 14:19:19","新北市中和區秀朗路三段10巷37弄13號","121.524165","24.9957283333333","6500300","中和區"
"235023","AAC-215","2018/11/06 14:19:28","新北市中和區圓通路252巷5弄38號","121.492068333333","24.9916333333333","6500300","中和區"
"220013","072-UY","2018/11/06 14:19:30","新北市板橋區國泰街76巷21號","121.467031666667","25.0071","6500100","板橋區"
"220105","075-UY","2018/11/06 14:19:32","新北市板橋區雙十路三段66巷1號","121.47048","25.0319216666667","6500100","板橋區"
"220017","AAD-861","2018/11/06 14:19:27","新北市板橋區華興街31巷15號","121.458396666667","25.00393","6500100","板橋區"
"247001","893-R6","2018/11/06 14:19:24","新北市蘆洲區永樂街75號","121.456298333333","25.0886016666667","6501400","蘆洲區"
"247015","546-UM","2018/11/06 14:19:31","新北市蘆洲區中正路185巷25弄14號","121.467045","25.083945","6501400","蘆洲區"
"247023","500-BY","2018/11/06 14:19:18","新北市蘆洲區長榮路655號","121.460118333333","25.0912","6501400","蘆洲區"
"247013","339-TH","2018/11/06 14:19:23","新北市蘆洲區中山一路210號","121.473151666667","25.0808416666667","6501400","蘆洲區"
"247005","337-TH","2018/11/06 14:19:20","新北市蘆洲區長安街23巷21號","121.46356","25.078365","6501400","蘆洲區"
"247007","336-TH","2018/11/06 14:19:20","新北市蘆洲區中山一路103巷20號","121.475833333333","25.0811266666667","6501400","蘆洲區"
"247019","057-VK","2018/11/06 14:19:16","新北市蘆洲區仁愛街25號","121.47218","25.0926166666667","6501400","蘆洲區"
"247009","056-VK","2018/11/06 14:19:27","新北市蘆洲區三民路26巷33號","121.476963333333","25.0828766666667","6501400","蘆洲區"
"247017","007-UY","2018/11/06 14:19:32","新北市蘆洲區民權路69號","121.473505","25.0884066666667","6501400","蘆洲區"
"247003","002-UY","2018/11/06 14:19:26","新北市蘆洲區長安街194巷24號","121.459861666667","25.0845066666667","6501400","蘆洲區"
"247021","001-UY","2018/11/06 14:19:31","新北市蘆洲區中正路424-1號","121.462855","25.0940816666667","6501400","蘆洲區"
"228004","212-TW","2018/11/06 14:19:20","新北市貢寮區雙玉里田寮洋街39號","121.924853333333","25.013825","6502600","貢寮區"
"228005","828-UM","2018/11/06 14:19:27","新北市貢寮區美豐里土地公嶺54號","121.894708333333","25.0651283333333","6502600","貢寮區"
"207002","749-BX","2018/11/06 14:19:19","新北市萬里區溪底里瑞泉路4號","121.609425","25.1449283333333","6502800","萬里區"
"207001","662-BX","2018/11/06 14:19:15","新北市萬里區磺潭里清水18號","121.637893333333","25.1976733333333","6502800","萬里區"
"252005","AAC-283","2018/11/06 14:19:14","新北市三芝區橫山里大坑12號","121.521491666667","25.2565","6502100","三芝區"
"236065","105-UM","2018/11/06 14:19:15","新北市土城區明德路一段107號","121.465606666667","24.982265","6501300","土城區"
"236040","KED-0685","2018/11/06 14:19:19","新北市土城區裕生路21巷1弄2號","121.448638333333","24.98722","6501300","土城區"
"236074","166-UM","2018/11/06 14:19:29","新北市土城區中央路三段281巷15弄1號","121.426288333333","24.9627","6501300","土城區"
"236029","253-BX","2018/11/06 14:19:19","新北市土城區順風路64號","121.440221666667","24.97736","6501300","土城區"
"236024","269-VK","2018/11/06 14:19:34","新北市土城區承天路67號","121.439571666667","24.96357","6501300","土城區"
"236013","270-VK","2018/11/06 14:19:24","新北市土城區青雲路39巷7號","121.460386666667","24.9875583333333","6501300","土城區"
"236032","271-VK","2018/11/06 14:19:34","新北市土城區青雲路483巷4號","121.45932","24.97363","6501300","土城區"
"236017","401-BY","2018/11/06 14:19:34","新北市土城區金城路二段253號","121.463518333333","24.9857333333333","6501300","土城區"
"236057","912-UM","2018/11/06 14:19:22","新北市土城區中央路四段440號","121.41075","24.9514933333333","6501300","土城區"
"236045","913-UM","2018/11/06 14:19:27","新北市土城區明德路一段369號","121.45605","24.977755","6501300","土城區"
"236060","915-UM","2018/11/06 14:19:28","新北市土城區金城路三段192號","121.468383333333","24.9880566666667","6501300","土城區"
"236054","AAC-216","2018/11/06 14:19:31","新北市土城區中華路二段100號","121.438131666667","24.9743966666667","6501300","土城區"
"221033","647-BX","2018/11/06 14:19:23","台北市南港區南深路23巷26號","121.622303333333","25.0371366666667","6501100","汐止區"
"220027","145-BY","2018/11/06 14:19:24","新北市板橋區公館街110號","121.46089","25.0168183333333","6500100","板橋區"
"220028","200-UY","2018/11/06 14:19:33","新北市板橋區大觀路二段37巷308號","121.450011666667","25.0021333333333","6500100","板橋區"
"220050","245-BX","2018/11/06 14:19:00","新北市板橋區雙十路二段50號","121.475525","25.0275866666667","6500100","板橋區"
"220047","257-TC","2018/11/06 14:19:33","新北市板橋區民有街131號","121.464203333333","25.0287266666667","6500100","板橋區"
"220040","267-BY","2018/11/06 14:19:27","新北市板橋區松柏街70巷3號","121.476661666667","25.0302566666667","6500100","板橋區"
"220004","276-BY","2018/11/06 14:19:32","新北市板橋區干城路142號","121.45951","24.99347","6500100","板橋區"
"220020","277-BY","2018/11/06 14:19:31","新北市板橋區金門街230號","121.4308","24.987585","6500100","板橋區"
"220019","283-VK","2018/11/06 14:19:21","新北市板橋區忠孝路48巷5弄1號","121.460971666667","25.0007716666667","6500100","板橋區"
"220043","285-UM","2018/11/06 14:19:12","新北市板橋區吳鳳路21巷2號","121.4669","25.0312","6500100","板橋區"
"220031","286-VK","2018/11/06 14:19:25","新北市板橋區大觀路二段174巷163弄1號","121.441665","25.0031066666667","6500100","板橋區"
"220029","287-VK","2018/11/06 14:19:24","新北市板橋區南雅南路一段106號","121.454978333333","25.0042833333333","6500100","板橋區"
"220039","288-VK","2018/11/06 14:19:27","新北市板橋區長江路一段106巷12弄2號","121.459955","25.029045","6500100","板橋區"
"220009","295-UM","2018/11/06 14:19:35","新北市板橋區成功路6巷5號","121.47579","25.0170466666667","6500100","板橋區"
"220032","296-UM","2018/11/06 14:19:28","新北市板橋區篤行路三段43號","121.42838","24.98643","6500100","板橋區"
"220001","299-UM","2018/11/06 14:19:31","新北市板橋區富山街18巷2-1號","121.478583333333","25.022095","6500100","板橋區"
"220023","303-R5","2018/11/06 14:19:30","新北市板橋區南雅西路一段116號","121.452498333333","25.0064516666667","6500100","板橋區"
"220010","305-R5","2018/11/06 14:19:17","新北市板橋區三民路二段153巷12號","121.479998333333","25.01498","6500100","板橋區"
"220041","307-R5","2018/11/06 14:19:24","新北市板橋區松江街72巷32號","121.469906666667","25.0277166666667","6500100","板橋區"
"220022","461-BY","2018/11/06 14:19:34","新北市板橋區民權路97-1號","121.459781666667","25.0129266666667","6500100","板橋區"
"220012","486-VK","2018/11/06 14:19:36","新北市板橋區中山路一段40號","121.460766666667","25.0085816666667","6500100","板橋區"
"220038","487-VK","2018/11/06 14:19:34","新北市板橋區文化路一段339號","121.466485","25.020595","6500100","板橋區"
"220037","491-VK","2018/11/06 14:19:21","新北市板橋區雙十路二段209號","121.473126666667","25.0289383333333","6500100","板橋區"
"220104","560-BX","2018/11/06 14:19:30","新北市板橋區中正路411號","121.454013333333","25.0225766666667","6500100","板橋區"
"220052","561-BX","2018/11/06 14:19:26","新北市板橋區文化路一段188巷7弄14號","121.46761","25.0196616666667","6500100","板橋區"
"220011","609-BX","2018/11/06 14:19:30","新北市板橋區三民路二段251號","121.478978333333","25.0122783333333","6500100","板橋區"
"220034","630-UY","2018/11/06 14:19:19","新北市板橋區中正路250巷60號","121.457776666667","25.0196716666667","6500100","板橋區"
"220005","686-BX","2018/11/06 14:19:22","新北市板橋區五權街1-8號","121.46389","24.9950133333333","6500100","板橋區"
"220025","687-BX","2018/11/06 14:19:31","新北市板橋區大觀路二段149號","121.445536666667","25.0008983333333","6500100","板橋區"
"220042","689-BX","2018/11/06 14:19:23","新北市板橋區漢生西路79巷2號","121.462685","25.0194116666667","6500100","板橋區"
"220002","741-BX","2018/11/06 14:19:27","新北市板橋區校前街38號","121.461098333333","25.00325","6500100","板橋區"
"220051","KEA-2699","2018/11/06 14:19:30","新北市板橋區松柏街15巷2號","121.474266666667","25.02983","6500100","板橋區"
"220030","806-UM","2018/11/06 14:19:24","新北市板橋區溪城路123號","121.427605","24.9821533333333","6500100","板橋區"
"220003","827-TW","2018/11/06 14:19:18","新北市板橋區館前東路156巷40號","121.464475","25.0067733333333","6500100","板橋區"
"220014","829-TW","2018/11/06 14:19:19","新北市板橋區長安街138巷1弄57號","121.474288333333","25.0104866666667","6500100","板橋區"
"220016","830-TW","2018/11/06 14:19:29","新北市板橋區林森街1巷26號","121.482668333333","25.024265","6500100","板橋區"
"220045","831-TW","2018/11/06 14:19:18","新北市板橋區大同街35巷21號","121.476881666667","25.0277433333333","6500100","板橋區"
"220021","985-R7","2018/11/06 14:19:31","新北市板橋區中正路377-3號","121.454328333333","25.0216166666667","6500100","板橋區"
"220046","AAC-210","2018/11/06 14:19:30","新北市板橋區幸福路60巷6號","121.460676666667","25.02099","6500100","板橋區"
"220018","AAC-253","2018/11/06 14:19:36","新北市板橋區四川路一段281號","121.459468333333","25.0018316666667","6500100","板橋區"
"235032","KEA-2873","2018/11/06 14:19:15","新北市中和區廟美街14號","121.501016666667","25.00169","6500300","中和區"
"235025","KEA-2875","2018/11/06 14:19:06","新北市中和區民利街71號","121.478715","24.9982783333333","6500300","中和區"
