"lineid","car","time","location","longitude","latitude","cityid","cityname"
"248017","225-UY","2018/11/06 15:09:27","新北市五股區登林路95號","121.416668333333","25.0751533333333","6501500","五股區"
"244002","248-BX","2018/11/06 15:09:20","新北市林口區竹林路266號","121.389636666667","25.0808616666667","6501700","林口區"
"231002","002-UM","2018/11/06 15:09:26","新北市新店區中正路543-4號","121.533723333333","24.9875016666667","6500600","新店區"
"231027","0293-UT","2018/11/06 15:09:21","新北市新店區薏仁坑路自強巷6號","121.49666","24.9584016666667","6500600","新店區"
"231028","046-UY","2018/11/06 15:09:26","新北市新店區僑信路113號","121.50062","24.9462116666667","6500600","新店區"
"231001","047-UY","2018/11/06 15:09:19","新北市新店區中正路259號","121.538821666667","24.9735383333333","6500600","新店區"
"231005","106-UY","2018/11/06 15:09:27","新北市新店區北新路三段97號","121.54154","24.98186","6500600","新店區"
"231020","108-UY","2018/11/06 15:09:25","新北市新店區永福路54號","121.55812","24.9286816666667","6500600","新店區"
"231012","187-VK","2018/11/06 15:09:20","新北市新店區寶元路一段65號","121.542221666667","24.98586","6500600","新店區"
"231023","KEA-2219","2018/11/06 15:09:31","新北市新店區檳榔路109號","121.544415","24.961795","6500600","新店區"
"231026","256-BX","2018/11/06 15:09:18","新北市新店區建國路43號","121.540521666667","24.9752416666667","6500600","新店區"
"231003","268-BY","2018/11/06 15:09:32","新北市新店區寶橋路103號","121.548275","24.97688","6500600","新店區"
"231018","278-BY","2018/11/06 15:09:18","新北市新店區中央七街120號","121.525235","24.9779016666667","6500600","新店區"
"231015","AAD-862","2018/11/06 15:09:37","新北市新店區明山路25號","121.564411666667","24.9560133333333","6500600","新店區"
"231038","3712-VJ","2018/11/06 15:09:27","新北市新店區安華路28-1號","121.51966","24.96099","6500600","新店區"
"231025","4715-K9","2018/11/06 15:09:31","新北市新店區民權路107-3號","121.536358333333","24.98215","6500600","新店區"
"231036","512-UM","2018/11/06 15:09:35","新北市新店區安祥路104巷6弄3號","121.481513333333","24.9629716666667","6500600","新店區"
"231030","619-UM","2018/11/06 15:09:17","新北市新店區安民街341-1號","121.516783333333","24.974885","6500600","新店區"
"231034","641-BX","2018/11/06 15:09:31","新北市新店區玫瑰路4-1號","121.493685","24.9513533333333","6500600","新店區"
"231039","718-UY","2018/11/06 15:09:26","新北市新店區北新路三段120號","121.542","24.981735","6500600","新店區"
"231035","719-UM","2018/11/06 15:09:30","新北市新店區安和路三段110巷7號","121.51743","24.9856966666667","6500600","新店區"
"231032","720-UM","2018/11/06 15:09:28","新北市新店區安泰路60巷108號","121.484046666667","24.945025","6500600","新店區"
"231029","897-TW","2018/11/06 15:09:33","新北市新店區安康路三段738號","121.473958333333","24.941905","6500600","新店區"
"231006","898-TW","2018/11/06 15:09:28","新北市新店區新坡一街18巷5弄8-1號","121.55076","24.9618433333333","6500600","新店區"
"231004","899-TW","2018/11/06 15:09:24","新北市新店區建國路4號","121.539871666667","24.9734316666667","6500600","新店區"
"231024","AKT-0513","2018/11/06 15:09:35","新北市新店區北新路一段305號","121.541366666667","24.9676833333333","6500600","新店區"
"235030","003-UY","2018/11/06 15:09:25","新北市中和區水源路127巷2弄2號","121.508078333333","25.0040833333333","6500300","中和區"
"235004","150-BY","2018/11/06 15:09:33","新北市中和區保健路19巷4弄2號","121.50848","24.9984733333333","6500300","中和區"
"235007","352-BY","2018/11/06 15:09:29","新北市中和區興南路二段159巷10號","121.505023333333","24.9831583333333","6500300","中和區"
"235006","KEA-2878","2018/11/06 15:09:14","新北市新店區安和路三段31號","121.517591666667","24.9815133333333","6500300","中和區"
"235014","4979-A6","2018/11/06 15:09:29","新北市中和區景平路336號","121.511873333333","24.9928616666667","6500300","中和區"
"235033","4980-A6","2018/11/06 15:09:22","新北市中和區景新街64巷5號","121.504113333333","24.9986666666667","6500300","中和區"
"235034","558-UM","2018/11/06 15:09:26","新北市中和區中正路281-3號","121.494603333333","24.9938533333333","6500300","中和區"
"235018","640-BX","2018/11/06 15:09:18","新北市中和區民享街88巷1號","121.474633333333","25.00053","6500300","中和區"
"235035","783-BX","2018/11/06 15:09:18","新北市中和區立德街321號","121.481986666667","25.0102833333333","6500300","中和區"
"235012","896-TW","2018/11/06 15:09:33","新北市中和區興南路一段151號","121.508553333333","24.9872316666667","6500300","中和區"
"235001","AAC-213","2018/11/06 15:09:17","新北市中和區自強路64號","121.520095","24.9943583333333","6500300","中和區"
"235023","AAC-215","2018/11/06 15:09:31","新北市中和區圓通路367巷13弄20號","121.493253333333","24.9880983333333","6500300","中和區"
"226006","AGD-0702","2018/11/06 15:09:26","新北市平溪區石底里公園街18-3號","121.734226666667","25.0255766666667","6502400","平溪區"
"228004","212-TW","2018/11/06 15:09:20","新北市貢寮區雙玉里田寮洋街17號","121.92186","25.0247066666667","6502600","貢寮區"
"207002","749-BX","2018/11/06 15:09:19","新北市萬里區崁腳里崁腳路23-3號","121.653213333333","25.1627333333333","6502800","萬里區"
"207001","662-BX","2018/11/06 15:09:34","新北市萬里區雙興里麗水路7-2號","121.650805","25.1860083333333","6502800","萬里區"
"236065","105-UM","2018/11/06 15:09:35","新北市土城區學府路一段129巷8號","121.454368333333","24.9861933333333","6501300","土城區"
"236040","KED-0685","2018/11/06 15:09:33","新北市土城區金城路二段210號","121.45555","24.9821683333333","6501300","土城區"
"236074","166-UM","2018/11/06 15:09:29","新北市土城區中州路52巷2弄22號","121.412536666667","24.9580083333333","6501300","土城區"
"236029","253-BX","2018/11/06 15:09:19","新北市土城區中央路一段318巷21號","121.442431666667","24.981925","6501300","土城區"
"236024","269-VK","2018/11/06 15:09:25","新北市土城區中央路二段177巷5號","121.443061666667","24.9762733333333","6501300","土城區"
"236013","270-VK","2018/11/06 15:09:30","新北市土城區學府路一段99巷2號","121.456581666667","24.9871766666667","6501300","土城區"
"236032","271-VK","2018/11/06 15:09:34","新北市土城區國際路158巷59-1號","121.46805","24.9750133333333","6501300","土城區"
"236017","401-BY","2018/11/06 15:09:28","新北市土城區延吉街146號","121.469021666667","24.9857383333333","6501300","土城區"
"236057","912-UM","2018/11/06 15:09:22","新北市土城區金城路一段55號","121.44127","24.9698366666667","6501300","土城區"
"236045","913-UM","2018/11/06 15:09:25","新北市土城區清水路209號","121.460203333333","24.9818866666667","6501300","土城區"
"236054","AAC-216","2018/11/06 15:09:31","新北市土城區學府路一段276號","121.450263333333","24.9833083333333","6501300","土城區"
"242001","233-RS","2018/11/06 15:09:17","新北市新莊區瓊林路13-8號","121.448148333333","25.0302316666667","6500500","新莊區"
"221033","647-BX","2018/11/06 15:09:23","新北市汐止區汐萬路一段312號","121.650018333333","25.075125","6501100","汐止區"
"220027","145-BY","2018/11/06 15:09:24","新北市板橋區板城路421號","121.448216666667","24.9958866666667","6500100","板橋區"
"220050","245-BX","2018/11/06 15:09:20","新北市板橋區雙十路二段41巷9號","121.476246666667","25.02582","6500100","板橋區"
"220019","283-VK","2018/11/06 15:09:21","新北市板橋區華東街1-10號","121.448651666667","24.9949833333333","6500100","板橋區"
"220031","286-VK","2018/11/06 15:09:25","新北市板橋區僑中二街102巷19號","121.445246666667","25.00827","6500100","板橋區"
"220039","288-VK","2018/11/06 15:09:27","新北市五股區五工二路136號","121.454068333333","25.0734083333333","6500100","板橋區"
"220009","295-UM","2018/11/06 15:09:35","新北市板橋區四川路一段286巷2號","121.458548333333","25.0008833333333","6500100","板橋區"
"220041","307-R5","2018/11/06 15:09:24","新北市板橋區文化路一段45巷18號","121.46047","25.0139616666667","6500100","板橋區"
"220022","461-BY","2018/11/06 15:09:29","新北市板橋區南雅南路一段123號","121.455458333333","25.0045183333333","6500100","板橋區"
"220038","487-VK","2018/11/06 15:09:34","新北市板橋區互助街45號","121.461166666667","25.0265","6500100","板橋區"
"220037","491-VK","2018/11/06 15:09:21","新北市板橋區民治街42巷3號","121.478946666667","25.03367","6500100","板橋區"
"220052","561-BX","2018/11/06 15:09:26","新北市板橋區英士路58巷14號","121.46066","25.02528","6500100","板橋區"
"220011","609-BX","2018/11/06 15:09:17","新北市板橋區三民路一段89號","121.479556666667","25.0217883333333","6500100","板橋區"
"220025","687-BX","2018/11/06 15:09:23","新北市板橋區僑中一街124巷70-5號","121.44853","25.0166116666667","6500100","板橋區"
"220042","689-BX","2018/11/06 15:09:23","新北市板橋區長江路二段8號","121.464553333333","25.0312716666667","6500100","板橋區"
"220051","KEA-2699","2018/11/06 15:09:27","新北市板橋區文聖街49號","121.476415","25.0314166666667","6500100","板橋區"
"220030","806-UM","2018/11/06 15:09:20","新北市板橋區金門街378號","121.42702","24.9837283333333","6500100","板橋區"
"220003","827-TW","2018/11/06 15:09:18","新北市板橋區仁愛路21號","121.45888","24.9994566666667","6500100","板橋區"
"220014","829-TW","2018/11/06 15:09:19","新北市板橋區中山路二段31號","121.472778333333","25.0152566666667","6500100","板橋區"
"220016","830-TW","2018/11/06 15:09:29","新北市板橋區光復街230號","121.484905","25.0214","6500100","板橋區"
"220046","AAC-210","2018/11/06 15:09:30","新北市板橋區復興街133號","121.46104","25.0181683333333","6500100","板橋區"
"220018","AAC-253","2018/11/06 15:09:32","新北市板橋區四川路二段245巷55弄1號","121.452405","24.9924783333333","6500100","板橋區"
"235032","KEA-2873","2018/11/06 15:09:14","新北市中和區錦和路142巷3號","121.489088333333","24.9975266666667","6500300","中和區"
