"lineid","car","time","location","longitude","latitude","cityid","cityname"
"231046","107-UY","2018/11/06 16:19:00","新北市新店區灣潭路3-2號","121.538268333333","24.950795","6500600","新店區"
"231018","278-BY","2018/11/06 16:18:58","新北市新店區溪園路247號","121.52453","24.982935","6500600","新店區"
"241011","013-R5","2018/11/06 16:18:50","新北市三重區龍濱路285號","121.501108333333","25.0733183333333","6500200","三重區"
"241028","022-UY","2018/11/06 16:19:03","新北市三重區大同南路174號","121.496671666667","25.0571933333333","6500200","三重區"
"241008","059-VK","2018/11/06 16:19:01","新北市三重區永福街175-2號","121.478946666667","25.0753266666667","6500200","三重區"
"241022","060-VK","2018/11/06 16:18:51","新北市三重區過圳街31巷2號","121.48931","25.060575","6500200","三重區"
"241031","061-VK","2018/11/06 16:19:00","新北市三重區捷運路35號","121.484688333333","25.0558633333333","6500200","三重區"
"241015","062-VK","2018/11/06 16:18:48","新北市三重區福德北路77號","121.501918333333","25.0658266666667","6500200","三重區"
"241017","063-VK","2018/11/06 16:18:50","新北市三重區大同北路85號","121.494803333333","25.063675","6500200","三重區"
"241024","065-VK","2018/11/06 16:18:52","新北市三重區中正北路145巷1弄9號","121.483298333333","25.0673016666667","6500200","三重區"
"241026","066-VK","2018/11/06 16:18:49","新北市三重區正義南路60-5號","121.498345","25.06029","6500200","三重區"
"241002","090-VK","2018/11/06 16:19:03","新北市三重區仁義街91號","121.499755","25.0795066666667","6500200","三重區"
"241003","091-VK","2018/11/06 16:19:04","新北市三重區五華街57巷32號","121.493951666667","25.0831133333333","6500200","三重區"
"241005","262-UM","2018/11/06 16:19:04","新北市三重區溪尾街300-2號","121.487308333333","25.083685","6500200","三重區"
"241023","265-UM","2018/11/06 16:18:53","新北市三重區忠孝路三段84巷1號","121.480151666667","25.0646383333333","6500200","三重區"
"241016","266-UM","2018/11/06 16:18:57","新北市三重區大仁街94號","121.492923333333","25.0655183333333","6500200","三重區"
"241009","267-UM","2018/11/06 16:18:56","新北市三重區溪尾街192號","121.48819","25.080945","6500200","三重區"
"241018","268-UM","2018/11/06 16:19:05","新北市三重區重陽路三段41號","121.489448333333","25.067035","6500200","三重區"
"241013","270-UM","2018/11/06 16:18:51","新北市三重區仁愛街65號","121.496321666667","25.072715","6500200","三重區"
"241025","271-UM","2018/11/06 16:19:00","新北市三重區中正北路560巷100弄2號","121.472631666667","25.0682283333333","6500200","三重區"
"241007","398-BY","2018/11/06 16:18:49","新北市三重區三和路四段163巷72號","121.486803333333","25.079705","6500200","三重區"
"241004","475-VK","2018/11/06 16:18:55","新北市三重區自強路五段65號","121.494776666667","25.081925","6500200","三重區"
"241020","478-VK","2018/11/06 16:19:05","新北市三重區後竹圍街225號","121.484478333333","25.071425","6500200","三重區"
"241014","543-UM","2018/11/06 16:19:01","新北市三重區河邊北街100巷1號","121.504031666667","25.0705166666667","6500200","三重區"
"241001","547-UM","2018/11/06 16:19:03","新北市三重區自強路四段87號","121.491118333333","25.0793683333333","6500200","三重區"
"241019","KEA-2593","2018/11/06 16:18:58","新北市三重區重陽路三段184號","121.490211666667","25.0681116666667","6500200","三重區"
"241006","AAD-863","2018/11/06 16:18:51","新北市三重區永福街46巷41弄27號","121.481601666667","25.077175","6500200","三重區"
"241030","743-BX","2018/11/06 16:18:45","新北市三重區重新路四段121號","121.485125","25.0523733333333","6500200","三重區"
"241012","941-UM","2018/11/06 16:18:59","新北市三重區河邊北街313號","121.502475","25.0748983333333","6500200","三重區"
"241029","942-UM","2018/11/06 16:18:51","新北市三重區環河南路220-8號","121.493341666667","25.05268","6500200","三重區"
"241033","AAC-255","2018/11/06 16:18:51","新北市三重區五谷王南街11巷17弄1號","121.472668333333","25.0445383333333","6500200","三重區"
"235065","098-UM","2018/11/06 16:19:05","新北市中和區員山路36巷16-3號","121.485015","24.9912116666667","6500300","中和區"
"235054","640-BX","2018/11/06 16:18:58","新北市中和區員山路36巷16-2號","121.48504","24.9918516666667","6500300","中和區"
"235026","800-TS","2018/11/06 16:18:59","新北市中和區錦和路126號","121.489203333333","24.9984866666667","6500300","中和區"
"224005","271-BY","2018/11/06 16:18:53","新北市瑞芳區中山路251號","121.798046666667","25.1093816666667","6501200","瑞芳區"
"227009","642-TC","2018/11/06 16:19:00","新北市雙溪區三港里雙澳路80號","121.883805","25.0538733333333","6502500","雙溪區"
"227003","400-TW","2018/11/06 16:19:07","新北市雙溪區上林里內平林80號","121.82828","25.027935","6502500","雙溪區"
"251008","181-VK","2018/11/06 16:18:59","新北市淡水區中正東路30-1號","121.448263333333","25.1661316666667","6501000","淡水區"
"236057","912-UM","2018/11/06 16:19:02","新北市土城區永平街72號","121.427226666667","24.9590933333333","6501300","土城區"
"242001","233-RS","2018/11/06 16:18:50","新北市新莊區瓊林路59-66號","121.441336666667","25.022625","6500500","新莊區"
