"lineid","car","time","location","longitude","latitude","cityid","cityname"
"249005","172-UM","2018/11/06 16:48:59","新北市八里區大堀湖1-5號","121.42291","25.1548233333333","6502300","八里區"
"249004","303-UY","2018/11/06 16:48:56","新北市八里區博物館路202巷92號","121.408591666667","25.1626816666667","6502300","八里區"
"249003","593-UM","2018/11/06 16:48:52","新北市八里區中山路二段283號","121.40159","25.148655","6502300","八里區"
"231046","107-UY","2018/11/06 16:49:00","新北市新店區灣潭路12-2號","121.538846666667","24.9458283333333","6500600","新店區"
"241011","013-R5","2018/11/06 16:48:50","新北市三重區仁愛街53巷168號","121.49995","25.0728016666667","6500200","三重區"
"241028","022-UY","2018/11/06 16:49:03","新北市三重區光興街89號","121.497488333333","25.0600216666667","6500200","三重區"
"241008","059-VK","2018/11/06 16:49:01","新北市三重區永福街179巷27號","121.477955","25.074865","6500200","三重區"
"241022","060-VK","2018/11/06 16:48:51","新北市三重區三民街112號","121.48492","25.06335","6500200","三重區"
"241031","061-VK","2018/11/06 16:49:00","新北市三重區三寧街2號","121.488526666667","25.059285","6500200","三重區"
"241015","062-VK","2018/11/06 16:49:08","新北市三重區長元街2-1號","121.499008333333","25.0658383333333","6500200","三重區"
"241017","063-VK","2018/11/06 16:48:50","新北市三重區國隆路8巷13號","121.493056666667","25.0635716666667","6500200","三重區"
"241024","065-VK","2018/11/06 16:48:52","新北市三重區中正北路315巷6弄17號","121.475256666667","25.0719383333333","6500200","三重區"
"241026","066-VK","2018/11/06 16:48:49","新北市三重區文化南路10巷20號","121.500788333333","25.0622133333333","6500200","三重區"
"241002","090-VK","2018/11/06 16:49:03","新北市三重區仁義街170號","121.49697","25.0811566666667","6500200","三重區"
"241003","091-VK","2018/11/06 16:49:04","新北市三重區五華街141巷60號","121.493483333333","25.0866983333333","6500200","三重區"
"241005","262-UM","2018/11/06 16:49:04","新北市三重區仁華街80巷10號","121.484413333333","25.083295","6500200","三重區"
"241023","265-UM","2018/11/06 16:48:53","新北市三重區中華路76巷25號","121.482575","25.0626666666667","6500200","三重區"
"241016","266-UM","2018/11/06 16:48:56","新北市三重區大同北路167巷41號","121.493738333333","25.0652","6500200","三重區"
"241009","267-UM","2018/11/06 16:49:09","新北市三重區溪尾街208號","121.487866666667","25.0811683333333","6500200","三重區"
"241018","268-UM","2018/11/06 16:49:05","新北市三重區正義北路253號","121.495626666667","25.0695716666667","6500200","三重區"
"241032","269-UM","2018/11/06 16:48:51","新北市三重區重陽路一段120巷37號","121.485186666667","25.0603516666667","6500200","三重區"
"241013","270-UM","2018/11/06 16:48:51","新北市三重區仁壽街22號","121.496855","25.0734233333333","6500200","三重區"
"241025","271-UM","2018/11/06 16:49:00","新北市三重區中正北路530巷27號","121.471975","25.07019","6500200","三重區"
"241007","398-BY","2018/11/06 16:48:49","新北市三重區三和路四段181巷144號","121.485653333333","25.0798933333333","6500200","三重區"
"241019","KEA-2210","2018/11/06 16:48:52","新北市三重區捷運路36號","121.482916666667","25.0550316666667","6500200","三重區"
"241004","475-VK","2018/11/06 16:48:55","新北市三重區仁愛街397巷38號","121.491853333333","25.0814066666667","6500200","三重區"
"241020","478-VK","2018/11/06 16:49:05","新北市三重區忠孝路二段34號","121.485753333333","25.0710333333333","6500200","三重區"
"241014","543-UM","2018/11/06 16:49:01","新北市三重區長榮路77號","121.50271","25.0691683333333","6500200","三重區"
"241001","547-UM","2018/11/06 16:49:03","新北市三重區仁政街54巷29號","121.492235","25.07676","6500200","三重區"
"241019","KEA-2593","2018/11/06 16:48:58","新北市三重區重陽路三段61號","121.489768333333","25.0674683333333","6500200","三重區"
"241006","AAD-863","2018/11/06 16:48:50","新北市三重區車路頭街129號","121.48424","25.07548","6500200","三重區"
"241030","743-BX","2018/11/06 16:49:05","新北市三重區新興路1號","121.492896666667","25.053015","6500200","三重區"
"241012","941-UM","2018/11/06 16:48:59","新北市三重區仁壽街214號","121.50172","25.0751116666667","6500200","三重區"
"241029","942-UM","2018/11/06 16:48:51","新北市三重區中正南路201巷12號","121.492416666667","25.05403","6500200","三重區"
"241033","AAC-255","2018/11/06 16:48:51","新北市三重區新北大道二段65號","121.4692","25.0611666666667","6500200","三重區"
"235065","098-UM","2018/11/06 16:46:43","新北市中和區員山路36巷16-3號","121.485105","24.9911483333333","6500300","中和區"
"235054","640-BX","2018/11/06 16:48:58","新北市中和區員山路36巷16-2號","121.485066666667","24.9919433333333","6500300","中和區"
"247016","546-UM","2018/11/06 16:48:53","新北市蘆洲區中正路71號","121.470515","25.08278","6501400","蘆洲區"
"247008","336-TH","2018/11/06 16:48:49","新北市蘆洲區中山二路45巷30號","121.474226666667","25.08124","6501400","蘆洲區"
"247010","056-VK","2018/11/06 16:49:03","新北市蘆洲區中正路516巷5號","121.460606666667","25.09805","6501400","蘆洲區"
"247022","001-UY","2018/11/06 16:49:04","新北市蘆洲區中正路516巷5號","121.46071","25.0980483333333","6501400","蘆洲區"
"228002","663-BX","2018/11/06 16:49:00","新北市貢寮區貢寮里朝陽街108號","121.908178333333","25.0222866666667","6502600","貢寮區"
"228003","828-UM","2018/11/06 16:48:57","新北市貢寮區貢寮里朝陽街1-2號","121.912343333333","25.0212216666667","6502600","貢寮區"
"224006","676-BX","2018/11/06 16:48:56","新北市瑞芳區大寮路356-1號","121.784641666667","25.1031916666667","6501200","瑞芳區"
"224008","285-BY","2018/11/06 16:48:53","新北市瑞芳區中山路364號","121.795571666667","25.1103033333333","6501200","瑞芳區"
"224007","275-VK","2018/11/06 16:49:03","新北市瑞芳區中央路48巷56-6號","121.760491666667","25.10363","6501200","瑞芳區"
"224009","273-VK","2018/11/06 16:49:07","新北市瑞芳區傑魚坑路73號","121.793066666667","25.110495","6501200","瑞芳區"
"224005","271-BY","2018/11/06 16:48:53","新北市瑞芳區洞頂路157號","121.861338333333","25.1228966666667","6501200","瑞芳區"
"227009","642-TC","2018/11/06 16:49:00","新北市雙溪區牡丹里石1-1號","121.864098333333","25.0480583333333","6502500","雙溪區"
"227003","400-TW","2018/11/06 16:48:47","新北市雙溪區外柑里外柑腳61號","121.807876666667","25.0178266666667","6502500","雙溪區"
"251013","KEA-2871","2018/11/06 16:48:51","新北市淡水區泉洲厝32號","121.489185","25.19269","6501000","淡水區"
"251016","179-VK","2018/11/06 16:49:01","新北市淡水區北新路一段303號","121.46436","25.1821166666667","6501000","淡水區"
"251014","180-VK","2018/11/06 16:49:09","新北市淡水區淡金路四段476號","121.452413333333","25.2239016666667","6501000","淡水區"
"251008","181-VK","2018/11/06 16:48:59","新北市淡水區樹梅坑45號","121.474723333333","25.1445666666667","6501000","淡水區"
"251015","182-VK","2018/11/06 16:48:48","新北市淡水區忠愛街6號","121.460745","25.1715783333333","6501000","淡水區"
"251012","441-VK","2018/11/06 16:48:51","新北市淡水區中正路二段31號","121.41968","25.1815366666667","6501000","淡水區"
"251011","650-BX","2018/11/06 16:48:48","新北市淡水區中正路二段31號","121.41943","25.1818583333333","6501000","淡水區"
"252002","178-VK","2018/11/06 16:48:50","新北市三芝區茂長里陳厝坑15號","121.516725","25.254865","6502100","三芝區"
"252001","292-VK","2018/11/06 16:48:47","新北市三芝區淡金路二段89號","121.50393","25.26078","6502100","三芝區"
"242029","612-BX","2018/11/06 16:48:52","新北市新莊區新泰路357巷3弄57號","121.442228333333","25.0392983333333","6500500","新莊區"
"242032","348-TH","2018/11/06 16:49:02","新北市新莊區三和路18-25號","121.441466666667","25.039435","6500500","新莊區"
"239007","AAC-297","2018/11/06 16:49:07","新北市鶯歌區二甲路13-16號","121.345016666667","24.9351516666667","6500800","鶯歌區"
"239005","526-UM","2018/11/06 16:49:02","新北市鶯歌區二甲路13-16號","121.345013333333","24.9351883333333","6500800","鶯歌區"
"242015","280-VK","2018/11/06 16:48:59","新北市新莊區三和路12-21號","121.442006666667","25.0382866666667","6500500","新莊區"
