"lineid","car","time","location","longitude","latitude","cityid","cityname"
"234046","148-BY","2018/11/06 19:28:54","新北市永和區秀朗路二段181巷6號","121.526456666667","25.001235","6500400","永和區"
"234007","207-UY","2018/11/06 19:29:05","新北市永和區永和路一段222號","121.514506666667","25.00973","6500400","永和區"
"234081","298-R6","2018/11/06 19:29:08","新北市永和區環河東路三段54號","121.526705","25.0061983333333","6500400","永和區"
"234038","336-UY","2018/11/06 19:28:57","新北市永和區民樂街38號","121.527553333333","25.0007","6500400","永和區"
"234064","337-UY","2018/11/06 19:28:59","新北市永和區永元路17巷25弄10號","121.520933333333","25.0017116666667","6500400","永和區"
"234086","338-UY","2018/11/06 19:29:06","新北市永和區林森路109號","121.522923333333","25.0033233333333","6500400","永和區"
"234070","552-UM","2018/11/06 19:29:04","新北市永和區中興街135號","121.518763333333","25.0123","6500400","永和區"
"234017","745-BX","2018/11/06 19:29:09","新北市永和區環河西路一段87-1號","121.512461666667","25.0179366666667","6500400","永和區"
"234030","746-BX","2018/11/06 19:29:06","新北市永和區民生路57號","121.522751666667","24.9975566666667","6500400","永和區"
"234054","KEA-2590","2018/11/06 19:29:00","新北市永和區復興街21號","121.516111666667","25.01301","6500400","永和區"
"234013","KEA-2591","2018/11/06 19:29:01","新北市永和區永貞路387號","121.508015","25.0088266666667","6500400","永和區"
"234061","AAD-866","2018/11/06 19:29:02","新北市永和區中正路530號","121.517238333333","25.0051316666667","6500400","永和區"
"234042","862-TW","2018/11/06 19:29:07","新北市永和區中和路519巷7號","121.510703333333","25.002975","6500400","永和區"
"234050","863-TW","2018/11/06 19:29:10","新北市永和區信義路93號","121.512365","25.013825","6500400","永和區"
"234026","9371-KE","2018/11/06 19:29:07","新北市中和區安樂路207號","121.514445","24.9985683333333","6500400","永和區"
"234011","9373-KE","2018/11/06 19:29:08","新北市永和區保福路二段15巷4號","121.510625","25.011105","6500400","永和區"
"249003","593-UM","2018/11/06 19:29:09","新北市八里區華峰三街5號","121.400108333333","25.1464766666667","6502300","八里區"
"248016","026-BX","2018/11/06 19:28:55","新北市五股區凌雲路一段39號","121.451936666667","25.10067","6501500","五股區"
"248008","095-VK","2018/11/06 19:29:09","新北市五股區中興路一段95巷11號","121.46658","25.0723583333333","6501500","五股區"
"248020","225-UY","2018/11/06 19:28:59","新北市五股區凌雲路三段59號","121.425056666667","25.125085","6501500","五股區"
"248012","247-BX","2018/11/06 19:28:57","新北市五股區成泰路二段97號","121.437958333333","25.0843016666667","6501500","五股區"
"248014","261-SL","2018/11/06 19:28:52","新北市五股區民義路一段185-19號","121.431281666667","25.0873883333333","6501500","五股區"
"248010","272-BY","2018/11/06 19:29:02","新北市五股區水碓二路1號","121.43065","25.0712383333333","6501500","五股區"
"248004","677-BX","2018/11/06 19:29:05","新北市五股區五福路81號","121.432481666667","25.090305","6501500","五股區"
"248002","678-BX","2018/11/06 19:28:59","新北市五股區凌雲路一段158巷6號","121.447818333333","25.1030766666667","6501500","五股區"
"234023","9380-KE","2018/11/06 19:28:55","新北市永和區竹林路91巷43弄2號","121.521285","25.0127866666667","6500400","永和區"
"234077","969-R7","2018/11/06 19:29:05","新北市永和區民族街43巷17號","121.519353333333","24.9983616666667","6500400","永和區"
"234074","AAC-211","2018/11/06 19:29:00","新北市永和區竹林路5號","121.516326666667","25.0149166666667","6500400","永和區"
"234067","AAC-212","2018/11/06 19:29:05","新北市永和區保平路184號","121.510605","25.00652","6500400","永和區"
"234003","AAC-295","2018/11/06 19:28:51","新北市永和區永和路一段107號","121.513928333333","25.008045","6500400","永和區"
"244023","069-UM","2018/11/06 19:29:05","新北市林口區仁愛路二段526號","121.37303","25.0781383333333","6501700","林口區"
"244019","403-UM","2018/11/06 19:29:03","新北市林口區瑞樹坑34-8號","121.351303333333","25.1295166666667","6501700","林口區"
"243010","267-VK","2018/11/06 19:28:54","新北市泰山區民生路17巷2號","121.430023333333","25.0524466666667","6501600","泰山區"
"243013","AAD-798","2018/11/06 19:28:57","新北市泰山區明志路三段145巷7號","121.425431666667","25.039995","6501600","泰山區"
"243009","297-R6","2018/11/06 19:28:55","新北市泰山區半山雅6號","121.431465","25.0673833333333","6501600","泰山區"
"243016","KEA-2801","2018/11/06 19:29:09","新北市泰山區工專路2號","121.424158333333","25.0395533333333","6501600","泰山區"
"243015","421-VK","2018/11/06 19:29:01","新北市泰山區民權街55號","121.42892","25.0503916666667","6501600","泰山區"
"243012","539-UM","2018/11/06 19:28:55","新北市泰山區明志路一段501巷16號","121.43109","25.0543616666667","6501600","泰山區"
"243011","KEA-2215","2018/11/06 19:28:59","新北市泰山區貴子路120號","121.42829","25.040615","6501600","泰山區"
"222003","436-BY","2018/11/06 19:29:09","新北市深坑區深南路88巷1號","121.620978333333","25.01172","6501800","深坑區"
"222002","659-BX","2018/11/06 19:29:09","新北市深坑區北深路一段177號","121.632523333333","25.0108583333333","6501800","深坑區"
"231041","002-UM","2018/11/06 19:28:56","新北市新店區中正路616號","121.533968333333","24.98865","6500600","新店區"
"231066","0291-UT","2018/11/06 19:28:56","新北市新店區安康路三段355巷43號","121.484956666667","24.9494333333333","6500600","新店區"
"231059","046-UY","2018/11/06 19:28:54","新北市新店區安和路三段4號","121.517928333333","24.9808933333333","6500600","新店區"
"231040","047-UY","2018/11/06 19:29:08","新北市新店區北新路一段40號","121.540965","24.966045","6500600","新店區"
"231044","106-UY","2018/11/06 19:29:00","新北市新店區中興路三段136號","121.544598333333","24.97998","6500600","新店區"
"231046","107-UY","2018/11/06 19:28:59","新北市新店區中央路175-3號","121.534931666667","24.9697166666667","6500600","新店區"
"231053","108-UY","2018/11/06 19:28:55","新北市新店區廣興路16號","121.545978333333","24.91267","6500600","新店區"
"231048","187-VK","2018/11/06 19:29:10","新北市新店區五峰路71號","121.54635","24.9681133333333","6500600","新店區"
"231054","KEA-2219","2018/11/06 19:28:58","新北市新店區文中路40號","121.539656666667","24.9566166666667","6500600","新店區"
"231057","256-BX","2018/11/06 19:28:58","新北市新店區花園一路三段28號","121.550648333333","24.9328416666667","6500600","新店區"
"231042","268-BY","2018/11/06 19:29:02","新北市新店區中興路一段56號","121.539141666667","24.9594583333333","6500600","新店區"
"231051","278-BY","2018/11/06 19:29:01","新北市新店區中央五街57號","121.527748333333","24.9756616666667","6500600","新店區"
"231050","AAD-862","2018/11/06 19:29:05","新北市新店區北宜路二段82-40號","121.553486666667","24.9532616666667","6500600","新店區"
"231058","3713-VJ","2018/11/06 19:28:54","新北市新店區北新路二段228巷1號","121.542921666667","24.9777366666667","6500600","新店區"
"231065","512-UM","2018/11/06 19:29:07","新北市新店區安祥路109巷1弄1號","121.475605","24.9594","6500600","新店區"
"231049","513-UM","2018/11/06 19:29:10","新北市新店區北新路三段65巷12弄15號","121.540715","24.9815233333333","6500600","新店區"
"231061","619-UM","2018/11/06 19:29:09","新北市新店區安康路一段266巷4號","121.520236666667","24.9640016666667","6500600","新店區"
"231063","641-BX","2018/11/06 19:29:07","新北市新店區達觀路16號","121.503138333333","24.9406416666667","6500600","新店區"
"231064","719-UM","2018/11/06 19:28:51","新北市新店區安康路二段85巷10號","121.51355","24.9624833333333","6500600","新店區"
"231062","720-UM","2018/11/06 19:29:08","新北市新店區莒光路99號","121.521916666667","24.9534366666667","6500600","新店區"
"231060","897-TW","2018/11/06 19:29:08","新北市新店區安康路二段74號","121.514385","24.9635033333333","6500600","新店區"
"231045","898-TW","2018/11/06 19:29:03","新北市新店區北宜路二段215號","121.553275","24.9533683333333","6500600","新店區"
"231043","899-TW","2018/11/06 19:28:55","新北市新店區北新路二段200號","121.543035","24.9767633333333","6500600","新店區"
"231055","AKT-0513","2018/11/06 19:29:05","新北市新店區環河路176號","121.525236666667","24.9753466666667","6500600","新店區"
"241028","022-UY","2018/11/06 19:29:04","新北市三重區中寮街92號","121.493353333333","25.0579083333333","6500200","三重區"
"241008","059-VK","2018/11/06 19:29:06","新北市三重區永福街135巷35號","121.477461666667","25.077225","6500200","三重區"
"241022","060-VK","2018/11/06 19:29:06","新北市三重區三民街175巷1號","121.483668333333","25.0652733333333","6500200","三重區"
"241031","061-VK","2018/11/06 19:29:00","新北市三重區集美街24-1號","121.488386666667","25.0546266666667","6500200","三重區"
"241017","063-VK","2018/11/06 19:29:09","新北市三重區中正北路25巷25弄2號","121.493223333333","25.062635","6500200","三重區"
"241026","066-VK","2018/11/06 19:29:04","新北市三重區文化南路38-1號","121.500326666667","25.061065","6500200","三重區"
"241009","267-UM","2018/11/06 19:28:56","新北市三重區溪尾街242巷50號","121.486521666667","25.0815533333333","6500200","三重區"
"241032","269-UM","2018/11/06 19:29:09","新北市三重區三陽路48號","121.48479","25.0587383333333","6500200","三重區"
"241025","271-UM","2018/11/06 19:29:00","新北市三重區頂崁街210巷28弄9號","121.47583","25.0671233333333","6500200","三重區"
"241007","398-BY","2018/11/06 19:29:09","新北市三重區溪尾街140號","121.489213333333","25.079695","6500200","三重區"
"241035","KEA-2210","2018/11/06 19:29:12","新北市三重區信義西街64號","121.497858333333","25.06457","6500200","三重區"
"241020","478-VK","2018/11/06 19:28:54","新北市三重區大智街195號","121.4894","25.073485","6500200","三重區"
"241006","AAD-863","2018/11/06 19:29:10","新北市三重區車路頭街78號","121.484215","25.0739766666667","6500200","三重區"
"241030","743-BX","2018/11/06 19:29:05","新北市三重區成功路41巷4號","121.490186666667","25.0514383333333","6500200","三重區"
"241029","942-UM","2018/11/06 19:28:53","新北市三重區中正南路216號","121.49389","25.05513","6500200","三重區"
"235066","003-UY","2018/11/06 19:28:52","新北市中和區景新街48號","121.503696666667","24.9992533333333","6500300","中和區"
"235064","005-UY","2018/11/06 19:28:56","新北市中和區南山路127巷27弄26號","121.503305","24.9982416666667","6500300","中和區"
"235063","006-UY","2018/11/06 19:28:53","新北市中和區連城路237-1號","121.493873333333","24.9973916666667","6500300","中和區"
"235056","096-UM","2018/11/06 19:28:51","新北市中和區民富街1號","121.476645","25.0069533333333","6500300","中和區"
"235039","097-UM","2018/11/06 19:28:52","新北市中和區秀峰街119巷8弄7號","121.519128333333","24.989885","6500300","中和區"
"235065","098-UM","2018/11/06 19:28:51","新北市中和區中山路二段2巷13弄11號","121.503588333333","25.0065366666667","6500300","中和區"
"235058","151-BY","2018/11/06 19:28:52","新北市中和區中正路637巷60弄61號","121.48545","24.9925083333333","6500300","中和區"
"235055","183-VK","2018/11/06 19:29:10","新北市中和區國光街102巷40號","121.471201666667","25.000575","6500300","中和區"
"235038","185-VK","2018/11/06 19:29:03","新北市中和區自立路127號","121.522008333333","24.9940983333333","6500300","中和區"
"235049","186-VK","2018/11/06 19:28:58","新北市中和區安和路9號","121.511468333333","24.9935933333333","6500300","中和區"
"235067","255-BX","2018/11/06 19:28:56","新北市中和區新生街220巷15弄9號","121.482965","24.997995","6500300","中和區"
"235044","293-VK","2018/11/06 19:29:00","新北市中和區捷運路100-1號","121.506033333333","24.9913516666667","6500300","中和區"
"235072","301-VK","2018/11/06 19:28:59","新北市中和區連城路263巷4弄10號","121.491708333333","24.9953633333333","6500300","中和區"
"235043","352-BY","2018/11/06 19:29:08","新北市中和區景新街137號","121.506206666667","24.99707","6500300","中和區"
"235042","KEA-2878","2018/11/06 19:28:58","新北市中和區中和路378巷14弄19號","121.510953333333","25.00134","6500300","中和區"
"235050","4979-A6","2018/11/06 19:29:04","新北市中和區中正路149號","121.499088333333","24.9932","6500300","中和區"
"235070","558-UM","2018/11/06 19:28:56","新北市中和區中和路61號","121.500611666667","25.0010983333333","6500300","中和區"
"235045","565-BX","2018/11/06 19:29:07","新北市中和區景新街383巷17號","121.512733333333","24.9904283333333","6500300","中和區"
"235054","640-BX","2018/11/06 19:28:58","新北市中和區國光街112巷20弄5號","121.470623333333","25.0018316666667","6500300","中和區"
"235060","647-TV","2018/11/06 19:28:53","新北市中和區員山路314巷7弄4號","121.482158333333","25.0030916666667","6500300","中和區"
"235047","732-UM","2018/11/06 19:29:03","新北市中和區景平路241巷66號","121.507695","24.99225","6500300","中和區"
"235046","733-UM","2018/11/06 19:28:53","新北市中和區忠孝街37巷49號","121.510696666667","24.9845133333333","6500300","中和區"
"235071","783-BX","2018/11/06 19:29:09","新北市中和區中正路637巷18弄4號","121.484423333333","24.9950566666667","6500300","中和區"
"235057","801-TS","2018/11/06 19:29:09","新北市中和區中山路三段37巷37號","121.479663333333","25.0048666666667","6500300","中和區"
"235041","802-TS","2018/11/06 19:28:54","新北市中和區中安街132號","121.510811666667","25.000495","6500300","中和區"
"235052","805-TS","2018/11/06 19:28:55","新北市中和區華新街143巷69弄20號","121.507703333333","24.97895","6500300","中和區"
"235048","896-TW","2018/11/06 19:29:04","新北市中和區忠孝街113巷2號","121.51258","24.98759","6500300","中和區"
"235053","900-TW","2018/11/06 19:28:51","新北市中和區華順街26號","121.466913333333","24.9986133333333","6500300","中和區"
"235051","157-BY","2018/11/06 19:29:05","新北市中和區景新街97號","121.505386666667","24.9982083333333","6500300","中和區"
"235037","AAC-213","2018/11/06 19:29:07","新北市中和區秀朗路三段10巷14弄46號","121.524381666667","24.9964866666667","6500300","中和區"
"235059","AAC-215","2018/11/06 19:29:03","新北市中和區圓通路252巷16號","121.49224","24.992165","6500300","中和區"
"220065","072-UY","2018/11/06 19:28:59","新北市板橋區國泰街111巷15號","121.466205","25.0059683333333","6500100","板橋區"
"220106","075-UY","2018/11/06 19:29:10","新北市板橋區江寧路三段57號","121.471908333333","25.0320933333333","6500100","板橋區"
"220069","AAD-861","2018/11/06 19:28:56","新北市板橋區稚暉街19-2號","121.456498333333","25.0042883333333","6500100","板橋區"
"247004","002-UY","2018/11/06 19:29:01","新北市蘆洲區長安街168號","121.459226666667","25.0831516666667","6501400","蘆洲區"
"226004","205-ST","2018/11/06 19:29:00","新北市平溪區十分里十分街166號","121.77838","25.0436283333333","6502400","平溪區"
"228001","212-TW","2018/11/06 19:29:02","新北市貢寮區真理里延平街68號","121.9254","25.0574166666667","6502600","貢寮區"
"228003","828-UM","2018/11/06 19:28:57","新北市貢寮區和美里和美街19-2號","121.912776666667","25.0825816666667","6502600","貢寮區"
"227009","642-TC","2018/11/06 19:28:59","新北市雙溪區新基里新基北街43號","121.868125","25.0396633333333","6502500","雙溪區"
"227003","400-TW","2018/11/06 19:29:07","新北市雙溪區雙溪里光復街20號","121.865151666667","25.035425","6502500","雙溪區"
"253006","032-BX","2018/11/06 19:29:00","新北市石門區老崩山11-13號","121.551333333333","25.2903166666667","6502200","石門區"
"253005","295-VK","2018/11/06 19:29:03","新北市石門區小坑9號","121.594305","25.2872683333333","6502200","石門區"
"222001","KEA-2212","2018/11/06 19:29:06","新北市深坑區北深路二段125-1號","121.616203333333","25.0029483333333","6501800","深坑區"
"208002","KEA-2872","2018/11/06 19:29:05","新北市金山區仁愛路87巷1號","121.634603333333","25.2215716666667","6502700","金山區"
"208003","665-BX","2018/11/06 19:29:05","新北市金山區仁愛路37-12號","121.635851666667","25.22019","6502700","金山區"
"208001","761-BX","2018/11/06 19:28:59","新北市金山區中正路143-1號","121.632141666667","25.221445","6502700","金山區"
"251005","010-UM","2018/11/06 19:29:08","新北市淡水區水源街一段71巷11號","121.444426666667","25.1728466666667","6501000","淡水區"
"251013","KEA-2871","2018/11/06 19:28:51","新北市淡水區安子內18號","121.473623333333","25.21847","6501000","淡水區"
"251016","179-VK","2018/11/06 19:29:01","新北市淡水區下圭柔山119-51號","121.450725","25.2085033333333","6501000","淡水區"
"251014","180-VK","2018/11/06 19:29:08","新北市淡水區小中寮19-7號","121.48476","25.2296033333333","6501000","淡水區"
"251008","181-VK","2018/11/06 19:28:59","新北市淡水區中正路二段12號","121.420521666667","25.1804216666667","6501000","淡水區"
"251015","182-VK","2018/11/06 19:29:08","新北市淡水區北新路三段38巷1號","121.484345","25.18708","6501000","淡水區"
"251010","413-VK","2018/11/06 19:29:00","新北市淡水區中正路二段142-1號","121.422033333333","25.1875066666667","6501000","淡水區"
"251007","442-VK","2018/11/06 19:29:04","新北市淡水區坪頂路26號","121.456723333333","25.16178","6501000","淡水區"
"251001","559-UM","2018/11/06 19:29:07","新北市淡水區民權路179號","121.459778333333","25.135255","6501000","淡水區"
"251006","561-UM","2018/11/06 19:29:12","新北市淡水區大義街40號","121.442026666667","25.1783866666667","6501000","淡水區"
"251009","575-R6","2018/11/06 19:28:58","新北市淡水區大忠街5巷8號","121.443343333333","25.17651","6501000","淡水區"
"207003","550-UM","2018/11/06 19:29:06","新北市萬里區大鵬里萬里加投199號","121.64395","25.2150983333333","6502800","萬里區"
"207004","225-TW","2018/11/06 19:28:53","新北市萬里區萬里里瑪鋉頂街43-1號","121.689133333333","25.1786666666667","6502800","萬里區"
"252002","178-VK","2018/11/06 19:29:09","新北市三芝區淡金路二段18-1號","121.502685","25.259505","6502100","三芝區"
"252001","292-VK","2018/11/06 19:29:07","新北市三芝區長勤街62-1號","121.500155","25.256085","6502100","三芝區"
"237007","153-BY","2018/11/06 19:29:00","新北市三峽區二鬮路136巷18弄1號","121.359108333333","24.9079333333333","6500900","三峽區"
"237009","210-TH","2018/11/06 19:29:09","新北市三峽區中山路61號","121.367371666667","24.9348183333333","6500900","三峽區"
"237013","252-BX","2018/11/06 19:29:07","新北市三峽區介壽路一段340號","121.381366666667","24.9300683333333","6500900","三峽區"
"237012","275-BY","2018/11/06 19:29:11","新北市三峽區民生街1巷1-7號","121.376825","24.9371733333333","6500900","三峽區"
"237008","302-VK","2018/11/06 19:29:03","新北市三峽區永安街95巷6號","121.374785","24.928725","6500900","三峽區"
"237014","433-BY","2018/11/06 19:29:02","新北市三峽區中正路二段226號","121.365888333333","24.9135516666667","6500900","三峽區"
"237006","5529-G3","2018/11/06 19:28:58","新北市三峽區中正路一段336巷15弄2號","121.369958333333","24.92494","6500900","三峽區"
"237011","KEA-2596","2018/11/06 19:28:54","新北市三峽區中正路一段112-1號","121.37402","24.9294483333333","6500900","三峽區"
"237016","649-BX","2018/11/06 19:28:54","新北市三峽區安坑35-5號","121.452801666667","24.931135","6500900","三峽區"
"237010","706-TV","2018/11/06 19:28:57","新北市三峽區復興路36-8號","121.373866666667","24.9367116666667","6500900","三峽區"
"237005","AKY-6261","2018/11/06 19:28:56","新北市三峽區復興路367巷1弄14號","121.364118333333","24.937645","6500900","三峽區"
"236070","105-UM","2018/11/06 19:29:03","新北市土城區裕民路185巷36弄10號","121.454376666667","24.9845033333333","6501300","土城區"
"236042","KED-0685","2018/11/06 19:28:55","新北市土城區學府路一段239號","121.450355","24.9833766666667","6501300","土城區"
"236079","166-UM","2018/11/06 19:28:54","新北市土城區中州路27巷81號","121.412625","24.9563533333333","6501300","土城區"
"236026","269-VK","2018/11/06 19:28:59","新北市土城區中央路二段61巷26號","121.443273333333","24.9786766666667","6501300","土城區"
"236021","401-BY","2018/11/06 19:29:00","新北市土城區峰廷街3號","121.46908","24.98728","6501300","土城區"
"236059","912-UM","2018/11/06 19:28:52","新北市土城區中央路二段63號","121.442878333333","24.9788883333333","6501300","土城區"
"236049","913-UM","2018/11/06 19:29:04","新北市土城區清水路172號","121.459946666667","24.9816233333333","6501300","土城區"
"242013","173-VK","2018/11/06 19:28:51","新北市新莊區三和路12-21號","121.442001666667","25.0386916666667","6500500","新莊區"
"242032","348-TH","2018/11/06 19:28:55","新北市新莊區新泰路225巷22弄5號","121.444978333333","25.03924","6500500","新莊區"
"238015","755-BX","2018/11/06 19:28:53","新北市樹林區大安路521號","121.4138","24.98565","6500700","樹林區"
"238023","601-UM","2018/11/06 19:28:50","新北市樹林區三福街114號","121.406591666667","25.01627","6500700","樹林區"
"238019","599-UM","2018/11/06 19:28:52","新北市樹林區東榮街88巷23號","121.415741666667","24.9829516666667","6500700","樹林區"
"238018","571-TV","2018/11/06 19:29:00","新北市樹林區中華路211號","121.419655","24.9813916666667","6500700","樹林區"
"238024","5061-A6","2018/11/06 19:29:05","新北市樹林區中山路三段155巷12號","121.396058333333","24.97258","6500700","樹林區"
"238022","KEA-2213","2018/11/06 19:29:00","新北市樹林區名園街45號","121.419758333333","24.97868","6500700","樹林區"
"238021","KEA-2539","2018/11/06 19:29:08","新北市樹林區大雅路8號","121.380708333333","24.9444666666667","6500700","樹林區"
"238025","303-VK","2018/11/06 19:29:01","新北市樹林區中山路一段189號","121.42133","24.987835","6500700","樹林區"
"238017","283-BY","2018/11/06 19:29:12","新北市樹林區光興街63巷1號","121.410853333333","25.0023783333333","6500700","樹林區"
"238014","282-BY","2018/11/06 19:28:59","新北市樹林區保安二街40巷35號","121.425851666667","24.9948883333333","6500700","樹林區"
"238026","172-UY","2018/11/06 19:29:01","新北市樹林區佳園路三段97號","121.387593333333","24.9521883333333","6500700","樹林區"
"238016","169-UY","2018/11/06 19:28:57","新北市樹林區復興路428號","121.414165","24.98457","6500700","樹林區"
"239007","AAC-297","2018/11/06 19:29:06","新北市鶯歌區大湖路326巷27號","121.346176666667","24.97014","6500800","鶯歌區"
"239006","891-R6","2018/11/06 19:29:11","新北市鶯歌區永昌街192號","121.339175","24.9504816666667","6500800","鶯歌區"
"239001","417-VK","2018/11/06 19:29:01","新北市鶯歌區尖山埔路二段57號","121.341646666667","24.9483033333333","6500800","鶯歌區"
"239003","360-BY","2018/11/06 19:25:46","新北市樹林區中山路三段210-2號","121.380516666667","24.9679083333333","6500800","鶯歌區"
"239002","359-BY","2018/11/06 19:28:58","新北市鶯歌區中山路131號","121.349381666667","24.95701","6500800","鶯歌區"
"221008","489-VK","2018/11/06 19:28:56","新北市汐止區三民街1巷1號","121.62437","25.06669","6501100","汐止區"
"221036","130-UY","2018/11/06 19:29:06","新北市汐止區康寧街901號","121.651576666667","25.0749633333333","6501100","汐止區"
"221015","131-UY","2018/11/06 19:29:01","新北市汐止區康寧街901號","121.651665","25.07491","6501100","汐止區"
"221010","269-BY","2018/11/06 19:28:33","新北市汐止區連峰街3巷1號","121.647731666667","25.0761983333333","6501100","汐止區"
"221012","278-VK","2018/11/06 19:29:03","新北市汐止區大同路三段271號","121.674051666667","25.0756066666667","6501100","汐止區"
"221023","279-VK","2018/11/06 19:28:54","新北市汐止區伯爵街1巷2號","121.641651666667","25.075255","6501100","汐止區"
"221027","281-BY","2018/11/06 19:29:05","新北市汐止區忠孝東路9號","121.658285","25.0659616666667","6501100","汐止區"
"221029","298-VK","2018/11/06 19:29:09","新北市汐止區康寧街901號","121.651623333333","25.074925","6501100","汐止區"
"221021","299-VK","2018/11/06 19:29:02","新北市汐止區康寧街901號","121.651528333333","25.0750066666667","6501100","汐止區"
"221031","353-TW","2018/11/06 19:28:56","新北市汐止區康寧街901號","121.650833333333","25.07526","6501100","汐止區"
"221025","623-UM","2018/11/06 19:29:06","新北市汐止區大同路二段340號","121.656585","25.066995","6501100","汐止區"
"221038","646-BX","2018/11/06 19:29:04","新北市汐止區汐萬路一段39號","121.655101666667","25.0690916666667","6501100","汐止區"
"221002","707-TV","2018/11/06 19:29:08","新北市汐止區大同路一段339-1號","121.63835","25.05965","6501100","汐止區"
"221018","753-BX","2018/11/06 19:29:02","新北市汐止區康寧街901號","121.650895","25.075255","6501100","汐止區"
"220079","145-BY","2018/11/06 19:29:12","新北市板橋區民權路202巷15弄19號","121.459843333333","25.0162466666667","6500100","板橋區"
"220080","200-UY","2018/11/06 19:28:51","新北市板橋區大觀路二段37巷306號","121.450066666667","25.002105","6500100","板橋區"
"220101","245-BX","2018/11/06 19:28:58","新北市板橋區縣民大道三段133巷17號","121.477258333333","25.0237433333333","6500100","板橋區"
"220098","257-TC","2018/11/06 19:29:07","新北市板橋區民生路三段281巷2弄20號","121.46334","25.0304583333333","6500100","板橋區"
"220091","267-BY","2018/11/06 19:28:58","新北市板橋區文聖街135巷25號","121.478998333333","25.02891","6500100","板橋區"
"220056","276-BY","2018/11/06 19:29:03","新北市板橋區信義路1巷26弄35號","121.458823333333","24.9966616666667","6500100","板橋區"
"220072","277-BY","2018/11/06 19:29:02","新北市板橋區金門街253巷12號","121.432945","24.9883116666667","6500100","板橋區"
"220071","283-VK","2018/11/06 19:29:06","新北市板橋區四川路一段325巷3弄8號","121.459583333333","25.000455","6500100","板橋區"
"220094","285-UM","2018/11/06 19:29:04","新北市板橋區吳鳳路50號","121.468066666667","25.0304266666667","6500100","板橋區"
"220083","286-VK","2018/11/06 19:29:09","新北市板橋區龍興街71巷48號","121.441806666667","25.00272","6500100","板橋區"
"220081","287-VK","2018/11/06 19:28:55","新北市板橋區南雅西路一段39巷30號","121.45281","25.00441","6500100","板橋區"
"220090","288-VK","2018/11/06 19:29:01","新北市板橋區裕民街51號","121.46122","25.0285416666667","6500100","板橋區"
"220061","295-UM","2018/11/06 19:29:02","新北市板橋區中山路二段283號","121.47793","25.0178833333333","6500100","板橋區"
"220084","296-UM","2018/11/06 19:29:04","新北市板橋區滿平街84巷110弄3號","121.426593333333","24.9862466666667","6500100","板橋區"
"220053","299-UM","2018/11/06 19:29:04","新北市板橋區永豐街96-2號","121.4757","25.020385","6500100","板橋區"
"220075","303-R5","2018/11/06 19:28:55","新北市板橋區南雅西路二段301巷50弄10-2號","121.452333333333","25.017065","6500100","板橋區"
"220062","305-R5","2018/11/06 19:29:05","新北市板橋區三民路二段153巷2弄12-5號","121.479446666667","25.0143416666667","6500100","板橋區"
"220092","307-R5","2018/11/06 19:28:53","新北市板橋區光武街2巷45-1號","121.468373333333","25.0259683333333","6500100","板橋區"
"220064","486-VK","2018/11/06 19:29:06","新北市板橋區中山路一段66號","121.461385","25.0099183333333","6500100","板橋區"
"220089","487-VK","2018/11/06 19:29:07","新北市板橋區文化路一段29號","121.460206666667","25.01288","6500100","板橋區"
"220088","491-VK","2018/11/06 19:29:05","新北市板橋區文化路二段359號","121.473015","25.03081","6500100","板橋區"
"220035","560-BX","2018/11/06 19:29:09","新北市板橋區中正路375巷42號","121.45376","25.02032","6500100","板橋區"
"220103","561-BX","2018/11/06 19:28:58","新北市板橋區文化路一段216號","121.46648","25.020315","6500100","板橋區"
"220063","609-BX","2018/11/06 19:28:56","新北市板橋區三民路一段31巷82號","121.48113","25.023265","6500100","板橋區"
"220086","630-UY","2018/11/06 19:28:59","新北市板橋區中正路236巷52號","121.457503333333","25.01925","6500100","板橋區"
"220057","686-BX","2018/11/06 19:29:01","新北市板橋區和平路61號","121.461131666667","24.99461","6500100","板橋區"
"220077","687-BX","2018/11/06 19:29:08","新北市板橋區僑中二街114巷2號","121.44574","25.0068416666667","6500100","板橋區"
"220093","689-BX","2018/11/06 19:29:05","新北市板橋區新海路387號","121.458901666667","25.02618","6500100","板橋區"
"220054","741-BX","2018/11/06 19:29:07","新北市板橋區光明街46號","121.460568333333","25.002525","6500100","板橋區"
"220102","KEA-2699","2018/11/06 19:29:07","新北市板橋區松柏街22巷43號","121.475088333333","25.02889","6500100","板橋區"
"220082","806-UM","2018/11/06 19:28:59","新北市板橋區金門街131號","121.432938333333","24.991305","6500100","板橋區"
"220055","827-TW","2018/11/06 19:29:01","新北市板橋區重慶路278巷9號","121.462538333333","24.9996133333333","6500100","板橋區"
"220067","829-TW","2018/11/06 19:29:11","新北市板橋區漢生東路313巷22號","121.472798333333","25.008455","6500100","板橋區"
"220068","830-TW","2018/11/06 19:29:09","新北市板橋區翠華街6巷84號","121.481736666667","25.0245266666667","6500100","板橋區"
"220096","831-TW","2018/11/06 19:28:52","新北市板橋區雙十路二段6-12號","121.476811666667","25.0266516666667","6500100","板橋區"
"220074","895-R6","2018/11/06 19:29:11","新北市板橋區民權路174號","121.459658333333","25.0131383333333","6500100","板橋區"
"220073","985-R7","2018/11/06 19:29:06","新北市板橋區中正路190號","121.456111666667","25.0178216666667","6500100","板橋區"
"220097","AAC-210","2018/11/06 19:28:58","新北市板橋區陽明街131號","121.46339","25.0236433333333","6500100","板橋區"
"220070","AAC-253","2018/11/06 19:29:03","新北市板橋區四川路一段24號","121.459513333333","25.006375","6500100","板橋區"
"235068","KEA-2873","2018/11/06 19:28:57","新北市中和區圓通路158巷8-1號","121.497841666667","24.9962483333333","6500300","中和區"
"235061","KEA-2875","2018/11/06 19:28:51","新北市中和區民利街31巷2弄10號","121.4797","24.9986266666667","6500300","中和區"
