"lineid","car","time","location","longitude","latitude","cityid","cityname"
"234046","148-BY","2018/11/06 19:48:54","新北市永和區永利路328號","121.525338333333","25.0033216666667","6500400","永和區"
"234007","207-UY","2018/11/06 19:49:04","新北市中和區光華街59-1號","121.506356666667","25.0031966666667","6500400","永和區"
"234081","298-R6","2018/11/06 19:48:55","新北市永和區國中路2號","121.524258333333","25.0043116666667","6500400","永和區"
"234038","336-UY","2018/11/06 19:48:57","新北市永和區成功路二段129巷2號","121.526818333333","24.998195","6500400","永和區"
"234064","337-UY","2018/11/06 19:48:59","新北市永和區中正路368巷6號","121.518036666667","25.0008316666667","6500400","永和區"
"234086","338-UY","2018/11/06 19:49:06","新北市永和區永亨路67-1號","121.521185","25.0060233333333","6500400","永和區"
"234070","552-UM","2018/11/06 19:49:04","新北市永和區竹林路88號","121.51945","25.0126033333333","6500400","永和區"
"234017","745-BX","2018/11/06 19:49:07","新北市永和區永和路二段393-1號","121.515571666667","25.0165866666667","6500400","永和區"
"234030","746-BX","2018/11/06 19:49:06","新北市永和區民生路67巷48號","121.525188333333","24.9974316666667","6500400","永和區"
"234054","KEA-2590","2018/11/06 19:49:00","新北市永和區竹林路75巷25弄8號","121.520103333333","25.0144","6500400","永和區"
"234013","KEA-2591","2018/11/06 19:49:01","新北市永和區永平路286-1號","121.507635","25.0120433333333","6500400","永和區"
"234061","AAD-866","2018/11/06 19:49:02","新北市永和區中正路47號","121.51428","24.9963983333333","6500400","永和區"
"234042","862-TW","2018/11/06 19:49:07","新北市永和區中和路389巷44弄2號","121.508043333333","25.0021166666667","6500400","永和區"
"234050","863-TW","2018/11/06 19:49:10","新北市永和區環河西路一段109號","121.510965","25.0173816666667","6500400","永和區"
"234026","9371-KE","2018/11/06 19:49:07","新北市永和區雙和街25巷4號","121.508865","25.0018933333333","6500400","永和區"
"234011","9373-KE","2018/11/06 19:49:08","新北市永和區保生路55號","121.50475","25.0102566666667","6500400","永和區"
"249001","173-UM","2018/11/06 19:49:07","新北市八里區中華路二段252號","121.405405","25.1496666666667","6502300","八里區"
"249004","303-UY","2018/11/06 19:49:08","新北市八里區仁愛路113-3號","121.4104","25.1590283333333","6502300","八里區"
"249002","305-UY","2018/11/06 19:49:04","新北市八里區頂寮三街46號","121.4513","25.1260316666667","6502300","八里區"
"249003","593-UM","2018/11/06 19:49:09","新北市八里區中華路二段558號","121.398681666667","25.145255","6502300","八里區"
"248016","026-BX","2018/11/06 19:48:56","新北市五股區成泰路三段577巷85-1號","121.449528333333","25.10379","6501500","五股區"
"248008","095-VK","2018/11/06 19:49:09","新北市蘆洲區中山二路300巷2號","121.468665","25.0769966666667","6501500","五股區"
"248020","225-UY","2018/11/06 19:48:59","新北市五股區中直路65-1號","121.417935","25.1186783333333","6501500","五股區"
"248012","247-BX","2018/11/06 19:48:57","新北市五股區蓬萊路1-3號","121.43448","25.0796433333333","6501500","五股區"
"248014","261-SL","2018/11/06 19:48:52","新北市五股區五福路52巷11弄1號","121.433766666667","25.0899116666667","6501500","五股區"
"248010","272-BY","2018/11/06 19:49:01","新北市五股區登林路76-5號","121.430548333333","25.0695683333333","6501500","五股區"
"248004","677-BX","2018/11/06 19:49:05","新北市五股區成泰路一段220-1號","121.436355","25.0795833333333","6501500","五股區"
"248002","678-BX","2018/11/06 19:48:59","新北市五股區成泰路四段14號","121.453253333333","25.106755","6501500","五股區"
"234077","969-R7","2018/11/06 19:49:05","新北市永和區民治街97巷7號","121.51686","24.9981033333333","6500400","永和區"
"234074","AAC-211","2018/11/06 19:49:00","新北市永和區豫溪街160巷17號","121.52333","25.0090883333333","6500400","永和區"
"234067","AAC-212","2018/11/06 19:48:54","新北市永和區永貞路418號","121.508721666667","25.0080316666667","6500400","永和區"
"234003","AAC-295","2018/11/06 19:49:11","新北市永和區福和路307號","121.516215","25.0072366666667","6500400","永和區"
"243010","267-VK","2018/11/06 19:48:54","新北市泰山區民生路33號","121.430825","25.05212","6501600","泰山區"
"243013","AAD-798","2018/11/06 19:43:40","新北市泰山區應化街7號","121.42396","25.043705","6501600","泰山區"
"243009","297-R6","2018/11/06 19:48:55","新北市泰山區美寧街64號","121.430981666667","25.0646383333333","6501600","泰山區"
"243016","KEA-2801","2018/11/06 19:49:09","新北市泰山區新北大道七段93號","121.417981666667","25.0320666666667","6501600","泰山區"
"243015","421-VK","2018/11/06 19:49:01","新北市泰山區明志路二段214巷9號","121.426718333333","25.0488583333333","6501600","泰山區"
"243012","539-UM","2018/11/06 19:48:54","新北市泰山區全興路13號","121.432381666667","25.058935","6501600","泰山區"
"243011","KEA-2215","2018/11/06 19:48:59","新北市泰山區明志路三段204巷12號","121.422095","25.03828","6501600","泰山區"
"222003","436-BY","2018/11/06 19:32:46","新北市深坑區深南路51-1號","121.621221666667","25.0098466666667","6501800","深坑區"
"222002","659-BX","2018/11/06 19:49:09","新北市深坑區北深路一段355-1號","121.623221666667","25.0053016666667","6501800","深坑區"
"231041","002-UM","2018/11/06 19:48:56","新北市新店區中央路228號","121.52957","24.9727083333333","6500600","新店區"
"231066","0291-UT","2018/11/06 19:48:56","新北市新店區安康路二段345號","121.49609","24.9549666666667","6500600","新店區"
"231059","046-UY","2018/11/06 19:48:54","新北市新店區安和路二段218號","121.517953333333","24.9753716666667","6500600","新店區"
"231040","047-UY","2018/11/06 19:49:08","新北市新店區中正路75巷71號","121.54309","24.9688116666667","6500600","新店區"
"231044","106-UY","2018/11/06 19:49:00","新北市新店區復興路44號","121.538653333333","24.9867233333333","6500600","新店區"
"231046","107-UY","2018/11/06 19:48:59","新北市新店區三民路159巷19弄46號","121.532215","24.9732516666667","6500600","新店區"
"231053","108-UY","2018/11/06 19:48:55","新北市新店區新烏路二段474-3號","121.552825","24.90813","6500600","新店區"
"231048","187-VK","2018/11/06 19:48:51","新北市新店區五峰路59-10號","121.547756666667","24.96987","6500600","新店區"
"231054","KEA-2219","2018/11/06 19:48:58","新北市新店區光明街111號","121.539195","24.961345","6500600","新店區"
"231057","256-BX","2018/11/06 19:48:58","新北市新店區梅崗三路1號","121.558365","24.931245","6500600","新店區"
"231042","268-BY","2018/11/06 19:49:10","新北市新店區中興路一段265號","121.54484","24.9673883333333","6500600","新店區"
"231051","278-BY","2018/11/06 19:49:02","新北市新店區中央三街15號","121.52909","24.97366","6500600","新店區"
"231050","AAD-862","2018/11/06 19:49:05","新北市新店區北宜路二段581巷1號","121.565821666667","24.954135","6500600","新店區"
"231058","3713-VJ","2018/11/06 19:48:54","新北市新店區中央路151號","121.529303333333","24.9719166666667","6500600","新店區"
"231056","4715-K9","2018/11/06 19:49:08","新北市新店區民權路72號","121.538158333333","24.9831566666667","6500600","新店區"
"231067","4772-VM","2018/11/06 19:49:05","新北市新店區精忠路10-1號","121.532571666667","24.9591233333333","6500600","新店區"
"231065","512-UM","2018/11/06 19:49:07","新北市新店區安祥路109巷126號","121.476408333333","24.957945","6500600","新店區"
"231049","513-UM","2018/11/06 19:49:10","新北市新店區民權路88-4號","121.536565","24.9833966666667","6500600","新店區"
"231061","619-UM","2018/11/06 19:49:09","新北市新店區安民街189-1號","121.516901666667","24.971045","6500600","新店區"
"231063","641-BX","2018/11/06 19:49:07","新北市新店區車子路11號","121.502981666667","24.9519466666667","6500600","新店區"
"231068","718-UY","2018/11/06 19:48:57","新北市新店區安一路一段1-1號","121.519266666667","24.96122","6500600","新店區"
"231064","719-UM","2018/11/06 19:48:34","新北市新店區安和路二段113巷3弄5號","121.518066666667","24.969935","6500600","新店區"
"231062","720-UM","2018/11/06 19:48:49","新北市新店區永業路49巷2號","121.532133333333","24.9548716666667","6500600","新店區"
"231060","897-TW","2018/11/06 19:49:05","新北市新店區安康路二段161號","121.510203333333","24.959335","6500600","新店區"
"231045","898-TW","2018/11/06 19:49:03","新北市新店區北宜路二段384號","121.564543333333","24.952825","6500600","新店區"
"231043","899-TW","2018/11/06 19:48:55","新北市新店區中正路263-4號","121.538365","24.9739033333333","6500600","新店區"
"231055","AKT-0513","2018/11/06 19:49:05","新北市新店區力行路50號","121.53871","24.9654983333333","6500600","新店區"
"241011","013-R5","2018/11/06 19:49:04","新北市三重區三和路三段5號","121.497113333333","25.0705116666667","6500200","三重區"
"241028","022-UY","2018/11/06 19:49:04","新北市三重區中正南路139號","121.493988333333","25.0567683333333","6500200","三重區"
"241008","059-VK","2018/11/06 19:49:06","新北市三重區永福街123號","121.47906","25.0770116666667","6500200","三重區"
"241022","060-VK","2018/11/06 19:49:06","新北市三重區過圳街19號","121.48866","25.060585","6500200","三重區"
"241031","061-VK","2018/11/06 19:49:00","新北市三重區重新路四段248號","121.486153333333","25.0534916666667","6500200","三重區"
"241015","062-VK","2018/11/06 19:49:08","新北市三重區重新路一段1號","121.503775","25.0642883333333","6500200","三重區"
"241017","063-VK","2018/11/06 19:49:09","新北市三重區重陽路三段27巷1號","121.489628333333","25.06657","6500200","三重區"
"241026","066-VK","2018/11/06 19:49:04","新北市三重區文化南路42號","121.500428333333","25.06024","6500200","三重區"
"241003","091-VK","2018/11/06 19:48:57","新北市三重區五華街91-4號","121.491765","25.0835233333333","6500200","三重區"
"241023","265-UM","2018/11/06 19:48:58","新北市三重區大有街1-9號","121.477486666667","25.0660133333333","6500200","三重區"
"241009","267-UM","2018/11/06 19:48:56","新北市三重區三和路四段396巷18號","121.480538333333","25.0789166666667","6500200","三重區"
"241018","268-UM","2018/11/06 19:48:52","新北市三重區雙園街57巷32號","121.494405","25.0683116666667","6500200","三重區"
"241032","269-UM","2018/11/06 19:48:49","新北市三重區重陽路一段10號","121.486135","25.0577333333333","6500200","三重區"
"241013","270-UM","2018/11/06 19:49:04","新北市三重區仁愛街112巷14號","121.494746666667","25.073895","6500200","三重區"
"241025","271-UM","2018/11/06 19:49:00","新北市三重區忠孝路三段52號","121.480685","25.06566","6500200","三重區"
"241007","398-BY","2018/11/06 19:49:09","新北市三重區三和路四段143-1號","121.484366666667","25.078315","6500200","三重區"
"241035","KEA-2210","2018/11/06 19:48:52","新北市三重區文化北路10-7號","121.49929","25.063495","6500200","三重區"
"241004","475-VK","2018/11/06 19:49:01","新北市三重區五華街74號","121.493408333333","25.0820233333333","6500200","三重區"
"241020","478-VK","2018/11/06 19:48:54","新北市三重區後竹圍街43號","121.490625","25.07333","6500200","三重區"
"241014","543-UM","2018/11/06 19:49:00","新北市三重區長安街67號","121.50123","25.0673383333333","6500200","三重區"
"241001","547-UM","2018/11/06 19:48:54","新北市三重區仁愛街325號","121.492276666667","25.0794966666667","6500200","三重區"
"241019","KEA-2593","2018/11/06 19:48:52","新北市三重區自強路二段74巷25號","121.487756666667","25.069665","6500200","三重區"
"241006","AAD-863","2018/11/06 19:49:10","新北市三重區力行路二段76巷19號","121.48089","25.073585","6500200","三重區"
"241030","743-BX","2018/11/06 19:49:04","新北市三重區成功路73巷6號","121.489215","25.051595","6500200","三重區"
"241012","941-UM","2018/11/06 19:48:59","新北市三重區仁興街40號","121.498923333333","25.0757033333333","6500200","三重區"
"241029","942-UM","2018/11/06 19:48:53","新北市三重區光明路25號","121.491193333333","25.0585116666667","6500200","三重區"
"241033","AAC-255","2018/11/06 19:48:57","新北市三重區中興南街64號","121.470608333333","25.0440266666667","6500200","三重區"
"235066","003-UY","2018/11/06 19:48:52","新北市中和區南工路40號","121.505853333333","25.0013616666667","6500300","中和區"
"235064","005-UY","2018/11/06 19:48:56","新北市中和區圓通路25號","121.501258333333","24.9978116666667","6500300","中和區"
"235056","096-UM","2018/11/06 19:48:51","新北市中和區中山路三段114巷46號","121.475785","25.0072666666667","6500300","中和區"
"235039","097-UM","2018/11/06 19:48:52","新北市中和區大勇街27巷14號","121.516766666667","24.9937116666667","6500300","中和區"
"235065","098-UM","2018/11/06 19:49:10","新北市中和區莊敬路31巷36-1號","121.499756666667","25.005645","6500300","中和區"
"235040","150-BY","2018/11/06 19:48:54","新北市中和區安和路39號","121.509685","24.9949","6500300","中和區"
"235058","151-BY","2018/11/06 19:48:52","新北市中和區員山路122號","121.481093333333","24.9959433333333","6500300","中和區"
"235055","183-VK","2018/11/06 19:48:50","新北市中和區德光路27巷1弄2號","121.470855","25.0039583333333","6500300","中和區"
"235038","185-VK","2018/11/06 19:49:03","新北市中和區自立路7號","121.522541666667","24.9964933333333","6500300","中和區"
"235049","186-VK","2018/11/06 19:48:57","新北市中和區中正路72號","121.500826666667","24.9937383333333","6500300","中和區"
"235067","255-BX","2018/11/06 19:48:56","新北市中和區新生街226號","121.483858333333","24.9983466666667","6500300","中和區"
"235044","293-VK","2018/11/06 19:49:00","新北市中和區南山路231號","121.50347","24.993375","6500300","中和區"
"235072","301-VK","2018/11/06 19:48:59","新北市中和區永和路356巷67-1號","121.487211666667","25.0148966666667","6500300","中和區"
"235043","352-BY","2018/11/06 19:49:08","新北市中和區興南路二段159巷1號","121.505221666667","24.983255","6500300","中和區"
"235042","KEA-2878","2018/11/06 19:48:58","新北市中和區宜安路171號","121.508398333333","24.9990183333333","6500300","中和區"
"235050","4979-A6","2018/11/06 19:49:04","新北市中和區圓通路141巷48弄15號","121.498123333333","24.99391","6500300","中和區"
"235069","4980-A6","2018/11/06 19:48:56","新北市中和區圓通路75號","121.49998","24.996975","6500300","中和區"
"235070","558-UM","2018/11/06 19:48:56","新北市中和區連勝街66號","121.497068333333","24.9968716666667","6500300","中和區"
"235054","640-BX","2018/11/06 19:49:05","新北市中和區莒光路147號","121.472611666667","25.00126","6500300","中和區"
"235060","647-TV","2018/11/06 19:48:53","新北市中和區新生街32號","121.483105","25.0038366666667","6500300","中和區"
"235047","732-UM","2018/11/06 19:49:03","新北市中和區和平街14號","121.510013333333","24.9901116666667","6500300","中和區"
"235046","733-UM","2018/11/06 19:48:53","新北市中和區仁愛街50號","121.511125","24.9881033333333","6500300","中和區"
"235071","783-BX","2018/11/06 19:49:09","新北市中和區環中路122號","121.481873333333","25.0125633333333","6500300","中和區"
"235057","801-TS","2018/11/06 19:49:09","新北市中和區員山路144-2號","121.481206666667","24.9967133333333","6500300","中和區"
"235041","802-TS","2018/11/06 19:48:54","新北市中和區永貞路239巷1號","121.512973333333","25.0035416666667","6500300","中和區"
"235052","805-TS","2018/11/06 19:49:01","新北市中和區興南路二段79巷5號","121.506676666667","24.9847483333333","6500300","中和區"
"235048","896-TW","2018/11/06 19:48:44","新北市中和區興南路二段2號","121.507941666667","24.9862566666667","6500300","中和區"
"235053","900-TW","2018/11/06 19:48:51","新北市中和區國光街189巷1號","121.467766666667","25.0010116666667","6500300","中和區"
"235051","157-BY","2018/11/06 19:49:05","新北市中和區中興街180巷52弄3號","121.498461666667","24.9882716666667","6500300","中和區"
"235037","AAC-213","2018/11/06 19:49:07","新北市中和區秀朗路三段132號","121.524541666667","24.9919216666667","6500300","中和區"
"235059","AAC-215","2018/11/06 19:49:03","新北市中和區圓通路309號","121.493255","24.99088","6500300","中和區"
"220065","072-UY","2018/11/06 19:48:59","新北市板橋區民族路67號","121.46535","25.0086583333333","6500100","板橋區"
"220106","075-UY","2018/11/06 19:48:54","新北市板橋區民治街57巷24弄1號","121.480275","25.0338","6500100","板橋區"
"220069","AAD-861","2018/11/06 19:48:56","新北市板橋區貴興路115號","121.455721666667","25.00243","6500100","板橋區"
"247002","893-R6","2018/11/06 19:49:01","新北市蘆洲區永平街30號","121.458818333333","25.0908483333333","6501400","蘆洲區"
"247016","546-UM","2018/11/06 19:48:58","新北市蘆洲區中正路261號","121.467486666667","25.0873166666667","6501400","蘆洲區"
"247014","339-TH","2018/11/06 19:49:08","新北市蘆洲區復興路30號","121.472213333333","25.0851733333333","6501400","蘆洲區"
"247008","336-TH","2018/11/06 19:49:04","新北市蘆洲區中山一路72號","121.478791666667","25.0811133333333","6501400","蘆洲區"
"247004","002-UY","2018/11/06 19:49:01","新北市蘆洲區中原路43號","121.459473333333","25.0823466666667","6501400","蘆洲區"
"226004","205-ST","2018/11/06 19:49:00","新北市平溪區靜安路三段392巷3號","121.784546666667","25.0495683333333","6502400","平溪區"
"228001","212-TW","2018/11/06 19:49:02","新北市貢寮區真理里新港街113-2號","121.926308333333","25.0565766666667","6502600","貢寮區"
"228003","828-UM","2018/11/06 19:48:57","新北市貢寮區真理里美艷山街8-3號","121.929256666667","25.0616016666667","6502600","貢寮區"
"224002","639-TC","2018/11/06 19:48:51","新北市瑞芳區民享新村23號","121.817225","25.1054116666667","6501200","瑞芳區"
"227009","642-TC","2018/11/06 19:48:59","新北市雙溪區新基里中華路73號","121.86577","25.038325","6502500","雙溪區"
"227003","400-TW","2018/11/06 19:49:07","新北市雙溪區雙溪里內挖路47號","121.863368333333","25.036625","6502500","雙溪區"
"222001","KEA-2212","2018/11/06 19:49:05","新北市深坑區北深路三段68號","121.607848333333","25.0013283333333","6501800","深坑區"
"208002","KEA-2872","2018/11/06 19:49:05","新北市金山區中華路261號","121.633156666667","25.2244366666667","6502700","金山區"
"208003","665-BX","2018/11/06 19:49:05","新北市金山區海興路112-1號","121.631135","25.2386766666667","6502700","金山區"
"208001","761-BX","2018/11/06 19:48:59","新北市金山區重和里林口32號","121.596265","25.2095333333333","6502700","金山區"
"251005","010-UM","2018/11/06 19:49:08","新北市淡水區中正東路37號","121.445933333333","25.168075","6501000","淡水區"
"251013","KEA-2871","2018/11/06 19:48:51","新北市淡水區頂田寮路109號","121.457975","25.2161283333333","6501000","淡水區"
"251016","179-VK","2018/11/06 19:49:01","新北市淡水區下圭柔山122-2號","121.456041666667","25.2089716666667","6501000","淡水區"
"251014","180-VK","2018/11/06 19:49:09","新北市淡水區番社前1-2號","121.46915","25.2370116666667","6501000","淡水區"
"251008","181-VK","2018/11/06 19:48:59","新北市淡水區中正路一段22巷22號","121.426883333333","25.176905","6501000","淡水區"
"251015","182-VK","2018/11/06 19:49:08","新北市淡水區北新路二段77-5號","121.480573333333","25.1855066666667","6501000","淡水區"
"251010","413-VK","2018/11/06 19:49:00","新北市淡水區下圭柔山90-8號","121.43163","25.2118816666667","6501000","淡水區"
"251012","441-VK","2018/11/06 19:49:11","新北市淡水區淡金路三段64號","121.448258333333","25.1998433333333","6501000","淡水區"
"251007","442-VK","2018/11/06 19:49:04","新北市淡水區中正東路一段3巷21號","121.451775","25.166145","6501000","淡水區"
"251001","559-UM","2018/11/06 19:49:08","新北市淡水區淡金路73號","121.45626","25.161905","6501000","淡水區"
"251006","561-UM","2018/11/06 19:48:52","新北市淡水區水碓街15號","121.443501666667","25.1769633333333","6501000","淡水區"
"251009","575-R6","2018/11/06 19:48:58","新北市淡水區中正路36號","121.443781666667","25.1692233333333","6501000","淡水區"
"251011","650-BX","2018/11/06 19:49:02","新北市淡水區淡金路二段371號","121.447023333333","25.1859183333333","6501000","淡水區"
"251003","766-UM","2018/11/06 19:48:51","新北市淡水區中山北路二段383號","121.444011666667","25.188425","6501000","淡水區"
"207003","550-UM","2018/11/06 19:49:06","新北市萬里區大鵬里萬里加投68-8號","121.642581666667","25.2148583333333","6502800","萬里區"
"207004","225-TW","2018/11/06 19:48:52","新北市萬里區萬里里瑪鋉路170號","121.689826666667","25.1798533333333","6502800","萬里區"
"252002","178-VK","2018/11/06 19:49:09","新北市三芝區三民街33-1號","121.504645","25.2584833333333","6502100","三芝區"
"252001","292-VK","2018/11/06 19:49:06","新北市三芝區公正街66號","121.499771666667","25.2574683333333","6502100","三芝區"
"237007","153-BY","2018/11/06 19:49:00","新北市三峽區二鬮路136巷21號","121.358773333333","24.9080233333333","6500900","三峽區"
"237009","210-TH","2018/11/06 19:49:09","新北市三峽區清水街429號","121.368665","24.9257883333333","6500900","三峽區"
"237013","252-BX","2018/11/06 19:48:59","新北市三峽區介壽路二段140號","121.393985","24.9359","6500900","三峽區"
"237012","275-BY","2018/11/06 19:49:11","新北市三峽區中華路3巷6-1號","121.374855","24.9313066666667","6500900","三峽區"
"237008","302-VK","2018/11/06 19:49:03","新北市三峽區大同路196-2號","121.370956666667","24.9270966666667","6500900","三峽區"
"237014","433-BY","2018/11/06 19:49:02","新北市三峽區添福2-1號","121.370448333333","24.9095083333333","6500900","三峽區"
"237006","5529-G3","2018/11/06 19:48:58","新北市三峽區中正路一段336巷15弄2號","121.369981666667","24.9249333333333","6500900","三峽區"
"237016","649-BX","2018/11/06 19:48:54","新北市三峽區成福路43號","121.417865","24.92879","6500900","三峽區"
"237005","AKY-6261","2018/11/06 19:48:56","新北市三峽區長泰街20號","121.378795","24.9318266666667","6500900","三峽區"
"236070","105-UM","2018/11/06 19:49:03","新北市土城區中央路二段346巷12-2號","121.439565","24.9722216666667","6501300","土城區"
"236042","KED-0685","2018/11/06 19:48:55","新北市土城區裕民路233巷1號","121.454958333333","24.983735","6501300","土城區"
"236079","166-UM","2018/11/06 19:48:54","新北市土城區中州路18號","121.414605","24.9572816666667","6501300","土城區"
"236030","253-BX","2018/11/06 19:48:57","新北市土城區中央路一段294號","121.443288333333","24.982395","6501300","土城區"
"236026","269-VK","2018/11/06 19:48:59","新北市土城區中央路二段61巷26號","121.443303333333","24.9788183333333","6501300","土城區"
"236038","271-VK","2018/11/06 19:49:09","新北市土城區國際路158巷14號","121.46856","24.9762066666667","6501300","土城區"
"236021","401-BY","2018/11/06 19:49:05","新北市土城區延吉街137巷12弄11號","121.470471666667","24.9853283333333","6501300","土城區"
"236059","912-UM","2018/11/06 19:49:12","新北市土城區中央路一段186-1號","121.445538333333","24.9863133333333","6501300","土城區"
"236049","913-UM","2018/11/06 19:49:04","新北市土城區青雲路315號","121.459018333333","24.9787833333333","6501300","土城區"
"236063","915-UM","2018/11/06 19:49:08","新北市土城區金城路三段163巷16號","121.468965","24.989135","6501300","土城區"
"236055","AAC-216","2018/11/06 19:48:55","新北市土城區延和路160號","121.468221666667","24.9903966666667","6501300","土城區"
"242037","AAC-296","2018/11/06 19:48:54","新北市新莊區民安路207巷32弄4號","121.428151666667","25.024075","6500500","新莊區"
"242029","612-BX","2018/11/06 19:49:13","新北市新莊區中平路256-1號","121.444855","25.0497016666667","6500500","新莊區"
"242048","497-BY","2018/11/06 19:49:11","新北市新莊區民安路207巷17號","121.426791666667","25.02308","6500500","新莊區"
"242039","415-TV","2018/11/06 19:49:09","新北市新莊區民安路295號","121.429326666667","25.0229333333333","6500500","新莊區"
"242061","353-BY","2018/11/06 19:49:06","新北市新莊區瓊林路118號","121.442211666667","25.02556","6500500","新莊區"
"242034","135-UY","2018/11/06 19:49:10","新北市新莊區建中街90巷7弄17號","121.445666666667","25.0374583333333","6500500","新莊區"
"242051","172-VK","2018/11/06 19:49:01","新北市新莊區民安路288號","121.42798","25.0216783333333","6500500","新莊區"
"242013","173-VK","2018/11/06 19:48:51","新北市新莊區中誠街67號","121.450688333333","25.0478316666667","6500500","新莊區"
"242032","348-TH","2018/11/06 19:48:55","新北市新莊區忠孝街15號","121.443915","25.0349633333333","6500500","新莊區"
"242005","349-TH","2018/11/06 19:49:09","新北市新莊區化成路63巷24弄19號","121.462583333333","25.0459716666667","6500500","新莊區"
"242021","350-TH","2018/11/06 19:48:59","新北市新莊區中正路362號","121.44331","25.034175","6500500","新莊區"
"238015","755-BX","2018/11/06 19:48:53","新北市樹林區樹德街53號","121.421046666667","24.99167","6500700","樹林區"
"238023","601-UM","2018/11/06 19:48:50","新北市樹林區中正路191號","121.42356","25.0031516666667","6500700","樹林區"
"238019","599-UM","2018/11/06 19:48:52","新北市樹林區中山路三段127號","121.396495","24.9732533333333","6500700","樹林區"
"238024","5061-A6","2018/11/06 19:49:05","新北市樹林區育德街76巷1號","121.388643333333","24.9681716666667","6500700","樹林區"
"238021","KEA-2539","2018/11/06 19:49:08","新北市樹林區佳園路三段181巷81號","121.39064","24.9484333333333","6500700","樹林區"
"238025","303-VK","2018/11/06 19:49:10","新北市樹林區中山路二段168號","121.412215","24.98257","6500700","樹林區"
"238017","283-BY","2018/11/06 19:49:12","新北市樹林區保安街二段45巷13弄8號","121.415331666667","24.9996733333333","6500700","樹林區"
"238014","282-BY","2018/11/06 19:48:58","新北市樹林區千歲街42號","121.425808333333","24.9968966666667","6500700","樹林區"
"239006","891-R6","2018/11/06 19:49:01","新北市鶯歌區文化路66號","121.355993333333","24.9544516666667","6500800","鶯歌區"
"221008","489-VK","2018/11/06 19:48:56","新北市汐止區康寧街85號","121.619758333333","25.0664733333333","6501100","汐止區"
"221036","130-UY","2018/11/06 19:49:06","新北市汐止區汐萬路一段129號","121.653828333333","25.07115","6501100","汐止區"
"221015","131-UY","2018/11/06 19:49:01","新北市汐止區茄苳路42號","121.665855","25.0707333333333","6501100","汐止區"
"221010","269-BY","2018/11/06 19:48:53","新北市汐止區八連路一段46巷51號","121.6463","25.08186","6501100","汐止區"
"221012","278-VK","2018/11/06 19:49:02","新北市汐止區保長路273巷6號","121.681416666667","25.074","6501100","汐止區"
"221023","279-VK","2018/11/06 19:48:34","新北市汐止區民族六街6巷2號","121.629758333333","25.0698883333333","6501100","汐止區"
"221032","280-BY","2018/11/06 19:49:03","新北市汐止區橫科路403巷13號","121.624863333333","25.04765","6501100","汐止區"
"221027","281-BY","2018/11/06 19:49:05","新北市汐止區南昌街3號","121.66365","25.0697616666667","6501100","汐止區"
"221029","298-VK","2018/11/06 19:49:09","新北市汐止區康寧街901號","121.651571666667","25.074895","6501100","汐止區"
"221021","299-VK","2018/11/06 19:49:02","新北市汐止區新興路108號","121.657248333333","25.0608066666667","6501100","汐止區"
"221031","353-TW","2018/11/06 19:48:56","新北市汐止區福德二路16巷14-1號","121.635561666667","25.0686","6501100","汐止區"
"221035","622-UM","2018/11/06 19:49:10","新北市汐止區長江街13巷5弄2號","121.654636666667","25.0717333333333","6501100","汐止區"
"221025","623-UM","2018/11/06 19:49:06","新北市汐止區秀峰路81巷33號","121.661348333333","25.0648816666667","6501100","汐止區"
"221038","646-BX","2018/11/06 19:49:04","新北市汐止區茄苳路42號","121.66572","25.0706533333333","6501100","汐止區"
"221033","647-BX","2018/11/06 19:48:56","新北市汐止區東勢街70號","121.63314","25.0400416666667","6501100","汐止區"
"221002","707-TV","2018/11/06 19:49:08","新北市汐止區工建路504號","121.63322","25.0583533333333","6501100","汐止區"
"220079","145-BY","2018/11/06 19:48:52","新北市板橋區建國街54巷30號","121.459926666667","25.0169666666667","6500100","板橋區"
"220080","200-UY","2018/11/06 19:48:53","新北市板橋區大觀路二段37巷2號","121.447036666667","25.002895","6500100","板橋區"
"220101","245-BX","2018/11/06 19:48:58","新北市板橋區縣民大道三段95號","121.475895","25.0220116666667","6500100","板橋區"
"220098","257-TC","2018/11/06 19:49:07","新北市板橋區新海路385巷12號","121.45843","25.0258283333333","6500100","板橋區"
"220091","267-BY","2018/11/06 19:48:59","新北市板橋區懷德街127巷23弄7號","121.479295","25.0316366666667","6500100","板橋區"
"220056","276-BY","2018/11/06 19:49:03","新北市板橋區四川路二段60號","121.452533333333","24.9948016666667","6500100","板橋區"
"220072","277-BY","2018/11/06 19:49:05","新北市板橋區篤行路二段1巷12-3號","121.432225","24.992675","6500100","板橋區"
"220071","283-VK","2018/11/06 19:48:45","新北市板橋區五權街30巷24弄33號","121.463631666667","24.9938883333333","6500100","板橋區"
"220094","285-UM","2018/11/06 19:48:52","新北市板橋區長江路一段371號","121.461651666667","25.0305583333333","6500100","板橋區"
"220083","286-VK","2018/11/06 19:49:08","新北市板橋區僑中二街88巷1號","121.446463333333","25.00926","6500100","板橋區"
"220081","287-VK","2018/11/06 19:49:10","新北市板橋區大觀路一段35巷7弄12號","121.45035","25.00691","6500100","板橋區"
"220090","288-VK","2018/11/06 19:49:01","新北市板橋區綠堤街33-4號","121.455708333333","25.026475","6500100","板橋區"
"220061","295-UM","2018/11/06 19:49:02","新北市板橋區漢生東路113巷27號","121.468383333333","25.0155933333333","6500100","板橋區"
"220084","296-UM","2018/11/06 19:49:04","新北市板橋區溪崑二街92巷12號","121.426463333333","24.9894766666667","6500100","板橋區"
"220053","299-UM","2018/11/06 19:49:04","新北市板橋區中山路二段60巷1弄24號","121.475176666667","25.0156833333333","6500100","板橋區"
"242002","281-VK","2018/11/06 19:49:03","新北市新莊區新泰路2-11號","121.45011","25.0325366666667","6500500","新莊區"
"220075","303-R5","2018/11/06 19:48:55","新北市板橋區金華街10巷48弄58號","121.459246666667","25.0201366666667","6500100","板橋區"
"220062","305-R5","2018/11/06 19:49:05","新北市板橋區中山路二段416巷54弄9號","121.48244","25.0193066666667","6500100","板橋區"
"220092","307-R5","2018/11/06 19:48:53","新北市板橋區四維路137巷1弄17-2號","121.465131666667","25.02456","6500100","板橋區"
"220064","486-VK","2018/11/06 19:49:06","新北市板橋區實踐路155號","121.464208333333","25.0041166666667","6500100","板橋區"
"220089","487-VK","2018/11/06 19:49:12","新北市板橋區龍泉街77-4號","121.4566","25.0251366666667","6500100","板橋區"
"242015","280-VK","2018/11/06 19:48:54","新北市新莊區中平路82巷36-2號","121.446561666667","25.0448283333333","6500500","新莊區"
"220088","491-VK","2018/11/06 19:49:05","新北市板橋區文聖街72號","121.477268333333","25.0304283333333","6500100","板橋區"
"220035","560-BX","2018/11/06 19:49:13","新北市板橋區新生街29巷15弄2號","121.456571666667","25.0219783333333","6500100","板橋區"
"220103","561-BX","2018/11/06 19:49:06","新北市板橋區陽明街29巷3號","121.46529","25.0216016666667","6500100","板橋區"
"220063","609-BX","2018/11/06 19:49:05","新北市板橋區三民路一段62號","121.47956","25.0223733333333","6500100","板橋區"
"220086","630-UY","2018/11/06 19:48:59","新北市板橋區南雅西路二段7巷25號","121.451855","25.0094916666667","6500100","板橋區"
"220057","686-BX","2018/11/06 19:48:50","新北市板橋區信義路200號","121.459825","24.9910816666667","6500100","板橋區"
"220077","687-BX","2018/11/06 19:48:53","新北市板橋區僑中一街124巷1弄2號","121.445848333333","25.0121866666667","6500100","板橋區"
"220093","689-BX","2018/11/06 19:49:05","新北市板橋區長江路三段56號","121.473465","25.0339816666667","6500100","板橋區"
"220054","741-BX","2018/11/06 19:48:54","新北市板橋區實踐路93巷38號","121.465518333333","25.00503","6500100","板橋區"
"220102","KEA-2699","2018/11/06 19:49:07","新北市板橋區松柏街33巷1號","121.47518","25.0303233333333","6500100","板橋區"
"220082","806-UM","2018/11/06 19:48:59","新北市板橋區存德街25號","121.430451666667","24.9916616666667","6500100","板橋區"
"220055","827-TW","2018/11/06 19:49:01","新北市板橋區國慶路212號","121.463585","24.9971483333333","6500100","板橋區"
"220067","829-TW","2018/11/06 19:48:51","新北市板橋區長安街138巷1弄85號","121.47484","25.0113683333333","6500100","板橋區"
"220068","830-TW","2018/11/06 19:49:09","新北市板橋區中山路二段412巷18號","121.483253333333","25.0200083333333","6500100","板橋區"
"220096","831-TW","2018/11/06 19:48:52","新北市板橋區文化路二段124巷36號","121.471475","25.02549","6500100","板橋區"
"220074","895-R6","2018/11/06 19:49:11","新北市板橋區南門街4號","121.457538333333","25.0092183333333","6500100","板橋區"
"220073","985-R7","2018/11/06 19:49:06","新北市板橋區大仁街105號","121.452758333333","25.0157583333333","6500100","板橋區"
"220097","AAC-210","2018/11/06 19:48:58","新北市板橋區文化路一段285巷20號","121.463841666667","25.0193933333333","6500100","板橋區"
"220070","AAC-253","2018/11/06 19:49:00","新北市板橋區民族路107號","121.466788333333","25.0081566666667","6500100","板橋區"
"235068","KEA-2873","2018/11/06 19:48:41","新北市中和區永和路8巷21號","121.50093","25.0035283333333","6500300","中和區"
"235061","KEA-2875","2018/11/06 19:48:50","新北市中和區員山路271-1號","121.481261666667","24.999445","6500300","中和區"
