"lineid","car","time","location","longitude","latitude","cityid","cityname"
"234081","298-R6","2018/11/06 20:18:58","新北市永和區國中路132巷18號","121.524153333333","25.00768","6500400","永和區"
"234038","336-UY","2018/11/06 20:18:57","新北市永和區成功路一段93巷6號","121.527363333333","25.0026833333333","6500400","永和區"
"234064","337-UY","2018/11/06 20:18:59","新北市永和區得和路131號","121.519138333333","25.0001983333333","6500400","永和區"
"234086","338-UY","2018/11/06 20:19:10","新北市永和區豫溪街50號","121.515856666667","25.0099533333333","6500400","永和區"
"234070","552-UM","2018/11/06 20:19:04","新北市永和區福和路263巷13號","121.517991666667","25.006625","6500400","永和區"
"234017","745-BX","2018/11/06 20:18:54","新北市永和區仁愛路42號","121.514185","25.013405","6500400","永和區"
"234030","746-BX","2018/11/06 20:19:06","新北市中和區自強路38巷7號","121.519811666667","24.995425","6500400","永和區"
"234054","KEA-2590","2018/11/06 20:19:00","新北市永和區光復街2巷26弄1號","121.517653333333","25.0165466666667","6500400","永和區"
"234013","KEA-2591","2018/11/06 20:19:01","新北市永和區保生路40巷1號","121.505858333333","25.0081883333333","6500400","永和區"
"234061","AAD-866","2018/11/06 20:19:13","新北市永和區得和路45巷2號","121.516573333333","25.000115","6500400","永和區"
"234042","862-TW","2018/11/06 20:19:07","新北市中和區中安街166號","121.510856666667","25.000065","6500400","永和區"
"234050","863-TW","2018/11/06 20:19:10","新北市永和區環河西路二段61號","121.507016666667","25.0153083333333","6500400","永和區"
"234011","9373-KE","2018/11/06 20:19:08","新北市永和區保生路55-1號","121.50455","25.010885","6500400","永和區"
"249005","172-UM","2018/11/06 20:18:58","新北市八里區下罟子2-15號","121.388398333333","25.1411683333333","6502300","八里區"
"249001","173-UM","2018/11/06 20:19:07","新北市八里區中華路二段341-10號","121.399143333333","25.1450066666667","6502300","八里區"
"249004","303-UY","2018/11/06 20:19:07","新北市八里區中山路一段129巷27號","121.413996666667","25.158595","6502300","八里區"
"249002","305-UY","2018/11/06 20:19:04","新北市八里區龍米路二段26號","121.448846666667","25.1393516666667","6502300","八里區"
"249003","593-UM","2018/11/06 20:19:09","新北市八里區華峰一街71號","121.39821","25.1459833333333","6502300","八里區"
"248012","247-BX","2018/11/06 20:18:57","新北市五股區民義路一段206號","121.430526666667","25.089135","6501500","五股區"
"248004","677-BX","2018/11/06 20:19:05","新北市五股區成泰路一段237-9號","121.436608333333","25.080245","6501500","五股區"
"248002","678-BX","2018/11/06 20:18:59","新北市五股區成泰路三段163號","121.44514","25.0918116666667","6501500","五股區"
"234023","9380-KE","2018/11/06 20:18:55","新北市永和區勵行街2號","121.516003333333","25.014475","6500400","永和區"
"234077","969-R7","2018/11/06 20:19:05","新北市永和區中正路132號","121.514606666667","24.9959316666667","6500400","永和區"
"234074","AAC-211","2018/11/06 20:19:00","新北市永和區竹林路201巷24弄4號","121.52221","25.0096033333333","6500400","永和區"
"234067","AAC-212","2018/11/06 20:18:57","新北市永和區保平路268巷14號","121.507975","25.0059383333333","6500400","永和區"
"234003","AAC-295","2018/11/06 20:18:51","新北市永和區自強街6巷1弄9號","121.514605","25.0079766666667","6500400","永和區"
"244018","403-UM","2018/11/06 20:19:03","新北市林口區粉寮69號","121.40502","25.0908816666667","6501700","林口區"
"243010","267-VK","2018/11/06 20:18:54","新北市泰山區明志路二段254巷14號","121.426123333333","25.0478033333333","6501600","泰山區"
"243013","AAD-798","2018/11/06 20:19:03","新北市泰山區新民路40號","121.427268333333","25.0443066666667","6501600","泰山區"
"243009","297-R6","2018/11/06 20:18:55","新北市泰山區泰林路二段115號","121.434458333333","25.0593483333333","6501600","泰山區"
"243016","KEA-2801","2018/11/06 20:19:09","新北市泰山區明志路三段16號","121.424753333333","25.04325","6501600","泰山區"
"243015","421-VK","2018/11/06 20:19:01","新北市泰山區仁愛路88號","121.43301","25.0552466666667","6501600","泰山區"
"243012","539-UM","2018/11/06 20:18:54","新北市泰山區楓江路83巷3號","121.43682","25.0635883333333","6501600","泰山區"
"243011","KEA-2215","2018/11/06 20:18:59","新北市新莊區壽山路160巷4號","121.41721","25.0315683333333","6501600","泰山區"
"222003","436-BY","2018/11/06 20:19:05","新北市深坑區文化街86號","121.617628333333","25.0019866666667","6501800","深坑區"
"222002","659-BX","2018/11/06 20:19:09","新北市深坑區萬福路75巷48號","121.598258333333","25.0098616666667","6501800","深坑區"
"231041","002-UM","2018/11/06 20:18:56","新北市新店區民權路88號","121.536986666667","24.9829783333333","6500600","新店區"
"231066","0291-UT","2018/11/06 20:18:56","新北市新店區柴埕路60巷15-3號","121.508081666667","24.9655816666667","6500600","新店區"
"231059","046-UY","2018/11/06 20:18:54","新北市新店區安德街60巷13號","121.51059","24.9624466666667","6500600","新店區"
"231040","047-UY","2018/11/06 20:19:08","新北市新店區中正路158號","121.541476666667","24.9717766666667","6500600","新店區"
"231044","106-UY","2018/11/06 20:19:05","新北市新店區北新路三段148號","121.54151","24.98241","6500600","新店區"
"231053","108-UY","2018/11/06 20:18:55","新北市新店區新烏路二段317號","121.549831666667","24.9109633333333","6500600","新店區"
"231048","187-VK","2018/11/06 20:18:50","新北市新店區寶橋路85巷23號","121.545381666667","24.976225","6500600","新店區"
"231054","KEA-2219","2018/11/06 20:18:58","新北市新店區檳榔路111號","121.544551666667","24.9615416666667","6500600","新店區"
"231057","256-BX","2018/11/06 20:19:07","新北市新店區花園十路二段7-6號","121.554235","24.9345266666667","6500600","新店區"
"231042","268-BY","2018/11/06 20:19:01","新北市新店區寶興路42巷37號","121.547648333333","24.9717833333333","6500600","新店區"
"231051","278-BY","2018/11/06 20:19:01","新北市新店區中央六街85號","121.52655","24.9766916666667","6500600","新店區"
"231050","AAD-862","2018/11/06 20:19:05","新北市新店區博愛街13巷1號","121.541055","24.973305","6500600","新店區"
"231058","3713-VJ","2018/11/06 20:18:54","新北市新店區中央二街81號","121.525711666667","24.9749833333333","6500600","新店區"
"231056","4715-K9","2018/11/06 20:19:08","新北市新店區中正路302巷12號","121.537973333333","24.9751916666667","6500600","新店區"
"231067","4772-VM","2018/11/06 20:19:05","新北市新店區安康路一段72號","121.528358333333","24.9619133333333","6500600","新店區"
"231065","512-UM","2018/11/06 20:19:07","新北市新店區安祥路104巷6弄36號","121.483103333333","24.9629483333333","6500600","新店區"
"231049","513-UM","2018/11/06 20:18:50","新北市新店區北新路一段128-3號","121.542215","24.96986","6500600","新店區"
"231061","619-UM","2018/11/06 20:19:09","新北市新店區安民街133巷26號","121.515368333333","24.96963","6500600","新店區"
"231063","641-BX","2018/11/06 20:19:07","新北市新店區柴埕路116號","121.504548333333","24.9596233333333","6500600","新店區"
"231068","718-UY","2018/11/06 20:18:57","新北市新店區寶安街30號","121.542045","24.9823516666667","6500600","新店區"
"231064","719-UM","2018/11/06 20:18:51","新北市新店區安利街16-1號","121.519455","24.9741366666667","6500600","新店區"
"231062","720-UM","2018/11/06 20:19:08","新北市新店區安康路二段310號","121.505735","24.958135","6500600","新店區"
"231060","897-TW","2018/11/06 20:19:05","新北市新店區錦秀路11巷96弄2號","121.480135","24.94217","6500600","新店區"
"231045","898-TW","2018/11/06 20:19:03","新北市新店區新坡一街84號","121.548211666667","24.961955","6500600","新店區"
"231043","899-TW","2018/11/06 20:18:55","新北市新店區建國路133號","121.539306666667","24.9781633333333","6500600","新店區"
"231055","AKT-0513","2018/11/06 20:19:05","新北市新店區安康路一段3-1號","121.534875","24.9609016666667","6500600","新店區"
"241011","013-R5","2018/11/06 20:19:04","新北市三重區龍濱路196號","121.501076666667","25.0733116666667","6500200","三重區"
"241028","022-UY","2018/11/06 20:19:04","新北市三重區大同南路135號","121.496535","25.0577","6500200","三重區"
"241008","059-VK","2018/11/06 20:19:06","新北市三重區永福街211巷1號","121.479786666667","25.0741683333333","6500200","三重區"
"241022","060-VK","2018/11/06 20:19:06","新北市三重區新北大道一段32號","121.488261666667","25.06146","6500200","三重區"
"241031","061-VK","2018/11/06 20:19:00","新北市三重區三寧街18號","121.489353333333","25.059805","6500200","三重區"
"241015","062-VK","2018/11/06 20:19:08","新北市三重區重新路一段120號","121.500451666667","25.0629183333333","6500200","三重區"
"241017","063-VK","2018/11/06 20:19:09","新北市三重區長壽西街182號","121.492851666667","25.06631","6500200","三重區"
"241024","065-VK","2018/11/06 20:18:52","新北市三重區中正北路242號","121.48172","25.06797","6500200","三重區"
"241026","066-VK","2018/11/06 20:19:04","新北市三重區福德南路23號","121.502746666667","25.0628016666667","6500200","三重區"
"241002","090-VK","2018/11/06 20:19:03","新北市三重區仁義街101巷42號","121.499145","25.080825","6500200","三重區"
"241003","091-VK","2018/11/06 20:18:57","新北市三重區富華街43號","121.490798333333","25.0832383333333","6500200","三重區"
"241005","262-UM","2018/11/06 20:19:04","新北市三重區分子尾街85號","121.488856666667","25.0825883333333","6500200","三重區"
"241023","265-UM","2018/11/06 20:18:58","新北市三重區頂崁街157號","121.478471666667","25.0649333333333","6500200","三重區"
"241009","267-UM","2018/11/06 20:19:12","新北市三重區三和路四段382巷42號","121.481361666667","25.07846","6500200","三重區"
"241018","268-UM","2018/11/06 20:19:12","新北市三重區自強路一段157號","121.493391666667","25.0671566666667","6500200","三重區"
"241032","269-UM","2018/11/06 20:19:09","新北市三重區捷運路19巷8弄20號","121.484166666667","25.057065","6500200","三重區"
"241013","270-UM","2018/11/06 20:19:04","新北市三重區三和路三段167巷53號","121.49378","25.0746566666667","6500200","三重區"
"241025","271-UM","2018/11/06 20:19:00","新北市三重區頂崁街210巷2號","121.477238333333","25.0673766666667","6500200","三重區"
"241007","398-BY","2018/11/06 20:19:09","新北市三重區溪尾街108巷51號","121.487686666667","25.0782933333333","6500200","三重區"
"241035","KEA-2210","2018/11/06 20:18:52","新北市三重區正義北路33巷9號","121.497973333333","25.063705","6500200","三重區"
"241004","475-VK","2018/11/06 20:19:01","新北市三重區慈愛街199號","121.490888333333","25.0807266666667","6500200","三重區"
"241020","478-VK","2018/11/06 20:18:54","新北市三重區忠孝路一段21巷11-1號","121.491731666667","25.0727483333333","6500200","三重區"
"241014","543-UM","2018/11/06 20:19:00","新北市三重區龍濱路281-2號","121.501238333333","25.0734866666667","6500200","三重區"
"241001","547-UM","2018/11/06 20:18:54","新北市三重區自強路四段31巷7號","121.489711666667","25.0766566666667","6500200","三重區"
"241019","KEA-2593","2018/11/06 20:19:12","新北市三重區忠孝路一段68號","121.490125","25.0719233333333","6500200","三重區"
"241006","AAD-863","2018/11/06 20:19:10","新北市三重區車路頭街135-1號","121.48427","25.076165","6500200","三重區"
"241030","743-BX","2018/11/06 20:19:04","新北市三重區環河南路254巷53號","121.48798","25.0522716666667","6500200","三重區"
"241012","941-UM","2018/11/06 20:18:59","新北市三重區河邊北街262號","121.501676666667","25.07644","6500200","三重區"
"241029","942-UM","2018/11/06 20:18:54","新北市三重區光明路121號","121.492313333333","25.0566416666667","6500200","三重區"
"241033","AAC-255","2018/11/06 20:18:57","新北市三重區五谷王北街50巷2號","121.47597","25.05131","6500200","三重區"
"235066","003-UY","2018/11/06 20:18:52","新北市中和區水源路122號","121.507206666667","25.003305","6500300","中和區"
"235039","097-UM","2018/11/06 20:18:52","新北市中和區大勇街25巷38弄13號","121.516228333333","24.99415","6500300","中和區"
"235065","098-UM","2018/11/06 20:19:10","新北市中和區永和路128巷9號","121.497675","25.0069366666667","6500300","中和區"
"235040","150-BY","2018/11/06 20:18:54","新北市中和區安平路65號","121.509831666667","24.9956666666667","6500300","中和區"
"247012","KEA-2869","2018/11/06 20:19:04","新北市蘆洲區中興街34號","121.481066666667","25.0869633333333","6501400","蘆洲區"
"235050","4979-A6","2018/11/06 20:19:04","新北市中和區景新街274巷22號","121.510198333333","24.9919733333333","6500300","中和區"
"235069","4980-A6","2018/11/06 20:18:56","新北市中和區中正路436號","121.4911","24.9941816666667","6500300","中和區"
"235054","640-BX","2018/11/06 20:18:58","新北市五股區凌雲路三段24巷22號","121.432323333333","25.10797","6500300","中和區"
"235059","AAC-215","2018/11/06 20:19:03","新北市中和區圓通路367巷13弄39號","121.493476666667","24.98793","6500300","中和區"
"247002","893-R6","2018/11/06 20:19:01","新北市蘆洲區長安街331巷21號","121.45581","25.086545","6501400","蘆洲區"
"247016","546-UM","2018/11/06 20:18:58","新北市蘆洲區光華路132巷7號","121.466025","25.0829583333333","6501400","蘆洲區"
"247024","500-BY","2018/11/06 20:19:03","新北市蘆洲區光榮路120巷8弄41號","121.464535","25.0879433333333","6501400","蘆洲區"
"247006","337-TH","2018/11/06 20:19:07","新北市蘆洲區九芎街153巷4號","121.465248333333","25.0789466666667","6501400","蘆洲區"
"247008","336-TH","2018/11/06 20:19:03","新北市蘆洲區集賢路240號","121.481941666667","25.085655","6501400","蘆洲區"
"247020","057-VK","2018/11/06 20:18:51","新北市蘆洲區仁愛街59號","121.471821666667","25.0933866666667","6501400","蘆洲區"
"247010","056-VK","2018/11/06 20:18:59","新北市蘆洲區信義路190號","121.479135","25.0843516666667","6501400","蘆洲區"
"247018","007-UY","2018/11/06 20:18:57","新北市蘆洲區民族路255巷13號","121.476428333333","25.0900433333333","6501400","蘆洲區"
"247004","002-UY","2018/11/06 20:19:01","新北市蘆洲區永康街1巷10號","121.459608333333","25.0856466666667","6501400","蘆洲區"
"247022","001-UY","2018/11/06 20:19:13","新北市蘆洲區民族路431號","121.467995","25.089145","6501400","蘆洲區"
"222001","KEA-2212","2018/11/06 20:19:05","新北市深坑區北深路三段247號","121.599436666667","25.0043383333333","6501800","深坑區"
"251002","012-UM","2018/11/06 20:19:02","新北市淡水區中正路232號","121.438978333333","25.1708833333333","6501000","淡水區"
"251013","KEA-2871","2018/11/06 20:18:51","新北市淡水區相公山2號","121.474633333333","25.2065466666667","6501000","淡水區"
"251016","179-VK","2018/11/06 20:19:01","新北市淡水區淡金路五段14-8號","121.453391666667","25.2323583333333","6501000","淡水區"
"251014","180-VK","2018/11/06 20:19:08","新北市淡水區石頭厝1號","121.45873","25.2355466666667","6501000","淡水區"
"251008","181-VK","2018/11/06 20:18:59","新北市淡水區淡海路150巷19號","121.422255","25.1844633333333","6501000","淡水區"
"251015","182-VK","2018/11/06 20:19:08","新北市淡水區淡金路三段461巷11-3號","121.450636666667","25.2137716666667","6501000","淡水區"
"251010","413-VK","2018/11/06 20:19:00","新北市淡水區新民街一段134號","121.427615","25.188865","6501000","淡水區"
"251012","441-VK","2018/11/06 20:19:11","新北市淡水區下圭柔山431-1號","121.449818333333","25.2102233333333","6501000","淡水區"
"251004","443-VK","2018/11/06 20:19:02","新北市淡水區民生路124巷21號","121.464218333333","25.1376583333333","6501000","淡水區"
"251001","559-UM","2018/11/06 20:19:07","新北市淡水區淡金路二段15號","121.446088333333","25.1891983333333","6501000","淡水區"
"251006","561-UM","2018/11/06 20:18:52","新北市淡水區北新路169巷2號","121.450326666667","25.1794633333333","6501000","淡水區"
"251009","575-R6","2018/11/06 20:18:58","新北市淡水區中正路38-1號","121.443751666667","25.1692716666667","6501000","淡水區"
"251003","766-UM","2018/11/06 20:18:51","新北市淡水區中山北路一段229號","121.444478333333","25.17954","6501000","淡水區"
"207004","225-TW","2018/11/06 20:18:52","新北市萬里區北基里大仁路5號","121.682103333333","25.1753266666667","6502800","萬里區"
"252002","178-VK","2018/11/06 20:19:09","新北市三芝區中正路一段35號","121.503145","25.2584016666667","6502100","三芝區"
"252001","292-VK","2018/11/06 20:19:06","新北市三芝區中山路一段14號","121.500645","25.25804","6502100","三芝區"
"237006","5529-G3","2018/11/06 20:18:58","新北市三峽區中正路二段60號","121.366673333333","24.91861","6500900","三峽區"
"237016","649-BX","2018/11/06 20:18:54","新北市三峽區介壽路二段138巷1弄148-2號","121.399416666667","24.930425","6500900","三峽區"
"236070","105-UM","2018/11/06 20:19:02","新北市土城區中山路53號","121.422471666667","24.9631833333333","6501300","土城區"
"236030","253-BX","2018/11/06 20:18:57","新北市土城區學成路128巷13弄2號","121.449566666667","24.9901433333333","6501300","土城區"
"236026","269-VK","2018/11/06 20:19:06","新北市土城區中央路一段249巷12號","121.44589","24.9855416666667","6501300","土城區"
"236014","270-VK","2018/11/06 20:19:00","新北市土城區廣明街90巷18號","121.455436666667","24.994505","6501300","土城區"
"236059","912-UM","2018/11/06 20:18:51","新北市土城區大安路101-5號","121.433403333333","24.968405","6501300","土城區"
"242037","AAC-296","2018/11/06 20:19:05","新北市新莊區後港一路76巷14弄2號","121.427336666667","25.025555","6500500","新莊區"
"242058","986-R7","2018/11/06 20:18:55","新北市新莊區龍安路266巷11號","121.421451666667","25.0187783333333","6500500","新莊區"
"242056","751-BX","2018/11/06 20:18:57","新北市新莊區豐年街28巷21號","121.445576666667","25.0323483333333","6500500","新莊區"
"242027","615-BX","2018/11/06 20:19:01","新北市新莊區幸福路554號","121.454845","25.0493233333333","6500500","新莊區"
"242025","613-BX","2018/11/06 20:19:04","新北市新莊區五工一路80巷21號","121.461293333333","25.06686","6500500","新莊區"
"242029","612-BX","2018/11/06 20:19:13","新北市新莊區中華路二段201號","121.452281666667","25.0526883333333","6500500","新莊區"
"242044","566-BX","2018/11/06 20:19:00","新北市新莊區中正路新建巷28弄20號","121.41359","25.0214066666667","6500500","新莊區"
"242048","497-BY","2018/11/06 20:19:11","新北市新莊區成功街168號","121.422976666667","25.0168666666667","6500500","新莊區"
"242007","442-UM","2018/11/06 20:19:00","新北市新莊區福壽街124巷34弄15號","121.459365","25.0506416666667","6500500","新莊區"
"242054","441-UM","2018/11/06 20:19:06","新北市新莊區西盛街367號","121.428008333333","25.0136283333333","6500500","新莊區"
"242039","415-TV","2018/11/06 20:19:09","新北市新莊區龍安路437號","121.424206666667","25.0186833333333","6500500","新莊區"
"242009","413-TV","2018/11/06 20:19:06","新北市新莊區昌隆街58巷1弄1號","121.454895","25.050475","6500500","新莊區"
"242023","362-BY","2018/11/06 20:19:04","新北市新莊區化成路832號","121.464925","25.0601783333333","6500500","新莊區"
"242061","353-BY","2018/11/06 20:19:06","新北市新莊區新樹路208號","121.43399","25.0205783333333","6500500","新莊區"
"242011","132-UY","2018/11/06 20:19:00","新北市新莊區中信街21號","121.451003333333","25.0506433333333","6500500","新莊區"
"242042","133-UY","2018/11/06 20:19:09","新北市新莊區壽山路49-2號","121.41443","25.0311283333333","6500500","新莊區"
"242034","135-UY","2018/11/06 20:19:11","新北市新莊區新泰路199巷4號","121.446731666667","25.0381016666667","6500500","新莊區"
"242051","172-VK","2018/11/06 20:19:13","新北市新莊區民安西路215號","121.426143333333","25.0145433333333","6500500","新莊區"
"242013","173-VK","2018/11/06 20:19:11","新北市新莊區中和街155巷2號","121.447216666667","25.0497583333333","6500500","新莊區"
"242019","175-VK","2018/11/06 20:19:00","新北市新莊區復興路二段196巷1號","121.459381666667","25.0440716666667","6500500","新莊區"
"242046","347-TH","2018/11/06 20:19:09","新北市新莊區裕民街90巷17號","121.417611666667","25.0237833333333","6500500","新莊區"
"242032","348-TH","2018/11/06 20:18:55","新北市新莊區三和路17-4號","121.438796666667","25.0377833333333","6500500","新莊區"
"242005","349-TH","2018/11/06 20:19:09","新北市新莊區頭前路20號","121.467978333333","25.0525616666667","6500500","新莊區"
"242021","350-TH","2018/11/06 20:19:09","新北市新莊區新泰路131號","121.44828","25.0363133333333","6500500","新莊區"
"221008","489-VK","2018/11/06 20:18:56","新北市汐止區康寧街334號","121.62764","25.06747","6501100","汐止區"
"221036","130-UY","2018/11/06 20:19:06","新北市汐止區福安街57巷1號","121.663655","25.06391","6501100","汐止區"
"221015","131-UY","2018/11/06 20:19:01","新北市汐止區建成路142巷19弄12號","121.661978333333","25.0739683333333","6501100","汐止區"
"221010","269-BY","2018/11/06 20:18:53","新北市汐止區八連路二段616號","121.625323333333","25.10979","6501100","汐止區"
"221012","278-VK","2018/11/06 20:19:02","新北市汐止區保新街158號","121.689785","25.0682416666667","6501100","汐止區"
"221023","279-VK","2018/11/06 20:18:14","新北市汐止區明峰街117號","121.631103333333","25.0710733333333","6501100","汐止區"
"221032","280-BY","2018/11/06 20:19:03","新北市汐止區民權街二段79-1號","121.619308333333","25.0484566666667","6501100","汐止區"
"221027","281-BY","2018/11/06 20:19:10","新北市汐止區大同路二段403號","121.658188333333","25.06724","6501100","汐止區"
"221029","298-VK","2018/11/06 20:19:09","新北市汐止區樟樹一路99巷7弄10號","121.64107","25.06339","6501100","汐止區"
"221021","299-VK","2018/11/06 20:19:02","新北市汐止區水源路一段286號","121.654248333333","25.0582116666667","6501100","汐止區"
"221031","353-TW","2018/11/06 20:18:56","新北市汐止區中興路150巷13號","121.632943333333","25.06497","6501100","汐止區"
"221035","622-UM","2018/11/06 20:19:10","新北市汐止區長江街101-5號","121.658726666667","25.073195","6501100","汐止區"
"221025","623-UM","2018/11/06 20:19:06","新北市汐止區水源路二段32號","121.654856666667","25.0572633333333","6501100","汐止區"
"221038","646-BX","2018/11/06 20:19:04","新北市汐止區忠孝東路428-3號","121.666123333333","25.0721166666667","6501100","汐止區"
"221033","647-BX","2018/11/06 20:19:02","新北市汐止區東勢街201巷96號","121.633821666667","25.043075","6501100","汐止區"
"221002","707-TV","2018/11/06 20:19:08","新北市汐止區福德三路20號","121.637251666667","25.0694066666667","6501100","汐止區"
"221018","753-BX","2018/11/06 20:19:02","新北市汐止區茄安路16號","121.673171666667","25.0679433333333","6501100","汐止區"
"220083","286-VK","2018/11/06 20:19:09","新北市板橋區僑中二街102巷8號","121.445766666667","25.0084383333333","6500100","板橋區"
"220081","287-VK","2018/11/06 20:19:01","新北市板橋區僑中一街102巷5弄2號","121.446778333333","25.0126216666667","6500100","板橋區"
"220061","295-UM","2018/11/06 20:19:02","新北市板橋區中山路一段49號","121.460805","25.0090866666667","6500100","板橋區"
"242002","281-VK","2018/11/06 20:19:03","新北市新莊區化成路102號","121.465253333333","25.0442516666667","6500500","新莊區"
"220092","307-R5","2018/11/06 20:19:02","新北市板橋區民權路174號","121.459568333333","25.013295","6500100","板橋區"
"220089","487-VK","2018/11/06 20:18:52","新北市板橋區四維路133號","121.464971666667","25.025155","6500100","板橋區"
"242015","280-VK","2018/11/06 20:18:54","新北市新莊區中和街54號","121.44808","25.04459","6500500","新莊區"
"220103","561-BX","2018/11/06 20:18:57","新北市板橋區陽明街46-5號","121.465531666667","25.0220116666667","6500100","板橋區"
"220102","KEA-2699","2018/11/06 20:19:07","新北市板橋區文化路一段241號","121.46418","25.01783","6500100","板橋區"
"220055","827-TW","2018/11/06 20:19:01","新北市板橋區仁愛路23號","121.458938333333","24.99943","6500100","板橋區"
"220074","895-R6","2018/11/06 20:19:10","新北市板橋區南雅南路一段7巷20號","121.456215","25.0050083333333","6500100","板橋區"
"220073","985-R7","2018/11/06 20:19:05","新北市五股區凌雲路三段24巷21-26號","121.433286666667","25.107745","6500100","板橋區"
"220097","AAC-210","2018/11/06 20:18:58","新北市板橋區光正街45巷6弄15號","121.461125","25.0169783333333","6500100","板橋區"
"220070","AAC-253","2018/11/06 20:19:00","新北市板橋區四川路二段245巷20號","121.451081666667","24.99292","6500100","板橋區"
"235068","KEA-2873","2018/11/06 20:19:11","新北市中和區勝利路35巷1弄35號","121.500206666667","25.0078583333333","6500300","中和區"
