"lineid","car","time","location","longitude","latitude","cityid","cityname"
"234074","AAC-211","2018/11/06 20:49:00","新北市永和區環河東路二段10號","121.522151666667","25.0133533333333","6500400","永和區"
"244018","403-UM","2018/11/06 20:49:03","新北市林口區粉寮69號","121.404968333333","25.0908766666667","6501700","林口區"
"222003","436-BY","2018/11/06 20:49:05","新北市深坑區文山路三段48-1號","121.609986666667","24.9985516666667","6501800","深坑區"
"222002","659-BX","2018/11/06 20:49:09","新北市深坑區北深路三段93巷40號","121.604588333333","25.0004366666667","6501800","深坑區"
"231066","0291-UT","2018/11/06 20:48:56","新北市新店區安興路112號","121.514621666667","24.9776183333333","6500600","新店區"
"231059","046-UY","2018/11/06 20:48:54","新北市新店區僑愛三路7號","121.49976","24.94462","6500600","新店區"
"231040","047-UY","2018/11/06 20:49:08","新北市新店區中正路253號","121.538948333333","24.97346","6500600","新店區"
"231044","106-UY","2018/11/06 20:49:00","新北市新店區中正路358號","121.535671666667","24.9757433333333","6500600","新店區"
"231053","108-UY","2018/11/06 20:48:55","新北市新店區永興路12號","121.545253333333","24.9398466666667","6500600","新店區"
"231048","187-VK","2018/11/06 20:49:10","新北市新店區寶元路一段109號","121.545716666667","24.983105","6500600","新店區"
"231054","KEA-2219","2018/11/06 20:48:58","新北市新店區中正路75巷71號","121.54305","24.9689","6500600","新店區"
"231057","256-BX","2018/11/06 20:48:58","新北市新店區新烏路一段3號","121.547408333333","24.9518433333333","6500600","新店區"
"231042","268-BY","2018/11/06 20:49:01","新北市新店區寶高路120巷1號","121.554593333333","24.9760816666667","6500600","新店區"
"231051","278-BY","2018/11/06 20:49:01","新北市新店區中正路663巷1弄8號","121.533056666667","24.9901516666667","6500600","新店區"
"231050","AAD-862","2018/11/06 20:49:05","新北市新店區三民路117巷3弄1號","121.534523333333","24.9716683333333","6500600","新店區"
"231058","3713-VJ","2018/11/06 20:48:54","新北市新店區三民路60巷15號","121.535575","24.97279","6500600","新店區"
"231067","4772-VM","2018/11/06 20:49:05","新北市新店區安華路28-1號","121.519845","24.96086","6500600","新店區"
"231065","512-UM","2018/11/06 20:49:07","新北市新店區安祥路69巷1號","121.482165","24.9619933333333","6500600","新店區"
"231049","513-UM","2018/11/06 20:49:10","新北市新店區華潭街24號","121.529276666667","24.95335","6500600","新店區"
"231061","619-UM","2018/11/06 20:49:09","新北市新店區新和街97號","121.521176666667","24.986555","6500600","新店區"
"231063","641-BX","2018/11/06 20:49:07","新北市新店區如意街15號","121.494748333333","24.9481566666667","6500600","新店區"
"231068","718-UY","2018/11/06 20:49:04","新北市新店區中興路三段228巷28號","121.544725","24.983515","6500600","新店區"
"231064","719-UM","2018/11/06 20:49:11","新北市新店區安民街365巷12號","121.51602","24.9756866666667","6500600","新店區"
"231062","720-UM","2018/11/06 20:49:08","新北市新店區和成街19巷15號","121.487573333333","24.94625","6500600","新店區"
"231060","897-TW","2018/11/06 20:49:05","新北市新店區安康路三段628號","121.47817","24.9455666666667","6500600","新店區"
"231045","898-TW","2018/11/06 20:49:03","新北市新店區檳榔路2號","121.540931666667","24.9649183333333","6500600","新店區"
"231043","899-TW","2018/11/06 20:48:55","新北市新店區建國路99巷1號","121.540398333333","24.97711","6500600","新店區"
"241011","013-R5","2018/11/06 20:49:04","新北市三重區龍濱路219巷43號","121.503058333333","25.072485","6500200","三重區"
"241028","022-UY","2018/11/06 20:49:04","新北市三重區中正南路40號","121.493838333333","25.0601216666667","6500200","三重區"
"241008","059-VK","2018/11/06 20:49:06","新北市三重區永福街72巷11號","121.479366666667","25.0767833333333","6500200","三重區"
"241022","060-VK","2018/11/06 20:49:06","新北市三重區過圳街27-5號","121.48797","25.0624133333333","6500200","三重區"
"241031","061-VK","2018/11/06 20:49:00","新北市三重區重陽路一段113巷3號","121.48754","25.0598033333333","6500200","三重區"
"241015","062-VK","2018/11/06 20:49:08","新北市三重區自強路一段8號","121.49881","25.0682333333333","6500200","三重區"
"241017","063-VK","2018/11/06 20:49:09","新北市三重區民生街1號","121.491936666667","25.0674866666667","6500200","三重區"
"241024","065-VK","2018/11/06 20:48:52","新北市三重區忠孝路三段2號","121.481943333333","25.06767","6500200","三重區"
"241026","066-VK","2018/11/06 20:49:04","新北市三重區和平街1號","121.50017","25.06235","6500200","三重區"
"241002","090-VK","2018/11/06 20:49:03","新北市三重區仁義街157巷50號","121.498218333333","25.0815666666667","6500200","三重區"
"241003","091-VK","2018/11/06 20:48:57","新北市三重區五華街141巷60號","121.493528333333","25.0867333333333","6500200","三重區"
"241005","262-UM","2018/11/06 20:49:04","新北市三重區五華街141巷26號","121.49193","25.0854233333333","6500200","三重區"
"241023","265-UM","2018/11/06 20:48:58","新北市三重區忠孝路三段84巷1號","121.480323333333","25.064685","6500200","三重區"
"241016","266-UM","2018/11/06 20:49:12","新北市三重區自強路一段91號","121.49597","25.06638","6500200","三重區"
"241009","267-UM","2018/11/06 20:48:56","新北市三重區三和路四段388-2號","121.482118333333","25.07909","6500200","三重區"
"241018","268-UM","2018/11/06 20:49:12","新北市三重區正義北路239號","121.495855","25.0692483333333","6500200","三重區"
"241032","269-UM","2018/11/06 20:49:09","新北市三重區重陽路一段120巷48號","121.485066666667","25.06017","6500200","三重區"
"241013","270-UM","2018/11/06 20:49:04","新北市三重區仁賢街12-1號","121.4957","25.0749166666667","6500200","三重區"
"241025","271-UM","2018/11/06 20:48:59","新北市三重區貴陽街14號","121.484231666667","25.06187","6500200","三重區"
"241007","398-BY","2018/11/06 20:49:09","新北市三重區慈愛街8號","121.484516666667","25.0784016666667","6500200","三重區"
"241035","KEA-2210","2018/11/06 20:48:52","新北市三重區三和路三段8號","121.497178333333","25.0699983333333","6500200","三重區"
"241004","475-VK","2018/11/06 20:49:01","新北市三重區分子尾街19號","121.48956","25.0810216666667","6500200","三重區"
"241020","478-VK","2018/11/06 20:48:54","新北市三重區忠孝路一段101號","121.489471666667","25.072185","6500200","三重區"
"241014","543-UM","2018/11/06 20:49:00","新北市三重區萬全街71號","121.501363333333","25.0702883333333","6500200","三重區"
"241001","547-UM","2018/11/06 20:48:54","新北市三重區三和路四段120號","121.489345","25.0749233333333","6500200","三重區"
"241019","KEA-2593","2018/11/06 20:48:52","新北市三重區大智街190號","121.490361666667","25.07075","6500200","三重區"
"241006","AAD-863","2018/11/06 20:49:10","新北市三重區車路頭街139巷12號","121.484233333333","25.07622","6500200","三重區"
"241030","743-BX","2018/11/06 20:49:04","新北市三重區昌隆街26號","121.492013333333","25.0522433333333","6500200","三重區"
"241012","941-UM","2018/11/06 20:48:59","新北市三重區仁信街29號","121.501248333333","25.07555","6500200","三重區"
"241029","942-UM","2018/11/06 20:49:13","新北市三重區重安街14號","121.490335","25.05819","6500200","三重區"
"241033","AAC-255","2018/11/06 20:48:57","新北市三重區光復路二段4號","121.472005","25.0536733333333","6500200","三重區"
"247012","KEA-2869","2018/11/06 20:49:04","新北市蘆洲區集賢路222-6號","121.482511666667","25.08661","6501400","蘆洲區"
"235069","4980-A6","2018/11/06 20:48:55","新北市中和區連城路469巷44弄20號","121.482735","24.99401","6500300","中和區"
"247002","893-R6","2018/11/06 20:49:01","新北市蘆洲區永康街30號","121.458641666667","25.08552","6501400","蘆洲區"
"247016","546-UM","2018/11/06 20:48:58","新北市蘆洲區中正路69號","121.470458333333","25.0827383333333","6501400","蘆洲區"
"247024","500-BY","2018/11/06 20:49:03","新北市蘆洲區長樂路118號","121.462025","25.0900883333333","6501400","蘆洲區"
"247014","339-TH","2018/11/06 20:49:08","新北市蘆洲區三民路95號","121.473943333333","25.08487","6501400","蘆洲區"
"247006","337-TH","2018/11/06 20:49:07","新北市蘆洲區永安南路二段16巷8號","121.467785","25.0772066666667","6501400","蘆洲區"
"247008","336-TH","2018/11/06 20:49:03","新北市三重區三和路四段237號","121.480906666667","25.0803533333333","6501400","蘆洲區"
"247020","057-VK","2018/11/06 20:49:11","新北市蘆洲區仁愛街60號","121.471551666667","25.09382","6501400","蘆洲區"
"247010","056-VK","2018/11/06 20:48:59","新北市蘆洲區民族路3號","121.475538333333","25.08394","6501400","蘆洲區"
"247004","002-UY","2018/11/06 20:49:01","新北市蘆洲區長安街100號","121.46166","25.0808666666667","6501400","蘆洲區"
"247022","001-UY","2018/11/06 20:49:13","新北市蘆洲區民權路131巷10號","121.471325","25.0899233333333","6501400","蘆洲區"
"222001","KEA-2212","2018/11/06 20:49:05","新北市深坑區北深路三段129號","121.604023333333","25.0025083333333","6501800","深坑區"
"251005","010-UM","2018/11/06 20:49:08","新北市淡水區學府路17號","121.447586666667","25.1683916666667","6501000","淡水區"
"251002","012-UM","2018/11/06 20:49:02","新北市淡水區中正東路6號","121.446983333333","25.16706","6501000","淡水區"
"251013","KEA-2871","2018/11/06 20:49:11","新北市淡水區行忠路100號","121.45208","25.198635","6501000","淡水區"
"251016","179-VK","2018/11/06 20:49:01","新北市淡水區興仁路165號","121.451491666667","25.2200816666667","6501000","淡水區"
"251014","180-VK","2018/11/06 20:49:08","新北市淡水區公埔子32-8號","121.461656666667","25.2323683333333","6501000","淡水區"
"251015","182-VK","2018/11/06 20:32:09","新北市淡水區淡金路四段542巷17號","121.452786666667","25.2271033333333","6501000","淡水區"
"251010","413-VK","2018/11/06 20:49:00","新北市淡水區沙崙路126號","121.423415","25.1829166666667","6501000","淡水區"
"251012","441-VK","2018/11/06 20:49:11","新北市淡水區淡金路四段508號","121.452098333333","25.2255516666667","6501000","淡水區"
"251007","442-VK","2018/11/06 20:49:04","新北市淡水區鄧公路23巷2號","121.451298333333","25.17011","6501000","淡水區"
"251001","559-UM","2018/11/06 20:49:07","新北市淡水區淡金路218號","121.460516666667","25.1672233333333","6501000","淡水區"
"251009","575-R6","2018/11/06 20:48:58","新北市淡水區民權路187巷17號","121.460365","25.133475","6501000","淡水區"
"251011","650-BX","2018/11/06 20:49:02","新北市淡水區新民街一段13-1號","121.432961666667","25.18453","6501000","淡水區"
"251003","766-UM","2018/11/06 20:48:51","新北市淡水區中山北路一段247巷90號","121.442391666667","25.1793316666667","6501000","淡水區"
"242037","AAC-296","2018/11/06 20:49:14","新北市新莊區新北大道四段261號","121.442438333333","25.05623","6500500","新莊區"
"242027","615-BX","2018/11/06 20:49:01","新北市五股區新城八路20號","121.44802","25.0896166666667","6500500","新莊區"
"242029","612-BX","2018/11/06 20:48:52","新北市新莊區幸福東路66號","121.464948333333","25.0493666666667","6500500","新莊區"
"242044","566-BX","2018/11/06 20:49:00","新北市新莊區民安路31號","121.423191666667","25.0275316666667","6500500","新莊區"
"242054","441-UM","2018/11/06 20:49:06","新北市新莊區新樹路237號","121.435113333333","25.022495","6500500","新莊區"
"242039","415-TV","2018/11/06 20:49:09","新北市新莊區瓊林路170-1號","121.441146666667","25.0236433333333","6500500","新莊區"
"242009","413-TV","2018/11/06 20:49:06","新北市新莊區思源路81號","121.459868333333","25.0411183333333","6500500","新莊區"
"242023","362-BY","2018/11/06 20:48:44","新北市三重區興德路133號","121.470126666667","25.05268","6500500","新莊區"
"242011","132-UY","2018/11/06 20:49:00","新北市泰山區新五路一段131號","121.439831666667","25.0629783333333","6500500","新莊區"
"242042","133-UY","2018/11/06 20:49:09","新北市新莊區天祥街3號","121.417161666667","25.02725","6500500","新莊區"
"242051","172-VK","2018/11/06 20:49:01","新北市新莊區新樹路72-5號","121.43658","25.0252183333333","6500500","新莊區"
"242017","346-TH","2018/11/06 20:48:59","新北市泰山區新五路一段131號","121.439823333333","25.06298","6500500","新莊區"
"242005","349-TH","2018/11/06 20:49:08","新北市五股區新城八路1號","121.447831666667","25.088775","6500500","新莊區"
"221036","130-UY","2018/11/06 20:49:05","新北市汐止區水源路一段56-1號","121.656845","25.065425","6501100","汐止區"
"221027","281-BY","2018/11/06 20:49:05","新北市汐止區大同路二段364號","121.657408333333","25.0672333333333","6501100","汐止區"
"221029","298-VK","2018/11/06 20:49:09","新北市汐止區樟樹二路351號","121.643245","25.0738066666667","6501100","汐止區"
"221035","622-UM","2018/11/06 20:49:10","新北市汐止區汐萬路一段256巷1號","121.65179","25.0748566666667","6501100","汐止區"
"221038","646-BX","2018/11/06 20:49:04","新北市汐止區汐萬路一段256巷1號","121.652015","25.07466","6501100","汐止區"
"221033","647-BX","2018/11/06 20:48:56","新北市汐止區合順街18巷8弄5號","121.620363333333","25.041935","6501100","汐止區"
"221002","707-TV","2018/11/06 20:49:08","新北市汐止區福德二路193-1號","121.629381666667","25.064525","6501100","汐止區"
"221018","753-BX","2018/11/06 20:49:02","新北市汐止區茄苳路2巷1號","121.664403333333","25.0707366666667","6501100","汐止區"
"242002","281-VK","2018/11/06 20:49:03","新北市新莊區中正路145-14號","121.458706666667","25.0377883333333","6500500","新莊區"
"242015","280-VK","2018/11/06 20:48:54","新北市新莊區復興路一段8號","121.445676666667","25.0414683333333","6500500","新莊區"
"220070","AAC-253","2018/11/06 20:49:00","新北市樹林區八德街491-8號","121.40253","24.9692916666667","6500100","板橋區"
