"lineid","car","time","location","longitude","latitude","cityid","cityname"
"244018","403-UM","2018/11/06 20:56:47","新北市林口區粉寮69號","121.404978333333","25.090875","6501700","林口區"
"231066","0291-UT","2018/11/06 20:58:56","新北市新店區吉安街14號","121.516738333333","24.9657416666667","6500600","新店區"
"231059","046-UY","2018/11/06 20:58:54","新北市新店區僑信路63號","121.499521666667","24.9486883333333","6500600","新店區"
"231040","047-UY","2018/11/06 20:59:08","新北市新店區中正路153號","121.541358333333","24.9717833333333","6500600","新店區"
"231053","108-UY","2018/11/06 20:58:55","新北市新店區環河路14-3號","121.537921666667","24.9616116666667","6500600","新店區"
"231048","187-VK","2018/11/06 20:59:10","新北市新店區寶元路一段109號","121.545695","24.9830883333333","6500600","新店區"
"231054","KEA-2219","2018/11/06 20:58:58","新北市新店區中正路75巷71號","121.543188333333","24.9688283333333","6500600","新店區"
"231042","268-BY","2018/11/06 20:59:01","新北市新店區寶高路102巷20號","121.552478333333","24.9740366666667","6500600","新店區"
"231051","278-BY","2018/11/06 20:59:01","新北市新店區中正路663巷7弄15號","121.532893333333","24.9900816666667","6500600","新店區"
"231050","AAD-862","2018/11/06 20:59:05","新北市新店區三民路35巷2號","121.537453333333","24.9707066666667","6500600","新店區"
"231058","3713-VJ","2018/11/06 20:59:14","新北市新店區光華街29號","121.515595","24.9697783333333","6500600","新店區"
"231067","4772-VM","2018/11/06 20:59:05","新北市新店區安德街130巷1號","121.50836","24.9604866666667","6500600","新店區"
"231065","512-UM","2018/11/06 20:59:07","新北市新店區安祥路67巷28弄1號","121.48484","24.9593916666667","6500600","新店區"
"231049","513-UM","2018/11/06 20:58:50","新北市新店區柴埕路100-2號","121.503393333333","24.95948","6500600","新店區"
"231061","619-UM","2018/11/06 20:59:09","新北市新店區永安街99號","121.520686666667","24.9858333333333","6500600","新店區"
"231063","641-BX","2018/11/06 20:59:07","新北市新店區如意街95號","121.495561666667","24.947145","6500600","新店區"
"231068","718-UY","2018/11/06 20:58:57","新北市新店區寶元路二段60號","121.547045","24.98127","6500600","新店區"
"231064","719-UM","2018/11/06 20:58:31","新北市新店區安民街303巷9弄2號","121.516843333333","24.973375","6500600","新店區"
"231062","720-UM","2018/11/06 20:59:08","新北市新店區裕合街1號","121.490101666667","24.95008","6500600","新店區"
"231060","897-TW","2018/11/06 20:59:09","新北市新店區安康路三段49號","121.492666666667","24.9525166666667","6500600","新店區"
"231043","899-TW","2018/11/06 20:58:55","新北市新店區中央路135號","121.530331666667","24.9738333333333","6500600","新店區"
"241011","013-R5","2018/11/06 20:59:04","新北市三重區秀江街117號","121.499726666667","25.0721866666667","6500200","三重區"
"241028","022-UY","2018/11/06 20:59:04","新北市三重區重新路三段94號","121.492608333333","25.0609683333333","6500200","三重區"
"241008","059-VK","2018/11/06 20:59:06","新北市三重區力行路二段160號","121.48272","25.0765533333333","6500200","三重區"
"241022","060-VK","2018/11/06 20:59:06","新北市三重區過圳街27-5號","121.487953333333","25.062415","6500200","三重區"
"241031","061-VK","2018/11/06 20:59:00","新北市三重區重陽路一段113巷3號","121.487535","25.0598266666667","6500200","三重區"
"241015","062-VK","2018/11/06 20:59:08","新北市三重區福德北路69號","121.502078333333","25.0656833333333","6500200","三重區"
"241017","063-VK","2018/11/06 20:59:09","新北市三重區大仁街23號","121.4921","25.0645233333333","6500200","三重區"
"241024","065-VK","2018/11/06 20:59:12","新北市三重區大勇街82巷15弄30號","121.481226666667","25.0719383333333","6500200","三重區"
"241026","066-VK","2018/11/06 20:59:04","新北市三重區文化南路36號","121.500273333333","25.06143","6500200","三重區"
"241002","090-VK","2018/11/06 20:59:03","新北市三重區五華街1巷62號","121.496703333333","25.0803266666667","6500200","三重區"
"241003","091-VK","2018/11/06 20:58:57","新北市三重區進安街198號","121.493931666667","25.0859616666667","6500200","三重區"
"241005","262-UM","2018/11/06 20:59:04","新北市三重區五華街227號","121.4893","25.0858166666667","6500200","三重區"
"241023","265-UM","2018/11/06 20:58:58","新北市三重區洛陽街45巷15號","121.482381666667","25.063735","6500200","三重區"
"241016","266-UM","2018/11/06 20:58:36","新北市三重區自強路一段164號","121.495378333333","25.0662983333333","6500200","三重區"
"241009","267-UM","2018/11/06 20:58:56","新北市三重區三和路四段322號","121.48394","25.0781183333333","6500200","三重區"
"241018","268-UM","2018/11/06 20:59:12","新北市三重區自強路一段155-1號","121.493756666667","25.0672283333333","6500200","三重區"
"241032","269-UM","2018/11/06 20:59:09","新北市三重區三陽路110號","121.483246666667","25.05883","6500200","三重區"
"241013","270-UM","2018/11/06 20:59:04","新北市三重區仁賢街12-1號","121.49573","25.0748966666667","6500200","三重區"
"241025","271-UM","2018/11/06 20:58:59","新北市三重區貴陽街14號","121.484216666667","25.0618633333333","6500200","三重區"
"241007","398-BY","2018/11/06 20:59:09","新北市三重區慈愛街10號","121.484545","25.0784066666667","6500200","三重區"
"241004","475-VK","2018/11/06 20:59:01","新北市三重區仁愛街418號","121.490436666667","25.0814166666667","6500200","三重區"
"241020","478-VK","2018/11/06 20:58:54","新北市三重區忠孝路二段34號","121.48577","25.0710283333333","6500200","三重區"
"241014","543-UM","2018/11/06 20:59:00","新北市三重區長榮路75號","121.50254","25.0690416666667","6500200","三重區"
"241001","547-UM","2018/11/06 20:58:54","新北市三重區自強路三段87巷25號","121.48852","25.07505","6500200","三重區"
"241019","KEA-2593","2018/11/06 20:59:12","新北市三重區自強路二段74巷19號","121.487986666667","25.0699233333333","6500200","三重區"
"241006","AAD-863","2018/11/06 20:58:50","新北市三重區永福街50號","121.48172","25.0780683333333","6500200","三重區"
"241030","743-BX","2018/11/06 20:59:04","新北市三重區中正南路252巷5號","121.493445","25.0527133333333","6500200","三重區"
"241012","941-UM","2018/11/06 20:58:59","新北市三重區仁信街27號","121.501263333333","25.0755383333333","6500200","三重區"
"241029","942-UM","2018/11/06 20:58:53","新北市三重區正義南路111號","121.498245","25.0585533333333","6500200","三重區"
"241033","AAC-255","2018/11/06 20:58:57","新北市三重區光復路二段2號","121.472065","25.0534633333333","6500200","三重區"
"247012","KEA-2869","2018/11/06 20:59:04","新北市蘆洲區民權路8-1號","121.476608333333","25.08589","6501400","蘆洲區"
"247002","893-R6","2018/11/06 20:59:01","新北市蘆洲區長安街332號","121.457456666667","25.0883766666667","6501400","蘆洲區"
"247016","546-UM","2018/11/06 20:58:58","新北市蘆洲區正和街94號","121.468131666667","25.0808033333333","6501400","蘆洲區"
"247024","500-BY","2018/11/06 20:59:03","新北市蘆洲區長興路213號","121.4612","25.086345","6501400","蘆洲區"
"247014","339-TH","2018/11/06 20:59:08","新北市蘆洲區中央路56號","121.473405","25.0837533333333","6501400","蘆洲區"
"247006","337-TH","2018/11/06 20:59:07","新北市蘆洲區永安南路二段16巷8號","121.467793333333","25.0772466666667","6501400","蘆洲區"
"247008","336-TH","2018/11/06 20:58:43","新北市蘆洲區和平路15號","121.47273","25.0791833333333","6501400","蘆洲區"
"247020","057-VK","2018/11/06 20:59:11","新北市蘆洲區民族路488號","121.471136666667","25.0912833333333","6501400","蘆洲區"
"247010","056-VK","2018/11/06 20:58:59","新北市蘆洲區鷺江街76號","121.477","25.08376","6501400","蘆洲區"
"247018","007-UY","2018/11/06 20:58:57","新北市蘆洲區民權路63號","121.47374","25.08826","6501400","蘆洲區"
"247004","002-UY","2018/11/06 20:59:01","新北市蘆洲區永安南路二段268號","121.45868","25.0807466666667","6501400","蘆洲區"
"247022","001-UY","2018/11/06 20:58:53","新北市蘆洲區三民路226號","121.468656666667","25.0894883333333","6501400","蘆洲區"
"222001","KEA-2212","2018/11/06 20:59:05","新北市深坑區北深路三段25巷15-1號","121.608753333333","25.00012","6501800","深坑區"
"251005","010-UM","2018/11/06 20:59:08","新北市淡水區學府路51巷2弄16號","121.447975","25.1700633333333","6501000","淡水區"
"251002","012-UM","2018/11/06 20:59:02","新北市淡水區英專路68號","121.445753333333","25.171115","6501000","淡水區"
"251013","KEA-2871","2018/11/06 20:59:11","新北市淡水區水汴頭12號","121.469738333333","25.20337","6501000","淡水區"
"251016","179-VK","2018/11/06 20:59:01","新北市淡水區牛埔子11-1號","121.450343333333","25.218495","6501000","淡水區"
"251014","180-VK","2018/11/06 20:59:08","新北市淡水區溪口7-3號","121.455603333333","25.2365916666667","6501000","淡水區"
"251015","182-VK","2018/11/06 20:59:12","新北市淡水區淡金路四段542巷17號","121.452811666667","25.227065","6501000","淡水區"
"251010","413-VK","2018/11/06 20:58:40","新北市淡水區淡海路40號","121.423508333333","25.17944","6501000","淡水區"
"251012","441-VK","2018/11/06 20:59:11","新北市淡水區淡金路五段89號","121.455975","25.2354916666667","6501000","淡水區"
"251007","442-VK","2018/11/06 20:59:04","新北市淡水區仁愛街2巷25號","121.446365","25.1709816666667","6501000","淡水區"
"251001","559-UM","2018/11/06 20:59:07","新北市淡水區淡金路二段147號","121.44977","25.1829033333333","6501000","淡水區"
"251009","575-R6","2018/11/06 20:58:58","新北市淡水區民族路176號","121.461758333333","25.1338016666667","6501000","淡水區"
"251011","650-BX","2018/11/06 20:59:02","新北市淡水區新民街322巷1號","121.435281666667","25.1838383333333","6501000","淡水區"
"251003","766-UM","2018/11/06 20:59:11","新北市淡水區新春街123號","121.44147","25.18224","6501000","淡水區"
"242054","441-UM","2018/11/06 20:58:46","新北市五股區芳洲路49號","121.441761666667","25.0839783333333","6500500","新莊區"
"242023","362-BY","2018/11/06 20:59:04","新北市五股區中直路31號","121.420268333333","25.1124133333333","6500500","新莊區"
"242042","133-UY","2018/11/06 20:59:09","新北市新莊區新莊路692號","121.44063","25.032775","6500500","新莊區"
"242017","346-TH","2018/11/06 20:58:19","新北市五股區中直路15-2號","121.42371","25.1109233333333","6500500","新莊區"
"242005","349-TH","2018/11/06 20:59:08","新北市八里區下罟子5-6號","121.387263333333","25.146265","6500500","新莊區"
"221027","281-BY","2018/11/06 20:59:05","新北市汐止區汐萬路一段256巷3號","121.653398333333","25.0747366666667","6501100","汐止區"
"221029","298-VK","2018/11/06 20:59:09","新北市汐止區康寧街901號","121.651693333333","25.074945","6501100","汐止區"
"221035","622-UM","2018/11/06 20:59:10","新北市汐止區汐萬路一段256巷1號","121.65194","25.0746616666667","6501100","汐止區"
"221018","753-BX","2018/11/06 20:59:01","新北市汐止區汐萬路一段256巷3號","121.652381666667","25.07459","6501100","汐止區"
"242015","280-VK","2018/11/06 20:59:14","新北市五股區新五路二段130-1號","121.438278333333","25.0783883333333","6500500","新莊區"
"220070","AAC-253","2018/11/06 20:59:00","新北市土城區日新街33巷14號","121.440433333333","24.9874683333333","6500100","板橋區"
