"lineid","car","time","location","longitude","latitude","cityid","cityname"
"231066","4716-K9","2018/11/06 21:43:38","新北市新店區安一路一段1-1號","121.519216666667","24.9613083333333","6500600","新店區"
"247012","KEA-2869","2018/11/06 21:58:44","新北市八里區中山路三段409號","121.368425","25.1348966666667","6501400","蘆洲區"
"235010","733-UM","2018/11/06 21:39:52","新北市中和區員山路36巷13號","121.484181666667","24.9907966666667","6500300","中和區"
"251005","010-UM","2018/11/06 21:59:08","新北市淡水區鄧公路30巷2弄21號","121.453096666667","25.1692066666667","6501000","淡水區"
"251008","181-VK","2018/11/06 21:59:15","新北市淡水區學府路104號","121.449871666667","25.1717833333333","6501000","淡水區"
"251010","413-VK","2018/11/06 21:59:00","新北市淡水區中正路二段208號","121.426305","25.1893183333333","6501000","淡水區"
"251007","442-VK","2018/11/06 21:59:04","新北市淡水區北新路184巷240號","121.451878333333","25.17714","6501000","淡水區"
"251004","443-VK","2018/11/06 21:58:58","新北市淡水區民權路94巷1號","121.463215","25.125075","6501000","淡水區"
"251006","561-UM","2018/11/06 21:59:12","新北市淡水區中正路11巷3號","121.437841666667","25.1707566666667","6501000","淡水區"
"251011","650-BX","2018/11/06 21:59:02","新北市淡水區水碓街7號","121.44315","25.177105","6501000","淡水區"
"251003","766-UM","2018/11/06 21:59:11","新北市淡水區新春街87號","121.438926666667","25.18259","6501000","淡水區"
"220070","AAC-253","2018/11/06 21:47:27","新北市板橋區華東街1-9號","121.44826","24.99485","6500100","板橋區"
