"lineid","car","time","location","longitude","latitude","cityid","cityname"
"234040","862-TW","2018/11/06 22:00:35","新北市永和區福和路1號","121.526411666667","25.0097383333333","6500400","永和區"
"251008","181-VK","2018/11/06 22:19:15","新北市淡水區學府路104號","121.449856666667","25.1717866666667","6501000","淡水區"
"251010","413-VK","2018/11/06 22:19:00","新北市淡水區沙崙路200號","121.424693333333","25.1839083333333","6501000","淡水區"
"251007","442-VK","2018/11/06 22:19:03","新北市淡水區北新路180號","121.449468333333","25.1787583333333","6501000","淡水區"
"251004","443-VK","2018/11/06 22:18:58","新北市淡水區民族路31巷1號","121.462255","25.135955","6501000","淡水區"
"251011","650-BX","2018/11/06 22:19:02","新北市淡水區水碓街7號","121.443186666667","25.1771766666667","6501000","淡水區"
