"lineid","car","time","location","longitude","latitude","cityid","cityname"
"248005","653-BX","2018/03/02 08:22:02","新北市五股區明德路10號","121.43343","25.0717066666667","6501500","五股區"
"244004","248-BX","2018/03/02 08:27:41","新北市林口區文化北路一段149-1號","121.356925","25.0699883333333","6501700","林口區"
"222005","289-BY","2018/03/02 08:29:33","新北市深坑區萬福路199號","121.618215","25.0137316666667","6501800","深坑區"
"231007","189-VK","2018/03/02 08:29:39","新北市新店區環湖路5號","121.531803333333","24.9240433333333","6500600","新店區"
"231009","192-VK","2018/03/02 08:29:33","新北市新店區櫻花街55巷18號","121.548901666667","24.9254516666667","6500600","新店區"
"235043","352-BY","2018/03/02 08:29:30","新北市中和區錦和路350-1號","121.490821666667","24.9928033333333","6500300","中和區"
"235001","611-BX","2018/03/02 08:29:32","新北市中和區中山路二段523巷32弄7號","121.481546666667","25.0036566666667","6500300","中和區"
"226004","205-ST","2018/03/02 08:29:37","新北市平溪區十分里十分街65號","121.775953333333","25.0418516666667","6502400","平溪區"
"226005","5620-A6","2018/03/02 08:29:26","新北市平溪區南山里六分9號","121.796465","25.049825","6502400","平溪區"
"226001","7418-A5","2018/03/02 08:23:55","新北市平溪區東勢里番仔坑16號","121.755201666667","24.99139","6502400","平溪區"
"226003","AGD-0702","2018/03/02 08:29:30","新北市平溪區新寮里石碣11號","121.787735","25.0580566666667","6502400","平溪區"
"223006","022-BY","2018/03/02 08:29:29","新北市石碇區碇坪路一段49號","121.659138333333","24.9913883333333","6501900","石碇區"
"223001","205-TH","2018/03/02 08:29:25","新北市石碇區北宜路六段直潭巷6號","121.659511666667","24.9360983333333","6501900","石碇區"
"223008","406-TH","2018/03/02 08:29:38","新北市石碇區十八重溪69號","121.673433333333","25.0146833333333","6501900","石碇區"
"223001","592-UM","2018/03/02 08:29:34","新北市石碇區北宜路六段柑腳巷3-1號","121.65907","24.9378516666667","6501900","石碇區"
"223004","660-BX","2018/03/02 08:29:31","新北市石碇區碇坪路一段186號","121.667516666667","24.9846916666667","6501900","石碇區"
"223007","661-BX","2018/03/02 08:29:35","新北市石碇區十八重溪68-1號","121.673258333333","25.0164383333333","6501900","石碇區"
"223005","677-TV","2018/03/02 08:29:26","新北市石碇區碇坪路一段127號","121.666341666667","24.986185","6501900","石碇區"
"227005","282-VK","2018/03/02 08:29:34","新北市雙溪區外柑里三叉坑8號","121.827788333333","25.0080483333333","6502500","雙溪區"
"237001","159-UY","2018/03/02 08:29:25","新北市三峽區三樹路201號","121.37794","24.9423683333333","6500900","三峽區"
"236010","165-UM","2018/03/02 08:26:45","新北市土城區石門路100-3號","121.458521666667","24.9514066666667","6501300","土城區"
"236004","339-SR","2018/03/02 08:29:42","新北市土城區中央路三段157號","121.431971666667","24.9655716666667","6501300","土城區"
"236006","498-BY","2018/03/02 08:29:42","新北市土城區中央路四段35-3號","121.422875","24.9619266666667","6501300","土城區"
"220027","461-BY","2018/03/02 08:29:22","新北市林口區太平里180號","121.366463333333","25.13459","6500100","板橋區"
