"lineid","car","time","location","longitude","latitude","cityid","cityname"
"234044","148-BY","2018/03/02 13:39:38","新北市永和區永亨路166號","121.52612","25.0034783333333","6500400","永和區"
"234005","207-UY","2018/03/02 13:39:35","新北市永和區永和路二段35號","121.514406666667","25.0103733333333","6500400","永和區"
"234078","298-R6","2018/03/02 13:39:40","新北市永和區林森路48巷2號","121.524876666667","25.0046933333333","6500400","永和區"
"234036","336-UY","2018/03/02 13:39:43","新北市永和區環河東路四段20號","121.528486666667","24.9997266666667","6500400","永和區"
"234084","338-UY","2018/03/02 13:39:42","新北市永和區永利路50號","121.51891","25.0053033333333","6500400","永和區"
"234068","552-UM","2018/03/02 13:39:38","新北市永和區永和路二段235號","121.51561","25.0143583333333","6500400","永和區"
"234015","745-BX","2018/03/02 13:39:39","新北市永和區永和路二段393-1號","121.515591666667","25.0166333333333","6500400","永和區"
"234028","746-BX","2018/03/02 13:39:36","新北市永和區民權路1巷18號","121.52129","24.9982766666667","6500400","永和區"
"234052","KEA-2590","2018/03/02 13:39:35","新北市永和區竹林路39巷24弄3號","121.519143333333","25.0145383333333","6500400","永和區"
"234012","KEA-2591","2018/03/02 13:39:44","新北市永和區仁愛路201號","121.50999","25.0124883333333","6500400","永和區"
"234060","AAD-866","2018/03/02 13:39:36","新北市永和區中正路416號","121.517566666667","25.0021716666667","6500400","永和區"
"234062","847-RS","2018/03/02 13:39:48","新北市永和區秀朗路一段192巷6弄14號","121.51913","25.0022783333333","6500400","永和區"
"234040","862-TW","2018/03/02 13:39:42","新北市永和區中和路305巷20弄2號","121.507653333333","25.00184","6500400","永和區"
"234048","863-TW","2018/03/02 13:39:48","新北市永和區環河西路一段109號","121.511011666667","25.0174166666667","6500400","永和區"
"234025","9371-KE","2018/03/02 13:39:37","新北市永和區永和路一段90號","121.513123333333","25.0068666666667","6500400","永和區"
"234010","9373-KE","2018/03/02 13:39:33","新北市永和區保福路二段163巷13弄5號","121.509221666667","25.014345","6500400","永和區"
"248019","225-UY","2018/03/02 13:38:54","新北市五股區孝義路118號","121.440353333333","25.1223066666667","6501500","五股區"
"234022","9380-KE","2018/03/02 13:39:31","新北市永和區中正路702巷2號","121.516295","25.010075","6500400","永和區"
"234076","969-R7","2018/03/02 13:39:29","新北市永和區民權路3號","121.52021","24.99857","6500400","永和區"
"234072","AAC-211","2018/03/02 13:39:40","新北市永和區竹林路189號","121.520606666667","25.009375","6500400","永和區"
"234066","AAC-212","2018/03/02 13:39:51","新北市永和區永平路173巷14弄2號","121.510211666667","25.0084816666667","6500400","永和區"
"234001","AAC-295","2018/03/02 13:39:32","新北市永和區秀朗路一段9號","121.513893333333","25.0074733333333","6500400","永和區"
"244004","248-BX","2018/03/02 13:39:45","新北市林口區頂福里13號","121.359345","25.08357","6501700","林口區"
"231002","002-UM","2018/03/02 13:39:39","新北市新店區溪園路393號","121.524265","24.979065","6500600","新店區"
"231025","0293-UT","2018/03/02 13:39:45","新北市新店區中央六街56號","121.527886666667","24.9757416666667","6500600","新店區"
"231028","046-UY","2018/03/02 13:39:44","新北市新店區安和路二段126號","121.51926","24.971555","6500600","新店區"
"231030","047-UY","2018/03/02 13:39:36","新北市新店區安康路一段140號","121.526566666667","24.9628516666667","6500600","新店區"
"231029","106-UY","2018/03/02 13:39:33","新北市新店區安康路二段199號","121.50915","24.9590133333333","6500600","新店區"
"231018","107-UY","2018/03/02 13:39:46","新北市新店區百忍街28號","121.53406","24.9757883333333","6500600","新店區"
"231012","108-UY","2018/03/02 13:39:34","新北市新店區德正街27巷29弄60號","121.545793333333","24.9729866666667","6500600","新店區"
"231022","187-VK","2018/03/02 13:39:47","新北市新店區永興路132號","121.543985","24.9317266666667","6500600","新店區"
"231016","KEA-2219","2018/03/02 13:39:33","新北市新店區竹林路2巷33號","121.550476666667","24.95016","6500600","新店區"
"231026","256-BX","2018/03/02 13:39:29","新北市新店區中正路111號","121.542453333333","24.97045","6500600","新店區"
"231010","278-BY","2018/03/02 13:39:39","新北市新店區中正路307巷2號","121.536465","24.9745483333333","6500600","新店區"
"231027","3712-VJ","2018/03/02 13:39:42","新北市新店區北宜路一段105巷4弄3-1號","121.539941666667","24.9556933333333","6500600","新店區"
"231024","4716-K9","2018/03/02 13:39:48","新北市新店區華興街36號","121.537096666667","24.9691233333333","6500600","新店區"
"231038","4715-K9","2018/03/02 13:39:30","新北市新店區安華路30巷1號","121.519581666667","24.9593","6500600","新店區"
"231036","512-UM","2018/03/02 13:39:46","新北市新店區安祥路147巷3號","121.475168333333","24.9555566666667","6500600","新店區"
"231023","513-UM","2018/03/02 13:39:48","新北市新店區新店路183號","121.537146666667","24.9560283333333","6500600","新店區"
"231035","515-UM","2018/03/02 13:39:50","新北市新店區安忠路100巷1號","121.51087","24.9566283333333","6500600","新店區"
"231006","617-UM","2018/03/02 13:39:38","新北市新店區北宜路一段107號","121.539381666667","24.9552116666667","6500600","新店區"
"231001","619-UM","2018/03/02 13:39:42","新北市新店區中正路396號","121.534588333333","24.977345","6500600","新店區"
"231003","641-BX","2018/03/02 13:39:39","新北市新店區中興路一段267-1號","121.544983333333","24.9676883333333","6500600","新店區"
"231034","645-TV","2018/03/02 13:39:46","新北市新店區車子路134號","121.50523","24.9495166666667","6500600","新店區"
"231013","719-UM","2018/03/02 13:39:48","新北市新店區中正路454-5號","121.534486666667","24.9790483333333","6500600","新店區"
"231032","720-UM","2018/03/02 13:39:27","新北市新店區莒光路42號","121.523771666667","24.9577783333333","6500600","新店區"
"231005","897-TW","2018/03/02 13:39:46","新北市新店區寶中路77號","121.547635","24.98058","6500600","新店區"
"231004","899-TW","2018/03/02 13:39:48","新北市新店區北新路二段7號","121.542738333333","24.9713566666667","6500600","新店區"
"231037","AKT-0513","2018/03/02 13:39:36","新北市新店區安康路二段442號","121.495618333333","24.95484","6500600","新店區"
"235030","003-UY","2018/03/02 13:39:46","新北市中和區水源路37號","121.504481666667","25.00355","6500300","中和區"
"235028","005-UY","2018/03/02 13:39:35","新北市中和區連城路89巷36號","121.497465","24.9986833333333","6500300","中和區"
"235027","006-UY","2018/03/02 13:39:37","新北市中和區連城路407號","121.48601","24.9961766666667","6500300","中和區"
"235024","031-BX","2018/03/02 13:39:41","新北市中和區中山路二段531號","121.481533333333","25.0052716666667","6500300","中和區"
"235020","096-UM","2018/03/02 13:39:41","新北市中和區新民街106號","121.480766666667","25.0083466666667","6500300","中和區"
"235003","097-UM","2018/03/02 13:39:32","新北市中和區大勇街27巷15號","121.516728333333","24.9936883333333","6500300","中和區"
"235029","098-UM","2018/03/02 13:39:41","新北市中和區莊敬路49巷29弄28號","121.50073","25.0066","6500300","中和區"
"235004","150-BY","2018/03/02 13:39:38","新北市中和區保健路50巷68號","121.509181666667","24.9951883333333","6500300","中和區"
"235022","151-BY","2018/03/02 13:39:36","新北市中和區員山路26號","121.481641666667","24.9860116666667","6500300","中和區"
"235019","183-VK","2018/03/02 13:39:43","新北市中和區國光街38號","121.47106","25.000285","6500300","中和區"
"235002","185-VK","2018/03/02 13:39:50","新北市中和區立人街20號","121.519033333333","24.994205","6500300","中和區"
"235013","186-VK","2018/03/02 13:39:43","新北市中和區景平路480號","121.505095","24.993665","6500300","中和區"
"235031","255-BX","2018/03/02 13:39:32","新北市中和區新生街238號","121.483815","24.9980033333333","6500300","中和區"
"235008","293-VK","2018/03/02 13:39:36","新北市中和區復興路261號","121.502855","24.99024","6500300","中和區"
"235036","301-VK","2018/03/02 13:39:34","新北市中和區中山路二段193號","121.499945","25.0026316666667","6500300","中和區"
"235007","352-BY","2018/03/02 13:39:39","新北市中和區景平路105號","121.516891666667","24.991765","6500300","中和區"
"235032","377-QA","2018/03/02 13:39:47","新北市中和區中正路167巷16號","121.498325","24.9927333333333","6500300","中和區"
"235025","378-QA","2018/03/02 13:39:42","新北市中和區民享街114巷6號","121.474243333333","24.999355","6500300","中和區"
"235035","269-TV","2018/03/02 13:39:46","新北市中和區立德街98巷63號","121.487915","25.00929","6500300","中和區"
"235014","4979-A6","2018/03/02 13:39:29","新北市中和區景新街496巷28弄39號","121.512671666667","24.9859483333333","6500300","中和區"
"235033","4980-A6","2018/03/02 13:39:33","新北市中和區連城路97號","121.496546666667","24.9999566666667","6500300","中和區"
"235006","551-UM","2018/03/02 13:39:40","新北市中和區成功路127巷16號","121.527096666667","24.9908216666667","6500300","中和區"
"235009","565-BX","2018/03/02 13:39:43","新北市中和區南山路236巷32號","121.505493333333","24.98852","6500300","中和區"
"235018","640-BX","2018/03/02 13:39:43","新北市中和區莒光路93號","121.47245","25.003135","6500300","中和區"
"235011","732-UM","2018/03/02 13:39:31","新北市中和區南山路320巷11號","121.50753","24.9864033333333","6500300","中和區"
"235026","800-TS","2018/03/02 13:39:35","新北市中和區中山路二段312巷31號","121.49521","25.00378","6500300","中和區"
"235021","801-TS","2018/03/02 13:39:32","新北市中和區民安街42巷42號","121.478598333333","25.0015083333333","6500300","中和區"
"235016","805-TS","2018/03/02 13:39:33","新北市中和區興南路三段52巷1號","121.493535","24.97616","6500300","中和區"
"235012","896-TW","2018/03/02 13:39:41","新北市中和區中正路75號","121.50095","24.9934","6500300","中和區"
"235017","900-TW","2018/03/02 13:39:30","新北市中和區民德路266號","121.46801","24.9966216666667","6500300","中和區"
"235034","911-UM","2018/03/02 13:39:39","新北市中和區南華路45號","121.50382","24.996665","6500300","中和區"
"235015","157-BY","2018/03/02 13:39:37","新北市中和區興南路二段159巷7號","121.505298333333","24.9831716666667","6500300","中和區"
"235001","AAC-213","2018/03/02 13:39:32","新北市中和區景新街383巷60號","121.51465","24.9905016666667","6500300","中和區"
"235023","AAC-215","2018/03/02 13:39:33","新北市中和區錦和路179號","121.49076","24.9911416666667","6500300","中和區"
"220013","072-UY","2018/03/02 13:39:31","新北市板橋區漢生東路258號","121.46806","25.01377","6500100","板橋區"
"220034","073-UY","2018/03/02 13:39:46","新北市板橋區大智街71巷28弄22號","121.452345","25.0150533333333","6500100","板橋區"
"220017","AAD-861","2018/03/02 13:39:41","新北市板橋區華東街1-10號","121.448296666667","24.9951083333333","6500100","板橋區"
"247017","001-UY","2018/03/02 13:39:31","新北市五股區新城三路61號","121.449175","25.0935516666667","6501400","蘆洲區"
"235005","251-BX","2018/03/02 13:39:39","新北市中和區中安街80號","121.51209","25.00189","6500300","中和區"
"207002","749-BX","2018/03/02 13:39:46","新北市萬里區崁腳里內中福路7號","121.666388333333","25.164135","6502800","萬里區"
"207001","662-BX","2018/03/02 13:39:46","新北市萬里區磺潭里清水18號","121.637816666667","25.1976633333333","6502800","萬里區"
"236077","166-UM","2018/03/02 13:39:50","新北市土城區城林路6巷80號","121.43869","24.979625","6501300","土城區"
"236035","271-VK","2018/03/02 13:39:30","新北市土城區城林路6巷80號","121.438431666667","24.9798683333333","6501300","土城區"
"236006","498-BY","2018/03/02 13:39:35","新北市土城區慶祥街48號","121.436743333333","24.974265","6501300","土城區"
"236061","915-UM","2018/03/02 13:39:47","新北市土城區城林路6巷80號","121.438455","24.97976","6501300","土城區"
"236054","AAC-216","2018/03/02 13:39:32","新北市土城區城林路6巷80號","121.438396666667","24.9796316666667","6501300","土城區"
"242046","172-VK","2018/03/02 13:39:33","新北市新莊區成德街71號","121.42386","25.0223216666667","6500500","新莊區"
"221032","280-BY","2018/03/02 13:39:35","新北市汐止區新台五路一段207號","121.65698","25.0638233333333","6501100","汐止區"
"220027","145-BY","2018/03/02 13:39:33","新北市板橋區大仁街108-1號","121.453026666667","25.015935","6500100","板橋區"
"220028","200-UY","2018/03/02 13:39:49","新北市板橋區大觀路二段265巷76弄29號","121.441501666667","24.9966816666667","6500100","板橋區"
"220030","610-BX","2018/03/02 13:39:41","新北市板橋區大觀路三段59巷17弄6-1號","121.43751","24.995385","6500100","板橋區"
"220045","257-TC","2018/03/02 13:39:38","新北市板橋區民生路二段120號","121.470458333333","25.019635","6500100","板橋區"
"220004","276-BY","2018/03/02 13:39:51","新北市板橋區四川路二段253號","121.450193333333","24.993295","6500100","板橋區"
"220020","277-BY","2018/03/02 13:39:47","新北市板橋區大觀路三段36巷5號","121.433585","24.9958133333333","6500100","板橋區"
"220005","282-UM","2018/03/02 13:39:32","新北市板橋區華東街1-9號","121.448225","24.9949266666667","6500100","板橋區"
"220019","283-VK","2018/03/02 13:39:42","新北市板橋區四川路二段247號","121.450116666667","24.9932066666667","6500100","板橋區"
"220043","285-UM","2018/03/02 13:39:50","新北市板橋區民生路二段161巷1號","121.470103333333","25.0198833333333","6500100","板橋區"
"220001","285-VK","2018/03/02 13:39:38","新北市板橋區民生路二段120號","121.470473333333","25.0198516666667","6500100","板橋區"
"220031","286-VK","2018/03/02 13:39:36","新北市板橋區大觀路二段109巷1號","121.447321666667","25.0011816666667","6500100","板橋區"
"220029","287-VK","2018/03/02 13:39:46","新北市板橋區大觀路二段101巷2號","121.446671666667","25.00149","6500100","板橋區"
"220009","293-UM","2018/03/02 13:39:41","新北市板橋區民生路二段120號","121.470383333333","25.01976","6500100","板橋區"
"220032","296-UM","2018/03/02 13:39:47","新北市板橋區大觀路二段251號","121.443335","24.9992083333333","6500100","板橋區"
"220016","299-UM","2018/03/02 13:39:44","新北市板橋區民生路二段120號","121.47033","25.0197516666667","6500100","板橋區"
"220023","303-R5","2018/03/02 13:39:31","新北市板橋區華東街260號","121.452631666667","25.0016533333333","6500100","板橋區"
"220041","307-R5","2018/03/02 13:39:40","新北市板橋區民生路二段120號","121.470618333333","25.0194483333333","6500100","板橋區"
"220047","317-R6","2018/03/02 13:39:03","新北市板橋區文化路二段80號","121.46975","25.025305","6500100","板橋區"
"220012","486-VK","2018/03/02 13:39:34","新北市板橋區民生路二段36-1號","121.47214","25.0168066666667","6500100","板橋區"
"220104","560-BX","2018/03/02 13:39:39","新北市板橋區南雅西路二段145巷10號","121.451551666667","25.0120266666667","6500100","板橋區"
"220052","561-BX","2018/03/02 13:39:30","新北市板橋區民生路二段161巷9號","121.470295","25.019665","6500100","板橋區"
"220011","609-BX","2018/03/02 13:39:45","新北市板橋區民生路二段171號","121.469943333333","25.0201766666667","6500100","板橋區"
"220025","687-BX","2018/03/02 13:39:32","新北市板橋區大觀路三段212巷36號","121.429565","24.993225","6500100","板橋區"
"220002","741-BX","2018/03/02 13:39:40","新北市板橋區華東街1-9號","121.448105","24.9949366666667","6500100","板橋區"
"220014","829-TW","2018/03/02 13:39:44","新北市板橋區民生路二段120號","121.4704","25.01961","6500100","板橋區"
"220022","895-R6","2018/03/02 13:39:30","新北市板橋區南雅南路一段115號","121.455296666667","25.004925","6500100","板橋區"
"220021","985-R7","2018/03/02 13:39:38","新北市板橋區南雅南路二段140號","121.451865","24.9963083333333","6500100","板橋區"
"220018","AAC-253","2018/03/02 13:39:42","新北市板橋區華東街1-9號","121.44827","24.9949","6500100","板橋區"
