"lineid","car","time","location","longitude","latitude","cityid","cityname"
"234028","746-BX","2018/03/02 14:49:49","新北市五股區凌雲路二段18巷62-2號","121.442271666667","25.10656","6500400","永和區"
"234025","9371-KE","2018/03/02 14:49:39","新北市永和區水源街48號","121.510476666667","25.004365","6500400","永和區"
"248019","225-UY","2018/03/02 14:49:39","新北市五股區中直路40號","121.419963333333","25.115125","6501500","五股區"
"231002","002-UM","2018/03/02 14:49:31","新北市新店區民權路72號","121.538168333333","24.9830033333333","6500600","新店區"
"231025","0293-UT","2018/03/02 14:49:45","新北市新店區建國路194號","121.537943333333","24.9805083333333","6500600","新店區"
"231028","046-UY","2018/03/02 14:49:44","新北市新店區安康路二段237號","121.508198333333","24.9586083333333","6500600","新店區"
"231030","047-UY","2018/03/02 14:49:36","新北市新店區安民街341-1號","121.516681666667","24.9749333333333","6500600","新店區"
"231029","106-UY","2018/03/02 14:49:32","新北市新店區錦秀路11巷88號","121.480485","24.9433033333333","6500600","新店區"
"231018","107-UY","2018/03/02 14:49:46","新北市新店區中央六街7號","121.530263333333","24.9745033333333","6500600","新店區"
"231012","108-UY","2018/03/02 14:49:34","新北市新店區寶橋路66號","121.54638","24.9751883333333","6500600","新店區"
"231022","187-VK","2018/03/02 14:49:47","新北市新店區金興路38-1號","121.55462","24.92903","6500600","新店區"
"231016","KEA-2219","2018/03/02 14:49:32","新北市新店區北宜路三段335巷15號","121.610081666667","24.9590816666667","6500600","新店區"
"231027","3712-VJ","2018/03/02 14:49:39","新北市新店區安興路131巷2號","121.515956666667","24.9793783333333","6500600","新店區"
"231024","4716-K9","2018/03/02 14:49:48","新北市新店區新生街1號","121.540393333333","24.9656266666667","6500600","新店區"
"231036","512-UM","2018/03/02 14:49:46","新北市新店區安祥路104巷6弄36號","121.48308","24.96297","6500600","新店區"
"231023","513-UM","2018/03/02 14:49:47","新北市新店區檳榔路109號","121.544428333333","24.96174","6500600","新店區"
"231035","515-UM","2018/03/02 14:49:48","新北市新店區安樂街16號","121.520871666667","24.97325","6500600","新店區"
"231006","617-UM","2018/03/02 14:49:38","新北市新店區北宜路一段109巷2-1號","121.539898333333","24.9548133333333","6500600","新店區"
"231001","619-UM","2018/03/02 14:49:42","新北市新店區三民路175號","121.534931666667","24.9749966666667","6500600","新店區"
"231003","641-BX","2018/03/02 14:49:39","新北市新店區中興路二段100巷2號","121.547361666667","24.9712483333333","6500600","新店區"
"231034","645-TV","2018/03/02 14:49:46","新北市新店區玫瑰路4-1號","121.493495","24.9514533333333","6500600","新店區"
"231013","719-UM","2018/03/02 14:49:48","新北市新店區中正路114號","121.542605","24.971","6500600","新店區"
"231005","897-TW","2018/03/02 14:49:46","新北市新店區復興路2號","121.532465","24.9882566666667","6500600","新店區"
"231004","899-TW","2018/03/02 14:49:48","新北市新店區建國路133號","121.539385","24.978275","6500600","新店區"
"235030","003-UY","2018/03/02 14:49:46","新北市中和區南工路40號","121.505768333333","25.0012016666667","6500300","中和區"
"235027","006-UY","2018/03/02 14:49:37","新北市中和區中正路637巷52弄1號","121.485356666667","24.993595","6500300","中和區"
"235024","031-BX","2018/03/02 14:49:41","新北市中和區新生街30巷6號","121.482906666667","25.0038566666667","6500300","中和區"
"235020","096-UM","2018/03/02 14:49:41","新北市中和區中山路三段114巷72-6號","121.476236666667","25.0079283333333","6500300","中和區"
"235003","097-UM","2018/03/02 14:49:32","新北市中和區安樂路243巷9-3號","121.513866666667","24.9995683333333","6500300","中和區"
"235029","098-UM","2018/03/02 14:49:41","新北市中和區永和路90巷2弄2號","121.497371666667","25.0057316666667","6500300","中和區"
"235004","150-BY","2018/03/02 14:49:37","新北市中和區安和路39號","121.509648333333","24.9948883333333","6500300","中和區"
"235022","151-BY","2018/03/02 14:49:36","新北市中和區員山路150巷2弄5號","121.481753333333","24.9981483333333","6500300","中和區"
"235019","183-VK","2018/03/02 14:49:43","新北市中和區民德路23號","121.468826666667","25.0027266666667","6500300","中和區"
"235002","185-VK","2018/03/02 14:49:41","新北市中和區自強路60號","121.520038333333","24.994425","6500300","中和區"
"235013","186-VK","2018/03/02 14:49:43","新北市中和區中正路60號","121.501436666667","24.9937616666667","6500300","中和區"
"235031","255-BX","2018/03/02 14:49:32","新北市中和區新生街186巷1弄9號","121.483383333333","24.9992633333333","6500300","中和區"
"235008","293-VK","2018/03/02 14:49:51","新北市中和區南山路259號","121.503773333333","24.99269","6500300","中和區"
"235036","301-VK","2018/03/02 14:49:34","新北市中和區中正路305號","121.492658333333","24.99408","6500300","中和區"
"235007","352-BY","2018/03/02 14:49:39","新北市中和區景平路336號","121.511805","24.9927933333333","6500300","中和區"
"235032","377-QA","2018/03/02 14:49:47","新北市中和區福祥路87號","121.499045","25.005865","6500300","中和區"
"235035","269-TV","2018/03/02 14:49:38","新北市中和區建一路132號","121.488088333333","24.9997033333333","6500300","中和區"
"235014","4979-A6","2018/03/02 14:49:49","新北市中和區景平路241巷82弄38號","121.506351666667","24.9925533333333","6500300","中和區"
"235018","640-BX","2018/03/02 14:49:43","新北市中和區莒光路207-8號","121.470508333333","24.9965516666667","6500300","中和區"
"235011","732-UM","2018/03/02 14:49:31","新北市中和區和平街74號","121.507788333333","24.9910433333333","6500300","中和區"
"235010","733-UM","2018/03/02 14:49:31","新北市中和區仁愛街60號","121.511248333333","24.987905","6500300","中和區"
"235021","801-TS","2018/03/02 14:49:31","新北市中和區員山路149號","121.481083333333","24.996305","6500300","中和區"
"235016","805-TS","2018/03/02 14:49:33","新北市中和區華新街28-1號","121.507738333333","24.98457","6500300","中和區"
"235012","896-TW","2018/03/02 14:49:35","新北市中和區忠孝街2-11號","121.509391666667","24.9829266666667","6500300","中和區"
"235017","900-TW","2018/03/02 14:49:50","新北市中和區國光街215巷29號","121.467293333333","25.0004816666667","6500300","中和區"
"235034","911-UM","2018/03/02 14:49:39","新北市中和區連勝街36號","121.49808","24.9977416666667","6500300","中和區"
"235015","157-BY","2018/03/02 14:49:37","新北市中和區中興街202巷57號","121.498431666667","24.9895416666667","6500300","中和區"
"235001","AAC-213","2018/03/02 14:49:32","新北市中和區秀朗路三段135巷2號","121.525143333333","24.99262","6500300","中和區"
"235023","AAC-215","2018/03/02 14:49:33","新北市中和區圓通路367巷6號","121.491675","24.9894133333333","6500300","中和區"
"220013","072-UY","2018/03/02 14:49:51","新北市板橋區海山路39號","121.467268333333","25.009715","6500100","板橋區"
"220034","073-UY","2018/03/02 14:49:46","新北市板橋區南雅西路二段9號","121.453013333333","25.0092633333333","6500100","板橋區"
"220017","AAD-861","2018/03/02 14:49:41","新北市板橋區大明街23號","121.458653333333","25.0025883333333","6500100","板橋區"
"247001","337-TH","2018/03/02 14:49:41","新北市蘆洲區永康街2巷6號","121.459423333333","25.0861583333333","6501400","蘆洲區"
"247015","057-VK","2018/03/02 14:49:33","新北市蘆洲區光華路180號","121.464893333333","25.0820083333333","6501400","蘆洲區"
"247007","053-VK","2018/03/02 14:49:36","新北市蘆洲區中山一路103巷20號","121.475781666667","25.081175","6501400","蘆洲區"
"247023","002-UY","2018/03/02 14:49:41","新北市蘆洲區和平路114巷2號","121.467898333333","25.0796416666667","6501400","蘆洲區"
"235005","251-BX","2018/03/02 14:49:39","新北市永和區中和路585號","121.512086666667","25.003945","6500300","中和區"
"207002","749-BX","2018/03/02 14:49:46","新北市萬里區崁腳里崁腳路73號","121.64764","25.1595783333333","6502800","萬里區"
"207001","662-BX","2018/03/02 14:49:46","新北市萬里區雙興里二坪路1-1號","121.650511666667","25.1763016666667","6502800","萬里區"
"236067","105-UM","2018/03/02 14:49:37","新北市土城區金城路二段227號","121.455516666667","24.982385","6501300","土城區"
"236041","107-UM","2018/03/02 14:49:42","新北市土城區裕民路136巷4弄1號","121.451","24.985625","6501300","土城區"
"236077","166-UM","2018/03/02 14:49:50","新北市土城區中央路四段228號","121.4155","24.9571566666667","6501300","土城區"
"236029","253-BX","2018/03/02 14:49:46","新北市土城區忠義路26巷20號","121.439725","24.9698716666667","6501300","土城區"
"236024","269-VK","2018/03/02 14:49:36","新北市土城區光明街41號","121.442198333333","24.9739","6501300","土城區"
"236013","270-VK","2018/03/02 14:49:40","新北市土城區金城路二段354巷4號","121.460796666667","24.9847333333333","6501300","土城區"
"236035","271-VK","2018/03/02 14:49:51","新北市土城區仁愛路48號","121.461876666667","24.9792183333333","6501300","土城區"
"236019","401-BY","2018/03/02 14:49:41","新北市土城區金城路三段52巷1號","121.46608","24.9862666666667","6501300","土城區"
"236057","912-UM","2018/03/02 14:49:48","新北市土城區中央路三段60號","121.43695","24.9672533333333","6501300","土城區"
"236046","913-UM","2018/03/02 14:49:37","新北市土城區青雲路37號","121.459781666667","24.98785","6501300","土城區"
"236061","915-UM","2018/03/02 14:49:49","新北市土城區金城路三段207巷8弄2號","121.470118333333","24.9901233333333","6501300","土城區"
"236047","970-R7","2018/03/02 14:49:52","新北市土城區中華路一段36號","121.446278333333","24.98931","6501300","土城區"
"236054","AAC-216","2018/03/02 14:49:32","新北市土城區裕民路202號","121.453285","24.9847066666667","6501300","土城區"
"221002","707-TV","2018/03/02 14:49:48","新北市汐止區莊敬街21號","121.657293333333","25.06144","6501100","汐止區"
"220027","145-BY","2018/03/02 14:49:33","新北市板橋區中正路183巷15號","121.455603333333","25.016095","6500100","板橋區"
"220028","200-UY","2018/03/02 14:49:49","新北市板橋區大觀路二段153巷3號","121.445791666667","25.0006833333333","6500100","板橋區"
"220105","KEA-2550","2018/03/02 14:49:49","新北市板橋區民治街71巷1弄5號","121.480115","25.032835","6500100","板橋區"
"220030","610-BX","2018/03/02 14:49:49","新北市板橋區篤行路二段102號","121.431476666667","24.9913016666667","6500100","板橋區"
"220045","257-TC","2018/03/02 14:49:38","新北市板橋區莊敬路86-3號","121.471533333333","25.0247683333333","6500100","板橋區"
"220020","277-BY","2018/03/02 14:49:47","新北市板橋區篤行路二段31巷26號","121.432795","24.992545","6500100","板橋區"
"220050","280-UM","2018/03/02 14:49:44","新北市板橋區莊敬路255號","121.473531666667","25.0215566666667","6500100","板橋區"
"220005","282-UM","2018/03/02 14:49:52","新北市板橋區和平路14巷38號","121.461605","24.9915716666667","6500100","板橋區"
"220019","283-VK","2018/03/02 14:49:42","新北市板橋區五權街1-9號","121.46363","24.9953233333333","6500100","板橋區"
"220043","285-UM","2018/03/02 14:49:50","新北市板橋區新海路428號","121.458145","25.0275483333333","6500100","板橋區"
"220001","285-VK","2018/03/02 14:49:38","新北市板橋區中山路二段90巷28號","121.47574","25.0155833333333","6500100","板橋區"
"220031","286-VK","2018/03/02 14:49:36","新北市板橋區僑中二街90巷26號","121.444981666667","25.0093816666667","6500100","板橋區"
"220029","287-VK","2018/03/02 14:49:46","新北市板橋區僑中一街80巷1弄1號","121.447565","25.0118616666667","6500100","板橋區"
"220009","293-UM","2018/03/02 14:49:41","新北市板橋區民生路二段56-4號","121.471878333333","25.0171533333333","6500100","板橋區"
"220010","295-UM","2018/03/02 14:49:47","新北市板橋區光復街116號","121.48396","25.0182933333333","6500100","板橋區"
"220032","296-UM","2018/03/02 14:49:52","新北市板橋區滿平街2巷27號","121.42537","24.989285","6500100","板橋區"
"220016","299-UM","2018/03/02 14:49:44","新北市板橋區光復街136號","121.4842","25.0191833333333","6500100","板橋區"
"220023","303-R5","2018/03/02 14:49:42","新北市板橋區大勇街1巷2-2號","121.455268333333","25.0175283333333","6500100","板橋區"
"220041","307-R5","2018/03/02 14:49:40","新北市板橋區四維路259巷46號","121.46128","25.027125","6500100","板橋區"
"220047","317-R6","2018/03/02 14:49:42","新北市板橋區英士路199號","121.458785","25.0234783333333","6500100","板橋區"
"220012","486-VK","2018/03/02 14:49:34","新北市板橋區館前東路108-1號","121.46312","25.007665","6500100","板橋區"
"220038","487-VK","2018/03/02 14:49:47","新北市板橋區龍泉街114號","121.456923333333","25.024435","6500100","板橋區"
"220037","491-VK","2018/03/02 14:49:31","新北市板橋區大同街89號","121.479911666667","25.0282716666667","6500100","板橋區"
"220052","561-BX","2018/03/02 14:49:47","新北市板橋區陽明街29巷15號","121.464658333333","25.0220566666667","6500100","板橋區"
"220011","609-BX","2018/03/02 14:49:45","新北市板橋區三民路一段31巷2-4號","121.48199","25.0230833333333","6500100","板橋區"
"220040","637-BX","2018/03/02 14:49:41","新北市板橋區懷德街181巷27號","121.480465","25.0301866666667","6500100","板橋區"
"220025","687-BX","2018/03/02 14:49:50","新北市板橋區僑中一街150號","121.44481","25.0120816666667","6500100","板橋區"
"220042","689-BX","2018/03/02 14:49:41","新北市板橋區長江路二段8號","121.464705","25.0313866666667","6500100","板橋區"
"220002","741-BX","2018/03/02 14:49:39","新北市板橋區實踐路93巷74號","121.466676666667","25.0049116666667","6500100","板橋區"
"220051","KEA-2699","2018/03/02 14:49:41","新北市板橋區仁化街2號","121.474176666667","25.031545","6500100","板橋區"
"220003","827-TW","2018/03/02 14:49:52","新北市板橋區國慶路149巷21弄4號","121.460778333333","24.997495","6500100","板橋區"
"220014","829-TW","2018/03/02 14:49:44","新北市板橋區長安街138巷1弄342號","121.474981666667","25.0113916666667","6500100","板橋區"
"220039","830-TW","2018/03/02 14:49:10","新北市板橋區龍泉街108巷27號","121.4564","25.0238216666667","6500100","板橋區"
"220022","895-R6","2018/03/02 14:49:29","新北市板橋區文化路一段46巷16號","121.460248333333","25.0115116666667","6500100","板橋區"
"220021","985-R7","2018/03/02 14:49:49","新北市板橋區南雅西路二段218號","121.45209","25.015315","6500100","板橋區"
"220046","AAC-210","2018/03/02 14:49:48","新北市板橋區文化路一段285巷2弄13-1號","121.464306666667","25.0194216666667","6500100","板橋區"
"220018","AAC-253","2018/03/02 14:49:42","新北市板橋區館前東路126號","121.463911666667","25.0078183333333","6500100","板橋區"
