"lineid","car","time","location","longitude","latitude","cityid","cityname"
"234025","9371-KE","2018/03/02 14:59:37","新北市永和區中山路一段281巷2弄2號","121.507181666667","25.0067183333333","6500400","永和區"
"248019","225-UY","2018/03/02 14:59:39","新北市五股區凌雲路三段3號","121.431338333333","25.10608","6501500","五股區"
"244004","248-BX","2018/03/02 14:59:45","新北市林口區竹林路266號","121.389691666667","25.080775","6501700","林口區"
"231002","002-UM","2018/03/02 14:59:51","新北市新店區民權路133號","121.534953333333","24.9827433333333","6500600","新店區"
"231025","0293-UT","2018/03/02 14:59:45","新北市新店區二十張路33巷30號","121.539513333333","24.9803583333333","6500600","新店區"
"231028","046-UY","2018/03/02 14:59:44","新北市新店區安豐路49號","121.50002","24.9548916666667","6500600","新店區"
"231030","047-UY","2018/03/02 14:59:36","新北市新店區安和路三段83號","121.517878333333","24.9838","6500600","新店區"
"231029","106-UY","2018/03/02 14:59:32","新北市新店區錦秀路1號","121.479033333333","24.9458033333333","6500600","新店區"
"231018","107-UY","2018/03/02 14:59:46","新北市新店區中央六街7號","121.530308333333","24.9746333333333","6500600","新店區"
"231012","108-UY","2018/03/02 14:59:34","新北市新店區寶橋路97號","121.547131666667","24.976345","6500600","新店區"
"231022","187-VK","2018/03/02 14:59:47","新北市新店區永福路54號","121.558088333333","24.92867","6500600","新店區"
"231016","KEA-2219","2018/03/02 14:59:32","新北市新店區北宜路三段62號","121.574021666667","24.9511783333333","6500600","新店區"
"231026","256-BX","2018/03/02 14:59:44","新北市新店區中正路111號","121.542456666667","24.97064","6500600","新店區"
"231024","4716-K9","2018/03/02 14:59:48","新北市新店區中華路83巷67號","121.538331666667","24.9672733333333","6500600","新店區"
"231036","512-UM","2018/03/02 14:59:46","新北市新店區安祥路102巷42弄69號","121.486281666667","24.96328","6500600","新店區"
"231023","513-UM","2018/03/02 14:59:47","新北市新店區檳榔路109號","121.544398333333","24.9617283333333","6500600","新店區"
"231035","515-UM","2018/03/02 14:59:48","新北市新店區安業街1號","121.516711666667","24.9789033333333","6500600","新店區"
"231006","617-UM","2018/03/02 14:59:38","新北市新店區新坡一街72號","121.5489","24.9646133333333","6500600","新店區"
"231001","619-UM","2018/03/02 14:59:42","新北市新店區中正路278號","121.53874","24.9737966666667","6500600","新店區"
"231003","641-BX","2018/03/02 14:59:39","新北市新店區中興路二段226號","121.54792","24.9751533333333","6500600","新店區"
"231034","645-TV","2018/03/02 14:59:46","新北市新店區玫瑰路4-1號","121.493616666667","24.9513866666667","6500600","新店區"
"231039","718-UY","2018/03/02 14:59:37","新北市新店區民權路14號","121.542138333333","24.9829766666667","6500600","新店區"
"231013","719-UM","2018/03/02 14:59:48","新北市新店區華潭街1巷2號","121.529428333333","24.950315","6500600","新店區"
"231032","720-UM","2018/03/02 14:59:47","新北市新店區安泰路60巷134弄86號","121.484125","24.9434583333333","6500600","新店區"
"231005","897-TW","2018/03/02 14:59:46","新北市新店區復興路66號","121.53775","24.9867866666667","6500600","新店區"
"231004","899-TW","2018/03/02 14:59:48","新北市新店區建國路104-1號","121.539921666667","24.977805","6500600","新店區"
"231037","AKT-0513","2018/03/02 14:59:36","新北市新店區安興路94號","121.514855","24.97624","6500600","新店區"
"235030","003-UY","2018/03/02 14:59:46","新北市中和區中山路二段62號","121.504016666667","25.0046616666667","6500300","中和區"
"235020","096-UM","2018/03/02 14:59:41","新北市中和區漢民路401號","121.47219","25.007185","6500300","中和區"
"235003","097-UM","2018/03/02 14:59:32","新北市中和區宜安路18巷8號","121.513628333333","24.9961666666667","6500300","中和區"
"235029","098-UM","2018/03/02 14:59:41","新北市中和區永和路128巷47號","121.497746666667","25.0068583333333","6500300","中和區"
"235004","150-BY","2018/03/02 14:59:37","新北市中和區保健路10巷10號","121.507583333333","24.9969533333333","6500300","中和區"
"235013","186-VK","2018/03/02 14:59:43","新北市中和區景平路522號","121.503161666667","24.994165","6500300","中和區"
"235031","255-BX","2018/03/02 14:59:52","新北市中和區中正路863-3號","121.484668333333","25.0037216666667","6500300","中和區"
"235007","352-BY","2018/03/02 14:59:39","新北市中和區華新街230號","121.50611","24.98173","6500300","中和區"
"235032","377-QA","2018/03/02 14:59:47","新北市中和區中山路二段224號","121.49941","25.0025966666667","6500300","中和區"
"235035","269-TV","2018/03/02 14:59:38","新北市中和區中正路755號","121.484948333333","25.0001616666667","6500300","中和區"
"235014","4979-A6","2018/03/02 14:59:29","新北市中和區景平路153號","121.513566666667","24.9917466666667","6500300","中和區"
"235033","4980-A6","2018/03/02 14:58:53","新北市中和區圓通路30號","121.500871666667","24.998265","6500300","中和區"
"235018","640-BX","2018/03/02 14:59:43","新北市中和區莒光路4號","121.472026666667","25.0046616666667","6500300","中和區"
"235010","733-UM","2018/03/02 14:59:51","新北市中和區興南路一段105巷20弄4號","121.510296666667","24.985765","6500300","中和區"
"235012","896-TW","2018/03/02 14:59:31","新北市中和區忠孝街5巷9號","121.509233333333","24.983065","6500300","中和區"
"235017","900-TW","2018/03/02 14:59:50","新北市中和區民德路258號","121.467996666667","24.997055","6500300","中和區"
"235034","911-UM","2018/03/02 14:59:39","新北市中和區圓通路135號","121.499096666667","24.9959166666667","6500300","中和區"
"235015","157-BY","2018/03/02 14:59:37","新北市中和區景安路198號","121.504231666667","24.991375","6500300","中和區"
"235001","AAC-213","2018/03/02 14:59:32","新北市中和區自立路26號","121.522495","24.9929966666667","6500300","中和區"
"235023","AAC-215","2018/03/02 14:59:33","新北市中和區圓通路343號","121.491535","24.9904216666667","6500300","中和區"
"220017","AAD-861","2018/03/02 14:59:41","新北市板橋區大明街20巷11-2號","121.458731666667","25.0030016666667","6500100","板橋區"
"247007","053-VK","2018/03/02 14:59:36","新北市五股區中興路三段163號","121.44923","25.0806383333333","6501400","蘆洲區"
"207002","749-BX","2018/03/02 14:59:46","新北市萬里區崁腳里崁腳路73號","121.647656666667","25.1595683333333","6502800","萬里區"
"207001","662-BX","2018/03/02 14:59:46","新北市萬里區磺潭里員潭路1-3號","121.646511666667","25.2023733333333","6502800","萬里區"
"236067","105-UM","2018/03/02 14:59:42","新北市土城區明德路二段112號","121.444971666667","24.9841433333333","6501300","土城區"
"236041","107-UM","2018/03/02 14:59:38","新北市土城區裕民路214巷19號","121.452846666667","24.9838816666667","6501300","土城區"
"236077","166-UM","2018/03/02 14:59:50","新北市土城區中州路29號","121.413676666667","24.9578133333333","6501300","土城區"
"236029","253-BX","2018/03/02 14:59:37","新北市土城區順風路33號","121.441133333333","24.9767616666667","6501300","土城區"
"236024","269-VK","2018/03/02 14:59:38","新北市土城區中正路26號","121.44318","24.975215","6501300","土城區"
"236013","270-VK","2018/03/02 14:59:40","新北市土城區立德路17巷4號","121.461916666667","24.9884583333333","6501300","土城區"
"236035","271-VK","2018/03/02 14:59:42","新北市土城區清水路137號","121.45824","24.9816666666667","6501300","土城區"
"236019","401-BY","2018/03/02 14:59:41","新北市土城區延峰街36巷3號","121.469586666667","24.9845216666667","6501300","土城區"
"236057","912-UM","2018/03/02 14:59:48","新北市土城區明德路一段385-1號","121.452446666667","24.9798133333333","6501300","土城區"
"236046","913-UM","2018/03/02 14:59:37","新北市土城區明德路一段375-1號","121.455153333333","24.97813","6501300","土城區"
"236061","915-UM","2018/03/02 14:59:47","新北市土城區延和路105巷1弄15號","121.466868333333","24.9899833333333","6501300","土城區"
"236047","970-R7","2018/03/02 14:59:32","新北市樹林區田尾街60號","121.409511666667","24.960175","6501300","土城區"
"236054","AAC-216","2018/03/02 14:59:52","新北市土城區學成路142號","121.44895","24.9895583333333","6501300","土城區"
"220027","145-BY","2018/03/02 14:59:33","新北市板橋區南雅西路二段259巷3號","121.450678333333","25.0146616666667","6500100","板橋區"
"220028","200-UY","2018/03/02 14:59:49","新北市板橋區大觀路二段153巷44弄53號","121.446045","24.9989866666667","6500100","板橋區"
"220105","KEA-2550","2018/03/02 14:59:41","新北市板橋區文聖街13號","121.475538333333","25.03234","6500100","板橋區"
"220045","257-TC","2018/03/02 14:59:38","新北市板橋區莒光路133巷7弄2號","121.472665","25.0244916666667","6500100","板橋區"
"220020","277-BY","2018/03/02 14:59:47","新北市板橋區大觀路二段265巷7-7號","121.443686666667","24.9941333333333","6500100","板橋區"
"220050","280-UM","2018/03/02 14:59:43","新北市板橋區縣民大道三段61號","121.474721666667","25.0212833333333","6500100","板橋區"
"220005","282-UM","2018/03/02 14:59:32","新北市板橋區信義路161號","121.458493333333","24.9925316666667","6500100","板橋區"
"220019","283-VK","2018/03/02 14:59:42","新北市板橋區信義路83號","121.457706666667","24.99434","6500100","板橋區"
"220043","285-UM","2018/03/02 14:59:50","新北市板橋區文德路21號","121.46222","25.02409","6500100","板橋區"
"220001","285-VK","2018/03/02 14:59:47","新北市板橋區永豐街155號","121.475301666667","25.0201766666667","6500100","板橋區"
"220031","286-VK","2018/03/02 14:59:36","新北市板橋區僑中二街102巷22號","121.445216666667","25.008535","6500100","板橋區"
"220029","287-VK","2018/03/02 14:59:46","新北市板橋區僑中一街124巷18弄21號","121.447053333333","25.0136366666667","6500100","板橋區"
"220009","293-UM","2018/03/02 14:59:41","新北市板橋區中山路一段2號","121.459738333333","25.007605","6500100","板橋區"
"220010","295-UM","2018/03/02 14:59:27","新北市板橋區中山路二段613號","121.485576666667","25.022445","6500100","板橋區"
"220016","299-UM","2018/03/02 14:59:50","新北市板橋區光復街133巷37-1號","121.484008333333","25.01952","6500100","板橋區"
"220023","303-R5","2018/03/02 14:59:51","新北市板橋區金華街10巷48弄52-2號","121.458838333333","25.0201233333333","6500100","板橋區"
"220041","307-R5","2018/03/02 14:59:40","新北市板橋區裕民街128巷1號","121.458736666667","25.0275533333333","6500100","板橋區"
"220047","317-R6","2018/03/02 14:59:42","新北市板橋區新海路72巷5弄13號","121.461831666667","25.0225283333333","6500100","板橋區"
"220012","486-VK","2018/03/02 14:59:48","新北市板橋區館前東路130號","121.463968333333","25.0077916666667","6500100","板橋區"
"220038","487-VK","2018/03/02 14:59:48","新北市板橋區新海路385巷34弄2號","121.457423333333","25.0255266666667","6500100","板橋區"
"220037","491-VK","2018/03/02 14:59:39","新北市板橋區民治街57巷2號","121.479443333333","25.0333216666667","6500100","板橋區"
"220052","561-BX","2018/03/02 14:59:50","新北市板橋區文化路一段421巷29號","121.465965","25.02335","6500100","板橋區"
"220011","609-BX","2018/03/02 14:59:52","新北市板橋區中山路二段363號","121.479838333333","25.0190566666667","6500100","板橋區"
"220040","637-BX","2018/03/02 14:59:41","新北市板橋區文聖街95號","121.477663333333","25.0296633333333","6500100","板橋區"
"220025","687-BX","2018/03/02 14:59:50","新北市板橋區僑中一街124巷62-4號","121.446808333333","25.0169833333333","6500100","板橋區"
"220042","689-BX","2018/03/02 14:59:40","新北市板橋區長江路三段101號","121.474613333333","25.0343966666667","6500100","板橋區"
"220002","741-BX","2018/03/02 14:59:43","新北市板橋區忠孝路忠義巷3弄48號","121.465171666667","25.004535","6500100","板橋區"
"220051","KEA-2699","2018/03/02 14:59:41","新北市板橋區文聖街58號","121.476706666667","25.03105","6500100","板橋區"
"220003","827-TW","2018/03/02 14:59:52","新北市板橋區仁愛路76巷5弄1號","121.460671666667","24.9987766666667","6500100","板橋區"
"220014","829-TW","2018/03/02 14:59:44","新北市板橋區漢生東路163號","121.469531666667","25.0125883333333","6500100","板橋區"
"220039","830-TW","2018/03/02 14:59:49","新北市板橋區新海路129號","121.460883333333","25.0231483333333","6500100","板橋區"
"220022","895-R6","2018/03/02 14:59:49","新北市板橋區明德街4號","121.45984","25.0101616666667","6500100","板橋區"
"220021","985-R7","2018/03/02 14:59:45","新北市板橋區館前西路162號","121.452773333333","25.0085766666667","6500100","板橋區"
"220046","AAC-210","2018/03/02 14:59:41","新北市板橋區光正街16巷8號","121.463106666667","25.01732","6500100","板橋區"
"220018","AAC-253","2018/03/02 14:59:42","新北市板橋區四川路一段140號","121.459943333333","25.0037666666667","6500100","板橋區"
