"lineid","car","time","location","longitude","latitude","cityid","cityname"
"249005","172-UM","2018/03/02 17:09:42","新北市八里區大堀湖23-5號","121.424555","25.150605","6502300","八里區"
"249001","173-UM","2018/03/02 17:09:44","新北市八里區中華路二段249-1號","121.403935","25.1483683333333","6502300","八里區"
"249004","303-UY","2018/03/02 17:09:43","新北市八里區忠孝路185號","121.42289","25.1608","6502300","八里區"
"249002","305-UY","2018/03/02 17:09:32","新北市八里區龍米路二段153巷1號","121.440913333333","25.1518266666667","6502300","八里區"
"249003","593-UM","2018/03/02 17:09:48","新北市八里區訊塘路96號","121.397588333333","25.14651","6502300","八里區"
"244013","069-UM","2018/03/02 17:09:37","新北市林口區粉寮69號","121.405071666667","25.09081","6501700","林口區"
"244007","080-UY","2018/03/02 17:09:37","新北市林口區菁埔25-2號","121.377045","25.09645","6501700","林口區"
"244025","742-UY","2018/03/02 17:09:40","新北市林口區中山路164號","121.390503333333","25.0788333333333","6501700","林口區"
"244023","483-VK","2018/03/02 17:09:45","新北市林口區仁愛路一段258號","121.394335","25.0759183333333","6501700","林口區"
"244019","837-TS","2018/03/02 17:09:40","新北市林口區四維路156-1號","121.380628333333","25.0753833333333","6501700","林口區"
"244021","838-TS","2018/03/02 17:09:36","新北市林口區粉寮路二段30號","121.403045","25.0864416666667","6501700","林口區"
"231046","278-BY","2018/03/02 17:09:45","新北市新店區直潭路92號","121.530896666667","24.9375766666667","6500600","新店區"
"241011","013-R5","2018/03/02 17:09:44","新北市三重區仁愛街51號","121.496491666667","25.07193","6500200","三重區"
"241028","022-UY","2018/03/02 17:09:42","新北市三重區重新路三段110號","121.492305","25.0603116666667","6500200","三重區"
"241008","059-VK","2018/03/02 17:09:46","新北市三重區力行路二段138-1號","121.482391666667","25.0755983333333","6500200","三重區"
"241009","060-VK","2018/03/02 17:09:53","新北市三重區三和路四段233號","121.481198333333","25.0798383333333","6500200","三重區"
"241015","062-VK","2018/03/02 17:09:37","新北市三重區長生街35號","121.499701666667","25.0664366666667","6500200","三重區"
"241017","063-VK","2018/03/02 17:09:54","新北市三重區中正北路25巷8號","121.49341","25.0627966666667","6500200","三重區"
"241026","066-VK","2018/03/02 17:09:43","新北市三重區重新路一段102號","121.500958333333","25.06328","6500200","三重區"
"241002","090-VK","2018/03/02 17:09:41","新北市三重區五華街35巷26號","121.495161666667","25.081285","6500200","三重區"
"241003","091-VK","2018/03/02 17:09:25","新北市三重區仁義街252號","121.493691666667","25.0859083333333","6500200","三重區"
"241005","262-UM","2018/03/02 17:09:36","新北市三重區永安北路二段13巷15號","121.482735","25.0814683333333","6500200","三重區"
"241016","265-UM","2018/03/02 17:09:50","新北市三重區中正北路25巷25弄5號","121.493386666667","25.0626366666667","6500200","三重區"
"241022","267-UM","2018/03/02 17:09:37","新北市三重區中正北路111-1號","121.485733333333","25.0653166666667","6500200","三重區"
"241018","268-UM","2018/03/02 17:09:46","新北市三重區六張街48號","121.494356666667","25.07035","6500200","三重區"
"241032","269-UM","2018/03/02 17:09:39","新北市三重區三陽路3號","121.486215","25.0589016666667","6500200","三重區"
"241013","270-UM","2018/03/02 17:09:39","新北市三重區仁愛街104號","121.495315","25.07413","6500200","三重區"
"241025","271-UM","2018/03/02 17:09:37","新北市三重區中正北路560巷79號","121.470925","25.0688783333333","6500200","三重區"
"241007","398-BY","2018/03/02 17:09:52","新北市三重區三和路四段155巷26號","121.484275","25.0787483333333","6500200","三重區"
"241020","413-TH","2018/03/02 17:09:52","新北市三重區自強路三段33號","121.486926666667","25.0725833333333","6500200","三重區"
"241004","475-VK","2018/03/02 17:09:50","新北市三重區五華街110巷1號","121.491951666667","25.082965","6500200","三重區"
"241024","478-VK","2018/03/02 17:09:38","新北市三重區中正北路183號","121.4777","25.0694416666667","6500200","三重區"
"241030","480-VK","2018/03/02 17:09:48","新北市三重區集成路34號","121.488751666667","25.0526933333333","6500200","三重區"
"241014","543-UM","2018/03/02 17:09:46","新北市三重區介壽路39巷170號","121.5022","25.070885","6500200","三重區"
"241023","545-UM","2018/03/02 17:09:39","新北市三重區忠孝路三段84巷1號","121.480225","25.0644766666667","6500200","三重區"
"241001","547-UM","2018/03/02 17:09:46","新北市三重區五華街9-2號","121.495163333333","25.0800283333333","6500200","三重區"
"241019","KEA-2593","2018/03/02 17:09:49","新北市三重區力行路一段153巷17號","121.485918333333","25.0690166666667","6500200","三重區"
"241006","AAD-863","2018/03/02 17:09:37","新北市三重區三和路四段264巷2弄13號","121.485181666667","25.076675","6500200","三重區"
"241012","941-UM","2018/03/02 17:09:50","新北市三重區仁興街10號","121.499636666667","25.0743183333333","6500200","三重區"
"241029","942-UM","2018/03/02 17:09:56","新北市三重區重新路三段132號","121.491565","25.0598583333333","6500200","三重區"
"241033","AAC-255","2018/03/02 17:09:36","新北市三重區中興北街271號","121.469276666667","25.0604983333333","6500200","三重區"
"247022","893-R6","2018/03/02 17:09:52","新北市蘆洲區民族路504號","121.469375","25.0902","6501400","蘆洲區"
"247012","546-UM","2018/03/02 17:09:53","新北市蘆洲區信義路292巷6號","121.478073333333","25.0877016666667","6501400","蘆洲區"
"247020","500-BY","2018/03/02 17:09:47","新北市蘆洲區民族路426巷42號","121.473003333333","25.093275","6501400","蘆洲區"
"247010","339-TH","2018/03/02 17:09:35","新北市蘆洲區民族路22號","121.476108333333","25.084045","6501400","蘆洲區"
"247002","337-TH","2018/03/02 17:09:39","新北市蘆洲區永樂街83號","121.455686666667","25.0888183333333","6501400","蘆洲區"
"247004","335-TH","2018/03/02 17:09:37","新北市蘆洲區長安街207巷19號","121.459445","25.081635","6501400","蘆洲區"
"247016","057-VK","2018/03/02 17:09:27","新北市蘆洲區光華路71號","121.46806","25.0827033333333","6501400","蘆洲區"
"247006","056-VK","2018/03/02 17:09:48","新北市蘆洲區長安街108巷22號","121.462013333333","25.0820966666667","6501400","蘆洲區"
"247008","053-VK","2018/03/02 17:09:45","新北市蘆洲區信義路30巷56號","121.474678333333","25.0780733333333","6501400","蘆洲區"
"247014","007-UY","2018/03/02 17:09:37","新北市蘆洲區中央路37巷15-19號","121.473103333333","25.0825683333333","6501400","蘆洲區"
"247024","002-UY","2018/03/02 17:09:34","新北市蘆洲區長興路62號","121.463138333333","25.0838616666667","6501400","蘆洲區"
"247018","001-UY","2018/03/02 17:09:46","新北市蘆洲區復興路160號","121.4775","25.0880833333333","6501400","蘆洲區"
"228002","585-TW","2018/03/02 17:09:38","新北市貢寮區龍崗里泮宮路51-1號","121.90837","25.0165183333333","6502600","貢寮區"
"228001","670-TC","2018/03/02 17:09:53","新北市貢寮區仁理村尖山腳街20號","121.924748333333","25.047815","6502600","貢寮區"
"228003","828-UM","2018/03/02 17:09:40","新北市貢寮區福隆里東興街44號","121.948586666667","25.0178316666667","6502600","貢寮區"
"224006","676-BX","2018/03/02 17:09:53","新北市瑞芳區大寮路108號","121.781521666667","25.0978083333333","6501200","瑞芳區"
"224008","285-BY","2018/03/02 17:09:47","新北市瑞芳區柴寮路377號","121.828391666667","25.0885916666667","6501200","瑞芳區"
"224007","275-VK","2018/03/02 17:09:45","新北市瑞芳區粗坑口路92號","121.760485","25.099165","6501200","瑞芳區"
"224009","273-VK","2018/03/02 17:09:46","新北市瑞芳區濱二路30號","121.841116666667","25.115165","6501200","瑞芳區"
"224005","271-BY","2018/03/02 17:09:44","新北市瑞芳區鼻頭路171號","121.91575","25.12282","6501200","瑞芳區"
"227011","642-TC","2018/03/02 17:09:46","新北市雙溪區三貂里子崙坑1-4號","121.849705","25.057625","6502500","雙溪區"
"227003","400-TW","2018/03/02 17:09:48","新北市雙溪區外柑里外柑腳16號","121.813051666667","25.02019","6502500","雙溪區"
"251004","009-UM","2018/03/02 17:09:37","新北市淡水區中山路37號","121.443575","25.1703483333333","6501000","淡水區"
"251005","010-UM","2018/03/02 17:09:53","新北市淡水區中山路113號","121.441721666667","25.1708416666667","6501000","淡水區"
"251008","181-VK","2018/03/02 17:09:48","新北市淡水區樹梅坑15號","121.471113333333","25.1435966666667","6501000","淡水區"
"251010","413-VK","2018/03/02 17:09:45","新北市淡水區新市二路三段16號","121.432323333333","25.1949083333333","6501000","淡水區"
"251012","441-VK","2018/03/02 17:09:42","新北市淡水區大義街3號","121.443833333333","25.1780566666667","6501000","淡水區"
"251006","561-UM","2018/03/02 17:09:54","新北市淡水區中正路257號","121.433168333333","25.1744966666667","6501000","淡水區"
"251009","575-R6","2018/03/02 17:09:39","新北市淡水區三民街17號","121.438973333333","25.1717766666667","6501000","淡水區"
"251007","577-R6","2018/03/02 17:09:49","新北市淡水區中正東路二段141號","121.459626666667","25.1476666666667","6501000","淡水區"
"251011","650-BX","2018/03/02 17:09:39","新北市淡水區坪頂路48號","121.45784","25.162465","6501000","淡水區"
"252002","178-VK","2018/03/02 17:09:34","新北市三芝區忠孝街1-19號","121.505761666667","25.25339","6502100","三芝區"
"252001","292-VK","2018/03/02 17:09:36","新北市三芝區埔頭里埔頭15號","121.495438333333","25.260115","6502100","三芝區"
"242029","986-R7","2018/03/02 17:09:43","新北市新莊區新泰路255巷83號","121.442218333333","25.0390966666667","6500500","新莊區"
"242050","751-BX","2018/03/02 17:09:47","新北市新莊區中環路一段281號","121.442045","25.0313233333333","6500500","新莊區"
"242023","613-BX","2018/03/02 17:09:48","新北市新莊區新泰路255巷83號","121.442158333333","25.03908","6500500","新莊區"
"242027","612-BX","2018/03/02 17:09:37","新北市新莊區新泰路357巷3弄57號","121.44209","25.039215","6500500","新莊區"
"242039","566-BX","2018/03/02 17:09:41","新北市新莊區新泰路357巷3弄49號","121.441965","25.0400816666667","6500500","新莊區"
"242044","497-BY","2018/03/02 17:09:51","新北市新莊區新泰路357巷3弄45號","121.441981666667","25.0401966666667","6500500","新莊區"
"242048","441-UM","2018/03/02 17:09:42","新北市新莊區福營路98號","121.436675","25.0330016666667","6500500","新莊區"
"242054","440-UM","2018/03/02 17:09:40","新北市新莊區三和路10號","121.441998333333","25.0356583333333","6500500","新莊區"
"242034","415-TV","2018/03/02 17:09:47","新北市新莊區新泰路357巷3弄57號","121.442136666667","25.03932","6500500","新莊區"
"242041","400-BY","2018/03/02 17:09:52","新北市新莊區新泰路357巷3弄57號","121.442195","25.0396233333333","6500500","新莊區"
"242060","362-BY","2018/03/02 17:09:36","新北市新莊區新泰路255巷83號","121.442331666667","25.0387083333333","6500500","新莊區"
"242058","353-BY","2018/03/02 17:09:48","新北市新莊區新泰路255巷83號","121.442233333333","25.038835","6500500","新莊區"
"242037","133-UY","2018/03/02 17:09:39","新北市新莊區公園一路75巷13號","121.442476666667","25.037995","6500500","新莊區"
"242015","135-UY","2018/03/02 17:09:45","新北市新莊區三和路12-21號","121.441711666667","25.0387316666667","6500500","新莊區"
"242009","173-VK","2018/03/02 17:04:18","新北市新莊區新泰路255巷83號","121.442366666667","25.0388933333333","6500500","新莊區"
"242002","176-VK","2018/03/02 17:09:49","新北市新莊區三和路12-21號","121.441986666667","25.0385383333333","6500500","新莊區"
"242019","348-TH","2018/03/02 17:09:37","新北市新莊區新泰路357巷3弄57號","121.442165","25.03958","6500500","新莊區"
"242017","350-TH","2018/03/02 17:09:38","新北市新莊區三和路12-21號","121.44183","25.0388116666667","6500500","新莊區"
"242011","351-TH","2018/03/02 17:09:42","新北市新莊區新泰路357巷3弄57號","121.442073333333","25.0395016666667","6500500","新莊區"
"238015","755-BX","2018/03/02 17:09:51","新北市樹林區新興街47號","121.39998","24.9715066666667","6500700","樹林區"
"238023","601-UM","2018/03/02 17:09:42","新北市樹林區八德街106-1號","121.420981666667","24.979915","6500700","樹林區"
"238019","599-UM","2018/03/02 17:09:36","新北市樹林區八德街367-1號","121.41642","24.972375","6500700","樹林區"
"238018","571-TV","2018/03/02 17:09:44","新北市樹林區博愛街253號","121.424403333333","24.98503","6500700","樹林區"
"238024","5061-A6","2018/03/02 17:09:40","新北市樹林區鎮前街132號","121.424751666667","24.9906766666667","6500700","樹林區"
"238021","KEA-2539","2018/03/02 17:09:55","新北市樹林區西圳街165巷20弄26號","121.395575","24.9601216666667","6500700","樹林區"
"238025","303-VK","2018/03/02 17:09:47","新北市樹林區中山路三段125-10號","121.397531666667","24.973715","6500700","樹林區"
"238017","283-BY","2018/03/02 17:09:52","新北市樹林區中山路三段125-10號","121.3974","24.9736166666667","6500700","樹林區"
"238014","282-BY","2018/03/02 17:09:35","新北市樹林區東興街3號","121.409863333333","24.9803716666667","6500700","樹林區"
"238020","268-VK","2018/03/02 17:09:37","新北市樹林區大安路493號","121.414365","24.9870133333333","6500700","樹林區"
"238026","172-UY","2018/03/02 17:09:53","新北市樹林區新興街9號","121.400228333333","24.9734783333333","6500700","樹林區"
"238016","169-UY","2018/03/02 17:09:49","新北市樹林區東佳路16號","121.409603333333","24.9808733333333","6500700","樹林區"
"239007","AAC-297","2018/03/02 17:09:46","新北市鶯歌區信義街105號","121.353555","24.9548916666667","6500800","鶯歌區"
"239006","891-R6","2018/03/02 17:09:37","新北市鶯歌區八德路2巷37弄5號","121.337041666667","24.946575","6500800","鶯歌區"
"239008","527-UM","2018/03/02 17:09:40","新北市鶯歌區尖山路57-1號","121.350041666667","24.9496316666667","6500800","鶯歌區"
"239005","526-UM","2018/03/02 17:09:46","新北市鶯歌區鶯桃路316號","121.334151666667","24.9618083333333","6500800","鶯歌區"
"239001","417-VK","2018/03/02 17:09:37","新北市鶯歌區尖山路86巷17號","121.347166666667","24.9494533333333","6500800","鶯歌區"
"239003","360-BY","2018/03/02 17:09:45","新北市鶯歌區八德路50號","121.330113333333","24.9555983333333","6500800","鶯歌區"
"239004","193-VK","2018/03/02 17:09:51","新北市鶯歌區文化路256巷15弄27號","121.352273333333","24.9470083333333","6500800","鶯歌區"
"242021","281-VK","2018/03/02 17:09:47","新北市新莊區三和路12-18號","121.442056666667","25.03758","6500500","新莊區"
"242032","280-VK","2018/03/02 17:09:50","新北市新莊區三和路12-21號","121.441956666667","25.0382616666667","6500500","新莊區"
