"lineid","car","time","location","longitude","latitude","cityid","cityname"
"234046","148-BY","2018/03/02 19:19:47","新北市永和區得和路343號","121.523865","24.99955","6500400","永和區"
"234007","207-UY","2018/03/02 19:19:39","新北市永和區中山路一段222號","121.508153333333","25.008235","6500400","永和區"
"234081","298-R6","2018/03/02 19:19:41","新北市永和區福和路7巷11弄4號","121.525555","25.0072566666667","6500400","永和區"
"234038","336-UY","2018/03/02 19:19:50","新北市永和區民樂街55巷2號","121.52748","24.998445","6500400","永和區"
"234064","337-UY","2018/03/02 19:19:43","新北市永和區永元路17巷6弄1號","121.521371666667","25.000775","6500400","永和區"
"234086","338-UY","2018/03/02 19:19:49","新北市永和區永利路72號","121.520288333333","25.0042566666667","6500400","永和區"
"234070","552-UM","2018/03/02 19:19:43","新北市永和區豫溪街55號","121.517233333333","25.0099366666667","6500400","永和區"
"234017","745-BX","2018/03/02 19:19:48","新北市永和區環河西路一段85巷4弄20號","121.51203","25.016955","6500400","永和區"
"234030","746-BX","2018/03/02 19:19:38","新北市永和區厚德街52號","121.524785","24.9987666666667","6500400","永和區"
"234054","KEA-2590","2018/03/02 19:19:43","新北市永和區中興街27號","121.516116666667","25.0120583333333","6500400","永和區"
"234013","KEA-2591","2018/03/02 19:19:51","新北市永和區信義路14號","121.514426666667","25.0121066666667","6500400","永和區"
"234061","AAD-866","2018/03/02 19:19:47","新北市永和區中正路381號","121.517145","25.0037433333333","6500400","永和區"
"234042","862-TW","2018/03/02 19:19:53","新北市永和區永貞路287巷1號","121.510923333333","25.0052033333333","6500400","永和區"
"234050","863-TW","2018/03/02 19:19:34","新北市永和區仁愛路104巷8號","121.512181666667","25.0135883333333","6500400","永和區"
"234026","9371-KE","2018/03/02 19:19:54","新北市永和區安樂路144巷25號","121.515056666667","24.999905","6500400","永和區"
"234011","9373-KE","2018/03/02 19:19:42","新北市永和區永平路218巷23號","121.510051666667","25.0111","6500400","永和區"
"249002","305-UY","2018/03/02 19:19:51","新北市八里區龍形一街33巷1-6號","121.449371666667","25.129475","6502300","八里區"
"249003","593-UM","2018/03/02 19:19:41","新北市八里區中山路二段466巷5號","121.398745","25.1474416666667","6502300","八里區"
"248018","225-UY","2018/03/02 19:19:38","新北市五股區壟路1-7號","121.418851666667","25.0954433333333","6501500","五股區"
"248012","247-BX","2018/03/02 19:19:49","新北市五股區中興路四段48巷16號","121.438681666667","25.08347","6501500","五股區"
"248010","272-BY","2018/03/02 19:19:38","新北市五股區水碓二路1號","121.430588333333","25.0711966666667","6501500","五股區"
"248004","677-BX","2018/03/02 19:19:34","新北市五股區五福路51號","121.432985","25.089725","6501500","五股區"
"248002","678-BX","2018/03/02 19:19:53","新北市五股區凌雲路一段158巷14-1號","121.447873333333","25.1035433333333","6501500","五股區"
"234023","9380-KE","2018/03/02 19:19:53","新北市永和區竹林路100-1號","121.519595","25.0119783333333","6500400","永和區"
"234077","969-R7","2018/03/02 19:19:46","新北市永和區民治街72巷19號","121.51826","24.99876","6500400","永和區"
"234074","AAC-211","2018/03/02 19:19:53","新北市永和區竹林路94-1號","121.519395","25.0121816666667","6500400","永和區"
"234067","AAC-212","2018/03/02 19:19:53","新北市永和區保平路50巷3號","121.511186666667","25.0072766666667","6500400","永和區"
"234003","AAC-295","2018/03/02 19:19:51","新北市永和區中山路一段102-1號","121.511085","25.0104866666667","6500400","永和區"
"244013","069-UM","2018/03/02 19:19:37","新北市林口區麗園一街2巷1號","121.375955","25.0719383333333","6501700","林口區"
"244023","483-VK","2018/03/02 19:19:45","新北市林口區民富街99號","121.370553333333","25.0753766666667","6501700","林口區"
"244011","701-TV","2018/03/02 19:19:56","新北市林口區中山路598號","121.375661666667","25.0857766666667","6501700","林口區"
"244019","837-TS","2018/03/02 19:19:40","新北市林口區忠孝路597號","121.377776666667","25.068735","6501700","林口區"
"243012","AAD-798","2018/03/02 19:19:47","新北市泰山區仁愛路100巷11號","121.43344","25.0551816666667","6501600","泰山區"
"243011","297-R6","2018/03/02 19:19:45","新北市泰山區中央路11巷1號","121.426311666667","25.0427833333333","6501600","泰山區"
"243015","380-SR","2018/03/02 19:19:45","新北市泰山區公園路60號","121.42621","25.0556866666667","6501600","泰山區"
"243014","421-VK","2018/03/02 19:19:50","新北市泰山區泰林路二段197號","121.43332","25.0612933333333","6501600","泰山區"
"243010","KEA-2215","2018/03/02 19:19:41","新北市泰山區明志路一段492巷6弄2號","121.429931666667","25.0548833333333","6501600","泰山區"
"243009","KEA-2216","2018/03/02 19:19:52","新北市泰山區和平街13巷36號","121.434455","25.06545","6501600","泰山區"
"243013","646-TV","2018/03/02 19:19:52","新北市泰山區明志路三段145巷2弄13號","121.425125","25.0394816666667","6501600","泰山區"
"243016","680-BX","2018/03/02 19:19:52","新北市泰山區工專路20號","121.423778333333","25.0397816666667","6501600","泰山區"
"222003","436-BY","2018/03/02 19:19:42","新北市深坑區深南路91號","121.6265","25.015975","6501800","深坑區"
"222002","659-BX","2018/03/02 19:19:39","新北市深坑區北深路一段177號","121.63249","25.01086","6501800","深坑區"
"231041","002-UM","2018/03/02 19:19:37","新北市新店區溪園路203號","121.526583333333","24.9841933333333","6500600","新店區"
"231059","046-UY","2018/03/02 19:19:42","新北市新店區安和路三段33-1號","121.516988333333","24.980125","6500600","新店區"
"231061","047-UY","2018/03/02 19:19:57","新北市新店區安康路一段266巷4號","121.520103333333","24.9640316666667","6500600","新店區"
"231060","106-UY","2018/03/02 19:19:39","新北市新店區安康路二段105號","121.512781666667","24.9624966666667","6500600","新店區"
"231051","107-UY","2018/03/02 19:19:54","新北市新店區中央路116號","121.53106","24.9751","6500600","新店區"
"231048","108-UY","2018/03/02 19:19:56","新北市新店區中興路一段282-4號","121.546223333333","24.968345","6500600","新店區"
"231053","187-VK","2018/03/02 19:19:52","新北市新店區自強路251號","121.548155","24.919575","6500600","新店區"
"231050","KEA-2219","2018/03/02 19:19:43","新北市新店區竹林路71-7號","121.553613333333","24.9513466666667","6500600","新店區"
"231046","278-BY","2018/03/02 19:19:45","新北市新店區華城路36巷1-1號","121.528451666667","24.9553433333333","6500600","新店區"
"231058","3712-VJ","2018/03/02 19:19:44","新北市新店區光明街286巷6號","121.54051","24.96376","6500600","新店區"
"231055","4716-K9","2018/03/02 19:19:49","新北市新店區新生街13巷26號","121.539001666667","24.96653","6500600","新店區"
"231065","512-UM","2018/03/02 19:19:44","新北市新店區安祥路110巷30弄5號","121.473873333333","24.9568933333333","6500600","新店區"
"231054","513-UM","2018/03/02 19:19:46","新北市新店區國校路39號","121.53799","24.9555783333333","6500600","新店區"
"231064","515-UM","2018/03/02 19:19:48","新北市新店區安忠路57巷26弄70號","121.512085","24.957385","6500600","新店區"
"231045","617-UM","2018/03/02 19:19:49","新北市新店區北宜路一段187號","121.546953333333","24.9525133333333","6500600","新店區"
"231040","619-UM","2018/03/02 19:19:46","新北市新店區中華路70巷2號","121.539093333333","24.9691666666667","6500600","新店區"
"231042","641-BX","2018/03/02 19:19:49","新北市新店區北宜路一段3號","121.53837","24.9583933333333","6500600","新店區"
"231063","645-TV","2018/03/02 19:19:40","新北市新店區達觀路14巷8號","121.503203333333","24.9432883333333","6500600","新店區"
"231049","719-UM","2018/03/02 19:19:54","新北市新店區明德路64號","121.54156","24.9794833333333","6500600","新店區"
"231062","720-UM","2018/03/02 19:19:51","新北市新店區莒光路60號","121.522988333333","24.9554366666667","6500600","新店區"
"231044","897-TW","2018/03/02 19:19:39","新北市新店區中興路三段255號","121.54245","24.984395","6500600","新店區"
"231043","899-TW","2018/03/02 19:19:44","新北市新店區北新路二段107號","121.542936666667","24.9744583333333","6500600","新店區"
"231066","AKT-0513","2018/03/02 19:19:43","新北市新店區安康路三段207巷3號","121.487928333333","24.951175","6500600","新店區"
"241028","022-UY","2018/03/02 19:19:44","新北市三重區中正北路23號","121.492053333333","25.0612983333333","6500200","三重區"
"241009","060-VK","2018/03/02 19:19:57","新北市三重區溪尾街230巷40號","121.4863","25.0812","6500200","三重區"
"241031","061-VK","2018/03/02 19:19:48","新北市三重區重新路四段172號","121.48632","25.0553983333333","6500200","三重區"
"241017","063-VK","2018/03/02 19:19:54","新北市三重區大同北路217號","121.491691666667","25.0660583333333","6500200","三重區"
"241026","066-VK","2018/03/02 19:19:43","新北市三重區重安街103號","121.493928333333","25.0551766666667","6500200","三重區"
"241022","267-UM","2018/03/02 19:19:49","新北市三重區重陽路二段72號","121.48721","25.0641033333333","6500200","三重區"
"241032","269-UM","2018/03/02 19:19:46","新北市三重區新生街85號","121.484035","25.0594116666667","6500200","三重區"
"241025","271-UM","2018/03/02 19:19:37","新北市三重區中正北路404號","121.475421666667","25.070395","6500200","三重區"
"241007","398-BY","2018/03/02 19:19:52","新北市三重區三和路四段163巷79號","121.48606","25.0791916666667","6500200","三重區"
"241020","413-TH","2018/03/02 19:19:50","新北市三重區後竹圍街107號","121.488978333333","25.0728566666667","6500200","三重區"
"241024","478-VK","2018/03/02 19:19:38","新北市三重區三民街326號","121.476553333333","25.06939","6500200","三重區"
"241030","480-VK","2018/03/02 19:19:48","新北市三重區新興路40號","121.491498333333","25.0533733333333","6500200","三重區"
"241029","942-UM","2018/03/02 19:19:45","新北市三重區重安街31號","121.491168333333","25.0569766666667","6500200","三重區"
"235066","003-UY","2018/03/02 19:19:54","新北市中和區廣福路112號","121.502268333333","25.0011916666667","6500300","中和區"
"235064","005-UY","2018/03/02 19:19:56","新北市中和區泰和街4號","121.49979","25.001375","6500300","中和區"
"235063","006-UY","2018/03/02 19:19:45","新北市中和區連城路220號","121.491301666667","24.9964733333333","6500300","中和區"
"235060","031-BX","2018/03/02 19:19:40","新北市中和區民有街12號","121.475541666667","25.005525","6500300","中和區"
"235056","096-UM","2018/03/02 19:19:51","新北市中和區新民街94巷18號","121.48146","25.009255","6500300","中和區"
"235039","097-UM","2018/03/02 19:19:50","新北市中和區景平路64巷14弄1號","121.522645","24.9912983333333","6500300","中和區"
"235065","098-UM","2018/03/02 19:19:50","新北市中和區中山路二段64巷8號","121.503703333333","25.0050716666667","6500300","中和區"
"235058","151-BY","2018/03/02 19:19:51","新北市中和區連城路523巷9弄4號","121.481766666667","24.9944533333333","6500300","中和區"
"235055","183-VK","2018/03/02 19:19:55","新北市中和區莒光路97-2號","121.47239","25.00298","6500300","中和區"
"235038","185-VK","2018/03/02 19:19:57","新北市中和區大仁街10巷41號","121.519825","24.9924516666667","6500300","中和區"
"235049","186-VK","2018/03/02 19:19:46","新北市中和區景新街263號","121.508833333333","24.9940483333333","6500300","中和區"
"235067","255-BX","2018/03/02 19:19:48","新北市中和區中正路801號","121.4849","25.0008583333333","6500300","中和區"
"235044","293-VK","2018/03/02 19:19:51","新北市中和區復興路300號","121.501475","24.9903533333333","6500300","中和區"
"235072","301-VK","2018/03/02 19:19:45","新北市中和區連城路144巷4弄11號","121.495603333333","24.998875","6500300","中和區"
"235043","352-BY","2018/03/02 19:19:53","新北市中和區景新街250號","121.509215","24.9933283333333","6500300","中和區"
"235068","377-QA","2018/03/02 19:19:40","新北市中和區連勝街38巷16號","121.497865","24.9979466666667","6500300","中和區"
"235061","378-QA","2018/03/02 19:19:57","新北市中和區連城路547號","121.480295","24.9947933333333","6500300","中和區"
"235071","269-TV","2018/03/02 19:19:36","新北市中和區中正路637巷52弄3號","121.485291666667","24.9937166666667","6500300","中和區"
"235050","4979-A6","2018/03/02 19:19:47","新北市中和區景安路208巷2號","121.503775","24.9910416666667","6500300","中和區"
"235069","4980-A6","2018/03/02 19:19:39","新北市中和區莊敬路33巷24號","121.500188333333","25.0055616666667","6500300","中和區"
"235042","551-UM","2018/03/02 19:19:50","新北市中和區大勇街82號","121.518063333333","24.9954083333333","6500300","中和區"
"235045","565-BX","2018/03/02 19:19:55","新北市中和區景新街423巷37號","121.514118333333","24.989815","6500300","中和區"
"235054","640-BX","2018/03/02 19:19:53","新北市中和區國光街109巷4-1號","121.469973333333","25.0004033333333","6500300","中和區"
"235047","732-UM","2018/03/02 19:19:52","新北市中和區和平街54巷1弄2號","121.508661666667","24.9911133333333","6500300","中和區"
"235046","733-UM","2018/03/02 19:19:41","新北市中和區忠孝街2巷16號","121.510801666667","24.981355","6500300","中和區"
"235057","801-TS","2018/03/02 19:19:57","新北市中和區員山路423巷16號","121.480343333333","25.002705","6500300","中和區"
"235052","805-TS","2018/03/02 19:19:50","新北市中和區華新街143巷15號","121.506801666667","24.9810316666667","6500300","中和區"
"235048","896-TW","2018/03/02 19:19:37","新北市中和區忠孝街68號","121.511965","24.984025","6500300","中和區"
"235053","900-TW","2018/03/02 19:19:53","新北市中和區民德路206號","121.468258333333","24.99845","6500300","中和區"
"235070","911-UM","2018/03/02 19:19:54","新北市中和區連城路53號","121.49792","25.0015483333333","6500300","中和區"
"235051","157-BY","2018/03/02 19:19:54","新北市中和區和平街54巷8弄15號","121.509575","24.99152","6500300","中和區"
"235037","AAC-213","2018/03/02 19:19:41","新北市中和區秀朗路三段10巷37弄15號","121.524193333333","24.995555","6500300","中和區"
"235059","AAC-215","2018/03/02 19:19:43","新北市中和區錦和路195巷1弄2號","121.491145","24.9909216666667","6500300","中和區"
"220065","072-UY","2018/03/02 19:19:45","新北市板橋區國泰街70號","121.467568333333","25.00668","6500100","板橋區"
"220086","073-UY","2018/03/02 19:19:35","新北市板橋區中正路216巷91號","121.45859","25.019225","6500100","板橋區"
"220069","AAD-861","2018/03/02 19:19:53","新北市板橋區華興街31巷11號","121.458381666667","25.0040633333333","6500100","板橋區"
"247004","336-TH","2018/03/02 19:19:45","新北市五股區成泰路三段544-1號","121.45531","25.1006183333333","6501400","蘆洲區"
"235041","251-BX","2018/03/02 19:19:36","新北市中和區景安路2號","121.50791","24.9991733333333","6500300","中和區"
"228002","585-TW","2018/03/02 19:19:38","新北市貢寮區雙玉里田寮洋街21號","121.926475","25.0245766666667","6502600","貢寮區"
"228001","670-TC","2018/03/02 19:19:53","新北市貢寮區真理里新港街10號","121.925583333333","25.054415","6502600","貢寮區"
"228003","828-UM","2018/03/02 19:19:39","新北市貢寮區和美里和美街19-2號","121.912795","25.0826033333333","6502600","貢寮區"
"224010","AGQ-8101","2018/03/02 19:19:53","新北市瑞芳區烏勢巷145號","121.847373333333","25.1084466666667","6501200","瑞芳區"
"224006","676-BX","2018/03/02 19:19:53","新北市瑞芳區中山路153-2號","121.802378333333","25.1064283333333","6501200","瑞芳區"
"224008","285-BY","2018/03/02 19:19:56","新北市瑞芳區明燈路三段101號","121.80391","25.1083983333333","6501200","瑞芳區"
"224009","273-VK","2018/03/02 19:19:46","新北市瑞芳區明里路122號","121.863913333333","25.1224","6501200","瑞芳區"
"224005","271-BY","2018/03/02 19:19:44","新北市瑞芳區蛇子形路6號","121.825816666667","25.1048466666667","6501200","瑞芳區"
"227011","642-TC","2018/03/02 19:19:46","新北市雙溪區新基里新基北街40號","121.868556666667","25.0380733333333","6502500","雙溪區"
"227003","400-TW","2018/03/02 19:19:48","新北市雙溪區平林里梅竹蹊64號","121.860583333333","25.035875","6502500","雙溪區"
"253005","032-BX","2018/03/02 19:19:41","新北市石門區阿里荖10號","121.608833333333","25.2801083333333","6502200","石門區"
"253006","295-VK","2018/03/02 19:19:57","新北市石門區楓林17-6號","121.537013333333","25.292265","6502200","石門區"
"222001","KEA-2212","2018/03/02 19:19:53","新北市深坑區北深路二段103號","121.617563333333","25.003425","6501800","深坑區"
"208002","KEA-2872","2018/03/02 19:19:57","新北市金山區環金路376巷1號","121.631948333333","25.2222416666667","6502700","金山區"
"208003","665-BX","2018/03/02 19:19:51","新北市金山區忠孝一路52號","121.637663333333","25.2202716666667","6502700","金山區"
"208001","761-BX","2018/03/02 19:19:52","新北市金山區民生路69號","121.640185","25.219665","6502700","金山區"
"251005","010-UM","2018/03/02 19:19:41","新北市淡水區水源街一段29號","121.443266666667","25.1723416666667","6501000","淡水區"
"251001","011-UM","2018/03/02 19:19:53","新北市淡水區自強路279-1號","121.461348333333","25.1279133333333","6501000","淡水區"
"251010","413-VK","2018/03/02 19:19:45","新北市淡水區沙崙路27號","121.421513333333","25.1815383333333","6501000","淡水區"
"251012","441-VK","2018/03/02 19:19:42","新北市淡水區中山北路三段156號","121.44559","25.1957933333333","6501000","淡水區"
"251006","561-UM","2018/03/02 19:19:54","新北市淡水區大信街33號","121.441973333333","25.1773183333333","6501000","淡水區"
"251009","575-R6","2018/03/02 19:19:38","新北市淡水區大忠街5巷8號","121.443323333333","25.17649","6501000","淡水區"
"251007","577-R6","2018/03/02 19:19:49","新北市淡水區民生路117巷34號","121.46492","25.1396066666667","6501000","淡水區"
"251003","673-BX","2018/03/02 19:19:54","新北市淡水區中山路157號","121.440698333333","25.17276","6501000","淡水區"
"207003","550-UM","2018/03/02 19:19:54","新北市萬里區大鵬里萬里加投79-3號","121.647333333333","25.2123816666667","6502800","萬里區"
"207004","225-TW","2018/03/02 19:19:50","新北市萬里區萬里里成功新村42號","121.687603333333","25.1748116666667","6502800","萬里區"
"252002","178-VK","2018/03/02 19:19:46","新北市三芝區淡金路二段20號","121.50266","25.2596216666667","6502100","三芝區"
"252001","292-VK","2018/03/02 19:19:55","新北市三芝區長勤街9巷11弄1號","121.501791666667","25.2546716666667","6502100","三芝區"
"237004","KEA-2597","2018/03/02 19:19:51","新北市三峽區有木206號","121.439151666667","24.8515216666667","6500900","三峽區"
"237007","153-BY","2018/03/02 19:19:54","新北市三峽區二鬮路122-1號","121.35992","24.9084433333333","6500900","三峽區"
"237009","210-TH","2018/03/02 19:19:37","新北市三峽區文化路111號","121.370451666667","24.9361233333333","6500900","三峽區"
"237013","252-BX","2018/03/02 19:19:43","新北市三峽區大同路39巷33號","121.378183333333","24.92752","6500900","三峽區"
"237012","275-BY","2018/03/02 19:19:48","新北市三峽區三樹路222巷236弄8-3號","121.391428333333","24.9430066666667","6500900","三峽區"
"237008","302-VK","2018/03/02 19:19:37","新北市三峽區中正路一段231號","121.37209","24.926945","6500900","三峽區"
"237014","433-BY","2018/03/02 19:19:43","新北市三峽區中山路70號","121.367165","24.934985","6500900","三峽區"
"237006","5529-G3","2018/03/02 19:19:36","新北市三峽區大同路73號","121.375198333333","24.927295","6500900","三峽區"
"237011","KEA-2596","2018/03/02 19:19:52","新北市三峽區中園街41號","121.368261666667","24.9262733333333","6500900","三峽區"
"237015","649-BX","2018/03/02 19:19:51","新北市三峽區建安25-3號","121.445453333333","24.927415","6500900","三峽區"
"237005","AKY-6261","2018/03/02 19:19:49","新北市三峽區中山路459巷24號","121.357523333333","24.93901","6500900","三峽區"
"236072","105-UM","2018/03/02 19:19:53","新北市土城區學成路114號","121.449671666667","24.9892933333333","6501300","土城區"
"236079","166-UM","2018/03/02 19:19:50","新北市土城區中央路四段321巷38號","121.411728333333","24.9514033333333","6501300","土城區"
"236026","269-VK","2018/03/02 19:19:45","新北市土城區中央路二段61巷22號","121.443201666667","24.97881","6501300","土城區"
"236015","270-VK","2018/03/02 19:19:43","新北市土城區學府路一段21-1號","121.45861","24.9884066666667","6501300","土城區"
"236022","401-BY","2018/03/02 19:19:50","新北市土城區峰廷街3號","121.469153333333","24.98739","6501300","土城區"
"236059","912-UM","2018/03/02 19:19:46","新北市土城區中央路三段67號","121.438771666667","24.9693383333333","6501300","土城區"
"236050","913-UM","2018/03/02 19:19:56","新北市土城區明德路一段398-1號","121.453661666667","24.979095","6501300","土城區"
"238015","755-BX","2018/03/02 19:19:48","新北市樹林區大安路506號","121.413523333333","24.9866533333333","6500700","樹林區"
"238023","601-UM","2018/03/02 19:19:42","新北市樹林區三興路39號","121.396043333333","25.01461","6500700","樹林區"
"238019","599-UM","2018/03/02 19:19:56","新北市樹林區東榮街88巷8號","121.415818333333","24.9830116666667","6500700","樹林區"
"238018","571-TV","2018/03/02 18:55:04","新北市樹林區東榮街86號","121.41603","24.98257","6500700","樹林區"
"238024","5061-A6","2018/03/02 19:19:40","新北市樹林區福德街48-15號","121.398785","24.9744683333333","6500700","樹林區"
"238022","KEA-2213","2018/03/02 19:19:48","新北市樹林區中山路二段147號","121.406631666667","24.9786483333333","6500700","樹林區"
"238021","KEA-2539","2018/03/02 19:19:45","新北市樹林區柑園街二段378巷2號","121.368738333333","24.94999","6500700","樹林區"
"238025","303-VK","2018/03/02 19:19:47","新北市樹林區中山路二段202號","121.411286666667","24.9822316666667","6500700","樹林區"
"238017","283-BY","2018/03/02 19:19:51","新北市樹林區光興街47號","121.41147","25.003","6500700","樹林區"
"238014","282-BY","2018/03/02 19:19:54","新北市樹林區中正路22-1號","121.427745","24.9994766666667","6500700","樹林區"
"238026","172-UY","2018/03/02 19:19:53","新北市樹林區佳園路三段23號","121.388245","24.954765","6500700","樹林區"
"238016","169-UY","2018/03/02 19:19:09","新北市樹林區復興路466號","121.413273333333","24.9835833333333","6500700","樹林區"
"239007","AAC-297","2018/03/02 19:19:46","新北市鶯歌區西湖街45巷13號","121.340011666667","24.9590183333333","6500800","鶯歌區"
"239006","891-R6","2018/03/02 19:19:37","新北市鶯歌區永昌街72號","121.341853333333","24.9497216666667","6500800","鶯歌區"
"239008","527-UM","2018/03/02 19:19:39","新北市鶯歌區大湖路460巷2弄2號","121.339973333333","24.9724416666667","6500800","鶯歌區"
"239005","526-UM","2018/03/02 19:19:46","新北市鶯歌區中湖街315巷1號","121.34639","24.978205","6500800","鶯歌區"
"239001","417-VK","2018/03/02 19:19:40","新北市鶯歌區建國路367巷1號","121.339185","24.9495883333333","6500800","鶯歌區"
"239003","360-BY","2018/03/02 19:19:45","新北市鶯歌區中正二路8號","121.351723333333","24.9521566666667","6500800","鶯歌區"
"239004","193-VK","2018/03/02 19:19:51","新北市鶯歌區二甲路55號","121.335645","24.93357","6500800","鶯歌區"
"221008","489-VK","2018/03/02 19:19:48","新北市汐止區康寧街302-1號","121.626166666667","25.0670283333333","6501100","汐止區"
"221036","130-UY","2018/03/02 19:19:53","新北市汐止區汐萬路一段256巷1號","121.651808333333","25.0748966666667","6501100","汐止區"
"221015","131-UY","2018/03/02 19:19:48","新北市汐止區康寧街901號","121.651665","25.0749183333333","6501100","汐止區"
"221010","269-BY","2018/03/02 19:19:42","新北市汐止區康寧街901號","121.651456666667","25.0749766666667","6501100","汐止區"
"221012","278-VK","2018/03/02 19:19:54","新北市汐止區汐萬路一段265巷2號","121.650723333333","25.0742266666667","6501100","汐止區"
"221023","279-VK","2018/03/02 19:19:48","新北市汐止區康寧街901號","121.650955","25.0752233333333","6501100","汐止區"
"221027","281-BY","2018/03/02 19:19:44","新北市汐止區汐萬路一段312號","121.650416666667","25.07509","6501100","汐止區"
"221038","297-VK","2018/03/02 19:19:43","新北市汐止區康寧街901號","121.650785","25.0752966666667","6501100","汐止區"
"221029","298-VK","2018/03/02 19:19:56","新北市汐止區康寧街901號","121.651656666667","25.074925","6501100","汐止區"
"221031","353-TW","2018/03/02 19:19:36","新北市汐止區康寧街901號","121.651076666667","25.0751566666667","6501100","汐止區"
"221025","623-UM","2018/03/02 19:19:56","新北市汐止區汐萬路一段244-1號","121.651423333333","25.0734033333333","6501100","汐止區"
"221033","647-BX","2018/03/02 19:19:48","新北市汐止區南勢街1巷1號","121.627083333333","25.0374483333333","6501100","汐止區"
"221002","707-TV","2018/03/02 19:19:46","新北市汐止區大同路一段398-1號","121.640148333333","25.0600383333333","6501100","汐止區"
"220079","145-BY","2018/03/02 19:19:56","新北市板橋區民權路202巷17弄48-1號","121.45896","25.0166633333333","6500100","板橋區"
"220080","200-UY","2018/03/02 19:19:39","新北市板橋區大觀路二段19巷37號","121.448053333333","25.0031","6500100","板橋區"
"220106","KEA-2550","2018/03/02 19:19:52","新北市板橋區雙十路三段72號","121.470193333333","25.0326083333333","6500100","板橋區"
"220082","610-BX","2018/03/02 19:19:42","新北市板橋區篤行路三段99號","121.426146666667","24.9846216666667","6500100","板橋區"
"220096","257-TC","2018/03/02 19:19:39","新北市板橋區大同街50巷55號","121.478673333333","25.026375","6500100","板橋區"
"220056","276-BY","2018/03/02 19:19:41","新北市板橋區干城路157號","121.460718333333","24.9922733333333","6500100","板橋區"
"220072","277-BY","2018/03/02 19:19:48","新北市板橋區篤行路二段161巷20號","121.429936666667","24.987365","6500100","板橋區"
"220101","280-UM","2018/03/02 19:19:43","新北市板橋區雙十路二段47巷8弄6號","121.474621666667","25.0257283333333","6500100","板橋區"
"220057","282-UM","2018/03/02 19:19:51","新北市板橋區重慶路293號","121.463316666667","24.9992633333333","6500100","板橋區"
"220071","283-VK","2018/03/02 19:19:45","新北市板橋區忠孝路48巷7弄6號","121.461303333333","25.0003966666667","6500100","板橋區"
"220094","285-UM","2018/03/02 19:19:46","新北市板橋區光武街136巷9號","121.46587","25.030255","6500100","板橋區"
"220053","285-VK","2018/03/02 19:19:45","新北市板橋區富山街3號","121.478686666667","25.0215366666667","6500100","板橋區"
"220083","286-VK","2018/03/02 19:19:54","新北市板橋區龍興街95巷12號","121.443595","25.0026433333333","6500100","板橋區"
"220081","287-VK","2018/03/02 19:19:56","新北市板橋區南雅西路一段126號","121.45265","25.0068016666667","6500100","板橋區"
"220061","293-UM","2018/03/02 19:19:45","新北市板橋區中山路二段309巷12號","121.478495","25.01893","6500100","板橋區"
"220062","295-UM","2018/03/02 19:19:45","新北市板橋區三民路二段153巷36弄2號","121.481243333333","25.01413","6500100","板橋區"
"220084","296-UM","2018/03/02 19:19:42","新北市板橋區滿平街110巷6號","121.42806","24.98832","6500100","板橋區"
"220068","299-UM","2018/03/02 19:19:52","新北市板橋區翠華街6巷73號","121.481195","25.025025","6500100","板橋區"
"220075","303-R5","2018/03/02 19:19:50","新北市板橋區南雅南路一段3巷25-11號","121.456653333333","25.00576","6500100","板橋區"
"220092","307-R5","2018/03/02 19:19:37","新北市板橋區松江街68號","121.468733333333","25.0277016666667","6500100","板橋區"
"220098","317-R6","2018/03/02 19:19:54","新北市板橋區民有街89巷8弄1-1號","121.464303333333","25.02741","6500100","板橋區"
"220064","486-VK","2018/03/02 19:19:54","新北市板橋區板新路234號","121.468228333333","25.0162416666667","6500100","板橋區"
"220089","487-VK","2018/03/02 19:19:49","新北市板橋區文化路一段407號","121.467371666667","25.02205","6500100","板橋區"
"220088","491-VK","2018/03/02 19:19:54","新北市板橋區雙十路二段57號","121.476543333333","25.0265266666667","6500100","板橋區"
"220035","560-BX","2018/03/02 19:19:49","新北市板橋區中正路431號","121.454241666667","25.023135","6500100","板橋區"
"220103","561-BX","2018/03/02 19:19:54","新北市板橋區文化路一段188巷9弄106號","121.468301666667","25.01934","6500100","板橋區"
"220055","568-UM","2018/03/02 19:19:55","新北市板橋區新民街11號","121.463808333333","25.009905","6500100","板橋區"
"220063","609-BX","2018/03/02 19:19:43","新北市板橋區三民路二段11號","121.47943","25.01844","6500100","板橋區"
"220091","637-BX","2018/03/02 19:19:36","新北市板橋區萬板路408號","121.47893","25.025545","6500100","板橋區"
"220077","687-BX","2018/03/02 19:19:41","新北市板橋區僑中二街90巷1號","121.446351666667","25.009035","6500100","板橋區"
"220093","689-BX","2018/03/02 19:19:55","新北市板橋區文化路一段90號","121.464351666667","25.01782","6500100","板橋區"
"220054","741-BX","2018/03/02 19:19:55","新北市板橋區重慶路60-1號","121.46176","25.0069283333333","6500100","板橋區"
"220102","KEA-2699","2018/03/02 19:19:53","新北市板橋區文聖街182號","121.479358333333","25.0267883333333","6500100","板橋區"
"220067","829-TW","2018/03/02 19:19:49","新北市板橋區長安街138巷7弄54號","121.474106666667","25.0091866666667","6500100","板橋區"
"220090","830-TW","2018/03/02 19:19:45","新北市板橋區長江路一段106巷13弄29號","121.461133333333","25.0297166666667","6500100","板橋區"
"220074","895-R6","2018/03/02 19:19:57","新北市板橋區中正路39巷15號","121.454976666667","25.0130833333333","6500100","板橋區"
"220073","985-R7","2018/03/02 19:19:53","新北市板橋區新生街27號","121.456371666667","25.0212166666667","6500100","板橋區"
"220097","AAC-210","2018/03/02 19:19:50","新北市板橋區幸福路32巷3弄8號","121.460955","25.02076","6500100","板橋區"
"220070","AAC-253","2018/03/02 19:19:40","新北市板橋區忠孝路40號","121.460361666667","25.0018883333333","6500100","板橋區"
