"lineid","car","time","location","longitude","latitude","cityid","cityname"
"234074","AAC-211","2018/03/02 20:49:29","新北市永和區環河東路二段30號","121.522553333333","25.0127116666667","6500400","永和區"
"222003","436-BY","2018/03/02 20:49:15","新北市深坑區阿柔洋40號","121.610286666667","24.9984566666667","6501800","深坑區"
"222002","659-BX","2018/03/02 20:49:21","新北市深坑區北深路三段93巷61號","121.603918333333","25.0008483333333","6501800","深坑區"
"231041","002-UM","2018/03/02 20:49:17","新北市新店區中正路700巷1號","121.533878333333","24.99126","6500600","新店區"
"231059","046-UY","2018/03/02 20:49:22","新北市新店區僑信路126巷22號","121.49951","24.9457516666667","6500600","新店區"
"231061","047-UY","2018/03/02 20:49:23","新北市新店區新和街116巷8號","121.521253333333","24.9862116666667","6500600","新店區"
"231060","106-UY","2018/03/02 20:49:19","新北市新店區安康路三段738號","121.473898333333","24.94199","6500600","新店區"
"231051","107-UY","2018/03/02 20:49:14","新北市新店區中央五街2號","121.530086666667","24.974035","6500600","新店區"
"231048","108-UY","2018/03/02 20:49:21","新北市新店區寶元路一段109號","121.545731666667","24.983165","6500600","新店區"
"231053","187-VK","2018/03/02 20:49:12","新北市新店區新烏路一段245-3號","121.548273333333","24.930475","6500600","新店區"
"231050","KEA-2219","2018/03/02 20:49:23","新北市新店區三民路45號","121.537086666667","24.9709066666667","6500600","新店區"
"231057","256-BX","2018/03/02 20:49:26","新北市新店區永興路41號","121.543881666667","24.9378783333333","6500600","新店區"
"231058","3712-VJ","2018/03/02 20:49:24","新北市新店區中央路135號","121.530465","24.9736966666667","6500600","新店區"
"231056","3713-VJ","2018/03/02 20:49:14","新北市新店區溪園路395號","121.523706666667","24.9774433333333","6500600","新店區"
"231065","512-UM","2018/03/02 20:49:24","新北市新店區安祥路69巷17號","121.481886666667","24.9613566666667","6500600","新店區"
"231054","513-UM","2018/03/02 20:49:06","新北市新店區中正路75巷61號","121.543295","24.96944","6500600","新店區"
"231064","515-UM","2018/03/02 20:49:27","新北市新店區安民街382號","121.516261666667","24.977095","6500600","新店區"
"231045","617-UM","2018/03/02 20:49:09","新北市新店區北新路一段2號","121.5408","24.9651483333333","6500600","新店區"
"231040","619-UM","2018/03/02 20:49:26","新北市新店區中正路272號","121.53897","24.9736766666667","6500600","新店區"
"231042","641-BX","2018/03/02 20:49:29","新北市新店區寶興路62巷4號","121.549998333333","24.9717883333333","6500600","新店區"
"231063","645-TV","2018/03/02 20:49:20","新北市新店區如意街7-2號","121.495186666667","24.9486316666667","6500600","新店區"
"231068","718-UY","2018/03/02 20:49:25","新北市新店區寶元路一段102號","121.544985","24.9832416666667","6500600","新店區"
"231049","719-UM","2018/03/02 20:49:14","新北市新店區安康路二段4號","121.51639","24.9638216666667","6500600","新店區"
"231062","720-UM","2018/03/02 20:49:11","新北市新店區裕合街81號","121.48914","24.9493966666667","6500600","新店區"
"231044","897-TW","2018/03/02 20:49:19","新北市新店區民族路229號","121.536696666667","24.975845","6500600","新店區"
"231043","899-TW","2018/03/02 20:49:24","新北市新店區建國路64號","121.540606666667","24.975885","6500600","新店區"
"231066","AKT-0513","2018/03/02 20:49:23","新北市新店區安民街133巷26號","121.515445","24.9694966666667","6500600","新店區"
"241011","013-R5","2018/03/02 20:49:28","新北市三重區龍濱路231號","121.501615","25.0722283333333","6500200","三重區"
"241028","022-UY","2018/03/02 20:49:24","新北市三重區中正南路50號","121.493958333333","25.0599166666667","6500200","三重區"
"241008","059-VK","2018/03/02 20:49:20","新北市三重區永福街72巷11號","121.479381666667","25.0768","6500200","三重區"
"241009","060-VK","2018/03/02 20:49:16","新北市三重區三和路四段388-2號","121.482091666667","25.07907","6500200","三重區"
"241031","061-VK","2018/03/02 20:49:08","新北市三重區重陽路一段113巷2弄2號","121.487515","25.0598366666667","6500200","三重區"
"241015","062-VK","2018/03/02 20:49:26","新北市三重區自強路一段12號","121.498885","25.0682166666667","6500200","三重區"
"241017","063-VK","2018/03/02 20:49:14","新北市三重區自強路一段272號","121.49215","25.0676516666667","6500200","三重區"
"241026","066-VK","2018/03/02 20:49:23","新北市三重區和平街1號","121.500158333333","25.0623033333333","6500200","三重區"
"241002","090-VK","2018/03/02 20:49:21","新北市三重區仁義街157巷70號","121.498558333333","25.0817666666667","6500200","三重區"
"241003","091-VK","2018/03/02 20:49:21","新北市三重區五華街141巷58號","121.493455","25.08668","6500200","三重區"
"241005","262-UM","2018/03/02 20:49:16","新北市三重區五華街137號","121.491091666667","25.0845716666667","6500200","三重區"
"241016","265-UM","2018/03/02 20:49:11","新北市三重區自強路一段147-1號","121.493875","25.0667816666667","6500200","三重區"
"241022","267-UM","2018/03/02 20:49:09","新北市三重區中正北路20巷12號","121.487963333333","25.062455","6500200","三重區"
"241018","268-UM","2018/03/02 20:49:24","新北市三重區正義北路223號","121.49596","25.0688016666667","6500200","三重區"
"241032","269-UM","2018/03/02 20:49:06","新北市三重區重陽路一段120巷48號","121.48507","25.0601633333333","6500200","三重區"
"241013","270-UM","2018/03/02 20:49:25","新北市三重區仁賢街6號","121.4957","25.0747633333333","6500200","三重區"
"241025","271-UM","2018/03/02 20:49:17","新北市三重區貴陽街14號","121.484185","25.061845","6500200","三重區"
"241007","398-BY","2018/03/02 20:49:12","新北市三重區三和路四段143-1號","121.484358333333","25.0783433333333","6500200","三重區"
"241020","413-TH","2018/03/02 20:49:10","新北市三重區忠孝路一段101號","121.489593333333","25.0721366666667","6500200","三重區"
"241004","475-VK","2018/03/02 20:49:20","新北市三重區分子尾街54號","121.489156666667","25.0815316666667","6500200","三重區"
"241024","478-VK","2018/03/02 20:49:18","新北市三重區大勇街51號","121.481291666667","25.0718383333333","6500200","三重區"
"241030","480-VK","2018/03/02 20:49:28","新北市三重區昌隆街26號","121.492058333333","25.0522316666667","6500200","三重區"
"241014","543-UM","2018/03/02 20:49:23","新北市三重區萬全街86號","121.501816666667","25.0703483333333","6500200","三重區"
"241023","545-UM","2018/03/02 20:49:19","新北市三重區忠孝路三段84巷1號","121.480258333333","25.0644066666667","6500200","三重區"
"241001","547-UM","2018/03/02 20:49:15","新北市三重區三和路四段124號","121.489236666667","25.0751866666667","6500200","三重區"
"241019","KEA-2593","2018/03/02 20:49:22","新北市三重區忠孝路一段2-1號","121.49247","25.0717166666667","6500200","三重區"
"241006","AAD-863","2018/03/02 20:49:17","新北市三重區力行路二段166號","121.482978333333","25.0768033333333","6500200","三重區"
"241035","743-BX","2018/03/02 20:49:27","新北市三重區三和路三段58號","121.495345","25.0713733333333","6500200","三重區"
"241012","941-UM","2018/03/02 20:49:10","新北市三重區仁信街27號","121.501268333333","25.0755333333333","6500200","三重區"
"241029","942-UM","2018/03/02 20:49:25","新北市三重區重安街18號","121.490393333333","25.0581383333333","6500200","三重區"
"241033","AAC-255","2018/03/02 20:49:22","新北市三重區光復路二段1號","121.472263333333","25.05331","6500200","三重區"
"235069","4980-A6","2018/03/02 20:49:19","新北市中和區連城路308號","121.483711666667","24.996455","6500300","中和區"
"235026","800-TS","2018/03/02 20:22:43","新北市中和區員山路36巷16-3號","121.484871666667","24.9915683333333","6500300","中和區"
"247022","893-R6","2018/03/02 20:49:17","新北市蘆洲區民義街9巷2號","121.471321666667","25.0885533333333","6501400","蘆洲區"
"247012","546-UM","2018/03/02 20:49:23","新北市蘆洲區復興路301號","121.48197","25.0903733333333","6501400","蘆洲區"
"247020","500-BY","2018/03/02 20:49:28","新北市蘆洲區仁愛街66號","121.471516666667","25.09385","6501400","蘆洲區"
"247010","339-TH","2018/03/02 20:49:17","新北市蘆洲區鷺江街76號","121.477006666667","25.08387","6501400","蘆洲區"
"247002","337-TH","2018/03/02 20:49:20","新北市蘆洲區長安街242號","121.457646666667","25.0860916666667","6501400","蘆洲區"
"247004","336-TH","2018/03/02 20:49:25","新北市蘆洲區長安街100號","121.461666666667","25.0808833333333","6501400","蘆洲區"
"247016","057-VK","2018/03/02 20:49:23","新北市蘆洲區中山二路211號","121.470388333333","25.0803666666667","6501400","蘆洲區"
"247006","056-VK","2018/03/02 20:49:25","新北市蘆洲區和平路121巷14弄1號","121.466461666667","25.0794866666667","6501400","蘆洲區"
"247008","053-VK","2018/03/02 20:49:19","新北市蘆洲區集賢路269巷10號","121.481626666667","25.08356","6501400","蘆洲區"
"247014","007-UY","2018/03/02 20:49:11","新北市蘆洲區三民路33號","121.475423333333","25.0829716666667","6501400","蘆洲區"
"247024","002-UY","2018/03/02 20:49:16","新北市蘆洲區長樂路140號","121.46204","25.09014","6501400","蘆洲區"
"222001","KEA-2212","2018/03/02 20:49:20","新北市深坑區北深路三段133號","121.604015","25.002495","6501800","深坑區"
"251005","010-UM","2018/03/02 20:49:21","新北市淡水區淡金路二段385號","121.446831666667","25.1859833333333","6501000","淡水區"
"251001","011-UM","2018/03/02 20:49:13","新北市淡水區淡金路218號","121.46047","25.1671383333333","6501000","淡水區"
"251010","413-VK","2018/03/02 20:49:25","新北市淡水區沙崙路126號","121.423428333333","25.1829066666667","6501000","淡水區"
"251012","441-VK","2018/03/02 20:49:21","新北市淡水區興仁路162號","121.45158","25.2207016666667","6501000","淡水區"
"251007","577-R6","2018/03/02 20:49:25","新北市淡水區鄧公路29巷1號","121.45148","25.1701566666667","6501000","淡水區"
"251011","650-BX","2018/03/02 20:49:23","新北市淡水區新民街一段13-1號","121.433066666667","25.18454","6501000","淡水區"
"251002","672-BX","2018/03/02 20:49:15","新北市淡水區英專路42號","121.445616666667","25.1702116666667","6501000","淡水區"
"251003","673-BX","2018/03/02 20:49:22","新北市淡水區中山北路一段207巷76號","121.441258333333","25.1795283333333","6501000","淡水區"
"252002","178-VK","2018/03/02 20:49:06","新北市三芝區淡金路二段89-1號","121.504006666667","25.2609","6502100","三芝區"
"242050","751-BX","2018/03/02 20:49:26","新北市新莊區民安西路155巷9號","121.42695","25.01647","6500500","新莊區"
"242023","613-BX","2018/03/02 20:49:15","新北市三重區光復路二段153號","121.472185","25.05969","6500500","新莊區"
"242027","612-BX","2018/03/02 20:49:14","新北市三重區中興南街80巷19號","121.472276666667","25.04364","6500500","新莊區"
"242039","566-BX","2018/03/02 20:49:20","新北市新莊區瓊林路59-38號","121.441241666667","25.0235933333333","6500500","新莊區"
"242034","415-TV","2018/03/02 20:49:09","新北市新莊區中正路347巷38號","121.447103333333","25.03379","6500500","新莊區"
"242005","413-TV","2018/03/02 20:49:21","新北市五股區新五路三段260號","121.448285","25.091","6500500","新莊區"
"242060","362-BY","2018/03/02 20:49:19","新北市新莊區新樹路119號","121.437281666667","25.0263983333333","6500500","新莊區"
"242007","132-UY","2018/03/02 20:49:13","新北市三重區中興南街80巷19號","121.472286666667","25.04366","6500500","新莊區"
"242037","133-UY","2018/03/02 20:49:19","新北市新莊區建國一路15號","121.433926666667","25.0317083333333","6500500","新莊區"
"242046","172-VK","2018/03/02 20:49:12","新北市新莊區中正路489號","121.440936666667","25.0336016666667","6500500","新莊區"
"242013","346-TH","2018/03/02 20:49:25","新北市五股區成泰路三段544號","121.454548333333","25.104055","6500500","新莊區"
"221036","130-UY","2018/03/02 20:49:13","新北市汐止區忠孝東路282號","121.66373","25.0681816666667","6501100","汐止區"
"221027","281-BY","2018/03/02 20:49:24","新北市汐止區大同路二段374號","121.657856666667","25.0671683333333","6501100","汐止區"
"221038","297-VK","2018/03/02 20:49:23","新北市汐止區汐萬路一段256巷3號","121.652078333333","25.074775","6501100","汐止區"
"221035","622-UM","2018/03/02 20:49:12","新北市汐止區康寧街901號","121.651288333333","25.0750483333333","6501100","汐止區"
"221033","647-BX","2018/03/02 20:49:28","新北市汐止區合順街18巷8弄5號","121.620291666667","25.0419216666667","6501100","汐止區"
"221002","707-TV","2018/03/02 20:49:26","新北市汐止區福德二路169號","121.63083","25.0651283333333","6501100","汐止區"
"221018","753-BX","2018/03/02 20:49:27","新北市汐止區康寧街901號","121.651105","25.07512","6501100","汐止區"
"242032","280-VK","2018/03/02 20:49:10","新北市新莊區中正路539-1號","121.435453333333","25.032685","6500500","新莊區"
"220070","AAC-253","2018/03/02 20:49:20","新北市八里區中山路三段386號","121.368491666667","25.1358483333333","6500100","板橋區"
