"lineid","car","time","location","longitude","latitude","cityid","cityname"
"231059","046-UY","2018/03/02 21:09:22","新北市新店區僑義路21號","121.500453333333","24.951","6500600","新店區"
"231061","047-UY","2018/03/02 21:09:17","新北市新店區永平街6號","121.517453333333","24.9834566666667","6500600","新店區"
"231060","106-UY","2018/03/02 21:09:19","新北市新店區薏仁坑路自強巷6號","121.496638333333","24.9584866666667","6500600","新店區"
"231051","107-UY","2018/03/02 21:09:14","新北市新店區中正路700巷1號","121.533893333333","24.9911633333333","6500600","新店區"
"231048","108-UY","2018/03/02 21:09:21","新北市新店區北新路三段2號","121.542596666667","24.9789516666667","6500600","新店區"
"231050","KEA-2219","2018/03/02 21:09:23","新北市新店區中華路83巷4弄20號","121.538293333333","24.9689033333333","6500600","新店區"
"231067","4772-VM","2018/03/02 21:09:11","新北市新店區薏仁坑路11號","121.49859","24.9591","6500600","新店區"
"231065","512-UM","2018/03/02 21:09:24","新北市新店區安祥路65號","121.483876666667","24.9602283333333","6500600","新店區"
"231054","513-UM","2018/03/02 21:09:26","新北市新店區大新街7巷9號","121.543721666667","24.9682316666667","6500600","新店區"
"231064","515-UM","2018/03/02 21:09:27","新北市新店區安德街148巷31號","121.505568333333","24.9602383333333","6500600","新店區"
"231040","619-UM","2018/03/02 21:09:26","新北市新店區北新路一段100號","121.54212","24.9694216666667","6500600","新店區"
"231063","645-TV","2018/03/02 21:09:20","新北市新店區玫瑰路58巷1號","121.49548","24.946575","6500600","新店區"
"241011","013-R5","2018/03/02 21:09:28","新北市三重區龍濱路170號","121.501225","25.0726766666667","6500200","三重區"
"241028","022-UY","2018/03/02 21:09:24","新北市三重區正義南路54號","121.498343333333","25.0606666666667","6500200","三重區"
"241008","059-VK","2018/03/02 21:09:20","新北市三重區自強路一段58號","121.497446666667","25.0667933333333","6500200","三重區"
"241009","060-VK","2018/03/02 21:09:16","新北市三重區忠孝路二段122號","121.483031666667","25.0687666666667","6500200","三重區"
"241031","061-VK","2018/03/02 21:09:08","新北市三重區重新路五段430號","121.475178333333","25.0474383333333","6500200","三重區"
"241015","062-VK","2018/03/02 21:09:26","新北市三重區福德北路73號","121.50196","25.06576","6500200","三重區"
"241017","063-VK","2018/03/02 21:09:14","新北市三重區國隆路31號","121.492393333333","25.0645166666667","6500200","三重區"
"241026","066-VK","2018/03/02 21:09:23","新北市三重區文化南路42號","121.50041","25.0602216666667","6500200","三重區"
"241002","090-VK","2018/03/02 21:09:21","新北市三重區五華街14號","121.494921666667","25.080295","6500200","三重區"
"241003","091-VK","2018/03/02 21:09:21","新北市三重區仁義街333號","121.495045","25.08469","6500200","三重區"
"241005","262-UM","2018/03/02 21:09:16","新北市三重區五華街180巷19號","121.488053333333","25.0859833333333","6500200","三重區"
"241016","265-UM","2018/03/02 21:09:11","新北市三重區信義西街138號","121.495448333333","25.0644","6500200","三重區"
"241022","267-UM","2018/03/02 21:09:09","新北市三重區中正北路64巷24號","121.486075","25.0637116666667","6500200","三重區"
"241018","268-UM","2018/03/02 21:09:24","新北市三重區正義北路332-1號","121.494346666667","25.0704783333333","6500200","三重區"
"241032","269-UM","2018/03/02 21:09:26","新北市三重區新北大道一段178號","121.48276","25.0616366666667","6500200","三重區"
"241013","270-UM","2018/03/02 21:09:25","新北市三重區仁愛街125巷12號","121.496615","25.0757233333333","6500200","三重區"
"241025","271-UM","2018/03/02 21:09:17","新北市三重區忠孝路三段40巷16弄10號","121.482323333333","25.0668733333333","6500200","三重區"
"241007","398-BY","2018/03/02 21:09:12","新北市三重區三和路四段145巷85號","121.486438333333","25.0787566666667","6500200","三重區"
"241020","413-TH","2018/03/02 21:09:10","新北市三重區忠孝路二段34號","121.48582","25.071025","6500200","三重區"
"241004","475-VK","2018/03/02 21:09:20","新北市三重區仁愛街420號","121.490395","25.0814116666667","6500200","三重區"
"241024","478-VK","2018/03/02 21:09:18","新北市三重區大勇街82巷15弄30號","121.48128","25.0719583333333","6500200","三重區"
"241030","480-VK","2018/03/02 21:09:28","新北市三重區五谷王北街20巷15弄1號","121.475041666667","25.048465","6500200","三重區"
"241014","543-UM","2018/03/02 21:09:23","新北市三重區三和路二段37-9號","121.501336666667","25.0676966666667","6500200","三重區"
"241023","545-UM","2018/03/02 21:09:19","新北市三重區忠孝路三段50巷41弄64號","121.482365","25.0637433333333","6500200","三重區"
"241001","547-UM","2018/03/02 21:09:15","新北市三重區福隆路101號","121.492456666667","25.0783416666667","6500200","三重區"
"241019","KEA-2593","2018/03/02 21:09:14","新北市三重區自強路二段74巷21號","121.487923333333","25.0698866666667","6500200","三重區"
"241006","AAD-863","2018/03/02 21:09:17","新北市三重區中正北路2號","121.489308333333","25.0632083333333","6500200","三重區"
"241012","941-UM","2018/03/02 21:09:10","新北市三重區河邊北街238-1號","121.501708333333","25.0756266666667","6500200","三重區"
"241029","942-UM","2018/03/02 21:09:25","新北市三重區正義南路107號","121.498206666667","25.058535","6500200","三重區"
"241033","AAC-255","2018/03/02 21:09:22","新北市三重區中興北街289號","121.469083333333","25.062445","6500200","三重區"
"247022","893-R6","2018/03/02 21:09:25","新北市蘆洲區民族路562號","121.46746","25.088855","6501400","蘆洲區"
"247012","546-UM","2018/03/02 21:09:23","新北市蘆洲區民族路20號","121.476003333333","25.084115","6501400","蘆洲區"
"247020","500-BY","2018/03/02 21:09:08","新北市蘆洲區民族路446-2號","121.47275","25.092","6501400","蘆洲區"
"247010","339-TH","2018/03/02 21:09:17","新北市蘆洲區鷺江街71號","121.477181666667","25.0831","6501400","蘆洲區"
"247002","337-TH","2018/03/02 21:09:20","新北市蘆洲區長榮路387號","121.459318333333","25.08969","6501400","蘆洲區"
"247004","336-TH","2018/03/02 21:09:25","新北市蘆洲區永安南路二段322號","121.456991666667","25.0827583333333","6501400","蘆洲區"
"247016","057-VK","2018/03/02 21:09:23","新北市蘆洲區和平路138號","121.466875","25.0807633333333","6501400","蘆洲區"
"247006","056-VK","2018/03/02 21:09:25","新北市蘆洲區九芎街15巷12號","121.467935","25.07784","6501400","蘆洲區"
"247008","053-VK","2018/03/02 21:09:19","新北市蘆洲區民生街66號","121.47317","25.0788866666667","6501400","蘆洲區"
"247014","007-UY","2018/03/02 21:09:11","新北市蘆洲區中央路155號","121.47266","25.084695","6501400","蘆洲區"
"247024","002-UY","2018/03/02 21:09:16","新北市蘆洲區長興路50巷1號","121.463763333333","25.083805","6501400","蘆洲區"
"251004","009-UM","2018/03/02 21:08:52","新北市淡水區大同路113巷3號","121.463885","25.14121","6501000","淡水區"
"251005","010-UM","2018/03/02 21:09:21","新北市淡水區中正東路35巷28號","121.446825","25.168885","6501000","淡水區"
"251001","011-UM","2018/03/02 21:09:13","新北市淡水區新市一路三段109號","121.446735","25.1837583333333","6501000","淡水區"
"251010","413-VK","2018/03/02 21:09:25","新北市淡水區中正路一段63巷9號","121.422861666667","25.1772866666667","6501000","淡水區"
"251012","441-VK","2018/03/02 21:09:21","新北市淡水區淡金路五段172號","121.457055","25.2400416666667","6501000","淡水區"
"251009","575-R6","2018/03/02 21:09:18","新北市淡水區民族路112巷40號","121.461933333333","25.134415","6501000","淡水區"
"251011","650-BX","2018/03/02 21:09:29","新北市淡水區新民街120巷45弄10號","121.438006666667","25.179725","6501000","淡水區"
"251002","672-BX","2018/03/02 21:09:15","新北市淡水區英專路151號","121.4484","25.17486","6501000","淡水區"
"251003","673-BX","2018/03/02 21:09:14","新北市淡水區新春街125巷2號","121.441753333333","25.1819233333333","6501000","淡水區"
"242046","172-VK","2018/03/02 21:09:12","新北市八里區中山路三段112號","121.386391666667","25.14568","6500500","新莊區"
"220070","AAC-253","2018/03/02 21:08:59","新北市八里區中山路三段409號","121.368431666667","25.1349166666667","6500100","板橋區"
