"lineid","car","time","location","longitude","latitude","cityid","cityname"
"235010","733-UM","2018/03/02 21:45:40","新北市中和區員山路36巷13號","121.484168333333","24.9908033333333","6500300","中和區"
"247010","339-TH","2018/03/02 22:09:17","新北市林口區太平里180號","121.368735","25.1339116666667","6501400","蘆洲區"
"247008","053-VK","2018/03/02 22:09:18","新北市八里區中山路三段409號","121.368738333333","25.13421","6501400","蘆洲區"
"251004","009-UM","2018/03/02 22:09:12","新北市淡水區民族路33號","121.462323333333","25.1358416666667","6501000","淡水區"
"251008","181-VK","2018/03/02 22:09:28","新北市淡水區學府路104號","121.449885","25.171865","6501000","淡水區"
"251010","413-VK","2018/03/02 22:09:25","新北市淡水區沙崙路131巷11號","121.4222","25.183035","6501000","淡水區"
"251007","577-R6","2018/03/02 22:09:15","新北市淡水區北新路180號","121.449495","25.1786433333333","6501000","淡水區"
"251011","650-BX","2018/03/02 22:09:22","新北市淡水區水碓街7號","121.443168333333","25.1771366666667","6501000","淡水區"
