"lineid","car","time","location","longitude","latitude","cityid","cityname"
"248005","653-BX","2018/06/25 07:59:36","新北市五股區明德路10號","121.433411666667","25.071765","6501500","五股區"
"232012","076-UY","2018/06/25 07:59:52","新北市坪林區金瓜寮22-4號","121.679385","24.9117533333333","6502000","坪林區"
"232001","290-BY","2018/06/25 07:59:43","新北市坪林區下坑子口7號","121.710991666667","24.9446533333333","6502000","坪林區"
"232017","705-BZ","2018/06/25 07:59:41","新北市坪林區乾溪6號","121.745406666667","24.9686783333333","6502000","坪林區"
"232005","758-BX","2018/06/25 07:59:49","新北市坪林區魚堀55-5號","121.708211666667","24.9285416666667","6502000","坪林區"
"244006","080-UY","2018/06/25 07:59:37","新北市林口區粉寮路二段221號","121.404198333333","25.0903816666667","6501700","林口區"
"244001","248-BX","2018/06/25 07:59:43","新北市林口區頂福42號","121.3546","25.0983633333333","6501700","林口區"
"244012","742-UY","2018/06/25 07:59:40","新北市林口區粉寮69號","121.404795","25.09081","6501700","林口區"
"244008","410-SL","2018/06/25 07:59:52","新北市林口區粉寮路二段8-1號","121.401293333333","25.084995","6501700","林口區"
"244022","483-VK","2018/06/25 07:59:36","新北市林口區粉寮路60-17號","121.404276666667","25.0902316666667","6501700","林口區"
"244010","657-BX","2018/06/25 07:59:44","新北市林口區粉寮路二段160巷28號","121.405178333333","25.090775","6501700","林口區"
"244024","837-TS","2018/06/25 07:59:43","新北市林口區粉寮路二段128號","121.404508333333","25.0906533333333","6501700","林口區"
"231007","189-VK","2018/06/25 07:59:40","新北市新店區安康路一段75-1號","121.530163333333","24.9611","6500600","新店區"
"231008","192-VK","2018/06/25 07:59:55","新北市新店區安一路一段1-1號","121.519145","24.961295","6500600","新店區"
"235001","611-BX","2018/06/25 07:59:40","新北市中和區圓通路367巷8號","121.491518333333","24.9891216666667","6500300","中和區"
"226005","5620-A6","2018/06/25 07:59:38","新北市平溪區石底里公園街18-3號","121.733325","25.0257833333333","6502400","平溪區"
"226001","7418-A5","2018/06/25 07:59:47","新北市平溪區南山里乾坑11號","121.782706666667","25.0471966666667","6502400","平溪區"
"226003","AGD-0702","2018/06/25 07:59:35","新北市平溪區新寮里頂寮子4號","121.773946666667","25.0517433333333","6502400","平溪區"
"223006","022-BY","2018/06/25 07:59:49","新北市石碇區十八重溪63號","121.674961666667","25.0135933333333","6501900","石碇區"
"223002","KEA-2673","2018/06/25 07:59:54","新北市石碇區北宜路五段73號","121.639548333333","24.9519283333333","6501900","石碇區"
"223003","205-TH","2018/06/25 07:59:54","新北市石碇區月扇湖3-6號","121.660325","24.9561833333333","6501900","石碇區"
"223008","406-TH","2018/06/25 07:59:47","新北市石碇區靜安路一段293號","121.695023333333","25.007025","6501900","石碇區"
"223001","592-UM","2018/06/25 07:59:40","新北市石碇區月扇湖3-1號","121.657708333333","24.957835","6501900","石碇區"
"223004","660-BX","2018/06/25 07:59:44","新北市深坑區文山路一段1號","121.646831666667","25.008285","6501900","石碇區"
"223005","677-TV","2018/06/25 07:59:42","新北市石碇區碇坪路一段18號","121.651716666667","25.0056333333333","6501900","石碇區"
"227005","282-VK","2018/06/25 07:59:55","新北市雙溪區平林里梅竹蹊16號","121.862275","25.0359633333333","6502500","雙溪區"
"252006","073-UM","2018/06/25 07:57:53","新北市三芝區海景一街44號","121.475378333333","25.2466883333333","6502100","三芝區"
"252004","249-BX","2018/06/25 07:59:54","新北市三芝區店子里菜公坑81-3號","121.510083333333","25.2018083333333","6502100","三芝區"
"237001","159-UY","2018/06/25 07:59:56","新北市三峽區大學路86-3號","121.375681666667","24.9428216666667","6500900","三峽區"
"236007","165-UM","2018/06/25 07:59:55","新北市土城區金城路三段269號","121.47258","24.99031","6501300","土城區"
"236001","339-SR","2018/06/25 07:59:47","新北市土城區龍泉路89-1號","121.446276666667","24.94225","6501300","土城區"
"236005","498-BY","2018/06/25 07:59:37","新北市土城區永平街51號","121.42761","24.95916","6501300","土城區"
"242033","AAC-296","2018/06/25 07:59:37","新北市新莊區新莊路463號","121.449373333333","25.03332","6500500","新莊區"
"242057","986-R7","2018/06/25 07:59:44","新北市新莊區中正路585號","121.434368333333","25.0326216666667","6500500","新莊區"
"242052","751-BX","2018/06/25 07:59:56","新北市新莊區瓊林南路216號","121.433668333333","25.005845","6500500","新莊區"
"242022","705-TV","2018/06/25 07:59:43","新北市新莊區公園路67號","121.453965","25.0402866666667","6500500","新莊區"
"242026","615-BX","2018/06/25 07:59:42","新北市新莊區思源路32號","121.460271666667","25.04103","6500500","新莊區"
"242024","613-BX","2018/06/25 07:59:46","新北市新莊區復興路二段61號","121.455203333333","25.0443183333333","6500500","新莊區"
"242028","612-BX","2018/06/25 07:59:46","新北市新莊區復興路二段187號","121.459096666667","25.0444666666667","6500500","新莊區"
"242040","566-BX","2018/06/25 07:59:50","新北市新莊區新樹路113巷15號","121.438406666667","25.0267416666667","6500500","新莊區"
"242045","497-BY","2018/06/25 07:59:43","新北市新莊區新樹路57號","121.440063333333","25.0318683333333","6500500","新莊區"
"242049","441-UM","2018/06/25 07:59:41","新北市新莊區西盛街245巷27弄13號","121.429351666667","25.01655","6500500","新莊區"
"242035","415-TV","2018/06/25 07:59:50","新北市新莊區建國一路168號","121.435023333333","25.02491","6500500","新莊區"
"242043","400-BY","2018/06/25 07:59:44","新北市新莊區富國路58號","121.418991666667","25.0261316666667","6500500","新莊區"
"242059","353-BY","2018/06/25 07:59:45","新北市新莊區瓊林南路12-1號","121.437015","25.0196883333333","6500500","新莊區"
"242008","132-UY","2018/06/25 07:59:53","新北市新莊區中華路二段258巷25號","121.453143333333","25.0542866666667","6500500","新莊區"
"242038","133-UY","2018/06/25 07:59:43","新北市新莊區民安西路37號","121.427661666667","25.0209716666667","6500500","新莊區"
"242047","172-VK","2018/06/25 07:59:41","新北市新莊區四維路213號","121.421678333333","25.020005","6500500","新莊區"
"242055","175-VK","2018/06/25 07:59:51","新北市新莊區新泰路2-4號","121.449728333333","25.03273","6500500","新莊區"
"242003","176-VK","2018/06/25 07:59:36","新北市新莊區中港路288巷20號","121.45359","25.04462","6500500","新莊區"
"242016","347-TH","2018/06/25 07:59:38","新北市新莊區復興路一段213號","121.452556666667","25.0436083333333","6500500","新莊區"
"242020","348-TH","2018/06/25 07:59:42","新北市新莊區中華路一段28號","121.452075","25.0374566666667","6500500","新莊區"
"242001","349-TH","2018/06/25 07:59:45","新北市新莊區利濟街18號","121.453015","25.0334266666667","6500500","新莊區"
"242018","350-TH","2018/06/25 07:59:51","新北市新莊區中港路76號","121.455488333333","25.0389683333333","6500500","新莊區"
"242012","351-TH","2018/06/25 07:59:39","新北市新莊區中誠街16巷16號","121.452005","25.0486883333333","6500500","新莊區"
"242006","281-VK","2018/06/25 07:59:45","新北市新莊區自信街57號","121.455131666667","25.0482416666667","6500500","新莊區"
"242030","280-VK","2018/06/25 07:59:36","新北市新莊區新泰路401巷29號","121.44254","25.0439383333333","6500500","新莊區"
