"lineid","car","time","location","longitude","latitude","cityid","cityname"
"248005","653-BX","2018/06/25 08:49:56","新北市五股區明德路12巷3號","121.43326","25.0717916666667","6501500","五股區"
"232012","076-UY","2018/06/25 08:49:52","新北市坪林區金瓜寮24-2號","121.680275","24.9081666666667","6502000","坪林區"
"232001","290-BY","2018/06/25 08:49:43","新北市坪林區虎寮潭1-2號","121.744208333333","24.955215","6502000","坪林區"
"232017","705-BZ","2018/06/25 08:49:41","新北市坪林區鷺鶿岫4-2號","121.785493333333","24.95607","6502000","坪林區"
"232005","758-BX","2018/06/25 08:49:49","新北市坪林區魚堀13-3號","121.705606666667","24.909265","6502000","坪林區"
"244006","080-UY","2018/06/25 08:49:37","新北市林口區竹林路265-1號","121.389175","25.0804033333333","6501700","林口區"
"244001","248-BX","2018/06/25 08:49:43","新北市林口區嘉寶里20號","121.339736666667","25.108115","6501700","林口區"
"244018","403-UM","2018/06/25 08:49:52","新北市林口區文化一路一段89-5號","121.371921666667","25.07036","6501700","林口區"
"244012","742-UY","2018/06/25 08:49:44","新北市林口區中山路143號","121.387505","25.0792266666667","6501700","林口區"
"244008","410-SL","2018/06/25 08:49:52","新北市林口區佳林路76號","121.385873333333","25.08047","6501700","林口區"
"244022","483-VK","2018/06/25 08:49:56","新北市林口區興林路318巷13號","121.388205","25.0704433333333","6501700","林口區"
"244016","485-VK","2018/06/25 08:49:40","新北市林口區忠孝路476號","121.37012","25.0706233333333","6501700","林口區"
"244010","657-BX","2018/06/25 08:49:44","新北市林口區中正路74巷5弄4號","121.394491666667","25.078065","6501700","林口區"
"244024","837-TS","2018/06/25 08:49:43","新北市林口區文化北路一段260號","121.35922","25.0719033333333","6501700","林口區"
"244020","838-TS","2018/06/25 08:49:55","新北市林口區自強二街59號","121.399456666667","25.076995","6501700","林口區"
"231007","189-VK","2018/06/25 08:47:40","新北市新店區新潭路三段275-1號","121.502156666667","24.902735","6500600","新店區"
"231008","192-VK","2018/06/25 08:49:55","新北市新店區新烏路三段290巷1號","121.54909","24.897845","6500600","新店區"
"235001","611-BX","2018/06/25 08:49:40","新北市中和區民享街86巷4號","121.474235","25.0009666666667","6500300","中和區"
"226005","5620-A6","2018/06/25 08:49:38","新北市平溪區十分里十分街156號","121.778015","25.0433416666667","6502400","平溪區"
"226001","7418-A5","2018/06/25 08:49:46","新北市平溪區東勢里火燒寮36-1號","121.768093333333","24.9870566666667","6502400","平溪區"
"226003","AGD-0702","2018/06/25 08:49:39","新北市平溪區十分里十分街259號","121.778211666667","25.0449433333333","6502400","平溪區"
"223006","022-BY","2018/06/25 08:49:49","新北市石碇區碇坪路一段49號","121.659151666667","24.9913866666667","6501900","石碇區"
"223003","205-TH","2018/06/25 08:49:53","新北市石碇區北宜路六段水底寮巷12號","121.664778333333","24.9420816666667","6501900","石碇區"
"223008","406-TH","2018/06/25 08:49:47","新北市石碇區光明路12號","121.679345","25.0311316666667","6501900","石碇區"
"223001","592-UM","2018/06/25 08:49:40","新北市石碇區北宜路六段水底寮巷3號","121.65388","24.9455783333333","6501900","石碇區"
"223004","660-BX","2018/06/25 08:49:48","新北市石碇區崩山47號","121.678555","24.9703166666667","6501900","石碇區"
"223005","677-TV","2018/06/25 08:49:53","新北市石碇區崩山43號","121.679566666667","24.96679","6501900","石碇區"
"227005","282-VK","2018/06/25 08:48:55","新北市雙溪區泰平里泰平16號","121.840853333333","24.9813583333333","6502500","雙溪區"
"252006","073-UM","2018/06/25 08:49:52","新北市三芝區古庄里四棧橋24號","121.486833333333","25.26027","6502100","三芝區"
"252004","249-BX","2018/06/25 08:49:54","新北市三芝區興華里田心子16號","121.49338","25.20433","6502100","三芝區"
"237001","159-UY","2018/06/25 08:48:20","","121.380651666667","24.967585","6500900","三峽區"
"236007","165-UM","2018/06/25 08:49:55","新北市土城區石門路95號","121.468035","24.95823","6501300","土城區"
"236001","339-SR","2018/06/25 08:49:46","新北市土城區永寧路11號","121.430456666667","24.9640616666667","6501300","土城區"
"236005","498-BY","2018/06/25 08:49:37","新北市土城區永和街62巷2-2號","121.43545","24.95964","6501300","土城區"
"242033","AAC-296","2018/06/25 08:49:36","新北市新莊區仁愛街28號","121.44434","25.0361383333333","6500500","新莊區"
"242057","986-R7","2018/06/25 08:49:44","新北市新莊區中正路897-10號","121.411596666667","25.0216416666667","6500500","新莊區"
"242052","751-BX","2018/06/25 08:49:56","新北市新莊區民安西路327巷3號","121.427838333333","25.01133","6500500","新莊區"
"242022","705-TV","2018/06/25 08:49:43","新北市新莊區頭前路82號","121.466188333333","25.05255","6500500","新莊區"
"242026","615-BX","2018/06/25 08:49:52","新北市新莊區中平路377巷17弄70號","121.442915","25.0514516666667","6500500","新莊區"
"242024","613-BX","2018/06/25 08:49:42","新北市新莊區五工三路94巷28號","121.459036666667","25.06634","6500500","新莊區"
"242028","612-BX","2018/06/25 08:49:46","新北市新莊區中榮街152巷53號","121.445806666667","25.0537983333333","6500500","新莊區"
"242040","566-BX","2018/06/25 08:49:50","新北市新莊區天祥街72巷11號","121.41614","25.0298583333333","6500500","新莊區"
"242045","497-BY","2018/06/25 08:49:43","新北市新莊區中正路829巷22弄2號","121.421475","25.0271783333333","6500500","新莊區"
"242049","441-UM","2018/06/25 08:49:41","新北市新莊區民安西路209號","121.426046666667","25.0147116666667","6500500","新莊區"
"242035","415-TV","2018/06/25 08:49:49","新北市新莊區建安街85號","121.427296666667","25.0245983333333","6500500","新莊區"
"242043","400-BY","2018/06/25 08:49:43","新北市新莊區龍安路9-5號","121.415145","25.0227933333333","6500500","新莊區"
"242059","353-BY","2018/06/25 08:49:45","新北市新莊區富國路176巷1號","121.424223333333","25.0244083333333","6500500","新莊區"
"242008","132-UY","2018/06/25 08:49:47","新北市新莊區昌盛街35巷1弄2號","121.454088333333","25.0503433333333","6500500","新莊區"
"242038","133-UY","2018/06/25 08:49:56","新北市新莊區民安路299巷32號","121.429535","25.0232766666667","6500500","新莊區"
"242047","172-VK","2018/06/25 08:49:40","新北市新莊區建安街76巷3弄18號","121.425616666667","25.0247916666667","6500500","新莊區"
"242055","175-VK","2018/06/25 08:49:51","新北市新莊區瓊林路47號","121.445935","25.0283933333333","6500500","新莊區"
"242003","176-VK","2018/06/25 08:49:56","新北市新莊區復興路三段18號","121.460838333333","25.044495","6500500","新莊區"
"242014","346-TH","2018/06/25 08:49:53","新北市新莊區復興路一段47巷6號","121.446936666667","25.0425466666667","6500500","新莊區"
"242016","347-TH","2018/06/25 08:49:38","新北市新莊區中港一街137號","121.448106666667","25.0450783333333","6500500","新莊區"
"242020","348-TH","2018/06/25 08:49:42","新北市新莊區建中街16巷22弄2號","121.449338333333","25.03859","6500500","新莊區"
"242001","349-TH","2018/06/25 08:49:45","新北市新莊區中正路170號","121.450903333333","25.0358583333333","6500500","新莊區"
"242018","350-TH","2018/06/25 08:49:50","新北市新莊區民生街19號","121.456003333333","25.0422383333333","6500500","新莊區"
"242012","351-TH","2018/06/25 08:49:42","新北市新莊區幸福路678巷3弄2號","121.450391666667","25.04971","6500500","新莊區"
"242006","281-VK","2018/06/25 08:49:45","新北市新莊區思源路419巷1弄7號","121.459348333333","25.0522033333333","6500500","新莊區"
"220065","461-BY","2018/06/25 08:49:54","新北市板橋區金華街12號","121.455915","25.0202083333333","6500100","板橋區"
"242030","280-VK","2018/06/25 08:49:56","新北市新莊區新泰路277巷17號","121.445141666667","25.0402883333333","6500500","新莊區"
