"lineid","car","time","location","longitude","latitude","cityid","cityname"
"248005","653-BX","2018/06/25 10:29:19","新北市五股區中興路二段37巷24號","121.460716666667","25.07495","6501500","五股區"
"244022","483-VK","2018/06/25 10:29:16","新北市林口區仁愛路二段265號","121.373625","25.0773716666667","6501700","林口區"
"231007","189-VK","2018/06/25 10:29:20","新北市新店區新潭路三段131號","121.511171666667","24.9107366666667","6500600","新店區"
"231008","192-VK","2018/06/25 10:26:54","新北市新店區小坑一路71號","121.531363333333","24.9083433333333","6500600","新店區"
"227005","282-VK","2018/06/25 10:01:35","新北市雙溪區泰平里灣潭路20-1號","121.813511666667","24.9289266666667","6502500","雙溪區"
"252006","AAC-283","2018/06/25 10:29:16","新北市三芝區新庄里番社后29-1號","121.501458333333","25.27118","6502100","三芝區"
