"lineid","car","time","location","longitude","latitude","cityid","cityname"
"234044","148-BY","2018/06/25 12:39:32","新北市永和區永元路68號","121.522573333333","25.00154","6500400","永和區"
"234005","207-UY","2018/06/25 12:39:28","新北市永和區文化路170號","121.511801666667","25.0155033333333","6500400","永和區"
"234078","298-R6","2018/06/25 12:39:20","新北市永和區林森路81號","121.523873333333","25.0038216666667","6500400","永和區"
"234038","336-UY","2018/06/25 12:39:21","新北市永和區福和路1號","121.526741666667","25.0099733333333","6500400","永和區"
"234084","338-UY","2018/06/25 12:39:16","新北市中和區安和路17號","121.511158333333","24.9939","6500400","永和區"
"234068","552-UM","2018/06/25 12:39:30","新北市永和區福和路1號","121.525753333333","25.0094783333333","6500400","永和區"
"234015","745-BX","2018/06/25 12:39:25","新北市永和區福和路1號","121.526293333333","25.0095616666667","6500400","永和區"
"234028","746-BX","2018/06/25 12:39:10","新北市永和區得和路326號","121.523273333333","24.9995616666667","6500400","永和區"
"234060","AAD-866","2018/06/25 12:39:12","新北市永和區福和路1號","121.525965","25.0096166666667","6500400","永和區"
"234048","863-TW","2018/06/25 12:39:14","新北市永和區福和路1號","121.526615","25.00995","6500400","永和區"
"234025","9371-KE","2018/06/25 12:39:26","新北市永和區福和路1號","121.52669","25.01005","6500400","永和區"
"234010","9373-KE","2018/06/25 12:39:27","新北市永和區竹林路75巷4弄34號","121.521773333333","25.0141033333333","6500400","永和區"
"234022","9380-KE","2018/06/25 12:39:29","新北市永和區福和路1號","121.52575","25.0093083333333","6500400","永和區"
"234076","969-R7","2018/06/25 12:39:20","新北市永和區中正路121號","121.515838333333","24.9976466666667","6500400","永和區"
"234066","AAC-212","2018/06/25 12:39:29","新北市永和區永和路一段2號","121.512621666667","25.0043416666667","6500400","永和區"
"234001","AAC-295","2018/06/25 12:39:28","新北市永和區福和路1號","121.526555","25.0098716666667","6500400","永和區"
"243005","AAD-798","2018/06/25 12:14:35","新北市泰山區黎明路25號","121.422073333333","25.0608133333333","6501600","泰山區"
"231005","106-UY","2018/06/25 12:39:28","新北市新店區安華路28-1號","121.519661666667","24.96078","6500600","新店區"
"231018","278-BY","2018/06/25 12:39:31","新北市新店區安一路一段1-1號","121.51965","24.9610816666667","6500600","新店區"
"231014","AAD-862","2018/06/25 12:39:20","新北市新店區安一路一段1-1號","121.51998","24.9611533333333","6500600","新店區"
"235031","255-BX","2018/06/25 12:39:27","新北市中和區連城路469巷24號","121.483515","24.9950083333333","6500300","中和區"
"235001","611-BX","2018/06/25 12:39:16","新北市中和區中正路637巷60弄61號","121.485501666667","24.9928516666667","6500300","中和區"
"207002","749-BX","2018/06/25 12:39:28","新北市萬里區雙興里太和路7-2號","121.658576666667","25.1741116666667","6502800","萬里區"
"235025","KEA-2875","2018/06/25 12:26:36","新北市中和區員山路36巷16-2號","121.485296666667","24.9916583333333","6500300","中和區"
