"lineid","car","time","location","longitude","latitude","cityid","cityname"
"234044","148-BY","2018/06/25 14:09:22","新北市永和區得和路328號","121.523308333333","24.99949","6500400","永和區"
"234005","207-UY","2018/06/25 14:09:28","新北市中和區保平路370號","121.50637","25.00353","6500400","永和區"
"234078","298-R6","2018/06/25 14:09:25","新北市永和區國中路53號","121.524636666667","25.00589","6500400","永和區"
"234036","336-UY","2018/06/25 14:09:21","新北市永和區成功路一段64巷3號","121.526611666667","25.00351","6500400","永和區"
"234062","337-UY","2018/06/25 14:09:16","新北市永和區永利路96號","121.520838333333","25.0035833333333","6500400","永和區"
"234084","338-UY","2018/06/25 14:09:16","新北市永和區福和路265號","121.517765","25.0073783333333","6500400","永和區"
"234068","552-UM","2018/06/25 14:09:30","新北市永和區福和路231號","121.518605","25.0074766666667","6500400","永和區"
"234015","745-BX","2018/06/25 14:09:24","新北市永和區仁愛路17號","121.514623333333","25.01341","6500400","永和區"
"234028","746-BX","2018/06/25 14:09:31","新北市永和區民權路49巷8號","121.520606666667","24.9970733333333","6500400","永和區"
"234052","KEA-2590","2018/06/25 14:09:18","新北市永和區博愛街53號","121.519781666667","25.0160066666667","6500400","永和區"
"234012","KEA-2591","2018/06/25 14:09:25","新北市永和區保生路26號","121.50637","25.0076016666667","6500400","永和區"
"234060","AAD-866","2018/06/25 14:09:12","新北市中和區安樂路255號","121.514045","24.999845","6500400","永和區"
"234040","862-TW","2018/06/25 14:09:29","新北市永和區雙和街28號","121.508896666667","25.0026416666667","6500400","永和區"
"234048","863-TW","2018/06/25 14:09:30","新北市永和區環河西路二段113號","121.5063","25.0145083333333","6500400","永和區"
"234025","9371-KE","2018/06/25 14:09:26","新北市永和區安樂路272巷7弄1號","121.514911666667","25.00429","6500400","永和區"
"234010","9373-KE","2018/06/25 14:09:27","新北市永和區仁愛路352巷112弄8號","121.501","25.0085183333333","6500400","永和區"
"248013","025-BX","2018/06/25 14:09:21","新北市五股區民義路一段107巷32號","121.432463333333","25.0846416666667","6501500","五股區"
"248015","026-BX","2018/06/25 14:09:25","新北市五股區成泰路三段543巷56號","121.449578333333","25.103095","6501500","五股區"
"248007","095-VK","2018/06/25 14:09:22","新北市五股區中興路二段37巷26號","121.460481666667","25.07497","6501500","五股區"
"248019","225-UY","2018/06/25 14:02:06","新北市五股區凌雲路三段57號","121.425328333333","25.125","6501500","五股區"
"248011","247-BX","2018/06/25 14:09:15","新北市五股區工商路18巷21號","121.440141666667","25.0842116666667","6501500","五股區"
"248003","677-BX","2018/06/25 14:09:26","新北市五股區六合街3號","121.43187","25.088505","6501500","五股區"
"248001","678-BX","2018/06/25 14:09:16","新北市五股區成泰路三段577巷77號","121.44972","25.1036933333333","6501500","五股區"
"248009","682-TV","2018/06/25 14:09:31","新北市五股區水碓一路23號","121.43063","25.0713266666667","6501500","五股區"
"234022","9380-KE","2018/06/25 14:09:29","新北市永和區復興街16巷7號","121.515801666667","25.0124433333333","6500400","永和區"
"234076","969-R7","2018/06/25 14:09:20","新北市永和區民族街67巷18號","121.519516666667","24.99713","6500400","永和區"
"234072","AAC-211","2018/06/25 14:09:20","新北市永和區竹林路201巷22弄4號","121.522246666667","25.0092933333333","6500400","永和區"
"234066","AAC-212","2018/06/25 14:09:29","新北市永和區保平路214巷7號","121.509071666667","25.0066233333333","6500400","永和區"
"234001","AAC-295","2018/06/25 14:09:30","新北市永和區中正路575號","121.51658","25.0088133333333","6500400","永和區"
"243005","AAD-798","2018/06/25 14:09:29","新北市泰山區台麗街16巷12號","121.424348333333","25.0376116666667","6501600","泰山區"
"243001","297-R6","2018/06/25 14:09:30","新北市泰山區楓樹街15巷28號","121.434483333333","25.063155","6501600","泰山區"
"243008","380-SR","2018/06/25 14:09:28","新北市泰山區明志路二段327號","121.425733333333","25.0450116666667","6501600","泰山區"
"243007","421-VK","2018/06/25 14:09:20","新北市泰山區明志路一段514號","121.430171666667","25.0539433333333","6501600","泰山區"
"243003","KEA-2215","2018/06/25 14:09:26","新北市泰山區明志路二段372巷2號","121.425375","25.0450016666667","6501600","泰山區"
"243002","KEA-2216","2018/06/25 14:09:24","新北市泰山區明志路一段483巷1弄5號","121.43109","25.0556066666667","6501600","泰山區"
"243004","646-TV","2018/06/25 14:09:24","新北市泰山區辭修路34巷1號","121.428885","25.0581066666667","6501600","泰山區"
"243006","680-BX","2018/06/25 14:09:24","新北市泰山區泰林路二段478-1號","121.42516","25.0641266666667","6501600","泰山區"
"231002","002-UM","2018/06/25 14:09:29","新北市新店區中正路545號","121.533801666667","24.9876483333333","6500600","新店區"
"231027","0293-UT","2018/06/25 14:09:31","新北市新店區光明街138巷13弄9號","121.540193333333","24.961505","6500600","新店區"
"231028","046-UY","2018/06/25 14:09:33","新北市新店區安和路三段57號","121.518011666667","24.9828683333333","6500600","新店區"
"231001","047-UY","2018/06/25 14:09:16","新北市新店區中華路52號","121.539605","24.9684783333333","6500600","新店區"
"231005","106-UY","2018/06/25 14:09:28","新北市新店區中興路三段304號","121.542263333333","24.9852783333333","6500600","新店區"
"231019","108-UY","2018/06/25 14:09:15","新北市新店區自強路74巷8號","121.545401666667","24.925105","6500600","新店區"
"231023","110-UY","2018/06/25 14:09:15","新北市新店區文中路45號","121.539513333333","24.9568016666667","6500600","新店區"
"231011","187-VK","2018/06/25 14:09:23","新北市新店區五峰路140號","121.544693333333","24.9657666666667","6500600","新店區"
"231010","188-VK","2018/06/25 14:09:28","新北市新店區安康路一段266巷4號","121.520171666667","24.96397","6500600","新店區"
"231003","268-BY","2018/06/25 14:09:23","新北市新店區中興路一段56號","121.539168333333","24.95946","6500600","新店區"
"231018","278-BY","2018/06/25 14:09:31","新北市新店區中央五街46號","121.52807","24.9750266666667","6500600","新店區"
"231014","AAD-862","2018/06/25 14:09:26","新北市新店區北宜路二段392巷9號","121.566548333333","24.95312","6500600","新店區"
"231038","3712-VJ","2018/06/25 14:09:31","新北市新店區溪洲路93號","121.533061666667","24.9610933333333","6500600","新店區"
"231037","4716-K9","2018/06/25 14:09:31","新北市新店區安康路三段165巷2弄7號","121.4891","24.9513033333333","6500600","新店區"
"231025","4715-K9","2018/06/25 14:09:14","新北市新店區二十張路129巷1弄1號","121.536038333333","24.9790583333333","6500600","新店區"
"231036","512-UM","2018/06/25 14:09:12","新北市新店區安祥路109巷1弄25號","121.476436666667","24.9600333333333","6500600","新店區"
"231013","513-UM","2018/06/25 14:09:15","新北市新店區北新路3段65巷34弄29-1號","121.540078333333","24.9819783333333","6500600","新店區"
"231004","618-UM","2018/06/25 14:09:27","新北市新店區寶橋路57號","121.545081666667","24.9748416666667","6500600","新店區"
"231030","619-UM","2018/06/25 14:09:17","新北市新店區安民街65巷21-2號","121.515315","24.9674283333333","6500600","新店區"
"231034","641-BX","2018/06/25 14:09:31","新北市新店區車子路11號","121.503053333333","24.9521166666667","6500600","新店區"
"231035","719-UM","2018/06/25 14:09:19","新北市新店區安和路一段52巷2-1號","121.517671666667","24.9662716666667","6500600","新店區"
"231031","720-UM","2018/06/25 14:09:23","新北市新店區永業路23號","121.533243333333","24.95566","6500600","新店區"
"231029","897-TW","2018/06/25 14:09:27","新北市新店區安康路二段57-1號","121.514121666667","24.963285","6500600","新店區"
"231006","898-TW","2018/06/25 14:09:21","新北市新店區北宜路二段126號","121.556818333333","24.9538683333333","6500600","新店區"
"235030","003-UY","2018/06/25 14:09:15","新北市中和區廣福路50號","121.504053333333","25.00197","6500300","中和區"
"235028","005-UY","2018/06/25 14:09:27","新北市中和區泰和街38巷37號","121.49829","25.0012916666667","6500300","中和區"
"235027","006-UY","2018/06/25 14:09:22","新北市中和區連城路249巷28弄2號","121.494686666667","24.9950583333333","6500300","中和區"
"235020","096-UM","2018/06/25 14:09:13","新北市中和區員山路516號","121.479118333333","25.0095233333333","6500300","中和區"
"235003","097-UM","2018/06/25 14:09:31","新北市中和區秀峰街52號","121.521176666667","24.99033","6500300","中和區"
"235029","098-UM","2018/06/25 14:09:15","新北市中和區中山路二段2巷3弄4號","121.504691666667","25.0060066666667","6500300","中和區"
"235004","150-BY","2018/06/25 14:09:19","新北市中和區宜安路121號","121.510015","24.9979866666667","6500300","中和區"
"235022","151-BY","2018/06/25 14:09:27","新北市中和區連城路539號","121.480375","24.9948616666667","6500300","中和區"
"235019","183-VK","2018/06/25 14:09:12","新北市中和區德光路79號","121.469318333333","25.0036633333333","6500300","中和區"
"235002","185-VK","2018/06/25 14:09:29","新北市中和區大仁街10巷29號","121.519173333333","24.9925816666667","6500300","中和區"
"235013","186-VK","2018/06/25 14:09:29","新北市中和區景安路85號","121.506091666667","24.9968316666667","6500300","中和區"
"235031","255-BX","2018/06/25 14:09:27","新北市中和區新生街266號","121.483453333333","24.9972083333333","6500300","中和區"
"235008","293-VK","2018/06/25 14:09:30","新北市中和區中興街204號","121.499893333333","24.9902566666667","6500300","中和區"
"235036","301-VK","2018/06/25 14:09:31","新北市中和區中山路二段175號","121.501213333333","25.0027183333333","6500300","中和區"
"235007","352-BY","2018/06/25 14:09:29","新北市中和區成功路95號","121.526031666667","24.991815","6500300","中和區"
"235006","KEA-2878","2018/06/25 14:09:27","新北市中和區自立路135號","121.521985","24.9939166666667","6500300","中和區"
"235014","4979-A6","2018/06/25 14:09:24","新北市中和區復興路280巷18弄2號","121.502511666667","24.991615","6500300","中和區"
"235033","4980-A6","2018/06/25 14:09:23","新北市中和區中和路165巷16號","121.503215","25.00044","6500300","中和區"
"235034","558-UM","2018/06/25 14:09:32","新北市中和區中和路51號","121.500343333333","25.001265","6500300","中和區"
"235009","565-BX","2018/06/25 14:09:19","新北市中和區景新街467巷35弄3號","121.51448","24.9890433333333","6500300","中和區"
"235018","640-BX","2018/06/25 14:09:13","新北市中和區民享街91號","121.474356666667","25.001415","6500300","中和區"
"235024","647-TV","2018/06/25 14:09:33","新北市中和區民治街27巷4號","121.475485","25.0011233333333","6500300","中和區"
"235011","732-UM","2018/06/25 14:09:25","新北市中和區興南路一段72號","121.510645","24.9901266666667","6500300","中和區"
"235010","733-UM","2018/06/25 14:09:22","新北市中和區忠孝街1巷48號","121.508436666667","24.9843166666667","6500300","中和區"
"235035","783-BX","2018/06/25 14:09:24","新北市中和區橋和路2-1號","121.48825","25.0050166666667","6500300","中和區"
"235026","800-TS","2018/06/25 14:09:17","新北市中和區中山路二段380巷31號","121.490816666667","25.004825","6500300","中和區"
"235021","801-TS","2018/06/25 14:09:25","新北市中和區民利街50號","121.479306666667","24.99879","6500300","中和區"
"235005","802-TS","2018/06/25 14:09:30","新北市中和區中安街178巷13弄1號","121.510315","24.9987466666667","6500300","中和區"
"235016","805-TS","2018/06/25 14:09:30","新北市中和區興南路二段142巷23號","121.5031","24.9838333333333","6500300","中和區"
"235012","896-TW","2018/06/25 14:09:21","新北市中和區工專路121號","121.508168333333","24.9793733333333","6500300","中和區"
"235017","900-TW","2018/06/25 14:09:26","新北市中和區華福街71巷26號","121.46751","24.996985","6500300","中和區"
"235015","157-BY","2018/06/25 14:09:19","新北市中和區捷運路6號","121.510076666667","24.989405","6500300","中和區"
"235001","AAC-213","2018/06/25 14:09:23","新北市永和區成功路二段217巷3號","121.526503333333","24.9955566666667","6500300","中和區"
"235023","AAC-215","2018/06/25 14:09:15","新北市中和區圓通路294巷3號","121.488903333333","24.98972","6500300","中和區"
"220016","013-TV","2018/06/25 14:09:30","新北市板橋區翠華街6巷16號","121.481048333333","25.0242383333333","6500100","板橋區"
"220020","015-TV","2018/06/25 14:09:32","新北市板橋區金門街372巷40號","121.427501666667","24.984985","6500100","板橋區"
"220034","073-UY","2018/06/25 14:09:24","新北市板橋區中正路216巷48-1號","121.45735","25.018815","6500100","板橋區"
"220105","075-UY","2018/06/25 14:09:34","新北市板橋區雙十路三段10巷16號","121.472293333333","25.0309616666667","6500100","板橋區"
"220017","AAD-861","2018/06/25 14:09:33","新北市板橋區貴興路25號","121.45775","25.0043116666667","6500100","板橋區"
"247023","893-R6","2018/06/25 14:09:31","新北市蘆洲區光榮路112號","121.464401666667","25.0892983333333","6501400","蘆洲區"
"247013","546-UM","2018/06/25 14:09:32","新北市蘆洲區忠孝路53號","121.47135","25.086655","6501400","蘆洲區"
"247021","500-BY","2018/06/25 14:09:30","新北市蘆洲區三民路158號","121.470206666667","25.0880816666667","6501400","蘆洲區"
"247009","341-TH","2018/06/25 14:09:30","新北市蘆洲區三民路52號","121.475368333333","25.0835433333333","6501400","蘆洲區"
"247011","339-TH","2018/06/25 14:09:16","新北市蘆洲區信義路347號","121.47769","25.0872183333333","6501400","蘆洲區"
"247005","336-TH","2018/06/25 14:09:21","新北市蘆洲區九芎街58號","121.46717","25.0788966666667","6501400","蘆洲區"
"247017","057-VK","2018/06/25 14:09:17","新北市蘆洲區復興路105巷11號","121.476288333333","25.0885033333333","6501400","蘆洲區"
"247007","056-VK","2018/06/25 14:09:22","新北市蘆洲區永安南路一段142巷64號","121.471731666667","25.0776483333333","6501400","蘆洲區"
"247003","053-VK","2018/06/25 14:09:31","新北市蘆洲區中華街6巷28號","121.462831666667","25.0822116666667","6501400","蘆洲區"
"247015","007-UY","2018/06/25 14:09:17","新北市蘆洲區光華路46巷31號","121.467928333333","25.084035","6501400","蘆洲區"
"247001","002-UY","2018/06/25 14:09:15","新北市蘆洲區永平街33號","121.458391666667","25.0909483333333","6501400","蘆洲區"
"247019","001-UY","2018/06/25 14:09:25","新北市蘆洲區仁愛街36巷15號","121.47272","25.0936633333333","6501400","蘆洲區"
"253003","6232-TK","2018/06/25 14:09:31","新北市石門區尖子鹿47-1號","121.580238333333","25.267935","6502200","石門區"
"253001","6251-TK","2018/06/25 14:09:29","新北市石門區下員坑58-2號","121.525011666667","25.2658033333333","6502200","石門區"
"253002","637-UY","2018/06/25 14:09:22","新北市石門區大丘田51號","121.550165","25.2715816666667","6502200","石門區"
"253004","8270-PC","2018/06/25 14:09:30","新北市石門區坪林21號","121.593193333333","25.2687","6502200","石門區"
"207002","749-BX","2018/06/25 14:09:28","新北市萬里區溪底里瑞泉路16號","121.605455","25.1440483333333","6502800","萬里區"
"252005","073-UM","2018/06/25 14:09:13","新北市三芝區橫山里橫山57-3號","121.536121666667","25.25255","6502100","三芝區"
"207001","662-BX","2018/06/25 14:09:26","新北市萬里區磺潭里清水18號","121.637793333333","25.1976133333333","6502800","萬里區"
"236064","105-UM","2018/06/25 14:09:15","新北市土城區明德路二段69號","121.451341666667","24.9811266666667","6501300","土城區"
"236040","107-UM","2018/06/25 14:09:18","新北市土城區城林路6巷80號","121.43823","24.9797883333333","6501300","土城區"
"236074","166-UM","2018/06/25 14:09:25","新北市土城區永和街2巷4號","121.434498333333","24.9648633333333","6501300","土城區"
"236029","253-BX","2018/06/25 14:09:19","新北市土城區城林路6巷80號","121.438576666667","24.9797266666667","6501300","土城區"
"236024","269-VK","2018/06/25 14:09:24","新北市土城區承天路67號","121.439443333333","24.963645","6501300","土城區"
"236012","270-VK","2018/06/25 14:09:27","新北市土城區學府路二段83號","121.44846","24.9807866666667","6501300","土城區"
"236032","271-VK","2018/06/25 14:09:14","新北市土城區明德路一段365-1號","121.453866666667","24.978805","6501300","土城區"
"236016","401-BY","2018/06/25 14:09:22","新北市土城區城林路6巷80號","121.438518333333","24.9798016666667","6501300","土城區"
"236005","498-BY","2018/06/25 14:09:16","新北市土城區中央路一段17號","121.448443333333","24.991095","6501300","土城區"
"236060","752-BX","2018/06/25 14:09:26","新北市土城區金城路二段392號","121.463683333333","24.9857116666667","6501300","土城區"
"236057","912-UM","2018/06/25 14:09:24","新北市土城區中央路四段172號","121.41676","24.9580033333333","6501300","土城區"
"236045","913-UM","2018/06/25 14:09:31","新北市土城區明德路一段365-1號","121.45357","24.9790166666667","6501300","土城區"
"236054","AAC-216","2018/06/25 14:09:28","新北市土城區中央路二段276-1號","121.44095","24.97439","6501300","土城區"
"220027","145-BY","2018/06/25 14:09:15","新北市板橋區民權路202巷9弄22號","121.459488333333","25.0156733333333","6500100","板橋區"
"220028","200-UY","2018/06/25 14:09:32","新北市板橋區大觀路二段7巷41號","121.44827","25.003405","6500100","板橋區"
"220030","610-BX","2018/06/25 14:09:22","新北市板橋區溪崑二街57號","121.428316666667","24.990745","6500100","板橋區"
"220050","245-BX","2018/06/25 14:09:20","新北市板橋區民生路二段56-6號","121.470955","25.01908","6500100","板橋區"
"220003","256-TC","2018/06/25 14:09:25","新北市板橋區新民街45號","121.463988333333","25.0109433333333","6500100","板橋區"
"220004","276-BY","2018/06/25 14:09:30","新北市板橋區信義路74巷1弄15號","121.457628333333","24.9927516666667","6500100","板橋區"
"220043","280-UM","2018/06/25 14:09:33","新北市板橋區光武街151號","121.465526666667","25.0293183333333","6500100","板橋區"
"220025","282-UM","2018/06/25 14:09:20","新北市板橋區龍興街65巷2號","121.443646666667","25.0015316666667","6500100","板橋區"
"220019","283-VK","2018/06/25 14:09:22","新北市板橋區大豐街17號","121.462338333333","25.00138","6500100","板橋區"
"220001","285-VK","2018/06/25 14:09:19","新北市板橋區懷仁街18號","121.476101666667","25.0197083333333","6500100","板橋區"
"220031","286-VK","2018/06/25 14:09:25","新北市板橋區大觀路二段174巷173弄12號","121.441333333333","25.0038966666667","6500100","板橋區"
"220029","287-VK","2018/06/25 14:09:25","新北市板橋區南雅西路二段121號","121.452511666667","25.0109533333333","6500100","板橋區"
"220039","288-VK","2018/06/25 14:09:17","新北市板橋區四維路279巷23號","121.462136666667","25.028165","6500100","板橋區"
"220009","293-UM","2018/06/25 14:09:31","新北市板橋區三民路二段27號","121.479333333333","25.0179683333333","6500100","板橋區"
"220032","296-UM","2018/06/25 14:09:17","新北市板橋區溪崑二街16巷14-1號","121.428348333333","24.9919633333333","6500100","板橋區"
"220023","303-R5","2018/06/25 14:09:17","新北市板橋區中正路12巷135弄13號","121.45627","25.0125216666667","6500100","板橋區"
"220010","305-R5","2018/06/25 14:09:17","新北市板橋區三民路二段245巷69弄2號","121.481143333333","25.0128466666667","6500100","板橋區"
"220041","307-R5","2018/06/25 14:09:32","新北市板橋區文化路二段225巷56號","121.469481666667","25.0284083333333","6500100","板橋區"
"220047","317-R6","2018/06/25 14:09:29","新北市板橋區民有街1號","121.46587","25.0240083333333","6500100","板橋區"
"220013","461-BY","2018/06/25 14:09:14","新北市板橋區民族路219巷7號","121.469345","25.0079516666667","6500100","板橋區"
"220012","486-VK","2018/06/25 14:09:28","新北市板橋區民生路一段33號","121.476046666667","25.0117","6500100","板橋區"
"220037","491-VK","2018/06/25 14:09:32","新北市板橋區莊敬路40號","121.472878333333","25.0269366666667","6500100","板橋區"
"220104","560-BX","2018/06/25 14:09:13","新北市板橋區中正路405號","121.45403","25.0223283333333","6500100","板橋區"
"220052","561-BX","2018/06/25 14:09:22","新北市板橋區文化路一段188巷9弄116號","121.468753333333","25.0192816666667","6500100","板橋區"
"220011","609-BX","2018/06/25 14:09:22","新北市板橋區三民路二段165號","121.479171666667","25.01459","6500100","板橋區"
"220040","637-BX","2018/06/25 14:09:23","新北市板橋區縣民大道247巷80號","121.482141666667","25.0269283333333","6500100","板橋區"
"220005","686-BX","2018/06/25 14:09:32","新北市板橋區重慶路305號","121.463745","24.9988533333333","6500100","板橋區"
"220042","689-BX","2018/06/25 14:09:28","新北市板橋區民生路三段227號","121.464875","25.0285283333333","6500100","板橋區"
"220002","741-BX","2018/06/25 14:09:32","新北市板橋區重慶路69巷5號","121.462261666667","25.0071016666667","6500100","板橋區"
"220051","KEA-2699","2018/06/25 14:09:20","新北市板橋區田單街51號","121.482625","25.02794","6500100","板橋區"
"220014","830-TW","2018/06/25 14:09:20","新北市板橋區民享街116巷3號","121.478218333333","25.0156466666667","6500100","板橋區"
"220045","831-TW","2018/06/25 14:09:17","新北市板橋區大同街2號","121.476891666667","25.0267083333333","6500100","板橋區"
"220038","833-TW","2018/06/25 14:09:19","新北市板橋區文化路二段367號","121.473106666667","25.03093","6500100","板橋區"
"220022","895-R6","2018/06/25 14:09:22","新北市板橋區西門街59號","121.454501666667","25.0092","6500100","板橋區"
"220021","985-R7","2018/06/25 14:09:22","新北市板橋區中正路163-1號","121.456486666667","25.0162033333333","6500100","板橋區"
"220046","AAC-210","2018/06/25 14:09:16","新北市板橋區新海路135巷33號","121.460031666667","25.02285","6500100","板橋區"
"220018","AAC-253","2018/06/25 14:09:20","新北市板橋區四川路一段353號","121.458345","24.99981","6500100","板橋區"
"235032","KEA-2873","2018/06/25 14:09:30","新北市中和區景平路545巷1弄15號","121.498813333333","24.9988133333333","6500300","中和區"
"235025","KEA-2875","2018/06/25 14:09:07","新北市中和區員山路394巷12弄12號","121.481368333333","25.0040516666667","6500300","中和區"
