"lineid","car","time","location","longitude","latitude","cityid","cityname"
"234001","AAC-295","2018/06/25 16:09:28","新北市永和區福和路1號","121.526131666667","25.009535","6500400","永和區"
"231011","187-VK","2018/06/25 16:09:23","新北市新店區柴埕路116號","121.504885","24.9599866666667","6500600","新店區"
"231046","188-VK","2018/06/25 16:09:14","新北市新店區永業路45號","121.53227","24.95508","6500600","新店區"
"231003","268-BY","2018/06/25 16:09:23","新北市新店區安樂街21號","121.525875","24.9687233333333","6500600","新店區"
"231018","278-BY","2018/06/25 16:09:31","新北市新店區中正路694巷15號","121.535378333333","24.990895","6500600","新店區"
"231014","AAD-862","2018/06/25 16:09:20","新北市新店區民生路149巷22號","121.529321666667","24.9799866666667","6500600","新店區"
"231037","4716-K9","2018/06/25 16:09:31","新北市新店區薏仁坑路自強巷1號","121.496671666667","24.9579183333333","6500600","新店區"
"231035","719-UM","2018/06/25 16:09:23","新北市新店區安康路二段362-1號","121.50136","24.9572483333333","6500600","新店區"
"241011","013-R5","2018/06/25 16:09:22","新北市三重區正義北路378號","121.493403333333","25.071485","6500200","三重區"
"241028","022-UY","2018/06/25 16:09:20","新北市三重區正義南路111號","121.498228333333","25.0585733333333","6500200","三重區"
"241008","059-VK","2018/06/25 16:09:25","新北市三重區力行路一段183號","121.483643333333","25.0696","6500200","三重區"
"241022","060-VK","2018/06/25 16:09:27","新北市三重區市前街2號","121.488953333333","25.0618766666667","6500200","三重區"
"241031","061-VK","2018/06/25 16:09:28","新北市三重區重新路四段121號","121.484546666667","25.05209","6500200","三重區"
"241015","062-VK","2018/06/25 16:09:27","新北市三重區環河南路110-1號","121.498941666667","25.0561216666667","6500200","三重區"
"241017","063-VK","2018/06/25 16:09:22","新北市三重區大同北路148巷35號","121.491143333333","25.064835","6500200","三重區"
"241024","065-VK","2018/06/25 16:09:33","新北市三重區力行路一段38巷23號","121.485575","25.06725","6500200","三重區"
"241026","066-VK","2018/06/25 16:09:25","新北市三重區正義南路17號","121.497538333333","25.0615233333333","6500200","三重區"
"241002","090-VK","2018/06/25 16:09:22","新北市三重區仁義街91號","121.499755","25.0795216666667","6500200","三重區"
"241005","262-UM","2018/06/25 16:09:24","新北市三重區溪尾街300-2號","121.487288333333","25.0837166666667","6500200","三重區"
"241003","265-UM","2018/06/25 16:09:35","新北市三重區仁義街301號","121.495636666667","25.0837433333333","6500200","三重區"
"241016","266-UM","2018/06/25 16:09:24","新北市三重區重新路三段45-1號","121.493086666667","25.061305","6500200","三重區"
"241009","267-UM","2018/06/25 16:09:23","新北市三重區力行路二段78號","121.481823333333","25.0737066666667","6500200","三重區"
"241018","268-UM","2018/06/25 16:09:35","新北市三重區明志街65號","121.491153333333","25.063855","6500200","三重區"
"241013","270-UM","2018/06/25 16:09:23","新北市三重區安樂街3號","121.496935","25.069805","6500200","三重區"
"241025","271-UM","2018/06/25 16:09:33","新北市三重區中正北路208巷8號","121.482293333333","25.0671216666667","6500200","三重區"
"241007","398-BY","2018/06/25 16:09:33","新北市三重區慈愛街8號","121.484498333333","25.07849","6500200","三重區"
"241004","475-VK","2018/06/25 16:09:32","新北市三重區泉州街84巷18號","121.495861666667","25.0543066666667","6500200","三重區"
"241020","478-VK","2018/06/25 16:09:32","新北市三重區車路頭街26號","121.483718333333","25.07073","6500200","三重區"
"241030","480-VK","2018/06/25 16:09:24","新北市三重區重新路四段121號","121.484901666667","25.0524716666667","6500200","三重區"
"241014","543-UM","2018/06/25 16:09:32","新北市三重區正義南路183號","121.499186666667","25.056315","6500200","三重區"
"241001","547-UM","2018/06/25 16:09:05","新北市三重區自強路四段77號","121.490696666667","25.0789516666667","6500200","三重區"
"241019","KEA-2593","2018/06/25 16:09:29","新北市三重區自強路二段29號","121.489608333333","25.069395","6500200","三重區"
"241006","AAD-863","2018/06/25 16:09:26","新北市三重區車路頭街135-1號","121.484245","25.0760133333333","6500200","三重區"
"241023","887-TS","2018/06/25 16:09:35","新北市三重區力行路一段56-1號","121.484798333333","25.06901","6500200","三重區"
"241012","941-UM","2018/06/25 16:09:30","新北市三重區文化北路132巷47號","121.497486666667","25.0665566666667","6500200","三重區"
"241029","942-UM","2018/06/25 16:09:14","新北市三重區同安街26-1號","121.496185","25.056795","6500200","三重區"
"241033","AAC-255","2018/06/25 16:09:26","新北市三重區五谷王南街50-1號","121.473735","25.0445783333333","6500200","三重區"
"235026","800-TS","2018/06/25 16:09:37","新北市中和區中山路二段332巷39號","121.493976666667","25.00398","6500300","中和區"
"224007","275-VK","2018/06/25 16:09:20","新北市瑞芳區粗坑口路78號","121.761558333333","25.0993983333333","6501200","瑞芳區"
"224005","271-BY","2018/06/25 16:09:14","新北市瑞芳區中山路326號","121.79638","25.110195","6501200","瑞芳區"
"227001","642-TC","2018/06/25 16:09:33","新北市雙溪區上林里內平林56號","121.832936666667","25.02984","6502500","雙溪區"
"227008","400-TW","2018/06/25 16:09:26","新北市雙溪區三港里雙澳路86號","121.885591666667","25.05455","6502500","雙溪區"
"251008","181-VK","2018/06/25 16:09:24","新北市淡水區中正路一段22巷6號","121.427605","25.1757783333333","6501000","淡水區"
"236057","912-UM","2018/06/25 16:09:24","新北市土城區中央路二段284號","121.440515","24.9735333333333","6501300","土城區"
"238002","755-BX","2018/06/25 16:09:14","新北市樹林區文化街112巷16號","121.417296666667","24.99047","6500700","樹林區"
"238010","601-UM","2018/06/25 16:09:16","新北市樹林區三福街85巷8號","121.407185","25.0155083333333","6500700","樹林區"
"238006","599-UM","2018/06/25 16:09:14","新北市樹林區中華路190-6號","121.41079","24.9806883333333","6500700","樹林區"
"238005","571-TV","2018/06/25 16:09:25","新北市樹林區博愛街157號","121.425451666667","24.9902733333333","6500700","樹林區"
"238011","5061-A6","2018/06/25 16:09:21","新北市樹林區育德街78號","121.388053333333","24.9683016666667","6500700","樹林區"
"238022","KEA-2213","2018/06/25 16:09:28","新北市樹林區太平路178號","121.418206666667","24.9768416666667","6500700","樹林區"
"238012","303-VK","2018/06/25 16:09:34","新北市樹林區中正路22-1號","121.427836666667","24.99932","6500700","樹林區"
"238004","283-BY","2018/06/25 16:09:33","新北市樹林區中正路433-2號","121.414875","25.008235","6500700","樹林區"
"238001","282-BY","2018/06/25 16:09:17","新北市樹林區中正路22-1號","121.427765","24.9995","6500700","樹林區"
"238007","268-VK","2018/06/25 16:09:22","新北市樹林區俊興街284號","121.418573333333","25.0170016666667","6500700","樹林區"
"238013","172-UY","2018/06/25 16:09:14","新北市樹林區佳園路一段75巷14弄10號","121.39518","24.9698833333333","6500700","樹林區"
