"lineid","car","time","location","longitude","latitude","cityid","cityname"
"249005","172-UM","2018/06/25 16:59:28","新北市八里區渡船頭3-19號","121.43394","25.1517483333333","6502300","八里區"
"249001","173-UM","2018/06/25 16:59:31","新北市八里區下罟子1-16號","121.389883333333","25.1421116666667","6502300","八里區"
"249004","303-UY","2018/06/25 16:59:25","新北市八里區挖子尾街40號","121.415701666667","25.16599","6502300","八里區"
"249002","305-UY","2018/06/25 16:55:28","新北市八里區牛寮埔28-3號","121.432425","25.1443116666667","6502300","八里區"
"249003","593-UM","2018/06/25 16:59:26","新北市八里區中山路二段283號","121.401588333333","25.1486516666667","6502300","八里區"
"244007","080-UY","2018/06/25 16:59:09","新北市林口區林口路299號","121.38587","25.08508","6501700","林口區"
"244013","742-UY","2018/06/25 16:59:21","新北市林口區粉寮69號","121.404765","25.090835","6501700","林口區"
"244023","483-VK","2018/06/25 16:59:27","新北市林口區粉寮路二段20號","121.402463333333","25.0860216666667","6501700","林口區"
"244017","485-VK","2018/06/25 16:59:26","新北市林口區粉寮69號","121.405078333333","25.090855","6501700","林口區"
"244025","837-TS","2018/06/25 16:59:26","新北市林口區粉寮69號","121.40501","25.0908733333333","6501700","林口區"
"231046","188-VK","2018/06/25 16:59:34","新北市新店區華潭街1巷49號","121.525828333333","24.946595","6500600","新店區"
"241011","013-R5","2018/06/25 16:59:26","新北市三重區公園街13號","121.499448333333","25.0728516666667","6500200","三重區"
"241028","022-UY","2018/06/25 16:59:20","新北市三重區中正南路42號","121.493806666667","25.0600283333333","6500200","三重區"
"241008","059-VK","2018/06/25 16:59:25","新北市三重區永安北路一段3巷29號","121.477296666667","25.07471","6500200","三重區"
"241022","060-VK","2018/06/25 16:59:21","新北市三重區貴陽街40號","121.484016666667","25.0626033333333","6500200","三重區"
"241031","061-VK","2018/06/25 16:59:28","新北市三重區重新路三段115巷12號","121.490215","25.06028","6500200","三重區"
"241015","062-VK","2018/06/25 16:59:27","新北市三重區福德北路82-2號","121.501491666667","25.06631","6500200","三重區"
"241017","063-VK","2018/06/25 16:59:22","新北市三重區國隆路12巷2號","121.493063333333","25.0637966666667","6500200","三重區"
"241024","065-VK","2018/06/25 16:59:33","新北市三重區國道路一段139號","121.475553333333","25.0736783333333","6500200","三重區"
"241026","066-VK","2018/06/25 16:59:36","新北市三重區文化南路42號","121.500443333333","25.0602833333333","6500200","三重區"
"241002","090-VK","2018/06/25 16:59:22","新北市三重區仁義街101巷40號","121.499156666667","25.0806016666667","6500200","三重區"
"241005","262-UM","2018/06/25 16:59:27","新北市三重區仁華街65號","121.48432","25.0827966666667","6500200","三重區"
"241003","265-UM","2018/06/25 16:59:15","新北市三重區五華街141巷60號","121.49356","25.0868516666667","6500200","三重區"
"241016","266-UM","2018/06/25 16:59:24","新北市三重區大同北路69號","121.49516","25.0637266666667","6500200","三重區"
"241009","267-UM","2018/06/25 16:59:23","新北市三重區仁美街107號","121.485846666667","25.0808083333333","6500200","三重區"
"241018","268-UM","2018/06/25 16:59:35","新北市三重區民生東街32號","121.493058333333","25.0689266666667","6500200","三重區"
"241032","269-UM","2018/06/25 16:59:34","新北市三重區新北大道一段57巷11號","121.4855","25.0608416666667","6500200","三重區"
"241013","270-UM","2018/06/25 16:59:23","新北市三重區仁福街68號","121.498163333333","25.0748","6500200","三重區"
"241025","271-UM","2018/06/25 16:59:33","新北市三重區中正北路361號","121.472656666667","25.071775","6500200","三重區"
"241007","398-BY","2018/06/25 16:59:33","新北市三重區三和路四段181巷248號","121.487951666667","25.0806066666667","6500200","三重區"
"241004","475-VK","2018/06/25 16:59:32","新北市三重區五華街82號","121.49317","25.0821566666667","6500200","三重區"
"241020","478-VK","2018/06/25 16:59:32","新北市三重區後竹圍街175巷5號","121.48582","25.0723333333333","6500200","三重區"
"241030","480-VK","2018/06/25 16:59:24","新北市三重區昌隆街63號","121.490963333333","25.0510183333333","6500200","三重區"
"241014","543-UM","2018/06/25 16:59:32","新北市三重區介壽路189號","121.501435","25.0708016666667","6500200","三重區"
"241001","547-UM","2018/06/25 16:59:25","新北市三重區仁政街1號","121.493483333333","25.0760833333333","6500200","三重區"
"241019","KEA-2593","2018/06/25 16:59:29","新北市三重區自強路二段74巷21號","121.48797","25.0698866666667","6500200","三重區"
"241006","AAD-863","2018/06/25 16:59:25","新北市三重區三和路四段218巷22號","121.485436666667","25.076215","6500200","三重區"
"241023","887-TS","2018/06/25 16:59:35","新北市三重區新北大道一段252號","121.479811666667","25.06178","6500200","三重區"
"241012","941-UM","2018/06/25 16:59:30","新北市三重區仁壽街216號","121.501748333333","25.0750866666667","6500200","三重區"
"241029","942-UM","2018/06/25 16:59:35","新北市三重區泉州街72號","121.494746666667","25.0548966666667","6500200","三重區"
"241033","AAC-255","2018/06/25 16:59:26","新北市三重區中興北街271號","121.469101666667","25.0606516666667","6500200","三重區"
"235064","005-UY","2018/06/25 16:40:04","新北市中和區員山路36巷16-3號","121.485055","24.991345","6500300","中和區"
"235046","733-UM","2018/06/25 16:30:01","新北市中和區員山路36巷13號","121.48416","24.9908666666667","6500300","中和區"
"247024","893-R6","2018/06/25 16:59:27","新北市蘆洲區光明路85巷15號","121.460656666667","25.0876566666667","6501400","蘆洲區"
"247014","546-UM","2018/06/25 16:59:31","新北市蘆洲區中山二路36巷33號","121.47406","25.0832616666667","6501400","蘆洲區"
"247006","336-TH","2018/06/25 16:59:28","新北市蘆洲區永安南路二段232號","121.460595","25.0795983333333","6501400","蘆洲區"
"247018","057-VK","2018/06/25 16:59:16","新北市蘆洲區民族路201巷30號","121.477063333333","25.0890083333333","6501400","蘆洲區"
"247008","056-VK","2018/06/25 16:59:35","新北市蘆洲區信義路56號","121.475388333333","25.0796666666667","6501400","蘆洲區"
"247004","053-VK","2018/06/25 16:59:36","新北市蘆洲區長安街127號","121.46075","25.08134","6501400","蘆洲區"
"247016","007-UY","2018/06/25 16:59:29","新北市蘆洲區光華路41巷18號","121.469515","25.0824216666667","6501400","蘆洲區"
"247020","001-UY","2018/06/25 16:59:25","新北市蘆洲區民族路422巷48弄13號","121.474226666667","25.0936066666667","6501400","蘆洲區"
"228003","097-TW","2018/06/25 16:59:22","新北市貢寮區福隆里興隆街36號","121.942058333333","25.0167683333333","6502600","貢寮區"
"228002","663-BX","2018/06/25 16:59:21","新北市貢寮區貢寮里朝陽街86號","121.908943333333","25.0221133333333","6502600","貢寮區"
"228001","670-TC","2018/06/25 16:59:22","新北市貢寮區貢寮里朝陽街1-2號","121.912331666667","25.02125","6502600","貢寮區"
"224006","676-BX","2018/06/25 16:59:29","新北市瑞芳區大寮路2-1號","121.78551","25.1008283333333","6501200","瑞芳區"
"224008","285-BY","2018/06/25 16:59:31","新北市瑞芳區明燈路二段2巷8號","121.8141","25.1083866666667","6501200","瑞芳區"
"224007","275-VK","2018/06/25 16:59:22","新北市瑞芳區瑞竹路22號","121.764946666667","25.1034183333333","6501200","瑞芳區"
"224009","273-VK","2018/06/25 16:59:24","新北市瑞芳區濱二路24號","121.836535","25.1125316666667","6501200","瑞芳區"
"224005","271-BY","2018/06/25 16:59:34","新北市瑞芳區明里路28號","121.868896666667","25.122005","6501200","瑞芳區"
"227001","642-TC","2018/06/25 16:59:33","新北市雙溪區長源里柑腳9號","121.804716666667","25.0146383333333","6502500","雙溪區"
"227008","400-TW","2018/06/25 16:59:26","新北市雙溪區牡丹里聖南34號","121.853515","25.05585","6502500","雙溪區"
"251004","009-UM","2018/06/25 16:59:18","新北市淡水區中正路197號","121.438165","25.1715516666667","6501000","淡水區"
"251005","010-UM","2018/06/25 16:59:17","新北市淡水區中正路一段156巷1號","121.420995","25.1798966666667","6501000","淡水區"
"251013","KEA-2871","2018/06/25 16:59:20","新北市淡水區泉洲厝32號","121.48931","25.1925883333333","6501000","淡水區"
"251016","179-VK","2018/06/25 16:59:31","新北市淡水區瓦坑3號","121.477528333333","25.1807416666667","6501000","淡水區"
"251014","180-VK","2018/06/25 16:59:32","新北市淡水區八里堆3-5號","121.454931666667","25.224585","6501000","淡水區"
"251008","181-VK","2018/06/25 16:59:24","新北市淡水區樹梅坑9號","121.472678333333","25.142655","6501000","淡水區"
"251015","182-VK","2018/06/25 16:59:24","新北市淡水區忠愛街9-1號","121.456743333333","25.1744166666667","6501000","淡水區"
"251010","413-VK","2018/06/25 16:59:23","新北市淡水區新市二路三段20號","121.43149","25.192395","6501000","淡水區"
"251012","441-VK","2018/06/25 16:59:19","新北市淡水區沙崙路200號","121.424585","25.18386","6501000","淡水區"
"251006","561-UM","2018/06/25 16:59:21","新北市淡水區中正路一段156巷1號","121.420883333333","25.1800666666667","6501000","淡水區"
"251009","575-R6","2018/06/25 16:59:25","新北市淡水區中正路437號","121.43205","25.174805","6501000","淡水區"
"251007","577-R6","2018/06/25 16:59:28","新北市淡水區中正東路二段45號","121.459316666667","25.15611","6501000","淡水區"
"251011","650-BX","2018/06/25 16:59:24","新北市淡水區中山路24號","121.444505","25.16958","6501000","淡水區"
"252002","178-VK","2018/06/25 16:59:22","新北市三芝區忠孝街171號","121.505726666667","25.2611733333333","6502100","三芝區"
"252001","292-VK","2018/06/25 16:59:31","新北市三芝區淡金路二段76-1號","121.503808333333","25.260855","6502100","三芝區"
"242053","751-BX","2018/06/25 16:59:17","新北市新莊區新泰路357巷3弄57號","121.442031666667","25.0392183333333","6500500","新莊區"
"242025","613-BX","2018/06/25 16:59:16","新北市新莊區新泰路357巷3弄57號","121.442213333333","25.039185","6500500","新莊區"
"242029","612-BX","2018/06/25 16:59:22","新北市新莊區新泰路357巷3弄57號","121.442176666667","25.03932","6500500","新莊區"
"242042","566-BX","2018/06/25 16:59:29","新北市新莊區新泰路357巷3弄57號","121.442113333333","25.039185","6500500","新莊區"
"242050","441-UM","2018/06/25 16:59:17","新北市新莊區三和路12-21號","121.442061666667","25.0384466666667","6500500","新莊區"
"242036","415-TV","2018/06/25 16:59:25","新北市新莊區新泰路357巷3弄57號","121.44214","25.03934","6500500","新莊區"
"242044","400-BY","2018/06/25 16:59:31","新北市新莊區新泰路357巷3弄57號","121.442181666667","25.0396283333333","6500500","新莊區"
"242060","353-BY","2018/06/25 16:59:36","新北市新莊區新泰路255巷83號","121.442326666667","25.03896","6500500","新莊區"
"242039","133-UY","2018/06/25 16:59:25","新北市新莊區新泰路255巷83號","121.442045","25.0389016666667","6500500","新莊區"
"242048","172-VK","2018/06/25 16:49:35","新北市新莊區新泰路255巷83號","121.442053333333","25.0389033333333","6500500","新莊區"
"242021","348-TH","2018/06/25 16:59:24","新北市新莊區新泰路357巷3弄57號","121.441901666667","25.0395666666667","6500500","新莊區"
"242013","351-TH","2018/06/25 16:59:23","新北市新莊區三和路24-12號","121.440141666667","25.0394933333333","6500500","新莊區"
"238025","303-VK","2018/06/25 16:59:21","新北市樹林區中正路17號","121.42784","24.99924","6500700","樹林區"
"238004","283-BY","2018/06/25 16:59:33","新北市樹林區三多路123號","121.414646666667","25.0080366666667","6500700","樹林區"
"238001","282-BY","2018/06/25 16:59:16","新北市樹林區大慶街176-1號","121.428046666667","24.999865","6500700","樹林區"
"239006","891-R6","2018/06/25 16:51:37","新北市鶯歌區二甲路171號","121.343293333333","24.936535","6500800","鶯歌區"
"239005","526-UM","2018/06/25 16:59:36","新北市鶯歌區二甲路12-2號","121.345945","24.93509","6500800","鶯歌區"
"239001","417-VK","2018/06/25 16:59:15","新北市鶯歌區二甲路12-2號","121.345495","24.9351133333333","6500800","鶯歌區"
"242019","280-VK","2018/06/25 16:59:36","新北市新莊區三和路12-21號","121.442033333333","25.0383266666667","6500500","新莊區"
