"lineid","car","time","location","longitude","latitude","cityid","cityname"
"249005","172-UM","2018/06/25 17:19:28","新北市八里區荖阡坑路50-1號","121.412105","25.122455","6502300","八里區"
"249001","173-UM","2018/06/25 17:19:31","新北市八里區中華路二段165巷3號","121.407668333333","25.1508966666667","6502300","八里區"
"249004","303-UY","2018/06/25 17:19:25","新北市八里區忠七街6號","121.421051666667","25.1597","6502300","八里區"
"249002","305-UY","2018/06/25 17:19:28","新北市八里區龍米路二段117巷18號","121.445136666667","25.142865","6502300","八里區"
"249003","593-UM","2018/06/25 17:19:26","新北市八里區中山路二段453號","121.396516666667","25.14568","6502300","八里區"
"244007","080-UY","2018/06/25 17:19:29","新北市林口區中湖40-9號","121.383308333333","25.091175","6501700","林口區"
"244019","403-UM","2018/06/25 17:19:28","新北市林口區文化二路一段354-3號","121.373073333333","25.0754766666667","6501700","林口區"
"244013","742-UY","2018/06/25 17:19:21","新北市林口區粉寮69號","121.404785","25.0908666666667","6501700","林口區"
"244009","410-SL","2018/06/25 17:19:26","新北市林口區文化北路二段550巷29弄38號","121.379475","25.09285","6501700","林口區"
"244023","483-VK","2018/06/25 17:19:27","新北市林口區隆林街65號","121.386953333333","25.0754483333333","6501700","林口區"
"244017","485-VK","2018/06/25 17:19:26","新北市林口區粉寮69號","121.405076666667","25.0908533333333","6501700","林口區"
"244011","701-TV","2018/06/25 17:19:15","新北市林口區粉寮路二段1-1號","121.400353333333","25.0832166666667","6501700","林口區"
"244025","837-TS","2018/06/25 17:19:26","新北市林口區文化三路一段589號","121.371208333333","25.0767533333333","6501700","林口區"
"244021","838-TS","2018/06/25 17:19:21","新北市林口區粉寮70-1號","121.405678333333","25.09241","6501700","林口區"
"231046","188-VK","2018/06/25 17:19:34","新北市新店區直潭路92號","121.530921666667","24.93756","6500600","新店區"
"241011","013-R5","2018/06/25 17:19:22","新北市三重區河邊北街100巷18號","121.503168333333","25.07023","6500200","三重區"
"241028","022-UY","2018/06/25 17:19:20","新北市三重區仁化商場10號","121.49372","25.0594016666667","6500200","三重區"
"241008","059-VK","2018/06/25 17:19:35","新北市三重區下竹圍街16號","121.48096","25.0756966666667","6500200","三重區"
"241022","060-VK","2018/06/25 17:19:21","新北市三重區重陽路二段34巷46號","121.485613333333","25.06382","6500200","三重區"
"241015","062-VK","2018/06/25 17:19:27","新北市三重區長元街82-1號","121.501876666667","25.0663266666667","6500200","三重區"
"241017","063-VK","2018/06/25 17:19:22","新北市三重區大同北路83號","121.494886666667","25.063605","6500200","三重區"
"241024","065-VK","2018/06/25 17:19:33","新北市三重區中正北路193巷9號","121.477168333333","25.07017","6500200","三重區"
"241026","066-VK","2018/06/25 17:19:36","新北市三重區福裕街6號","121.4998","25.06165","6500200","三重區"
"241002","090-VK","2018/06/25 17:19:22","新北市三重區自強路五段7號","121.492345","25.0803966666667","6500200","三重區"
"241005","262-UM","2018/06/25 17:19:24","新北市三重區永安北路二段13巷13號","121.482611666667","25.081565","6500200","三重區"
"241003","265-UM","2018/06/25 17:19:35","新北市三重區五華街123號","121.49148","25.0841533333333","6500200","三重區"
"241016","266-UM","2018/06/25 17:18:24","新北市三重區大同北路54巷1號","121.494176666667","25.0636066666667","6500200","三重區"
"241009","267-UM","2018/06/25 17:19:23","新北市三重區仁愛街626號","121.483388333333","25.080615","6500200","三重區"
"241018","268-UM","2018/06/25 17:19:35","新北市三重區正義北路280號","121.495713333333","25.0692016666667","6500200","三重區"
"241032","269-UM","2018/06/25 17:19:29","新北市三重區新北大道一段133巷10號","121.482551666667","25.0608833333333","6500200","三重區"
"241013","270-UM","2018/06/25 17:19:23","新北市三重區重陽路五段3巷3號","121.494296666667","25.07321","6500200","三重區"
"241025","271-UM","2018/06/25 17:19:33","新北市三重區中正北路281號","121.474873333333","25.0711066666667","6500200","三重區"
"241007","398-BY","2018/06/25 17:19:33","新北市三重區三和路四段165號","121.48348","25.0786133333333","6500200","三重區"
"241004","475-VK","2018/06/25 17:19:32","新北市三重區五華街110巷17弄2號","121.490983333333","25.08217","6500200","三重區"
"241020","478-VK","2018/06/25 17:19:32","新北市三重區自強路三段72號","121.48678","25.0736283333333","6500200","三重區"
"241030","480-VK","2018/06/25 17:19:24","新北市三重區成功路73巷16號","121.489368333333","25.05194","6500200","三重區"
"241014","543-UM","2018/06/25 17:19:32","新北市三重區三和路二段83號","121.500076666667","25.0683733333333","6500200","三重區"
"241019","KEA-2593","2018/06/25 17:19:34","新北市三重區忠孝路二段80號","121.484141666667","25.0696266666667","6500200","三重區"
"241024","743-BX","2018/06/25 17:19:31","新北市三重區國道路一段58巷15號","121.48145","25.0720683333333","6500200","三重區"
"241023","887-TS","2018/06/25 17:19:37","新北市三重區三民街150號","121.482443333333","25.065415","6500200","三重區"
"241012","941-UM","2018/06/25 17:19:30","新北市三重區河邊北街369號","121.501876666667","25.0761016666667","6500200","三重區"
"241029","942-UM","2018/06/25 17:19:35","新北市三重區三寧街2號","121.48856","25.0594833333333","6500200","三重區"
"241033","AAC-255","2018/06/25 17:19:26","新北市三重區中興北街195號","121.469048333333","25.0572683333333","6500200","三重區"
"247024","893-R6","2018/06/25 17:19:27","新北市蘆洲區光榮路2號","121.460255","25.0862733333333","6501400","蘆洲區"
"247014","546-UM","2018/06/25 17:19:31","新北市蘆洲區中正路58號","121.470663333333","25.083065","6501400","蘆洲區"
"247022","500-BY","2018/06/25 17:19:23","新北市蘆洲區民權路121巷19號","121.470705","25.088705","6501400","蘆洲區"
"247010","341-TH","2018/06/25 17:19:32","新北市蘆洲區中山一路120巷7弄6號","121.477608333333","25.08205","6501400","蘆洲區"
"247012","339-TH","2018/06/25 17:19:31","新北市蘆洲區信義路319巷10弄3號","121.477575","25.0865","6501400","蘆洲區"
"247006","336-TH","2018/06/25 17:19:27","新北市蘆洲區長安街73巷25號","121.462011666667","25.079245","6501400","蘆洲區"
"247018","057-VK","2018/06/25 17:19:16","新北市蘆洲區民權路84號","121.474553333333","25.0877116666667","6501400","蘆洲區"
"247008","056-VK","2018/06/25 17:19:37","新北市蘆洲區信義路34巷120號","121.475518333333","25.07667","6501400","蘆洲區"
"247004","053-VK","2018/06/25 17:19:16","新北市蘆洲區永安南路二段286號","121.457645","25.0812833333333","6501400","蘆洲區"
"247016","007-UY","2018/06/25 17:19:29","新北市蘆洲區正和街101號","121.467868333333","25.0804116666667","6501400","蘆洲區"
"247002","002-UY","2018/06/25 17:19:16","新北市蘆洲區永樂街38巷33弄11號","121.457605","25.089475","6501400","蘆洲區"
"247020","001-UY","2018/06/25 17:19:25","新北市蘆洲區民族路446-4號","121.472668333333","25.09208","6501400","蘆洲區"
"228003","097-TW","2018/06/25 17:19:22","新北市貢寮區福隆里東興街100號","121.946161666667","25.01692","6502600","貢寮區"
"228002","663-BX","2018/06/25 17:19:21","新北市貢寮區雙玉里下雙溪街24號","121.92253","25.009855","6502600","貢寮區"
"228001","670-TC","2018/06/25 17:19:22","新北市貢寮區仁理村尖山腳街18-3號","121.925473333333","25.048275","6502600","貢寮區"
"224006","676-BX","2018/06/25 17:19:26","新北市瑞芳區傑魚坑路309號","121.786323333333","25.1046066666667","6501200","瑞芳區"
"224008","285-BY","2018/06/25 17:19:31","新北市瑞芳區柴寮路6號","121.824611666667","25.0826883333333","6501200","瑞芳區"
"224009","273-VK","2018/06/25 17:19:32","新北市瑞芳區汽車路99號","121.842503333333","25.10858","6501200","瑞芳區"
"224005","271-BY","2018/06/25 17:19:34","新北市瑞芳區鼻頭路101號","121.915846666667","25.1234883333333","6501200","瑞芳區"
"227001","642-TC","2018/06/25 17:19:33","新北市雙溪區上林里內平林90號","121.827561666667","25.0274766666667","6502500","雙溪區"
"251004","009-UM","2018/06/25 17:16:05","新北市淡水區中正東路二段88巷15號","121.459066666667","25.1505666666667","6501000","淡水區"
"251005","010-UM","2018/06/25 17:19:17","新北市淡水區鄧公路29巷2號","121.451733333333","25.1698766666667","6501000","淡水區"
"251013","KEA-2871","2018/06/25 17:19:20","新北市淡水區竹圍子12號","121.47672","25.1933283333333","6501000","淡水區"
"251016","179-VK","2018/06/25 17:19:31","新北市淡水區鄒厝崙14號","121.461618333333","25.1904933333333","6501000","淡水區"
"251014","180-VK","2018/06/25 17:19:16","新北市淡水區番子田120號","121.464221666667","25.2288116666667","6501000","淡水區"
"251008","181-VK","2018/06/25 17:19:24","新北市淡水區大同路263號","121.466826666667","25.14208","6501000","淡水區"
"251015","182-VK","2018/06/25 17:19:23","新北市淡水區三空泉16-10號","121.470715","25.1653466666667","6501000","淡水區"
"251010","413-VK","2018/06/25 17:19:23","新北市淡水區中正路二段214號","121.426428333333","25.189975","6501000","淡水區"
"251012","441-VK","2018/06/25 17:19:19","新北市淡水區北新路2號","121.4442","25.1777766666667","6501000","淡水區"
"251006","561-UM","2018/06/25 17:19:26","新北市淡水區重建街204號","121.4412","25.1745266666667","6501000","淡水區"
"251009","575-R6","2018/06/25 17:19:25","新北市淡水區建設街1號","121.439","25.1719466666667","6501000","淡水區"
"251007","577-R6","2018/06/25 17:19:28","新北市淡水區民生路54號","121.461865","25.1379466666667","6501000","淡水區"
"251011","650-BX","2018/06/25 17:19:24","新北市淡水區坪頂路128號","121.464745","25.1614216666667","6501000","淡水區"
"251002","672-BX","2018/06/25 17:19:33","新北市淡水區中正路二段31號","121.419405","25.1816266666667","6501000","淡水區"
"251003","673-BX","2018/06/25 17:19:30","新北市淡水區中正路二段31號","121.419545","25.1816466666667","6501000","淡水區"
"207003","550-UM","2018/06/25 17:19:18","新北市萬里區萬里里瑪鋉路314號","121.688203333333","25.1822183333333","6502800","萬里區"
"252002","178-VK","2018/06/25 17:19:23","新北市三芝區忠孝街1-14號","121.505495","25.2539233333333","6502100","三芝區"
"252001","292-VK","2018/06/25 17:19:31","新北市三芝區長安街119號","121.498043333333","25.2596583333333","6502100","三芝區"
"242034","AAC-296","2018/06/25 16:56:22","新北市新莊區新泰路357巷3弄57號","121.442258333333","25.0395183333333","6500500","新莊區"
"242058","986-R7","2018/06/25 17:19:21","新北市新莊區中正路400號","121.441965","25.0341566666667","6500500","新莊區"
"242053","751-BX","2018/06/25 17:19:37","新北市新莊區環河路636-7號","121.436708333333","25.0108033333333","6500500","新莊區"
"242023","705-TV","2018/06/25 17:19:32","新北市新莊區中華路一段130號","121.452668333333","25.0409666666667","6500500","新莊區"
"242027","615-BX","2018/06/25 17:19:24","新北市新莊區中平路82巷36-1號","121.446266666667","25.0449083333333","6500500","新莊區"
"242025","613-BX","2018/06/25 17:19:16","新北市新莊區中平路82巷36-2號","121.446401666667","25.0448966666667","6500500","新莊區"
"242029","612-BX","2018/06/25 17:19:22","新北市新莊區幸福路914號","121.44248","25.0487616666667","6500500","新莊區"
"242042","566-BX","2018/06/25 17:19:29","新北市新莊區中正路481號","121.441386666667","25.0338066666667","6500500","新莊區"
"242046","497-BY","2018/06/25 17:19:27","新北市新莊區中正路481號","121.4413","25.0337833333333","6500500","新莊區"
"242050","441-UM","2018/06/25 17:19:17","新北市新莊區瓊林南路33-9號","121.435993333333","25.01783","6500500","新莊區"
"242036","415-TV","2018/06/25 17:19:25","新北市新莊區新樹路69-34號","121.438063333333","25.0286083333333","6500500","新莊區"
"242044","400-BY","2018/06/25 17:19:31","新北市新莊區後港一路141號","121.43035","25.02755","6500500","新莊區"
"242060","353-BY","2018/06/25 17:19:35","新北市新莊區新泰路357巷3弄49號","121.441933333333","25.0401166666667","6500500","新莊區"
"242009","132-UY","2018/06/25 17:19:24","新北市新莊區中和街108巷1號","121.447571666667","25.0469033333333","6500500","新莊區"
"242039","133-UY","2018/06/25 17:19:25","新北市新莊區民安路342號","121.42933","25.02232","6500500","新莊區"
"242056","175-VK","2018/06/25 17:19:38","新北市新莊區中正路473-1號","121.442013333333","25.033045","6500500","新莊區"
"242004","176-VK","2018/06/25 17:19:24","新北市新莊區中環路二段392-1號","121.442431666667","25.0456083333333","6500500","新莊區"
"242015","346-TH","2018/06/25 17:19:31","新北市新莊區新泰路284巷7號","121.446208333333","25.0406666666667","6500500","新莊區"
"242017","347-TH","2018/06/25 17:19:24","新北市新莊區新泰路482號","121.4425","25.0456083333333","6500500","新莊區"
"242021","348-TH","2018/06/25 17:19:24","新北市新莊區中港路290號","121.45292","25.0445983333333","6500500","新莊區"
"242002","349-TH","2018/06/25 17:19:19","新北市新莊區新泰路357巷3弄33號","121.441905","25.04051","6500500","新莊區"
"242013","351-TH","2018/06/25 17:19:23","新北市新莊區三和路12-9號","121.442243333333","25.0366916666667","6500500","新莊區"
"238019","599-UM","2018/06/25 17:19:13","新北市樹林區八德街630號","121.397321666667","24.9692166666667","6500700","樹林區"
"238018","571-TV","2018/06/25 17:19:25","新北市樹林區鎮前街269巷7號","121.420296666667","24.9855416666667","6500700","樹林區"
"238024","5061-A6","2018/06/25 17:19:34","新北市樹林區保安街一段48巷24號","121.426438333333","24.9951633333333","6500700","樹林區"
"238022","KEA-2213","2018/06/25 17:19:28","新北市樹林區忠孝街21號","121.42345","24.98249","6500700","樹林區"
"238021","KEA-2539","2018/06/25 17:19:18","新北市樹林區西圳街一段136號","121.397081666667","24.9633366666667","6500700","樹林區"
"238025","303-VK","2018/06/25 17:19:21","新北市樹林區保安二街106號","121.422653333333","24.9956633333333","6500700","樹林區"
"238004","283-BY","2018/06/25 17:19:33","新北市樹林區中正路250號","121.41775","25.00732","6500700","樹林區"
"238014","282-BY","2018/06/25 17:19:37","新北市樹林區長壽街70巷19-1號","121.421856666667","24.9947233333333","6500700","樹林區"
"238020","268-VK","2018/06/25 17:19:22","新北市樹林區東和街8號","121.404983333333","24.9800533333333","6500700","樹林區"
"238026","172-UY","2018/06/25 17:19:34","新北市樹林區東大街146號","121.409941666667","24.9759983333333","6500700","樹林區"
"239007","AAC-297","2018/06/25 17:19:37","新北市鶯歌區行政路14號","121.351273333333","24.9555033333333","6500800","鶯歌區"
"239006","891-R6","2018/06/25 17:19:17","新北市鶯歌區福昌街32號","121.332638333333","24.961135","6500800","鶯歌區"
"239008","527-UM","2018/06/25 17:19:28","新北市鶯歌區西湖街曾厝巷29號","121.3394","24.9615766666667","6500800","鶯歌區"
"239005","526-UM","2018/06/25 17:19:36","新北市鶯歌區福德三街21號","121.329541666667","24.96726","6500800","鶯歌區"
"239001","417-VK","2018/06/25 17:19:35","新北市鶯歌區尖山路173巷1號","121.344966666667","24.9475916666667","6500800","鶯歌區"
"239003","360-BY","2018/06/25 17:19:25","新北市鶯歌區德昌街50號","121.333206666667","24.9598533333333","6500800","鶯歌區"
"239002","359-BY","2018/06/25 17:19:30","新北市鶯歌區建國路151號","121.35056","24.9536116666667","6500800","鶯歌區"
"239004","193-VK","2018/06/25 17:19:26","新北市鶯歌區文化路300號","121.352386666667","24.946755","6500800","鶯歌區"
"242007","281-VK","2018/06/25 17:19:25","新北市新莊區中華路二段2號","121.453101666667","25.0444783333333","6500500","新莊區"
"242019","280-VK","2018/06/25 17:19:36","新北市新莊區新泰路500號","121.442453333333","25.04594","6500500","新莊區"
