"lineid","car","time","location","longitude","latitude","cityid","cityname"
"234042","862-TW","2018/06/25 17:59:05","新北市永和區福和路1號","121.52625","25.0094666666667","6500400","永和區"
"234026","9371-KE","2018/06/25 18:09:20","新北市永和區秀朗路一段10巷21號","121.513313333333","25.0063216666667","6500400","永和區"
"234011","9373-KE","2018/06/25 17:51:54","新北市永和區福和路1號","121.525613333333","25.0093483333333","6500400","永和區"
"249005","172-UM","2018/06/25 18:09:28","新北市八里區荖阡坑路15號","121.40161","25.139575","6502300","八里區"
"249001","173-UM","2018/06/25 18:09:31","新北市八里區龍米路二段30號","121.448651666667","25.14008","6502300","八里區"
"249004","303-UY","2018/06/25 18:09:25","新北市八里區龍米路二段150號","121.4359","25.1568116666667","6502300","八里區"
"249002","305-UY","2018/06/25 18:09:28","新北市八里區龍米路一段356巷46號","121.452158333333","25.1303016666667","6502300","八里區"
"249003","593-UM","2018/06/25 18:09:26","新北市八里區中華路二段165巷19弄8號","121.409331666667","25.15116","6502300","八里區"
"248014","025-BX","2018/06/25 18:09:28","新北市五股區成泰路二段38號","121.437215","25.0814816666667","6501500","五股區"
"248016","026-BX","2018/06/25 18:09:27","新北市五股區成泰路三段152號","121.444825","25.0913083333333","6501500","五股區"
"248006","077-UY","2018/06/25 18:09:23","新北市五股區中興路二段89號","121.460586666667","25.077335","6501500","五股區"
"248008","095-VK","2018/06/25 18:09:21","新北市五股區中興路二段182巷15弄16號","121.457961666667","25.0805883333333","6501500","五股區"
"248018","225-UY","2018/06/25 18:09:31","新北市五股區成泰路三段71號","121.443488333333","25.0896933333333","6501500","五股區"
"248012","247-BX","2018/06/25 18:09:27","新北市五股區成泰路三段83號","121.444275","25.0898816666667","6501500","五股區"
"248004","677-BX","2018/06/25 18:09:26","新北市五股區成泰路二段126號","121.43802","25.083495","6501500","五股區"
"248002","678-BX","2018/06/25 18:09:20","新北市五股區成泰路三段101-1號","121.44419","25.090025","6501500","五股區"
"248010","682-TV","2018/06/25 18:09:18","新北市五股區成泰路一段210號","121.436051666667","25.0790866666667","6501500","五股區"
"232011","375-UM","2018/06/25 18:09:29","新北市坪林區水柳腳38號","121.709701666667","24.9353133333333","6502000","坪林區"
"244007","080-UY","2018/06/25 18:09:29","新北市林口區林口路124巷10弄1號","121.389053333333","25.0817716666667","6501700","林口區"
"244019","403-UM","2018/06/25 18:09:27","新北市林口區文化一路一段111號","121.373036666667","25.0710583333333","6501700","林口區"
"244013","742-UY","2018/06/25 18:09:24","新北市林口區中山路138號","121.391771666667","25.078735","6501700","林口區"
"244009","410-SL","2018/06/25 18:09:26","新北市林口區文化二路二段126號","121.379995","25.0829116666667","6501700","林口區"
"244023","483-VK","2018/06/25 18:09:27","新北市林口區東湖路153巷121號","121.382381666667","25.0728316666667","6501700","林口區"
"244017","485-VK","2018/06/25 18:09:26","新北市林口區文化一路一段57-2號","121.371","25.0698633333333","6501700","林口區"
"244011","701-TV","2018/06/25 18:09:35","新北市林口區中山路11號","121.396353333333","25.07816","6501700","林口區"
"244025","837-TS","2018/06/25 18:09:26","新北市林口區文化北路一段301-1號","121.360375","25.0727416666667","6501700","林口區"
"244021","838-TS","2018/06/25 18:09:21","新北市林口區自強七街23號","121.399588333333","25.0760216666667","6501700","林口區"
"243013","AAD-798","2018/06/25 18:08:33","新北市泰山區犁頭窠18號","121.421538333333","25.0504466666667","6501600","泰山區"
"243014","680-BX","2018/06/25 17:54:46","新北市泰山區黎明路25號","121.421878333333","25.0606333333333","6501600","泰山區"
"222003","436-BY","2018/06/25 18:09:34","新北市深坑區阿柔洋47號","121.612268333333","24.9976116666667","6501800","深坑區"
"222002","659-BX","2018/06/25 18:09:33","新北市深坑區文化街52號","121.618938333333","25.0016616666667","6501800","深坑區"
"231041","002-UM","2018/06/25 18:09:26","新北市新店區安華路28-1號","121.519981666667","24.9607516666667","6500600","新店區"
"231059","046-UY","2018/06/25 18:09:36","新北市新店區安華路28-1號","121.519615","24.96086","6500600","新店區"
"231044","106-UY","2018/06/25 18:09:37","新北市新店區安華路28-1號","121.519663333333","24.96066","6500600","新店區"
"231047","187-VK","2018/06/25 18:09:23","新北市新店區安一路一段1-1號","121.519576666667","24.9611483333333","6500600","新店區"
"231046","188-VK","2018/06/25 18:09:34","新北市新店區直潭七街60號","121.53226","24.9399066666667","6500600","新店區"
"231042","268-BY","2018/06/25 18:09:34","新北市新店區安華路1-1號","121.519303333333","24.96055","6500600","新店區"
"231051","278-BY","2018/06/25 18:09:35","新北市新店區安華路28-1號","121.519861666667","24.9609833333333","6500600","新店區"
"231050","AAD-862","2018/06/25 18:09:30","新北市新店區安華路28-1號","121.519946666667","24.9610666666667","6500600","新店區"
"231056","4715-K9","2018/06/25 18:09:23","新北市新店區安康路一段355號","121.519803333333","24.9629083333333","6500600","新店區"
"231065","512-UM","2018/06/25 18:09:29","新北市新店區安一路一段1-1號","121.519163333333","24.9612333333333","6500600","新店區"
"231049","513-UM","2018/06/25 18:09:24","新北市新店區安一路一段1-1號","121.519745","24.96109","6500600","新店區"
"231061","619-UM","2018/06/25 18:09:20","新北市新店區安華路1-1號","121.519395","24.9602733333333","6500600","新店區"
"231063","641-BX","2018/06/25 18:09:31","新北市新店區安華路1-1號","121.519591666667","24.960505","6500600","新店區"
"231060","897-TW","2018/06/25 18:09:30","新北市新店區安華路1-1號","121.519473333333","24.96042","6500600","新店區"
"231045","898-TW","2018/06/25 18:09:33","新北市新店區安華路28-1號","121.519348333333","24.9609333333333","6500600","新店區"
"231055","AKT-0513","2018/06/25 18:09:31","新北市新店區安華路1-1號","121.519268333333","24.9603983333333","6500600","新店區"
"241024","743-BX","2018/06/25 18:09:31","新北市三重區中正北路193巷35弄17號","121.476871666667","25.070925","6500200","三重區"
"241033","AAC-255","2018/06/25 18:09:26","新北市三重區中興北街131號","121.469476666667","25.05004","6500200","三重區"
"235030","003-UY","2018/06/25 18:09:35","新北市中和區圓通路72號","121.5002","24.9972616666667","6500300","中和區"
"235064","005-UY","2018/06/25 18:09:22","新北市中和區中正路277號","121.495388333333","24.99369","6500300","中和區"
"235063","006-UY","2018/06/25 18:09:22","新北市中和區員山路36巷16-3號","121.484935","24.9912066666667","6500300","中和區"
"235039","097-UM","2018/06/25 18:09:26","新北市中和區錦和路350-1號","121.490383333333","24.9935566666667","6500300","中和區"
"235065","098-UM","2018/06/25 18:09:35","新北市中和區莊敬路49巷18號","121.501693333333","25.0062216666667","6500300","中和區"
"235058","151-BY","2018/06/25 18:09:26","新北市中和區圓通路367巷33弄15號","121.495275","24.98507","6500300","中和區"
"235038","185-VK","2018/06/25 18:09:20","新北市中和區景德街88號","121.516096666667","24.9918566666667","6500300","中和區"
"235043","352-BY","2018/06/25 18:09:23","新北市中和區錦和路350-1號","121.490061666667","24.9935533333333","6500300","中和區"
"235042","KEA-2878","2018/06/25 18:09:22","新北市中和區景平路261號","121.508416666667","24.9929016666667","6500300","中和區"
"235070","558-UM","2018/06/25 18:09:22","新北市中和區中正路305號","121.49232","24.9938433333333","6500300","中和區"
"235045","565-BX","2018/06/25 18:09:26","新北市中和區錦和路350-1號","121.490486666667","24.9935516666667","6500300","中和區"
"235054","640-BX","2018/06/25 18:09:35","新北市土城區延壽路118-6號","121.469088333333","24.9945216666667","6500300","中和區"
"235060","647-TV","2018/06/25 18:09:37","新北市中和區和城路一段271巷1號","121.485461666667","24.99217","6500300","中和區"
"235047","732-UM","2018/06/25 18:09:31","新北市中和區中正路173號","121.49775","24.99353","6500300","中和區"
"235046","733-UM","2018/06/25 18:09:32","新北市中和區員山路36巷13號","121.484115","24.990955","6500300","中和區"
"235062","800-TS","2018/06/25 18:09:23","新北市中和區中山路二段494號","121.486925","25.0050633333333","6500300","中和區"
"235057","801-TS","2018/06/25 18:09:35","新北市中和區中正路637巷52弄3號","121.48529","24.9937083333333","6500300","中和區"
"235052","805-TS","2018/06/25 18:09:27","新北市中和區中正路273號","121.495565","24.9938216666667","6500300","中和區"
"235048","896-TW","2018/06/25 18:09:32","新北市中和區員山路36巷13號","121.484051666667","24.990965","6500300","中和區"
"235051","157-BY","2018/06/25 18:09:23","新北市中和區南山路277號","121.504058333333","24.9923016666667","6500300","中和區"
"235037","AAC-213","2018/06/25 18:09:32","新北市中和區景平路155號","121.513605","24.99222","6500300","中和區"
"235059","AAC-215","2018/06/25 18:09:23","新北市中和區員山路36巷16-3號","121.484938333333","24.9913166666667","6500300","中和區"
"226004","312-R5","2018/06/25 18:09:26","新北市平溪區薯榔里薯榔寮26號","121.71471","25.0195966666667","6502400","平溪區"
"228003","097-TW","2018/06/25 18:09:22","新北市貢寮區真理里美艷山街6-2號","121.92886","25.0607116666667","6502600","貢寮區"
"228002","663-BX","2018/06/25 18:09:21","新北市貢寮區福連里馬崗街1號","121.998265","25.0152216666667","6502600","貢寮區"
"228001","670-TC","2018/06/25 18:09:22","新北市貢寮區真理里新港街26巷55弄2-1號","121.92736","25.0528833333333","6502600","貢寮區"
"224010","AGQ-8101","2018/06/25 18:01:29","新北市瑞芳區金光路334號","121.84812","25.10941","6501200","瑞芳區"
"224006","676-BX","2018/06/25 18:09:26","新北市瑞芳區中山路201號","121.80141","25.1066366666667","6501200","瑞芳區"
"224002","639-TC","2018/06/25 18:09:19","新北市瑞芳區三爪子坑路48號","121.810618333333","25.1057616666667","6501200","瑞芳區"
"224008","285-BY","2018/06/25 18:09:31","新北市瑞芳區明燈路一段201巷97-1號","121.818763333333","25.10663","6501200","瑞芳區"
"224009","273-VK","2018/06/25 18:09:24","新北市瑞芳區金光路115號","121.853638333333","25.106265","6501200","瑞芳區"
"224005","271-BY","2018/06/25 18:09:34","新北市瑞芳區深澳路189-1號","121.820823333333","25.1339083333333","6501200","瑞芳區"
"227001","642-TC","2018/06/25 18:09:33","新北市雙溪區共和里東榮街52號","121.86636","25.0336966666667","6502500","雙溪區"
"253005","032-BX","2018/06/25 18:09:18","新北市石門區福安街5號","121.568448333333","25.29287","6502200","石門區"
"253006","295-VK","2018/06/25 18:09:32","新北市石門區老梅路52巷25弄1號","121.546518333333","25.2879","6502200","石門區"
"222001","KEA-2212","2018/06/25 18:09:24","新北市深坑區北深路二段222號","121.612291666667","25.001425","6501800","深坑區"
"208002","KEA-2872","2018/06/25 18:09:23","新北市金山區三界壇路99巷23號","121.618903333333","25.22741","6502700","金山區"
"208003","665-BX","2018/06/25 18:09:21","新北市金山區磺港里磺港路33號","121.649066666667","25.2291516666667","6502700","金山區"
"208001","761-BX","2018/06/25 18:09:19","新北市金山區磺港里磺港路77號","121.647521666667","25.22659","6502700","金山區"
"251004","009-UM","2018/06/25 18:09:18","新北市淡水區民族路110巷41號","121.461671666667","25.135175","6501000","淡水區"
"251005","010-UM","2018/06/25 18:09:37","新北市淡水區水源街一段139號","121.447173333333","25.171875","6501000","淡水區"
"251001","011-UM","2018/06/25 18:09:20","新北市淡水區自立路10號","121.462993333333","25.1296666666667","6501000","淡水區"
"251013","KEA-2871","2018/06/25 18:09:20","新北市淡水區竹圍子9-1號","121.476903333333","25.1922233333333","6501000","淡水區"
"251016","179-VK","2018/06/25 18:09:31","新北市淡水區下圭柔山18-1號","121.45376","25.2027033333333","6501000","淡水區"
"251014","180-VK","2018/06/25 18:09:37","新北市淡水區南平15號","121.488113333333","25.2194016666667","6501000","淡水區"
"251008","181-VK","2018/06/25 18:09:23","新北市淡水區坪頂路70巷41號","121.46069","25.160445","6501000","淡水區"
"251015","182-VK","2018/06/25 18:09:23","新北市淡水區興福寮66巷267號","121.486731666667","25.1621666666667","6501000","淡水區"
"251010","413-VK","2018/06/25 18:09:23","新北市淡水區沙崙路97號","121.422205","25.18244","6501000","淡水區"
"251012","441-VK","2018/06/25 18:09:19","新北市淡水區北新路三段174號","121.492775","25.192705","6501000","淡水區"
"251006","561-UM","2018/06/25 18:09:21","新北市淡水區真理街3巷21-1號","121.43769","25.1762966666667","6501000","淡水區"
"251009","575-R6","2018/06/25 18:09:25","新北市淡水區大忠街34巷10號","121.443518333333","25.1754716666667","6501000","淡水區"
"251011","650-BX","2018/06/25 18:09:24","新北市淡水區三空泉9-2號","121.474108333333","25.16348","6501000","淡水區"
"251002","672-BX","2018/06/25 18:09:33","新北市淡水區中正東路一段127巷2號","121.455568333333","25.159295","6501000","淡水區"
"251003","673-BX","2018/06/25 18:09:30","新北市淡水區大忠街113巷24號","121.447453333333","25.177395","6501000","淡水區"
"207003","550-UM","2018/06/25 18:09:38","新北市萬里區野柳里港西路72號","121.685578333333","25.204885","6502800","萬里區"
"207004","225-TW","2018/06/25 18:09:21","新北市萬里區中幅里中福路111號","121.676436666667","25.168445","6502800","萬里區"
"252003","249-BX","2018/06/25 18:09:21","新北市三芝區埔頭里埔頭39-3號","121.499506666667","25.26106","6502100","三芝區"
"252001","292-VK","2018/06/25 18:09:31","新北市三芝區中興街二段2號","121.498511666667","25.25669","6502100","三芝區"
"237004","KEA-2597","2018/06/25 18:09:29","新北市三峽區大埔路150-2號","121.364798333333","24.898295","6500900","三峽區"
"237007","153-BY","2018/06/25 18:09:25","新北市三峽區中正路二段346號","121.365786666667","24.9102216666667","6500900","三峽區"
"237009","210-TH","2018/06/25 18:09:37","新北市三峽區大仁路50巷16號","121.365338333333","24.9380683333333","6500900","三峽區"
"237013","252-BX","2018/06/25 18:09:29","新北市三峽區長泰街12號","121.378891666667","24.9313633333333","6500900","三峽區"
"237012","275-BY","2018/06/25 18:09:27","新北市三峽區民生街1巷1-40號","121.377198333333","24.9357283333333","6500900","三峽區"
"237008","302-VK","2018/06/25 18:09:34","新北市三峽區白雞44-49號","121.377908333333","24.9102216666667","6500900","三峽區"
"237014","433-BY","2018/06/25 18:09:26","新北市三峽區和平街99號","121.37029","24.9379116666667","6500900","三峽區"
"237006","5529-G3","2018/06/25 18:09:34","新北市三峽區溪東路34巷13號","121.400388333333","24.9343233333333","6500900","三峽區"
"237011","KEA-2596","2018/06/25 18:09:21","新北市三峽區中正路一段27號","121.376025","24.9307916666667","6500900","三峽區"
"237015","649-BX","2018/06/25 18:09:15","新北市三峽區紫新路32巷1號","121.422311666667","24.9219666666667","6500900","三峽區"
"237010","706-TV","2018/06/25 18:09:17","新北市三峽區民權街200號","121.367691666667","24.92922","6500900","三峽區"
"237005","AKY-6261","2018/06/25 18:09:32","新北市三峽區文化路65巷7號","121.3719","24.9356916666667","6500900","三峽區"
"236069","105-UM","2018/06/25 18:09:23","新北市土城區明德路一段193號","121.46379","24.97896","6501300","土城區"
"236042","107-UM","2018/06/25 18:09:27","新北市土城區中華路二段2號","121.439483333333","24.979565","6501300","土城區"
"236078","166-UM","2018/06/25 18:09:27","新北市土城區永安街20-1號","121.433808333333","24.9648983333333","6501300","土城區"
"236030","253-BX","2018/06/25 18:09:37","新北市土城區城林路6巷80號","121.438483333333","24.97964","6501300","土城區"
"236026","269-VK","2018/06/25 18:09:33","新北市土城區承天路18號","121.439528333333","24.96342","6501300","土城區"
"236014","270-VK","2018/06/25 18:09:34","新北市土城區學府路二段100號","121.447781666667","24.9799333333333","6501300","土城區"
"236039","271-VK","2018/06/25 18:09:23","新北市土城區中正路75號","121.444911666667","24.97566","6501300","土城區"
"236020","401-BY","2018/06/25 18:09:26","新北市土城區水源街63號","121.440056666667","24.9761983333333","6501300","土城區"
"236063","752-BX","2018/06/25 18:09:06","新北市土城區裕民路280號","121.455288333333","24.9820883333333","6501300","土城區"
"236059","912-UM","2018/06/25 18:09:24","新北市土城區中央路四段118號","121.417965","24.9589866666667","6501300","土城區"
"236048","913-UM","2018/06/25 18:09:29","新北市土城區中正路75號","121.445023333333","24.9756633333333","6501300","土城區"
"236055","AAC-216","2018/06/25 18:09:32","新北市土城區城林路6巷80號","121.438445","24.979755","6501300","土城區"
"242034","AAC-296","2018/06/25 18:09:28","新北市新莊區福海街24巷14號","121.446021666667","25.0341516666667","6500500","新莊區"
"242058","986-R7","2018/06/25 18:09:27","新北市新莊區壽山路49-6號","121.414253333333","25.0308166666667","6500500","新莊區"
"242053","751-BX","2018/06/25 18:09:37","新北市新莊區民安西路325號","121.427646666667","25.0110483333333","6500500","新莊區"
"242027","615-BX","2018/06/25 18:09:24","新北市新莊區幸福路515號","121.455598333333","25.0492966666667","6500500","新莊區"
"242025","613-BX","2018/06/25 18:09:16","新北市新莊區五權一路98號","121.45953","25.0675833333333","6500500","新莊區"
"242029","612-BX","2018/06/25 18:09:22","新北市新莊區中平路140號","121.444858333333","25.0469183333333","6500500","新莊區"
"242042","566-BX","2018/06/25 18:09:29","新北市新莊區天祥街50號","121.416615","25.0289633333333","6500500","新莊區"
"242046","497-BY","2018/06/25 18:09:40","新北市新莊區福營路230號","121.426915","25.0291383333333","6500500","新莊區"
"242050","441-UM","2018/06/25 18:09:27","新北市新莊區民本街11巷2弄29號","121.42915","25.02002","6500500","新莊區"
"242036","415-TV","2018/06/25 18:09:25","新北市新莊區後港一路49巷3弄1號","121.425791666667","25.0268033333333","6500500","新莊區"
"242044","400-BY","2018/06/25 18:09:31","新北市新莊區中正路726-29號","121.415075","25.0244216666667","6500500","新莊區"
"242060","353-BY","2018/06/25 18:09:35","新北市新莊區新樹路207-7號","121.43587","25.0239083333333","6500500","新莊區"
"242009","132-UY","2018/06/25 18:09:24","新北市新莊區昌平街69號","121.454555","25.05365","6500500","新莊區"
"242039","133-UY","2018/06/25 18:09:25","新北市新莊區民安西路38巷33號","121.426463333333","25.02037","6500500","新莊區"
"242031","135-UY","2018/06/25 18:09:39","新北市新莊區新泰路255巷17號","121.445403333333","25.03969","6500500","新莊區"
"242048","172-VK","2018/06/25 18:09:34","新北市新莊區富國路158號","121.423351666667","25.02491","6500500","新莊區"
"242011","173-VK","2018/06/25 18:09:25","新北市新莊區中榮街56巷10號","121.449183333333","25.053565","6500500","新莊區"
"242056","175-VK","2018/06/25 18:09:18","新北市新莊區豐年街豐1巷22號","121.447375","25.0312033333333","6500500","新莊區"
"242015","346-TH","2018/06/25 18:09:31","新北市新莊區中平路152巷36號","121.44619","25.0472983333333","6500500","新莊區"
"242017","347-TH","2018/06/25 18:09:24","新北市新莊區中港路303號","121.452808333333","25.044635","6500500","新莊區"
"242021","348-TH","2018/06/25 18:09:24","新北市新莊區建興街85號","121.449911666667","25.0387616666667","6500500","新莊區"
"242002","349-TH","2018/06/25 18:09:39","新北市新莊區新莊路2號","121.459165","25.038005","6500500","新莊區"
"238015","755-BX","2018/06/25 18:09:19","新北市樹林區文德街1巷2號","121.419258333333","24.9913566666667","6500700","樹林區"
"238023","601-UM","2018/06/25 18:09:36","新北市樹林區三福街67巷6號","121.4077","25.0158566666667","6500700","樹林區"
"238019","599-UM","2018/06/25 18:09:34","新北市樹林區信義街84號","121.425201666667","24.9827633333333","6500700","樹林區"
"238018","571-TV","2018/06/25 18:09:24","新北市樹林區博愛街121號","121.426181666667","24.9907883333333","6500700","樹林區"
"238022","KEA-2213","2018/06/25 18:09:28","新北市樹林區太平路174巷14號","121.417916666667","24.9768066666667","6500700","樹林區"
"238021","KEA-2539","2018/06/25 18:09:38","新北市樹林區柑園街二段9號","121.388148333333","24.955755","6500700","樹林區"
"238025","303-VK","2018/06/25 18:09:21","新北市樹林區保安街一段323-1號","121.417638333333","24.9981783333333","6500700","樹林區"
"238004","283-BY","2018/06/25 18:09:32","新北市樹林區保安街二段333巷2號","121.41243","25.007645","6500700","樹林區"
"238014","282-BY","2018/06/25 18:09:37","新北市樹林區千歲街61巷40弄12號","121.426008333333","24.9990216666667","6500700","樹林區"
"238020","268-VK","2018/06/25 18:09:22","新北市樹林區三俊街201號","121.420121666667","25.01574","6500700","樹林區"
"238026","172-UY","2018/06/25 18:09:34","新北市樹林區育德街87號","121.390673333333","24.9699933333333","6500700","樹林區"
"238016","169-UY","2018/06/25 18:09:27","新北市樹林區文化街26號","121.419411666667","24.9876483333333","6500700","樹林區"
"239007","AAC-297","2018/06/25 18:09:16","新北市鶯歌區尖山埔路173號","121.345798333333","24.950725","6500800","鶯歌區"
"239006","891-R6","2018/06/25 18:09:17","新北市鶯歌區鶯桃路365巷30號","121.332485","24.9626066666667","6500800","鶯歌區"
"239008","527-UM","2018/06/25 18:08:47","新北市鶯歌區朝陽街61巷3號","121.338465","24.9783566666667","6500800","鶯歌區"
"239005","526-UM","2018/06/25 18:09:36","新北市鶯歌區鶯桃路668巷73號","121.329826666667","24.971765","6500800","鶯歌區"
"239001","417-VK","2018/06/25 18:09:35","新北市鶯歌區尖山路卓厝巷7號","121.34183","24.9452433333333","6500800","鶯歌區"
"239003","360-BY","2018/06/25 18:09:25","新北市鶯歌區福安街32巷26號","121.335133333333","24.963665","6500800","鶯歌區"
"239002","359-BY","2018/06/25 18:09:30","新北市鶯歌區中山路249巷10號","121.346808333333","24.9565233333333","6500800","鶯歌區"
"221008","489-VK","2018/06/25 18:09:22","新北市汐止區康寧街315號","121.627011666667","25.0679933333333","6501100","汐止區"
"221036","130-UY","2018/06/25 18:09:29","新北市汐止區大同路三段93號","121.66803","25.0773233333333","6501100","汐止區"
"221015","131-UY","2018/06/25 18:09:23","新北市汐止區鄉長路二段25-1號","121.668305","25.0827066666667","6501100","汐止區"
"221010","269-BY","2018/06/25 18:09:28","新北市汐止區汐萬路二段273號","121.645871666667","25.0889133333333","6501100","汐止區"
"221012","278-VK","2018/06/25 18:09:29","新北市汐止區保一街67號","121.674228333333","25.0799066666667","6501100","汐止區"
"221023","279-VK","2018/06/25 18:09:32","新北市汐止區民族五街76號","121.627745","25.070205","6501100","汐止區"
"221032","280-BY","2018/06/25 18:09:29","新北市汐止區橫科路6號","121.617506666667","25.051325","6501100","汐止區"
"221027","281-BY","2018/06/25 18:09:37","新北市汐止區大同路二段527號","121.6618","25.0689366666667","6501100","汐止區"
"221029","298-VK","2018/06/25 18:09:35","新北市汐止區樟樹二路270號","121.640981666667","25.06799","6501100","汐止區"
"221021","299-VK","2018/06/25 18:09:27","新北市汐止區龍安路202巷28號","121.652606666667","25.063425","6501100","汐止區"
"221031","353-TW","2018/06/25 18:09:32","新北市汐止區中興路143號","121.631461666667","25.0656916666667","6501100","汐止區"
"221035","622-UM","2018/06/25 18:09:28","新北市汐止區大同路二段204號","121.65326","25.0650116666667","6501100","汐止區"
"221025","623-UM","2018/06/25 18:09:30","新北市汐止區秀峰路143號","121.660418333333","25.062195","6501100","汐止區"
"221038","646-BX","2018/06/25 18:09:28","新北市汐止區水源路一段233號","121.654333333333","25.0605133333333","6501100","汐止區"
"221033","647-BX","2018/06/25 18:09:29","新北市汐止區宜興街10巷19號","121.622001666667","25.040835","6501100","汐止區"
"221002","707-TV","2018/06/25 18:09:38","新北市汐止區福德一路201巷32號","121.635898333333","25.064845","6501100","汐止區"
"221018","753-BX","2018/06/25 18:09:33","新北市汐止區忠孝東路384號","121.665531666667","25.0701316666667","6501100","汐止區"
"242007","281-VK","2018/06/25 18:09:25","新北市新莊區自強街37巷9號","121.454095","25.04654","6500500","新莊區"
"242019","280-VK","2018/06/25 18:09:36","新北市新莊區中港路132巷12號","121.45586","25.0406316666667","6500500","新莊區"
"235061","KEA-2875","2018/06/25 18:09:10","新北市中和區連城路583巷15號","121.479096666667","24.99338","6500300","中和區"
