"lineid","car","time","location","longitude","latitude","cityid","cityname"
"234046","148-BY","2018/06/25 18:49:31","新北市永和區秀朗路二段128號","121.524868333333","25.0014966666667","6500400","永和區"
"234007","207-UY","2018/06/25 18:49:19","新北市永和區文化路170號","121.511913333333","25.015585","6500400","永和區"
"234081","298-R6","2018/06/25 18:49:23","新北市永和區永利路83-1號","121.52135","25.0033466666667","6500400","永和區"
"234038","336-UY","2018/06/25 18:49:28","新北市永和區成功路一段131號","121.526833333333","25.0017583333333","6500400","永和區"
"234064","337-UY","2018/06/25 18:49:35","新北市永和區福和路1號","121.52536","25.0096583333333","6500400","永和區"
"234086","338-UY","2018/06/25 18:49:27","新北市中和區宜安路7號","121.513458333333","24.9953983333333","6500400","永和區"
"234070","552-UM","2018/06/25 18:49:20","新北市永和區中興街100號","121.519093333333","25.01206","6500400","永和區"
"234017","745-BX","2018/06/25 18:49:31","新北市永和區永和路二段405巷3號","121.515345","25.0171416666667","6500400","永和區"
"234030","746-BX","2018/06/25 18:49:31","新北市永和區得和路321號","121.523418333333","24.9996766666667","6500400","永和區"
"234054","KEA-2590","2018/06/25 18:49:23","新北市永和區環河東路一段122號","121.520495","25.015485","6500400","永和區"
"234013","KEA-2591","2018/06/25 18:49:22","新北市永和區保福路二段133巷1號","121.50947","25.0137616666667","6500400","永和區"
"234061","AAD-866","2018/06/25 18:49:37","新北市永和區福和路309巷1號","121.51629","25.007025","6500400","永和區"
"234042","862-TW","2018/06/25 18:49:29","新北市永和區永貞路267號","121.511848333333","25.0047583333333","6500400","永和區"
"234050","863-TW","2018/06/25 18:49:36","新北市永和區竹林路91巷70號","121.522081666667","25.0136483333333","6500400","永和區"
"234026","9371-KE","2018/06/25 18:49:40","新北市永和區自由街58號","121.513826666667","25.0060083333333","6500400","永和區"
"234011","9373-KE","2018/06/25 18:49:37","新北市永和區文化路124號","121.513086666667","25.0153883333333","6500400","永和區"
"249005","172-UM","2018/06/25 18:49:28","新北市八里區長道坑16-1號","121.39529","25.1170066666667","6502300","八里區"
"249001","173-UM","2018/06/25 18:49:31","新北市八里區龍米路二段30號","121.448585","25.1399","6502300","八里區"
"249004","303-UY","2018/06/25 18:49:25","新北市八里區中山路一段150巷80號","121.416063333333","25.1602583333333","6502300","八里區"
"248016","026-BX","2018/06/25 18:49:27","新北市五股區凌雲路一段149巷42號","121.448591666667","25.1008966666667","6501500","五股區"
"248006","077-UY","2018/06/25 18:49:22","新北市五股區中興路二段83巷26-6號","121.459636666667","25.0752466666667","6501500","五股區"
"248008","095-VK","2018/06/25 18:49:21","新北市五股區中興路一段151巷21號","121.465201666667","25.072455","6501500","五股區"
"248018","225-UY","2018/06/25 18:49:31","新北市五股區民義路二段48巷5-2號","121.415198333333","25.10204","6501500","五股區"
"248012","247-BX","2018/06/25 18:49:27","新北市五股區成泰路二段222-2號","121.439088333333","25.0854433333333","6501500","五股區"
"248004","677-BX","2018/06/25 18:49:26","新北市五股區民義路二段73號","121.409031666667","25.1056166666667","6501500","五股區"
"248002","678-BX","2018/06/25 18:49:40","新北市五股區成泰路三段454號","121.451426666667","25.1003633333333","6501500","五股區"
"248010","682-TV","2018/06/25 18:49:38","新北市五股區水碓七路81號","121.429725","25.0722183333333","6501500","五股區"
"234023","9380-KE","2018/06/25 18:49:40","新北市永和區竹林路119巷26號","121.521181666667","25.0117916666667","6500400","永和區"
"234077","969-R7","2018/06/25 18:49:34","新北市永和區中正路2巷29弄2-2號","121.513955","24.99383","6500400","永和區"
"234067","AAC-212","2018/06/25 18:49:37","新北市永和區中和路625號","121.512925","25.0049216666667","6500400","永和區"
"234003","AAC-295","2018/06/25 18:49:24","新北市永和區中正路651號","121.515085","25.01008","6500400","永和區"
"232011","375-UM","2018/06/25 18:49:34","新北市坪林區坪碇路87號","121.711401666667","24.93937","6502000","坪林區"
"244007","080-UY","2018/06/25 18:49:29","新北市林口區太平嶺5-10號","121.379143333333","25.1139183333333","6501700","林口區"
"244019","403-UM","2018/06/25 18:49:27","新北市林口區麗園二街39巷18號","121.381308333333","25.0699183333333","6501700","林口區"
"244013","742-UY","2018/06/25 18:49:21","新北市林口區文化一路一段118號","121.374008333333","25.07172","6501700","林口區"
"244009","410-SL","2018/06/25 18:49:26","新北市林口區竹林路446號","121.388308333333","25.0853416666667","6501700","林口區"
"244023","483-VK","2018/06/25 18:49:27","新北市林口區文化三路二段160號","121.376108333333","25.081835","6501700","林口區"
"244017","485-VK","2018/06/25 18:49:26","新北市林口區文化二路一段20巷25弄33號","121.365931666667","25.0675783333333","6501700","林口區"
"244011","701-TV","2018/06/25 18:49:35","新北市林口區仁愛路一段266號","121.394006666667","25.0759233333333","6501700","林口區"
"244025","837-TS","2018/06/25 18:49:26","新北市林口區忠孝一路148號","121.36034","25.0741766666667","6501700","林口區"
"243013","AAD-798","2018/06/25 18:28:51","新北市泰山區明志路三段206巷3號","121.423303333333","25.03793","6501600","泰山區"
"243009","297-R6","2018/06/25 18:49:28","新北市泰山區黎明路23-1號","121.421601666667","25.061125","6501600","泰山區"
"243015","421-VK","2018/06/25 18:49:19","新北市泰山區美寧街57巷36號","121.429231666667","25.0651483333333","6501600","泰山區"
"243016","539-UM","2018/06/25 18:49:25","新北市泰山區泰林路二段222號","121.432643333333","25.0619483333333","6501600","泰山區"
"243011","KEA-2215","2018/06/25 18:49:34","新北市泰山區公園路70號","121.424863333333","25.0563083333333","6501600","泰山區"
"243010","KEA-2216","2018/06/25 18:49:24","新北市泰山區公園路54號","121.428246666667","25.0547416666667","6501600","泰山區"
"243012","646-TV","2018/06/25 18:49:21","新北市泰山區泰林路二段73巷27號","121.434418333333","25.0579016666667","6501600","泰山區"
"243014","680-BX","2018/06/25 18:49:36","新北市泰山區犁頭窠3-1號","121.42213","25.0605216666667","6501600","泰山區"
"222003","436-BY","2018/06/25 18:49:33","新北市深坑區北深路一段355-1號","121.622936666667","25.0052116666667","6501800","深坑區"
"222002","659-BX","2018/06/25 18:49:33","新北市深坑區文山路一段64號","121.623581666667","25.0007516666667","6501800","深坑區"
"231041","002-UM","2018/06/25 18:49:26","新北市新店區安華路28-1號","121.519736666667","24.9607633333333","6500600","新店區"
"231059","046-UY","2018/06/25 18:49:36","新北市新店區安華路28-1號","121.519568333333","24.96081","6500600","新店區"
"231040","047-UY","2018/06/25 18:49:29","新北市新店區環河路116-11號","121.53685","24.9676233333333","6500600","新店區"
"231044","106-UY","2018/06/25 18:49:37","新北市新店區寶中路72號","121.547835","24.98058","6500600","新店區"
"231052","108-UY","2018/06/25 18:49:21","新北市新店區新烏路一段123-1號","121.545136666667","24.9373166666667","6500600","新店區"
"231054","110-UY","2018/06/25 18:49:39","新北市新店區光明街152號","121.539376666667","24.961615","6500600","新店區"
"231047","187-VK","2018/06/25 18:49:23","新北市新店區北新路一段72號","121.541308333333","24.9669233333333","6500600","新店區"
"231046","188-VK","2018/06/25 18:49:34","新北市新店區直潭路41號","121.533748333333","24.9426183333333","6500600","新店區"
"231042","268-BY","2018/06/25 18:49:33","新北市新店區光明街137號","121.539305","24.9620716666667","6500600","新店區"
"231051","278-BY","2018/06/25 18:49:35","新北市新店區中央路27號","121.532975","24.977975","6500600","新店區"
"231050","AAD-862","2018/06/25 18:49:30","新北市新店區安康路一段46巷4號","121.530646666667","24.9610266666667","6500600","新店區"
"231058","3713-VJ","2018/06/25 18:49:33","新北市新店區中興路一段286號","121.545843333333","24.9689816666667","6500600","新店區"
"231066","4716-K9","2018/06/25 18:49:23","新北市新店區安一路一段1-1號","121.519111666667","24.96127","6500600","新店區"
"231056","4715-K9","2018/06/25 18:49:31","新北市新店區二十張路33巷10號","121.538593333333","24.9809133333333","6500600","新店區"
"231067","4772-VM","2018/06/25 18:49:26","新北市新店區安華路3號","121.519136666667","24.9603066666667","6500600","新店區"
"231065","512-UM","2018/06/25 18:49:29","新北市新店區車子路20號","121.505348333333","24.9545766666667","6500600","新店區"
"231049","513-UM","2018/06/25 18:49:24","新北市新店區秀山路68-1號","121.531031666667","24.9609583333333","6500600","新店區"
"231043","618-UM","2018/06/25 18:49:25","新北市新店區安康路一段355-10號","121.52034","24.9638016666667","6500600","新店區"
"231061","619-UM","2018/06/25 18:49:21","新北市新店區安華路28-1號","121.519625","24.9608016666667","6500600","新店區"
"231063","641-BX","2018/06/25 18:49:31","新北市新店區安華路28-1號","121.51954","24.9605216666667","6500600","新店區"
"231064","719-UM","2018/06/25 18:49:30","新北市新店區安一路一段1-1號","121.519511666667","24.961175","6500600","新店區"
"231062","720-UM","2018/06/25 18:49:24","新北市新店區安一路一段1-1號","121.519041666667","24.9612116666667","6500600","新店區"
"231060","897-TW","2018/06/25 18:49:30","新北市新店區安華路28-1號","121.51949","24.9606566666667","6500600","新店區"
"231045","898-TW","2018/06/25 18:49:33","新北市新店區安康路一段105號","121.528981666667","24.961595","6500600","新店區"
"231055","AKT-0513","2018/06/25 18:49:31","新北市新店區北新路一段271巷18號","121.540311666667","24.96711","6500600","新店區"
"235066","003-UY","2018/06/25 18:49:34","新北市中和區水源路16號","121.504085","25.00353","6500300","中和區"
"235064","005-UY","2018/06/25 18:49:22","新北市中和區連城路109巷43號","121.496986666667","24.99837","6500300","中和區"
"235063","006-UY","2018/06/25 18:49:22","新北市中和區連城路319巷4弄1號","121.489156666667","24.995595","6500300","中和區"
"235056","096-UM","2018/06/25 18:49:24","新北市中和區員山路611巷1號","121.477916666667","25.0112166666667","6500300","中和區"
"235039","097-UM","2018/06/25 18:49:26","新北市中和區安樂路143巷19號","121.513703333333","24.99702","6500300","中和區"
"235065","098-UM","2018/06/25 18:49:35","新北市中和區中山路二段2巷27號","121.503091666667","25.0069266666667","6500300","中和區"
"235040","150-BY","2018/06/25 18:49:18","新北市中和區保健路106巷35號","121.51198","24.9953566666667","6500300","中和區"
"235058","151-BY","2018/06/25 18:49:26","新北市中和區連城路518巷1號","121.476371666667","24.9918316666667","6500300","中和區"
"235055","183-VK","2018/06/25 18:49:32","新北市中和區民生街46號","121.469493333333","25.005155","6500300","中和區"
"235038","185-VK","2018/06/25 18:49:19","新北市中和區大勇街31巷1號","121.517378333333","24.9940883333333","6500300","中和區"
"235049","186-VK","2018/06/25 18:49:32","新北市中和區景安路179號","121.50517","24.9941366666667","6500300","中和區"
"235067","255-BX","2018/06/25 18:49:22","新北市中和區新生街18號","121.483151666667","25.004275","6500300","中和區"
"235044","293-VK","2018/06/25 18:49:22","新北市中和區中興街141號","121.50001","24.9912733333333","6500300","中和區"
"235072","301-VK","2018/06/25 18:49:31","新北市中和區中山路二段72號","121.503715","25.0045383333333","6500300","中和區"
"235043","352-BY","2018/06/25 18:49:23","新北市中和區成功路129號","121.526053333333","24.9907033333333","6500300","中和區"
"235042","KEA-2878","2018/06/25 18:49:21","新北市中和區秀朗路三段135巷7弄14號","121.525728333333","24.99177","6500300","中和區"
"235050","4979-A6","2018/06/25 18:49:23","新北市中和區忠孝街62巷9弄10號","121.513145","24.98397","6500300","中和區"
"235069","4980-A6","2018/06/25 18:49:38","新北市中和區連城路65巷7號","121.497903333333","25.0010366666667","6500300","中和區"
"235070","558-UM","2018/06/25 18:49:22","新北市中和區南山路7號","121.502148333333","24.9995966666667","6500300","中和區"
"235045","565-BX","2018/06/25 18:49:26","新北市中和區捷運路129號","121.507065","24.9908733333333","6500300","中和區"
"235054","640-BX","2018/06/25 18:49:35","新北市中和區民享街64號","121.474068333333","25.001895","6500300","中和區"
"235060","647-TV","2018/06/25 18:49:37","新北市中和區中山路三段177號","121.472855","25.0061766666667","6500300","中和區"
"235047","732-UM","2018/06/25 18:49:31","新北市中和區興南路二段34巷55弄1號","121.504823333333","24.9861933333333","6500300","中和區"
"235046","733-UM","2018/06/25 18:49:32","新北市中和區仁愛街36巷55號","121.511406666667","24.98625","6500300","中和區"
"235071","783-BX","2018/06/25 18:49:27","新北市中和區員山路36巷16-3號","121.48523","24.9912133333333","6500300","中和區"
"235062","800-TS","2018/06/25 18:49:03","新北市中和區景平路703巷2弄2號","121.496191666667","25.00349","6500300","中和區"
"235057","801-TS","2018/06/25 18:49:35","新北市中和區民安街25巷15號","121.48063","25.000145","6500300","中和區"
"235041","802-TS","2018/06/25 18:49:23","新北市中和區中安街202-1號","121.51193","24.9990466666667","6500300","中和區"
"235052","805-TS","2018/06/25 18:49:27","新北市中和區興南路二段399巷98弄48號","121.498211666667","24.976675","6500300","中和區"
"235048","896-TW","2018/06/25 18:49:32","新北市中和區南山路533號","121.507976666667","24.9870366666667","6500300","中和區"
"235053","900-TW","2018/06/25 18:49:32","新北市中和區華福街42巷1弄1號","121.466405","24.99639","6500300","中和區"
"235051","157-BY","2018/06/25 18:49:23","新北市中和區忠孝街106巷9弄9號","121.512585","24.9844416666667","6500300","中和區"
"235037","AAC-213","2018/06/25 18:49:32","新北市中和區秀朗路三段128巷16弄2號","121.524596666667","24.99298","6500300","中和區"
"235059","AAC-215","2018/06/25 18:49:23","新北市中和區圓通路393巷1號","121.489668333333","24.98892","6500300","中和區"
"220072","015-TV","2018/06/25 18:49:39","新北市板橋區大觀路三段36巷48號","121.43446","24.9969466666667","6500100","板橋區"
"220086","073-UY","2018/06/25 18:49:23","新北市板橋區大智街71巷26號","121.453133333333","25.0147316666667","6500100","板橋區"
"220106","075-UY","2018/06/25 18:49:35","新北市板橋區民生路二段161巷9號","121.470283333333","25.0196333333333","6500100","板橋區"
"220069","AAD-861","2018/06/25 18:49:36","新北市板橋區大華街11號","121.45897","25.00616","6500100","板橋區"
"226004","312-R5","2018/06/25 18:49:26","新北市平溪區靜安路二段378號","121.73813","25.02458","6502400","平溪區"
"228003","097-TW","2018/06/25 18:49:34","新北市貢寮區和美里龍洞街53號","121.912201666667","25.1137516666667","6502600","貢寮區"
"228002","663-BX","2018/06/25 18:49:21","新北市貢寮區福隆里東興街6-11號","121.950725","25.021035","6502600","貢寮區"
"228001","670-TC","2018/06/25 18:49:22","新北市貢寮區仁理村保健街73號","121.923735","25.05169","6502600","貢寮區"
"224010","AGQ-8101","2018/06/25 18:47:28","新北市瑞芳區烏勢巷147號","121.846871666667","25.1077016666667","6501200","瑞芳區"
"224006","676-BX","2018/06/25 18:49:32","新北市瑞芳區民生街18號","121.80585","25.10761","6501200","瑞芳區"
"224002","639-TC","2018/06/25 18:49:39","新北市瑞芳區靜安路四段35巷1號","121.794298333333","25.0991183333333","6501200","瑞芳區"
"224008","285-BY","2018/06/25 18:49:31","新北市瑞芳區逢甲路274號","121.804818333333","25.110905","6501200","瑞芳區"
"224007","275-VK","2018/06/25 18:49:20","新北市瑞芳區大埔路96號","121.762111666667","25.1009016666667","6501200","瑞芳區"
"224009","273-VK","2018/06/25 18:49:24","新北市瑞芳區祈堂路2號","121.859863333333","25.11194","6501200","瑞芳區"
"224005","271-BY","2018/06/25 18:49:34","新北市瑞芳區瑞濱路85號","121.821625","25.1209516666667","6501200","瑞芳區"
"227001","642-TC","2018/06/25 18:49:33","新北市雙溪區平林里梅竹蹊28號","121.86165","25.0360183333333","6502500","雙溪區"
"227008","400-TW","2018/06/25 18:49:26","新北市雙溪區牡丹里聖南8號","121.859353333333","25.0521233333333","6502500","雙溪區"
"253005","032-BX","2018/06/25 18:49:38","新北市石門區中山路5號","121.565421666667","25.2906666666667","6502200","石門區"
"253006","295-VK","2018/06/25 18:49:32","新北市石門區下員坑15-13號","121.512283333333","25.284235","6502200","石門區"
"222001","KEA-2212","2018/06/25 18:49:21","新北市深坑區松柏街38號","121.638783333333","25.0114716666667","6501800","深坑區"
"208002","KEA-2872","2018/06/25 18:49:23","新北市金山區仁愛路20-10號","121.636486666667","25.2194816666667","6502700","金山區"
"208003","665-BX","2018/06/25 18:49:21","新北市金山區中山路280號","121.634971666667","25.224345","6502700","金山區"
"208001","761-BX","2018/06/25 18:49:38","新北市金山區文化三路66巷1號","121.63419","25.2256566666667","6502700","金山區"
"251004","009-UM","2018/06/25 18:49:18","新北市淡水區八勢二街16號","121.46057","25.1494216666667","6501000","淡水區"
"251005","010-UM","2018/06/25 18:49:37","新北市淡水區中正路18巷6號","121.437653333333","25.1728233333333","6501000","淡水區"
"251001","011-UM","2018/06/25 18:49:33","新北市淡水區自強路88號","121.462706666667","25.12838","6501000","淡水區"
"251013","KEA-2871","2018/06/25 18:49:20","新北市淡水區安子內5號","121.484093333333","25.2151116666667","6501000","淡水區"
"251016","179-VK","2018/06/25 18:49:31","新北市淡水區下圭柔山71-3號","121.447021666667","25.2061783333333","6501000","淡水區"
"251014","180-VK","2018/06/25 18:49:36","新北市淡水區崙頂3號","121.491028333333","25.2239183333333","6501000","淡水區"
"251015","182-VK","2018/06/25 18:49:24","新北市淡水區糞箕湖20號","121.485646666667","25.171045","6501000","淡水區"
"251010","413-VK","2018/06/25 18:49:23","新北市淡水區沙崙路24號","121.421268333333","25.1812266666667","6501000","淡水區"
"251012","441-VK","2018/06/25 18:49:26","新北市淡水區新興街13號","121.443291666667","25.1805116666667","6501000","淡水區"
"251007","577-R6","2018/06/25 18:49:28","新北市淡水區竹林路120號","121.462653333333","25.14318","6501000","淡水區"
"251011","650-BX","2018/06/25 18:49:24","新北市淡水區學府路3號","121.447398333333","25.1679216666667","6501000","淡水區"
"251002","672-BX","2018/06/25 18:49:33","新北市淡水區學府路81號","121.448556666667","25.1700633333333","6501000","淡水區"
"251003","673-BX","2018/06/25 18:49:30","新北市淡水區中山北路一段186巷27弄1-1號","121.446166666667","25.1788833333333","6501000","淡水區"
"207003","550-UM","2018/06/25 18:49:18","新北市萬里區大鵬里頂社1號","121.657","25.20972","6502800","萬里區"
"207004","225-TW","2018/06/25 18:49:21","新北市萬里區萬里里獅頭路23號","121.693221666667","25.17827","6502800","萬里區"
"252002","178-VK","2018/06/25 18:49:22","新北市三芝區中正路一段112號","121.504841666667","25.2563683333333","6502100","三芝區"
"252003","249-BX","2018/06/25 18:49:22","新北市三芝區後厝里大片頭116號","121.457888333333","25.2413","6502100","三芝區"
"252001","292-VK","2018/06/25 18:49:31","新北市三芝區中正路三段9號","121.502956666667","25.2539716666667","6502100","三芝區"
"237004","KEA-2597","2018/06/25 18:49:29","新北市三峽區插角133-1號","121.411906666667","24.8694216666667","6500900","三峽區"
"237007","153-BY","2018/06/25 18:49:24","新北市三峽區中正路二段395號","121.365243333333","24.9076333333333","6500900","三峽區"
"237009","210-TH","2018/06/25 18:49:37","新北市三峽區仁愛街18號","121.368291666667","24.9324166666667","6500900","三峽區"
"237013","252-BX","2018/06/25 18:49:29","新北市三峽區光明路69巷31號","121.376903333333","24.92932","6500900","三峽區"
"237012","275-BY","2018/06/25 18:49:27","新北市三峽區三樹路340號","121.38395","24.94332","6500900","三峽區"
"237008","302-VK","2018/06/25 18:49:34","新北市三峽區白雞28-1號","121.370188333333","24.9121516666667","6500900","三峽區"
"237014","433-BY","2018/06/25 18:49:26","新北市三峽區復興路480巷45號","121.360055","24.94028","6500900","三峽區"
"237006","5529-G3","2018/06/25 18:49:34","新北市三峽區溪東路367號","121.411686666667","24.9292983333333","6500900","三峽區"
"237011","KEA-2596","2018/06/25 18:49:21","新北市三峽區溪東路421號","121.412478333333","24.9286033333333","6500900","三峽區"
"237015","649-BX","2018/06/25 18:49:35","新北市三峽區安坑12-2號","121.442473333333","24.9263066666667","6500900","三峽區"
"237010","706-TV","2018/06/25 18:49:37","新北市三峽區復興路271號","121.366438333333","24.93889","6500900","三峽區"
"237005","AKY-6261","2018/06/25 18:49:32","新北市三峽區中山路169巷12-19號","121.363526666667","24.9356033333333","6500900","三峽區"
"236069","105-UM","2018/06/25 18:49:23","新北市土城區永豐路133號","121.46636","24.983755","6501300","土城區"
"236042","107-UM","2018/06/25 18:49:27","新北市土城區裕民路92巷25弄3號","121.449686666667","24.9859116666667","6501300","土城區"
"236078","166-UM","2018/06/25 18:49:27","新北市土城區中央路四段125巷9弄10號","121.416831666667","24.9573833333333","6501300","土城區"
"236030","253-BX","2018/06/25 18:49:37","新北市土城區忠義路26巷10號","121.439851666667","24.9699166666667","6501300","土城區"
"236026","269-VK","2018/06/25 18:49:33","新北市土城區興城路64號","121.441201666667","24.97234","6501300","土城區"
"236014","270-VK","2018/06/25 18:49:34","新北市土城區金城路二段354巷4號","121.460783333333","24.9847533333333","6501300","土城區"
"236039","271-VK","2018/06/25 18:49:22","新北市土城區明德路一段195巷3弄2號","121.464315","24.9785516666667","6501300","土城區"
"236020","401-BY","2018/06/25 18:49:26","新北市土城區延吉街253巷9號","121.467911666667","24.9844666666667","6501300","土城區"
"236063","752-BX","2018/06/25 18:49:26","新北市土城區延壽路8號","121.471388333333","24.9905116666667","6501300","土城區"
"236059","912-UM","2018/06/25 18:49:37","新北市土城區金城路一段18號","121.439525","24.9689416666667","6501300","土城區"
"236048","913-UM","2018/06/25 18:49:29","新北市板橋區信義路208號","121.460128333333","24.9906433333333","6501300","土城區"
"236055","AAC-216","2018/06/25 18:49:32","新北市土城區裕民路169-1號","121.45309","24.985045","6501300","土城區"
"242058","986-R7","2018/06/25 18:49:21","新北市泰山區明志路三段517號","121.421016666667","25.0319383333333","6500500","新莊區"
"238015","755-BX","2018/06/25 18:49:19","新北市樹林區中山路三段214號","121.380495","24.9666866666667","6500700","樹林區"
"238023","601-UM","2018/06/25 18:49:35","桃園市龜山區萬壽路一段501號","121.399476666667","25.0163783333333","6500700","樹林區"
"238019","599-UM","2018/06/25 18:49:33","新北市樹林區中華路190-1號","121.411606666667","24.9805833333333","6500700","樹林區"
"238018","571-TV","2018/06/25 18:49:24","新北市樹林區東榮街38號","121.417405","24.9833283333333","6500700","樹林區"
"238022","KEA-2213","2018/06/25 18:49:28","新北市樹林區東大街2號","121.413931666667","24.9767083333333","6500700","樹林區"
"238025","303-VK","2018/06/25 18:49:21","新北市樹林區中山路三段22號","121.395576666667","24.9729166666667","6500700","樹林區"
"238020","268-VK","2018/06/25 18:49:22","新北市樹林區三俊街252巷25號","121.420985","25.01387","6500700","樹林區"
"238026","172-UY","2018/06/25 18:49:34","新北市樹林區信和街126-1號","121.387646666667","24.9734466666667","6500700","樹林區"
"238016","169-UY","2018/06/25 18:49:27","新北市樹林區文化街23號","121.419248333333","24.9875616666667","6500700","樹林區"
"239007","AAC-297","2018/06/25 18:49:37","新北市鶯歌區中正一路建德巷38號","121.364543333333","24.95779","6500800","鶯歌區"
"239008","527-UM","2018/06/25 18:49:27","新北市鶯歌區晨曦街35號","121.338103333333","24.9770483333333","6500800","鶯歌區"
"239005","526-UM","2018/06/25 18:49:36","新北市鶯歌區鳳吉二街46號","121.326403333333","24.97361","6500800","鶯歌區"
"239001","417-VK","2018/06/25 18:49:35","新北市鶯歌區中正二路184號","121.341015","24.9477683333333","6500800","鶯歌區"
"239003","360-BY","2018/06/25 18:49:25","新北市鶯歌區鶯桃路660號","121.329233333333","24.9692666666667","6500800","鶯歌區"
"239004","193-VK","2018/06/25 18:49:25","新北市鶯歌區中正三路267號","121.332891666667","24.938115","6500800","鶯歌區"
"221008","489-VK","2018/06/25 18:49:22","新北市汐止區康寧街901號","121.651396666667","25.07508","6501100","汐止區"
"221036","130-UY","2018/06/25 18:49:28","新北市汐止區水碓街24號","121.664341666667","25.0696383333333","6501100","汐止區"
"221015","131-UY","2018/06/25 18:49:23","新北市汐止區吉祥街1巷2號","121.66792","25.0798583333333","6501100","汐止區"
"221010","269-BY","2018/06/25 18:49:28","新北市汐止區汐萬路一段204號","121.652093333333","25.0722566666667","6501100","汐止區"
"221012","278-VK","2018/06/25 18:49:29","新北市汐止區汐萬路一段256巷3號","121.652733333333","25.0744733333333","6501100","汐止區"
"221023","279-VK","2018/06/25 18:49:32","新北市汐止區汐萬路一段312號","121.650525","25.0753933333333","6501100","汐止區"
"221032","280-BY","2018/06/25 18:49:28","新北市汐止區民權街二段79號","121.619186666667","25.048005","6501100","汐止區"
"221027","281-BY","2018/06/25 18:49:24","新北市汐止區汐萬路一段256巷3號","121.653291666667","25.0744933333333","6501100","汐止區"
"221029","298-VK","2018/06/25 18:49:35","新北市汐止區工建路64號","121.640583333333","25.06309","6501100","汐止區"
"221021","299-VK","2018/06/25 18:49:27","新北市汐止區汐萬路一段244-1號","121.65151","25.0731633333333","6501100","汐止區"
"221031","353-TW","2018/06/25 18:49:23","新北市汐止區福德一路300巷8號","121.630916666667","25.0638766666667","6501100","汐止區"
"221035","622-UM","2018/06/25 18:49:28","新北市汐止區中正路312號","121.656096666667","25.067895","6501100","汐止區"
"221025","623-UM","2018/06/25 18:49:29","新北市汐止區仁愛路75號","121.661125","25.062955","6501100","汐止區"
"221038","646-BX","2018/06/25 18:49:28","新北市汐止區汐萬路一段312號","121.650626666667","25.0753283333333","6501100","汐止區"
"221033","647-BX","2018/06/25 18:49:29","新北市汐止區南勢街1巷1號","121.627101666667","25.0375583333333","6501100","汐止區"
"221002","707-TV","2018/06/25 18:49:38","新北市汐止區大同路一段161號","121.632448333333","25.0564066666667","6501100","汐止區"
"221018","753-BX","2018/06/25 18:49:39","新北市汐止區茄福街1號","121.673228333333","25.0676666666667","6501100","汐止區"
"220079","145-BY","2018/06/25 18:49:17","新北市板橋區民權路202巷6弄2號","121.460028333333","25.0145516666667","6500100","板橋區"
"220080","200-UY","2018/06/25 18:49:37","新北市板橋區大觀路二段265巷60弄22號","121.441721666667","24.997925","6500100","板橋區"
"220082","610-BX","2018/06/25 18:49:39","新北市板橋區篤行路三段67號","121.427518333333","24.98568","6500100","板橋區"
"220055","256-TC","2018/06/25 18:49:24","新北市板橋區南雅南路二段120號","121.45221","24.9996466666667","6500100","板橋區"
"220056","276-BY","2018/06/25 18:49:32","新北市板橋區四川路二段6號","121.456331666667","24.9963383333333","6500100","板橋區"
"220094","280-UM","2018/06/25 18:49:17","新北市板橋區民生路二段161巷3號","121.470146666667","25.0198216666667","6500100","板橋區"
"220077","282-UM","2018/06/25 18:49:34","新北市板橋區龍興街99巷1號","121.444223333333","25.002775","6500100","板橋區"
"220071","283-VK","2018/06/25 18:49:33","新北市板橋區忠孝路176巷5弄2號","121.4648","25.0019333333333","6500100","板橋區"
"220053","285-VK","2018/06/25 18:49:25","新北市板橋區民生路二段121號","121.470901666667","25.0183466666667","6500100","板橋區"
"220083","286-VK","2018/06/25 18:49:35","新北市板橋區僑中一街100號","121.446756666667","25.011745","6500100","板橋區"
"220081","287-VK","2018/06/25 18:49:23","新北市板橋區光華街12巷1號","121.454133333333","25.0116333333333","6500100","板橋區"
"220090","288-VK","2018/06/25 18:49:31","新北市板橋區民生路二段161巷9號","121.470231666667","25.0196133333333","6500100","板橋區"
"220061","293-UM","2018/06/25 18:49:27","新北市板橋區民生路二段89-6號","121.470743333333","25.01904","6500100","板橋區"
"220084","296-UM","2018/06/25 18:49:24","新北市板橋區大觀路二段150巷23號","121.44165","24.99954","6500100","板橋區"
"220075","303-R5","2018/06/25 18:49:33","新北市板橋區館前西路261號","121.454036666667","25.0086616666667","6500100","板橋區"
"220062","305-R5","2018/06/25 18:49:25","新北市板橋區民生路二段89-1號","121.471231666667","25.018145","6500100","板橋區"
"220092","307-R5","2018/06/25 18:49:38","新北市板橋區民生路二段120號","121.470306666667","25.01995","6500100","板橋區"
"220098","317-R6","2018/06/25 18:49:28","新北市板橋區民生路二段161巷3號","121.470275","25.0198266666667","6500100","板橋區"
"220064","486-VK","2018/06/25 18:49:33","新北市板橋區民生路二段5號","121.472788333333","25.0158883333333","6500100","板橋區"
"220088","491-VK","2018/06/25 18:49:28","新北市板橋區民生路二段161巷1號","121.469985","25.020165","6500100","板橋區"
"220035","560-BX","2018/06/25 18:49:37","新北市板橋區中正路275巷79弄9號","121.452081666667","25.01767","6500100","板橋區"
"220103","561-BX","2018/06/25 18:49:36","新北市板橋區民生路二段120號","121.470381666667","25.0195683333333","6500100","板橋區"
"220063","609-BX","2018/06/25 18:49:39","新北市板橋區民生路二段121號","121.470781666667","25.018365","6500100","板橋區"
"220091","637-BX","2018/06/25 18:49:23","新北市板橋區民生路二段161巷1號","121.470113333333","25.0199566666667","6500100","板橋區"
"220057","686-BX","2018/06/25 18:49:18","新北市板橋區南雅西路一段7巷5號","121.454511666667","25.0038816666667","6500100","板橋區"
"220093","689-BX","2018/06/25 18:49:27","新北市板橋區民生路二段161巷1號","121.470171666667","25.0201133333333","6500100","板橋區"
"220054","741-BX","2018/06/25 18:49:22","新北市板橋區館前東路15號","121.460075","25.0073166666667","6500100","板橋區"
"220102","KEA-2699","2018/06/25 18:49:38","新北市板橋區民生路二段161巷1號","121.470091666667","25.0200183333333","6500100","板橋區"
"220067","830-TW","2018/06/25 18:49:21","新北市板橋區民生路二段121號","121.470828333333","25.0184333333333","6500100","板橋區"
"220074","895-R6","2018/06/25 18:49:36","新北市板橋區林園街7-1號","121.453928333333","25.0091716666667","6500100","板橋區"
"220073","985-R7","2018/06/25 18:49:28","新北市板橋區林園街54號","121.453956666667","25.0106766666667","6500100","板橋區"
"220097","AAC-210","2018/06/25 18:28:35","新北市板橋區民生路二段161巷5號","121.470235","25.0197066666667","6500100","板橋區"
"220070","AAC-253","2018/06/25 18:49:29","新北市板橋區南雅南路二段4巷2號","121.454373333333","25.0038416666667","6500100","板橋區"
"235068","KEA-2873","2018/06/25 18:49:13","新北市中和區中正路211巷40號","121.498045","24.992585","6500300","中和區"
"235061","KEA-2875","2018/06/25 18:49:10","新北市中和區民享街30巷6號","121.473528333333","25.0035283333333","6500300","中和區"
