"lineid","car","time","location","longitude","latitude","cityid","cityname"
"234046","148-BY","2018/06/25 19:09:31","新北市永和區永元路18巷9號","121.523183333333","25.00033","6500400","永和區"
"234007","207-UY","2018/06/25 19:09:39","新北市永和區中山路一段175-1號","121.509506666667","25.00901","6500400","永和區"
"234081","298-R6","2018/06/25 19:09:31","新北市永和區永亨路61號","121.521103333333","25.006075","6500400","永和區"
"234038","336-UY","2018/06/25 19:09:33","新北市永和區民樂街71巷1號","121.5274","24.997525","6500400","永和區"
"234064","337-UY","2018/06/25 19:09:34","新北市永和區秀朗路一段233號","121.519958333333","25.00309","6500400","永和區"
"234086","338-UY","2018/06/25 19:09:27","新北市永和區永貞路140號","121.518208333333","25.0044116666667","6500400","永和區"
"234070","552-UM","2018/06/25 19:09:20","新北市永和區豫溪街137巷1弄18號","121.518813333333","25.0104916666667","6500400","永和區"
"234017","745-BX","2018/06/25 19:09:31","新北市永和區文化路90巷3弄2號","121.513913333333","25.0156683333333","6500400","永和區"
"234030","746-BX","2018/06/25 19:09:31","新北市永和區四維街115號","121.523445","24.9982666666667","6500400","永和區"
"234054","KEA-2590","2018/06/25 19:09:23","新北市永和區中興街145號","121.519003333333","25.01238","6500400","永和區"
"234013","KEA-2591","2018/06/25 19:09:41","新北市永和區保福路二段20號","121.510981666667","25.0116183333333","6500400","永和區"
"234061","AAD-866","2018/06/25 19:09:37","新北市永和區安樂路304巷7號","121.514535","25.00518","6500400","永和區"
"234042","862-TW","2018/06/25 19:09:37","新北市永和區永貞路307號","121.510545","25.0059666666667","6500400","永和區"
"234050","863-TW","2018/06/25 19:09:36","新北市永和區文化路135巷32弄1號","121.510913333333","25.01408","6500400","永和區"
"234026","9371-KE","2018/06/25 19:09:20","新北市永和區安樂路272巷43弄12號","121.515295","25.004685","6500400","永和區"
"249005","172-UM","2018/06/25 19:09:28","新北市八里區中華路三段77號","121.394433333333","25.1406716666667","6502300","八里區"
"249001","173-UM","2018/06/25 19:09:31","新北市八里區龍米路二段228-1號","121.432738333333","25.158465","6502300","八里區"
"248016","026-BX","2018/06/25 19:09:27","新北市五股區成泰路三段543巷50號","121.450086666667","25.1027616666667","6501500","五股區"
"248006","077-UY","2018/06/25 19:09:22","新北市蘆洲區中山一路417號","121.468495","25.0766066666667","6501500","五股區"
"248008","095-VK","2018/06/25 19:09:41","新北市五股區中興路一段118巷20號","121.465991666667","25.07436","6501500","五股區"
"248018","225-UY","2018/06/25 19:09:31","新北市五股區民義路一段287巷2-8號","121.423431666667","25.090215","6501500","五股區"
"248012","247-BX","2018/06/25 19:09:27","新北市五股區中興路四段48巷16號","121.438658333333","25.083475","6501500","五股區"
"248004","677-BX","2018/06/25 19:09:26","新北市五股區五福路18號","121.434266666667","25.088735","6501500","五股區"
"248002","678-BX","2018/06/25 19:09:20","新北市五股區凌雲路一段158巷14號","121.447803333333","25.103435","6501500","五股區"
"248010","682-TV","2018/06/25 19:09:38","新北市五股區水碓二路1號","121.430561666667","25.0712733333333","6501500","五股區"
"234023","9380-KE","2018/06/25 19:09:40","新北市永和區中興街27號","121.516101666667","25.011945","6500400","永和區"
"234077","969-R7","2018/06/25 19:09:34","新北市永和區民權路38號","121.520176666667","24.9988366666667","6500400","永和區"
"234074","AAC-211","2018/06/25 19:09:25","新北市永和區福和路174號","121.52094","25.00782","6500400","永和區"
"234067","AAC-212","2018/06/25 19:09:37","新北市永和區永和路一段93號","121.513486666667","25.0074866666667","6500400","永和區"
"234003","AAC-295","2018/06/25 19:09:24","新北市永和區保福路一段84號","121.512256666667","25.0102216666667","6500400","永和區"
"232011","375-UM","2018/06/25 19:09:34","新北市坪林區北宜路八段503號","121.707353333333","24.9192283333333","6502000","坪林區"
"244019","403-UM","2018/06/25 19:09:27","新北市林口區麗園二街1巷6-2號","121.378028333333","25.0702016666667","6501700","林口區"
"244013","742-UY","2018/06/25 19:09:21","新北市林口區麗園二街23巷15-9號","121.37931","25.0702666666667","6501700","林口區"
"244023","483-VK","2018/06/25 19:09:27","新北市林口區文林六街30號","121.371466666667","25.081045","6501700","林口區"
"244017","485-VK","2018/06/25 19:09:26","新北市林口區公園路192號","121.37385","25.0741066666667","6501700","林口區"
"244011","701-TV","2018/06/25 19:09:38","新北市林口區竹林路56號","121.387398333333","25.0780733333333","6501700","林口區"
"244025","837-TS","2018/06/25 19:09:26","新北市林口區文化北路一段542巷37弄26號","121.368993333333","25.0791733333333","6501700","林口區"
"243013","AAD-798","2018/06/25 19:09:31","新北市泰山區漢口街3號","121.423331666667","25.0367216666667","6501600","泰山區"
"243009","297-R6","2018/06/25 19:09:39","新北市泰山區楓樹街15巷3-2號","121.4348","25.0630783333333","6501600","泰山區"
"243015","421-VK","2018/06/25 19:09:39","新北市泰山區明志路一段485號","121.430706666667","25.05538","6501600","泰山區"
"243016","539-UM","2018/06/25 19:09:05","新北市泰山區明志路二段368號","121.425621666667","25.0448383333333","6501600","泰山區"
"243011","KEA-2215","2018/06/25 19:09:34","新北市泰山區明志路二段318號","121.42629","25.0459766666667","6501600","泰山區"
"243010","KEA-2216","2018/06/25 19:09:24","新北市泰山區明志路一段483巷1弄3號","121.43104","25.0555433333333","6501600","泰山區"
"243012","646-TV","2018/06/25 19:09:21","新北市泰山區辭修路34巷1號","121.428638333333","25.0580083333333","6501600","泰山區"
"243014","680-BX","2018/06/25 19:09:36","新北市泰山區泰林路二段416號","121.427253333333","25.0643233333333","6501600","泰山區"
"222003","436-BY","2018/06/25 19:09:34","新北市深坑區深南路162號","121.62612","25.0149916666667","6501800","深坑區"
"222002","659-BX","2018/06/25 19:09:33","新北市深坑區北深路一段185號","121.63151","25.01022","6501800","深坑區"
"231041","002-UM","2018/06/25 19:09:26","新北市新店區溪園路403號","121.524036666667","24.97818","6500600","新店區"
"231059","046-UY","2018/06/25 19:09:36","新北市新店區安康路一段351-1號","121.519453333333","24.9640566666667","6500600","新店區"
"231040","047-UY","2018/06/25 19:09:29","新北市新店區三民路98-4號","121.533945","24.9733916666667","6500600","新店區"
"231044","106-UY","2018/06/25 19:09:37","新北市新店區中興路三段182號","121.544105","24.9813783333333","6500600","新店區"
"231052","108-UY","2018/06/25 19:09:21","新北市新店區自強路61號","121.546351666667","24.9245883333333","6500600","新店區"
"231054","110-UY","2018/06/25 19:09:39","新北市新店區新店路178號","121.537135","24.955865","6500600","新店區"
"231047","187-VK","2018/06/25 19:09:23","新北市新店區德正街27巷29弄68號","121.5458","24.9731683333333","6500600","新店區"
"231046","188-VK","2018/06/25 19:09:34","新北市新店區華潭街1巷47號","121.527633333333","24.9472816666667","6500600","新店區"
"231042","268-BY","2018/06/25 19:09:33","新北市新店區中興路一段166號","121.542791666667","24.9643133333333","6500600","新店區"
"231051","278-BY","2018/06/25 19:09:35","新北市新店區中正路382巷23號","121.5355","24.97819","6500600","新店區"
"231050","AAD-862","2018/06/25 19:09:30","新北市新店區竹林路2巷29弄7號","121.55039","24.9502666666667","6500600","新店區"
"231058","3713-VJ","2018/06/25 19:09:33","新北市新店區光明街138巷13弄5號","121.540166666667","24.961415","6500600","新店區"
"231066","4716-K9","2018/06/25 19:09:23","新北市新店區安祥路35-1號","121.49217","24.9551633333333","6500600","新店區"
"231056","4715-K9","2018/06/25 19:09:23","新北市新店區民權路109號","121.536256666667","24.98197","6500600","新店區"
"231067","4772-VM","2018/06/25 19:09:26","新北市新店區安康路一段76巷6號","121.5285","24.962395","6500600","新店區"
"231065","512-UM","2018/06/25 19:09:29","新北市新店區安祥路145巷21號","121.475193333333","24.956235","6500600","新店區"
"231049","513-UM","2018/06/25 19:09:40","新北市新店區二十張路25巷3號","121.539035","24.9821666666667","6500600","新店區"
"231043","618-UM","2018/06/25 19:09:25","新北市新店區中興路二段252號","121.547421666667","24.9758833333333","6500600","新店區"
"231061","619-UM","2018/06/25 19:09:27","新北市新店區安康路一段355-10號","121.520366666667","24.9638666666667","6500600","新店區"
"231063","641-BX","2018/06/25 19:09:31","新北市新店區車子路134號","121.505141666667","24.9487983333333","6500600","新店區"
"231064","719-UM","2018/06/25 19:09:30","新北市新店區安忠路56巷6號","121.5129","24.959425","6500600","新店區"
"231062","720-UM","2018/06/25 19:09:24","新北市新店區安平路56號","121.520265","24.9685166666667","6500600","新店區"
"231060","897-TW","2018/06/25 19:09:30","新北市新店區安康路二段295-1號","121.502933333333","24.9576033333333","6500600","新店區"
"231045","898-TW","2018/06/25 19:09:33","新北市新店區北宜路一段192巷4-1號","121.542183333333","24.9528683333333","6500600","新店區"
"231055","AKT-0513","2018/06/25 19:09:31","新北市新店區安民街65巷11號","121.515433333333","24.9664783333333","6500600","新店區"
"241026","066-VK","2018/06/25 19:09:26","新北市三重區泉州街61巷1號","121.494645","25.0545966666667","6500200","三重區"
"241020","478-VK","2018/06/25 19:09:34","新北市三重區自強路三段15號","121.4871","25.0720533333333","6500200","三重區"
"241029","942-UM","2018/06/25 19:09:34","新北市三重區集美街257號","121.492381666667","25.055565","6500200","三重區"
"235066","003-UY","2018/06/25 19:09:34","新北市中和區廣福路30號","121.504746666667","25.002425","6500300","中和區"
"235064","005-UY","2018/06/25 19:09:41","新北市中和區泰和街44巷44號","121.498076666667","25.0013733333333","6500300","中和區"
"235063","006-UY","2018/06/25 19:09:22","新北市中和區連城路249巷5號","121.493665","24.9967833333333","6500300","中和區"
"235056","096-UM","2018/06/25 19:09:24","新北市中和區員山路528號","121.478876666667","25.00975","6500300","中和區"
"235039","097-UM","2018/06/25 19:09:26","新北市中和區景平路64巷13弄22號","121.521456666667","24.9914766666667","6500300","中和區"
"235065","098-UM","2018/06/25 19:09:35","新北市中和區莊敬路39號","121.500853333333","25.0049616666667","6500300","中和區"
"235040","150-BY","2018/06/25 19:09:18","新北市中和區保健路48巷39號","121.509648333333","24.9963233333333","6500300","中和區"
"235058","151-BY","2018/06/25 19:09:26","新北市中和區員山路128-1號","121.481088333333","24.9961666666667","6500300","中和區"
"235055","183-VK","2018/06/25 19:09:32","新北市中和區德光路24號","121.470855","25.0044533333333","6500300","中和區"
"235038","185-VK","2018/06/25 19:09:19","新北市中和區大仁街20巷34號","121.519333333333","24.993135","6500300","中和區"
"235049","186-VK","2018/06/25 19:09:32","新北市中和區明禮街13號","121.504911666667","24.99589","6500300","中和區"
"235067","255-BX","2018/06/25 19:09:22","新北市中和區新生街176巷20號","121.482728333333","24.999925","6500300","中和區"
"235044","293-VK","2018/06/25 19:09:22","新北市中和區中興街222-5號","121.500621666667","24.989575","6500300","中和區"
"235072","301-VK","2018/06/25 19:09:31","新北市中和區福美路313號","121.49682","25.0046933333333","6500300","中和區"
"235043","352-BY","2018/06/25 19:09:23","新北市中和區景平路73-1號","121.51881","24.9915933333333","6500300","中和區"
"235042","KEA-2878","2018/06/25 19:09:22","新北市中和區秀朗路三段22巷10號","121.525878333333","24.996285","6500300","中和區"
"235050","4979-A6","2018/06/25 19:09:23","新北市中和區復興路249巷11弄3號","121.50358","24.9897566666667","6500300","中和區"
"235069","4980-A6","2018/06/25 19:09:18","新北市中和區中和路217巷20號","121.504723333333","25.0004366666667","6500300","中和區"
"235070","558-UM","2018/06/25 19:09:22","新北市中和區中和路27號","121.499818333333","25.0019583333333","6500300","中和區"
"235045","565-BX","2018/06/25 19:09:26","新北市中和區景新街447號","121.513386666667","24.988725","6500300","中和區"
"235054","640-BX","2018/06/25 19:09:35","新北市中和區國光街113號","121.469836666667","25.000615","6500300","中和區"
"235060","647-TV","2018/06/25 19:09:37","新北市中和區民享街84號","121.474363333333","25.00121","6500300","中和區"
"235047","732-UM","2018/06/25 19:09:31","新北市中和區興南路一段94號","121.509806666667","24.9891333333333","6500300","中和區"
"235046","733-UM","2018/06/25 19:09:32","新北市中和區忠孝街1巷72號","121.50823","24.984795","6500300","中和區"
"235071","783-BX","2018/06/25 19:09:26","新北市中和區連城路316號","121.483505","24.9960916666667","6500300","中和區"
"235062","800-TS","2018/06/25 19:09:23","新北市中和區中山路二段504巷1號","121.48654","25.0053333333333","6500300","中和區"
"235057","801-TS","2018/06/25 19:09:35","新北市中和區民利街80號","121.478055","24.9982283333333","6500300","中和區"
"235041","802-TS","2018/06/25 19:09:32","新北市永和區中和路327號","121.507308333333","24.9997016666667","6500300","中和區"
"235052","805-TS","2018/06/25 19:09:27","新北市中和區興南路二段142巷31弄31號","121.501911666667","24.98341","6500300","中和區"
"235048","896-TW","2018/06/25 19:09:32","新北市中和區華新街170號","121.50733","24.9822133333333","6500300","中和區"
"235053","900-TW","2018/06/25 19:09:22","新北市中和區華福街83號","121.467548333333","24.9964966666667","6500300","中和區"
"235051","157-BY","2018/06/25 19:09:23","新北市中和區興南路一段77號","121.510073333333","24.9890833333333","6500300","中和區"
"235037","AAC-213","2018/06/25 19:09:32","新北市中和區秀朗路三段60巷23號","121.525606666667","24.9950133333333","6500300","中和區"
"235059","AAC-215","2018/06/25 19:09:23","新北市中和區圓通路294巷13號","121.488825","24.9900816666667","6500300","中和區"
"220068","013-TV","2018/06/25 19:09:26","新北市板橋區中山路二段443巷52弄2號","121.480961666667","25.0215116666667","6500100","板橋區"
"220072","015-TV","2018/06/25 19:09:33","新北市板橋區篤行路三段玉平巷31弄9號","121.429346666667","24.98684","6500100","板橋區"
"220086","073-UY","2018/06/25 19:09:23","新北市板橋區中正路250巷109號","121.460128333333","25.0202316666667","6500100","板橋區"
"220106","075-UY","2018/06/25 19:09:36","新北市板橋區雙十路三段16號","121.471811666667","25.0305216666667","6500100","板橋區"
"220069","AAD-861","2018/06/25 19:09:36","新北市板橋區四川路一段104號","121.45953","25.0046266666667","6500100","板橋區"
"226004","312-R5","2018/06/25 19:09:26","新北市平溪區靜安路三段286號","121.77652","25.040695","6502400","平溪區"
"228003","097-TW","2018/06/25 19:09:22","新北市貢寮區和美里和美街36號","121.912221666667","25.0854633333333","6502600","貢寮區"
"228002","663-BX","2018/06/25 19:09:41","新北市貢寮區福隆里福隆街32-1號","121.945103333333","25.01741","6502600","貢寮區"
"228001","670-TC","2018/06/25 19:09:22","新北市貢寮區真理里新港街10號","121.925518333333","25.0543633333333","6502600","貢寮區"
"224010","AGQ-8101","2018/06/25 19:09:28","新北市瑞芳區輕便路59-1號","121.844963333333","25.1101483333333","6501200","瑞芳區"
"224006","676-BX","2018/06/25 19:09:35","新北市瑞芳區中山路174號","121.801726666667","25.1066083333333","6501200","瑞芳區"
"224008","285-BY","2018/06/25 19:09:31","新北市瑞芳區瑞芳街104號","121.801751666667","25.11056","6501200","瑞芳區"
"224007","275-VK","2018/06/25 19:09:20","新北市瑞芳區瑞竹路46號","121.763495","25.1033733333333","6501200","瑞芳區"
"224009","273-VK","2018/06/25 19:09:24","新北市瑞芳區洞頂路101巷58號","121.86048","25.1218583333333","6501200","瑞芳區"
"224005","271-BY","2018/06/25 19:09:34","新北市瑞芳區明燈路二段66號","121.809445","25.1077566666667","6501200","瑞芳區"
"227001","642-TC","2018/06/25 19:09:33","新北市雙溪區平林里外平林10-3號","121.859111666667","25.038035","6502500","雙溪區"
"227008","400-TW","2018/06/25 19:09:26","新北市雙溪區牡丹里中正路48號","121.865073333333","25.039125","6502500","雙溪區"
"253005","032-BX","2018/06/25 19:09:37","新北市石門區阿里荖40-3號","121.606406666667","25.2802616666667","6502200","石門區"
"253006","295-VK","2018/06/25 19:09:31","新北市石門區崁子腳58-1號","121.52872","25.2856083333333","6502200","石門區"
"222001","KEA-2212","2018/06/25 19:09:21","新北市深坑區北深路一段300號","121.62427","25.005795","6501800","深坑區"
"208002","KEA-2872","2018/06/25 19:09:23","新北市金山區仁愛路67巷4號","121.634555","25.22089","6502700","金山區"
"208003","665-BX","2018/06/25 19:09:21","新北市金山區中正路46號","121.635005","25.2221166666667","6502700","金山區"
"208001","761-BX","2018/06/25 19:09:40","新北市金山區溫泉路2巷1號","121.639736666667","25.221945","6502700","金山區"
"251005","010-UM","2018/06/25 19:09:37","新北市淡水區原德路11號","121.442136666667","25.1712183333333","6501000","淡水區"
"251001","011-UM","2018/06/25 19:09:20","新北市淡水區自強路201巷39號","121.462108333333","25.1268333333333","6501000","淡水區"
"251013","KEA-2871","2018/06/25 19:09:20","新北市淡水區安子內12-1號","121.48154","25.2190716666667","6501000","淡水區"
"251016","179-VK","2018/06/25 19:09:31","新北市淡水區淡金路三段306號","121.44907","25.207945","6501000","淡水區"
"251014","180-VK","2018/06/25 19:09:36","新北市淡水區小中寮19-2號","121.484788333333","25.2293883333333","6501000","淡水區"
"251015","182-VK","2018/06/25 19:09:23","新北市淡水區南勢埔6-3號","121.48306","25.180775","6501000","淡水區"
"251010","413-VK","2018/06/25 19:09:23","新北市淡水區中正路一段156巷3號","121.421233333333","25.180215","6501000","淡水區"
"251006","561-UM","2018/06/25 19:09:21","新北市淡水區中山北路三段102號","121.444046666667","25.19053","6501000","淡水區"
"251009","575-R6","2018/06/25 19:09:25","新北市淡水區清水街222號","121.440266666667","25.1714983333333","6501000","淡水區"
"251007","577-R6","2018/06/25 19:09:28","新北市淡水區民生路145巷46號","121.466958333333","25.1389566666667","6501000","淡水區"
"251002","672-BX","2018/06/25 19:09:33","新北市淡水區中山路93-1號","121.442278333333","25.170445","6501000","淡水區"
"251003","673-BX","2018/06/25 19:09:30","新北市淡水區中山北路一段84號","121.442386666667","25.1761783333333","6501000","淡水區"
"207003","550-UM","2018/06/25 19:09:18","新北市萬里區大鵬里萬里加投24號","121.6492","25.20807","6502800","萬里區"
"207004","225-TW","2018/06/25 19:09:21","新北市萬里區萬里里瑪鋉下街52號","121.691593333333","25.1795116666667","6502800","萬里區"
"252002","178-VK","2018/06/25 19:09:22","新北市三芝區中正路一段67號","121.503983333333","25.2572766666667","6502100","三芝區"
"252003","249-BX","2018/06/25 19:09:21","新北市三芝區錫板里海尾14-15號","121.477256666667","25.2584716666667","6502100","三芝區"
"252001","292-VK","2018/06/25 19:09:31","新北市三芝區長勤街45巷2號","121.500361666667","25.2551466666667","6502100","三芝區"
"237004","KEA-2597","2018/06/25 19:09:29","新北市三峽區有木206號","121.439091666667","24.8514866666667","6500900","三峽區"
"237007","153-BY","2018/06/25 19:09:24","新北市三峽區中正路二段42巷84號","121.364298333333","24.9205866666667","6500900","三峽區"
"237013","252-BX","2018/06/25 19:09:29","新北市三峽區光明路69巷27號","121.376855","24.9293283333333","6500900","三峽區"
"237012","275-BY","2018/06/25 19:09:27","新北市三峽區三樹路222巷236弄23號","121.391413333333","24.943065","6500900","三峽區"
"237008","302-VK","2018/06/25 19:09:34","新北市三峽區大同路121號","121.37415","24.926805","6500900","三峽區"
"237014","433-BY","2018/06/25 19:09:26","新北市鶯歌區三鶯路5號","121.356931666667","24.9406816666667","6500900","三峽區"
"237006","5529-G3","2018/06/25 19:09:34","新北市三峽區溪東路233巷4弄5號","121.406843333333","24.9337333333333","6500900","三峽區"
"237011","KEA-2596","2018/06/25 19:09:21","新北市三峽區介壽路三段245號","121.407935","24.9494266666667","6500900","三峽區"
"237015","649-BX","2018/06/25 19:09:35","新北市三峽區建安77-1號","121.451073333333","24.9237366666667","6500900","三峽區"
"237010","706-TV","2018/06/25 19:09:37","新北市三峽區國光街22號","121.375161666667","24.9373383333333","6500900","三峽區"
"237005","AKY-6261","2018/06/25 19:09:32","新北市鶯歌區三鶯路29巷14-1號","121.355216666667","24.94088","6500900","三峽區"
"236069","105-UM","2018/06/25 19:09:23","新北市土城區裕生路84巷13號","121.446511666667","24.9856416666667","6501300","土城區"
"236042","107-UM","2018/06/25 19:09:27","新北市土城區學府路一段278號","121.449833333333","24.982925","6501300","土城區"
"236078","166-UM","2018/06/25 19:09:27","新北市土城區龍泉路52號","121.413463333333","24.9441516666667","6501300","土城區"
"236026","269-VK","2018/06/25 19:09:33","新北市土城區中正路17號","121.442956666667","24.9754883333333","6501300","土城區"
"236014","270-VK","2018/06/25 19:09:34","新北市土城區學府路一段42號","121.457936666667","24.9884783333333","6501300","土城區"
"236020","401-BY","2018/06/25 19:09:26","新北市土城區延峰街33巷1號","121.469703333333","24.984675","6501300","土城區"
"236059","912-UM","2018/06/25 19:09:24","新北市土城區金城路二段231號","121.455533333333","24.9824366666667","6501300","土城區"
"236048","913-UM","2018/06/25 19:09:29","新北市土城區明德路一段365-1號","121.45365","24.9790883333333","6501300","土城區"
"236055","AAC-216","2018/06/25 19:09:32","新北市土城區學府路一段276號","121.450073333333","24.9830166666667","6501300","土城區"
"238015","755-BX","2018/06/25 19:09:19","新北市樹林區備內街79號","121.409085","24.9896066666667","6500700","樹林區"
"238023","601-UM","2018/06/25 19:09:36","新北市樹林區大慶街23號","121.397225","25.0143816666667","6500700","樹林區"
"238019","599-UM","2018/06/25 19:09:33","新北市樹林區東榮街91巷4弄20號","121.41553","24.9816433333333","6500700","樹林區"
"238018","571-TV","2018/06/25 19:09:33","新北市樹林區太平路56巷29號","121.418288333333","24.9815233333333","6500700","樹林區"
"238022","KEA-2213","2018/06/25 19:09:28","新北市樹林區中山路二段151巷8弄24號","121.40576","24.9775433333333","6500700","樹林區"
"238021","KEA-2539","2018/06/25 19:09:27","新北市樹林區柑園街二段363巷8號","121.368935","24.9484516666667","6500700","樹林區"
"238025","303-VK","2018/06/25 19:09:20","新北市樹林區中山路二段219號","121.403058333333","24.9765766666667","6500700","樹林區"
"238017","283-BY","2018/06/25 19:09:32","新北市樹林區光興街360號","121.40727","25.005855","6500700","樹林區"
"238020","268-VK","2018/06/25 19:09:22","新北市樹林區俊英街133巷4號","121.423898333333","25.011425","6500700","樹林區"
"238026","172-UY","2018/06/25 19:09:34","新北市樹林區佳園路一段41巷28弄1號","121.394643333333","24.9708483333333","6500700","樹林區"
"238016","169-UY","2018/06/25 19:09:27","新北市樹林區中山路一段306巷51弄22號","121.41776","24.9860383333333","6500700","樹林區"
"239007","AAC-297","2018/06/25 19:09:36","新北市鶯歌區中正一路213號","121.35384","24.9570183333333","6500800","鶯歌區"
"239006","891-R6","2018/06/25 19:09:17","新北市鶯歌區鶯桃路296巷84弄6號","121.336905","24.96175","6500800","鶯歌區"
"239008","527-UM","2018/06/25 19:09:27","新北市鶯歌區國際二路10巷1號","121.337903333333","24.9741183333333","6500800","鶯歌區"
"239005","526-UM","2018/06/25 19:09:36","新北市鶯歌區大湖路361巷68號","121.331111666667","24.9771866666667","6500800","鶯歌區"
"239001","417-VK","2018/06/25 19:09:35","新北市鶯歌區永明街55號","121.339771666667","24.956125","6500800","鶯歌區"
"239003","360-BY","2018/06/25 19:09:25","新北市鶯歌區德昌街19號","121.33346","24.9600483333333","6500800","鶯歌區"
"239004","193-VK","2018/06/25 19:09:25","新北市鶯歌區二橋新村18號","121.329065","24.9345366666667","6500800","鶯歌區"
"221008","489-VK","2018/06/25 19:09:03","新北市汐止區康寧街467號","121.631773333333","25.0683533333333","6501100","汐止區"
"221036","130-UY","2018/06/25 19:09:28","新北市汐止區汐萬路一段312號","121.650686666667","25.0753666666667","6501100","汐止區"
"221015","131-UY","2018/06/25 19:09:23","新北市汐止區大同路二段567號","121.662996666667","25.0699133333333","6501100","汐止區"
"221010","269-BY","2018/06/25 19:09:28","新北市汐止區康寧街901號","121.651525","25.0749816666667","6501100","汐止區"
"221012","278-VK","2018/06/25 19:09:29","新北市汐止區康寧街901號","121.650803333333","25.075275","6501100","汐止區"
"221023","279-VK","2018/06/25 19:09:32","新北市汐止區康寧街901號","121.65098","25.0752033333333","6501100","汐止區"
"221032","280-BY","2018/06/25 19:09:28","新北市汐止區橫科路241-6號","121.622716666667","25.0485366666667","6501100","汐止區"
"221027","281-BY","2018/06/25 19:09:24","新北市汐止區康寧街901號","121.651368333333","25.07504","6501100","汐止區"
"221029","298-VK","2018/06/25 19:09:35","新北市汐止區汐萬路一段256巷3號","121.653113333333","25.074365","6501100","汐止區"
"221021","299-VK","2018/06/25 19:09:27","新北市汐止區康寧街901號","121.65142","25.0751033333333","6501100","汐止區"
"221031","353-TW","2018/06/25 19:09:23","新北市汐止區福德三路127號","121.633601666667","25.067615","6501100","汐止區"
"221025","623-UM","2018/06/25 19:09:29","新北市汐止區康寧街901號","121.651461666667","25.0749583333333","6501100","汐止區"
"221038","646-BX","2018/06/25 19:09:28","新北市汐止區康寧街901號","121.650701666667","25.07538","6501100","汐止區"
"221033","647-BX","2018/06/25 19:09:29","新北市汐止區南勢街3號","121.627186666667","25.0375683333333","6501100","汐止區"
"221002","707-TV","2018/06/25 19:09:38","新北市汐止區環河街207號","121.626345","25.053985","6501100","汐止區"
"220079","145-BY","2018/06/25 19:09:17","新北市板橋區民權路260巷46號","121.459626666667","25.0151566666667","6500100","板橋區"
"220080","200-UY","2018/06/25 19:09:37","新北市板橋區大觀路二段5-5號","121.4471","25.0036","6500100","板橋區"
"220082","610-BX","2018/06/25 19:09:30","新北市板橋區溪崑二街89號","121.4273","24.9895033333333","6500100","板橋區"
"220101","245-BX","2018/06/25 19:09:38","新北市板橋區民生路二段56-6號","121.470978333333","25.019215","6500100","板橋區"
"220055","256-TC","2018/06/25 19:09:24","新北市板橋區中山路一段122號","121.463265","25.0106283333333","6500100","板橋區"
"220056","276-BY","2018/06/25 19:09:32","新北市板橋區信義路74巷1弄4號","121.457288333333","24.9930683333333","6500100","板橋區"
"220094","280-UM","2018/06/25 19:09:37","新北市板橋區光武街108-5號","121.46582","25.02907","6500100","板橋區"
"220077","282-UM","2018/06/25 19:09:33","新北市板橋區大觀路一段51號","121.447696666667","25.006765","6500100","板橋區"
"220071","283-VK","2018/06/25 19:09:33","新北市板橋區重慶路290-2號","121.463676666667","24.9989016666667","6500100","板橋區"
"220053","285-VK","2018/06/25 19:09:25","新北市板橋區懷仁街10巷8號","121.475635","25.0199616666667","6500100","板橋區"
"220083","286-VK","2018/06/25 19:09:35","新北市板橋區大觀路二段174巷173弄1號","121.441711666667","25.00359","6500100","板橋區"
"220081","287-VK","2018/06/25 19:09:23","新北市板橋區南雅西路二段156巷17號","121.452308333333","25.01317","6500100","板橋區"
"220090","288-VK","2018/06/25 19:09:30","新北市板橋區裕民街45巷3-1號","121.461578333333","25.0283566666667","6500100","板橋區"
"220061","293-UM","2018/06/25 19:09:27","新北市板橋區中山路二段295巷17號","121.47778","25.0187733333333","6500100","板橋區"
"220084","296-UM","2018/06/25 19:09:24","新北市板橋區溪崑二街22巷16號","121.428323333333","24.9915483333333","6500100","板橋區"
"220075","303-R5","2018/06/25 19:09:33","新北市板橋區南雅南路一段5巷2號","121.45583","25.0054833333333","6500100","板橋區"
"220062","305-R5","2018/06/25 19:09:31","新北市板橋區三民路二段245巷4弄2號","121.480976666667","25.0121716666667","6500100","板橋區"
"220092","307-R5","2018/06/25 19:09:38","新北市板橋區文化路二段225巷60弄32號","121.46919","25.02919","6500100","板橋區"
"220098","317-R6","2018/06/25 19:09:30","新北市板橋區自由路51巷14弄3號","121.46473","25.0236133333333","6500100","板橋區"
"220065","461-BY","2018/06/25 19:09:36","新北市板橋區民族路219巷25號","121.46936","25.0085333333333","6500100","板橋區"
"220064","486-VK","2018/06/25 19:09:13","新北市板橋區民生路一段3號","121.476498333333","25.0115533333333","6500100","板橋區"
"220088","491-VK","2018/06/25 19:09:28","新北市板橋區文化路二段173號","121.470743333333","25.027475","6500100","板橋區"
"220035","560-BX","2018/06/25 19:09:37","新北市板橋區中正路399巷11號","121.453553333333","25.022395","6500100","板橋區"
"220103","561-BX","2018/06/25 19:09:36","新北市板橋區文化路一段188巷9弄21號","121.468465","25.01949","6500100","板橋區"
"220063","609-BX","2018/06/25 19:09:38","新北市板橋區三民路二段117號","121.479241666667","25.01578","6500100","板橋區"
"220091","637-BX","2018/06/25 19:09:23","新北市板橋區縣民大道247巷80號","121.48211","25.0268883333333","6500100","板橋區"
"220057","686-BX","2018/06/25 19:09:38","新北市板橋區重慶路293號","121.46326","24.9993333333333","6500100","板橋區"
"220093","689-BX","2018/06/25 19:09:36","新北市板橋區民生路三段251號","121.464573333333","25.0291583333333","6500100","板橋區"
"220054","741-BX","2018/06/25 19:09:22","新北市板橋區實踐路55-1號","121.46372","25.0066983333333","6500100","板橋區"
"220102","KEA-2699","2018/06/25 19:09:39","新北市板橋區田單街2巷34號","121.482246666667","25.02779","6500100","板橋區"
"220067","830-TW","2018/06/25 19:09:37","新北市板橋區民享街136號","121.47811","25.0164483333333","6500100","板橋區"
"220096","831-TW","2018/06/25 19:09:25","新北市板橋區雙十路二段33巷1-1號","121.476548333333","25.0255966666667","6500100","板橋區"
"220089","833-TW","2018/06/25 19:09:33","新北市板橋區文化路二段359號","121.473028333333","25.0308283333333","6500100","板橋區"
"220074","895-R6","2018/06/25 19:09:36","新北市板橋區中正路自強新村51號","121.454743333333","25.0137183333333","6500100","板橋區"
"220073","985-R7","2018/06/25 19:09:28","新北市板橋區中正路360巷25號","121.455508333333","25.0237","6500100","板橋區"
"220097","AAC-210","2018/06/25 19:09:35","新北市板橋區幸福路70巷23號","121.460101666667","25.02086","6500100","板橋區"
"220070","AAC-253","2018/06/25 19:09:38","新北市板橋區忠孝路86號","121.46138","25.0020216666667","6500100","板橋區"
"235068","KEA-2873","2018/06/25 19:09:13","新北市中和區圓通路162巷37弄1號","121.496243333333","24.9953916666667","6500300","中和區"
"235061","KEA-2875","2018/06/25 19:09:09","新北市中和區中山路三段63巷9號","121.476908333333","25.0048333333333","6500300","中和區"
