"lineid","car","time","location","longitude","latitude","cityid","cityname"
"234046","148-BY","2018/06/25 19:29:31","新北市永和區秀朗路二段131號","121.524351666667","25.0016883333333","6500400","永和區"
"234007","207-UY","2018/06/25 19:29:39","新北市永和區中山路一段4號","121.514341666667","25.01057","6500400","永和區"
"234081","298-R6","2018/06/25 19:29:23","新北市永和區環河東路三段60號","121.526848333333","25.0058133333333","6500400","永和區"
"234038","336-UY","2018/06/25 19:29:33","新北市永和區民樂街42號","121.527491666667","25.00058","6500400","永和區"
"234064","337-UY","2018/06/25 19:29:34","新北市永和區得和路243巷28弄1號","121.520895","25.001265","6500400","永和區"
"234086","338-UY","2018/06/25 19:29:27","新北市永和區永利路86號","121.520661666667","25.0040716666667","6500400","永和區"
"234070","552-UM","2018/06/25 19:29:21","新北市永和區竹林路182號","121.520268333333","25.00963","6500400","永和區"
"234017","745-BX","2018/06/25 19:29:32","新北市永和區環河西路一段77號","121.513198333333","25.0181083333333","6500400","永和區"
"234030","746-BX","2018/06/25 19:29:32","新北市永和區民生路49號","121.522706666667","24.9978633333333","6500400","永和區"
"234054","KEA-2590","2018/06/25 19:29:33","新北市永和區復興街18號","121.515863333333","25.0128216666667","6500400","永和區"
"234013","KEA-2591","2018/06/25 19:29:41","新北市永和區中山路一段184巷9弄1號","121.508511666667","25.0092133333333","6500400","永和區"
"234061","AAD-866","2018/06/25 19:29:37","新北市永和區中正路586號","121.517185","25.006695","6500400","永和區"
"234042","862-TW","2018/06/25 19:29:29","新北市永和區水源街39巷10號","121.510448333333","25.003845","6500400","永和區"
"234050","863-TW","2018/06/25 19:29:36","新北市永和區信義路77號","121.512428333333","25.0132316666667","6500400","永和區"
"234026","9371-KE","2018/06/25 19:29:20","新北市永和區安樂路58巷2號","121.515075","24.9979116666667","6500400","永和區"
"234011","9373-KE","2018/06/25 19:29:37","新北市永和區中山路一段62號","121.512791666667","25.0107633333333","6500400","永和區"
"249002","305-UY","2018/06/25 19:29:28","新北市八里區頂寮二街138號","121.449298333333","25.1293733333333","6502300","八里區"
"249003","593-UM","2018/06/25 19:29:18","新北市八里區商港六路21號","121.396693333333","25.1485533333333","6502300","八里區"
"248014","025-BX","2018/06/25 19:29:40","新北市五股區民義路一段157-22號","121.431438333333","25.0867983333333","6501500","五股區"
"248008","095-VK","2018/06/25 19:29:36","新北市五股區中興路一段93號","121.466675","25.0728616666667","6501500","五股區"
"248018","225-UY","2018/06/25 19:29:31","新北市五股區壟路14-5號","121.415463333333","25.0867366666667","6501500","五股區"
"248012","247-BX","2018/06/25 19:29:27","新北市五股區成泰路二段97號","121.438053333333","25.084235","6501500","五股區"
"248004","677-BX","2018/06/25 19:29:26","新北市五股區工商路151號","121.434985","25.0865333333333","6501500","五股區"
"248002","678-BX","2018/06/25 19:29:20","新北市五股區凌雲路一段158巷14號","121.447773333333","25.1034033333333","6501500","五股區"
"248010","682-TV","2018/06/25 19:29:38","新北市五股區水碓二路1號","121.430603333333","25.0712916666667","6501500","五股區"
"234023","9380-KE","2018/06/25 19:29:40","新北市永和區竹林路91巷46號","121.521246666667","25.01269","6500400","永和區"
"234077","969-R7","2018/06/25 19:29:34","新北市永和區民權路80號","121.51975","24.99772","6500400","永和區"
"234074","AAC-211","2018/06/25 19:29:38","新北市永和區竹林路3號","121.516311666667","25.0148966666667","6500400","永和區"
"234067","AAC-212","2018/06/25 19:29:37","新北市永和區永貞路394號","121.509318333333","25.007465","6500400","永和區"
"234003","AAC-295","2018/06/25 19:29:23","新北市永和區福和路352號","121.51478","25.007435","6500400","永和區"
"244019","403-UM","2018/06/25 19:29:27","新北市林口區中山路363號","121.381725","25.0815633333333","6501700","林口區"
"244023","483-VK","2018/06/25 19:29:27","新北市林口區民有街71-3號","121.372801666667","25.0773433333333","6501700","林口區"
"243013","AAD-798","2018/06/25 19:29:25","新北市泰山區明志路三段123巷1弄4號","121.425685","25.0406983333333","6501600","泰山區"
"243009","297-R6","2018/06/25 19:29:28","新北市五股區成泰路一段7巷12號","121.433285","25.0667733333333","6501600","泰山區"
"243015","421-VK","2018/06/25 19:29:19","新北市泰山區民權街23號","121.42867","25.050725","6501600","泰山區"
"243016","539-UM","2018/06/25 19:29:25","新北市泰山區明志路三段217號","121.423891666667","25.0382116666667","6501600","泰山區"
"243011","KEA-2215","2018/06/25 19:29:34","新北市泰山區貴子路19-1號","121.428025","25.0407866666667","6501600","泰山區"
"243010","KEA-2216","2018/06/25 19:29:24","新北市泰山區民生路17巷42號","121.429415","25.0514366666667","6501600","泰山區"
"243012","646-TV","2018/06/25 19:29:21","新北市泰山區仁愛路6巷7號","121.431268333333","25.05378","6501600","泰山區"
"243014","680-BX","2018/06/25 19:29:36","新北市泰山區仁愛路6巷7號","121.431331666667","25.0537016666667","6501600","泰山區"
"222003","436-BY","2018/06/25 19:29:33","新北市深坑區深南路88巷1號","121.620961666667","25.0117033333333","6501800","深坑區"
"222002","659-BX","2018/06/25 19:29:33","新北市深坑區北深路一段177號","121.632513333333","25.0108516666667","6501800","深坑區"
"231041","002-UM","2018/06/25 19:29:26","新北市新店區中正路622號","121.533945","24.9888266666667","6500600","新店區"
"231059","046-UY","2018/06/25 19:29:36","新北市新店區安和路三段4巷1-3號","121.51825","24.9804916666667","6500600","新店區"
"231040","047-UY","2018/06/25 19:29:29","新北市新店區北新路一段263號","121.540978333333","24.9665083333333","6500600","新店區"
"231044","106-UY","2018/06/25 19:29:37","新北市新店區中興路三段133號","121.544705","24.9796483333333","6500600","新店區"
"231052","108-UY","2018/06/25 19:29:21","新北市新店區自強路252號","121.548193333333","24.9180816666667","6500600","新店區"
"231054","110-UY","2018/06/25 19:29:19","新北市新店區文中路45號","121.539538333333","24.9566583333333","6500600","新店區"
"231047","187-VK","2018/06/25 19:29:23","新北市新店區中興路一段254巷5號","121.544975","24.9666016666667","6500600","新店區"
"231046","188-VK","2018/06/25 19:29:34","新北市新店區光明街127號","121.539208333333","24.9619033333333","6500600","新店區"
"231057","256-BX","2018/06/25 19:29:40","新北市新店區花園一路二段23號","121.551096666667","24.9327083333333","6500600","新店區"
"231042","268-BY","2018/06/25 19:29:33","新北市新店區中興路一段34號","121.538655","24.9585316666667","6500600","新店區"
"231051","278-BY","2018/06/25 19:29:35","新北市新店區中央五街61號","121.527445","24.9757066666667","6500600","新店區"
"231050","AAD-862","2018/06/25 19:29:30","新北市新店區竹林路72巷5號","121.553846666667","24.9509216666667","6500600","新店區"
"231058","3713-VJ","2018/06/25 19:29:33","新北市新店區寶橋路77號","121.545823333333","24.9753383333333","6500600","新店區"
"231066","4716-K9","2018/06/25 19:29:23","新北市新店區安康路三段355巷8號","121.484843333333","24.950335","6500600","新店區"
"231067","4772-VM","2018/06/25 19:29:26","新北市新店區安康路一段195巷20號","121.526938333333","24.96184","6500600","新店區"
"231065","512-UM","2018/06/25 19:29:29","新北市新店區安祥路109巷3弄36號","121.476495","24.9603866666667","6500600","新店區"
"231049","513-UM","2018/06/25 19:29:24","新北市新店區大豐路16巷22號","121.540586666667","24.9809266666667","6500600","新店區"
"231043","618-UM","2018/06/25 19:29:25","新北市新店區北新路二段226號","121.542821666667","24.9771733333333","6500600","新店區"
"231061","619-UM","2018/06/25 19:29:20","新北市新店區安康路一段226-2號","121.52329","24.9636766666667","6500600","新店區"
"231063","641-BX","2018/06/25 19:29:31","新北市新店區達觀路16號","121.503055","24.9407266666667","6500600","新店區"
"231064","719-UM","2018/06/25 19:29:30","新北市新店區安忠路57巷1-5號","121.513328333333","24.9595016666667","6500600","新店區"
"231062","720-UM","2018/06/25 19:29:24","新北市新店區安康路一段133號","121.527933333333","24.96192","6500600","新店區"
"231060","897-TW","2018/06/25 19:29:30","新北市新店區安康路二段14號","121.516128333333","24.9637516666667","6500600","新店區"
"231045","898-TW","2018/06/25 19:29:33","新北市新店區北宜路二段213號","121.553243333333","24.9534333333333","6500600","新店區"
"241011","013-R5","2018/06/25 19:29:21","新北市三重區介壽路39巷252號","121.503668333333","25.0713033333333","6500200","三重區"
"241028","022-UY","2018/06/25 19:29:19","新北市三重區中寮街90號","121.493266666667","25.0580066666667","6500200","三重區"
"241008","059-VK","2018/06/25 19:29:29","新北市三重區永福街135巷31號","121.47756","25.0771533333333","6500200","三重區"
"241022","060-VK","2018/06/25 19:29:18","新北市三重區中華路123巷29號","121.484641666667","25.0639016666667","6500200","三重區"
"241031","061-VK","2018/06/25 19:29:28","新北市三重區集美街65-3號","121.488503333333","25.054105","6500200","三重區"
"241017","063-VK","2018/06/25 19:29:22","新北市三重區國隆路23號","121.492963333333","25.0642366666667","6500200","三重區"
"241026","066-VK","2018/06/25 19:29:26","新北市三重區文化南路45號","121.500146666667","25.061325","6500200","三重區"
"241009","267-UM","2018/06/25 19:29:23","新北市三重區溪尾街242巷57號","121.486318333333","25.0815166666667","6500200","三重區"
"241032","269-UM","2018/06/25 19:29:31","新北市三重區三陽路25號","121.485613333333","25.0588216666667","6500200","三重區"
"241013","270-UM","2018/06/25 19:29:40","新北市三重區仁愛街129巷3號","121.495705","25.0749616666667","6500200","三重區"
"241025","271-UM","2018/06/25 19:29:24","新北市三重區頂崁街210巷23弄1號","121.47582","25.068075","6500200","三重區"
"241007","398-BY","2018/06/25 19:29:32","新北市三重區慈愛街151號","121.489475","25.079375","6500200","三重區"
"241020","478-VK","2018/06/25 19:29:32","新北市三重區三和路四段44巷5號","121.490171666667","25.0743566666667","6500200","三重區"
"241030","480-VK","2018/06/25 19:29:36","新北市三重區成功路41巷9號","121.490315","25.0514316666667","6500200","三重區"
"241006","AAD-863","2018/06/25 19:29:25","新北市三重區國道路一段1號","121.48647","25.0735266666667","6500200","三重區"
"241035","743-BX","2018/06/25 19:29:31","新北市三重區信義西街1巷3號","121.49817","25.064985","6500200","三重區"
"241029","942-UM","2018/06/25 19:29:34","新北市三重區中正南路216號","121.493875","25.0550983333333","6500200","三重區"
"235066","003-UY","2018/06/25 19:29:34","新北市中和區景新街43號","121.504013333333","24.999295","6500300","中和區"
"235064","005-UY","2018/06/25 19:29:41","新北市中和區連城路2號","121.499273333333","25.0023833333333","6500300","中和區"
"235063","006-UY","2018/06/25 19:29:22","新北市中和區連城路219巷22弄1號","121.494811666667","24.9963933333333","6500300","中和區"
"235056","096-UM","2018/06/25 19:29:24","新北市中和區民富街7號","121.476523333333","25.007205","6500300","中和區"
"235039","097-UM","2018/06/25 19:29:26","新北市中和區秀峰街103巷2弄13號","121.519916666667","24.9903816666667","6500300","中和區"
"235065","098-UM","2018/06/25 19:29:35","新北市中和區中山路二段2巷17號","121.503771666667","25.0068416666667","6500300","中和區"
"235040","150-BY","2018/06/25 19:29:18","新北市中和區保健路44巷9號","121.509138333333","24.99677","6500300","中和區"
"235058","151-BY","2018/06/25 19:29:26","新北市中和區員山路36巷16-2號","121.48523","24.9916866666667","6500300","中和區"
"235055","183-VK","2018/06/25 19:29:32","新北市中和區國光街8巷7號","121.471636666667","25.0006333333333","6500300","中和區"
"235038","185-VK","2018/06/25 19:29:40","新北市中和區自立路127號","121.521911666667","24.9940833333333","6500300","中和區"
"235049","186-VK","2018/06/25 19:29:32","新北市中和區安和路19號","121.511056666667","24.99383","6500300","中和區"
"235067","255-BX","2018/06/25 19:29:22","新北市中和區連城路340巷3號","121.482755","24.9960216666667","6500300","中和區"
"235044","293-VK","2018/06/25 19:29:22","新北市中和區捷運路122號","121.50542","24.9915083333333","6500300","中和區"
"235072","301-VK","2018/06/25 19:29:31","新北市中和區連城路265巷12弄2號","121.491743333333","24.9952","6500300","中和區"
"235043","352-BY","2018/06/25 19:29:23","新北市中和區南山路82號","121.502566666667","24.9950566666667","6500300","中和區"
"235042","KEA-2878","2018/06/25 19:29:42","新北市中和區安樂路217巷40弄2號","121.513418333333","24.998085","6500300","中和區"
"235050","4979-A6","2018/06/25 19:29:23","新北市中和區中正路440號","121.491048333333","24.9941916666667","6500300","中和區"
"235069","4980-A6","2018/06/25 19:29:38","新北市中和區福美路301巷27號","121.49788","25.00394","6500300","中和區"
"235070","558-UM","2018/06/25 19:29:26","新北市中和區景平路495號","121.499995","24.998065","6500300","中和區"
"235045","565-BX","2018/06/25 19:29:26","新北市中和區景新街399巷6號","121.512901666667","24.9898466666667","6500300","中和區"
"235054","640-BX","2018/06/25 19:29:35","新北市中和區國光街112巷15號","121.469641666667","25.002015","6500300","中和區"
"235060","647-TV","2018/06/25 19:29:36","新北市中和區員山路266巷31號","121.482471666667","25.0018766666667","6500300","中和區"
"235047","732-UM","2018/06/25 19:29:11","新北市中和區景平路259巷18號","121.507736666667","24.9927233333333","6500300","中和區"
"235046","733-UM","2018/06/25 19:29:32","新北市中和區忠孝街37巷44號","121.510676666667","24.9846266666667","6500300","中和區"
"235071","783-BX","2018/06/25 19:29:27","新北市中和區中正路637巷18弄4號","121.48436","24.995065","6500300","中和區"
"235057","801-TS","2018/06/25 19:29:41","新北市中和區中山路三段35號","121.478936666667","25.0056583333333","6500300","中和區"
"235041","802-TS","2018/06/25 19:29:23","新北市中和區中和路400巷27-3號","121.51183","25.0022466666667","6500300","中和區"
"235052","805-TS","2018/06/25 19:29:27","新北市中和區華新街143巷67弄17號","121.507206666667","24.97903","6500300","中和區"
"235048","896-TW","2018/06/25 19:29:32","新北市中和區忠孝街184號","121.51286","24.9882033333333","6500300","中和區"
"235053","900-TW","2018/06/25 19:29:22","新北市中和區華順街2巷2號","121.46761","24.998835","6500300","中和區"
"235051","157-BY","2018/06/25 19:29:23","新北市中和區景新街132巷3號","121.50503","24.9978833333333","6500300","中和區"
"235037","AAC-213","2018/06/25 19:29:32","新北市中和區秀朗路三段10巷14弄36號","121.52459","24.99654","6500300","中和區"
"235059","AAC-215","2018/06/25 19:29:23","新北市中和區圓通路252巷29弄10號","121.492698333333","24.991855","6500300","中和區"
"220068","013-TV","2018/06/25 19:29:17","新北市板橋區翠華街6巷123號","121.481803333333","25.0245333333333","6500100","板橋區"
"220072","015-TV","2018/06/25 19:29:26","新北市板橋區金門街253巷16弄14號","121.432553333333","24.987845","6500100","板橋區"
"220086","073-UY","2018/06/25 19:29:28","新北市板橋區中正路214號","121.456095","25.018375","6500100","板橋區"
"220106","075-UY","2018/06/25 19:29:35","新北市板橋區文化路二段417巷8號","121.474336666667","25.0330816666667","6500100","板橋區"
"220069","AAD-861","2018/06/25 19:29:36","新北市板橋區稚暉街37巷5號","121.457183333333","25.0042266666667","6500100","板橋區"
"226004","312-R5","2018/06/25 19:29:26","新北市平溪區十分里十分街106號","121.776805","25.0427916666667","6502400","平溪區"
"228003","097-TW","2018/06/25 19:29:22","新北市貢寮區和美里和美街22-1號","121.912866666667","25.0826033333333","6502600","貢寮區"
"228002","663-BX","2018/06/25 19:29:41","新北市貢寮區龍門里龍門街69號","121.930996666667","25.026555","6502600","貢寮區"
"228001","670-TC","2018/06/25 19:29:22","新北市貢寮區真理里延平街68-1號","121.925376666667","25.0574483333333","6502600","貢寮區"
"224010","AGQ-8101","2018/06/25 19:28:28","新北市瑞芳區基山街143號","121.844011666667","25.108205","6501200","瑞芳區"
"224008","285-BY","2018/06/25 19:29:31","新北市瑞芳區一坑路189-2號","121.801663333333","25.1091733333333","6501200","瑞芳區"
"227001","642-TC","2018/06/25 19:29:33","新北市雙溪區雙溪里光復街6號","121.864876666667","25.03526","6502500","雙溪區"
"227008","400-TW","2018/06/25 19:29:26","新北市雙溪區新基里新基北街43號","121.868178333333","25.0396866666667","6502500","雙溪區"
"253005","032-BX","2018/06/25 19:29:37","新北市石門區小坑9號","121.594396666667","25.288415","6502200","石門區"
"253006","295-VK","2018/06/25 19:29:31","新北市石門區楓林23-11號","121.538336666667","25.2923616666667","6502200","石門區"
"222001","KEA-2212","2018/06/25 19:29:41","新北市深坑區北深路二段134號","121.615818333333","25.002945","6501800","深坑區"
"208002","KEA-2872","2018/06/25 19:29:23","新北市金山區中華路140號","121.63305","25.2211283333333","6502700","金山區"
"208003","665-BX","2018/06/25 19:29:21","新北市金山區中山路110號","121.639651666667","25.2194416666667","6502700","金山區"
"208001","761-BX","2018/06/25 19:29:38","新北市金山區金包里街舊市場22號","121.638725","25.2215416666667","6502700","金山區"
"251005","010-UM","2018/06/25 19:29:36","新北市淡水區水源街一段71巷11號","121.444495","25.1729366666667","6501000","淡水區"
"251001","011-UM","2018/06/25 19:29:20","新北市淡水區民權路167號","121.45991","25.135785","6501000","淡水區"
"251013","KEA-2871","2018/06/25 19:29:40","新北市淡水區安子內18號","121.472526666667","25.218945","6501000","淡水區"
"251016","179-VK","2018/06/25 19:29:31","新北市淡水區下圭柔山119-51號","121.450698333333","25.20849","6501000","淡水區"
"251014","180-VK","2018/06/25 19:29:36","新北市淡水區小中寮14號","121.48564","25.2307016666667","6501000","淡水區"
"251008","181-VK","2018/06/25 19:28:23","新北市淡水區中正路一段122號","121.423108333333","25.17839","6501000","淡水區"
"251015","182-VK","2018/06/25 19:29:23","新北市淡水區山子頂24-1號","121.49149","25.1872533333333","6501000","淡水區"
"251010","413-VK","2018/06/25 19:29:28","新北市淡水區淡海路242號","121.420143333333","25.1867166666667","6501000","淡水區"
"251012","441-VK","2018/06/25 19:29:39","新北市淡水區崁頂69號","121.439605","25.2016533333333","6501000","淡水區"
"251006","561-UM","2018/06/25 19:29:21","新北市淡水區大義街40號","121.442101666667","25.1783066666667","6501000","淡水區"
"251009","575-R6","2018/06/25 19:29:25","新北市淡水區大忠街5巷9號","121.443443333333","25.1765733333333","6501000","淡水區"
"251007","577-R6","2018/06/25 19:29:08","新北市淡水區中正東路二段161巷11弄10號","121.461498333333","25.146055","6501000","淡水區"
"251011","650-BX","2018/06/25 19:29:36","新北市淡水區中正東路二段161巷11弄14號","121.460585","25.1464883333333","6501000","淡水區"
"207003","550-UM","2018/06/25 19:29:38","新北市萬里區大鵬里萬里加投197號","121.644068333333","25.2149616666667","6502800","萬里區"
"207004","225-TW","2018/06/25 19:29:41","新北市萬里區萬里里瑪鋉路127-8號","121.688921666667","25.1778116666667","6502800","萬里區"
"252002","178-VK","2018/06/25 19:29:22","新北市三芝區淡金路二段18-1號","121.502683333333","25.2595433333333","6502100","三芝區"
"252001","292-VK","2018/06/25 19:29:31","新北市三芝區長勤街62-1號","121.500125","25.256125","6502100","三芝區"
"237004","KEA-2597","2018/06/25 19:29:29","新北市三峽區有木206號","121.439136666667","24.8515","6500900","三峽區"
"237007","153-BY","2018/06/25 19:29:24","新北市三峽區二鬮路136巷20弄83號","121.358215","24.9091216666667","6500900","三峽區"
"237009","210-TH","2018/06/25 19:29:36","新北市三峽區中山路11號","121.369371666667","24.9343","6500900","三峽區"
"237013","252-BX","2018/06/25 19:29:28","新北市三峽區介壽路一段251號","121.379526666667","24.9301883333333","6500900","三峽區"
"237012","275-BY","2018/06/25 19:29:27","新北市三峽區三樹路60號","121.377733333333","24.9382083333333","6500900","三峽區"
"237008","302-VK","2018/06/25 19:29:34","新北市三峽區大同路166號","121.372786666667","24.9267933333333","6500900","三峽區"
"237014","433-BY","2018/06/25 19:29:26","新北市三峽區中山路299巷13弄2號","121.361116666667","24.9370566666667","6500900","三峽區"
"237006","5529-G3","2018/06/25 19:29:34","新北市三峽區橫溪路8號","121.396056666667","24.93609","6500900","三峽區"
"237011","KEA-2596","2018/06/25 19:29:41","新北市三峽區介壽路一段390號","121.383211666667","24.9308016666667","6500900","三峽區"
"237015","649-BX","2018/06/25 19:29:35","新北市三峽區安坑1-12號","121.437511666667","24.925645","6500900","三峽區"
"237010","706-TV","2018/06/25 19:29:37","新北市三峽區復興路175號","121.370011666667","24.93852","6500900","三峽區"
"237005","AKY-6261","2018/06/25 19:29:32","新北市三峽區中山路231巷1弄9號","121.363253333333","24.9367266666667","6500900","三峽區"
"236069","105-UM","2018/06/25 19:29:23","新北市土城區學府路一段143巷6號","121.453848333333","24.98582","6501300","土城區"
"236042","107-UM","2018/06/25 19:29:27","新北市土城區學府路一段276號","121.449901666667","24.982965","6501300","土城區"
"236078","166-UM","2018/06/25 19:29:27","新北市土城區中州路3巷31弄1號","121.413813333333","24.9567433333333","6501300","土城區"
"236026","269-VK","2018/06/25 19:29:33","新北市土城區中央路二段61巷26號","121.443281666667","24.97871","6501300","土城區"
"236014","270-VK","2018/06/25 19:29:34","新北市土城區廣福街123號","121.456248333333","24.9928266666667","6501300","土城區"
"236020","401-BY","2018/06/25 19:29:26","新北市土城區峰廷街3號","121.46904","24.9872783333333","6501300","土城區"
"236059","912-UM","2018/06/25 19:29:24","新北市土城區中央路二段73號","121.442373333333","24.9785833333333","6501300","土城區"
"236048","913-UM","2018/06/25 19:29:31","新北市土城區清水路184號","121.460201666667","24.981635","6501300","土城區"
"242031","135-UY","2018/06/25 19:29:31","新北市新莊區新泰路225巷22弄8號","121.44504","25.0393383333333","6500500","新莊區"
"242004","176-VK","2018/06/25 19:29:35","新北市新莊區化成路11巷85號","121.462326666667","25.0434566666667","6500500","新莊區"
"242021","348-TH","2018/06/25 19:29:24","新北市新莊區三和路12-19號","121.442085","25.03776","6500500","新莊區"
"242013","351-TH","2018/06/25 19:29:28","新北市新莊區新泰路500號","121.442481666667","25.0460883333333","6500500","新莊區"
"238015","755-BX","2018/06/25 19:29:19","新北市樹林區復興路376-6號","121.415405","24.98565","6500700","樹林區"
"238023","601-UM","2018/06/25 19:29:35","新北市樹林區中正路865號","121.408801666667","25.0181433333333","6500700","樹林區"
"238019","599-UM","2018/06/25 19:29:33","新北市樹林區鎮前街411巷1號","121.415205","24.9831333333333","6500700","樹林區"
"238018","571-TV","2018/06/25 19:29:25","新北市樹林區中華路31號","121.42394","24.9835216666667","6500700","樹林區"
"238022","KEA-2213","2018/06/25 19:29:28","新北市樹林區名園街46號","121.419661666667","24.9787133333333","6500700","樹林區"
"238021","KEA-2539","2018/06/25 19:29:27","新北市樹林區大成路162號","121.381805","24.948175","6500700","樹林區"
"238025","303-VK","2018/06/25 19:29:27","新北市樹林區中山路一段205號","121.421141666667","24.9873833333333","6500700","樹林區"
"238017","283-BY","2018/06/25 19:29:32","新北市樹林區保安街二段64號","121.415375","25.0025516666667","6500700","樹林區"
"238014","282-BY","2018/06/25 19:29:37","新北市樹林區保安二街64巷5弄1號","121.42447","24.9959216666667","6500700","樹林區"
"238020","268-VK","2018/06/25 19:29:21","新北市樹林區俊英街111巷8-4號","121.424276666667","25.009675","6500700","樹林區"
"238026","172-UY","2018/06/25 19:29:34","新北市樹林區佳園路三段97號","121.387521666667","24.9522966666667","6500700","樹林區"
"238016","169-UY","2018/06/25 19:29:27","新北市樹林區大安路593號","121.411691666667","24.983195","6500700","樹林區"
"239007","AAC-297","2018/06/25 19:29:16","新北市鶯歌區西湖街53巷30-1號","121.341943333333","24.9610783333333","6500800","鶯歌區"
"239006","891-R6","2018/06/25 19:29:37","新北市鶯歌區永智街132號","121.337015","24.9521033333333","6500800","鶯歌區"
"239008","527-UM","2018/06/25 19:29:27","新北市鶯歌區大湖路335號","121.34181","24.97259","6500800","鶯歌區"
"239005","526-UM","2018/06/25 19:29:36","新北市鶯歌區中湖街63號","121.349216666667","24.9744416666667","6500800","鶯歌區"
"239001","417-VK","2018/06/25 19:29:35","新北市鶯歌區建國路596巷10號","121.340313333333","24.9517833333333","6500800","鶯歌區"
"239003","360-BY","2018/06/25 19:29:25","新北市鶯歌區中正一路307號","121.356666666667","24.9570216666667","6500800","鶯歌區"
"239004","193-VK","2018/06/25 19:29:25","新北市鶯歌區二甲路中心巷13弄2號","121.337638333333","24.9353716666667","6500800","鶯歌區"
"221008","489-VK","2018/06/25 19:29:22","新北市汐止區三民街1巷1號","121.624278333333","25.0668816666667","6501100","汐止區"
"221036","130-UY","2018/06/25 19:29:28","新北市汐止區汐萬路一段312號","121.65057","25.0754816666667","6501100","汐止區"
"221015","131-UY","2018/06/25 19:29:23","新北市汐止區康寧街901號","121.651621666667","25.0749566666667","6501100","汐止區"
"221010","269-BY","2018/06/25 19:29:28","新北市汐止區連峰街7號","121.646368333333","25.0772283333333","6501100","汐止區"
"221012","278-VK","2018/06/25 19:29:30","新北市汐止區大同路三段186號","121.67434","25.074615","6501100","汐止區"
"221023","279-VK","2018/06/25 19:29:32","新北市汐止區康寧街582號","121.63506","25.0699033333333","6501100","汐止區"
"221027","281-BY","2018/06/25 19:29:24","新北市汐止區忠孝東路9號","121.658308333333","25.06599","6501100","汐止區"
"221029","298-VK","2018/06/25 19:29:35","新北市汐止區康寧街901號","121.651541666667","25.07498","6501100","汐止區"
"221021","299-VK","2018/06/25 19:29:27","新北市汐止區康寧街901號","121.651416666667","25.075095","6501100","汐止區"
"221031","353-TW","2018/06/25 19:29:23","新北市汐止區康寧街901號","121.650856666667","25.075295","6501100","汐止區"
"221025","623-UM","2018/06/25 19:29:29","新北市汐止區新台五路二段10號","121.660251666667","25.06501","6501100","汐止區"
"221038","646-BX","2018/06/25 19:29:28","新北市汐止區汐萬路一段1號","121.65607","25.0672616666667","6501100","汐止區"
"221033","647-BX","2018/06/25 19:29:29","新北市汐止區南勢街1巷1號","121.627158333333","25.0375416666667","6501100","汐止區"
"221002","707-TV","2018/06/25 19:29:38","新北市汐止區大同路一段339-2號","121.6383","25.0597366666667","6501100","汐止區"
"220079","145-BY","2018/06/25 19:29:37","新北市板橋區民權路202巷13弄2號","121.459613333333","25.0162333333333","6500100","板橋區"
"220080","200-UY","2018/06/25 19:29:37","新北市板橋區大觀路二段19巷113號","121.450433333333","25.0027483333333","6500100","板橋區"
"220082","610-BX","2018/06/25 19:29:32","新北市板橋區金門街45號","121.433261666667","24.9934333333333","6500100","板橋區"
"220101","245-BX","2018/06/25 19:29:38","新北市板橋區莊敬路247號","121.473173333333","25.0215483333333","6500100","板橋區"
"220055","256-TC","2018/06/25 19:29:24","新北市板橋區重慶路278巷1號","121.462785","24.999665","6500100","板橋區"
"220056","276-BY","2018/06/25 19:29:34","新北市板橋區國慶路49巷19弄2號","121.459243333333","24.996245","6500100","板橋區"
"220094","280-UM","2018/06/25 19:29:37","新北市板橋區吳鳳路38號","121.468531666667","25.030335","6500100","板橋區"
"220077","282-UM","2018/06/25 19:29:33","新北市板橋區僑中二街116巷1號","121.445661666667","25.0062733333333","6500100","板橋區"
"220071","283-VK","2018/06/25 19:29:37","新北市板橋區四川路一段283巷7號","121.459775","25.0013","6500100","板橋區"
"220053","285-VK","2018/06/25 19:29:36","新北市板橋區永豐街106號","121.476066666667","25.02061","6500100","板橋區"
"220083","286-VK","2018/06/25 19:29:35","新北市板橋區大觀路一段38巷158號","121.442288333333","25.0045516666667","6500100","板橋區"
"220081","287-VK","2018/06/25 19:29:23","新北市板橋區南雅西路一段116號","121.45238","25.0063783333333","6500100","板橋區"
"220090","288-VK","2018/06/25 19:29:30","新北市板橋區裕民街94巷3弄1號","121.459953333333","25.02843","6500100","板橋區"
"220061","293-UM","2018/06/25 19:29:41","新北市板橋區中山路二段307號","121.478738333333","25.01859","6500100","板橋區"
"220084","296-UM","2018/06/25 19:29:24","新北市板橋區滿平街84巷110弄26號","121.425876666667","24.9857133333333","6500100","板橋區"
"220075","303-R5","2018/06/25 19:29:33","新北市板橋區大勇街4巷17號","121.45455","25.0178533333333","6500100","板橋區"
"220062","305-R5","2018/06/25 19:29:31","新北市板橋區三民路二段123巷2號","121.479521666667","25.015575","6500100","板橋區"
"220092","307-R5","2018/06/25 19:29:38","新北市板橋區光武街4巷9號","121.468196666667","25.0254816666667","6500100","板橋區"
"220098","317-R6","2018/06/25 19:29:28","新北市板橋區四維路266巷5弄17號","121.46356","25.02896","6500100","板橋區"
"220065","461-BY","2018/06/25 19:29:36","新北市板橋區國泰街75巷25號","121.467811666667","25.0056583333333","6500100","板橋區"
"220064","486-VK","2018/06/25 19:29:33","新北市板橋區重慶路12巷14號","121.460198333333","25.0077683333333","6500100","板橋區"
"220088","491-VK","2018/06/25 19:29:28","新北市板橋區文化路二段444號","121.47441","25.032155","6500100","板橋區"
"220035","560-BX","2018/06/25 19:29:37","新北市板橋區中正路413巷2弄15號","121.453525","25.0231033333333","6500100","板橋區"
"220103","561-BX","2018/06/25 19:29:36","新北市板橋區文化路一段216號","121.46647","25.0203","6500100","板橋區"
"220063","609-BX","2018/06/25 19:29:38","新北市板橋區三民路一段1巷28號","121.48019","25.02441","6500100","板橋區"
"220091","637-BX","2018/06/25 19:29:23","新北市板橋區文聖街135巷16號","121.479103333333","25.0288183333333","6500100","板橋區"
"220057","686-BX","2018/06/25 19:29:38","新北市板橋區和平路91號","121.461875","24.994825","6500100","板橋區"
"220093","689-BX","2018/06/25 19:29:32","新北市板橋區雨農路32號","121.461271666667","25.0245016666667","6500100","板橋區"
"220054","741-BX","2018/06/25 19:29:35","新北市板橋區光明街21號","121.460593333333","25.0026266666667","6500100","板橋區"
"220102","KEA-2699","2018/06/25 19:29:38","新北市板橋區松柏街22巷36號","121.475065","25.0288683333333","6500100","板橋區"
"220067","830-TW","2018/06/25 19:29:21","新北市板橋區長安街138巷7弄11號","121.47334","25.0085933333333","6500100","板橋區"
"220096","831-TW","2018/06/25 19:29:25","新北市板橋區雙十路二段12號","121.47672","25.0270133333333","6500100","板橋區"
"220089","833-TW","2018/06/25 19:29:33","新北市板橋區民權路174號","121.459601666667","25.0132233333333","6500100","板橋區"
"220074","895-R6","2018/06/25 19:29:36","新北市板橋區府中路34號","121.457706666667","25.0096466666667","6500100","板橋區"
"220073","985-R7","2018/06/25 19:29:28","新北市板橋區國光路33號","121.457285","25.0176166666667","6500100","板橋區"
"220097","AAC-210","2018/06/25 19:29:35","新北市板橋區漢生西路153巷1號","121.462993333333","25.02261","6500100","板橋區"
"220070","AAC-253","2018/06/25 19:29:29","新北市板橋區民族路180號","121.467758333333","25.0077416666667","6500100","板橋區"
"235068","KEA-2873","2018/06/25 19:29:13","新北市中和區連勝街57巷20號","121.49813","24.9965133333333","6500300","中和區"
"235061","KEA-2875","2018/06/25 19:29:40","新北市中和區員山路143巷40弄3號","121.478986666667","24.99557","6500300","中和區"
