"lineid","car","time","location","longitude","latitude","cityid","cityname"
"234003","AAC-295","2018/06/25 21:39:23","新北市板橋區文化路二段656號","121.48132","25.03727","6500400","永和區"
"241017","063-VK","2018/06/25 21:39:41","新北市三重區新北大道一段168號","121.483665","25.0617033333333","6500200","三重區"
"241005","262-UM","2018/06/25 21:39:23","新北市三重區碧華街9號","121.483823333333","25.0810316666667","6500200","三重區"
"247010","341-TH","2018/06/25 21:39:33","新北市五股區天乙路102-18號","121.447155","25.107095","6501400","蘆洲區"
"251004","009-UM","2018/06/25 21:39:43","新北市淡水區民生路17號","121.46074","25.1378833333333","6501000","淡水區"
"251005","010-UM","2018/06/25 21:39:36","新北市淡水區水源街一段111號","121.446418333333","25.1720533333333","6501000","淡水區"
"251001","011-UM","2018/06/25 21:39:40","新北市淡水區新市二路三段152號","121.435395","25.1942266666667","6501000","淡水區"
"251016","179-VK","2018/06/25 21:39:31","新北市淡水區中山北路三段171號","121.445626666667","25.1970583333333","6501000","淡水區"
"251014","180-VK","2018/06/25 21:39:36","新北市淡水區淡金路三段426號","121.450313333333","25.2121333333333","6501000","淡水區"
"251008","181-VK","2018/06/25 21:39:42","新北市淡水區水源街二段90號","121.451708333333","25.1743333333333","6501000","淡水區"
"251010","413-VK","2018/06/25 21:39:23","新北市淡水區沙崙路216巷72號","121.426101666667","25.1846683333333","6501000","淡水區"
"251012","441-VK","2018/06/25 21:39:39","新北市淡水區淡金路四段215號","121.451638333333","25.222315","6501000","淡水區"
"251006","561-UM","2018/06/25 21:39:41","新北市淡水區中正路11巷22號","121.438411666667","25.1705166666667","6501000","淡水區"
"251009","575-R6","2018/06/25 21:39:24","新北市淡水區民族路31巷28號","121.462403333333","25.1367883333333","6501000","淡水區"
"251007","577-R6","2018/06/25 21:39:25","新北市淡水區崁頂145號","121.430801666667","25.2060933333333","6501000","淡水區"
"251011","650-BX","2018/06/25 21:39:36","新北市淡水區新民街276號","121.4355","25.1815366666667","6501000","淡水區"
"251002","672-BX","2018/06/25 21:39:33","新北市淡水區學府路154號","121.446451666667","25.174325","6501000","淡水區"
"251003","673-BX","2018/06/25 21:39:29","新北市淡水區新春街46號","121.437513333333","25.1817466666667","6501000","淡水區"
"220064","486-VK","2018/06/25 21:19:24","新北市板橋區華東街1-10號","121.448356666667","24.994955","6500100","板橋區"
