"lineid","car","time","location","longitude","latitude","cityid","cityname"
"248005","653-BX","2018/06/26 07:29:37","新北市五股區明德路10號","121.433378333333","25.071775","6501500","五股區"
"232002","290-BY","2018/06/26 07:29:42","新北市坪林區坪雙路一段67號","121.71497","24.943435","6502000","坪林區"
"232006","758-BX","2018/06/26 07:29:28","新北市坪林區北宜路八段602號","121.721238333333","24.907845","6502000","坪林區"
"244002","248-BX","2018/06/26 07:29:41","新北市林口區南勢里71-131號","121.341251666667","25.08411","6501700","林口區"
"231007","189-VK","2018/06/26 07:29:45","新北市新店區安一路一段1-1號","121.51956","24.9612916666667","6500600","新店區"
"235001","611-BX","2018/06/26 07:29:29","新北市中和區圓通路367巷4號","121.491406666667","24.9892733333333","6500300","中和區"
"235001","157-BY","2018/06/26 07:29:36","新北市中和區和平街29-1號","121.507471666667","24.9909816666667","6500300","中和區"
"226005","5620-A6","2018/06/26 07:29:27","新北市平溪區靜安路二段119號","121.721073333333","25.023835","6502400","平溪區"
"226002","7418-A5","2018/06/26 07:19:56","新北市平溪區望古里灰4-2號","121.763598333333","25.0286333333333","6502400","平溪區"
"226006","AGD-0702","2018/06/26 07:29:07","新北市平溪區嶺腳里嶺腳寮83-2號","121.750363333333","25.0349766666667","6502400","平溪區"
"223006","022-BY","2018/06/26 07:29:44","新北市坪林區坪林街10-2號","121.712993333333","24.9354366666667","6501900","石碇區"
"223002","KEA-2673","2018/06/26 07:29:30","新北市石碇區北宜路六段獅子頭坑巷16號","121.642243333333","24.932205","6501900","石碇區"
"223003","205-TH","2018/06/26 07:29:28","新北市石碇區蓬菜寮17號","121.64905","24.9720933333333","6501900","石碇區"
"223008","406-TH","2018/06/26 07:29:09","新北市石碇區南勢坑12號","121.698888333333","24.9823683333333","6501900","石碇區"
"223001","592-UM","2018/06/26 07:29:37","新北市石碇區中楒子腳2-15號","121.638743333333","24.9734733333333","6501900","石碇區"
"223004","660-BX","2018/06/26 07:29:38","新北市石碇區八分寮35-1號","121.644776666667","25.0143266666667","6501900","石碇區"
"223007","661-BX","2018/06/26 07:29:44","新北市石碇區大溪墘17號","121.692273333333","25.0081433333333","6501900","石碇區"
"223005","677-TV","2018/06/26 07:29:32","新北市石碇區八分寮35-1號","121.644985","25.0152283333333","6501900","石碇區"
"227006","282-VK","2018/06/26 07:29:28","新北市雙溪區新基里自強路7號","121.866223333333","25.0390983333333","6502500","雙溪區"
"252004","249-BX","2018/06/26 07:29:41","新北市三芝區店子里龜子山4-3號","121.501971666667","25.2210516666667","6502100","三芝區"
"252007","AAC-283","2018/06/26 07:29:37","新北市三芝區古庄里茂興店63號","121.488523333333","25.2661466666667","6502100","三芝區"
"237001","159-UY","2018/06/26 07:29:33","新北市樹林區學勤路199號","121.376651666667","24.94808","6500900","三峽區"
"236008","165-UM","2018/06/26 07:29:37","新北市土城區延壽路75巷27弄3號","121.469265","24.9917483333333","6501300","土城區"
"236002","339-SR","2018/06/26 07:29:37","新北市土城區承天路114號","121.452418333333","24.949915","6501300","土城區"
