"lineid","car","time","location","longitude","latitude","cityid","cityname"
"234070","149-BY","2018/08/23 09:07:56","新北市永和區福和路1號","121.526405","25.0097683333333","6500400","永和區"
"248005","653-BX","2018/08/23 09:09:33","新北市五股區水碓路24號","121.433396666667","25.0726733333333","6501500","五股區"
"244006","080-UY","2018/08/23 09:09:31","新北市林口區林口路113巷47號","121.38795","25.0798733333333","6501700","林口區"
"244003","248-BX","2018/08/23 09:09:34","新北市林口區中湖43-8號","121.382643333333","25.0915383333333","6501700","林口區"
"244018","403-UM","2018/08/23 09:09:35","新北市林口區文化一路一段100巷8弄6號","121.373288333333","25.07026","6501700","林口區"
"244012","KEA-2802","2018/08/23 09:09:34","新北市林口區仁愛路二段201-1號","121.37783","25.0747083333333","6501700","林口區"
"244022","483-VK","2018/08/23 09:09:37","新北市林口區仁愛路二段125號","121.383391666667","25.07478","6501700","林口區"
"244016","485-VK","2018/08/23 09:09:26","新北市林口區八德路78號","121.365461666667","25.0655416666667","6501700","林口區"
"244008","656-BX","2018/08/23 09:09:27","新北市林口區文林一街11巷9號","121.3765","25.08583","6501700","林口區"
"244010","657-BX","2018/08/23 09:09:25","新北市林口區新寮1-82號","121.392653333333","25.0767866666667","6501700","林口區"
"244024","837-TS","2018/08/23 09:09:25","新北市林口區仁愛二路101-1號","121.367791666667","25.0751216666667","6501700","林口區"
"243008","KEA-2801","2018/08/23 09:04:57","新北市八里區仁愛路163-1號","121.4085","25.15769","6501600","泰山區"
"222006","289-BY","2018/08/23 09:09:34","新北市深坑區土庫尖路69號","121.632978333333","25.0176016666667","6501800","深坑區"
"231069","189-VK","2018/08/23 08:55:19","新北市新店區新潭路三段236號","121.500796666667","24.90272","6500600","新店區"
"231008","192-VK","2018/08/23 09:09:33","新北市新店區廣興路60巷35號","121.542545","24.9164366666667","6500600","新店區"
"235001","611-BX","2018/08/23 09:09:25","新北市中和區莒光路175號","121.472733333333","24.9996633333333","6500300","中和區"
"226007","8452-VL","2018/08/23 09:09:27","新北市平溪區東勢里芊蓁坑22號","121.734786666667","24.9836816666667","6502400","平溪區"
"226003","AGD-0702","2018/08/23 09:09:22","新北市平溪區望古里望古坑25號","121.763165","25.0343316666667","6502400","平溪區"
"223006","022-BY","2018/08/23 09:09:39","新北市石碇區碇坪路一段182號","121.666771666667","24.98556","6501900","石碇區"
"223003","205-TH","2018/08/23 09:09:29","新北市石碇區北宜路五段6號","121.630456666667","24.95675","6501900","石碇區"
"223008","406-TH","2018/08/23 09:09:21","新北市石碇區光明路18-5號","121.686308333333","25.0366616666667","6501900","石碇區"
"223001","592-UM","2018/08/23 09:09:33","新北市石碇區北宜路五段11號","121.631063333333","24.9556566666667","6501900","石碇區"
"223004","660-BX","2018/08/23 09:09:18","新北市石碇區崩山46號","121.680066666667","24.9684716666667","6501900","石碇區"
"223005","677-TV","2018/08/23 09:08:52","新北市石碇區崩山53號","121.68239","24.968885","6501900","石碇區"
"252004","249-BX","2018/08/23 09:09:27","新北市淡水區大埤頭1-2號","121.492783333333","25.1945916666667","6502100","三芝區"
"252007","AAC-283","2018/08/23 09:09:36","新北市三芝區古庄里山豬堀13-3號","121.492348333333","25.259335","6502100","三芝區"
"237001","159-UY","2018/08/23 09:09:32","新北市樹林區中山路三段214號","121.379881666667","24.9676","6500900","三峽區"
"236009","165-UM","2018/08/23 09:09:18","新北市土城區金城路二段46巷5-12號","121.453483333333","24.9738433333333","6501300","土城區"
"236003","339-SR","2018/08/23 09:09:28","新北市土城區中央路二段276-1號","121.440781666667","24.974325","6501300","土城區"
"236005","498-BY","2018/08/23 09:09:40","新北市土城區中央路三段76巷55號","121.435415","24.9696066666667","6501300","土城區"
"242033","AAC-296","2018/08/23 09:09:23","新北市新莊區中正路371號","121.446311666667","25.0348116666667","6500500","新莊區"
"242057","986-R7","2018/08/23 09:09:36","新北市新莊區八德街153巷11號","121.423851666667","25.019915","6500500","新莊區"
"242052","751-BX","2018/08/23 09:09:22","新北市新莊區西盛街395巷30號","121.428663333333","25.0122866666667","6500500","新莊區"
"242022","705-TV","2018/08/23 09:09:28","新北市新莊區化成路940號","121.464865","25.0628583333333","6500500","新莊區"
"242026","615-BX","2018/08/23 09:09:25","新北市新莊區思源路271號","121.459783333333","25.04783","6500500","新莊區"
"242024","613-BX","2018/08/23 09:09:38","新北市新莊區五權一路12巷25弄14號","121.458418333333","25.064255","6500500","新莊區"
"242040","566-BX","2018/08/23 09:09:33","新北市新莊區壽山路49-10號","121.413813333333","25.0312066666667","6500500","新莊區"
"242045","497-BY","2018/08/23 09:09:37","新北市新莊區裕民街134巷4號","121.417638333333","25.022215","6500500","新莊區"
"242018","442-UM","2018/08/23 09:09:39","新北市新莊區民樂街91號","121.457893333333","25.0435283333333","6500500","新莊區"
"242049","441-UM","2018/08/23 09:09:18","新北市新莊區民安西路90-2號","121.426945","25.0190283333333","6500500","新莊區"
"242055","440-UM","2018/08/23 09:09:35","新北市新莊區新豐街20巷11號","121.447695","25.0344066666667","6500500","新莊區"
"242035","415-TV","2018/08/23 09:09:38","新北市新莊區建安街28號","121.428285","25.0252933333333","6500500","新莊區"
"242006","413-TV","2018/08/23 09:09:35","新北市新莊區思源路287巷2弄1號","121.459296666667","25.0482666666667","6500500","新莊區"
"242043","400-BY","2018/08/23 09:09:27","新北市新莊區萬壽路一段21巷17弄4號","121.411078333333","25.0202883333333","6500500","新莊區"
"242059","353-BY","2018/08/23 09:09:31","新北市新莊區新樹路65號","121.439996666667","25.0317066666667","6500500","新莊區"
"242008","132-UY","2018/08/23 09:09:20","新北市新莊區福壽街99巷8弄4號","121.456866666667","25.0506766666667","6500500","新莊區"
"242038","133-UY","2018/08/23 09:09:30","新北市新莊區龍安路479號","121.425346666667","25.0182516666667","6500500","新莊區"
"242030","135-UY","2018/08/23 09:09:32","新北市新莊區忠孝街15號","121.443901666667","25.0350183333333","6500500","新莊區"
"242047","172-VK","2018/08/23 09:09:36","新北市新莊區四維路180號","121.422311666667","25.0217016666667","6500500","新莊區"
"242010","173-VK","2018/08/23 09:09:21","新北市新莊區中信街34號","121.45023","25.0508633333333","6500500","新莊區"
"242016","175-VK","2018/08/23 09:09:27","新北市新莊區新泰路368號","121.44455","25.0428566666667","6500500","新莊區"
"242003","176-VK","2018/08/23 09:09:31","新北市新莊區頭前路82號","121.466058333333","25.0524933333333","6500500","新莊區"
"242014","346-TH","2018/08/23 09:09:30","新北市新莊區永樂街239巷15號","121.446115","25.0437716666667","6500500","新莊區"
"242020","348-TH","2018/08/23 09:09:33","新北市新莊區和興街19號","121.44738","25.0392983333333","6500500","新莊區"
"242001","349-TH","2018/08/23 09:09:23","新北市新莊區化成路5-12號","121.464615","25.04242","6500500","新莊區"
"242012","281-VK","2018/08/23 09:09:29","新北市新莊區中和街175巷11號","121.447176666667","25.050575","6500500","新莊區"
