"lineid","car","time","location","longitude","latitude","cityid","cityname"
"248005","653-BX","2018/08/23 09:49:33","新北市五股區成泰路一段7巷38號","121.432701666667","25.06702","6501500","五股區"
"244018","403-UM","2018/08/23 09:49:35","新北市林口區麗園二街87號","121.382641666667","25.066865","6501700","林口區"
"244022","483-VK","2018/08/23 09:49:37","新北市林口區民權路12巷5號","121.371661666667","25.0798466666667","6501700","林口區"
"244016","485-VK","2018/08/23 09:49:26","新北市林口區公園路87號","121.36858","25.0696733333333","6501700","林口區"
"222006","289-BY","2018/08/23 09:49:34","新北市深坑區文化街45號","121.616856666667","25.0016966666667","6501800","深坑區"
"231069","189-VK","2018/08/23 09:49:19","新北市新店區新潭路三段215巷25號","121.508103333333","24.9040633333333","6500600","新店區"
"231008","192-VK","2018/08/23 09:35:47","新北市新店區平廣路一段256號","121.507863333333","24.888325","6500600","新店區"
"223003","205-TH","2018/08/23 09:49:29","新北市石碇區小粗坑(潭邊里)2號","121.670861666667","24.98282","6501900","石碇區"
"223008","406-TH","2018/08/23 09:49:21","新北市石碇區小粗坑(潭邊里)15-6號","121.683623333333","24.9833016666667","6501900","石碇區"
"252004","249-BX","2018/08/23 09:49:27","新北市三芝區福德里大水堀21號","121.512391666667","25.2201483333333","6502100","三芝區"
"252007","AAC-283","2018/08/23 09:49:36","新北市三芝區新庄里新庄子78-1號","121.508221666667","25.27227","6502100","三芝區"
"237001","159-UY","2018/08/23 09:49:28","新北市三峽區學成路398號","121.378185","24.9446516666667","6500900","三峽區"
"236005","498-BY","2018/08/23 09:49:26","新北市土城區忠義路45巷2號","121.44119","24.969465","6501300","土城區"
"242057","986-R7","2018/08/23 09:49:38","新北市新莊區民安路138號","121.42415","25.0253133333333","6500500","新莊區"
"242024","613-BX","2018/08/23 09:49:35","新北市新莊區新泰路255巷83號","121.442485","25.0392883333333","6500500","新莊區"
"242059","353-BY","2018/08/23 09:49:31","新北市新莊區新樹路244巷66號","121.431118333333","25.0197816666667","6500500","新莊區"
"242038","133-UY","2018/08/23 09:49:30","新北市新莊區新樹路647-1號","121.435621666667","25.002685","6500500","新莊區"
"242030","135-UY","2018/08/23 09:49:32","新北市新莊區三泰路32-3號","121.437843333333","25.03533","6500500","新莊區"
"242001","349-TH","2018/08/23 09:49:23","新北市新莊區環河路502號","121.438958333333","25.0171866666667","6500500","新莊區"
