"lineid","car","time","location","longitude","latitude","cityid","cityname"
"234044","148-BY","2018/08/23 12:39:37","新北市永和區永元路68號","121.522526666667","25.0016216666667","6500400","永和區"
"234070","149-BY","2018/08/23 12:39:23","新北市永和區福和路1號","121.526341666667","25.0097133333333","6500400","永和區"
"234005","207-UY","2018/08/23 12:39:36","新北市永和區環河西路一段51巷6號","121.51396","25.0182283333333","6500400","永和區"
"234078","298-R6","2018/08/23 12:39:25","新北市永和區林森路73號","121.524096666667","25.0038883333333","6500400","永和區"
"234036","336-UY","2018/08/23 12:39:35","新北市永和區福和路1號","121.526638333333","25.0100666666667","6500400","永和區"
"234062","337-UY","2018/08/23 12:39:24","新北市永和區福和路1號","121.526525","25.00996","6500400","永和區"
"234084","338-UY","2018/08/23 12:39:43","新北市永和區永貞路113號","121.517728333333","25.0043733333333","6500400","永和區"
"234068","552-UM","2018/08/23 12:39:40","新北市永和區福和路1號","121.525566666667","25.0094083333333","6500400","永和區"
"234015","745-BX","2018/08/23 12:39:38","新北市永和區福和路1號","121.526211666667","25.00962","6500400","永和區"
"234028","746-BX","2018/08/23 12:39:41","新北市永和區得和路390號","121.52521","24.99925","6500400","永和區"
"234060","AAD-866","2018/08/23 12:39:24","新北市永和區福和路1號","121.526103333333","25.0093783333333","6500400","永和區"
"234025","9371-KE","2018/08/23 12:39:40","新北市永和區福和路1號","121.526555","25.0100183333333","6500400","永和區"
"234010","9373-KE","2018/08/23 12:39:44","新北市永和區福和路1號","121.525593333333","25.0093383333333","6500400","永和區"
"248005","077-UY","2018/08/23 12:39:25","新北市五股區中興路二段37巷28號","121.460195","25.0749333333333","6501500","五股區"
"234022","9380-KE","2018/08/23 12:39:30","新北市永和區福和路1號","121.52564","25.0094266666667","6500400","永和區"
"234076","969-R7","2018/08/23 12:39:35","新北市永和區中和路473號","121.510281666667","25.001805","6500400","永和區"
"244003","248-BX","2018/08/23 12:39:33","新北市林口區粉寮路二段160巷28號","121.405135","25.0907583333333","6501700","林口區"
"231003","268-BY","2018/08/23 12:39:32","新北市新店區安華路28-1號","121.519378333333","24.9606716666667","6500600","新店區"
"231037","4716-K9","2018/08/23 12:39:39","新北市新店區安一路一段1-1號","121.519233333333","24.96118","6500600","新店區"
"231036","512-UM","2018/08/23 12:39:36","新北市新店區安一路一段1-1號","121.519446666667","24.9613983333333","6500600","新店區"
"231035","719-UM","2018/08/23 12:39:33","新北市新店區安一路一段1-1號","121.519513333333","24.9611066666667","6500600","新店區"
"235028","005-UY","2018/08/23 12:39:38","新北市中和區員山路36巷16-3號","121.484971666667","24.991455","6500300","中和區"
"235029","098-UM","2018/08/23 12:39:35","新北市中和區員山路36巷16-3號","121.485046666667","24.9912133333333","6500300","中和區"
"235031","255-BX","2018/08/23 12:39:26","新北市中和區連城路469巷14號","121.483501666667","24.9953266666667","6500300","中和區"
"228005","097-TW","2018/08/23 12:39:33","新北市貢寮區福連里蓬萊街14號","121.995898333333","25.0035616666667","6502600","貢寮區"
"228004","212-TW","2018/08/23 12:39:23","新北市貢寮區吉林里枋腳街6-2號","121.88718","25.0078383333333","6502600","貢寮區"
"207002","749-BX","2018/08/23 12:39:35","新北市萬里區雙興里太和路7-2號","121.6586","25.1740416666667","6502800","萬里區"
"237001","159-UY","2018/08/23 12:39:28","新北市三峽區中山路459巷163-1號","121.349298333333","24.9333983333333","6500900","三峽區"
"221010","269-BY","2018/08/23 12:39:33","新北市汐止區康寧街115號","121.620883333333","25.0665266666667","6501100","汐止區"
"221027","281-BY","2018/08/23 12:39:30","新北市汐止區中正路311號","121.655936666667","25.067705","6501100","汐止區"
"235025","KEA-2875","2018/08/23 12:36:40","新北市中和區員山路36巷16-2號","121.485366666667","24.9916266666667","6500300","中和區"
