"lineid","car","time","location","longitude","latitude","cityid","cityname"
"234044","148-BY","2018/08/23 13:09:31","新北市永和區秀朗路二段148巷12弄16號","121.524778333333","25.0011383333333","6500400","永和區"
"234070","149-BY","2018/08/23 13:09:43","新北市永和區民生路25巷22號","121.524456666667","24.998365","6500400","永和區"
"234005","207-UY","2018/08/23 13:09:36","新北市永和區中山路一段195號","121.509161666667","25.0087716666667","6500400","永和區"
"234078","298-R6","2018/08/23 13:09:34","新北市永和區福和路57巷14弄1號","121.52278","25.0069733333333","6500400","永和區"
"234036","336-UY","2018/08/23 13:09:35","新北市永和區民樂街69巷3號","121.527506666667","24.9977983333333","6500400","永和區"
"234062","337-UY","2018/08/23 13:09:29","新北市永和區秀朗路二段33號","121.521361666667","25.0024016666667","6500400","永和區"
"234084","338-UY","2018/08/23 13:09:40","新北市永和區永貞路113號","121.51757","25.004365","6500400","永和區"
"234068","552-UM","2018/08/23 13:09:40","新北市永和區豫溪街137巷1弄24號","121.51835","25.010505","6500400","永和區"
"234015","745-BX","2018/08/23 13:09:41","新北市永和區文化路90巷15號","121.513783333333","25.0161316666667","6500400","永和區"
"234028","746-BX","2018/08/23 13:09:41","新北市永和區四維街58號","121.524596666667","24.9982216666667","6500400","永和區"
"234052","KEA-2590","2018/08/23 13:09:35","新北市永和區中興街133巷6號","121.518781666667","25.0126466666667","6500400","永和區"
"234012","KEA-2591","2018/08/23 13:09:39","新北市永和區保福路二段52號","121.511016666667","25.012265","6500400","永和區"
"234060","AAD-866","2018/08/23 13:09:24","新北市永和區安樂路304巷7號","121.514398333333","25.0052066666667","6500400","永和區"
"234040","862-TW","2018/08/23 13:09:34","新北市永和區保平路93巷1號","121.511675","25.0067616666667","6500400","永和區"
"234048","863-TW","2018/08/23 13:09:19","新北市永和區文化路135巷18號","121.510536666667","25.015215","6500400","永和區"
"234025","9371-KE","2018/08/23 13:09:40","新北市永和區秀朗路一段10巷19號","121.513505","25.00616","6500400","永和區"
"234010","9373-KE","2018/08/23 13:09:24","新北市永和區文化路113巷1號","121.512886666667","25.0150683333333","6500400","永和區"
"248015","026-BX","2018/08/23 13:09:29","新北市五股區新五路二段373號","121.444508333333","25.088455","6501500","五股區"
"248005","077-UY","2018/08/23 13:09:25","新北市五股區中興路二段94號","121.46042","25.0775266666667","6501500","五股區"
"248017","225-UY","2018/08/23 13:09:39","新北市五股區成泰路三段101-1號","121.444223333333","25.0902616666667","6501500","五股區"
"248011","247-BX","2018/08/23 13:09:36","新北市五股區新城一路12號","121.441415","25.0833366666667","6501500","五股區"
"248013","261-SL","2018/08/23 13:09:40","新北市五股區成泰路一段189巷18-2號","121.433538333333","25.076425","6501500","五股區"
"248003","677-BX","2018/08/23 13:09:43","新北市五股區成泰路二段111號","121.438331666667","25.0845683333333","6501500","五股區"
"248001","678-BX","2018/08/23 13:09:30","新北市五股區新五路二段258號","121.440953333333","25.08233","6501500","五股區"
"248009","682-TV","2018/08/23 13:09:29","新北市五股區新五路二段258號","121.440583333333","25.0822183333333","6501500","五股區"
"234022","9380-KE","2018/08/23 13:09:30","新北市永和區竹林路124巷31號","121.518313333333","25.0112","6500400","永和區"
"234076","969-R7","2018/08/23 13:09:34","新北市永和區中正路164號","121.515018333333","24.9966383333333","6500400","永和區"
"234072","AAC-211","2018/08/23 13:09:39","新北市永和區竹林路187號","121.52066","25.009585","6500400","永和區"
"234066","AAC-212","2018/08/23 13:09:42","新北市永和區永和路一段83號","121.513203333333","25.0071466666667","6500400","永和區"
"234001","AAC-295","2018/08/23 13:09:23","新北市永和區中正路659號","121.514701666667","25.0102466666667","6500400","永和區"
"244003","248-BX","2018/08/23 13:09:33","新北市林口區嘉溪雅坑6-1號","121.342176666667","25.1058","6501700","林口區"
"243005","AAD-798","2018/08/23 13:09:33","新北市泰山區南林路93號","121.415586666667","25.051185","6501600","泰山區"
"231028","046-UY","2018/08/23 13:09:37","新北市新店區安華路28-1號","121.5196","24.9609616666667","6500600","新店區"
"231001","047-UY","2018/08/23 13:09:30","新北市新店區安華路28-1號","121.519251666667","24.9608783333333","6500600","新店區"
"231005","106-UY","2018/08/23 13:09:30","新北市新店區安華路28-1號","121.51964","24.9608583333333","6500600","新店區"
"231010","107-UY","2018/08/23 13:09:37","新北市新店區安一路一段1-1號","121.519476666667","24.9612483333333","6500600","新店區"
"231021","108-UY","2018/08/23 13:09:37","新北市新店區安一路一段1-1號","121.51952","24.9614966666667","6500600","新店區"
"231011","187-VK","2018/08/23 13:09:34","新北市新店區安一路一段1-1號","121.519588333333","24.9611933333333","6500600","新店區"
"231023","KEA-2219","2018/08/23 13:09:26","新北市新店區安華路28-1號","121.519941666667","24.9610583333333","6500600","新店區"
"231003","268-BY","2018/08/23 13:09:32","新北市新店區安華路3號","121.519461666667","24.9598433333333","6500600","新店區"
"231018","278-BY","2018/08/23 13:09:32","新北市新店區安一路一段1-1號","121.51992","24.9613083333333","6500600","新店區"
"231017","AAD-862","2018/08/23 13:09:37","新北市新店區安一路一段1-1號","121.519868333333","24.9612633333333","6500600","新店區"
"231027","3713-VJ","2018/08/23 13:09:32","新北市新店區安華路28-1號","121.519165","24.9606466666667","6500600","新店區"
"231037","4716-K9","2018/08/23 13:09:39","新北市新店區安華路28-1號","121.51966","24.9610183333333","6500600","新店區"
"231025","4715-K9","2018/08/23 13:09:38","新北市新店區安康路一段102號","121.527411666667","24.9624233333333","6500600","新店區"
"231036","512-UM","2018/08/23 13:09:36","新北市新店區安一路一段1-1號","121.519338333333","24.96126","6500600","新店區"
"231013","513-UM","2018/08/23 13:09:25","新北市新店區安一路一段1-1號","121.519651666667","24.9612633333333","6500600","新店區"
"231006","617-UM","2018/08/23 13:09:26","新北市新店區安華路28-1號","121.519455","24.9609316666667","6500600","新店區"
"231030","619-UM","2018/08/23 13:09:33","新北市新店區安華路28-1號","121.51955","24.960825","6500600","新店區"
"231034","641-BX","2018/08/23 13:09:28","新北市新店區安華路28-1號","121.519533333333","24.9605916666667","6500600","新店區"
"231039","718-UY","2018/08/23 13:09:42","新北市新店區安一路一段1-1號","121.519078333333","24.9613616666667","6500600","新店區"
"231035","719-UM","2018/08/23 13:09:32","新北市新店區安一路一段1-1號","121.51954","24.961315","6500600","新店區"
"231031","720-UM","2018/08/23 13:09:29","新北市新店區安一路一段1-1號","121.519316666667","24.96117","6500600","新店區"
"231029","897-TW","2018/08/23 13:09:38","新北市新店區安華路28-1號","121.519673333333","24.96073","6500600","新店區"
"231004","899-TW","2018/08/23 13:09:31","新北市新店區安華路28-1號","121.519426666667","24.9608883333333","6500600","新店區"
"231024","AKT-0513","2018/08/23 13:09:30","新北市新店區安華路28-1號","121.5195","24.960575","6500600","新店區"
"235030","003-UY","2018/08/23 13:09:27","新北市中和區中山路二段207號","121.49968","25.0023266666667","6500300","中和區"
"235028","005-UY","2018/08/23 13:09:38","新北市中和區中正路90號","121.499956666667","24.99373","6500300","中和區"
"235003","097-UM","2018/08/23 13:09:39","新北市中和區錦和路350-1號","121.490428333333","24.9935633333333","6500300","中和區"
"235029","098-UM","2018/08/23 13:09:35","新北市中和區莊敬路49巷20弄24號","121.502815","25.0059116666667","6500300","中和區"
"235004","150-BY","2018/08/23 13:09:27","新北市中和區錦和路350-1號","121.490413333333","24.99358","6500300","中和區"
"235022","151-BY","2018/08/23 13:09:37","新北市中和區圓通路367巷33弄2號","121.49339","24.9854616666667","6500300","中和區"
"235002","185-VK","2018/08/23 13:09:44","新北市中和區大仁街20巷2號","121.51784","24.9931583333333","6500300","中和區"
"235031","255-BX","2018/08/23 13:09:26","新北市中和區中正路839巷17號","121.483903333333","25.0023333333333","6500300","中和區"
"235006","KEA-2878","2018/08/23 13:09:42","新北市中和區景平路177號","121.51187","24.9925533333333","6500300","中和區"
"235034","558-UM","2018/08/23 13:09:40","新北市中和區圓通路172號","121.497238333333","24.9945283333333","6500300","中和區"
"235009","565-BX","2018/08/23 13:09:44","新北市中和區員山路36巷13號","121.484071666667","24.9910583333333","6500300","中和區"
"235018","640-BX","2018/08/23 13:09:38","新北市中和區莒光路158號","121.472631666667","25.0004266666667","6500300","中和區"
"235011","732-UM","2018/08/23 13:09:36","新北市中和區錦和路350-1號","121.490165","24.9935433333333","6500300","中和區"
"235035","783-BX","2018/08/23 13:09:39","新北市中和區板南路520巷1號","121.484106666667","25.0087916666667","6500300","中和區"
"235026","800-TS","2018/08/23 13:09:25","新北市中和區建康路101號","121.488155","25.0003583333333","6500300","中和區"
"235021","801-TS","2018/08/23 13:09:29","新北市中和區中正路589巷15號","121.485593333333","24.9933516666667","6500300","中和區"
"235005","802-TS","2018/08/23 13:09:40","新北市中和區員山路36巷16-3號","121.484898333333","24.9913433333333","6500300","中和區"
"235017","900-TW","2018/08/23 13:09:26","新北市中和區員山路36巷16-3號","121.484986666667","24.991795","6500300","中和區"
"235015","157-BY","2018/08/23 13:09:31","新北市中和區捷運路121號","121.507658333333","24.990445","6500300","中和區"
"235001","AAC-213","2018/08/23 13:09:25","新北市中和區景平路147號","121.514038333333","24.9921833333333","6500300","中和區"
"247007","056-VK","2018/08/23 13:09:38","新北市五股區中興路三段2巷10號","121.449116666667","25.0810283333333","6501400","蘆洲區"
"228005","097-TW","2018/08/23 13:09:33","新北市貢寮區仁理村研海街45號","121.926298333333","25.0411083333333","6502600","貢寮區"
"228004","212-TW","2018/08/23 13:09:23","新北市貢寮區吉林里內寮街75號","121.89114","24.972085","6502600","貢寮區"
"253003","6232-TK","2018/08/23 13:09:37","新北市石門區石崩山27-3號","121.56417","25.2800383333333","6502200","石門區"
"253001","6251-TK","2018/08/23 13:09:34","新北市石門區老梅路43-2號","121.54541","25.2896216666667","6502200","石門區"
"253002","637-UY","2018/08/23 13:09:25","新北市石門區九芎林2號","121.556018333333","25.2745116666667","6502200","石門區"
"253004","8270-PC","2018/08/23 13:09:32","新北市石門區阿里荖42-1號","121.6049","25.2839066666667","6502200","石門區"
"207002","749-BX","2018/08/23 13:08:55","新北市萬里區溪底里香員林路6號","121.632428333333","25.164455","6502800","萬里區"
"207001","662-BX","2018/08/23 13:09:44","新北市萬里區萬里里瑪鋉路98號","121.69053","25.1786033333333","6502800","萬里區"
"252005","AAC-283","2018/08/23 13:09:36","新北市三芝區八賢里八連溪1號","121.508913333333","25.2467516666667","6502100","三芝區"
"237001","159-UY","2018/08/23 13:09:27","新北市三峽區中山路459巷56號","121.356198333333","24.9367283333333","6500900","三峽區"
"236005","498-BY","2018/08/23 13:09:32","新北市土城區亞洲路60號","121.435228333333","24.9735916666667","6501300","土城區"
"221010","269-BY","2018/08/23 13:09:33","新北市汐止區忠三街8號","121.62479","25.078475","6501100","汐止區"
"221032","280-BY","2018/08/23 13:09:31","新北市汐止區大同路二段649號","121.664766666667","25.0715283333333","6501100","汐止區"
"221027","281-BY","2018/08/23 13:09:30","新北市汐止區保新街101號","121.686785","25.0713366666667","6501100","汐止區"
"220021","985-R7","2018/08/23 13:09:44","新北市板橋區華東街1-10號","121.448283333333","24.994945","6500100","板橋區"
"235032","KEA-2873","2018/08/23 13:09:20","新北市中和區員山路36巷16-3號","121.485026666667","24.9912316666667","6500300","中和區"
"235025","KEA-2875","2018/08/23 13:09:18","新北市中和區民享街492號","121.469615","24.9922633333333","6500300","中和區"
