"lineid","car","time","location","longitude","latitude","cityid","cityname"
"234044","148-BY","2018/08/23 13:19:31","新北市永和區永元路77號","121.522215","25.0013416666667","6500400","永和區"
"234070","149-BY","2018/08/23 13:19:43","新北市永和區得和路376號","121.524615","24.9993316666667","6500400","永和區"
"234005","207-UY","2018/08/23 13:19:36","新北市中和區中山路二段47號","121.504473333333","25.0049833333333","6500400","永和區"
"234078","298-R6","2018/08/23 13:19:25","新北市永和區福和路14號","121.524328333333","25.0085033333333","6500400","永和區"
"234036","336-UY","2018/08/23 13:19:35","新北市永和區民樂街45巷2號","121.527525","24.9992183333333","6500400","永和區"
"234062","337-UY","2018/08/23 13:19:37","新北市永和區永元路6號","121.521961666667","25.0001383333333","6500400","永和區"
"234084","338-UY","2018/08/23 13:19:43","新北市永和區永利路4巷6號","121.517436666667","25.0052283333333","6500400","永和區"
"234068","552-UM","2018/08/23 13:19:40","新北市永和區豫溪街74巷1號","121.517261666667","25.0099083333333","6500400","永和區"
"234015","745-BX","2018/08/23 13:19:38","新北市永和區環河西路一段95巷19弄4號","121.511718333333","25.0170166666667","6500400","永和區"
"234028","746-BX","2018/08/23 13:19:41","新北市永和區厚德街68號","121.524051666667","24.9988683333333","6500400","永和區"
"234052","KEA-2590","2018/08/23 13:19:35","新北市永和區中興街31號","121.516133333333","25.0119316666667","6500400","永和區"
"234012","KEA-2591","2018/08/23 13:19:26","新北市永和區信義路57-1號","121.512821666667","25.0125966666667","6500400","永和區"
"234060","AAD-866","2018/08/23 13:19:24","新北市永和區中正路381號","121.517143333333","25.003745","6500400","永和區"
"234040","862-TW","2018/08/23 13:19:34","新北市永和區保平路177巷5弄1號","121.509915","25.004855","6500400","永和區"
"234048","863-TW","2018/08/23 13:19:38","新北市永和區保福路二段88巷7號","121.51087","25.0136316666667","6500400","永和區"
"234025","9371-KE","2018/08/23 13:19:40","新北市永和區豫溪街42巷3號","121.515576666667","25.0096183333333","6500400","永和區"
"234010","9373-KE","2018/08/23 13:19:24","新北市永和區忠孝街34巷12弄2號","121.51465","25.0165666666667","6500400","永和區"
"248015","026-BX","2018/08/23 13:19:29","新北市五股區成泰路三段477巷18號","121.449883333333","25.0989","6501500","五股區"
"248005","077-UY","2018/08/23 13:19:25","新北市五股區中興路一段142-2號","121.464805","25.0738366666667","6501500","五股區"
"248017","225-UY","2018/08/23 13:19:39","新北市五股區御史路205號","121.431578333333","25.1001216666667","6501500","五股區"
"248011","247-BX","2018/08/23 13:19:36","新北市五股區御成路35號","121.441035","25.09127","6501500","五股區"
"248013","261-SL","2018/08/23 13:19:40","新北市五股區自強路49號","121.433301666667","25.0734816666667","6501500","五股區"
"248003","677-BX","2018/08/23 13:19:23","新北市五股區成泰路二段175號","121.439465","25.08607","6501500","五股區"
"248001","678-BX","2018/08/23 13:19:30","新北市五股區西雲路66號","121.443595","25.0916383333333","6501500","五股區"
"248009","682-TV","2018/08/23 13:19:29","新北市五股區成泰路一段191號","121.43482","25.0765366666667","6501500","五股區"
"234022","9380-KE","2018/08/23 13:19:30","新北市永和區竹林路91巷17號","121.520488333333","25.012385","6500400","永和區"
"234076","969-R7","2018/08/23 13:19:34","新北市永和區民有街69號","121.517846666667","24.9956716666667","6500400","永和區"
"234072","AAC-211","2018/08/23 13:19:39","新北市永和區竹林路46號","121.517716666667","25.014285","6500400","永和區"
"234066","AAC-212","2018/08/23 13:19:29","新北市永和區保平路59號","121.51162","25.0069783333333","6500400","永和區"
"234001","AAC-295","2018/08/23 13:19:43","新北市永和區中山路一段95號","121.511303333333","25.0105283333333","6500400","永和區"
"244003","248-BX","2018/08/23 13:19:33","新北市林口區瑞平里12鄰40-2號","121.338338333333","25.1178216666667","6501700","林口區"
"243005","AAD-798","2018/08/23 13:19:33","新北市泰山區明志路三段196巷54號","121.42154","25.04005","6501600","泰山區"
"231002","002-UM","2018/08/23 13:19:24","新北市新店區安華路28-1號","121.519596666667","24.9608733333333","6500600","新店區"
"231028","046-UY","2018/08/23 13:19:37","新北市新店區安華路28-1號","121.5196","24.9608416666667","6500600","新店區"
"231001","047-UY","2018/08/23 13:19:30","新北市新店區安華路28-1號","121.519231666667","24.96091","6500600","新店區"
"231005","106-UY","2018/08/23 13:19:30","新北市新店區安華路28-1號","121.519658333333","24.9609016666667","6500600","新店區"
"231010","107-UY","2018/08/23 13:19:37","新北市新店區安康路一段50-1號","121.529705","24.96131","6500600","新店區"
"231021","108-UY","2018/08/23 13:19:36","新北市新店區安康路一段222-2號","121.523083333333","24.963655","6500600","新店區"
"231011","187-VK","2018/08/23 13:19:34","新北市新店區安一路一段1-1號","121.519705","24.961245","6500600","新店區"
"231023","KEA-2219","2018/08/23 13:19:26","新北市新店區安康路一段3-1號","121.534055","24.9606233333333","6500600","新店區"
"231026","256-BX","2018/08/23 13:19:30","新北市新店區安一路一段1-1號","121.519661666667","24.96115","6500600","新店區"
"231003","268-BY","2018/08/23 13:19:32","新北市新店區安華路30巷1號","121.519466666667","24.959825","6500600","新店區"
"231018","278-BY","2018/08/23 13:19:32","新北市新店區環河路111-10號","121.530655","24.970615","6500600","新店區"
"231017","AAD-862","2018/08/23 13:19:37","新北市新店區安康路一段11號","121.533308333333","24.9603983333333","6500600","新店區"
"231038","3712-VJ","2018/08/23 13:19:27","新北市新店區安華路28-1號","121.519211666667","24.9606783333333","6500600","新店區"
"231027","3713-VJ","2018/08/23 13:19:32","新北市新店區秀山路20號","121.53241","24.9604383333333","6500600","新店區"
"231037","4716-K9","2018/08/23 13:19:39","新北市新店區安華路28-1號","121.519628333333","24.9609883333333","6500600","新店區"
"231025","4715-K9","2018/08/23 13:19:38","新北市新店區中央五街55號","121.527751666667","24.9755316666667","6500600","新店區"
"231036","512-UM","2018/08/23 13:19:36","新北市新店區安一路一段1-1號","121.519248333333","24.96112","6500600","新店區"
"231013","513-UM","2018/08/23 13:19:25","新北市新店區安康路一段355號","121.519835","24.9630433333333","6500600","新店區"
"231006","617-UM","2018/08/23 13:19:26","新北市新店區安一路一段1-1號","121.519411666667","24.9610333333333","6500600","新店區"
"231030","619-UM","2018/08/23 13:19:33","新北市新店區安華路28-1號","121.519613333333","24.96079","6500600","新店區"
"231034","641-BX","2018/08/23 13:19:28","新北市新店區安華路28-1號","121.519618333333","24.9605166666667","6500600","新店區"
"231039","718-UY","2018/08/23 13:19:42","新北市新店區安康路一段146號","121.526453333333","24.9629183333333","6500600","新店區"
"231035","719-UM","2018/08/23 13:19:32","新北市新店區安一路一段1-1號","121.519536666667","24.9612866666667","6500600","新店區"
"231031","720-UM","2018/08/23 13:19:29","新北市新店區安一路一段1-1號","121.519295","24.9612483333333","6500600","新店區"
"231029","897-TW","2018/08/23 13:19:38","新北市新店區安華路28-1號","121.519561666667","24.9609283333333","6500600","新店區"
"231004","899-TW","2018/08/23 13:19:31","新北市新店區安華路28-1號","121.51919","24.9608716666667","6500600","新店區"
"231024","AKT-0513","2018/08/23 13:19:30","新北市新店區光明街143號","121.539395","24.962165","6500600","新店區"
"235030","003-UY","2018/08/23 13:19:27","新北市中和區水源路2號","121.502821666667","25.00348","6500300","中和區"
"235028","005-UY","2018/08/23 13:19:38","新北市中和區圓通路167巷27號","121.498336666667","24.99428","6500300","中和區"
"235020","096-UM","2018/08/23 13:19:34","新北市中和區中正路637巷52弄1號","121.485508333333","24.99362","6500300","中和區"
"235003","097-UM","2018/08/23 13:19:39","新北市中和區安平路59號","121.509658333333","24.994995","6500300","中和區"
"235029","098-UM","2018/08/23 13:19:35","新北市中和區莊敬路49巷20弄22號","121.502778333333","25.0059","6500300","中和區"
"235004","150-BY","2018/08/23 13:19:27","新北市中和區保健路50巷66號","121.509326666667","24.99515","6500300","中和區"
"235022","151-BY","2018/08/23 13:19:37","新北市中和區圓通路367巷2號","121.491278333333","24.98948","6500300","中和區"
"235019","183-VK","2018/08/23 13:19:39","新北市中和區員山路82巷6-3號","121.481308333333","24.9935866666667","6500300","中和區"
"235002","185-VK","2018/08/23 13:19:24","新北市中和區大智街42巷1號","121.52214","24.9920466666667","6500300","中和區"
"235013","186-VK","2018/08/23 13:19:42","新北市中和區中正路395號","121.489935","24.993555","6500300","中和區"
"235031","255-BX","2018/08/23 13:19:26","新北市中和區中正路803號","121.484985","25.00122","6500300","中和區"
"235036","301-VK","2018/08/23 13:19:26","新北市中和區連城路265巷1號","121.491393333333","24.9963466666667","6500300","中和區"
"235006","KEA-2878","2018/08/23 13:19:42","新北市中和區大仁街20巷25弄33號","121.519293333333","24.99363","6500300","中和區"
"235014","4979-A6","2018/08/23 13:19:21","新北市中和區中正路19號","121.50297","24.993335","6500300","中和區"
"235033","4980-A6","2018/08/23 13:19:31","新北市中和區中正路506號","121.48864","24.99449","6500300","中和區"
"235034","558-UM","2018/08/23 13:19:40","新北市中和區景平路614號","121.500546666667","24.9969116666667","6500300","中和區"
"235009","565-BX","2018/08/23 13:19:37","新北市中和區景安路202號","121.504145","24.9911066666667","6500300","中和區"
"235018","640-BX","2018/08/23 13:19:38","新北市中和區國光街112巷1弄5號","121.469451666667","25.0010133333333","6500300","中和區"
"235024","647-TV","2018/08/23 13:19:40","新北市中和區員山路36巷16-3號","121.484881666667","24.99153","6500300","中和區"
"235011","732-UM","2018/08/23 13:19:36","新北市中和區南山路300號","121.507921666667","24.9871066666667","6500300","中和區"
"235035","783-BX","2018/08/23 13:19:40","新北市中和區中板路20號","121.483876666667","25.01212","6500300","中和區"
"235026","800-TS","2018/08/23 13:19:25","新北市中和區景平路999巷1號","121.49545","25.0060166666667","6500300","中和區"
"235021","801-TS","2018/08/23 13:19:29","新北市中和區民安街111巷24弄7號","121.476346666667","24.99891","6500300","中和區"
"235005","802-TS","2018/08/23 13:19:39","新北市中和區中正路252號","121.495611666667","24.9940633333333","6500300","中和區"
"235012","896-TW","2018/08/23 13:19:40","新北市中和區錦和路350-1號","121.49053","24.9935833333333","6500300","中和區"
"235017","900-TW","2018/08/23 13:19:26","新北市中和區員山路36巷13號","121.484245","24.9907633333333","6500300","中和區"
"235015","157-BY","2018/08/23 13:19:31","新北市中和區忠孝街39-4號","121.511798333333","24.9839233333333","6500300","中和區"
"235001","AAC-213","2018/08/23 13:19:25","新北市中和區景德街67號","121.516943333333","24.991455","6500300","中和區"
"235023","AAC-215","2018/08/23 13:19:26","新北市中和區員山路36巷16-2號","121.485193333333","24.9913566666667","6500300","中和區"
"220013","072-UY","2018/08/23 13:19:26","新北市板橋區華東街1-9號","121.448146666667","24.994925","6500100","板橋區"
"247007","056-VK","2018/08/23 13:19:18","新北市五股區中興路三段2巷10號","121.449143333333","25.0810533333333","6501400","蘆洲區"
"247015","007-UY","2018/08/23 13:19:35","新北市五股區中興路三段2巷10號","121.449318333333","25.0808633333333","6501400","蘆洲區"
"228005","097-TW","2018/08/23 13:19:42","新北市貢寮區美豐里丹裡街51-9號","121.912423333333","25.0572816666667","6502600","貢寮區"
"228004","212-TW","2018/08/23 13:19:23","新北市貢寮區吉林里內寮街21號","121.901088333333","24.9832433333333","6502600","貢寮區"
"253003","6232-TK","2018/08/23 13:19:37","新北市石門區內石門89-2號","121.566766666667","25.2661366666667","6502200","石門區"
"253001","6251-TK","2018/08/23 13:19:34","新北市石門區楓林9號","121.537266666667","25.2948","6502200","石門區"
"253002","637-UY","2018/08/23 13:19:25","新北市石門區九芎林23號","121.554438333333","25.2682733333333","6502200","石門區"
"253004","8270-PC","2018/08/23 13:19:32","新北市石門區阿里荖67號","121.609446666667","25.2719666666667","6502200","石門區"
"207002","749-BX","2018/08/23 13:19:35","新北市萬里區崁腳里崁腳路166號","121.645035","25.15583","6502800","萬里區"
"207001","662-BX","2018/08/23 13:19:44","新北市萬里區龜吼里玉田路50號","121.681285","25.1940866666667","6502800","萬里區"
"252005","AAC-283","2018/08/23 13:19:36","新北市三芝區八賢里八連溪78號","121.519455","25.2296766666667","6502100","三芝區"
"237001","159-UY","2018/08/23 13:19:27","新北市三峽區學勤路30號","121.374141666667","24.9457816666667","6500900","三峽區"
"236005","498-BY","2018/08/23 13:19:32","新北市土城區亞洲路9號","121.434323333333","24.9723666666667","6501300","土城區"
"221010","269-BY","2018/08/23 13:19:33","新北市汐止區康寧街143號","121.62143","25.0665583333333","6501100","汐止區"
"221032","280-BY","2018/08/23 13:19:31","新北市汐止區龍安路179號","121.652995","25.0631116666667","6501100","汐止區"
"221027","281-BY","2018/08/23 13:19:09","新北市汐止區大安街52巷12號","121.679066666667","25.0733983333333","6501100","汐止區"
"220025","687-BX","2018/08/23 13:19:43","新北市板橋區華東街1-10號","121.448285","24.9949383333333","6500100","板橋區"
"220021","985-R7","2018/08/23 13:19:24","新北市板橋區華東街1-10號","121.448285","24.9949383333333","6500100","板橋區"
"235032","KEA-2873","2018/08/23 13:19:20","新北市中和區員山路36巷16-3號","121.485071666667","24.9913366666667","6500300","中和區"
"235025","KEA-2875","2018/08/23 13:19:18","新北市中和區民享街116巷8號","121.474038333333","24.9988783333333","6500300","中和區"
