"lineid","car","time","location","longitude","latitude","cityid","cityname"
"234044","148-BY","2018/08/23 13:49:31","新北市永和區永利路125號","121.524118333333","25.002845","6500400","永和區"
"234070","149-BY","2018/08/23 13:49:43","新北市永和區民治街95號","121.517163333333","24.9983933333333","6500400","永和區"
"234005","207-UY","2018/08/23 13:49:36","新北市永和區中和路625號","121.513038333333","25.004935","6500400","永和區"
"234078","298-R6","2018/08/23 13:49:42","新北市永和區永亨路112號","121.523646666667","25.0042916666667","6500400","永和區"
"234036","336-UY","2018/08/23 13:49:35","新北市永和區民樂街39巷18弄44號","121.528398333333","24.9989","6500400","永和區"
"234062","337-UY","2018/08/23 13:49:24","新北市永和區中正路368巷4號","121.517976666667","25.000835","6500400","永和區"
"234084","338-UY","2018/08/23 13:49:43","新北市永和區永利路24號","121.518171666667","25.0057733333333","6500400","永和區"
"234068","552-UM","2018/08/23 13:49:40","新北市永和區竹林路62號","121.518235","25.0135866666667","6500400","永和區"
"234015","745-BX","2018/08/23 13:49:38","新北市永和區文化路29號","121.514923333333","25.0149833333333","6500400","永和區"
"234028","746-BX","2018/08/23 13:49:41","新北市永和區民生路47巷5號","121.523186666667","24.9978333333333","6500400","永和區"
"234052","KEA-2590","2018/08/23 13:49:40","新北市永和區竹林路39巷28弄7號","121.51951","25.0145933333333","6500400","永和區"
"234012","KEA-2591","2018/08/23 13:49:46","新北市永和區永平路282號","121.50772","25.0118833333333","6500400","永和區"
"234060","AAD-866","2018/08/23 13:49:43","新北市中和區安樂路125號","121.514045","24.9960266666667","6500400","永和區"
"234040","862-TW","2018/08/23 13:49:34","新北市永和區中和路389巷51-1號","121.507905","25.002125","6500400","永和區"
"234048","863-TW","2018/08/23 13:49:38","新北市永和區保安路77號","121.508608333333","25.0149183333333","6500400","永和區"
"234010","9373-KE","2018/08/23 13:49:24","新北市中和區中山路二段2巷41號","121.502678333333","25.00728","6500400","永和區"
"248015","026-BX","2018/08/23 13:49:29","新北市五股區凌雲路一段149巷13-1號","121.4486","25.1008733333333","6501500","五股區"
"248005","077-UY","2018/08/23 13:49:25","新北市五股區四維路112號","121.467846666667","25.0739533333333","6501500","五股區"
"248017","225-UY","2018/08/23 13:49:19","新北市五股區民義路二段22巷30-1號","121.4239","25.0992383333333","6501500","五股區"
"248011","247-BX","2018/08/23 13:49:36","新北市五股區成泰路二段195巷1號","121.440326666667","25.08735","6501500","五股區"
"248003","677-BX","2018/08/23 13:49:43","新北市五股區民義路二段52-25號","121.409713333333","25.1050033333333","6501500","五股區"
"248001","678-BX","2018/08/23 13:49:30","新北市五股區成泰路三段454號","121.451425","25.100345","6501500","五股區"
"248009","682-TV","2018/08/23 13:49:44","新北市五股區水碓九路16號","121.427955","25.071495","6501500","五股區"
"234022","9380-KE","2018/08/23 13:49:30","新北市永和區復興街16巷2號","121.515568333333","25.0126816666667","6500400","永和區"
"234076","969-R7","2018/08/23 13:49:34","新北市永和區民族街35-1號","121.518755","24.99905","6500400","永和區"
"234072","AAC-211","2018/08/23 13:49:39","新北市永和區豫溪街162巷1號","121.523743333333","25.00953","6500400","永和區"
"234066","AAC-212","2018/08/23 13:49:42","新北市永和區保平路236巷25-2號","121.508168333333","25.0067483333333","6500400","永和區"
"234001","AAC-295","2018/08/23 13:49:23","新北市永和區永和路一段13號","121.51289","25.0054516666667","6500400","永和區"
"243005","AAD-798","2018/08/23 13:26:33","新北市泰山區明志路三段206巷3號","121.423336666667","25.03797","6501600","泰山區"
"243008","KEA-2801","2018/08/23 13:49:27","新北市泰山區明志路二段135號","121.427695","25.0507633333333","6501600","泰山區"
"243007","421-VK","2018/08/23 13:49:31","新北市泰山區美寧街50號","121.430546666667","25.0644733333333","6501600","泰山區"
"243003","KEA-2215","2018/08/23 13:49:35","新北市泰山區明志路二段214巷16弄2號","121.426873333333","25.0490383333333","6501600","泰山區"
"243002","KEA-2216","2018/08/23 13:49:33","新北市泰山區公園路54號","121.427776666667","25.0549383333333","6501600","泰山區"
"243004","646-TV","2018/08/23 13:49:34","新北市泰山區福興三街11號","121.434516666667","25.057695","6501600","泰山區"
"231002","002-UM","2018/08/23 13:49:24","新北市新店區溪園路393號","121.524303333333","24.9790383333333","6500600","新店區"
"231028","046-UY","2018/08/23 13:49:45","新北市新店區安和路二段218-1號","121.517951666667","24.97521","6500600","新店區"
"231001","047-UY","2018/08/23 13:49:30","新北市新店區三民路108號","121.534155","24.97404","6500600","新店區"
"231005","106-UY","2018/08/23 13:49:30","新北市新店區寶中路121-1號","121.549635","24.9794366666667","6500600","新店區"
"231010","107-UY","2018/08/23 13:49:37","新北市新店區平等街46巷1號","121.536328333333","24.9731516666667","6500600","新店區"
"231021","108-UY","2018/08/23 13:49:37","新北市新店區永興路132-3號","121.544758333333","24.9317033333333","6500600","新店區"
"231011","187-VK","2018/08/23 13:49:35","新北市新店區德正街27巷29弄68號","121.545808333333","24.9731383333333","6500600","新店區"
"231023","KEA-2219","2018/08/23 13:49:25","新北市新店區國校路51巷1號","121.538126666667","24.9546966666667","6500600","新店區"
"231026","256-BX","2018/08/23 13:49:30","新北市新店區自由街27-1號","121.53513","24.9741916666667","6500600","新店區"
"231003","268-BY","2018/08/23 13:49:32","新北市新店區大新街9巷28號","121.544366666667","24.966775","6500600","新店區"
"231018","278-BY","2018/08/23 13:49:32","新北市新店區中正路399巷12號","121.534125","24.977105","6500600","新店區"
"231017","AAD-862","2018/08/23 13:49:37","新北市新店區竹林路72巷15號","121.554123333333","24.9506633333333","6500600","新店區"
"231038","3712-VJ","2018/08/23 13:49:27","新北市新店區安華路28-1號","121.519208333333","24.9606516666667","6500600","新店區"
"231027","3713-VJ","2018/08/23 13:49:32","新北市新店區中興路一段24-2號","121.538561666667","24.9581933333333","6500600","新店區"
"231037","4716-K9","2018/08/23 13:49:39","新北市新店區安康路三段359巷12弄2號","121.484475","24.9502133333333","6500600","新店區"
"231025","4715-K9","2018/08/23 13:49:44","新北市新店區中正路277號","121.537613333333","24.9743866666667","6500600","新店區"
"231036","512-UM","2018/08/23 13:49:39","新北市新店區安祥路145巷27號","121.475376666667","24.9564666666667","6500600","新店區"
"231013","513-UM","2018/08/23 13:49:25","新北市新店區二十張路25巷16號","121.539128333333","24.9821","6500600","新店區"
"231006","617-UM","2018/08/23 13:49:34","新北市新店區北宜路一段206號","121.543648333333","24.95305","6500600","新店區"
"231030","619-UM","2018/08/23 13:49:38","新北市新店區安康路一段44號","121.530675","24.9610416666667","6500600","新店區"
"231034","641-BX","2018/08/23 13:49:28","新北市新店區達觀路14巷2號","121.503556666667","24.9410583333333","6500600","新店區"
"231039","718-UY","2018/08/23 13:49:42","新北市新店區建國路40號","121.540548333333","24.9747633333333","6500600","新店區"
"231035","719-UM","2018/08/23 13:49:32","新北市新店區安忠路57巷26弄3號","121.513158333333","24.9586733333333","6500600","新店區"
"231031","720-UM","2018/08/23 13:49:29","新北市新店區莒光路44巷21弄11-3號","121.518538333333","24.9521266666667","6500600","新店區"
"231029","897-TW","2018/08/23 13:49:38","新北市新店區安康路二段125-1號","121.512395","24.9609","6500600","新店區"
"231004","899-TW","2018/08/23 13:49:31","新北市新店區寶橋路98號","121.546921666667","24.9759566666667","6500600","新店區"
"231024","AKT-0513","2018/08/23 13:49:30","新北市新店區北新路一段271巷8號","121.54043","24.966905","6500600","新店區"
"235030","003-UY","2018/08/23 13:49:44","新北市中和區光華街32號","121.504796666667","25.0040533333333","6500300","中和區"
"235028","005-UY","2018/08/23 13:49:38","新北市中和區泰和街20號","121.49969","25.00073","6500300","中和區"
"235027","006-UY","2018/08/23 13:49:40","新北市中和區連城路389巷10弄4號","121.486228333333","24.9956716666667","6500300","中和區"
"235020","096-UM","2018/08/23 13:49:34","新北市中和區立德街329號","121.481546666667","25.0104733333333","6500300","中和區"
"235003","097-UM","2018/08/23 13:49:39","新北市中和區自強路29號","121.52082","24.9927616666667","6500300","中和區"
"235029","098-UM","2018/08/23 13:49:35","新北市中和區勝利路35巷3弄15號","121.499653333333","25.00735","6500300","中和區"
"235004","150-BY","2018/08/23 13:49:26","新北市中和區保健路48巷56號","121.50925","24.99596","6500300","中和區"
"235022","151-BY","2018/08/23 13:49:37","新北市中和區連城路518巷2號","121.476626666667","24.9925633333333","6500300","中和區"
"235019","183-VK","2018/08/23 13:49:39","新北市中和區民生街93-2號","121.468576666667","25.0047033333333","6500300","中和區"
"235002","185-VK","2018/08/23 13:49:44","新北市中和區大勇街72號","121.518123333333","24.9947216666667","6500300","中和區"
"235013","186-VK","2018/08/23 13:49:22","新北市中和區景安路177巷36號","121.506968333333","24.9945133333333","6500300","中和區"
"235031","255-BX","2018/08/23 13:49:46","新北市中和區新生街242巷3-1號","121.48332","24.997855","6500300","中和區"
"235008","293-VK","2018/08/23 13:49:07","新北市中和區中興街121號","121.499933333333","24.9918783333333","6500300","中和區"
"235036","301-VK","2018/08/23 13:49:46","新北市中和區中山路二段201號","121.499838333333","25.002705","6500300","中和區"
"235043","352-BY","2018/08/23 13:49:39","新北市中和區成功路139號","121.525931666667","24.9900083333333","6500300","中和區"
"235006","KEA-2878","2018/08/23 13:49:36","新北市中和區秀朗路三段84號","121.525846666667","24.99386","6500300","中和區"
"235014","4979-A6","2018/08/23 13:49:41","新北市中和區忠孝街62巷46號","121.51316","24.9839033333333","6500300","中和區"
"235033","4980-A6","2018/08/23 13:49:31","新北市中和區南山路67號","121.502091666667","24.998265","6500300","中和區"
"235034","558-UM","2018/08/23 13:49:40","新北市中和區中和路102號","121.502755","24.9998183333333","6500300","中和區"
"235009","565-BX","2018/08/23 13:49:24","新北市中和區興南路一段86號","121.50995","24.9893033333333","6500300","中和區"
"235018","640-BX","2018/08/23 13:49:38","新北市中和區民享街57號","121.474103333333","25.0024783333333","6500300","中和區"
"235024","647-TV","2018/08/23 13:49:40","新北市中和區中山路三段116號","121.476078333333","25.0059316666667","6500300","中和區"
"235011","732-UM","2018/08/23 13:49:36","新北市中和區興南路二段34巷28弄2號","121.505008333333","24.9864633333333","6500300","中和區"
"235010","733-UM","2018/08/23 13:49:39","新北市中和區仁愛街36巷30號","121.511036666667","24.9868883333333","6500300","中和區"
"235035","783-BX","2018/08/23 13:49:39","新北市中和區中山路二段482巷10號","121.488493333333","25.00613","6500300","中和區"
"235026","800-TS","2018/08/23 13:49:40","新北市中和區景平路701號","121.496366666667","25.003465","6500300","中和區"
"235021","801-TS","2018/08/23 13:49:37","新北市中和區民安街38號","121.480073333333","25.0004316666667","6500300","中和區"
"235005","802-TS","2018/08/23 13:49:39","新北市中和區中和路458巷8號","121.512356666667","25.0036416666667","6500300","中和區"
"235016","805-TS","2018/08/23 13:49:34","新北市中和區興南路三段1號","121.498286666667","24.9797383333333","6500300","中和區"
"235012","896-TW","2018/08/23 13:49:40","新北市中和區南山路234號","121.506715","24.9900283333333","6500300","中和區"
"235017","900-TW","2018/08/23 13:49:26","新北市中和區華福街14號","121.465683333333","24.9967283333333","6500300","中和區"
"235015","157-BY","2018/08/23 13:49:31","新北市中和區忠孝街106巷45號","121.513755","24.9843166666667","6500300","中和區"
"235001","AAC-213","2018/08/23 13:49:25","新北市中和區秀朗路三段128巷2號","121.524721666667","24.9923933333333","6500300","中和區"
"235023","AAC-215","2018/08/23 13:49:26","新北市中和區圓通路393巷18號","121.489828333333","24.9885816666667","6500300","中和區"
"220013","072-UY","2018/08/23 13:49:26","新北市板橋區民族路247巷5弄42號","121.470265","25.0085166666667","6500100","板橋區"
"220034","073-UY","2018/08/23 13:49:37","新北市板橋區大智街10號","121.456085","25.0148283333333","6500100","板橋區"
"220105","075-UY","2018/08/23 13:49:40","新北市板橋區民生路二段120號","121.470371666667","25.01966","6500100","板橋區"
"220017","AAD-861","2018/08/23 13:49:40","新北市板橋區大華街11號","121.458948333333","25.0062","6500100","板橋區"
"247003","337-TH","2018/08/23 13:49:28","新北市蘆洲區中原路32號","121.460056666667","25.082735","6501400","蘆洲區"
"247005","336-TH","2018/08/23 13:49:37","新北市蘆洲區中山二路301號","121.46919","25.078675","6501400","蘆洲區"
"247007","056-VK","2018/08/23 13:49:38","新北市蘆洲區集賢路269巷10號","121.4816","25.0835933333333","6501400","蘆洲區"
"247015","007-UY","2018/08/23 13:49:35","新北市蘆洲區三民路341-7號","121.46411","25.0912","6501400","蘆洲區"
"247019","001-UY","2018/08/23 13:49:27","新北市蘆洲區民族路408巷46號","121.474876666667","25.0931583333333","6501400","蘆洲區"
"228005","097-TW","2018/08/23 13:49:33","新北市雙溪區三港里雙澳路100號","121.88946","25.0560566666667","6502600","貢寮區"
"228004","212-TW","2018/08/23 13:49:42","新北市貢寮區龍崗里嵩陽街46號","121.904708333333","25.013395","6502600","貢寮區"
"253003","6232-TK","2018/08/23 13:49:36","新北市石門區尖子鹿10號","121.574825","25.2804183333333","6502200","石門區"
"253001","6251-TK","2018/08/23 13:49:33","新北市石門區下員坑23號","121.51339","25.2761566666667","6502200","石門區"
"253002","637-UY","2018/08/23 13:49:25","新北市石門區尖山湖13號","121.56324","25.2421366666667","6502200","石門區"
"253004","8270-PC","2018/08/23 13:49:32","新北市石門區阿里荖60-1號","121.607706666667","25.2699566666667","6502200","石門區"
"207002","749-BX","2018/08/23 13:49:35","新北市萬里區崁腳里崁腳路166號","121.645071666667","25.1558233333333","6502800","萬里區"
"207001","662-BX","2018/08/23 13:49:24","新北市萬里區磺潭里公館崙42號","121.630766666667","25.2082183333333","6502800","萬里區"
"252005","AAC-283","2018/08/23 13:49:36","新北市三芝區圓山里二坪頂46號","121.540058333333","25.2291766666667","6502100","三芝區"
"236068","105-UM","2018/08/23 13:49:27","新北市土城區城林路6巷80號","121.438675","24.9796766666667","6501300","土城區"
"236040","107-UM","2018/08/23 13:49:34","新北市土城區城林路6巷80號","121.438385","24.9795433333333","6501300","土城區"
"236074","166-UM","2018/08/23 13:49:39","新北市土城區中央路三段134-1號","121.433378333333","24.96558","6501300","土城區"
"236029","253-BX","2018/08/23 13:49:37","新北市土城區員福街36號","121.441048333333","24.9788166666667","6501300","土城區"
"236032","271-VK","2018/08/23 13:49:24","新北市土城區城林路6巷80號","121.438518333333","24.9797633333333","6501300","土城區"
"236017","401-BY","2018/08/23 13:49:33","新北市土城區城林路6巷80號","121.43856","24.9798066666667","6501300","土城區"
"236005","498-BY","2018/08/23 13:49:32","新北市土城區中華路二段99巷2號","121.43929","24.9775183333333","6501300","土城區"
"236057","912-UM","2018/08/23 13:49:42","新北市土城區中華路二段196號","121.437431666667","24.9703883333333","6501300","土城區"
"236060","915-UM","2018/08/23 13:49:26","新北市土城區城林路6巷80號","121.438475","24.9797633333333","6501300","土城區"
"236054","AAC-216","2018/08/23 13:49:37","新北市土城區城林路6巷80號","121.43836","24.979795","6501300","土城區"
"221010","269-BY","2018/08/23 13:49:33","新北市汐止區八連路一段227-1號","121.640535","25.082015","6501100","汐止區"
"221032","280-BY","2018/08/23 13:49:31","新北市汐止區汐萬路一段210號","121.652011666667","25.0723983333333","6501100","汐止區"
"220027","145-BY","2018/08/23 13:49:36","新北市板橋區大智街71巷42弄16號","121.45224","25.0147716666667","6500100","板橋區"
"220028","200-UY","2018/08/23 13:49:41","新北市板橋區大觀路二段265巷60弄14號","121.442158333333","24.9979783333333","6500100","板橋區"
"220030","610-BX","2018/08/23 13:49:40","新北市板橋區篤行路三段15號","121.429011666667","24.9873083333333","6500100","板橋區"
"220064","259-TC","2018/08/23 13:49:38","新北市板橋區四川路二段130巷71號","121.44967","24.9953266666667","6500100","板橋區"
"220004","276-BY","2018/08/23 13:49:32","新北市板橋區四川路二段23-3號","121.454585","24.99558","6500100","板橋區"
"220020","277-BY","2018/08/23 13:49:28","新北市板橋區大觀路三段63-2號","121.433543333333","24.9952316666667","6500100","板橋區"
"220019","283-VK","2018/08/23 13:49:34","新北市板橋區重慶路245巷62號","121.4654","25.0009583333333","6500100","板橋區"
"220043","285-UM","2018/08/23 13:49:35","新北市板橋區民生路二段161巷5號","121.47024","25.01977","6500100","板橋區"
"220001","285-VK","2018/08/23 13:49:32","新北市板橋區民生路二段89-6號","121.470665","25.0190216666667","6500100","板橋區"
"220031","286-VK","2018/08/23 13:49:39","新北市板橋區僑中二街98號","121.446215","25.0085283333333","6500100","板橋區"
"220029","287-VK","2018/08/23 13:49:31","新北市板橋區南雅西路二段92號","121.452436666667","25.01122","6500100","板橋區"
"220039","288-VK","2018/08/23 13:49:40","新北市板橋區民生路二段120號","121.4703","25.0198666666667","6500100","板橋區"
"220009","295-UM","2018/08/23 13:49:26","新北市板橋區民生路二段121號","121.470756666667","25.0184233333333","6500100","板橋區"
"220032","296-UM","2018/08/23 13:49:42","新北市板橋區大觀路二段152號","121.441743333333","24.9988583333333","6500100","板橋區"
"220041","299-UM","2018/08/23 13:49:35","新北市板橋區民生路二段120號","121.470473333333","25.02017","6500100","板橋區"
"220023","303-R5","2018/08/23 13:49:40","新北市板橋區南興路38號","121.454603333333","25.007535","6500100","板橋區"
"220047","317-R6","2018/08/23 13:49:37","新北市板橋區民生路二段161巷1號","121.470145","25.0198933333333","6500100","板橋區"
"220012","486-VK","2018/08/23 13:49:34","新北市板橋區民生路二段36-1號","121.472128333333","25.0167816666667","6500100","板橋區"
"220037","491-VK","2018/08/23 13:49:30","新北市板橋區民生路二段171號","121.46981","25.020105","6500100","板橋區"
"220104","560-BX","2018/08/23 13:49:41","新北市板橋區中正路325巷3弄5號","121.453736666667","25.019","6500100","板橋區"
"220052","561-BX","2018/08/23 13:49:24","新北市板橋區民生路二段120號","121.470903333333","25.0193666666667","6500100","板橋區"
"220040","637-BX","2018/08/23 13:49:36","新北市板橋區民生路二段161巷1號","121.470018333333","25.01989","6500100","板橋區"
"220005","686-BX","2018/08/23 13:49:42","新北市板橋區館前西路4-1號","121.459276666667","25.0070933333333","6500100","板橋區"
"220025","687-BX","2018/08/23 13:49:43","新北市板橋區金門街86-2號","121.433158333333","24.9927366666667","6500100","板橋區"
"220042","689-BX","2018/08/23 13:49:28","新北市板橋區民生路二段188號","121.470181666667","25.0203216666667","6500100","板橋區"
"220002","741-BX","2018/08/23 13:49:39","新北市板橋區館前東路7號","121.45978","25.007135","6500100","板橋區"
"220051","KEA-2699","2018/08/23 13:49:41","新北市板橋區民生路二段161巷1號","121.470201666667","25.0201583333333","6500100","板橋區"
"220003","827-TW","2018/08/23 13:49:23","新北市板橋區中山路一段160-6號","121.466336666667","25.0122383333333","6500100","板橋區"
"220014","829-TW","2018/08/23 13:49:33","新北市板橋區三民路二段正隆巷50號","121.476855","25.0140266666667","6500100","板橋區"
"220038","833-TW","2018/08/23 13:49:38","新北市板橋區民生路二段177號","121.469898333333","25.0203466666667","6500100","板橋區"
"220022","895-R6","2018/08/23 13:49:35","新北市板橋區府中路63號","121.458188333333","25.0092816666667","6500100","板橋區"
"220021","985-R7","2018/08/23 13:49:24","新北市板橋區府中路75號","121.457565","25.0094633333333","6500100","板橋區"
"220018","AAC-253","2018/08/23 13:49:45","新北市板橋區四川路一段107-3號","121.459875","25.0051083333333","6500100","板橋區"
"235032","KEA-2873","2018/08/23 13:49:20","新北市中和區圓通路162巷2弄1號","121.497113333333","24.9953783333333","6500300","中和區"
"235025","KEA-2875","2018/08/23 13:49:18","新北市中和區民治街132巷8號","121.474971666667","25.002355","6500300","中和區"
