"lineid","car","time","location","longitude","latitude","cityid","cityname"
"234070","149-BY","2018/08/23 14:39:43","新北市八里區中山路三段409號","121.36864","25.135625","6500400","永和區"
"234005","207-UY","2018/08/23 14:39:36","新北市永和區中正路346號","121.5178","25.000365","6500400","永和區"
"234078","298-R6","2018/08/23 14:39:48","新北市永和區永貞路84號","121.52004","25.0049216666667","6500400","永和區"
"234062","337-UY","2018/08/23 14:39:44","新北市永和區環河西路二段247號","121.49987","25.0094166666667","6500400","永和區"
"234028","746-BX","2018/08/23 14:39:41","新北市永和區民族街67巷25號","121.51936","24.99721","6500400","永和區"
"234052","KEA-2590","2018/08/23 14:39:35","新北市永和區光復街31-1號","121.516338333333","25.0179616666667","6500400","永和區"
"234048","863-TW","2018/08/23 14:39:38","新北市永和區保安路73號","121.508768333333","25.0150016666667","6500400","永和區"
"234025","9371-KE","2018/08/23 14:39:39","新北市永和區中和路501巷5號","121.510485","25.0025966666667","6500400","永和區"
"248015","026-BX","2018/08/23 14:39:49","新北市五股區成泰路四段24-5號","121.453615","25.10678","6501500","五股區"
"248017","225-UY","2018/08/23 14:20:39","新北市五股區壟路19號","121.413053333333","25.0850766666667","6501500","五股區"
"248011","247-BX","2018/08/23 14:39:36","新北市五股區民義路一段112-10號","121.435336666667","25.08525","6501500","五股區"
"248013","261-SL","2018/08/23 14:39:49","新北市五股區五福路52巷6號","121.433995","25.089885","6501500","五股區"
"248003","677-BX","2018/08/23 14:39:46","新北市五股區成泰路二段26號","121.437003333333","25.0811833333333","6501500","五股區"
"248001","678-BX","2018/08/23 14:39:50","新北市五股區成泰路三段314號","121.449098333333","25.096005","6501500","五股區"
"248009","682-TV","2018/08/23 14:39:38","新北市五股區登林路貿商巷1弄9號","121.429635","25.0696333333333","6501500","五股區"
"234072","AAC-211","2018/08/23 14:39:50","新北市永和區環河東路二段30號","121.52256","25.012715","6500400","永和區"
"234001","AAC-295","2018/08/23 14:39:43","新北市永和區中正路545號","121.516851666667","25.0080333333333","6500400","永和區"
"244003","248-BX","2018/08/23 14:39:33","新北市林口區瑞平里33-1號","121.348313333333","25.1288166666667","6501700","林口區"
"243005","AAD-798","2018/08/23 14:33:10","新北市泰山區應化街13號","121.423785","25.0436466666667","6501600","泰山區"
"243001","297-R6","2018/08/23 14:39:46","新北市泰山區楓江路16巷11號","121.433953333333","25.0617966666667","6501600","泰山區"
"243008","KEA-2801","2018/08/23 14:39:47","新北市泰山區明志路三段521號","121.42113","25.03144","6501600","泰山區"
"243007","421-VK","2018/08/23 14:39:31","新北市泰山區明志路二段214巷16弄2號","121.426845","25.0491883333333","6501600","泰山區"
"243003","KEA-2215","2018/08/23 14:39:35","新北市泰山區台麗街20號","121.424996666667","25.0379383333333","6501600","泰山區"
"243002","KEA-2216","2018/08/23 14:39:44","新北市泰山區明志路二段136巷19號","121.426206666667","25.0518483333333","6501600","泰山區"
"243004","646-TV","2018/08/23 14:39:34","新北市泰山區全興路3號","121.432163333333","25.059335","6501600","泰山區"
"243006","680-BX","2018/08/23 14:39:44","新北市泰山區泰林路二段33-2號","121.43565","25.056665","6501600","泰山區"
"231002","002-UM","2018/08/23 14:39:44","新北市新店區中正路420號","121.534266666667","24.9779866666667","6500600","新店區"
"231028","046-UY","2018/08/23 14:39:37","新北市新店區安成街22-1號","121.5103","24.960795","6500600","新店區"
"231001","047-UY","2018/08/23 14:39:30","新北市新店區中正路6號","121.545673333333","24.96945","6500600","新店區"
"231005","106-UY","2018/08/23 14:39:50","新北市新店區順安街25號","121.540803333333","24.98571","6500600","新店區"
"231021","108-UY","2018/08/23 14:39:36","新北市新店區桂山路51巷6-1號","121.561988333333","24.90155","6500600","新店區"
"231011","187-VK","2018/08/23 14:39:34","新北市新店區寶宏路2號","121.54911","24.9769466666667","6500600","新店區"
"231023","KEA-2219","2018/08/23 14:39:45","新北市新店區檳榔路40號","121.541538333333","24.96374","6500600","新店區"
"231003","268-BY","2018/08/23 14:39:31","新北市新店區中興路一段283號","121.545323333333","24.96844","6500600","新店區"
"231018","278-BY","2018/08/23 14:39:32","新北市新店區中央五街22號","121.529378333333","24.9744766666667","6500600","新店區"
"231017","AAD-862","2018/08/23 14:39:37","新北市新店區北宜路三段221號","121.59238","24.9532583333333","6500600","新店區"
"231038","3712-VJ","2018/08/23 14:39:47","新北市新店區安康路一段76巷34-1號","121.52855","24.9633916666667","6500600","新店區"
"231027","3713-VJ","2018/08/23 14:39:32","新北市新店區中正路334巷7號","121.536923333333","24.97537","6500600","新店區"
"231037","4716-K9","2018/08/23 14:39:48","新北市新店區柴埕路52巷12號","121.511791666667","24.9647666666667","6500600","新店區"
"231036","512-UM","2018/08/23 14:39:36","新北市新店區安祥路106-2號","121.478403333333","24.9618866666667","6500600","新店區"
"231013","513-UM","2018/08/23 14:39:46","新北市新店區建國路116號","121.539328333333","24.9785083333333","6500600","新店區"
"231006","617-UM","2018/08/23 14:39:46","新北市新店區北宜路二段105號","121.550393333333","24.9527216666667","6500600","新店區"
"231030","619-UM","2018/08/23 14:39:33","新北市新店區安民街189號","121.516846666667","24.9709383333333","6500600","新店區"
"231034","641-BX","2018/08/23 14:39:47","新北市新店區黎明路53巷1號","121.502328333333","24.9487366666667","6500600","新店區"
"231035","719-UM","2018/08/23 14:32:13","新北市新店區吉安街21號","121.516151666667","24.96587","6500600","新店區"
"231029","897-TW","2018/08/23 14:39:38","新北市新店區安康路三段511號","121.482168333333","24.94898","6500600","新店區"
"231004","899-TW","2018/08/23 14:39:35","新北市新店區中正路283號","121.53743","24.9744883333333","6500600","新店區"
"231024","AKT-0513","2018/08/23 14:39:30","新北市新店區北新路一段235號","121.540515","24.96569","6500600","新店區"
"235030","003-UY","2018/08/23 14:39:47","新北市中和區景新街137號","121.50611","24.9970433333333","6500300","中和區"
"235028","005-UY","2018/08/23 14:39:38","新北市中和區南華路42號","121.50367","24.996455","6500300","中和區"
"235027","006-UY","2018/08/23 14:39:40","新北市中和區連城路171巷41弄1號","121.496138333333","24.996525","6500300","中和區"
"235020","096-UM","2018/08/23 14:39:34","新北市中和區員山路581巷31弄29號","121.476558333333","25.010295","6500300","中和區"
"235003","097-UM","2018/08/23 14:39:39","新北市中和區安平路186號","121.512931666667","24.9989833333333","6500300","中和區"
"235029","098-UM","2018/08/23 14:39:35","新北市中和區永和路39巷2號","121.498073333333","25.0050483333333","6500300","中和區"
"235004","150-BY","2018/08/23 14:39:47","新北市中和區宜安路13號","121.513115","24.9954633333333","6500300","中和區"
"235022","151-BY","2018/08/23 14:39:45","新北市中和區員山路130號","121.481128333333","24.9962833333333","6500300","中和區"
"235019","183-VK","2018/08/23 14:39:38","新北市中和區民生街46號","121.469516666667","25.0052583333333","6500300","中和區"
"235002","185-VK","2018/08/23 14:39:44","新北市中和區自立路20巷9號","121.52181","24.9933266666667","6500300","中和區"
"235013","186-VK","2018/08/23 14:39:42","新北市中和區景平路419-1號","121.501848333333","24.9951","6500300","中和區"
"235031","255-BX","2018/08/23 14:39:46","新北市中和區員山路148巷23弄60號","121.482283333333","24.99805","6500300","中和區"
"235008","293-VK","2018/08/23 14:39:47","新北市中和區興南路一段107號","121.509418333333","24.9881416666667","6500300","中和區"
"235036","301-VK","2018/08/23 14:39:46","新北市中和區中山路二段3巷22弄19號","121.506095","25.004455","6500300","中和區"
"235007","352-BY","2018/08/23 14:39:39","新北市中和區南華路19號","121.502855","24.9958533333333","6500300","中和區"
"235006","KEA-2878","2018/08/23 14:39:42","新北市中和區保健路2巷4號","121.50772","24.99823","6500300","中和區"
"247009","KEA-2869","2018/08/23 14:39:40","新北市蘆洲區信義路222巷35號","121.480136666667","25.08561","6501400","蘆洲區"
"235014","4979-A6","2018/08/23 14:39:41","新北市中和區中正路637巷52弄1號","121.485353333333","24.9935366666667","6500300","中和區"
"235034","558-UM","2018/08/23 14:39:40","新北市中和區連城路127巷35號","121.497548333333","24.9971916666667","6500300","中和區"
"235009","565-BX","2018/08/23 14:39:44","新北市中和區景平路316號","121.512365","24.99287","6500300","中和區"
"235018","640-BX","2018/08/23 14:39:38","新北市中和區德光路82號","121.469005","25.0036833333333","6500300","中和區"
"235024","647-TV","2018/08/23 14:39:40","新北市中和區中山路二段523巷10弄2號","121.481573333333","25.0045616666667","6500300","中和區"
"235011","732-UM","2018/08/23 14:39:36","新北市中和區和平街3-2號","121.509673333333","24.9900533333333","6500300","中和區"
"235010","733-UM","2018/08/23 14:39:39","新北市中和區忠孝街144號","121.51249","24.987125","6500300","中和區"
"235035","783-BX","2018/08/23 14:39:39","新北市中和區建一路152號","121.487865","24.99835","6500300","中和區"
"235026","800-TS","2018/08/23 14:39:45","新北市中和區中山路二段526巷21號","121.485803333333","25.0056516666667","6500300","中和區"
"235021","801-TS","2018/08/23 14:39:49","新北市中和區員山路176號","121.481376666667","25.0000566666667","6500300","中和區"
"235005","802-TS","2018/08/23 14:39:39","新北市中和區景安路2號","121.507833333333","24.9990716666667","6500300","中和區"
"235016","805-TS","2018/08/23 14:39:48","新北市中和區華新街206巷20號","121.506236666667","24.9828133333333","6500300","中和區"
"235012","896-TW","2018/08/23 14:39:40","新北市中和區四維街20號","121.512993333333","24.9871683333333","6500300","中和區"
"235017","900-TW","2018/08/23 14:39:45","新北市中和區國光街215巷29號","121.467233333333","25.0004783333333","6500300","中和區"
"235015","157-BY","2018/08/23 14:39:51","新北市中和區中興街233巷10號","121.501463333333","24.9894916666667","6500300","中和區"
"235001","AAC-213","2018/08/23 14:39:45","新北市中和區秀朗路三段22巷22號","121.525335","24.9961783333333","6500300","中和區"
"235023","AAC-215","2018/08/23 14:39:46","新北市中和區圓通路266-1號","121.49266","24.99096","6500300","中和區"
"220013","072-UY","2018/08/23 14:39:46","新北市板橋區民族路222巷13號","121.468698333333","25.0068083333333","6500100","板橋區"
"220034","073-UY","2018/08/23 14:39:37","新北市板橋區中正路166號","121.456463333333","25.0170216666667","6500100","板橋區"
"220105","075-UY","2018/08/23 14:39:40","新北市板橋區文化路二段319號","121.472328333333","25.0299633333333","6500100","板橋區"
"220017","AAD-861","2018/08/23 14:39:39","新北市板橋區縣民大道一段64巷2號","121.455191666667","25.0040116666667","6500100","板橋區"
"247023","893-R6","2018/08/23 14:39:46","新北市蘆洲區中山二路222巷20號","121.469335","25.0805766666667","6501400","蘆洲區"
"247013","546-UM","2018/08/23 14:39:38","新北市蘆洲區成功路156號","121.471658333333","25.0832316666667","6501400","蘆洲區"
"247021","500-BY","2018/08/23 14:39:32","新北市蘆洲區民族路385號","121.469623333333","25.0901716666667","6501400","蘆洲區"
"247011","339-TH","2018/08/23 14:39:37","新北市蘆洲區集賢路224巷46弄60-1號","121.480861666667","25.0880183333333","6501400","蘆洲區"
"247003","337-TH","2018/08/23 14:39:48","新北市蘆洲區永安南路二段328巷15弄2號","121.456716666667","25.083805","6501400","蘆洲區"
"247005","336-TH","2018/08/23 14:39:37","新北市蘆洲區長安街68巷23號","121.463571666667","25.080845","6501400","蘆洲區"
"247017","057-VK","2018/08/23 14:39:24","新北市蘆洲區民族路314巷3弄9號","121.477076666667","25.0903733333333","6501400","蘆洲區"
"247007","056-VK","2018/08/23 14:39:45","新北市蘆洲區成功路38巷2號","121.47326","25.079345","6501400","蘆洲區"
"247015","007-UY","2018/08/23 14:39:44","新北市蘆洲區光華路73巷15號","121.468333333333","25.0822683333333","6501400","蘆洲區"
"247001","002-UY","2018/08/23 14:39:44","新北市蘆洲區永樂街38巷45弄36號","121.45686","25.090375","6501400","蘆洲區"
"247019","001-UY","2018/08/23 14:39:47","新北市蘆洲區民權路137巷5號","121.471461666667","25.0900966666667","6501400","蘆洲區"
"228005","097-TW","2018/08/23 14:39:33","新北市貢寮區美豐里雞母嶺街6-6號","121.902113333333","25.0641983333333","6502600","貢寮區"
"228004","212-TW","2018/08/23 14:39:42","新北市貢寮區福隆里龜壽谷街38號","121.94664","25.01445","6502600","貢寮區"
"253003","6232-TK","2018/08/23 14:39:36","新北市石門區尖子鹿35號","121.58226","25.2568133333333","6502200","石門區"
"253001","6251-TK","2018/08/23 14:37:55","新北市石門區崁子腳65-1號","121.53227","25.2859833333333","6502200","石門區"
"253002","637-UY","2018/08/23 14:39:45","新北市石門區七股10-5號","121.544781666667","25.2692183333333","6502200","石門區"
"253004","8270-PC","2018/08/23 14:39:52","新北市石門區內阿里磅37號","121.58322","25.2372816666667","6502200","石門區"
"207002","749-BX","2018/08/23 14:35:35","新北市萬里區溪底里福德坑路2-2號","121.624691666667","25.1558333333333","6502800","萬里區"
"207001","662-BX","2018/08/23 14:39:44","新北市萬里區磺潭里員潭路54號","121.643255","25.1913","6502800","萬里區"
"252005","AAC-283","2018/08/23 14:39:35","新北市三芝區埔坪里埔頭坑150號","121.510688333333","25.249405","6502100","三芝區"
"236068","105-UM","2018/08/23 14:39:47","新北市土城區永豐路185號","121.470251666667","24.978175","6501300","土城區"
"236040","107-UM","2018/08/23 14:39:40","新北市土城區裕民路56號","121.448868333333","24.9878766666667","6501300","土城區"
"236074","166-UM","2018/08/23 14:39:39","新北市土城區中央路四段52巷50號","121.418571666667","24.9601983333333","6501300","土城區"
"236029","253-BX","2018/08/23 14:39:36","新北市土城區中華路二段187號","121.43846","24.9746333333333","6501300","土城區"
"236024","269-VK","2018/08/23 14:39:41","新北市土城區千歲路13號","121.441185","24.9696133333333","6501300","土城區"
"236012","270-VK","2018/08/23 14:39:32","新北市土城區清水路202號","121.460471666667","24.9818933333333","6501300","土城區"
"236032","271-VK","2018/08/23 14:39:44","新北市土城區明德路一段291巷14號","121.460335","24.9766816666667","6501300","土城區"
"236017","401-BY","2018/08/23 14:39:41","新北市土城區延吉街253巷1號","121.46765","24.9846883333333","6501300","土城區"
"236057","912-UM","2018/08/23 14:39:43","新北市土城區中央路三段205號","121.429978333333","24.964725","6501300","土城區"
"236045","913-UM","2018/08/23 14:39:39","新北市土城區金城路二段346號","121.460316666667","24.984835","6501300","土城區"
"236060","915-UM","2018/08/23 14:39:46","新北市土城區延壽路13巷16號","121.470663333333","24.9908233333333","6501300","土城區"
"236054","AAC-216","2018/08/23 14:39:37","新北市土城區裕民路2號","121.446533333333","24.9891116666667","6501300","土城區"
"221010","269-BY","2018/08/23 14:39:33","新北市汐止區八連路二段636-3號","121.626111666667","25.1097966666667","6501100","汐止區"
"220027","145-BY","2018/08/23 14:39:36","新北市板橋區民權路202巷17弄14號","121.46019","25.016625","6500100","板橋區"
"220028","200-UY","2018/08/23 14:39:41","新北市板橋區大觀路二段37巷36號","121.448566666667","25.002675","6500100","板橋區"
"220030","610-BX","2018/08/23 14:39:40","新北市板橋區金門街267號","121.431615","24.988575","6500100","板橋區"
"220050","245-BX","2018/08/23 14:39:51","新北市板橋區莊敬路220巷29弄12號","121.472411666667","25.020125","6500100","板橋區"
"220004","276-BY","2018/08/23 14:39:42","新北市板橋區四川路一段338號","121.456778333333","24.996725","6500100","板橋區"
"220020","277-BY","2018/08/23 14:39:47","新北市板橋區金門街215巷79號","121.434071666667","24.9893566666667","6500100","板橋區"
"220019","283-VK","2018/08/23 14:39:44","新北市板橋區五權街30巷37弄16-2號","121.463481666667","24.9923033333333","6500100","板橋區"
"220043","285-UM","2018/08/23 14:39:35","新北市板橋區長江路二段248號","121.468935","25.0323733333333","6500100","板橋區"
"220001","285-VK","2018/08/23 14:39:32","新北市板橋區永豐街110號","121.476073333333","25.020665","6500100","板橋區"
"220029","287-VK","2018/08/23 14:39:51","新北市板橋區南雅西路一段49號","121.453738333333","25.004815","6500100","板橋區"
"220039","288-VK","2018/08/23 14:39:40","新北市板橋區長江路一段48巷9號","121.459181666667","25.0285016666667","6500100","板橋區"
"220009","295-UM","2018/08/23 14:39:46","新北市板橋區漢生東路113巷10號","121.467826666667","25.0153466666667","6500100","板橋區"
"220032","296-UM","2018/08/23 14:39:46","新北市板橋區溪崑二街114號","121.426395","24.9884283333333","6500100","板橋區"
"220041","299-UM","2018/08/23 14:39:35","新北市板橋區陽明街164巷34號","121.465095","25.0245216666667","6500100","板橋區"
"220023","303-R5","2018/08/23 14:39:40","新北市板橋區大勇街77號","121.452868333333","25.0166066666667","6500100","板橋區"
"220010","305-R5","2018/08/23 14:39:39","新北市板橋區三民路二段123巷19號","121.480146666667","25.015635","6500100","板橋區"
"220047","317-R6","2018/08/23 14:39:37","新北市板橋區裕民街93巷4號","121.460426666667","25.0277466666667","6500100","板橋區"
"220012","486-VK","2018/08/23 14:39:34","新北市板橋區中山路一段139-1號","121.462578333333","25.0110016666667","6500100","板橋區"
"220037","491-VK","2018/08/23 14:39:50","新北市板橋區文化路二段331號","121.472655","25.030285","6500100","板橋區"
"220104","560-BX","2018/08/23 14:39:41","新北市板橋區中正路413巷2弄3號","121.453811666667","25.022955","6500100","板橋區"
"220052","561-BX","2018/08/23 14:39:45","新北市板橋區文化路一段351號","121.466808333333","25.0209366666667","6500100","板橋區"
"220040","637-BX","2018/08/23 14:39:36","新北市板橋區懷德街201巷16號","121.481383333333","25.0295583333333","6500100","板橋區"
"220005","686-BX","2018/08/23 14:39:51","新北市板橋區和平路101巷1號","121.462195","24.9948883333333","6500100","板橋區"
"220025","687-BX","2018/08/23 14:39:43","新北市板橋區僑中二街88巷1號","121.446468333333","25.0092883333333","6500100","板橋區"
"220042","689-BX","2018/08/23 14:39:48","新北市板橋區新海路364號","121.459631666667","25.0252883333333","6500100","板橋區"
"220002","741-BX","2018/08/23 14:39:38","新北市板橋區實踐路65巷35號","121.4649","25.0066133333333","6500100","板橋區"
"220051","KEA-2699","2018/08/23 14:39:49","新北市板橋區松柏街36巷19號","121.475421666667","25.0296","6500100","板橋區"
"220003","827-TW","2018/08/23 14:39:50","新北市板橋區國慶路149巷3弄1號","121.461235","24.9968566666667","6500100","板橋區"
"220014","829-TW","2018/08/23 14:39:33","新北市板橋區長安街253號","121.472868333333","25.0103016666667","6500100","板橋區"
"220016","830-TW","2018/08/23 14:39:51","新北市板橋區中山路二段412巷15號","121.483383333333","25.0203616666667","6500100","板橋區"
"220045","831-TW","2018/08/23 14:39:38","新北市板橋區民生路二段240巷48號","121.469613333333","25.0229366666667","6500100","板橋區"
"220038","833-TW","2018/08/23 14:39:38","新北市板橋區英士路49-1號","121.461111666667","25.0245283333333","6500100","板橋區"
"220022","895-R6","2018/08/23 14:39:34","新北市板橋區東門街1-1號","121.457983333333","25.008845","6500100","板橋區"
"220021","985-R7","2018/08/23 14:39:44","新北市板橋區瑞安街46巷1號","121.455373333333","25.022125","6500100","板橋區"
"220046","AAC-210","2018/08/23 14:39:50","新北市板橋區漢生西路89巷1弄4號","121.462406666667","25.0196683333333","6500100","板橋區"
"220018","AAC-253","2018/08/23 14:39:41","新北市板橋區民族路83-1號","121.465918333333","25.0084066666667","6500100","板橋區"
"235032","KEA-2873","2018/08/23 14:39:49","新北市中和區福美路301巷21號","121.497601666667","25.0040533333333","6500300","中和區"
"235025","KEA-2875","2018/08/23 14:39:48","新北市中和區民樂路26號","121.482535","25.0010783333333","6500300","中和區"
