"lineid","car","time","location","longitude","latitude","cityid","cityname"
"234070","149-BY","2018/08/23 15:19:43","新北市中和區永和路220巷32號","121.491888333333","25.0083166666667","6500400","永和區"
"248003","677-BX","2018/08/23 15:19:43","新北市五股區新五路二段279號","121.442966666667","25.0862183333333","6501500","五股區"
"234072","AAC-211","2018/08/23 15:19:41","新北市八里區商港路48號","121.39605","25.1453516666667","6500400","永和區"
"244003","248-BX","2018/08/23 15:19:33","新北市林口區中湖40-9號","121.383336666667","25.0911483333333","6501700","林口區"
"243003","KEA-2215","2018/08/23 15:19:35","新北市泰山區明志路三段194號","121.423986666667","25.0384883333333","6501600","泰山區"
"231002","002-UM","2018/08/23 15:19:44","新北市新店區中正路700巷1號","121.533991666667","24.9912066666667","6500600","新店區"
"231028","046-UY","2018/08/23 15:19:37","新北市新店區僑愛二路1號","121.499863333333","24.9451766666667","6500600","新店區"
"231001","047-UY","2018/08/23 15:19:49","新北市新店區中華路1號","121.541265","24.9671633333333","6500600","新店區"
"231005","106-UY","2018/08/23 15:19:50","新北市新店區建國路139號","121.539121666667","24.9785616666667","6500600","新店區"
"231021","108-UY","2018/08/23 15:19:36","新北市新店區湖興路128-2號","121.561135","24.9304866666667","6500600","新店區"
"231011","187-VK","2018/08/23 15:19:34","新北市新店區寶元路一段65號","121.542251666667","24.98576","6500600","新店區"
"231023","KEA-2219","2018/08/23 15:19:45","新北市新店區行政街24號","121.542978333333","24.9656583333333","6500600","新店區"
"231026","256-BX","2018/08/23 15:19:40","新北市新店區中正路247巷4弄10號","121.538461666667","24.973425","6500600","新店區"
"231003","268-BY","2018/08/23 15:19:51","新北市新店區寶橋路230號","121.551491666667","24.9788983333333","6500600","新店區"
"231018","278-BY","2018/08/23 15:19:32","新北市新店區中央八街86號","121.52697","24.977355","6500600","新店區"
"231017","AAD-862","2018/08/23 15:19:37","新北市新店區明山路45號","121.563426666667","24.95583","6500600","新店區"
"231038","3712-VJ","2018/08/23 15:19:47","新北市新店區安華路28-1號","121.519643333333","24.96096","6500600","新店區"
"231025","4715-K9","2018/08/23 15:19:38","新北市新店區環河路103-6號","121.531298333333","24.9708716666667","6500600","新店區"
"231036","512-UM","2018/08/23 15:19:36","新北市新店區安祥路69巷17號","121.48194","24.9613516666667","6500600","新店區"
"231006","617-UM","2018/08/23 15:19:46","新北市新店區中興路一段166號","121.542731666667","24.9643266666667","6500600","新店區"
"231030","619-UM","2018/08/23 15:19:33","新北市新店區安民街339號","121.5169","24.9748983333333","6500600","新店區"
"231034","641-BX","2018/08/23 15:19:47","新北市新店區如意街3巷2號","121.495581666667","24.94915","6500600","新店區"
"231039","718-UY","2018/08/23 15:19:33","新北市新店區寶元路一段65號","121.54226","24.9857516666667","6500600","新店區"
"231035","719-UM","2018/08/23 15:19:32","新北市新店區永平街23巷12號","121.51663","24.9829083333333","6500600","新店區"
"231031","720-UM","2018/08/23 15:19:48","新北市新店區雙城路2巷1號","121.491318333333","24.9512033333333","6500600","新店區"
"231029","897-TW","2018/08/23 15:19:38","新北市新店區安康路三段631號","121.47135","24.9400833333333","6500600","新店區"
"231004","899-TW","2018/08/23 15:19:31","新北市新店區博愛街13巷24號","121.540226666667","24.9740516666667","6500600","新店區"
"231024","AKT-0513","2018/08/23 15:19:50","新北市新店區北新路一段303號","121.541476666667","24.9675316666667","6500600","新店區"
"241028","022-UY","2018/08/23 15:19:42","新北市三重區重新路四段121號","121.484736666667","25.052135","6500200","三重區"
"241013","270-UM","2018/08/23 15:19:36","新北市三重區重新路四段121號","121.484795","25.0525566666667","6500200","三重區"
"235030","003-UY","2018/08/23 15:19:47","新北市中和區保平路330號","121.5069","25.004265","6500300","中和區"
"235006","KEA-2878","2018/08/23 15:19:42","新北市樹林區佳園路三段103號","121.387098333333","24.951445","6500300","中和區"
"235014","4979-A6","2018/08/23 15:19:21","新北市中和區板南路202號","121.499406666667","24.9930116666667","6500300","中和區"
"235033","4980-A6","2018/08/23 15:19:31","新北市中和區圓通路162-5號","121.497488333333","24.995145","6500300","中和區"
"235034","558-UM","2018/08/23 15:19:40","新北市中和區中正路764號","121.485266666667","24.999535","6500300","中和區"
"235012","896-TW","2018/08/23 15:19:40","新北市中和區興南路一段20-1號","121.511346666667","24.9911133333333","6500300","中和區"
"235023","AAC-215","2018/08/23 15:19:46","新北市中和區圓通路435巷2-9號","121.487383333333","24.9866633333333","6500300","中和區"
"253003","6232-TK","2018/08/23 15:19:36","新北市石門區小坑9號","121.594446666667","25.2890516666667","6502200","石門區"
"253001","6251-TK","2018/08/23 15:19:33","新北市石門區尖子鹿103-3號","121.581945","25.29525","6502200","石門區"
"253002","637-UY","2018/08/23 15:19:45","新北市石門區小坑9號","121.59436","25.2885766666667","6502200","石門區"
"253004","8270-PC","2018/08/23 15:19:34","新北市石門區小坑24-2號","121.594771666667","25.2772333333333","6502200","石門區"
"207002","749-BX","2018/08/23 15:19:35","新北市萬里區崁腳里內中福路2-1號","121.669221666667","25.1653966666667","6502800","萬里區"
"207001","662-BX","2018/08/23 15:19:47","新北市萬里區磺潭里員潭路1-1號","121.647038333333","25.2029366666667","6502800","萬里區"
"236068","105-UM","2018/08/23 15:19:47","新北市土城區裕民路185巷36弄10號","121.454366666667","24.9844983333333","6501300","土城區"
"236040","107-UM","2018/08/23 15:19:34","新北市土城區學府路一段143巷10號","121.453943333333","24.98572","6501300","土城區"
"236074","166-UM","2018/08/23 15:19:39","新北市土城區中州路59號","121.412621666667","24.9578966666667","6501300","土城區"
"236029","253-BX","2018/08/23 15:19:36","新北市土城區中央路一段262巷9號","121.443536666667","24.9840266666667","6501300","土城區"
"236024","269-VK","2018/08/23 15:19:41","新北市土城區學府路二段253號","121.445025","24.9778516666667","6501300","土城區"
"236012","270-VK","2018/08/23 15:19:49","新北市土城區廣福街9號","121.457115","24.9888733333333","6501300","土城區"
"236032","271-VK","2018/08/23 15:19:44","新北市土城區國際路65號","121.466748333333","24.97651","6501300","土城區"
"236017","401-BY","2018/08/23 15:19:53","新北市土城區峰廷街18號","121.468998333333","24.9872983333333","6501300","土城區"
"236057","912-UM","2018/08/23 15:19:45","新北市土城區中央路二段231號","121.440303333333","24.9724533333333","6501300","土城區"
"236045","913-UM","2018/08/23 15:19:39","新北市土城區明德路一段157號","121.464851666667","24.9797716666667","6501300","土城區"
"236060","915-UM","2018/08/23 15:19:46","新北市土城區延和路105巷6弄2號","121.467381666667","24.9908816666667","6501300","土城區"
"236054","AAC-216","2018/08/23 15:19:46","新北市土城區學府路一段93號","121.45636","24.987965","6501300","土城區"
"238002","755-BX","2018/08/23 15:19:42","新北市樹林區復興路223號","121.420165","24.9909466666667","6500700","樹林區"
"238010","601-UM","2018/08/23 15:19:48","新北市樹林區中正路433-2號","121.414963333333","25.0083966666667","6500700","樹林區"
"238006","599-UM","2018/08/23 15:19:52","新北市樹林區太平路51號","121.41914","24.9826866666667","6500700","樹林區"
"238005","571-TV","2018/08/23 15:19:43","新北市樹林區樹新路255號","121.430513333333","24.9991866666667","6500700","樹林區"
"238011","5061-A6","2018/08/23 15:19:37","新北市樹林區鎮前街273-6號","121.419358333333","24.985685","6500700","樹林區"
"238009","KEA-2213","2018/08/23 15:19:45","新北市樹林區忠孝街12號","121.42337","24.9825466666667","6500700","樹林區"
"238008","KEA-2539","2018/08/23 15:19:36","新北市樹林區西圳街一段165巷20弄11號","121.395613333333","24.960165","6500700","樹林區"
"238012","303-VK","2018/08/23 15:19:50","新北市樹林區中山路一段98號","121.423058333333","24.9911116666667","6500700","樹林區"
"238001","283-BY","2018/08/23 15:19:42","新北市樹林區保安街一段276號","121.419471666667","24.99704","6500700","樹林區"
"238001","282-BY","2018/08/23 15:19:48","新北市樹林區大安路111巷26弄23號","121.423436666667","24.9964316666667","6500700","樹林區"
"238007","268-VK","2018/08/23 15:19:51","新北市樹林區俊英街80號","121.428116666667","25.0041616666667","6500700","樹林區"
"238013","172-UY","2018/08/23 15:19:39","新北市樹林區新興街2巷2號","121.400183333333","24.974125","6500700","樹林區"
"238003","169-UY","2018/08/23 15:19:39","新北市樹林區中山路一段103號","121.4232","24.9909566666667","6500700","樹林區"
"220050","245-BX","2018/08/23 15:19:31","新北市板橋區雙十路二段47巷2弄4號","121.475941666667","25.0263183333333","6500100","板橋區"
"220029","287-VK","2018/08/23 15:19:50","新北市板橋區僑中一街124巷20弄46號","121.448056666667","25.013855","6500100","板橋區"
"220009","295-UM","2018/08/23 15:19:46","新北市板橋區四川路一段288號","121.458591666667","25.0008133333333","6500100","板橋區"
"220052","561-BX","2018/08/23 15:19:49","新北市板橋區漢生東路31號","121.465361666667","25.0169483333333","6500100","板橋區"
"220031","630-UY","2018/08/23 15:19:52","新北市板橋區僑中二街48巷28號","121.445233333333","25.010495","6500100","板橋區"
"220042","689-BX","2018/08/23 15:19:47","新北市板橋區長江路二段8號","121.464545","25.0312883333333","6500100","板橋區"
"220051","KEA-2699","2018/08/23 15:19:41","新北市板橋區縣民大道三段31號","121.473803333333","25.02064","6500100","板橋區"
"220038","833-TW","2018/08/23 15:19:41","新北市板橋區互助街78號","121.46069","25.0264133333333","6500100","板橋區"
"220018","AAC-253","2018/08/23 15:19:45","新北市板橋區四川路二段245巷93號","121.453003333333","24.99323","6500100","板橋區"
