"lineid","car","time","location","longitude","latitude","cityid","cityname"
"249005","172-UM","2018/08/23 17:29:12","新北市八里區荖阡坑路71號","121.40711","25.12624","6502300","八里區"
"249001","173-UM","2018/08/23 17:29:16","新北市八里區中華路一段5號","121.42276","25.1584083333333","6502300","八里區"
"249004","303-UY","2018/08/23 17:29:17","新北市八里區民有街78-2號","121.414771666667","25.1560983333333","6502300","八里區"
"249002","305-UY","2018/08/23 17:29:12","新北市八里區龍米路二段65巷15弄12號","121.447558333333","25.139935","6502300","八里區"
"249003","593-UM","2018/08/23 17:29:14","新北市八里區中山路二段327號","121.400338333333","25.1476566666667","6502300","八里區"
"232011","375-UM","2018/08/23 17:29:17","新北市坪林區北宜路八段558號","121.718245","24.90923","6502000","坪林區"
"244007","080-UY","2018/08/23 17:29:18","新北市林口區湖子24-1號","121.386113333333","25.092995","6501700","林口區"
"244019","403-UM","2018/08/23 17:29:11","新北市林口區公園路173號","121.371373333333","25.07183","6501700","林口區"
"244013","KEA-2802","2018/08/23 17:29:15","新北市林口區粉寮69號","121.404813333333","25.0908033333333","6501700","林口區"
"244023","483-VK","2018/08/23 17:29:17","新北市林口區東明一街36號","121.392818333333","25.0724116666667","6501700","林口區"
"244017","485-VK","2018/08/23 17:29:07","新北市林口區文化一路二段202號","121.38327","25.080705","6501700","林口區"
"244009","656-BX","2018/08/23 17:29:12","新北市林口區文化一路二段295號","121.385323333333","25.08514","6501700","林口區"
"244011","657-BX","2018/08/23 17:29:23","新北市林口區中正路345巷1弄1號","121.387898333333","25.0772883333333","6501700","林口區"
"244025","837-TS","2018/08/23 17:29:20","新北市林口區忠孝一路18號","121.364433333333","25.072995","6501700","林口區"
"244021","838-TS","2018/08/23 17:29:22","新北市林口區粉寮路二段98號","121.404426666667","25.0895266666667","6501700","林口區"
"231046","107-UY","2018/08/23 17:29:17","新北市新店區直潭路92號","121.530908333333","24.9376016666667","6500600","新店區"
"241011","013-R5","2018/08/23 17:29:25","新北市三重區河邊北街110巷46號","121.502723333333","25.0705316666667","6500200","三重區"
"241015","062-VK","2018/08/23 17:29:11","新北市三重區長元街65巷20弄18號","121.503608333333","25.0661566666667","6500200","三重區"
"241017","063-VK","2018/08/23 17:29:19","新北市三重區重新路三段47巷5弄1號","121.492903333333","25.0619216666667","6500200","三重區"
"241024","065-VK","2018/08/23 17:29:22","新北市三重區中正北路193巷21弄42號","121.478626666667","25.0710116666667","6500200","三重區"
"241023","265-UM","2018/08/23 17:29:08","新北市三重區三民街146巷14號","121.481743333333","25.0645816666667","6500200","三重區"
"241016","266-UM","2018/08/23 17:29:19","新北市三重區信義西街41號","121.49528","25.0640116666667","6500200","三重區"
"241018","268-UM","2018/08/23 17:29:09","新北市三重區中正北路25巷28號","121.493886666667","25.06338","6500200","三重區"
"241032","269-UM","2018/08/23 17:29:12","新北市三重區中華路2巷4號","121.48294","25.06018","6500200","三重區"
"241025","271-UM","2018/08/23 17:29:19","新北市三重區中正北路380號","121.476386666667","25.0698433333333","6500200","三重區"
"241007","398-BY","2018/08/23 17:29:09","新北市三重區三和路四段145巷80號","121.486228333333","25.0788933333333","6500200","三重區"
"241020","413-TH","2018/08/23 17:29:06","新北市三重區忠孝路二段29號","121.486311666667","25.0713016666667","6500200","三重區"
"241030","480-VK","2018/08/23 17:29:15","新北市三重區新興路8號","121.492655","25.05298","6500200","三重區"
"241014","543-UM","2018/08/23 17:29:15","新北市三重區長壽街60號","121.500955","25.06837","6500200","三重區"
"241019","KEA-2593","2018/08/23 17:29:11","新北市三重區自強路二段17號","121.489975","25.0690516666667","6500200","三重區"
"241005","887-TS","2018/08/23 17:29:13","新北市三重區永安北路二段33號","121.482331666667","25.08227","6500200","三重區"
"241012","941-UM","2018/08/23 17:29:18","新北市三重區仁福街64巷2號","121.497791666667","25.0746466666667","6500200","三重區"
"241033","AAC-255","2018/08/23 17:29:16","新北市三重區中興北街153-7號","121.469125","25.05335","6500200","三重區"
"235064","005-UY","2018/08/23 17:29:11","新北市中和區員山路36巷16-3號","121.485128333333","24.9912933333333","6500300","中和區"
"247010","KEA-2869","2018/08/23 17:29:07","新北市蘆洲區鷺江街37巷6號","121.478421666667","25.0821583333333","6501400","蘆洲區"
"247024","893-R6","2018/08/23 17:29:06","新北市蘆洲區長興路393號","121.461208333333","25.09177","6501400","蘆洲區"
"247014","546-UM","2018/08/23 17:29:20","新北市蘆洲區復興路50號","121.472801666667","25.0854666666667","6501400","蘆洲區"
"247022","500-BY","2018/08/23 17:29:11","新北市蘆洲區三民路226號","121.468606666667","25.0893516666667","6501400","蘆洲區"
"247012","339-TH","2018/08/23 17:29:16","新北市蘆洲區民族路42號","121.476656666667","25.0844366666667","6501400","蘆洲區"
"247004","337-TH","2018/08/23 17:29:17","新北市蘆洲區長安街233巷18號","121.458661666667","25.0826116666667","6501400","蘆洲區"
"247006","336-TH","2018/08/23 17:29:12","新北市蘆洲區長安街22巷31弄27號","121.463786666667","25.0807533333333","6501400","蘆洲區"
"247018","057-VK","2018/08/23 17:29:08","新北市蘆洲區民權路109號","121.472518333333","25.0894216666667","6501400","蘆洲區"
"247008","056-VK","2018/08/23 17:29:25","新北市蘆洲區信義路34巷33號","121.474996666667","25.0784783333333","6501400","蘆洲區"
"247016","007-UY","2018/08/23 17:29:08","新北市蘆洲區光華路22巷24號","121.468811666667","25.0843516666667","6501400","蘆洲區"
"247002","002-UY","2018/08/23 17:29:13","新北市蘆洲區永樂街38巷57弄29號","121.457611666667","25.0904516666667","6501400","蘆洲區"
"247020","001-UY","2018/08/23 17:29:20","新北市蘆洲區水湳街150號","121.470148333333","25.0937683333333","6501400","蘆洲區"
"228003","097-TW","2018/08/23 17:29:05","新北市貢寮區仁理村研海街45號","121.925765","25.0433516666667","6502600","貢寮區"
"228001","212-TW","2018/08/23 17:29:15","新北市貢寮區仁理村仁愛路34號","121.924966666667","25.05324","6502600","貢寮區"
"228002","663-BX","2018/08/23 17:29:18","新北市貢寮區福隆里興隆街21-1號","121.943365","25.01656","6502600","貢寮區"
"224010","AGQ-8101","2018/08/23 17:28:30","新北市瑞芳區明燈路二段2巷4號","121.814348333333","25.1089966666667","6501200","瑞芳區"
"224006","676-BX","2018/08/23 17:29:14","新北市瑞芳區傑魚坑路88號","121.792475","25.110495","6501200","瑞芳區"
"224008","285-BY","2018/08/23 17:29:16","新北市瑞芳區九芎橋路14號","121.832143333333","25.0912283333333","6501200","瑞芳區"
"224009","273-VK","2018/08/23 17:29:15","新北市瑞芳區烏勢巷145號","121.847783333333","25.10913","6501200","瑞芳區"
"224005","271-BY","2018/08/23 17:29:23","新北市瑞芳區海濱路3巷2-1號","121.846505","25.1265133333333","6501200","瑞芳區"
"227004","642-TC","2018/08/23 17:29:21","新北市雙溪區平林里外平林74-1號","121.844308333333","25.0333933333333","6502500","雙溪區"
"227010","400-TW","2018/08/23 17:25:19","新北市雙溪區三貂里政光路6-6號","121.851051666667","25.070685","6502500","雙溪區"
"251009","008-UM","2018/08/23 17:29:07","新北市淡水區重建街1巷3號","121.43979","25.1733566666667","6501000","淡水區"
"251005","010-UM","2018/08/23 17:29:13","新北市淡水區鄧公路31巷16號","121.451915","25.17062","6501000","淡水區"
"251013","KEA-2871","2018/08/23 17:29:17","新北市淡水區水尾子2-1號","121.464353333333","25.1943466666667","6501000","淡水區"
"251016","179-VK","2018/08/23 17:29:12","新北市淡水區埤島39-15號","121.45285","25.1954183333333","6501000","淡水區"
"251014","180-VK","2018/08/23 17:28:49","新北市淡水區北勢子16號","121.473771666667","25.227785","6501000","淡水區"
"251015","181-VK","2018/08/23 17:29:15","新北市淡水區三空泉17-6號","121.473895","25.165825","6501000","淡水區"
"251010","413-VK","2018/08/23 17:29:14","新北市淡水區中正路二段215號","121.426236666667","25.18919","6501000","淡水區"
"251012","441-VK","2018/08/23 17:29:06","新北市淡水區北新路113號","121.448418333333","25.1784833333333","6501000","淡水區"
"251008","442-VK","2018/08/23 17:29:18","新北市淡水區大同路124巷14號","121.46356","25.140115","6501000","淡水區"
"251004","443-VK","2018/08/23 17:24:19","新北市淡水區中正東路二段88巷15號","121.459033333333","25.1504866666667","6501000","淡水區"
"251006","561-UM","2018/08/23 17:29:22","新北市淡水區大仁街23號","121.442446666667","25.17523","6501000","淡水區"
"251007","577-R6","2018/08/23 17:29:20","新北市淡水區民生路47-4號","121.462101666667","25.1379966666667","6501000","淡水區"
"251011","650-BX","2018/08/23 17:29:09","新北市淡水區坪頂路712號","121.482501666667","25.1584783333333","6501000","淡水區"
"251002","672-BX","2018/08/23 17:29:11","新北市淡水區中正路382號","121.42969","25.17526","6501000","淡水區"
"251003","766-UM","2018/08/23 17:29:22","新北市淡水區中正路26巷3號","121.434681666667","25.1738583333333","6501000","淡水區"
"207003","550-UM","2018/08/23 17:29:07","新北市萬里區龜吼里日光路6巷16號","121.683493333333","25.1866116666667","6502800","萬里區"
"207004","225-TW","2018/08/23 17:29:03","新北市萬里區萬里里景美路16號","121.686748333333","25.1733916666667","6502800","萬里區"
"252002","178-VK","2018/08/23 17:29:15","新北市三芝區忠孝街1-14號","121.505335","25.25383","6502100","三芝區"
"252001","292-VK","2018/08/23 17:29:08","新北市三芝區長安街119號","121.498056666667","25.2597183333333","6502100","三芝區"
"237012","275-BY","2018/08/23 17:29:17","新北市三峽區中山路459巷137號","121.349928333333","24.9339733333333","6500900","三峽區"
"237016","649-BX","2018/08/23 17:29:07","新北市三峽區中山路365-1號","121.357543333333","24.9364983333333","6500900","三峽區"
"242034","AAC-296","2018/08/23 17:29:08","新北市新莊區新泰路2-3號","121.449773333333","25.0326683333333","6500500","新莊區"
"242058","986-R7","2018/08/23 17:29:21","新北市新莊區中正路530號","121.430955","25.0316","6500500","新莊區"
"242053","751-BX","2018/08/23 17:29:11","新北市新莊區瓊林南路305巷35號","121.435823333333","25.0050866666667","6500500","新莊區"
"242023","705-TV","2018/08/23 17:29:23","新北市新莊區公園路148號","121.453101666667","25.0400966666667","6500500","新莊區"
"242027","615-BX","2018/08/23 17:29:20","新北市新莊區思源路28號","121.460261666667","25.0401616666667","6500500","新莊區"
"242025","613-BX","2018/08/23 17:29:22","新北市新莊區復興路二段31號","121.45432","25.04405","6500500","新莊區"
"242042","566-BX","2018/08/23 17:29:12","新北市新莊區新樹路111號","121.43783","25.0266816666667","6500500","新莊區"
"242046","497-BY","2018/08/23 17:29:24","新北市新莊區福營路4號","121.440413333333","25.03272","6500500","新莊區"
"242019","442-UM","2018/08/23 17:29:05","新北市新莊區中港路86號","121.455468333333","25.0392483333333","6500500","新莊區"
"242051","441-UM","2018/08/23 17:29:14","新北市新莊區新樹路262號","121.432763333333","25.0147466666667","6500500","新莊區"
"242056","440-UM","2018/08/23 17:29:19","新北市新莊區景德路202號","121.449333333333","25.0337833333333","6500500","新莊區"
"242036","415-TV","2018/08/23 17:29:16","新北市新莊區建國二路1號","121.434875","25.0236766666667","6500500","新莊區"
"242007","413-TV","2018/08/23 17:29:19","新北市新莊區自強街50號","121.45476","25.0466333333333","6500500","新莊區"
"242044","400-BY","2018/08/23 17:29:22","新北市新莊區富國路69號","121.419898333333","25.026015","6500500","新莊區"
"242061","353-BY","2018/08/23 17:29:20","新北市新莊區瓊林南路12-2號","121.43624","25.0189583333333","6500500","新莊區"
"242009","132-UY","2018/08/23 17:29:13","新北市新莊區中原路238號","121.452768333333","25.0547866666667","6500500","新莊區"
"242039","133-UY","2018/08/23 17:29:24","新北市新莊區民安路284號","121.427841666667","25.02159","6500500","新莊區"
"242031","135-UY","2018/08/23 17:29:25","新北市新莊區新泰路401巷22號","121.44276","25.0440633333333","6500500","新莊區"
"242048","172-VK","2018/08/23 17:29:14","新北市新莊區龍安路258號","121.42147","25.01948","6500500","新莊區"
"242011","173-VK","2018/08/23 17:29:12","新北市新莊區中誠街2號","121.452298333333","25.0481616666667","6500500","新莊區"
"242017","175-VK","2018/08/23 17:29:05","新北市新莊區復興路一段211號","121.452433333333","25.0436866666667","6500500","新莊區"
"242004","176-VK","2018/08/23 17:29:22","新北市新莊區中華路二段20-1號","121.453363333333","25.0444883333333","6500500","新莊區"
"242015","346-TH","2018/08/23 17:29:13","新北市新莊區新泰路157號","121.447618333333","25.0368583333333","6500500","新莊區"
"242021","348-TH","2018/08/23 17:29:21","新北市新莊區中華路一段18號","121.451968333333","25.0371383333333","6500500","新莊區"
"242002","349-TH","2018/08/23 17:29:09","新北市新莊區新莊路154號","121.455261666667","25.0354383333333","6500500","新莊區"
"238015","755-BX","2018/08/23 17:29:08","新北市樹林區大安路267號","121.419058333333","24.9936833333333","6500700","樹林區"
"238023","601-UM","2018/08/23 17:29:07","新北市樹林區三福街114號","121.406435","25.0163233333333","6500700","樹林區"
"238019","599-UM","2018/08/23 17:29:12","新北市樹林區太平路52巷1號","121.419005","24.9822066666667","6500700","樹林區"
"238018","571-TV","2018/08/23 17:29:09","新北市樹林區鎮前街159號","121.423791666667","24.9887066666667","6500700","樹林區"
"238024","5061-A6","2018/08/23 17:29:20","新北市樹林區鎮前街169巷21號","121.42353","24.988515","6500700","樹林區"
"238022","KEA-2213","2018/08/23 17:29:05","新北市樹林區和平街2巷20號","121.421155","24.9809716666667","6500700","樹林區"
"238021","KEA-2539","2018/08/23 17:29:23","新北市樹林區西圳街一段203巷35號","121.395043333333","24.957695","6500700","樹林區"
"238025","303-VK","2018/08/23 17:29:10","新北市樹林區保安街一段276號","121.419491666667","24.9970033333333","6500700","樹林區"
"238017","283-BY","2018/08/23 17:29:22","新北市樹林區三德街21號","121.413371666667","25.0130266666667","6500700","樹林區"
"238014","282-BY","2018/08/23 17:29:08","新北市樹林區長壽街29-1號","121.420395","24.9950333333333","6500700","樹林區"
"238020","268-VK","2018/08/23 17:29:11","新北市樹林區俊英街160巷21號","121.427655","25.0070766666667","6500700","樹林區"
"238026","172-UY","2018/08/23 17:28:59","新北市樹林區新興街11巷1-3號","121.400786666667","24.973575","6500700","樹林區"
"238016","169-UY","2018/08/23 17:29:21","新北市樹林區樹德街28號","121.422546666667","24.991765","6500700","樹林區"
"239007","AAC-297","2018/08/23 17:29:12","新北市鶯歌區仁愛路53號","121.354168333333","24.9562766666667","6500800","鶯歌區"
"239006","891-R6","2018/08/23 17:29:21","新北市鶯歌區鳳鳴路79號","121.33418","24.9659316666667","6500800","鶯歌區"
"239008","527-UM","2018/08/23 17:29:13","新北市鶯歌區大湖路540號","121.337001666667","24.9728283333333","6500800","鶯歌區"
"239005","526-UM","2018/08/23 17:29:19","新北市鶯歌區福隆一街17號","121.325371666667","24.97173","6500800","鶯歌區"
"239001","417-VK","2018/08/23 17:29:14","新北市鶯歌區中正三路135號","121.337325","24.9405416666667","6500800","鶯歌區"
"239003","360-BY","2018/08/23 17:29:03","新北市鶯歌區德昌街25號","121.333348333333","24.9598866666667","6500800","鶯歌區"
"239002","359-BY","2018/08/23 17:29:11","新北市鶯歌區南雅路424號","121.34732","24.954075","6500800","鶯歌區"
"239004","193-VK","2018/08/23 17:29:16","新北市鶯歌區三鶯路12號","121.356473333333","24.94127","6500800","鶯歌區"
"221008","489-VK","2018/08/23 17:29:10","新北市汐止區康寧街901號","121.651306666667","25.0750916666667","6501100","汐止區"
"221010","269-BY","2018/08/23 17:29:21","新北市汐止區汐萬路一段256巷3號","121.652098333333","25.0746616666667","6501100","汐止區"
"242013","281-VK","2018/08/23 17:29:26","新北市新莊區中誠街16巷28號","121.451838333333","25.0487866666667","6500500","新莊區"
"235061","KEA-2875","2018/08/23 17:08:11","新北市中和區員山路36巷16-2號","121.485311666667","24.9916566666667","6500300","中和區"
