"lineid","car","time","location","longitude","latitude","cityid","cityname"
"234026","9371-KE","2018/08/23 17:49:13","新北市永和區中山路一段117巷2號","121.510915","25.01015","6500400","永和區"
"249005","172-UM","2018/08/23 17:49:12","新北市八里區荖阡坑路34-2號","121.402616666667","25.1306316666667","6502300","八里區"
"249001","173-UM","2018/08/23 17:49:16","新北市八里區龍米路二段137號","121.444641666667","25.14825","6502300","八里區"
"249004","303-UY","2018/08/23 17:49:17","新北市八里區中華路一段79巷11號","121.421021666667","25.156425","6502300","八里區"
"249002","305-UY","2018/08/23 17:49:12","新北市八里區石壁腳19號","121.441746666667","25.1354016666667","6502300","八里區"
"249003","593-UM","2018/08/23 17:49:23","新北市八里區中山路二段123號","121.405378333333","25.1519733333333","6502300","八里區"
"248016","026-BX","2018/08/23 17:49:22","新北市五股區中興路二段83巷26-6號","121.460011666667","25.0752966666667","6501500","五股區"
"248006","077-UY","2018/08/23 17:49:11","新北市五股區中興路二段83巷26-6號","121.460083333333","25.075045","6501500","五股區"
"248008","095-VK","2018/08/23 17:49:21","新北市五股區中興路二段37巷24號","121.460653333333","25.075135","6501500","五股區"
"248020","225-UY","2018/08/23 17:49:10","新北市五股區中興路二段83巷26-6號","121.46","25.0752466666667","6501500","五股區"
"248004","677-BX","2018/08/23 17:49:09","新北市五股區中興路二段37巷26號","121.46028","25.0750916666667","6501500","五股區"
"232011","375-UM","2018/08/23 17:49:17","新北市坪林區北宜路八段168號","121.707438333333","24.9344766666667","6502000","坪林區"
"244007","080-UY","2018/08/23 17:49:07","新北市林口區林口路194號","121.387288333333","25.08308","6501700","林口區"
"244019","403-UM","2018/08/23 17:49:11","新北市林口區忠孝路542巷5弄7號","121.373591666667","25.0675633333333","6501700","林口區"
"244013","KEA-2802","2018/08/23 17:49:14","新北市林口區中正路438號","121.383976666667","25.077755","6501700","林口區"
"244023","483-VK","2018/08/23 17:49:17","新北市林口區東湖一街7號","121.386905","25.0731266666667","6501700","林口區"
"244017","485-VK","2018/08/23 17:49:07","新北市林口區文化二路一段260巷1-1號","121.37132","25.0733216666667","6501700","林口區"
"244009","656-BX","2018/08/23 17:49:11","新北市林口區竹林路582巷3號","121.386253333333","25.08318","6501700","林口區"
"244011","657-BX","2018/08/23 17:49:23","新北市林口區中正路338號","121.386828333333","25.0777383333333","6501700","林口區"
"244025","837-TS","2018/08/23 17:49:20","新北市林口區忠孝三路42號","121.36017","25.06991","6501700","林口區"
"244021","838-TS","2018/08/23 17:49:22","新北市林口區仁愛路一段165號","121.398318333333","25.072755","6501700","林口區"
"243016","KEA-2801","2018/08/23 17:48:11","新北市泰山區犁頭窠3-1號","121.42216","25.060505","6501600","泰山區"
"222003","436-BY","2018/08/23 17:49:12","新北市深坑區阿柔洋60-1號","121.608675","24.9985183333333","6501800","深坑區"
"222002","659-BX","2018/08/23 17:49:12","新北市深坑區平埔街22巷17弄1號","121.61488","25.000865","6501800","深坑區"
"231046","107-UY","2018/08/23 17:49:17","新北市新店區康雅崙路70號","121.533538333333","24.9268833333333","6500600","新店區"
"241016","266-UM","2018/08/23 17:49:19","新北市三重區新北大道一段3-1號","121.490285","25.06139","6500200","三重區"
"241024","462-BY","2018/08/23 17:49:17","新北市三重區車路頭街34巷25號","121.483255","25.07159","6500200","三重區"
"241012","941-UM","2018/08/23 17:49:18","新北市三重區龍門路249號","121.502313333333","25.0741066666667","6500200","三重區"
"241033","AAC-255","2018/08/23 17:49:16","新北市三重區光復路一段3號","121.472065","25.0469166666667","6500200","三重區"
"235064","005-UY","2018/08/23 17:49:11","新北市中和區員山路36巷16-3號","121.485125","24.9913016666667","6500300","中和區"
"235065","098-UM","2018/08/23 17:49:16","新北市中和區和城路一段271巷1號","121.485451666667","24.99206","6500300","中和區"
"235058","151-BY","2018/08/23 17:49:03","新北市中和區員山路36巷16-2號","121.485148333333","24.99162","6500300","中和區"
"247010","KEA-2869","2018/08/23 17:49:13","新北市蘆洲區民族路48號","121.476866666667","25.0845666666667","6501400","蘆洲區"
"247024","893-R6","2018/08/23 17:49:06","新北市蘆洲區光榮路63號","121.461128333333","25.0886733333333","6501400","蘆洲區"
"247014","546-UM","2018/08/23 17:49:21","新北市蘆洲區保和街67號","121.469453333333","25.0859116666667","6501400","蘆洲區"
"247022","500-BY","2018/08/23 17:49:11","新北市蘆洲區中正路284-1號","121.465043333333","25.0902266666667","6501400","蘆洲區"
"247012","339-TH","2018/08/23 17:49:16","新北市蘆洲區復興路107-1號","121.476943333333","25.08797","6501400","蘆洲區"
"247004","337-TH","2018/08/23 17:49:18","新北市蘆洲區長安街273巷2號","121.45828","25.08391","6501400","蘆洲區"
"247006","336-TH","2018/08/23 17:49:12","新北市蘆洲區長安街22巷24號","121.464728333333","25.0798283333333","6501400","蘆洲區"
"247018","057-VK","2018/08/23 17:49:07","新北市蘆洲區復興路227巷2弄9號","121.48038","25.0903416666667","6501400","蘆洲區"
"247008","056-VK","2018/08/23 17:49:05","新北市蘆洲區中山一路240號","121.47235","25.0800016666667","6501400","蘆洲區"
"247016","007-UY","2018/08/23 17:49:24","新北市蘆洲區中正路185巷68弄1號","121.466556666667","25.0845166666667","6501400","蘆洲區"
"247002","002-UY","2018/08/23 17:49:13","新北市蘆洲區永平街32巷21弄17號","121.45846","25.0919616666667","6501400","蘆洲區"
"247020","001-UY","2018/08/23 17:49:20","新北市蘆洲區民義街71巷6號","121.472976666667","25.090305","6501400","蘆洲區"
"228003","097-TW","2018/08/23 17:49:05","新北市貢寮區真理里延平街36號","121.924536666667","25.0562766666667","6502600","貢寮區"
"228001","212-TW","2018/08/23 17:49:09","新北市貢寮區真理里新港街26巷28-6號","121.927673333333","25.0554066666667","6502600","貢寮區"
"228002","663-BX","2018/08/23 17:49:18","新北市貢寮區福隆里龜壽谷街26號","121.953101666667","25.0076733333333","6502600","貢寮區"
"224006","676-BX","2018/08/23 17:49:14","新北市瑞芳區傑魚坑路183號","121.788446666667","25.1082583333333","6501200","瑞芳區"
"224002","639-TC","2018/08/23 17:49:08","新北市瑞芳區明燈路二段46號","121.809573333333","25.1081633333333","6501200","瑞芳區"
"224008","285-BY","2018/08/23 17:49:16","新北市瑞芳區明燈路一段41號","121.82181","25.1070866666667","6501200","瑞芳區"
"224009","273-VK","2018/08/23 17:49:15","新北市瑞芳區山尖路92號","121.853818333333","25.1143716666667","6501200","瑞芳區"
"224005","271-BY","2018/08/23 17:49:23","新北市瑞芳區海濱路29-9號","121.830831666667","25.12427","6501200","瑞芳區"
"227004","642-TC","2018/08/23 17:38:26","新北市雙溪區共和里東榮街29號","121.866106666667","25.033665","6502500","雙溪區"
"253006","295-VK","2018/08/23 17:49:22","新北市石門區中央路6號","121.566558333333","25.2913733333333","6502200","石門區"
"222001","KEA-2212","2018/08/23 17:49:09","新北市深坑區北深路三段25巷15-2號","121.608666666667","24.9995316666667","6501800","深坑區"
"208003","665-BX","2018/08/23 17:49:20","新北市金山區磺清路135號","121.639286666667","25.22772","6502700","金山區"
"208001","761-BX","2018/08/23 17:49:23","新北市金山區磺清路133號","121.639088333333","25.227825","6502700","金山區"
"251009","008-UM","2018/08/23 17:49:08","新北市淡水區長興街55號","121.444285","25.1719516666667","6501000","淡水區"
"251005","010-UM","2018/08/23 17:49:13","新北市淡水區學府路102巷6號","121.450521666667","25.1719066666667","6501000","淡水區"
"251001","011-UM","2018/08/23 17:49:19","新北市淡水區民權路92巷35-1號","121.462161666667","25.1265916666667","6501000","淡水區"
"251013","KEA-2871","2018/08/23 17:49:17","新北市淡水區口湖子1-5號","121.477225","25.19063","6501000","淡水區"
"251016","179-VK","2018/08/23 17:49:12","新北市淡水區埤島39-15號","121.452766666667","25.1958216666667","6501000","淡水區"
"251014","180-VK","2018/08/23 17:49:09","新北市淡水區公埔子16-6號","121.481008333333","25.2245883333333","6501000","淡水區"
"251015","181-VK","2018/08/23 17:49:14","新北市淡水區興福寮32-1號","121.49088","25.1631016666667","6501000","淡水區"
"251010","413-VK","2018/08/23 17:49:14","新北市淡水區淡海路292號","121.419173333333","25.1886616666667","6501000","淡水區"
"251012","441-VK","2018/08/23 17:49:26","新北市淡水區北新路二段7號","121.475615","25.18531","6501000","淡水區"
"251008","442-VK","2018/08/23 17:49:18","新北市淡水區八勢路一段156號","121.468083333333","25.15644","6501000","淡水區"
"251004","443-VK","2018/08/23 17:49:08","新北市淡水區民權一街21號","121.458845","25.1362233333333","6501000","淡水區"
"251006","561-UM","2018/08/23 17:49:23","新北市淡水區新生街51巷45號","121.441255","25.1761433333333","6501000","淡水區"
"251007","577-R6","2018/08/23 17:49:20","新北市淡水區民生路8號","121.460803333333","25.13782","6501000","淡水區"
"251011","650-BX","2018/08/23 17:48:09","新北市淡水區吳(仔)厝10-2號","121.480968333333","25.1478","6501000","淡水區"
"251002","672-BX","2018/08/23 17:49:11","新北市淡水區中山路66-1號","121.443593333333","25.170655","6501000","淡水區"
"251003","766-UM","2018/08/23 17:49:22","新北市淡水區大忠街5巷2號","121.443145","25.1762966666667","6501000","淡水區"
"207003","550-UM","2018/08/23 17:49:07","新北市萬里區野柳里東澳路55號","121.692006666667","25.2033083333333","6502800","萬里區"
"207004","225-TW","2018/08/23 17:49:23","新北市萬里區萬里里瑪鋉頂街61號","121.688386666667","25.1804733333333","6502800","萬里區"
"252002","178-VK","2018/08/23 17:49:15","新北市三芝區智成街47號","121.504193333333","25.25627","6502100","三芝區"
"252001","292-VK","2018/08/23 17:49:11","新北市三芝區中興街一段8號","121.497451666667","25.2594633333333","6502100","三芝區"
"237004","KEA-2597","2018/08/23 17:49:05","新北市三峽區中山路184巷10號","121.364195","24.9366383333333","6500900","三峽區"
"237009","210-TH","2018/08/23 17:49:23","新北市三峽區大勇路17號","121.367356666667","24.936755","6500900","三峽區"
"237013","252-BX","2018/08/23 17:49:15","新北市三峽區愛國路33-8號","121.374495","24.9332016666667","6500900","三峽區"
"237012","275-BY","2018/08/23 17:49:17","新北市三峽區民生街108號","121.373511666667","24.9352816666667","6500900","三峽區"
"237008","302-VK","2018/08/23 17:49:20","新北市三峽區中正路二段3號","121.367338333333","24.91967","6500900","三峽區"
"237014","433-BY","2018/08/23 17:49:16","新北市三峽區文化路120巷16號","121.371078333333","24.9367166666667","6500900","三峽區"
"237006","5529-G3","2018/08/23 17:49:24","新北市三峽區介壽路二段56號","121.391553333333","24.9350716666667","6500900","三峽區"
"237011","KEA-2596","2018/08/23 17:49:21","新北市三峽區民權街132號","121.368503333333","24.9320116666667","6500900","三峽區"
"237016","649-BX","2018/08/23 17:49:07","新北市三峽區白雞57-30號","121.390671666667","24.910925","6500900","三峽區"
"237010","706-TV","2018/08/23 17:49:15","新北市三峽區復興路233號","121.368606666667","24.9388383333333","6500900","三峽區"
"237005","AKY-6261","2018/08/23 17:49:08","新北市三峽區中山路459巷163-3號","121.348575","24.9330416666667","6500900","三峽區"
"236070","105-UM","2018/08/23 17:49:16","新北市土城區青雲路322巷20號","121.457541666667","24.9757566666667","6501300","土城區"
"236042","107-UM","2018/08/23 17:49:13","新北市土城區城林路6巷80號","121.438551666667","24.9795316666667","6501300","土城區"
"236078","166-UM","2018/08/23 17:49:08","新北市土城區中央路三段188號","121.430648333333","24.96499","6501300","土城區"
"236030","253-BX","2018/08/23 17:49:16","新北市土城區城林路6巷80號","121.438696666667","24.979625","6501300","土城區"
"236026","269-VK","2018/08/23 17:49:06","新北市土城區中華路二段6號","121.439513333333","24.979155","6501300","土城區"
"236014","270-VK","2018/08/23 17:48:57","新北市土城區城林路6巷80號","121.438523333333","24.9796183333333","6501300","土城區"
"236038","271-VK","2018/08/23 17:49:20","新北市土城區城林路6巷80號","121.438443333333","24.9797966666667","6501300","土城區"
"236021","401-BY","2018/08/23 17:49:22","新北市土城區中華路二段2號","121.438863333333","24.9796316666667","6501300","土城區"
"236059","912-UM","2018/08/23 17:49:15","新北市土城區中華路二段50號","121.439163333333","24.97775","6501300","土城區"
"236049","913-UM","2018/08/23 17:49:20","新北市土城區城林路6巷80號","121.43848","24.979565","6501300","土城區"
"236063","915-UM","2018/08/23 17:49:05","新北市土城區城林路6巷80號","121.438551666667","24.979745","6501300","土城區"
"236055","AAC-216","2018/08/23 17:49:17","新北市土城區城林路6巷80號","121.438461666667","24.9796216666667","6501300","土城區"
"242034","AAC-296","2018/08/23 17:49:08","新北市新莊區新莊路765號","121.44244","25.0326033333333","6500500","新莊區"
"242058","986-R7","2018/08/23 17:49:21","新北市新莊區中正路730-5號","121.41479","25.0236333333333","6500500","新莊區"
"242053","751-BX","2018/08/23 17:49:11","新北市新莊區民安西路468-1號","121.431663333333","25.0078366666667","6500500","新莊區"
"242023","705-TV","2018/08/23 17:49:23","新北市新莊區福樂街62號","121.457823333333","25.0462016666667","6500500","新莊區"
"242027","615-BX","2018/08/23 17:49:20","新北市新莊區福壽街163號","121.457818333333","25.0535966666667","6500500","新莊區"
"242025","613-BX","2018/08/23 17:49:22","新北市三重區新北大道二段39號","121.470736666667","25.0612916666667","6500500","新莊區"
"242042","566-BX","2018/08/23 17:49:12","新北市新莊區中正路614巷4弄2號","121.42581","25.0304816666667","6500500","新莊區"
"242046","497-BY","2018/08/23 17:49:18","新北市新莊區福營路141號","121.432535","25.031695","6500500","新莊區"
"242019","442-UM","2018/08/23 17:49:23","新北市新莊區民樂街83號","121.457905","25.04309","6500500","新莊區"
"242051","441-UM","2018/08/23 17:49:14","新北市新莊區西盛街311巷7號","121.428393333333","25.0153283333333","6500500","新莊區"
"242056","440-UM","2018/08/23 17:49:19","新北市新莊區瓊林路40巷24號","121.446978333333","25.030195","6500500","新莊區"
"242036","415-TV","2018/08/23 17:49:16","新北市新莊區建福路64號","121.426628333333","25.027035","6500500","新莊區"
"242007","413-TV","2018/08/23 17:49:19","新北市新莊區福樂街132巷1號","121.45668","25.0481783333333","6500500","新莊區"
"242044","400-BY","2018/08/23 17:49:22","新北市新莊區中正路857號","121.419671666667","25.0279533333333","6500500","新莊區"
"242061","353-BY","2018/08/23 17:49:20","新北市新莊區瓊林南路204號","121.434105","25.0065683333333","6500500","新莊區"
"242009","132-UY","2018/08/23 17:49:13","新北市新莊區昌明街42號","121.456325","25.052255","6500500","新莊區"
"242039","133-UY","2018/08/23 17:49:04","新北市新莊區民安路162號","121.42478","25.0244166666667","6500500","新莊區"
"242031","135-UY","2018/08/23 17:49:05","新北市新莊區新泰路357巷1弄45號","121.442665","25.039845","6500500","新莊區"
"242048","172-VK","2018/08/23 17:49:15","新北市新莊區萬安街102巷20號","121.420398333333","25.0230083333333","6500500","新莊區"
"242011","173-VK","2018/08/23 17:49:12","新北市新莊區中港路721號","121.450453333333","25.0576933333333","6500500","新莊區"
"242017","175-VK","2018/08/23 17:49:05","新北市新莊區永安街6號","121.452255","25.0449083333333","6500500","新莊區"
"242004","176-VK","2018/08/23 17:49:22","新北市新莊區自立街258號","121.459165","25.0455366666667","6500500","新莊區"
"242015","346-TH","2018/08/23 17:49:13","新北市新莊區新泰路478號","121.44282","25.0454916666667","6500500","新莊區"
"242021","348-TH","2018/08/23 17:49:21","新北市新莊區永寧街37巷1號","121.452893333333","25.039495","6500500","新莊區"
"242002","349-TH","2018/08/23 17:49:24","新北市新莊區景德路119號","121.451398333333","25.0343283333333","6500500","新莊區"
"238015","755-BX","2018/08/23 17:49:08","新北市樹林區長壽街19巷2號","121.421845","24.9941433333333","6500700","樹林區"
"238023","601-UM","2018/08/23 17:49:07","新北市樹林區龍興街30號","121.402958333333","25.0159183333333","6500700","樹林區"
"238019","599-UM","2018/08/23 17:49:23","新北市樹林區太平路255-1號","121.418845","24.9746866666667","6500700","樹林區"
"238018","571-TV","2018/08/23 17:49:09","新北市樹林區樹新路19號","121.426945","24.99453","6500700","樹林區"
"238022","KEA-2213","2018/08/23 17:49:25","新北市樹林區太順街72號","121.417591666667","24.97918","6500700","樹林區"
"238021","KEA-2539","2018/08/23 17:49:23","新北市樹林區柑園街一段45號","121.403388333333","24.9602","6500700","樹林區"
"238025","303-VK","2018/08/23 17:49:09","新北市樹林區三俊街128號","121.415588333333","25.01545","6500700","樹林區"
"238017","283-BY","2018/08/23 17:49:22","新北市樹林區中正路558號","121.411281666667","25.0145166666667","6500700","樹林區"
"238014","282-BY","2018/08/23 17:49:08","新北市樹林區保安街一段289巷7號","121.414571666667","24.9957166666667","6500700","樹林區"
"238020","268-VK","2018/08/23 17:49:11","新北市樹林區三俊街211號","121.420543333333","25.0153983333333","6500700","樹林區"
"238026","172-UY","2018/08/23 17:49:19","新北市樹林區中洲街41號","121.39691","24.971275","6500700","樹林區"
"238016","169-UY","2018/08/23 17:49:18","新北市樹林區啟智街151巷21號","121.416261666667","24.9874233333333","6500700","樹林區"
"239007","AAC-297","2018/08/23 17:49:12","新北市鶯歌區鶯桃路136號","121.338156666667","24.954975","6500800","鶯歌區"
"239006","891-R6","2018/08/23 17:49:21","新北市鶯歌區永和街115巷66-1號","121.333791666667","24.9700066666667","6500800","鶯歌區"
"239008","527-UM","2018/08/23 17:49:13","新北市鶯歌區大湖路700巷22弄17號","121.333796666667","24.97735","6500800","鶯歌區"
"239005","526-UM","2018/08/23 17:49:19","新北市鶯歌區鳳吉五街15號","121.326826666667","24.9724583333333","6500800","鶯歌區"
"239001","417-VK","2018/08/23 17:49:14","新北市鶯歌區中正三路408號","121.325581666667","24.9346916666667","6500800","鶯歌區"
"239003","360-BY","2018/08/23 17:49:23","新北市鶯歌區鶯桃路285巷2-5號","121.334375","24.9591366666667","6500800","鶯歌區"
"239002","359-BY","2018/08/23 17:49:12","新北市鶯歌區育德街11號","121.344563333333","24.9551316666667","6500800","鶯歌區"
"239004","193-VK","2018/08/23 17:49:16","新北市鶯歌區文化路142號","121.352141666667","24.9509933333333","6500800","鶯歌區"
"221008","489-VK","2018/08/23 17:49:10","新北市汐止區康寧街901號","121.651403333333","25.0750283333333","6501100","汐止區"
"221036","130-UY","2018/08/23 17:49:06","新北市汐止區汐萬路一段114號","121.653878333333","25.0712716666667","6501100","汐止區"
"221015","131-UY","2018/08/23 17:49:25","新北市汐止區長江街249-1號","121.662843333333","25.07936","6501100","汐止區"
"221010","269-BY","2018/08/23 17:49:21","新北市汐止區汐萬路二段122巷7號","121.64835","25.0857933333333","6501100","汐止區"
"221012","278-VK","2018/08/23 17:49:16","新北市汐止區長江街265號","121.664143333333","25.0798583333333","6501100","汐止區"
"221023","279-VK","2018/08/23 17:49:10","新北市汐止區民族一街18號","121.634953333333","25.0710983333333","6501100","汐止區"
"221027","281-BY","2018/08/23 17:49:16","新北市汐止區汐萬路一段312號","121.650613333333","25.0753283333333","6501100","汐止區"
"221029","298-VK","2018/08/23 17:49:10","新北市汐止區康寧街901號","121.651566666667","25.0747983333333","6501100","汐止區"
"221021","299-VK","2018/08/23 17:49:21","新北市汐止區水源路一段13號","121.657181666667","25.06681","6501100","汐止區"
"221031","353-TW","2018/08/23 17:49:13","新北市汐止區中興路96巷16號","121.635565","25.0624633333333","6501100","汐止區"
"221002","129-UY","2018/08/23 17:49:12","新北市汐止區康寧街901號","121.651513333333","25.0750966666667","6501100","汐止區"
"221035","622-UM","2018/08/23 17:49:08","新北市汐止區汐萬路一段213號","121.651885","25.0720683333333","6501100","汐止區"
"221025","623-UM","2018/08/23 17:49:14","新北市汐止區大同路二段173號","121.651681666667","25.0644616666667","6501100","汐止區"
"221038","646-BX","2018/08/23 17:49:09","新北市汐止區汐萬路一段312號","121.650446666667","25.0751316666667","6501100","汐止區"
"221033","647-BX","2018/08/23 17:49:14","新北市汐止區林森街78號","121.623901666667","25.040855","6501100","汐止區"
"221002","753-BX","2018/08/23 17:49:18","新北市汐止區汐萬路一段81號","121.65472","25.070045","6501100","汐止區"
"242013","281-VK","2018/08/23 17:49:06","新北市新莊區中和街84號","121.447848333333","25.046455","6500500","新莊區"
