"lineid","car","time","location","longitude","latitude","cityid","cityname"
"234007","207-UY","2018/08/23 18:19:39","新北市永和區保生路55號","121.504766666667","25.0099966666667","6500400","永和區"
"234026","9371-KE","2018/08/23 18:19:53","新北市永和區豫溪街28巷2號","121.515196666667","25.00976","6500400","永和區"
"249005","172-UM","2018/08/23 18:19:52","新北市八里區荖阡坑路15-15號","121.40028","25.140445","6502300","八里區"
"249001","173-UM","2018/08/23 18:19:36","新北市八里區龍米路一段129號","121.452221666667","25.1267","6502300","八里區"
"249004","303-UY","2018/08/23 18:19:57","新北市八里區龍米路二段236-2號","121.431525","25.1589483333333","6502300","八里區"
"249002","305-UY","2018/08/23 18:19:51","新北市八里區龍米路一段398號","121.451265","25.1330316666667","6502300","八里區"
"248014","025-BX","2018/08/23 18:19:41","新北市五股區自強路19巷5-1號","121.434676666667","25.0738583333333","6501500","五股區"
"248016","026-BX","2018/08/23 18:19:42","新北市五股區成泰路三段477巷9號","121.449911666667","25.0988866666667","6501500","五股區"
"248006","077-UY","2018/08/23 18:19:51","新北市五股區中興路一段142-2號","121.464753333333","25.0738166666667","6501500","五股區"
"248008","095-VK","2018/08/23 18:19:41","新北市五股區更洲路32巷8弄14號","121.459231666667","25.0796316666667","6501500","五股區"
"248020","225-UY","2018/08/23 18:19:50","新北市五股區孝義路47巷22號","121.450978333333","25.10931","6501500","五股區"
"248012","247-BX","2018/08/23 18:19:44","新北市五股區御史路1巷93號","121.441135","25.0906116666667","6501500","五股區"
"248004","677-BX","2018/08/23 18:19:48","新北市五股區成泰路二段222-2號","121.439155","25.0854566666667","6501500","五股區"
"248002","678-BX","2018/08/23 18:19:47","新北市五股區西雲路46號","121.443501666667","25.0909216666667","6501500","五股區"
"248010","682-TV","2018/08/23 18:19:41","新北市五股區成泰路一段139巷2弄2號","121.435076666667","25.0729516666667","6501500","五股區"
"232011","375-UM","2018/08/23 18:19:37","新北市坪林區坪雙路一段41號","121.711695","24.94245","6502000","坪林區"
"244007","080-UY","2018/08/23 18:19:55","新北市林口區林口路130號","121.388325","25.081755","6501700","林口區"
"244019","403-UM","2018/08/23 18:19:51","新北市林口區忠孝路581巷8號","121.374995","25.068875","6501700","林口區"
"244013","KEA-2802","2018/08/23 18:19:54","新北市林口區佳林路101巷36號","121.38699","25.0799483333333","6501700","林口區"
"244023","483-VK","2018/08/23 18:19:42","新北市林口區仁愛路二段21號","121.38562","25.076015","6501700","林口區"
"244017","485-VK","2018/08/23 18:19:47","新北市林口區公園路16號","121.366373333333","25.0669216666667","6501700","林口區"
"244009","656-BX","2018/08/23 18:19:51","新北市林口區文化三路二段323號","121.379578333333","25.0874833333333","6501700","林口區"
"244011","657-BX","2018/08/23 18:19:43","新北市林口區新生街22號","121.394103333333","25.07656","6501700","林口區"
"244025","837-TS","2018/08/23 18:19:40","新北市林口區文化北路一段192-100號","121.357695","25.0707333333333","6501700","林口區"
"244021","838-TS","2018/08/23 18:19:42","新北市林口區自強七街1號","121.400306666667","25.0767633333333","6501700","林口區"
"222003","436-BY","2018/08/23 18:19:52","新北市深坑區旺耽路67號","121.62626","25.0029916666667","6501800","深坑區"
"222002","659-BX","2018/08/23 18:19:52","新北市深坑區雲鄉路25巷2號","121.622225","24.9998366666667","6501800","深坑區"
"231041","002-UM","2018/08/23 18:19:39","新北市新店區安華路28-1號","121.520016666667","24.96081","6500600","新店區"
"231059","046-UY","2018/08/23 18:19:42","新北市新店區安華路28-1號","121.519748333333","24.9607766666667","6500600","新店區"
"231040","047-UY","2018/08/23 18:19:37","新北市新店區安華路28-1號","121.518946666667","24.96094","6500600","新店區"
"231044","106-UY","2018/08/23 18:19:42","新北市新店區安華路28-1號","121.519861666667","24.9606916666667","6500600","新店區"
"231046","107-UY","2018/08/23 18:19:37","新北市新店區直潭七街60號","121.532203333333","24.9397666666667","6500600","新店區"
"231052","108-UY","2018/08/23 18:19:52","新北市新店區安康路一段3-1號","121.534596666667","24.9607383333333","6500600","新店區"
"231047","187-VK","2018/08/23 18:19:49","新北市新店區安一路一段1-1號","121.519683333333","24.9611416666667","6500600","新店區"
"231054","KEA-2219","2018/08/23 18:19:48","新北市新店區安一路一段1-1號","121.520015","24.9612066666667","6500600","新店區"
"231057","256-BX","2018/08/23 18:19:41","新北市新店區安一路一段1-1號","121.519831666667","24.961115","6500600","新店區"
"231050","AAD-862","2018/08/23 18:19:46","新北市新店區安一路一段1-1號","121.519805","24.9611033333333","6500600","新店區"
"231058","3713-VJ","2018/08/23 18:19:45","新北市新店區環河路19巷13-1號","121.537675","24.9603216666667","6500600","新店區"
"231066","4716-K9","2018/08/23 18:19:48","新北市新店區安一路一段1-1號","121.519118333333","24.9612783333333","6500600","新店區"
"231056","4715-K9","2018/08/23 18:19:33","新北市新店區中央路57號","121.532793333333","24.9774","6500600","新店區"
"231067","4772-VM","2018/08/23 18:19:52","新北市新店區安華路3號","121.51907","24.9604566666667","6500600","新店區"
"231049","513-UM","2018/08/23 18:19:42","新北市新店區安一路一段1-1號","121.519698333333","24.9611066666667","6500600","新店區"
"231045","617-UM","2018/08/23 18:19:57","新北市新店區安一路一段1-1號","121.519473333333","24.9610233333333","6500600","新店區"
"231061","619-UM","2018/08/23 18:19:53","新北市新店區安華路28-1號","121.519418333333","24.9606783333333","6500600","新店區"
"231063","641-BX","2018/08/23 18:19:48","新北市新店區安華路28-1號","121.519731666667","24.96058","6500600","新店區"
"231062","720-UM","2018/08/23 18:19:54","新北市新店區安一路一段1-1號","121.519201666667","24.961175","6500600","新店區"
"231060","897-TW","2018/08/23 18:19:37","新北市新店區安華路28-1號","121.519616666667","24.9607183333333","6500600","新店區"
"231043","899-TW","2018/08/23 18:19:45","新北市新店區安華路28-1號","121.51907","24.96087","6500600","新店區"
"231055","AKT-0513","2018/08/23 18:19:46","新北市新店區光明街181號","121.539693333333","24.963085","6500600","新店區"
"235066","003-UY","2018/08/23 18:19:46","新北市中和區中山路二段120號","121.502725","25.0036416666667","6500300","中和區"
"235064","005-UY","2018/08/23 18:19:51","新北市中和區圓通路167巷2號","121.497875","24.9952433333333","6500300","中和區"
"235063","006-UY","2018/08/23 18:19:50","新北市中和區中正路508號","121.488523333333","24.994315","6500300","中和區"
"235056","096-UM","2018/08/23 18:19:39","新北市中和區中正路866-2號","121.484196666667","25.0061183333333","6500300","中和區"
"235039","097-UM","2018/08/23 18:19:39","新北市中和區景平路410號","121.508393333333","24.9930933333333","6500300","中和區"
"235065","098-UM","2018/08/23 18:19:56","新北市中和區莊敬路49巷18號","121.50159","25.0060283333333","6500300","中和區"
"235058","151-BY","2018/08/23 18:19:43","新北市中和區圓通路367巷50號","121.492323333333","24.9858966666667","6500300","中和區"
"235055","183-VK","2018/08/23 18:19:36","新北市中和區員山路72號","121.480896666667","24.99357","6500300","中和區"
"235038","185-VK","2018/08/23 18:19:56","新北市中和區大智街3號","121.519391666667","24.9918566666667","6500300","中和區"
"235049","186-VK","2018/08/23 18:19:50","新北市中和區中正路637巷52弄1號","121.485585","24.993545","6500300","中和區"
"235067","255-BX","2018/08/23 18:19:43","新北市中和區和城路一段271巷1號","121.4857","24.9917516666667","6500300","中和區"
"235072","301-VK","2018/08/23 18:19:50","新北市中和區連城路263號","121.491826666667","24.9964166666667","6500300","中和區"
"235043","352-BY","2018/08/23 18:19:48","新北市中和區景平路379號","121.504076666667","24.99342","6500300","中和區"
"235042","KEA-2878","2018/08/23 18:19:53","新北市中和區大仁街20巷50號","121.520036666667","24.9933983333333","6500300","中和區"
"235069","4980-A6","2018/08/23 18:19:50","新北市中和區錦和路117號","121.490565","24.994325","6500300","中和區"
"235070","558-UM","2018/08/23 18:19:56","新北市中和區圓通路109號","121.499408333333","24.996565","6500300","中和區"
"235045","565-BX","2018/08/23 18:19:52","新北市中和區景安路200巷1弄2號","121.503791666667","24.9914133333333","6500300","中和區"
"235054","640-BX","2018/08/23 18:19:36","新北市中和區莒光路203號","121.472433333333","24.9987766666667","6500300","中和區"
"235060","647-TV","2018/08/23 18:19:49","新北市中和區連城路316號","121.483468333333","24.996115","6500300","中和區"
"235047","732-UM","2018/08/23 18:19:46","新北市中和區復興路261號","121.50283","24.990365","6500300","中和區"
"235046","733-UM","2018/08/23 18:19:49","新北市中和區中正路589巷15號","121.485721666667","24.99362","6500300","中和區"
"235062","800-TS","2018/08/23 18:19:39","新北市中和區橋和路128號","121.493496666667","25.006095","6500300","中和區"
"235057","801-TS","2018/08/23 18:19:53","新北市中和區民享街97巷15號","121.475573333333","24.99989","6500300","中和區"
"235041","802-TS","2018/08/23 18:19:38","新北市中和區中正路395號","121.489761666667","24.993585","6500300","中和區"
"235052","805-TS","2018/08/23 18:19:39","新北市中和區興南路二段32巷5號","121.507163333333","24.9854466666667","6500300","中和區"
"235048","896-TW","2018/08/23 18:19:42","新北市中和區中正路395號","121.489975","24.993535","6500300","中和區"
"235053","900-TW","2018/08/23 18:19:45","新北市中和區中正路637巷52弄9號","121.484941666667","24.993755","6500300","中和區"
"235051","157-BY","2018/08/23 18:19:49","新北市中和區忠孝街60巷2弄2號","121.511663333333","24.9837583333333","6500300","中和區"
"235037","AAC-213","2018/08/23 18:19:44","新北市中和區景德街88號","121.515918333333","24.9917116666667","6500300","中和區"
"220065","072-UY","2018/08/23 18:19:40","新北市板橋區華東街1-9號","121.448166666667","24.9949533333333","6500100","板橋區"
"226004","312-R5","2018/08/23 18:19:36","新北市平溪區薯榔里一坑路17號","121.713758333333","25.0216333333333","6502400","平溪區"
"228003","097-TW","2018/08/23 18:19:45","新北市貢寮區真理里美艷山街64號","121.919143333333","25.07285","6502600","貢寮區"
"228001","212-TW","2018/08/23 18:19:49","新北市貢寮區真理里新港街26巷55弄2-1號","121.927388333333","25.0528816666667","6502600","貢寮區"
"228002","663-BX","2018/08/23 18:19:38","新北市貢寮區福連里馬崗街1號","121.995281666667","25.0154083333333","6502600","貢寮區"
"224006","676-BX","2018/08/23 18:19:38","新北市瑞芳區三爪子坑路106巷1-1號","121.808083333333","25.1047383333333","6501200","瑞芳區"
"224002","639-TC","2018/08/23 18:19:48","新北市瑞芳區三爪子坑路91巷29號","121.811908333333","25.1064116666667","6501200","瑞芳區"
"224008","285-BY","2018/08/23 18:19:56","新北市瑞芳區逢甲路15號","121.809795","25.1087166666667","6501200","瑞芳區"
"224007","275-VK","2018/08/23 18:19:44","新北市瑞芳區大埔路67巷5-1號","121.764293333333","25.101625","6501200","瑞芳區"
"224009","273-VK","2018/08/23 18:19:55","新北市瑞芳區五號路4號","121.854721666667","25.1102616666667","6501200","瑞芳區"
"224005","271-BY","2018/08/23 18:19:43","新北市瑞芳區建基新村1號","121.812725","25.1306516666667","6501200","瑞芳區"
"227004","642-TC","2018/08/23 18:19:45","新北市雙溪區共和里中山路2號","121.863798333333","25.0337833333333","6502500","雙溪區"
"227010","400-TW","2018/08/23 18:19:39","新北市雙溪區牡丹里牡丹73號","121.85171","25.0593233333333","6502500","雙溪區"
"253005","032-BX","2018/08/23 18:19:41","新北市石門區中央路7號","121.566518333333","25.2915483333333","6502200","石門區"
"253006","295-VK","2018/08/23 18:19:42","新北市石門區老梅路61號","121.545756666667","25.2892566666667","6502200","石門區"
"222001","KEA-2212","2018/08/23 18:19:49","新北市深坑區北深路二段53號","121.618908333333","25.0039666666667","6501800","深坑區"
"208002","KEA-2872","2018/08/23 18:19:49","新北市金山區磺港里社寮28號","121.635463333333","25.22969","6502700","金山區"
"208003","665-BX","2018/08/23 18:19:54","新北市金山區民生路160號","121.64687","25.2230116666667","6502700","金山區"
"208001","761-BX","2018/08/23 18:19:43","新北市金山區自強路13號","121.640386666667","25.21654","6502700","金山區"
"251005","010-UM","2018/08/23 18:19:33","新北市淡水區水源街一段122巷37號","121.447158333333","25.1704066666667","6501000","淡水區"
"251001","011-UM","2018/08/23 18:19:39","新北市淡水區自強路307巷1號","121.462046666667","25.1317783333333","6501000","淡水區"
"251013","KEA-2871","2018/08/23 18:19:37","新北市淡水區行忠路657號","121.470193333333","25.1991466666667","6501000","淡水區"
"251016","179-VK","2018/08/23 18:19:52","新北市淡水區淡金路三段228巷20號","121.449585","25.204945","6501000","淡水區"
"251014","180-VK","2018/08/23 18:19:49","新北市淡水區崙頂16號","121.491886666667","25.2215883333333","6501000","淡水區"
"251015","181-VK","2018/08/23 18:19:34","新北市淡水區興福寮88巷1號","121.485418333333","25.16497","6501000","淡水區"
"251010","413-VK","2018/08/23 18:19:54","新北市淡水區淡海路180巷12-3號","121.420433333333","25.1847016666667","6501000","淡水區"
"251012","441-VK","2018/08/23 18:19:45","新北市淡水區北新路二段77-5號","121.480505","25.1855","6501000","淡水區"
"251008","442-VK","2018/08/23 18:19:38","新北市淡水區水源街二段194號","121.457056666667","25.1756766666667","6501000","淡水區"
"251004","443-VK","2018/08/23 18:19:50","新北市淡水區民族路132巷2號","121.462805","25.13477","6501000","淡水區"
"251006","561-UM","2018/08/23 18:19:42","新北市淡水區新民街61號","121.438543333333","25.1762883333333","6501000","淡水區"
"251011","650-BX","2018/08/23 18:19:49","新北市淡水區坪頂路55-1號","121.458578333333","25.162545","6501000","淡水區"
"251002","672-BX","2018/08/23 18:19:51","新北市淡水區中正東路一段57號","121.452568333333","25.1624633333333","6501000","淡水區"
"251003","766-UM","2018/08/23 18:19:42","新北市淡水區北新路180號","121.44938","25.1787783333333","6501000","淡水區"
"207003","550-UM","2018/08/23 18:19:47","新北市萬里區野柳里港東路6-4號","121.68673","25.2032883333333","6502800","萬里區"
"207004","225-TW","2018/08/23 18:19:43","新北市萬里區中幅里中福路125號","121.67613","25.165935","6502800","萬里區"
"252002","178-VK","2018/08/23 18:19:55","新北市三芝區中山路二段39號","121.50296","25.2551133333333","6502100","三芝區"
"252003","249-BX","2018/08/23 18:19:39","新北市三芝區錫板里海尾14-32號","121.477735","25.2597","6502100","三芝區"
"252001","292-VK","2018/08/23 18:19:48","新北市三芝區中興街二段6號","121.498371666667","25.2565416666667","6502100","三芝區"
"237004","KEA-2597","2018/08/23 18:19:45","新北市三峽區圳頭1-1號","121.374311666667","24.8903383333333","6500900","三峽區"
"237007","153-BY","2018/08/23 18:19:45","新北市三峽區大埔路10號","121.365666666667","24.9095616666667","6500900","三峽區"
"237009","210-TH","2018/08/23 18:19:42","新北市三峽區大仁路2號","121.36688","24.9376883333333","6500900","三峽區"
"237013","252-BX","2018/08/23 18:19:48","新北市三峽區永安街3號","121.378","24.92992","6500900","三峽區"
"237012","275-BY","2018/08/23 18:19:38","新北市三峽區民生街1巷3-5號","121.377133333333","24.9364333333333","6500900","三峽區"
"237008","302-VK","2018/08/23 18:19:44","新北市三峽區白雞68-85號","121.39254","24.908575","6500900","三峽區"
"237014","433-BY","2018/08/23 18:19:36","新北市三峽區復興路110巷2弄18號","121.373246666667","24.9378716666667","6500900","三峽區"
"237006","5529-G3","2018/08/23 18:19:44","新北市三峽區溪東路235號","121.406546666667","24.9326","6500900","三峽區"
"237011","KEA-2596","2018/08/23 18:19:41","新北市三峽區溪東路213號","121.405621666667","24.932945","6500900","三峽區"
"237016","649-BX","2018/08/23 18:19:47","新北市三峽區紫微路42-1號","121.422251666667","24.9198966666667","6500900","三峽區"
"237010","706-TV","2018/08/23 18:19:55","新北市三峽區中園街3號","121.368586666667","24.9274916666667","6500900","三峽區"
"237005","AKY-6261","2018/08/23 18:19:48","新北市三峽區忠孝街24-4號","121.371343333333","24.9345216666667","6500900","三峽區"
"236070","105-UM","2018/08/23 18:19:56","新北市土城區永豐路171-1號","121.469251666667","24.9793983333333","6501300","土城區"
"236042","107-UM","2018/08/23 18:19:53","新北市土城區裕生路61號","121.447738333333","24.98621","6501300","土城區"
"236078","166-UM","2018/08/23 18:19:48","新北市土城區中央路三段281巷23弄1號","121.425966666667","24.9620033333333","6501300","土城區"
"236030","253-BX","2018/08/23 18:19:35","新北市土城區順風路24號","121.44072","24.9766933333333","6501300","土城區"
"236026","269-VK","2018/08/23 18:19:46","新北市土城區承天路20號","121.439583333333","24.9633683333333","6501300","土城區"
"236014","270-VK","2018/08/23 18:19:37","新北市土城區立清街69號","121.46033","24.9873","6501300","土城區"
"236038","271-VK","2018/08/23 18:19:40","新北市土城區青雲路483巷10弄15號","121.459353333333","24.9732233333333","6501300","土城區"
"236021","401-BY","2018/08/23 18:19:42","新北市土城區明德路二段69號","121.451336666667","24.9812183333333","6501300","土城區"
"236059","912-UM","2018/08/23 18:19:35","新北市土城區中央路四段464號","121.40996","24.95052","6501300","土城區"
"236049","913-UM","2018/08/23 18:19:40","新北市土城區青雲路318號","121.458721666667","24.977075","6501300","土城區"
"236063","915-UM","2018/08/23 18:19:45","新北市土城區金城路三段208號","121.471683333333","24.989765","6501300","土城區"
"236055","AAC-216","2018/08/23 18:19:43","新北市土城區中華路二段100號","121.438126666667","24.9743816666667","6501300","土城區"
"242058","986-R7","2018/08/23 18:19:41","新北市新莊區新北大道七段842號","121.413713333333","25.0236383333333","6500500","新莊區"
"242053","751-BX","2018/08/23 18:19:51","新北市新莊區民安西路410巷12弄2號","121.427938333333","25.0090816666667","6500500","新莊區"
"242027","615-BX","2018/08/23 18:19:39","新北市新莊區幸福路759號","121.448068333333","25.0489716666667","6500500","新莊區"
"242025","613-BX","2018/08/23 18:19:42","新北市新莊區五工三路97號","121.457983333333","25.0654033333333","6500500","新莊區"
"242042","566-BX","2018/08/23 18:19:52","新北市新莊區天祥街71巷21號","121.415588333333","25.0285966666667","6500500","新莊區"
"242046","497-BY","2018/08/23 18:19:49","新北市新莊區中正路803巷8號","121.421446666667","25.02814","6500500","新莊區"
"242019","442-UM","2018/08/23 18:19:45","新北市新莊區新泰路283號","121.44562","25.04051","6500500","新莊區"
"242051","441-UM","2018/08/23 18:19:38","新北市新莊區民安西路44號","121.427486666667","25.020885","6500500","新莊區"
"242056","440-UM","2018/08/23 18:19:39","新北市新莊區瓊林路13-3號","121.448953333333","25.0310283333333","6500500","新莊區"
"242036","415-TV","2018/08/23 18:19:56","新北市新莊區後港一路49巷3弄4號","121.425526666667","25.0268166666667","6500500","新莊區"
"242044","400-BY","2018/08/23 18:19:42","新北市新莊區鳳山街56巷10號","121.414058333333","25.026365","6500500","新莊區"
"242061","353-BY","2018/08/23 18:19:51","新北市新莊區新樹路119號","121.437228333333","25.0263816666667","6500500","新莊區"
"242009","132-UY","2018/08/23 18:19:53","新北市新莊區昌盛街4號","121.453213333333","25.0497716666667","6500500","新莊區"
"242039","133-UY","2018/08/23 18:19:44","新北市新莊區新樹路206巷4號","121.433591666667","25.0205066666667","6500500","新莊區"
"242031","135-UY","2018/08/23 18:19:45","新北市新莊區新泰路277巷43弄3號","121.4441","25.0400866666667","6500500","新莊區"
"242011","173-VK","2018/08/23 18:19:52","新北市新莊區中港路531巷38號","121.450585","25.0522","6500500","新莊區"
"242021","348-TH","2018/08/23 18:19:40","新北市新莊區中正路225號","121.45074","25.0357983333333","6500500","新莊區"
"242002","349-TH","2018/08/23 18:19:49","新北市新莊區大觀街2號","121.45455","25.0341066666667","6500500","新莊區"
"238015","755-BX","2018/08/23 18:19:48","新北市樹林區文化街79巷1號","121.41684","24.9891033333333","6500700","樹林區"
"238023","601-UM","2018/08/23 18:19:47","新北市樹林區三福街114號","121.406448333333","25.01628","6500700","樹林區"
"238019","599-UM","2018/08/23 18:19:52","新北市樹林區中華路190-16號","121.411783333333","24.9805816666667","6500700","樹林區"
"238018","571-TV","2018/08/23 18:19:50","新北市樹林區保安街一段16巷21號","121.428233333333","24.9939916666667","6500700","樹林區"
"238024","5061-A6","2018/08/23 18:19:40","新北市樹林區育英街8號","121.422718333333","24.98907","6500700","樹林區"
"238025","303-VK","2018/08/23 18:19:49","新北市樹林區保安街一段225號","121.420333333333","24.9964","6500700","樹林區"
"238017","283-BY","2018/08/23 18:19:42","新北市樹林區光榮街79號","121.41208","25.002915","6500700","樹林區"
"238020","268-VK","2018/08/23 18:19:51","新北市樹林區三俊街14號","121.411081666667","25.0154183333333","6500700","樹林區"
"238026","172-UY","2018/08/23 18:19:39","新北市樹林區佳園路一段75巷104號","121.396518333333","24.97053","6500700","樹林區"
"238016","169-UY","2018/08/23 18:19:38","新北市樹林區文化街28號","121.419353333333","24.9876716666667","6500700","樹林區"
"239007","AAC-297","2018/08/23 18:19:52","新北市鶯歌區育英街67號","121.347286666667","24.9521783333333","6500800","鶯歌區"
"239006","891-R6","2018/08/23 18:19:41","新北市鶯歌區鶯桃路365巷120號","121.330283333333","24.962285","6500800","鶯歌區"
"239008","527-UM","2018/08/23 18:19:53","新北市鶯歌區國際一路179號","121.336255","24.97652","6500800","鶯歌區"
"239005","526-UM","2018/08/23 18:19:39","新北市鶯歌區鶯桃路668巷73號","121.329923333333","24.9717583333333","6500800","鶯歌區"
"239001","417-VK","2018/08/23 18:19:54","新北市鶯歌區國中街106號","121.34023","24.9403666666667","6500800","鶯歌區"
"239003","360-BY","2018/08/23 18:19:43","新北市鶯歌區福安街58號","121.335588333333","24.9651783333333","6500800","鶯歌區"
"239002","359-BY","2018/08/23 18:19:52","新北市鶯歌區中山路329巷6弄8號","121.343675","24.95602","6500800","鶯歌區"
"239004","193-VK","2018/08/23 18:19:36","新北市鶯歌區尖山路137巷13號","121.347156666667","24.948245","6500800","鶯歌區"
"221008","489-VK","2018/08/23 18:19:50","新北市汐止區汐萬路一段329號","121.649958333333","25.0756283333333","6501100","汐止區"
"221036","130-UY","2018/08/23 18:19:46","新北市汐止區長興街一段53號","121.67063","25.080095","6501100","汐止區"
"221015","131-UY","2018/08/23 18:19:45","新北市汐止區鄉長路二段23巷10號","121.667421666667","25.0829866666667","6501100","汐止區"
"221010","269-BY","2018/08/23 18:19:40","新北市汐止區祥雲街14號","121.646261666667","25.0899316666667","6501100","汐止區"
"221012","278-VK","2018/08/23 18:19:49","新北市汐止區保長路33號","121.672758333333","25.07967","6501100","汐止區"
"221023","279-VK","2018/08/23 18:19:50","新北市汐止區康寧街430號","121.631256666667","25.0676366666667","6501100","汐止區"
"221032","280-BY","2018/08/23 18:19:39","新北市汐止區民權街二段109巷10號","121.619318333333","25.0467783333333","6501100","汐止區"
"221027","281-BY","2018/08/23 18:19:36","新北市汐止區和平街7號","121.663225","25.07064","6501100","汐止區"
"221029","298-VK","2018/08/23 18:19:50","新北市汐止區康寧街861巷1號","121.645321666667","25.0758816666667","6501100","汐止區"
"221021","299-VK","2018/08/23 18:19:41","新北市汐止區連興街120號","121.653708333333","25.0624633333333","6501100","汐止區"
"221031","353-TW","2018/08/23 18:19:53","新北市汐止區大同路一段219巷26號","121.633086666667","25.05888","6501100","汐止區"
"221002","129-UY","2018/08/23 18:19:53","新北市汐止區福德一路201巷36號","121.635753333333","25.06501","6501100","汐止區"
"221035","622-UM","2018/08/23 18:19:48","新北市汐止區大同路二段187巷8弄2號","121.652538333333","25.06553","6501100","汐止區"
"221025","623-UM","2018/08/23 18:19:54","新北市汐止區勤進路12巷37號","121.659091666667","25.0626733333333","6501100","汐止區"
"221038","646-BX","2018/08/23 18:19:49","新北市汐止區仁愛路316巷7號","121.664655","25.0676866666667","6501100","汐止區"
"221033","647-BX","2018/08/23 18:19:34","新北市汐止區宜興街35巷2號","121.62241","25.042365","6501100","汐止區"
"221002","753-BX","2018/08/23 18:19:38","新北市汐止區茄苳路120巷4號","121.667633333333","25.0699566666667","6501100","汐止區"
"220057","686-BX","2018/08/23 18:19:43","新北市板橋區華東街1-9號","121.448231666667","24.9948916666667","6500100","板橋區"
"235068","KEA-2873","2018/08/23 18:19:51","新北市中和區員山路36巷16-2號","121.485363333333","24.9913766666667","6500300","中和區"
"235061","KEA-2875","2018/08/23 18:19:35","新北市中和區莒光路158號","121.472581666667","25.0003016666667","6500300","中和區"
