"lineid","car","time","location","longitude","latitude","cityid","cityname"
"234046","148-BY","2018/08/23 19:19:26","新北市永和區永元路6號","121.522018333333","25.0000066666667","6500400","永和區"
"234007","207-UY","2018/08/23 19:19:19","新北市永和區中山路一段277號","121.506915","25.0070933333333","6500400","永和區"
"234081","298-R6","2018/08/23 19:19:29","新北市永和區福和路5-6號","121.525066666667","25.0083216666667","6500400","永和區"
"234038","336-UY","2018/08/23 19:19:18","新北市永和區民樂街55巷2號","121.527495","24.9984433333333","6500400","永和區"
"234064","337-UY","2018/08/23 19:19:25","新北市永和區永元路17巷6弄2號","121.521348333333","25.00065","6500400","永和區"
"234086","338-UY","2018/08/23 19:19:31","新北市永和區永利路69號","121.519568333333","25.0048083333333","6500400","永和區"
"234070","552-UM","2018/08/23 19:19:34","新北市永和區中正路696-1號","121.516481666667","25.0097816666667","6500400","永和區"
"234017","745-BX","2018/08/23 19:19:26","新北市永和區文化路144巷27號","121.512521666667","25.016725","6500400","永和區"
"234030","746-BX","2018/08/23 19:19:29","新北市永和區厚德街91號","121.523888333333","24.9988616666667","6500400","永和區"
"234054","KEA-2590","2018/08/23 19:19:28","新北市永和區中興街37號","121.51627","25.0118183333333","6500400","永和區"
"234013","KEA-2591","2018/08/23 19:19:33","新北市永和區仁愛路137號","121.511536666667","25.0130433333333","6500400","永和區"
"234061","AAD-866","2018/08/23 19:19:33","新北市永和區中正路381號","121.517135","25.00365","6500400","永和區"
"234042","862-TW","2018/08/23 19:19:34","新北市永和區保平路151巷12弄2號","121.510498333333","25.0050833333333","6500400","永和區"
"234050","863-TW","2018/08/23 19:19:35","新北市永和區保福路二段88巷27號","121.511825","25.0137383333333","6500400","永和區"
"234026","9371-KE","2018/08/23 19:19:23","新北市永和區安樂路144巷29號","121.515133333333","24.9997183333333","6500400","永和區"
"234011","9373-KE","2018/08/23 19:19:33","新北市永和區永平路218巷20號","121.510091666667","25.010985","6500400","永和區"
"249005","172-UM","2018/08/23 19:19:32","新北市八里區中華路三段27號","121.39644","25.14306","6502300","八里區"
"249001","173-UM","2018/08/23 19:19:16","新北市八里區中華路一段333-1號","121.412458333333","25.1548116666667","6502300","八里區"
"249003","593-UM","2018/08/23 19:19:34","新北市八里區中山路二段452號","121.39925","25.1479316666667","6502300","八里區"
"248016","026-BX","2018/08/23 19:19:22","新北市五股區成洲五路12號","121.452341666667","25.1015483333333","6501500","五股區"
"248008","095-VK","2018/08/23 19:19:21","新北市五股區中興路二段63巷17號","121.460183333333","25.075375","6501500","五股區"
"248020","225-UY","2018/08/23 18:55:49","新北市五股區凌雲路三段57號","121.425321666667","25.1249983333333","6501500","五股區"
"248012","247-BX","2018/08/23 19:19:24","新北市五股區中興路四段48巷16號","121.43862","25.08342","6501500","五股區"
"248004","677-BX","2018/08/23 19:19:28","新北市五股區五福路96號","121.432451666667","25.0904033333333","6501500","五股區"
"248002","678-BX","2018/08/23 19:19:27","新北市五股區凌雲路一段158巷14-1號","121.447878333333","25.1035333333333","6501500","五股區"
"248010","682-TV","2018/08/23 19:19:21","新北市五股區水碓一路23號","121.430633333333","25.0712866666667","6501500","五股區"
"234023","9380-KE","2018/08/23 19:19:29","新北市永和區竹林路109巷8號","121.520246666667","25.01192","6500400","永和區"
"234077","969-R7","2018/08/23 19:19:14","新北市永和區民治街72巷10號","121.51812","24.9985166666667","6500400","永和區"
"234074","AAC-211","2018/08/23 19:19:27","新北市永和區竹林路112-1號","121.519718333333","25.0117716666667","6500400","永和區"
"234067","AAC-212","2018/08/23 19:19:31","新北市永和區保平路44號","121.511391666667","25.007115","6500400","永和區"
"234003","AAC-295","2018/08/23 19:19:17","新北市永和區永平路179號","121.510313333333","25.0091933333333","6500400","永和區"
"244023","483-VK","2018/08/23 19:19:17","新北市林口區文化三路一段555巷88-1號","121.368576666667","25.0764983333333","6501700","林口區"
"244017","485-VK","2018/08/23 19:19:27","新北市林口區文化北路一段436號","121.36532","25.0770533333333","6501700","林口區"
"244011","657-BX","2018/08/23 19:19:23","新北市林口區中山路97巷22號","121.389401666667","25.0779066666667","6501700","林口區"
"244025","837-TS","2018/08/23 19:19:20","新北市林口區民族路216巷3號","121.369196666667","25.0775666666667","6501700","林口區"
"243013","AAD-798","2018/08/23 19:19:28","新北市泰山區明志路三段145巷7號","121.425466666667","25.0399","6501600","泰山區"
"243009","297-R6","2018/08/23 19:19:19","新北市泰山區和平街13巷11號","121.43439","25.0651316666667","6501600","泰山區"
"243016","KEA-2801","2018/08/23 19:19:35","新北市泰山區明志路三段155號","121.424683333333","25.039775","6501600","泰山區"
"243015","421-VK","2018/08/23 19:19:24","新北市泰山區明志路二段6號","121.430016666667","25.0539016666667","6501600","泰山區"
"243011","KEA-2215","2018/08/23 19:19:30","新北市泰山區中央路11巷3號","121.426376666667","25.0427983333333","6501600","泰山區"
"243010","KEA-2216","2018/08/23 19:19:18","新北市泰山區明志路一段492巷5號","121.430123333333","25.0547283333333","6501600","泰山區"
"243012","646-TV","2018/08/23 19:19:21","新北市泰山區仁愛路94號","121.433173333333","25.0553883333333","6501600","泰山區"
"243014","680-BX","2018/08/23 19:19:32","新北市泰山區泰林路二段118號","121.43455","25.0592716666667","6501600","泰山區"
"222003","436-BY","2018/08/23 19:19:32","新北市深坑區深南路91號","121.62649","25.015995","6501800","深坑區"
"222002","659-BX","2018/08/23 19:19:32","新北市深坑區紅葉街2號","121.63314","25.0113016666667","6501800","深坑區"
"231041","002-UM","2018/08/23 19:19:19","新北市新店區溪園路247號","121.525446666667","24.9832833333333","6500600","新店區"
"231059","046-UY","2018/08/23 19:19:23","新北市新店區安和路二段155號","121.518963333333","24.974265","6500600","新店區"
"231040","047-UY","2018/08/23 19:19:37","新北市新店區三民路109號","121.535083333333","24.9721","6500600","新店區"
"231044","106-UY","2018/08/23 19:19:02","新北市新店區中興路三段321號","121.541981666667","24.9862733333333","6500600","新店區"
"231046","107-UY","2018/08/23 19:19:16","新北市新店區華城路5-3號","121.529288333333","24.9578883333333","6500600","新店區"
"231052","108-UY","2018/08/23 19:19:31","新北市新店區櫻花街150號","121.547573333333","24.9214383333333","6500600","新店區"
"231047","187-VK","2018/08/23 19:19:29","新北市新店區中興路二段57巷19號","121.545563333333","24.9708116666667","6500600","新店區"
"231054","KEA-2219","2018/08/23 19:19:28","新北市新店區國校路30號","121.538088333333","24.9545716666667","6500600","新店區"
"231042","268-BY","2018/08/23 19:19:33","新北市新店區中興路一段121號","121.541611666667","24.9630533333333","6500600","新店區"
"231051","278-BY","2018/08/23 19:19:22","新北市新店區中央路133巷9號","121.530851666667","24.9735633333333","6500600","新店區"
"231050","AAD-862","2018/08/23 19:19:26","新北市新店區竹林路30巷1號","121.552295","24.951305","6500600","新店區"
"231058","3713-VJ","2018/08/23 19:19:25","新北市新店區北新路一段283號","121.541155","24.9668933333333","6500600","新店區"
"231066","4716-K9","2018/08/23 19:19:28","新北市新店區安康路三段318號","121.486936666667","24.9518016666667","6500600","新店區"
"231056","4715-K9","2018/08/23 19:19:33","新北市新店區安興路81號","121.515458333333","24.9755233333333","6500600","新店區"
"231067","4772-VM","2018/08/23 19:19:32","新北市新店區安康路一段247巷6號","121.524615","24.9628333333333","6500600","新店區"
"231065","512-UM","2018/08/23 19:19:26","新北市新店區安祥路108巷53號","121.474375","24.9570816666667","6500600","新店區"
"231049","513-UM","2018/08/23 19:19:22","新北市新店區明德路111號","121.54154","24.97946","6500600","新店區"
"231045","617-UM","2018/08/23 19:19:17","新北市新店區北宜路一段260號","121.545713333333","24.9527116666667","6500600","新店區"
"231061","619-UM","2018/08/23 19:19:34","新北市新店區安康路一段65號","121.53044","24.9610483333333","6500600","新店區"
"231063","641-BX","2018/08/23 19:19:28","新北市新店區達觀路12號","121.50491","24.9409266666667","6500600","新店區"
"231064","719-UM","2018/08/23 19:19:34","新北市新店區安忠路57巷5-4號","121.513308333333","24.9589733333333","6500600","新店區"
"231062","720-UM","2018/08/23 19:19:33","新北市新店區安康路一段116號","121.527168333333","24.9625333333333","6500600","新店區"
"231060","897-TW","2018/08/23 19:19:17","新北市新店區安康路二段99號","121.51295","24.9626216666667","6500600","新店區"
"231043","899-TW","2018/08/23 19:19:28","新北市新店區北新路二段108號","121.542991666667","24.9743816666667","6500600","新店區"
"231055","AKT-0513","2018/08/23 19:19:26","新北市新店區柴埕路116號","121.504103333333","24.9596233333333","6500600","新店區"
"241022","060-VK","2018/08/23 19:19:37","新北市三重區中正北路60號","121.48685","25.0643316666667","6500200","三重區"
"241031","061-VK","2018/08/23 19:19:22","新北市三重區重新路四段206-5號","121.485973333333","25.054485","6500200","三重區"
"241017","063-VK","2018/08/23 19:19:19","新北市三重區大同北路182號","121.491548333333","25.0658883333333","6500200","三重區"
"241026","066-VK","2018/08/23 19:19:28","新北市三重區泉州街84巷18號","121.495806666667","25.05423","6500200","三重區"
"241009","267-UM","2018/08/23 19:19:36","新北市三重區溪尾街230巷42-1號","121.486213333333","25.08111","6500200","三重區"
"241032","269-UM","2018/08/23 19:19:29","新北市三重區新生街82號","121.484006666667","25.059295","6500200","三重區"
"241013","270-UM","2018/08/23 19:19:28","新北市三重區仁愛街94號","121.495255","25.0738333333333","6500200","三重區"
"241025","271-UM","2018/08/23 19:19:24","新北市三重區中正北路404號","121.475436666667","25.070415","6500200","三重區"
"241035","KEA-2210","2018/08/23 19:19:24","新北市三重區信義西街138號","121.495453333333","25.0643016666667","6500200","三重區"
"241020","413-TH","2018/08/23 19:19:19","新北市三重區大智街238-3號","121.489421666667","25.0729133333333","6500200","三重區"
"241030","480-VK","2018/08/23 19:19:35","新北市三重區成功路41巷99號","121.491501666667","25.0532583333333","6500200","三重區"
"241006","AAD-863","2018/08/23 19:19:26","新北市三重區車路頭街182號","121.483655","25.0772616666667","6500200","三重區"
"241029","942-UM","2018/08/23 19:19:38","新北市三重區重安街31號","121.491145","25.0569783333333","6500200","三重區"
"235066","003-UY","2018/08/23 19:19:26","新北市中和區景新街2號","121.502625","24.9997183333333","6500300","中和區"
"235064","005-UY","2018/08/23 19:19:31","新北市中和區連城路45號","121.498148333333","25.0018533333333","6500300","中和區"
"235063","006-UY","2018/08/23 19:19:30","新北市中和區連城路341號","121.488165","24.9960283333333","6500300","中和區"
"235056","096-UM","2018/08/23 19:19:19","新北市中和區員山路521號","121.479713333333","25.00676","6500300","中和區"
"235039","097-UM","2018/08/23 19:19:19","新北市中和區秀峰街117號","121.520065","24.9906733333333","6500300","中和區"
"235065","098-UM","2018/08/23 19:19:35","新北市中和區中山路二段64巷12弄4號","121.503881666667","25.0051416666667","6500300","中和區"
"235040","150-BY","2018/08/23 19:19:30","新北市中和區安平路55號","121.509458333333","24.9953833333333","6500300","中和區"
"235058","151-BY","2018/08/23 19:19:23","新北市中和區連城路469巷44弄17號","121.482391666667","24.9946633333333","6500300","中和區"
"235055","183-VK","2018/08/23 19:19:20","新北市中和區德光路45號","121.470328333333","25.0040766666667","6500300","中和區"
"235038","185-VK","2018/08/23 19:19:36","新北市中和區大仁街10巷50號","121.520296666667","24.9925633333333","6500300","中和區"
"235049","186-VK","2018/08/23 19:19:30","新北市中和區景新街228號","121.508063333333","24.9944566666667","6500300","中和區"
"235067","255-BX","2018/08/23 19:19:24","新北市中和區民樂路52號","121.483116666667","25.0012433333333","6500300","中和區"
"235044","293-VK","2018/08/23 19:19:13","新北市中和區中興街222-6號","121.50069","24.9896416666667","6500300","中和區"
"235072","301-VK","2018/08/23 19:19:30","新北市中和區連城路263巷4弄2號","121.491635","24.99588","6500300","中和區"
"235043","352-BY","2018/08/23 19:19:28","新北市中和區景平路426號","121.507476666667","24.99328","6500300","中和區"
"235042","KEA-2878","2018/08/23 19:19:33","新北市中和區安樂路217巷21弄16號","121.513965","24.997765","6500300","中和區"
"235069","4980-A6","2018/08/23 19:19:30","新北市中和區中山路二段181巷12號","121.50066","25.00232","6500300","中和區"
"235070","558-UM","2018/08/23 19:19:16","新北市中和區中山路二段247號","121.497931666667","25.0023366666667","6500300","中和區"
"235045","565-BX","2018/08/23 19:19:31","新北市中和區景新街423巷35弄23號","121.513883333333","24.9904866666667","6500300","中和區"
"235054","640-BX","2018/08/23 19:19:36","新北市中和區國光街107巷2弄11-1號","121.469886666667","24.999665","6500300","中和區"
"235060","647-TV","2018/08/23 19:19:29","新北市中和區員山路393號","121.481196666667","25.0028933333333","6500300","中和區"
"235047","732-UM","2018/08/23 19:19:26","新北市中和區景平路239巷73號","121.508245","24.9921016666667","6500300","中和區"
"235046","733-UM","2018/08/23 19:19:29","新北市中和區忠孝街2號","121.508688333333","24.9828066666667","6500300","中和區"
"235071","783-BX","2018/08/23 19:19:32","新北市中和區連城路469巷77號","121.48349","24.9940633333333","6500300","中和區"
"235062","800-TS","2018/08/23 19:19:19","新北市中和區中山路二段550號","121.484016666667","25.005305","6500300","中和區"
"235057","801-TS","2018/08/23 19:19:33","新北市中和區員山路200號","121.481306666667","25.000605","6500300","中和區"
"235041","802-TS","2018/08/23 19:19:18","新北市中和區中和路294號","121.508683333333","24.9997183333333","6500300","中和區"
"235052","805-TS","2018/08/23 19:19:19","新北市中和區華新街143巷17號","121.506665","24.98093","6500300","中和區"
"235048","896-TW","2018/08/23 19:19:22","新北市中和區忠孝街73號","121.512118333333","24.98503","6500300","中和區"
"235053","900-TW","2018/08/23 19:19:25","新北市中和區民德路236號","121.468133333333","24.99754","6500300","中和區"
"235051","157-BY","2018/08/23 19:19:29","新北市中和區和平街40號","121.509125","24.9905933333333","6500300","中和區"
"235037","AAC-213","2018/08/23 19:19:24","新北市中和區秀朗路三段10巷37弄4號","121.524011666667","24.99581","6500300","中和區"
"235059","AAC-215","2018/08/23 19:19:23","新北市中和區錦和路195巷14號","121.491345","24.9909683333333","6500300","中和區"
"220065","072-UY","2018/08/23 19:19:20","新北市板橋區國泰街76巷32號","121.467133333333","25.00712","6500100","板橋區"
"220086","073-UY","2018/08/23 19:19:22","新北市板橋區中正路216巷20號","121.456661666667","25.0184716666667","6500100","板橋區"
"220106","075-UY","2018/08/23 19:19:30","新北市板橋區雙十路三段66巷1號","121.470545","25.0319133333333","6500100","板橋區"
"220069","AAD-861","2018/08/23 19:19:20","新北市板橋區華興街29號","121.458433333333","25.00458","6500100","板橋區"
"226004","312-R5","2018/08/23 19:19:15","新北市平溪區十分里十分街156號","121.777911666667","25.043345","6502400","平溪區"
"228003","097-TW","2018/08/23 19:19:25","新北市貢寮區和美里和美街22-1號","121.912795","25.082625","6502600","貢寮區"
"228001","212-TW","2018/08/23 19:19:29","新北市貢寮區真理里新港街10號","121.925513333333","25.0543533333333","6502600","貢寮區"
"228002","663-BX","2018/08/23 19:19:32","新北市貢寮區龍門里復興街46-2號","121.928615","25.03002","6502600","貢寮區"
"224010","AGQ-8101","2018/08/23 19:12:10","新北市瑞芳區金光路334號","121.84837","25.1097333333333","6501200","瑞芳區"
"224008","285-BY","2018/08/23 19:19:16","新北市瑞芳區一坑路46號","121.803741666667","25.108835","6501200","瑞芳區"
"227004","642-TC","2018/08/23 19:19:26","新北市雙溪區平林里梅竹蹊43號","121.86014","25.0358033333333","6502500","雙溪區"
"227010","400-TW","2018/08/23 19:19:19","新北市雙溪區新基里新基北街40號","121.868505","25.038","6502500","雙溪區"
"253005","032-BX","2018/08/23 19:19:21","新北市石門區阿里荖7號","121.60945","25.2800033333333","6502200","石門區"
"253006","295-VK","2018/08/23 19:19:22","新北市石門區楓林23-19號","121.53757","25.2904633333333","6502200","石門區"
"222001","KEA-2212","2018/08/23 19:19:09","新北市深坑區北深路二段103號","121.617533333333","25.0033166666667","6501800","深坑區"
"208002","KEA-2872","2018/08/23 19:19:29","新北市金山區中正路110號","121.632783333333","25.2218283333333","6502700","金山區"
"208003","665-BX","2018/08/23 19:19:20","新北市金山區中山路161號","121.63873","25.2205266666667","6502700","金山區"
"208001","761-BX","2018/08/23 19:19:23","新北市金山區中山路105-1號","121.639658333333","25.219405","6502700","金山區"
"251009","008-UM","2018/08/23 19:19:27","新北市淡水區中山路68號","121.443486666667","25.1705","6501000","淡水區"
"251005","010-UM","2018/08/23 19:19:33","新北市淡水區水源街一段34巷1號","121.443268333333","25.1722283333333","6501000","淡水區"
"251001","011-UM","2018/08/23 19:19:19","新北市淡水區民權路92巷35-1號","121.462045","25.1268066666667","6501000","淡水區"
"251013","KEA-2871","2018/08/23 19:19:37","新北市淡水區安子內12-1號","121.481536666667","25.2190833333333","6501000","淡水區"
"251016","179-VK","2018/08/23 19:19:32","新北市淡水區下圭柔山119-51號","121.450691666667","25.2084633333333","6501000","淡水區"
"251014","180-VK","2018/08/23 19:19:29","新北市淡水區小中寮19-7號","121.484755","25.2295883333333","6501000","淡水區"
"251015","181-VK","2018/08/23 19:19:34","新北市淡水區山子邊16巷4號","121.48544","25.1819116666667","6501000","淡水區"
"251010","413-VK","2018/08/23 19:19:33","新北市淡水區沙崙路30號","121.421536666667","25.1814233333333","6501000","淡水區"
"251012","441-VK","2018/08/23 19:19:26","新北市淡水區下圭柔山90-8號","121.431346666667","25.2101783333333","6501000","淡水區"
"251006","561-UM","2018/08/23 19:19:22","新北市淡水區大信街38號","121.442111666667","25.1773966666667","6501000","淡水區"
"251007","577-R6","2018/08/23 19:19:20","新北市淡水區民生路117巷24號","121.465065","25.1393933333333","6501000","淡水區"
"251003","766-UM","2018/08/23 19:19:22","新北市淡水區中山北路一段168號","121.444408333333","25.1786816666667","6501000","淡水區"
"207003","550-UM","2018/08/23 19:19:27","新北市萬里區大鵬里萬里加投79-3號","121.64734","25.2123533333333","6502800","萬里區"
"207004","225-TW","2018/08/23 19:19:23","新北市萬里區萬里里成功新村65號","121.688346666667","25.174545","6502800","萬里區"
"252002","178-VK","2018/08/23 19:19:35","新北市三芝區淡金路二段18-1號","121.502671666667","25.2594666666667","6502100","三芝區"
"252001","292-VK","2018/08/23 19:19:28","新北市三芝區長勤街9巷11弄3號","121.501858333333","25.2547333333333","6502100","三芝區"
"237004","KEA-2597","2018/08/23 19:19:25","新北市三峽區有木206號","121.439146666667","24.85152","6500900","三峽區"
"237007","153-BY","2018/08/23 19:19:25","新北市三峽區麻園12-2號","121.362221666667","24.916505","6500900","三峽區"
"237009","210-TH","2018/08/23 19:19:22","新北市三峽區民生街185號","121.372111666667","24.9347983333333","6500900","三峽區"
"237013","252-BX","2018/08/23 19:19:15","新北市三峽區光明路75巷20號","121.377585","24.9280733333333","6500900","三峽區"
"237012","275-BY","2018/08/23 19:19:37","新北市三峽區三樹路222巷166號","121.386771666667","24.9428666666667","6500900","三峽區"
"237008","302-VK","2018/08/23 19:19:24","新北市三峽區大同路98號","121.375471666667","24.9276666666667","6500900","三峽區"
"237014","433-BY","2018/08/23 19:19:36","新北市三峽區中山路257巷37號","121.36214","24.93634","6500900","三峽區"
"237006","5529-G3","2018/08/23 19:19:24","新北市三峽區溪北街109號","121.398376666667","24.9354666666667","6500900","三峽區"
"237011","KEA-2596","2018/08/23 19:19:21","新北市三峽區介壽路三段107號","121.395538333333","24.9394416666667","6500900","三峽區"
"237016","649-BX","2018/08/23 19:19:26","新北市三峽區安坑38號","121.45477","24.932105","6500900","三峽區"
"237010","706-TV","2018/08/23 19:19:15","新北市三峽區國光街55號","121.374533333333","24.938005","6500900","三峽區"
"237005","AKY-6261","2018/08/23 19:19:28","新北市三峽區隆恩街245號","121.357718333333","24.9409666666667","6500900","三峽區"
"236070","105-UM","2018/08/23 19:19:15","新北市土城區學成路76巷1號","121.451196666667","24.9883033333333","6501300","土城區"
"236078","166-UM","2018/08/23 19:19:28","新北市土城區中央路四段323號","121.410573333333","24.951055","6501300","土城區"
"236026","269-VK","2018/08/23 19:19:26","新北市土城區中正路67巷27號","121.444335","24.9765566666667","6501300","土城區"
"236014","270-VK","2018/08/23 19:19:37","新北市土城區學府路一段23巷8號","121.458285","24.9875316666667","6501300","土城區"
"236021","401-BY","2018/08/23 19:19:21","新北市土城區峰廷街3號","121.469075","24.98732","6501300","土城區"
"236059","912-UM","2018/08/23 19:19:35","新北市土城區中央路二段223-13號","121.440455","24.9729833333333","6501300","土城區"
"236049","913-UM","2018/08/23 19:19:20","新北市土城區明德路一段365-1號","121.453661666667","24.9791116666667","6501300","土城區"
"242058","986-R7","2018/08/23 19:00:13","新北市新莊區新泰路357巷1弄57號","121.442541666667","25.0396866666667","6500500","新莊區"
"238015","755-BX","2018/08/23 19:19:34","新北市樹林區大安路531號","121.413626666667","24.9853116666667","6500700","樹林區"
"238023","601-UM","2018/08/23 19:19:27","桃園市龜山區萬壽路一段317號","121.402505","25.0171433333333","6500700","樹林區"
"238019","599-UM","2018/08/23 19:19:32","新北市樹林區鎮前街411巷1弄1號","121.415245","24.9830966666667","6500700","樹林區"
"238018","571-TV","2018/08/23 19:19:29","新北市樹林區中華路341-6號","121.415105","24.98028","6500700","樹林區"
"238024","5061-A6","2018/08/23 19:19:20","新北市樹林區福德街50號","121.398625","24.9743633333333","6500700","樹林區"
"238022","KEA-2213","2018/08/23 19:19:25","新北市樹林區國凱街70號","121.420773333333","24.9790616666667","6500700","樹林區"
"238021","KEA-2539","2018/08/23 19:19:35","新北市樹林區柑園街二段247巷17號","121.375526666667","24.95054","6500700","樹林區"
"238025","303-VK","2018/08/23 19:19:29","新北市樹林區中山路二段157號","121.406238333333","24.97881","6500700","樹林區"
"238017","283-BY","2018/08/23 19:19:22","新北市樹林區光榮街79號","121.412048333333","25.0030233333333","6500700","樹林區"
"238014","282-BY","2018/08/23 19:19:28","新北市樹林區保安二街40巷18號","121.425656666667","24.9946683333333","6500700","樹林區"
"238020","268-VK","2018/08/23 19:19:31","新北市樹林區俊英街121巷17號","121.423741666667","25.010125","6500700","樹林區"
"238026","172-UY","2018/08/23 19:19:19","新北市樹林區佳園路二段155號","121.39","24.957305","6500700","樹林區"
"238016","169-UY","2018/08/23 19:19:18","新北市樹林區復興路452巷8號","121.413228333333","24.9841566666667","6500700","樹林區"
"239007","AAC-297","2018/08/23 19:19:32","新北市鶯歌區中正一路345巷1號","121.357506666667","24.9572966666667","6500800","鶯歌區"
"239006","891-R6","2018/08/23 19:19:21","新北市鶯歌區鶯桃路296巷92號","121.336925","24.962015","6500800","鶯歌區"
"239008","527-UM","2018/08/23 19:19:33","新北市鶯歌區國際二路2巷13號","121.339431666667","24.973215","6500800","鶯歌區"
"239005","526-UM","2018/08/23 19:19:19","新北市鶯歌區大湖路269號","121.34545","24.9730833333333","6500800","鶯歌區"
"239001","417-VK","2018/08/23 19:19:34","新北市鶯歌區鶯桃路95巷73號","121.337188333333","24.9528183333333","6500800","鶯歌區"
"239003","360-BY","2018/08/23 19:19:23","新北市鶯歌區重慶街6-1號","121.351946666667","24.9527133333333","6500800","鶯歌區"
"239004","193-VK","2018/08/23 19:19:36","新北市鶯歌區中正三路鄭厝巷65號","121.331713333333","24.9335866666667","6500800","鶯歌區"
"221008","489-VK","2018/08/23 19:19:30","新北市汐止區康寧街304號","121.626398333333","25.067115","6501100","汐止區"
"221036","130-UY","2018/08/23 19:19:25","新北市汐止區康寧街901號","121.651648333333","25.0748683333333","6501100","汐止區"
"221015","131-UY","2018/08/23 19:19:25","新北市汐止區康寧街901號","121.651471666667","25.074925","6501100","汐止區"
"221010","269-BY","2018/08/23 19:19:21","新北市汐止區康寧街901號","121.651431666667","25.0750116666667","6501100","汐止區"
"221012","278-VK","2018/08/23 19:19:36","新北市汐止區長江街97號","121.658381666667","25.0728266666667","6501100","汐止區"
"221023","279-VK","2018/08/23 19:19:30","新北市汐止區康寧街901號","121.650963333333","25.0751966666667","6501100","汐止區"
"221032","280-BY","2018/08/23 19:19:19","新北市汐止區汐萬路一段160號","121.65256","25.071595","6501100","汐止區"
"221027","281-BY","2018/08/23 19:19:36","新北市汐止區汐萬路一段312號","121.650556666667","25.0753683333333","6501100","汐止區"
"221029","298-VK","2018/08/23 19:19:30","新北市汐止區康寧街901號","121.651705","25.0748983333333","6501100","汐止區"
"221021","299-VK","2018/08/23 19:19:21","新北市汐止區康寧街901號","121.651511666667","25.0750033333333","6501100","汐止區"
"221031","353-TW","2018/08/23 19:19:33","新北市汐止區汐萬路一段256巷3號","121.653335","25.0747183333333","6501100","汐止區"
"221002","129-UY","2018/08/23 19:19:33","新北市汐止區大同路一段312號","121.63733","25.05872","6501100","汐止區"
"221025","623-UM","2018/08/23 19:19:34","新北市汐止區康寧街901號","121.651535","25.0749066666667","6501100","汐止區"
"221038","646-BX","2018/08/23 19:19:23","新北市汐止區康寧街901號","121.650728333333","25.0752833333333","6501100","汐止區"
"221033","647-BX","2018/08/23 19:19:14","新北市汐止區南勢街3號","121.627101666667","25.0373366666667","6501100","汐止區"
"220079","145-BY","2018/08/23 19:19:21","新北市板橋區民權路202巷17-1號","121.460738333333","25.0166466666667","6500100","板橋區"
"220080","200-UY","2018/08/23 19:19:27","新北市板橋區大觀路二段5-1號","121.44714","25.003855","6500100","板橋區"
"220082","610-BX","2018/08/23 19:19:19","新北市板橋區篤行路三段99號","121.426328333333","24.9846666666667","6500100","板橋區"
"220101","245-BX","2018/08/23 19:19:22","新北市板橋區莊敬路39號","121.473608333333","25.0271383333333","6500100","板橋區"
"220056","276-BY","2018/08/23 19:19:33","新北市板橋區信義路54巷2號","121.457178333333","24.994105","6500100","板橋區"
"220072","277-BY","2018/08/23 19:19:31","新北市板橋區金門街337巷8弄6號","121.429595","24.9852683333333","6500100","板橋區"
"220071","283-VK","2018/08/23 19:19:03","新北市板橋區大豐街136號","121.461228333333","25.0009416666667","6500100","板橋區"
"220094","285-UM","2018/08/23 19:19:27","新北市板橋區吳鳳路21巷2號","121.466933333333","25.0312166666667","6500100","板橋區"
"220053","285-VK","2018/08/23 19:19:36","新北市板橋區富山街5號","121.478605","25.0217716666667","6500100","板橋區"
"220081","287-VK","2018/08/23 19:19:17","新北市板橋區南雅西路一段51號","121.453653333333","25.0048716666667","6500100","板橋區"
"220090","288-VK","2018/08/23 19:19:33","新北市板橋區長江路一段106巷13弄29號","121.461178333333","25.02972","6500100","板橋區"
"220061","295-UM","2018/08/23 19:19:33","新北市板橋區中山路二段318巷20弄30號","121.481085","25.01876","6500100","板橋區"
"220084","296-UM","2018/08/23 19:19:31","新北市板橋區滿平街136巷5弄1號","121.42822","24.9875566666667","6500100","板橋區"
"220092","299-UM","2018/08/23 19:19:27","新北市板橋區松江街70號","121.468723333333","25.0277966666667","6500100","板橋區"
"220075","303-R5","2018/08/23 19:19:22","新北市板橋區中正路305巷28弄1號","121.454293333333","25.0185066666667","6500100","板橋區"
"220062","305-R5","2018/08/23 19:19:31","新北市板橋區三民路二段153巷36弄2號","121.481195","25.01411","6500100","板橋區"
"220098","317-R6","2018/08/23 19:19:32","新北市板橋區民有街87號","121.46471","25.0275516666667","6500100","板橋區"
"220083","461-BY","2018/08/23 19:19:24","新北市板橋區大觀路二段174巷186弄10號","121.442703333333","25.0034883333333","6500100","板橋區"
"220064","486-VK","2018/08/23 19:19:18","新北市板橋區縣民大道二段22號","121.464181666667","25.0136033333333","6500100","板橋區"
"220088","491-VK","2018/08/23 19:19:30","新北市板橋區雙十路二段37-1號","121.476895","25.025765","6500100","板橋區"
"220035","560-BX","2018/08/23 19:19:20","新北市板橋區中正路360巷8號","121.45483","25.023605","6500100","板橋區"
"220103","561-BX","2018/08/23 19:19:35","新北市板橋區文化路一段188巷7弄18號","121.467695","25.019655","6500100","板橋區"
"220091","637-BX","2018/08/23 19:19:18","新北市板橋區萬板路408號","121.479033333333","25.0255166666667","6500100","板橋區"
"220057","686-BX","2018/08/23 19:19:23","新北市中和區壽德街26號","121.466576666667","24.9943933333333","6500100","板橋區"
"220077","687-BX","2018/08/23 19:19:27","新北市板橋區僑中一街2號","121.449116666667","25.0112583333333","6500100","板橋區"
"220093","689-BX","2018/08/23 19:19:31","新北市板橋區漢生西路97號","121.462561666667","25.0198883333333","6500100","板橋區"
"220054","741-BX","2018/08/23 19:19:25","新北市板橋區重慶路155巷45號","121.463778333333","25.0041216666667","6500100","板橋區"
"220102","KEA-2699","2018/08/23 19:19:28","新北市板橋區萬板路572號","121.481223333333","25.027165","6500100","板橋區"
"220055","827-TW","2018/08/23 19:19:25","新北市板橋區館前東路156巷30號","121.464243333333","25.00683","6500100","板橋區"
"220067","829-TW","2018/08/23 19:19:36","新北市板橋區長安街138巷7弄57號","121.474153333333","25.009285","6500100","板橋區"
"220068","830-TW","2018/08/23 19:19:35","新北市板橋區翠華街6巷61號","121.48117","25.0249683333333","6500100","板橋區"
"220096","831-TW","2018/08/23 19:19:34","新北市板橋區大同街35巷5號","121.47763","25.0275416666667","6500100","板橋區"
"220089","833-TW","2018/08/23 19:19:15","新北市板橋區文化路一段479巷44號","121.467963333333","25.022895","6500100","板橋區"
"220074","895-R6","2018/08/23 19:19:20","新北市板橋區中正路25巷11號","121.454851666667","25.0127516666667","6500100","板橋區"
"220073","985-R7","2018/08/23 19:19:34","新北市板橋區新生街31號","121.456395","25.0211816666667","6500100","板橋區"
"220097","AAC-210","2018/08/23 19:18:57","新北市板橋區幸福路70巷26號","121.460345","25.0208483333333","6500100","板橋區"
"220070","AAC-253","2018/08/23 19:19:29","新北市板橋區忠孝路140號","121.46375","25.0023133333333","6500100","板橋區"
"235068","KEA-2873","2018/08/23 19:19:21","新北市中和區景平路545巷1弄4號","121.498383333333","24.9989483333333","6500300","中和區"
"235061","KEA-2875","2018/08/23 19:19:05","新北市中和區連城路456巷7號","121.47863","24.9950516666667","6500300","中和區"
