"lineid","car","time","location","longitude","latitude","cityid","cityname"
"234046","148-BY","2018/08/23 19:49:26","新北市永和區永利路137號","121.524035","25.00346","6500400","永和區"
"234007","207-UY","2018/08/23 19:49:19","新北市中和區南工路1-1號","121.505335","25.0000266666667","6500400","永和區"
"234081","298-R6","2018/08/23 19:49:29","新北市永和區林森路48巷1號","121.524613333333","25.0045416666667","6500400","永和區"
"234038","336-UY","2018/08/23 19:49:18","新北市永和區民樂街57巷6號","121.527948333333","24.9984983333333","6500400","永和區"
"234064","337-UY","2018/08/23 19:49:25","新北市永和區中正路416號","121.51747","25.0019483333333","6500400","永和區"
"234086","338-UY","2018/08/23 19:49:34","新北市永和區中正路560號","121.517246666667","25.0058683333333","6500400","永和區"
"234070","552-UM","2018/08/23 19:49:34","新北市永和區竹林路80號","121.519318333333","25.0126916666667","6500400","永和區"
"234017","745-BX","2018/08/23 19:49:26","新北市永和區永和路二段299號","121.515868333333","25.016225","6500400","永和區"
"234030","746-BX","2018/08/23 19:49:27","新北市永和區四維街103巷16號","121.523735","24.997115","6500400","永和區"
"234054","KEA-2590","2018/08/23 19:49:17","新北市永和區竹林路75巷9號","121.519356666667","25.0135116666667","6500400","永和區"
"234013","KEA-2591","2018/08/23 19:49:33","新北市永和區仁愛路193號","121.510068333333","25.0126616666667","6500400","永和區"
"234061","AAD-866","2018/08/23 19:49:33","新北市永和區中正路152號","121.514848333333","24.9963883333333","6500400","永和區"
"234042","862-TW","2018/08/23 19:49:34","新北市永和區中和路389巷13號","121.508053333333","25.0009866666667","6500400","永和區"
"234050","863-TW","2018/08/23 19:49:15","新北市永和區保安路79號","121.508671666667","25.014775","6500400","永和區"
"234026","9371-KE","2018/08/23 19:49:35","新北市永和區雙和街43號","121.508913333333","25.0029683333333","6500400","永和區"
"234011","9373-KE","2018/08/23 19:49:33","新北市永和區仁愛路352巷112弄26號","121.501733333333","25.0087583333333","6500400","永和區"
"249001","173-UM","2018/08/23 19:49:24","新北市八里區中華路二段250號","121.405428333333","25.1497066666667","6502300","八里區"
"249004","303-UY","2018/08/23 19:49:32","新北市八里區仁愛路17號","121.413411666667","25.161","6502300","八里區"
"249002","305-UY","2018/08/23 19:44:08","新北市八里區頂寮三街72號","121.450483333333","25.1250333333333","6502300","八里區"
"249003","593-UM","2018/08/23 19:48:54","新北市八里區華峰三街37號","121.3986","25.1454066666667","6502300","八里區"
"248014","025-BX","2018/08/23 19:49:29","新北市五股區五福路32巷32號","121.435238333333","25.0898216666667","6501500","五股區"
"248016","026-BX","2018/08/23 19:49:22","新北市五股區成泰路三段601巷17-1號","121.451753333333","25.1033516666667","6501500","五股區"
"248008","095-VK","2018/08/23 19:49:21","新北市五股區四維路171巷3號","121.467606666667","25.0751266666667","6501500","五股區"
"248012","247-BX","2018/08/23 19:49:24","新北市五股區蓬萊路1-3號","121.434471666667","25.0796566666667","6501500","五股區"
"248004","677-BX","2018/08/23 19:49:28","新北市五股區成泰路一段10號","121.434526666667","25.067455","6501500","五股區"
"248002","678-BX","2018/08/23 19:49:27","新北市五股區成泰路四段15-6號","121.453288333333","25.106925","6501500","五股區"
"248010","682-TV","2018/08/23 19:49:21","新北市五股區登林路貿商巷2弄2號","121.430645","25.0696133333333","6501500","五股區"
"234077","969-R7","2018/08/23 19:49:34","新北市永和區智光街48號","121.51696","24.9978433333333","6500400","永和區"
"234074","AAC-211","2018/08/23 19:49:27","新北市永和區竹林路213巷6號","121.521205","25.0088366666667","6500400","永和區"
"234067","AAC-212","2018/08/23 19:49:36","新北市永和區中山路一段188號","121.509025","25.00884","6500400","永和區"
"234003","AAC-295","2018/08/23 19:49:17","新北市永和區福和路316號","121.516111666667","25.00737","6500400","永和區"
"243013","AAD-798","2018/08/23 19:38:40","新北市泰山區應化街7號","121.423895","25.04372","6501600","泰山區"
"243009","297-R6","2018/08/23 19:49:19","新北市泰山區美寧街69號","121.43091","25.0647266666667","6501600","泰山區"
"243016","KEA-2801","2018/08/23 19:49:35","新北市泰山區中山路三段114號","121.417891666667","25.0320633333333","6501600","泰山區"
"243015","421-VK","2018/08/23 19:49:24","新北市泰山區明志路二段214巷17號","121.42669","25.0490516666667","6501600","泰山區"
"243011","KEA-2215","2018/08/23 19:49:30","新北市泰山區明志路三段204巷1號","121.421576666667","25.03832","6501600","泰山區"
"243010","KEA-2216","2018/08/23 19:49:19","新北市泰山區民生路33號","121.430513333333","25.052075","6501600","泰山區"
"243012","646-TV","2018/08/23 19:49:21","新北市泰山區全興路13號","121.43237","25.058935","6501600","泰山區"
"243014","680-BX","2018/08/23 19:49:32","新北市泰山區泰林路二段33-8號","121.435208333333","25.0565716666667","6501600","泰山區"
"222003","436-BY","2018/08/23 19:49:19","新北市深坑區深南路51-1號","121.62129","25.0098","6501800","深坑區"
"222002","659-BX","2018/08/23 19:49:32","新北市深坑區北深路二段2巷1號","121.621413333333","25.0046116666667","6501800","深坑區"
"231041","002-UM","2018/08/23 19:49:19","新北市新店區中央路137號","121.530196666667","24.97357","6500600","新店區"
"231059","046-UY","2018/08/23 19:49:22","新北市新店區安和路二段175號","121.518435","24.9745233333333","6500600","新店區"
"231040","047-UY","2018/08/23 19:49:37","新北市新店區中正路75巷71號","121.543228333333","24.9689283333333","6500600","新店區"
"231044","106-UY","2018/08/23 19:49:22","新北市新店區復興路40-1號","121.538743333333","24.9867316666667","6500600","新店區"
"231046","107-UY","2018/08/23 19:49:37","新北市新店區福園街17巷2號","121.53278","24.9727416666667","6500600","新店區"
"231052","108-UY","2018/08/23 19:49:31","新北市新店區新烏路三段162號","121.551738333333","24.9023733333333","6500600","新店區"
"231047","187-VK","2018/08/23 19:49:29","新北市新店區寶興路42巷1號","121.548981666667","24.9731433333333","6500600","新店區"
"231054","KEA-2219","2018/08/23 19:49:28","新北市新店區光明街81號","121.538903333333","24.9607583333333","6500600","新店區"
"231057","256-BX","2018/08/23 19:49:26","新北市新店區梅崗一路10號","121.556126666667","24.9313633333333","6500600","新店區"
"231042","268-BY","2018/08/23 19:49:33","新北市新店區中興路一段270號","121.545266666667","24.9679833333333","6500600","新店區"
"231051","278-BY","2018/08/23 19:49:22","新北市新店區中央二街41號","121.52773","24.9741366666667","6500600","新店區"
"231050","AAD-862","2018/08/23 19:49:26","新北市新店區郵政路4巷14號","121.556035","24.9517683333333","6500600","新店區"
"231058","3713-VJ","2018/08/23 19:49:25","新北市新店區安和路三段4巷1-3號","121.518281666667","24.980605","6500600","新店區"
"231066","4716-K9","2018/08/23 19:49:28","新北市新店區安康路三段58號","121.492356666667","24.9521983333333","6500600","新店區"
"231056","4715-K9","2018/08/23 19:49:33","新北市新店區民權路42巷59弄12號","121.538065","24.9833066666667","6500600","新店區"
"231067","4772-VM","2018/08/23 19:49:32","新北市新店區安康路一段227號","121.525638333333","24.9630916666667","6500600","新店區"
"231065","512-UM","2018/08/23 19:49:26","新北市新店區安祥路109巷110號","121.477185","24.9587533333333","6500600","新店區"
"231049","513-UM","2018/08/23 19:49:22","新北市新店區民權路129-1號","121.535458333333","24.982745","6500600","新店區"
"231045","617-UM","2018/08/23 19:49:17","新北市新店區北宜路二段382號","121.564441666667","24.9530366666667","6500600","新店區"
"231061","619-UM","2018/08/23 19:49:34","新北市新店區安民街163號","121.516661666667","24.970085","6500600","新店區"
"231063","641-BX","2018/08/23 19:49:28","新北市新店區車子路11號","121.503036666667","24.951955","6500600","新店區"
"231068","718-UY","2018/08/23 19:49:29","新北市新店區安一路一段1-1號","121.519653333333","24.961165","6500600","新店區"
"231064","719-UM","2018/08/23 19:49:14","新北市新店區安和路二段113巷1弄2號","121.518365","24.9701933333333","6500600","新店區"
"231062","720-UM","2018/08/23 19:49:33","新北市新店區永業路47號","121.532191666667","24.955065","6500600","新店區"
"231060","897-TW","2018/08/23 19:49:37","新北市新店區安康路二段308號","121.506311666667","24.9581116666667","6500600","新店區"
"231043","899-TW","2018/08/23 19:49:25","新北市新店區中正路235號","121.539301666667","24.9730866666667","6500600","新店區"
"231055","AKT-0513","2018/08/23 19:49:26","新北市新店區力行路76號","121.538683333333","24.9663466666667","6500600","新店區"
"241011","013-R5","2018/08/23 19:49:25","新北市三重區介壽路43號","121.498791666667","25.070045","6500200","三重區"
"241028","022-UY","2018/08/23 19:49:22","新北市三重區中正南路115號","121.494128333333","25.0573716666667","6500200","三重區"
"241008","059-VK","2018/08/23 19:49:30","新北市三重區永福街92號","121.478886666667","25.07615","6500200","三重區"
"241022","060-VK","2018/08/23 19:49:37","新北市三重區新北大道一段9號","121.488725","25.0606216666667","6500200","三重區"
"241031","061-VK","2018/08/23 19:49:22","新北市三重區重新路四段248號","121.48608","25.053515","6500200","三重區"
"241015","062-VK","2018/08/23 19:49:32","新北市三重區重新路一段1號","121.5038","25.064315","6500200","三重區"
"241017","063-VK","2018/08/23 19:49:19","新北市三重區重陽路三段5巷8弄29號","121.489655","25.0666566666667","6500200","三重區"
"241026","066-VK","2018/08/23 19:49:28","新北市三重區文化南路75巷1號","121.500286666667","25.0606516666667","6500200","三重區"
"241003","091-VK","2018/08/23 19:49:33","新北市三重區五華街91號","121.491951666667","25.0835933333333","6500200","三重區"
"241023","265-UM","2018/08/23 19:49:25","新北市三重區大有街1-9號","121.477563333333","25.0660383333333","6500200","三重區"
"241016","266-UM","2018/08/23 19:49:30","新北市三重區正德街41巷1號","121.49598","25.062735","6500200","三重區"
"241009","267-UM","2018/08/23 19:49:36","新北市三重區三和路四段396巷17號","121.480753333333","25.0791233333333","6500200","三重區"
"241018","268-UM","2018/08/23 19:49:19","新北市三重區雙園街57巷23-3號","121.49465","25.0682566666667","6500200","三重區"
"241032","269-UM","2018/08/23 19:49:29","新北市三重區重陽路一段68號","121.486466666667","25.05872","6500200","三重區"
"241013","270-UM","2018/08/23 19:49:28","新北市三重區仁愛街92巷15號","121.494635","25.073805","6500200","三重區"
"241025","271-UM","2018/08/23 19:49:20","新北市三重區忠孝路三段52號","121.480661666667","25.0656666666667","6500200","三重區"
"241007","398-BY","2018/08/23 19:49:28","新北市三重區三和路四段135巷2號","121.484711666667","25.0781083333333","6500200","三重區"
"241035","KEA-2210","2018/08/23 19:49:24","新北市三重區中央北路18巷41號","121.499521666667","25.0637933333333","6500200","三重區"
"241020","413-TH","2018/08/23 19:49:19","新北市三重區三和路四段2號","121.491726666667","25.073685","6500200","三重區"
"241004","475-VK","2018/08/23 19:49:22","新北市三重區五華街50號","121.494298333333","25.0810583333333","6500200","三重區"
"241030","480-VK","2018/08/23 19:49:35","新北市三重區環河南路254巷22號","121.490246666667","25.05091","6500200","三重區"
"241014","543-UM","2018/08/23 19:49:15","新北市三重區長元街98巷18弄23號","121.50193","25.0674466666667","6500200","三重區"
"241001","547-UM","2018/08/23 19:49:33","新北市三重區仁愛街327巷37號","121.493195","25.0800466666667","6500200","三重區"
"241019","KEA-2593","2018/08/23 19:49:28","新北市三重區自強路二段67巷15號","121.4894","25.07027","6500200","三重區"
"241006","AAD-863","2018/08/23 19:49:26","新北市三重區力行路二段78號","121.481588333333","25.0736333333333","6500200","三重區"
"241012","941-UM","2018/08/23 19:49:37","新北市三重區仁福街64巷11號","121.497735","25.075125","6500200","三重區"
"241029","942-UM","2018/08/23 19:49:17","新北市三重區光明路39號","121.491321666667","25.0582533333333","6500200","三重區"
"241033","AAC-255","2018/08/23 19:49:19","新北市三重區中興南街64號","121.470626666667","25.0440216666667","6500200","三重區"
"235066","003-UY","2018/08/23 19:49:26","新北市中和區南工路40號","121.50586","25.0013066666667","6500300","中和區"
"235063","006-UY","2018/08/23 19:49:30","新北市中和區連城路171巷41弄1號","121.496126666667","24.9965516666667","6500300","中和區"
"235056","096-UM","2018/08/23 19:49:39","新北市中和區中山路三段136巷10弄21號","121.473833333333","25.0077516666667","6500300","中和區"
"235039","097-UM","2018/08/23 19:49:39","新北市中和區大勇街27巷7號","121.517026666667","24.9935883333333","6500300","中和區"
"235065","098-UM","2018/08/23 19:49:35","新北市中和區福祥路90巷7弄13號","121.499423333333","25.006385","6500300","中和區"
"235040","150-BY","2018/08/23 19:49:30","新北市中和區保健路50巷68號","121.509346666667","24.994975","6500300","中和區"
"235058","151-BY","2018/08/23 19:49:28","新北市中和區員山路130號","121.481121666667","24.9962833333333","6500300","中和區"
"235055","183-VK","2018/08/23 19:49:36","新北市中和區德光路23號","121.470801666667","25.0042633333333","6500300","中和區"
"235038","185-VK","2018/08/23 19:49:36","新北市中和區自立路6號","121.522453333333","24.99657","6500300","中和區"
"235049","186-VK","2018/08/23 19:49:30","新北市中和區中正路76號","121.500756666667","24.9938116666667","6500300","中和區"
"235067","255-BX","2018/08/23 19:49:23","新北市中和區新生街242巷1弄9號","121.48342","24.9974933333333","6500300","中和區"
"235044","293-VK","2018/08/23 19:49:33","新北市中和區南山路160號","121.504513333333","24.9918116666667","6500300","中和區"
"235072","301-VK","2018/08/23 19:49:30","新北市中和區橋和路270號","121.495795","25.0066383333333","6500300","中和區"
"235043","352-BY","2018/08/23 19:49:28","新北市中和區華新街232巷8號","121.505936666667","24.9821466666667","6500300","中和區"
"235069","4980-A6","2018/08/23 19:49:30","新北市中和區和城路一段271巷1號","121.485448333333","24.9917016666667","6500300","中和區"
"235070","558-UM","2018/08/23 19:49:36","新北市中和區景平路495-4號","121.499803333333","24.9982816666667","6500300","中和區"
"235054","640-BX","2018/08/23 19:49:36","新北市中和區莒光路91號","121.47242","25.0032266666667","6500300","中和區"
"235060","647-TV","2018/08/23 19:49:29","新北市中和區員山路352號","121.481086666667","25.003635","6500300","中和區"
"235047","732-UM","2018/08/23 19:49:26","新北市中和區和平街78號","121.507833333333","24.9912433333333","6500300","中和區"
"235046","733-UM","2018/08/23 19:49:29","新北市中和區仁愛街85號","121.51164","24.9871233333333","6500300","中和區"
"235057","801-TS","2018/08/23 19:49:33","新北市中和區員山路150-8號","121.481346666667","24.9975366666667","6500300","中和區"
"235041","802-TS","2018/08/23 19:49:38","新北市中和區永貞路239巷20號","121.512573333333","25.00316","6500300","中和區"
"235052","805-TS","2018/08/23 19:49:19","新北市中和區興南路二段79-2號","121.5067","24.98467","6500300","中和區"
"235048","896-TW","2018/08/23 19:49:29","新北市中和區興南路一段137號","121.508718333333","24.9875916666667","6500300","中和區"
"235053","900-TW","2018/08/23 19:49:25","新北市中和區國光街170號","121.467761666667","25.0016","6500300","中和區"
"235051","157-BY","2018/08/23 19:49:29","新北市中和區中興街180巷52弄1號","121.498606666667","24.9885166666667","6500300","中和區"
"235037","AAC-213","2018/08/23 19:49:24","新北市中和區秀朗路三段149號","121.524776666667","24.992325","6500300","中和區"
"235059","AAC-215","2018/08/23 19:49:22","新北市中和區圓通路335巷71號","121.494245","24.9893366666667","6500300","中和區"
"220065","072-UY","2018/08/23 19:49:20","新北市板橋區民族路69巷18弄1號","121.466461666667","25.0099483333333","6500100","板橋區"
"220106","075-UY","2018/08/23 19:49:30","新北市板橋區文化路608巷50-1號","121.47941","25.0344733333333","6500100","板橋區"
"220069","AAD-861","2018/08/23 19:49:20","新北市板橋區南雅南路二段11-26號","121.45388","25.0018166666667","6500100","板橋區"
"247014","546-UM","2018/08/23 19:49:25","新北市蘆洲區中央路87號","121.472888333333","25.0843783333333","6501400","蘆洲區"
"247004","337-TH","2018/08/23 19:49:37","新北市蘆洲區中原路53號","121.459198333333","25.08216","6501400","蘆洲區"
"247006","336-TH","2018/08/23 19:49:22","新北市蘆洲區永安南路二段32號","121.467153333333","25.07717","6501400","蘆洲區"
"247008","056-VK","2018/08/23 19:49:22","新北市蘆洲區信義路139號","121.47924","25.0803516666667","6501400","蘆洲區"
"247002","002-UY","2018/08/23 19:49:33","新北市蘆洲區永樂街38巷57弄2號","121.458516666667","25.090305","6501400","蘆洲區"
"226004","312-R5","2018/08/23 19:49:35","新北市平溪區南山里南山坪94號","121.776966666667","25.0412066666667","6502400","平溪區"
"228003","097-TW","2018/08/23 19:49:25","新北市貢寮區真理里美艷山街5-1號","121.926685","25.0597033333333","6502600","貢寮區"
"228001","212-TW","2018/08/23 19:49:29","新北市貢寮區真理里新港街92號","121.927611666667","25.0565016666667","6502600","貢寮區"
"224010","AGQ-8101","2018/08/23 19:44:10","新北市瑞芳區烏勢巷145號","121.847711666667","25.10895","6501200","瑞芳區"
"224002","639-TC","2018/08/23 19:49:28","新北市瑞芳區三爪子坑路335號","121.81888","25.104975","6501200","瑞芳區"
"227004","642-TC","2018/08/23 19:49:26","新北市雙溪區雙溪里內挖路73號","121.863383333333","25.03689","6502500","雙溪區"
"227010","400-TW","2018/08/23 19:49:19","新北市雙溪區新基里中華路115號","121.866013333333","25.0390916666667","6502500","雙溪區"
"222001","KEA-2212","2018/08/23 19:49:29","新北市深坑區北深路三段110號","121.6068","25.0015866666667","6501800","深坑區"
"208002","KEA-2872","2018/08/23 19:49:29","新北市金山區八德街12號","121.634931666667","25.223635","6502700","金山區"
"208003","665-BX","2018/08/23 19:49:20","新北市金山區清泉里清水路60巷1號","121.629545","25.23626","6502700","金山區"
"208001","761-BX","2018/08/23 19:49:22","新北市金山區重和里六股林口38-1號","121.603201666667","25.2187733333333","6502700","金山區"
"251009","008-UM","2018/08/23 19:49:27","新北市淡水區中正路38-1號","121.44374","25.169275","6501000","淡水區"
"251005","010-UM","2018/08/23 19:49:33","新北市淡水區中正東路6號","121.446801666667","25.1672866666667","6501000","淡水區"
"251001","011-UM","2018/08/23 19:49:35","新北市淡水區淡金路132號","121.457983333333","25.1648016666667","6501000","淡水區"
"251013","KEA-2871","2018/08/23 19:49:17","新北市淡水區頂田寮18號","121.460978333333","25.21452","6501000","淡水區"
"251016","179-VK","2018/08/23 19:49:32","新北市淡水區三塊厝2-1號","121.454598333333","25.2096416666667","6501000","淡水區"
"251014","180-VK","2018/08/23 19:49:29","新北市淡水區番社前1-4號","121.468483333333","25.2365916666667","6501000","淡水區"
"251015","181-VK","2018/08/23 19:49:34","新北市淡水區北新路三段112號","121.486281666667","25.1881816666667","6501000","淡水區"
"251010","413-VK","2018/08/23 19:49:33","新北市淡水區崁頂145號","121.430793333333","25.2061466666667","6501000","淡水區"
"251012","441-VK","2018/08/23 19:49:26","新北市淡水區淡金路三段70巷1號","121.44831","25.20039","6501000","淡水區"
"251008","442-VK","2018/08/23 19:49:38","新北市淡水區中正路一段62巷16號","121.426188333333","25.17722","6501000","淡水區"
"251006","561-UM","2018/08/23 19:49:22","新北市淡水區水碓街15號","121.443463333333","25.1769933333333","6501000","淡水區"
"251007","577-R6","2018/08/23 19:49:20","新北市淡水區中正東路一段39-1號","121.451995","25.1663066666667","6501000","淡水區"
"251011","650-BX","2018/08/23 19:49:24","新北市淡水區淡金路二段15號","121.447003333333","25.1893716666667","6501000","淡水區"
"251003","766-UM","2018/08/23 19:49:22","新北市淡水區崁頂142號","121.43108","25.205665","6501000","淡水區"
"207003","550-UM","2018/08/23 19:49:27","新北市萬里區大鵬里萬里加投68號","121.642393333333","25.2147633333333","6502800","萬里區"
"207004","225-TW","2018/08/23 19:49:23","新北市萬里區萬里里瑪鋉路124號","121.690598333333","25.179095","6502800","萬里區"
"252002","178-VK","2018/08/23 19:49:35","新北市三芝區三民街33-1號","121.50467","25.2585483333333","6502100","三芝區"
"252001","292-VK","2018/08/23 19:49:28","新北市三芝區公正街9號","121.499728333333","25.2575466666667","6502100","三芝區"
"237004","KEA-2597","2018/08/23 19:49:25","新北市三峽區添福285-5號","121.376865","24.8903716666667","6500900","三峽區"
"237007","153-BY","2018/08/23 19:49:25","新北市三峽區二鬮路136巷22弄51號","121.357598333333","24.91045","6500900","三峽區"
"237009","210-TH","2018/08/23 19:49:35","新北市三峽區中園街29號","121.368281666667","24.92659","6500900","三峽區"
"237013","252-BX","2018/08/23 19:49:34","新北市三峽區溪北街57號","121.39721","24.935905","6500900","三峽區"
"237012","275-BY","2018/08/23 19:49:37","新北市三峽區安溪路309巷25號","121.37367","24.9327516666667","6500900","三峽區"
"237008","302-VK","2018/08/23 19:49:24","新北市三峽區永安街146號","121.373966666667","24.9286833333333","6500900","三峽區"
"237014","433-BY","2018/08/23 19:49:16","新北市三峽區嘉添19-1號","121.3687","24.911575","6500900","三峽區"
"237006","5529-G3","2018/08/23 19:49:24","新北市三峽區中正路一段336巷15弄2號","121.369961666667","24.9249666666667","6500900","三峽區"
"237011","KEA-2596","2018/08/23 19:49:21","新北市三峽區介壽路一段422號","121.384695","24.93149","6500900","三峽區"
"237016","649-BX","2018/08/23 19:49:26","新北市三峽區成福路63號","121.418436666667","24.9290983333333","6500900","三峽區"
"237010","706-TV","2018/08/23 19:49:35","新北市三峽區復興路36-8號","121.373841666667","24.936595","6500900","三峽區"
"237005","AKY-6261","2018/08/23 19:49:28","新北市三峽區文化路115號","121.370315","24.9360066666667","6500900","三峽區"
"236070","105-UM","2018/08/23 19:49:15","新北市土城區水源街32巷12號","121.441161666667","24.9759","6501300","土城區"
"236042","107-UM","2018/08/23 19:49:32","新北市土城區金城路二段245巷21號","121.455026666667","24.9835216666667","6501300","土城區"
"236078","166-UM","2018/08/23 19:49:28","新北市土城區民生街4號","121.414296666667","24.9615233333333","6501300","土城區"
"236030","253-BX","2018/08/23 19:49:35","新北市土城區中央路一段294號","121.443338333333","24.98234","6501300","土城區"
"236026","269-VK","2018/08/23 19:49:26","新北市土城區中央路二段61巷26號","121.443275","24.9786266666667","6501300","土城區"
"236038","271-VK","2018/08/23 19:49:20","新北市土城區國際路158巷54號","121.467951666667","24.97485","6501300","土城區"
"236021","401-BY","2018/08/23 19:49:38","新北市土城區延吉街137巷12弄4號","121.470715","24.9855183333333","6501300","土城區"
"236059","912-UM","2018/08/23 19:49:35","新北市土城區中央路一段130號","121.446378333333","24.987795","6501300","土城區"
"236049","913-UM","2018/08/23 19:49:20","新北市土城區青雲路151巷15號","121.459371666667","24.9845016666667","6501300","土城區"
"236063","915-UM","2018/08/23 19:49:25","新北市土城區延和路146巷10號","121.468061666667","24.9896","6501300","土城區"
"236055","AAC-216","2018/08/23 19:49:17","新北市土城區延和路148號","121.467795","24.99024","6501300","土城區"
"242034","AAC-296","2018/08/23 19:49:17","新北市新莊區仁愛街54巷1號","121.444885","25.0371566666667","6500500","新莊區"
"242058","986-R7","2018/08/23 19:49:32","新北市新莊區新樹路52-26號","121.437403333333","25.0267883333333","6500500","新莊區"
"242023","705-TV","2018/08/23 19:49:35","新北市新莊區化成路93號","121.465573333333","25.046725","6500500","新莊區"
"242046","497-BY","2018/08/23 19:49:38","新北市新莊區後港一路160號","121.430758333333","25.0274366666667","6500500","新莊區"
"242019","442-UM","2018/08/23 19:49:21","新北市新莊區中華路一段118號","121.452596666667","25.0405983333333","6500500","新莊區"
"242056","440-UM","2018/08/23 19:49:19","新北市新莊區新泰路87號","121.44885","25.0343683333333","6500500","新莊區"
"242036","415-TV","2018/08/23 19:49:36","新北市新莊區建安街101巷2弄1號","121.426846666667","25.0239616666667","6500500","新莊區"
"242007","413-TV","2018/08/23 19:49:19","新北市新莊區思源路593巷6弄12號","121.459081666667","25.05993","6500500","新莊區"
"242061","353-BY","2018/08/23 19:49:20","新北市新莊區中環路一段10號","121.442835","25.0258533333333","6500500","新莊區"
"242039","133-UY","2018/08/23 19:49:24","新北市新莊區民安路299巷44弄2號","121.429855","25.0235366666667","6500500","新莊區"
"242031","135-UY","2018/08/23 19:49:29","新北市新莊區忠孝街20號","121.443931666667","25.0351566666667","6500500","新莊區"
"242048","172-VK","2018/08/23 19:49:14","新北市新莊區建安街92巷9號","121.425886666667","25.024245","6500500","新莊區"
"242011","173-VK","2018/08/23 19:49:32","新北市新莊區立信三街35巷23號","121.4426","25.0511866666667","6500500","新莊區"
"242017","175-VK","2018/08/23 19:49:25","新北市新莊區中港路293號","121.452851666667","25.0440983333333","6500500","新莊區"
"242004","176-VK","2018/08/23 19:49:22","新北市新莊區化成路63巷24弄13號","121.46272","25.045975","6500500","新莊區"
"242021","348-TH","2018/08/23 19:49:20","新北市新莊區建中街50號","121.448471666667","25.0373433333333","6500500","新莊區"
"242002","349-TH","2018/08/23 19:49:29","新北市新莊區武前街29號","121.450243333333","25.03253","6500500","新莊區"
"238015","755-BX","2018/08/23 19:49:34","新北市樹林區中山路三段67-5號","121.40051","24.9750266666667","6500700","樹林區"
"238023","601-UM","2018/08/23 19:49:27","新北市樹林區中正路105號","121.424873333333","25.000665","6500700","樹林區"
"238021","KEA-2539","2018/08/23 19:49:35","新北市樹林區佳園路三段113巷2-1號","121.387041666667","24.9505233333333","6500700","樹林區"
"238025","303-VK","2018/08/23 19:49:29","新北市樹林區大安路588號","121.41146","24.9832766666667","6500700","樹林區"
"238020","268-VK","2018/08/23 19:49:31","新北市樹林區中山路三段206-1號","121.384331666667","24.9672783333333","6500700","樹林區"
"239007","AAC-297","2018/08/23 19:49:32","新北市鶯歌區大湖路63號","121.34204","24.9624316666667","6500800","鶯歌區"
"239006","891-R6","2018/08/23 19:49:21","新北市鶯歌區永昌街75號","121.341008333333","24.949865","6500800","鶯歌區"
"239004","193-VK","2018/08/23 19:49:35","新北市鶯歌區二甲路83-11號","121.340251666667","24.9318333333333","6500800","鶯歌區"
"221008","489-VK","2018/08/23 19:49:30","新北市汐止區康寧街65號","121.618681666667","25.0667483333333","6501100","汐止區"
"221036","130-UY","2018/08/23 19:49:25","新北市汐止區汐萬路一段312號","121.650526666667","25.075295","6501100","汐止區"
"221015","131-UY","2018/08/23 19:49:25","新北市汐止區大同路二段527號","121.661816666667","25.0689416666667","6501100","汐止區"
"221010","269-BY","2018/08/23 19:49:35","新北市汐止區八連路一段13號","121.647781666667","25.080715","6501100","汐止區"
"221012","278-VK","2018/08/23 19:49:36","新北市汐止區保長路267號","121.680946666667","25.074375","6501100","汐止區"
"221023","279-VK","2018/08/23 19:49:30","新北市汐止區明峰街151號","121.629365","25.0703216666667","6501100","汐止區"
"221032","280-BY","2018/08/23 19:49:19","新北市汐止區橫科路403巷18號","121.625411666667","25.04759","6501100","汐止區"
"221027","281-BY","2018/08/23 19:49:27","新北市汐止區中正路7號","121.663178333333","25.0700633333333","6501100","汐止區"
"221029","298-VK","2018/08/23 19:49:30","新北市汐止區康寧街901號","121.651568333333","25.0749983333333","6501100","汐止區"
"221021","299-VK","2018/08/23 19:49:21","新北市汐止區莊敬街29巷13號","121.6572","25.0608433333333","6501100","汐止區"
"221031","353-TW","2018/08/23 19:49:33","新北市汐止區福德二路54巷4號","121.633741666667","25.0675","6501100","汐止區"
"221035","622-UM","2018/08/23 19:49:28","新北市汐止區長江街13巷6弄1號","121.65468","25.071685","6501100","汐止區"
"221025","623-UM","2018/08/23 19:49:34","新北市汐止區秀峰路81巷15弄4-1號","121.660786666667","25.0647233333333","6501100","汐止區"
"221038","646-BX","2018/08/23 19:49:23","新北市汐止區忠孝東路313號","121.664673333333","25.0692716666667","6501100","汐止區"
"221033","647-BX","2018/08/23 19:49:34","新北市汐止區東勢街60號","121.632535","25.0391583333333","6501100","汐止區"
"221018","753-BX","2018/08/23 19:49:17","新北市汐止區汐萬路一段7號","121.655911666667","25.06738","6501100","汐止區"
"220079","145-BY","2018/08/23 19:49:28","新北市板橋區中正路183巷50號","121.454786666667","25.0160083333333","6500100","板橋區"
"220080","200-UY","2018/08/23 19:49:27","新北市板橋區大觀路二段59巷6號","121.447013333333","25.002485","6500100","板橋區"
"220082","610-BX","2018/08/23 19:49:19","新北市板橋區溪北路58號","121.427671666667","24.9897716666667","6500100","板橋區"
"220101","245-BX","2018/08/23 19:49:22","新北市板橋區縣民大道三段93巷26號","121.474956666667","25.0224866666667","6500100","板橋區"
"220056","276-BY","2018/08/23 19:49:22","新北市板橋區四川路二段99-1號","121.452658333333","24.99456","6500100","板橋區"
"220072","277-BY","2018/08/23 19:49:31","新北市板橋區金門街127巷14號","121.433558333333","24.991075","6500100","板橋區"
"220071","283-VK","2018/08/23 19:49:35","新北市板橋區五權街30巷4號","121.464618333333","24.9934166666667","6500100","板橋區"
"220094","285-UM","2018/08/23 19:49:26","新北市板橋區長江路一段105巷1弄1號","121.459341666667","25.0300283333333","6500100","板橋區"
"220053","285-VK","2018/08/23 19:49:27","新北市板橋區中山路二段60巷11號","121.474251666667","25.015215","6500100","板橋區"
"220081","287-VK","2018/08/23 19:49:37","新北市板橋區大觀路一段28巷28號","121.449906666667","25.00942","6500100","板橋區"
"220090","288-VK","2018/08/23 19:49:33","新北市板橋區龍泉街54巷7弄14號","121.456536666667","25.026515","6500100","板橋區"
"220061","295-UM","2018/08/23 19:49:33","新北市板橋區中山路一段283巷2弄16號","121.470486666667","25.014895","6500100","板橋區"
"220084","296-UM","2018/08/23 19:49:31","新北市板橋區溪崑二街112巷32號","121.425743333333","24.9892516666667","6500100","板橋區"
"220092","299-UM","2018/08/23 19:49:27","新北市板橋區四維路259巷57號","121.461185","25.0270416666667","6500100","板橋區"
"242013","281-VK","2018/08/23 19:49:25","新北市新莊區中泰街36號","121.4509","25.0469833333333","6500500","新莊區"
"220075","303-R5","2018/08/23 19:49:25","新北市板橋區金華街10巷48弄50號","121.458788333333","25.0201233333333","6500100","板橋區"
"220062","305-R5","2018/08/23 19:49:31","新北市板橋區三民路二段29巷31弄5-3號","121.481545","25.0176933333333","6500100","板橋區"
"220098","317-R6","2018/08/23 19:49:32","新北市板橋區裕民街135號","121.459106666667","25.0272216666667","6500100","板橋區"
"220083","461-BY","2018/08/23 19:49:24","新北市板橋區龍興街61巷1號","121.442951666667","25.0012333333333","6500100","板橋區"
"220064","486-VK","2018/08/23 19:49:18","新北市板橋區實踐路205號","121.464671666667","25.00284","6500100","板橋區"
"220088","491-VK","2018/08/23 19:49:30","新北市板橋區大同街55號","121.478671666667","25.0276416666667","6500100","板橋區"
"220035","560-BX","2018/08/23 19:49:31","新北市板橋區新生街20巷9號","121.456333333333","25.0208866666667","6500100","板橋區"
"220103","561-BX","2018/08/23 19:49:15","新北市板橋區陽明街29巷2號","121.465261666667","25.02172","6500100","板橋區"
"220091","637-BX","2018/08/23 19:49:18","新北市板橋區民治街88號","121.479321666667","25.031915","6500100","板橋區"
"220057","686-BX","2018/08/23 19:49:23","新北市板橋區信義路201號","121.459145","24.9916883333333","6500100","板橋區"
"220077","687-BX","2018/08/23 19:49:28","新北市板橋區僑中一街124巷3弄25號","121.444776666667","25.0121933333333","6500100","板橋區"
"220093","689-BX","2018/08/23 19:49:31","新北市板橋區長江路二段299號","121.47064","25.0332266666667","6500100","板橋區"
"220054","741-BX","2018/08/23 19:49:25","新北市板橋區忠孝路忠義巷17弄2號","121.4663","25.00382","6500100","板橋區"
"220102","KEA-2699","2018/08/23 19:49:28","新北市板橋區松柏街59-4號","121.475758333333","25.0303716666667","6500100","板橋區"
"220055","827-TW","2018/08/23 19:49:25","新北市板橋區和平路29號","121.459696666667","24.9957783333333","6500100","板橋區"
"220067","829-TW","2018/08/23 19:49:36","新北市板橋區長安街138巷1弄93號","121.474765","25.011525","6500100","板橋區"
"220068","830-TW","2018/08/23 19:47:15","新北市板橋區光環路一段80號","121.481423333333","25.016955","6500100","板橋區"
"220096","831-TW","2018/08/23 19:49:29","新北市板橋區文化路二段124巷34弄16號","121.470851666667","25.02559","6500100","板橋區"
"220089","833-TW","2018/08/23 19:49:34","新北市板橋區龍泉街82巷11-4號","121.455811666667","25.0254766666667","6500100","板橋區"
"220074","895-R6","2018/08/23 19:49:34","新北市板橋區文化路一段34號","121.459381666667","25.011625","6500100","板橋區"
"220073","985-R7","2018/08/23 19:49:26","新北市板橋區大仁街86號","121.453973333333","25.016305","6500100","板橋區"
"220097","AAC-210","2018/08/23 19:49:29","新北市板橋區文化路一段285巷2弄1號","121.464655","25.0191266666667","6500100","板橋區"
"220070","AAC-253","2018/08/23 19:49:29","新北市板橋區館前東路126號","121.463916666667","25.0078116666667","6500100","板橋區"
"235068","KEA-2873","2018/08/23 19:49:21","新北市中和區莊敬路16巷15弄10號","121.500546666667","25.0039216666667","6500300","中和區"
"235061","KEA-2875","2018/08/23 19:49:05","新北市中和區新生街148巷22號","121.482531666667","25.0008033333333","6500300","中和區"
