"lineid","car","time","location","longitude","latitude","cityid","cityname"
"234077","969-R7","2018/08/23 20:49:34","新北市八里區中山路三段382號","121.368616666667","25.135945","6500400","永和區"
"234074","AAC-211","2018/08/23 20:49:27","新北市永和區環河東路二段20號","121.522296666667","25.0131433333333","6500400","永和區"
"222003","436-BY","2018/08/23 20:49:19","新北市深坑區文山路三段48-1號","121.609928333333","24.99854","6501800","深坑區"
"222002","659-BX","2018/08/23 20:49:32","新北市深坑區北深路三段93巷51號","121.604165","25.0005283333333","6501800","深坑區"
"231059","046-UY","2018/08/23 20:49:35","新北市新店區僑信路132巷38號","121.4998","24.9453866666667","6500600","新店區"
"231040","047-UY","2018/08/23 20:49:37","新北市新店區中正路253號","121.538966666667","24.9734766666667","6500600","新店區"
"231044","106-UY","2018/08/23 20:49:22","新北市新店區中正路373號","121.534755","24.9767166666667","6500600","新店區"
"231052","108-UY","2018/08/23 20:49:31","新北市新店區新烏路一段245-3號","121.54818","24.930495","6500600","新店區"
"231047","187-VK","2018/08/23 20:49:29","新北市新店區寶元路二段1巷2號","121.550725","24.9840966666667","6500600","新店區"
"231054","KEA-2219","2018/08/23 20:49:28","新北市新店區中正路75巷71號","121.543115","24.96888","6500600","新店區"
"231057","256-BX","2018/08/23 20:49:20","新北市新店區永興路41號","121.54366","24.9378966666667","6500600","新店區"
"231042","268-BY","2018/08/23 20:49:33","新北市新店區寶高路120巷1號","121.554608333333","24.976065","6500600","新店區"
"231051","278-BY","2018/08/23 20:49:21","新北市新店區民生路156巷117號","121.526865","24.9825416666667","6500600","新店區"
"231050","AAD-862","2018/08/23 20:49:26","新北市新店區中正路247巷24弄1號","121.538208333333","24.9720766666667","6500600","新店區"
"231058","3713-VJ","2018/08/23 20:49:26","新北市新店區中央路133巷1號","121.530638333333","24.9737833333333","6500600","新店區"
"231066","4716-K9","2018/08/23 20:49:28","新北市新店區安民街365巷1弄8號","121.516361666667","24.975065","6500600","新店區"
"231056","4715-K9","2018/08/23 20:49:33","新北市新店區安民街379巷28號","121.515325","24.9759566666667","6500600","新店區"
"231067","4772-VM","2018/08/23 20:49:32","新北市新店區安華路28-1號","121.519593333333","24.9608183333333","6500600","新店區"
"231065","512-UM","2018/08/23 20:49:37","新北市新店區安祥路104巷10號","121.48133","24.963145","6500600","新店區"
"231049","513-UM","2018/08/23 20:49:22","新北市新店區永業路81巷1弄1號","121.529711666667","24.94941","6500600","新店區"
"231045","617-UM","2018/08/23 20:49:37","新北市新店區北新路一段2號","121.540751666667","24.9651716666667","6500600","新店區"
"231061","619-UM","2018/08/23 20:49:33","新北市新店區新和街77號","121.52062","24.9861333333333","6500600","新店區"
"231063","641-BX","2018/08/23 20:49:28","新北市新店區如意街8-1號","121.4947","24.9482166666667","6500600","新店區"
"231068","718-UY","2018/08/23 20:49:30","新北市新店區寶元路一段107號","121.545481666667","24.9829283333333","6500600","新店區"
"231064","719-UM","2018/08/23 20:48:54","新北市新店區安民街389號","121.516175","24.9771233333333","6500600","新店區"
"231062","720-UM","2018/08/23 20:49:33","新北市新店區和成街17-1號","121.487651666667","24.9466233333333","6500600","新店區"
"231060","897-TW","2018/08/23 20:49:37","新北市新店區安康路三段738號","121.473875","24.9420016666667","6500600","新店區"
"231043","899-TW","2018/08/23 20:49:37","新北市新店區建國路86號","121.54046","24.9769416666667","6500600","新店區"
"241011","013-R5","2018/08/23 20:49:25","新北市三重區龍濱路128號","121.501763333333","25.0716866666667","6500200","三重區"
"241028","022-UY","2018/08/23 20:49:22","新北市三重區中正南路50號","121.49393","25.05993","6500200","三重區"
"241008","059-VK","2018/08/23 20:49:19","新北市三重區永福街72巷11號","121.479436666667","25.07676","6500200","三重區"
"241022","060-VK","2018/08/23 20:49:38","新北市三重區中正北路20巷12號","121.487936666667","25.0624683333333","6500200","三重區"
"241031","061-VK","2018/08/23 20:49:22","新北市三重區重陽路一段113巷2弄1號","121.487601666667","25.059875","6500200","三重區"
"241015","062-VK","2018/08/23 20:49:31","新北市三重區自強路一段8號","121.498931666667","25.06825","6500200","三重區"
"241017","063-VK","2018/08/23 20:49:19","新北市三重區民生街30號","121.49185","25.0671166666667","6500200","三重區"
"241024","065-VK","2018/08/23 20:49:33","新北市三重區大勇街82巷15弄30號","121.48124","25.0719966666667","6500200","三重區"
"241026","066-VK","2018/08/23 20:49:28","新北市三重區文化南路3號","121.500076666667","25.0624483333333","6500200","三重區"
"241002","090-VK","2018/08/23 20:49:39","新北市三重區仁義街167巷55號","121.49889","25.0823366666667","6500200","三重區"
"241023","265-UM","2018/08/23 20:49:25","新北市三重區忠孝路三段84巷5號","121.480221666667","25.064425","6500200","三重區"
"241016","266-UM","2018/08/23 20:49:38","新北市三重區長壽西街90號","121.496001666667","25.0671233333333","6500200","三重區"
"241009","267-UM","2018/08/23 20:49:36","新北市三重區三和路四段388-2號","121.482078333333","25.0790316666667","6500200","三重區"
"241018","268-UM","2018/08/23 20:49:19","新北市三重區正義北路227號","121.495936666667","25.06896","6500200","三重區"
"241032","269-UM","2018/08/23 20:49:29","新北市三重區重陽路一段120巷35號","121.485045","25.0601983333333","6500200","三重區"
"241013","270-UM","2018/08/23 20:49:28","新北市三重區仁賢街12-1號","121.495695","25.0748383333333","6500200","三重區"
"241025","271-UM","2018/08/23 20:49:20","新北市三重區貴陽街14號","121.484126666667","25.06183","6500200","三重區"
"241007","398-BY","2018/08/23 20:49:28","新北市三重區慈愛街8號","121.484473333333","25.0785066666667","6500200","三重區"
"241035","KEA-2210","2018/08/23 20:49:24","新北市三重區三和路三段18號","121.496708333333","25.070385","6500200","三重區"
"241020","413-TH","2018/08/23 20:49:19","新北市三重區忠孝路一段70號","121.489115","25.071765","6500200","三重區"
"241004","475-VK","2018/08/23 20:49:22","新北市三重區分子尾街19號","121.489513333333","25.0810183333333","6500200","三重區"
"241030","480-VK","2018/08/23 20:49:34","新北市三重區環河南路221巷8號","121.492043333333","25.0521916666667","6500200","三重區"
"241014","543-UM","2018/08/23 20:49:35","新北市三重區安和路109號","121.500785","25.07022","6500200","三重區"
"241001","547-UM","2018/08/23 20:49:33","新北市三重區自強路三段110巷27-1號","121.485833333333","25.0744616666667","6500200","三重區"
"241019","KEA-2593","2018/08/23 20:49:28","新北市三重區大智街139號","121.490716666667","25.0709433333333","6500200","三重區"
"241006","AAD-863","2018/08/23 20:49:26","新北市三重區車路頭街139巷14號","121.484306666667","25.076285","6500200","三重區"
"241005","887-TS","2018/08/23 20:49:18","新北市三重區五華街141巷36號","121.492473333333","25.085815","6500200","三重區"
"241012","941-UM","2018/08/23 20:49:25","新北市三重區仁信街29號","121.501221666667","25.075575","6500200","三重區"
"241029","942-UM","2018/08/23 20:49:37","新北市三重區重安街14號","121.490321666667","25.0581983333333","6500200","三重區"
"241033","AAC-255","2018/08/23 20:49:19","新北市三重區光復路二段1號","121.472273333333","25.0532416666667","6500200","三重區"
"247010","KEA-2869","2018/08/23 20:49:30","新北市蘆洲區三民路52號","121.475336666667","25.0836316666667","6501400","蘆洲區"
"235069","4980-A6","2018/08/23 20:49:30","新北市中和區新生街268號","121.483728333333","24.9970866666667","6500300","中和區"
"247024","893-R6","2018/08/23 20:49:21","新北市蘆洲區長樂路118號","121.462138333333","25.090015","6501400","蘆洲區"
"247022","500-BY","2018/08/23 20:49:37","新北市蘆洲區三民路155號","121.471453333333","25.086865","6501400","蘆洲區"
"247012","339-TH","2018/08/23 20:49:36","新北市蘆洲區集賢路224巷27號","121.481671666667","25.0870783333333","6501400","蘆洲區"
"247004","337-TH","2018/08/23 20:49:37","新北市蘆洲區長安街101號","121.461593333333","25.0808033333333","6501400","蘆洲區"
"247006","336-TH","2018/08/23 20:49:22","新北市蘆洲區和平路121巷8弄18號","121.46629","25.0805216666667","6501400","蘆洲區"
"247008","056-VK","2018/08/23 20:49:22","新北市蘆洲區集賢路269巷13號","121.481996666667","25.0834266666667","6501400","蘆洲區"
"247016","007-UY","2018/08/23 20:49:28","新北市蘆洲區中正路69號","121.4704","25.0827466666667","6501400","蘆洲區"
"247002","002-UY","2018/08/23 20:49:33","新北市蘆洲區長榮路269巷28號","121.459485","25.0859883333333","6501400","蘆洲區"
"247020","001-UY","2018/08/23 20:49:36","新北市蘆洲區仁愛街64號","121.471446666667","25.093945","6501400","蘆洲區"
"222001","KEA-2212","2018/08/23 20:49:29","新北市深坑區北深路三段129號","121.604035","25.0024666666667","6501800","深坑區"
"251005","010-UM","2018/08/23 20:49:33","新北市淡水區學府路88號","121.449018333333","25.1707433333333","6501000","淡水區"
"251001","011-UM","2018/08/23 20:49:19","新北市淡水區淡金路一段69號","121.458851666667","25.1730666666667","6501000","淡水區"
"251013","KEA-2871","2018/08/23 20:49:37","新北市淡水區行忠路167號","121.45722","25.2012083333333","6501000","淡水區"
"251016","179-VK","2018/08/23 20:49:31","新北市淡水區淡金路四段476號","121.451791666667","25.2238766666667","6501000","淡水區"
"251014","180-VK","2018/08/23 20:49:29","新北市淡水區公埔子32-8號","121.461643333333","25.232365","6501000","淡水區"
"251015","181-VK","2018/08/23 20:49:34","新北市淡水區淡金路四段542巷17號","121.452715","25.2270683333333","6501000","淡水區"
"251010","413-VK","2018/08/23 20:49:33","新北市淡水區沙崙路126號","121.42344","25.182895","6501000","淡水區"
"251012","441-VK","2018/08/23 20:49:25","新北市淡水區淡金路四段514號","121.452076666667","25.2257416666667","6501000","淡水區"
"251008","442-VK","2018/08/23 20:49:18","新北市淡水區中正路二段397號","121.42607","25.1911216666667","6501000","淡水區"
"251006","561-UM","2018/08/23 20:49:22","新北市淡水區新民街一段117號","121.428508333333","25.187645","6501000","淡水區"
"251007","577-R6","2018/08/23 20:49:20","新北市淡水區鄧公路23巷2號","121.451193333333","25.170125","6501000","淡水區"
"251011","650-BX","2018/08/23 20:49:24","新北市淡水區新民街一段13-1號","121.433025","25.1845466666667","6501000","淡水區"
"251002","672-BX","2018/08/23 20:49:30","新北市淡水區中正東路6號","121.446976666667","25.167055","6501000","淡水區"
"251003","766-UM","2018/08/23 20:49:22","新北市淡水區中山北路一段247巷90號","121.442388333333","25.1794433333333","6501000","淡水區"
"242034","AAC-296","2018/08/23 20:49:37","新北市新莊區中正路405號","121.445006666667","25.0345316666667","6500500","新莊區"
"242053","751-BX","2018/08/23 20:49:30","新北市新莊區民安西路189巷10弄24號","121.426496666667","25.0150916666667","6500500","新莊區"
"242023","705-TV","2018/08/23 20:49:35","新北市新莊區環河路116-1號","121.46065","25.037915","6500500","新莊區"
"242027","615-BX","2018/08/23 20:49:18","新北市新莊區環漢路二段630號","121.44379","25.025065","6500500","新莊區"
"242042","566-BX","2018/08/23 20:49:25","新北市新莊區天祥街10號","121.41735","25.02702","6500500","新莊區"
"242051","441-UM","2018/08/23 20:49:34","新北市新莊區民安西路50號","121.427451666667","25.02072","6500500","新莊區"
"242036","415-TV","2018/08/23 20:49:36","新北市新莊區福營路103號","121.433808333333","25.0323933333333","6500500","新莊區"
"242044","400-BY","2018/08/23 20:49:38","新北市樹林區中正路280-1號","121.415713333333","25.00938","6500500","新莊區"
"242009","132-UY","2018/08/23 20:49:22","新北市新莊區昌盛街40號","121.454473333333","25.0498066666667","6500500","新莊區"
"242039","133-UY","2018/08/23 20:49:24","新北市新莊區瓊林南路61-71號","121.439695","25.0182833333333","6500500","新莊區"
"242017","175-VK","2018/08/23 20:49:25","新北市新莊區瓊林南路61-87號","121.439435","25.017685","6500500","新莊區"
"242002","349-TH","2018/08/23 20:49:29","新北市新莊區中港路五守新村12號","121.454715","25.0387066666667","6500500","新莊區"
"221012","278-VK","2018/08/23 20:49:16","新北市汐止區汐萬路一段310號","121.650403333333","25.0746766666667","6501100","汐止區"
"221027","281-BY","2018/08/23 20:49:27","新北市汐止區中正路311號","121.65584","25.0676983333333","6501100","汐止區"
"221029","298-VK","2018/08/23 20:49:30","新北市汐止區工建路100號","121.639628333333","25.0638816666667","6501100","汐止區"
"221035","622-UM","2018/08/23 20:49:28","新北市汐止區汐萬路一段310號","121.650398333333","25.0746816666667","6501100","汐止區"
"221038","646-BX","2018/08/23 20:49:23","新北市汐止區汐萬路一段256巷3號","121.6521","25.0747566666667","6501100","汐止區"
"221033","647-BX","2018/08/23 20:49:34","新北市汐止區合順街18巷8弄5號","121.620353333333","25.0419316666667","6501100","汐止區"
"220070","AAC-253","2018/08/23 20:49:29","新北市林口區汕頭32號","121.366796666667","25.1350366666667","6500100","板橋區"
