"lineid","car","time","location","longitude","latitude","cityid","cityname"
"247010","KEA-2869","2018/08/23 22:19:30","新北市五股區中興路三段2巷10號","121.449036666667","25.0811","6501400","蘆洲區"
"251010","413-VK","2018/08/23 22:19:33","新北市淡水區沙崙路200號","121.424721666667","25.1839","6501000","淡水區"
"251008","442-VK","2018/08/23 22:19:38","新北市淡水區學府路104號","121.44991","25.1719066666667","6501000","淡水區"
"251004","443-VK","2018/08/23 22:19:29","新北市淡水區民族路33號","121.462318333333","25.1358216666667","6501000","淡水區"
"251007","577-R6","2018/08/23 22:19:40","新北市淡水區北新路133號","121.449293333333","25.1788766666667","6501000","淡水區"
"251011","650-BX","2018/08/23 22:19:24","新北市淡水區水碓街7號","121.443163333333","25.1771133333333","6501000","淡水區"
