"lineid","car","time","location","longitude","latitude","cityid","cityname"
"248005","653-BX","2018/01/05 09:09:33","新北市五股區水碓路3-1號","121.433805","25.072255","6501500","五股區"
"222005","289-BY","2018/01/05 09:03:00","新北市深坑區土庫尖路75-1號","121.631201666667","25.01826","6501800","深坑區"
"231007","189-VK","2018/01/05 09:09:45","新北市新店區新潭路三段21號","121.508538333333","24.9145283333333","6500600","新店區"
"231009","192-VK","2018/01/05 09:09:31","新北市新店區廣興路66巷3號","121.538843333333","24.9136683333333","6500600","新店區"
"226001","7418-A5","2018/01/05 09:09:38","新北市平溪區石底里公園街18-3號","121.733331666667","25.0258166666667","6502400","平溪區"
"223002","198-BX","2018/01/05 08:33:44","新北市石碇區八分寮47-1號","121.643068333333","25.0133983333333","6501900","石碇區"
"223008","406-TH","2018/01/05 09:09:38","新北市石碇區頭9號","121.705881666667","25.001325","6501900","石碇區"
"223001","437-BY","2018/01/05 09:09:52","新北市石碇區北宜路四段3號","121.611495","24.957645","6501900","石碇區"
"223004","592-UM","2018/01/05 09:09:49","新北市石碇區磨石坑24-1號","121.689905","24.9720883333333","6501900","石碇區"
"223007","661-BX","2018/01/05 09:09:07","新北市石碇區南勢坑4-1號","121.697545","24.9832783333333","6501900","石碇區"
"223005","677-TV","2018/01/05 09:09:43","新北市石碇區磨石坑36-9號","121.690703333333","24.9646133333333","6501900","石碇區"
"227005","282-VK","2018/01/05 09:06:02","新北市雙溪區泰平里料角坑9號","121.81218","24.9731716666667","6502500","雙溪區"
"237001","159-UY","2018/01/05 09:09:36","新北市三峽區學府路126號","121.374715","24.9490683333333","6500900","三峽區"
"236010","165-UM","2018/01/05 09:09:39","新北市土城區金城路一段118號","121.445911666667","24.974555","6501300","土城區"
"236004","339-SR","2018/01/05 09:09:44","新北市土城區明德路二段179-4號","121.44758","24.9832583333333","6501300","土城區"
"236006","498-BY","2018/01/05 09:09:49","新北市土城區中央路三段116巷1號","121.434861666667","24.9664266666667","6501300","土城區"
"239001","417-VK","2018/01/05 09:09:49","桃園市龜山區明興街275-1號","121.333093333333","24.98139","6500800","鶯歌區"
"220043","283-UM","2018/01/05 09:09:36","新北市板橋區溪城路90-2號","121.428936666667","24.979795","6500100","板橋區"
"220080","461-BY","2018/01/05 08:55:21","新北市板橋區華東街1-9號","121.448118333333","24.994795","6500100","板橋區"
