"lineid","car","time","location","longitude","latitude","cityid","cityname"
"234040","862-TW","2018/01/05 12:09:46","新北市永和區福和路1號","121.52646","25.0097116666667","6500400","永和區"
"235031","255-BX","2018/01/05 11:56:10","新北市中和區和城路一段271巷1號","121.48564","24.9917733333333","6500300","中和區"
"227005","282-VK","2018/01/05 12:09:42","新北市雙溪區三貂里政光路3-1號","121.850768333333","25.0633533333333","6502500","雙溪區"
"221012","276-VK","2018/01/05 12:09:42","新北市汐止區汐萬路一段312號","121.650443333333","25.0750783333333","6501100","汐止區"
"220080","461-BY","2018/01/05 08:55:21","新北市板橋區華東街1-9號","121.448118333333","24.994795","6500100","板橋區"
