"lineid","car","time","location","longitude","latitude","cityid","cityname"
"234044","148-BY","2018/01/05 12:59:41","新北市永和區永元路52巷44號","121.524185","25.0007866666667","6500400","永和區"
"234012","149-BY","2018/01/05 12:59:47","新北市永和區信義路19號","121.514081666667","25.0118733333333","6500400","永和區"
"234005","207-UY","2018/01/05 12:59:37","新北市永和區永和路二段28號","121.514716666667","25.010595","6500400","永和區"
"234078","298-R6","2018/01/05 12:59:35","新北市永和區福和路147號","121.520688333333","25.0075083333333","6500400","永和區"
"234036","336-UY","2018/01/05 12:59:42","新北市永和區成功路二段203號","121.52653","24.9959983333333","6500400","永和區"
"234062","337-UY","2018/01/05 12:59:49","新北市永和區秀朗路一段164號","121.51848","25.0033983333333","6500400","永和區"
"234084","338-UY","2018/01/05 12:59:45","新北市永和區永寧街129巷2號","121.518015","25.0054033333333","6500400","永和區"
"234052","553-UM","2018/01/05 12:59:44","新北市永和區竹林路66巷5號","121.51823","25.0132633333333","6500400","永和區"
"234015","745-BX","2018/01/05 12:59:33","新北市永和區永和路二段299號","121.516008333333","25.016085","6500400","永和區"
"234028","746-BX","2018/01/05 12:59:35","新北市永和區四維街44號","121.525178333333","24.998075","6500400","永和區"
"234060","AAD-866","2018/01/05 12:59:24","新北市永和區福和路315號","121.516063333333","25.0071583333333","6500400","永和區"
"234068","847-RS","2018/01/05 12:59:34","新北市永和區中興街84巷1號","121.518596666667","25.0119216666667","6500400","永和區"
"234040","862-TW","2018/01/05 12:59:46","新北市永和區永貞路306號","121.511903333333","25.004865","6500400","永和區"
"234048","863-TW","2018/01/05 12:59:35","新北市永和區文化路147號","121.510815","25.0161766666667","6500400","永和區"
"234025","9371-KE","2018/01/05 12:59:36","新北市永和區水源街2巷22號","121.512158333333","25.005725","6500400","永和區"
"234010","9373-KE","2018/01/05 12:59:37","新北市永和區文化路113巷21弄2號","121.513255","25.0140933333333","6500400","永和區"
"248019","225-UY","2018/01/05 12:59:52","新北市五股區中興路二段83巷26-6號","121.459981666667","25.075145","6501500","五股區"
"234022","9380-KE","2018/01/05 12:59:34","新北市永和區環河東路一段162號","121.521403333333","25.0145933333333","6500400","永和區"
"234076","969-R7","2018/01/05 12:59:50","新北市永和區民享街21號","121.515616666667","24.9950066666667","6500400","永和區"
"234072","AAC-211","2018/01/05 12:59:38","新北市永和區環河東路二段98號","121.524126666667","25.0103666666667","6500400","永和區"
"234066","AAC-212","2018/01/05 12:59:38","新北市永和區中和路625號","121.512941666667","25.004815","6500400","永和區"
"234001","AAC-295","2018/01/05 12:59:46","新北市永和區永平路28號","121.513201666667","25.0088416666667","6500400","永和區"
"231037","0293-UT","2018/01/05 12:59:31","新北市新店區安華路28-1號","121.519588333333","24.96059","6500600","新店區"
"231028","046-UY","2018/01/05 12:59:50","新北市新店區安華路28-1號","121.519581666667","24.960765","6500600","新店區"
"231030","047-UY","2018/01/05 12:59:39","新北市新店區安華路28-1號","121.519088333333","24.96089","6500600","新店區"
"231029","106-UY","2018/01/05 12:59:48","新北市新店區安華路28-1號","121.519586666667","24.9607966666667","6500600","新店區"
"231018","107-UY","2018/01/05 12:59:51","新北市新店區安華路28-1號","121.519396666667","24.961335","6500600","新店區"
"231012","108-UY","2018/01/05 12:59:43","新北市新店區安華路3號","121.519245","24.95959","6500600","新店區"
"231022","187-VK","2018/01/05 12:59:37","新北市新店區安華路28-1號","121.519551666667","24.9611316666667","6500600","新店區"
"231010","278-BY","2018/01/05 12:59:43","新北市新店區安華路28-1號","121.51951","24.9613983333333","6500600","新店區"
"231023","AAD-862","2018/01/05 12:42:16","新北市新店區安華路28-1號","121.51995","24.96102","6500600","新店區"
"231027","3712-VJ","2018/01/05 12:59:51","新北市新店區安華路1-1號","121.519311666667","24.96038","6500600","新店區"
"231024","4716-K9","2018/01/05 12:59:41","新北市新店區安華路28-1號","121.519433333333","24.96091","6500600","新店區"
"231038","4715-K9","2018/01/05 12:59:49","新北市新店區安華路1-1號","121.519361666667","24.9603766666667","6500600","新店區"
"231036","512-UM","2018/01/05 12:59:52","新北市新店區安華路28-1號","121.519308333333","24.9612083333333","6500600","新店區"
"231035","515-UM","2018/01/05 12:59:44","新北市新店區安華路28-1號","121.519668333333","24.960905","6500600","新店區"
"231001","619-UM","2018/01/05 12:59:41","新北市新店區安華路28-1號","121.519586666667","24.960825","6500600","新店區"
"231003","641-BX","2018/01/05 12:59:38","新北市新店區安華路1-1號","121.519515","24.9604866666667","6500600","新店區"
"231034","645-TV","2018/01/05 12:59:43","新北市新店區安華路28-1號","121.519355","24.9606233333333","6500600","新店區"
"231013","719-UM","2018/01/05 12:59:37","新北市新店區安華路28-1號","121.519471666667","24.9611266666667","6500600","新店區"
"231032","720-UM","2018/01/05 12:59:48","新北市新店區安華路28-1號","121.519321666667","24.9611066666667","6500600","新店區"
"231005","897-TW","2018/01/05 12:59:49","新北市新店區安華路28-1號","121.519788333333","24.96074","6500600","新店區"
"231004","899-TW","2018/01/05 12:59:42","新北市新店區安華路28-1號","121.519281666667","24.9609116666667","6500600","新店區"
"235028","005-UY","2018/01/05 12:59:34","新北市中和區員山路36巷16-3號","121.48512","24.99139","6500300","中和區"
"235027","006-UY","2018/01/05 12:59:36","新北市中和區員山路36巷16-3號","121.485055","24.9912316666667","6500300","中和區"
"235010","031-BX","2018/01/05 12:59:33","新北市中和區員山路36巷12號","121.483991666667","24.9907283333333","6500300","中和區"
"235029","098-UM","2018/01/05 12:59:48","新北市中和區板南路399巷2號","121.493343333333","24.9990366666667","6500300","中和區"
"235022","151-BY","2018/01/05 12:59:42","新北市中和區錦和路350-1號","121.4901","24.9935366666667","6500300","中和區"
"235002","185-VK","2018/01/05 12:59:34","新北市中和區秀朗路三段10巷14弄24-3號","121.52509","24.99715","6500300","中和區"
"235031","255-BX","2018/01/05 12:59:43","新北市中和區中山路二段550號","121.483773333333","25.0053266666667","6500300","中和區"
"235025","378-QA","2018/01/05 03:45:20","新北市中和區員山路36巷13號","121.484098333333","24.9915233333333","6500300","中和區"
"235006","551-UM","2018/01/05 12:59:35","新北市中和區錦和路350-1號","121.490323333333","24.9935883333333","6500300","中和區"
"235005","802-TS","2018/01/05 12:59:44","新北市中和區錦和路350-1號","121.490478333333","24.9935816666667","6500300","中和區"
"235015","157-BY","2018/01/05 12:59:33","新北市中和區中正路637巷60弄61號","121.485425","24.9932","6500300","中和區"
"235001","AAC-213","2018/01/05 12:59:40","新北市中和區中正路637巷52弄1號","121.485415","24.9934683333333","6500300","中和區"
"208004","AAC-292","2018/01/05 12:59:53","新北市金山區磺港里磺港路313號","121.644275","25.2280166666667","6502700","金山區"
"207002","749-BX","2018/01/05 12:59:43","新北市萬里區雙興里大坪路34-6號","121.631778333333","25.1685616666667","6502800","萬里區"
"207001","662-BX","2018/01/05 12:59:52","新北市萬里區萬里里獅頭路22-1號","121.693061666667","25.1782633333333","6502800","萬里區"
"236006","498-BY","2018/01/05 12:59:42","新北市土城區亞洲路32巷2號","121.435865","24.974415","6501300","土城區"
"221012","276-VK","2018/01/05 12:59:42","新北市汐止區信義路7號","121.662038333333","25.0693366666667","6501100","汐止區"
"221032","280-BY","2018/01/05 12:59:37","新北市汐止區建成路57巷1號","121.662346666667","25.072585","6501100","汐止區"
"220080","461-BY","2018/01/05 08:55:21","新北市板橋區華東街1-9號","121.448118333333","24.994795","6500100","板橋區"
