"lineid","car","time","location","longitude","latitude","cityid","cityname"
"249005","172-UM","2018/01/05 17:09:21","新北市八里區華富山6-3號","121.419733333333","25.1428466666667","6502300","八里區"
"249001","173-UM","2018/01/05 17:09:49","新北市八里區中華路二段165巷2-1號","121.407663333333","25.150775","6502300","八里區"
"249004","303-UY","2018/01/05 17:09:46","新北市八里區忠孝路185號","121.422795","25.16084","6502300","八里區"
"249002","305-UY","2018/01/05 17:09:39","新北市八里區龍米路二段147巷1號","121.443418333333","25.14937","6502300","八里區"
"249003","593-UM","2018/01/05 17:09:54","新北市八里區訊塘路96號","121.397571666667","25.146485","6502300","八里區"
"244013","069-UM","2018/01/05 17:09:51","新北市林口區粉寮69號","121.405073333333","25.090825","6501700","林口區"
"244007","080-UY","2018/01/05 17:09:45","新北市林口區菁埔路33號","121.377616666667","25.0970066666667","6501700","林口區"
"244004","248-BX","2018/01/05 15:23:38","新北市林口區粉寮路二段128號","121.404285","25.090495","6501700","林口區"
"244019","403-UM","2018/01/05 17:09:44","新北市林口區四維路156號","121.380536666667","25.075515","6501700","林口區"
"244025","742-UY","2018/01/05 17:09:44","新北市林口區粉寮路二段28號","121.402918333333","25.0864066666667","6501700","林口區"
"244023","483-VK","2018/01/05 17:09:47","新北市林口區粉寮路一段58號","121.39696","25.0780966666667","6501700","林口區"
"244009","837-TS","2018/01/05 17:09:40","新北市林口區東林街14號","121.39617","25.07899","6501700","林口區"
"244021","838-TS","2018/01/05 17:09:51","新北市林口區粉寮路二段46-1號","121.403576666667","25.0871","6501700","林口區"
"231046","278-BY","2018/01/05 17:09:55","新北市新店區直潭七街60號","121.532271666667","24.940005","6500600","新店區"
"241011","013-R5","2018/01/05 17:09:55","新北市三重區河邊北街108號","121.503841666667","25.070835","6500200","三重區"
"241028","022-UY","2018/01/05 17:09:55","新北市三重區重新路三段110號","121.492241666667","25.060335","6500200","三重區"
"241008","059-VK","2018/01/05 17:09:53","新北市三重區力行路二段138-1號","121.482373333333","25.0756316666667","6500200","三重區"
"241009","060-VK","2018/01/05 17:09:49","新北市三重區三和路四段233號","121.48117","25.07991","6500200","三重區"
"241015","062-VK","2018/01/05 17:09:42","新北市三重區長生街39號","121.499795","25.06641","6500200","三重區"
"241017","063-VK","2018/01/05 17:09:39","新北市三重區大同北路91號","121.494648333333","25.0636333333333","6500200","三重區"
"241024","065-VK","2018/01/05 17:09:43","新北市三重區大勇街82巷28號","121.479525","25.0722433333333","6500200","三重區"
"241026","066-VK","2018/01/05 17:09:51","新北市三重區重新路二段42號","121.498536666667","25.062405","6500200","三重區"
"241002","090-VK","2018/01/05 17:09:54","新北市三重區五華街37號","121.49469","25.0809916666667","6500200","三重區"
"241003","091-VK","2018/01/05 17:09:51","新北市三重區進安街198號","121.49388","25.08598","6500200","三重區"
"241005","262-UM","2018/01/05 17:09:43","新北市三重區仁華街6號","121.483391666667","25.081295","6500200","三重區"
"241016","266-UM","2018/01/05 17:09:40","新北市三重區中正北路25巷25弄2號","121.493231666667","25.0626183333333","6500200","三重區"
"241022","267-UM","2018/01/05 17:09:40","新北市三重區三民街111號","121.484938333333","25.0637716666667","6500200","三重區"
"241018","268-UM","2018/01/05 17:09:57","新北市三重區正義北路332-1號","121.494385","25.0703966666667","6500200","三重區"
"241032","269-UM","2018/01/05 17:09:38","新北市三重區興華街71號","121.48495","25.05983","6500200","三重區"
"241013","270-UM","2018/01/05 17:09:45","新北市三重區仁愛街106號","121.495286666667","25.074195","6500200","三重區"
"241025","271-UM","2018/01/05 17:09:47","新北市三重區中正北路560巷79號","121.470953333333","25.06881","6500200","三重區"
"241007","398-BY","2018/01/05 17:09:55","新北市三重區三和路四段163巷10號","121.483601666667","25.078745","6500200","三重區"
"241020","413-TH","2018/01/05 17:09:48","新北市三重區自強路三段16號","121.486876666667","25.07216","6500200","三重區"
"241004","475-VK","2018/01/05 17:09:42","新北市三重區五華街98巷8號","121.491845","25.0818916666667","6500200","三重區"
"241019","478-VK","2018/01/05 17:09:46","新北市三重區三張街110號","121.48744","25.0698866666667","6500200","三重區"
"241030","480-VK","2018/01/05 17:09:48","新北市三重區集成路42號","121.489115","25.0527466666667","6500200","三重區"
"241014","543-UM","2018/01/05 17:09:54","新北市三重區介壽路39巷168號","121.502136666667","25.070755","6500200","三重區"
"241023","545-UM","2018/01/05 17:09:52","新北市三重區忠孝路三段84巷1號","121.480235","25.0644933333333","6500200","三重區"
"241001","547-UM","2018/01/05 17:09:36","新北市三重區仁愛街255巷35號","121.49422","25.0788733333333","6500200","三重區"
"241006","AAD-863","2018/01/05 17:09:55","新北市三重區三和路四段218巷20號","121.48551","25.076385","6500200","三重區"
"241012","941-UM","2018/01/05 17:09:43","新北市三重區仁信街15號","121.501505","25.075645","6500200","三重區"
"241029","942-UM","2018/01/05 17:09:56","新北市三重區重新路四段65-10號","121.487118333333","25.056965","6500200","三重區"
"241033","AAC-255","2018/01/05 17:09:53","新北市三重區中興北街271號","121.469106666667","25.060715","6500200","三重區"
"235046","031-BX","2018/01/05 16:26:18","新北市中和區員山路36巷16-2號","121.485261666667","24.9916116666667","6500300","中和區"
"235061","378-QA","2018/01/05 14:51:29","新北市中和區員山路36巷13號","121.484211666667","24.9911466666667","6500300","中和區"
"235062","800-TS","2018/01/05 16:55:24","新北市中和區員山路36巷16-3號","121.484903333333","24.991515","6500300","中和區"
"247022","893-R6","2018/01/05 17:09:55","新北市蘆洲區民族路498號","121.469681666667","25.0904916666667","6501400","蘆洲區"
"247012","546-UM","2018/01/05 17:09:50","新北市蘆洲區信義路294號","121.477868333333","25.087575","6501400","蘆洲區"
"247020","500-BY","2018/01/05 17:09:47","新北市蘆洲區民族路426巷66號","121.47264","25.094065","6501400","蘆洲區"
"247008","341-TH","2018/01/05 17:09:39","新北市蘆洲區信義路30巷56號","121.474653333333","25.0780583333333","6501400","蘆洲區"
"247010","339-TH","2018/01/05 17:09:41","新北市蘆洲區三民路52號","121.475358333333","25.0836183333333","6501400","蘆洲區"
"247002","337-TH","2018/01/05 17:09:44","新北市蘆洲區永樂街75號","121.456166666667","25.0885666666667","6501400","蘆洲區"
"247004","336-TH","2018/01/05 17:09:55","新北市蘆洲區長安街205號","121.459953333333","25.082165","6501400","蘆洲區"
"247016","057-VK","2018/01/05 17:09:47","新北市蘆洲區光華路73巷39號","121.468831666667","25.0816666666667","6501400","蘆洲區"
"247006","056-VK","2018/01/05 17:09:53","新北市蘆洲區長安街108巷5弄2號","121.461311666667","25.0818483333333","6501400","蘆洲區"
"247024","053-VK","2018/01/05 17:09:45","新北市蘆洲區長興路22號","121.46424","25.0829516666667","6501400","蘆洲區"
"247014","007-UY","2018/01/05 17:09:42","新北市蘆洲區中央路37巷15-19號","121.473148333333","25.0825216666667","6501400","蘆洲區"
"247018","001-UY","2018/01/05 17:09:41","新北市蘆洲區復興路109號","121.477081666667","25.0879316666667","6501400","蘆洲區"
"228002","663-BX","2018/01/05 17:09:44","新北市貢寮區龍崗里嵩陽街55號","121.907671666667","25.0166166666667","6502600","貢寮區"
"228001","670-TC","2018/01/05 17:09:46","新北市貢寮區仁理村尖山腳街20號","121.924706666667","25.0478516666667","6502600","貢寮區"
"228003","828-UM","2018/01/05 17:09:44","新北市貢寮區福隆里東興街42號","121.948735","25.0179233333333","6502600","貢寮區"
"224006","676-BX","2018/01/05 17:09:38","新北市瑞芳區大寮路110號","121.781428333333","25.0978866666667","6501200","瑞芳區"
"224009","285-BY","2018/01/05 17:09:47","新北市瑞芳區街頂巷36號","121.843515","25.110575","6501200","瑞芳區"
"224008","275-VK","2018/01/05 17:09:51","新北市瑞芳區侯硐路45號","121.829786666667","25.0888966666667","6501200","瑞芳區"
"224007","272-VK","2018/01/05 17:09:43","新北市瑞芳區粗坑口路41-1號","121.760121666667","25.0992483333333","6501200","瑞芳區"
"224005","271-BY","2018/01/05 17:09:56","新北市瑞芳區鼻頭路127號","121.916436666667","25.1220383333333","6501200","瑞芳區"
"227003","400-TW","2018/01/05 17:09:54","新北市雙溪區外柑里外柑腳37號","121.809201666667","25.01821","6502500","雙溪區"
"227011","030-BX","2018/01/05 17:09:37","新北市雙溪區牡丹里下坑25號","121.85022","25.0567216666667","6502500","雙溪區"
"251004","009-UM","2018/01/05 17:09:54","新北市淡水區中正東路二段48巷20號","121.457333333333","25.15836","6501000","淡水區"
"251008","181-VK","2018/01/05 17:09:48","新北市淡水區樹梅坑17號","121.47144","25.14412","6501000","淡水區"
"251010","413-VK","2018/01/05 17:09:40","新北市淡水區新市五路二段75號","121.431265","25.1982983333333","6501000","淡水區"
"251012","441-VK","2018/01/05 17:09:40","新北市淡水區大義街5號","121.44349","25.1781","6501000","淡水區"
"251005","443-VK","2018/01/05 17:09:53","新北市淡水區水源街一段29號","121.443251666667","25.1722983333333","6501000","淡水區"
"251006","561-UM","2018/01/05 17:09:42","新北市淡水區新生街78號","121.439121666667","25.1749966666667","6501000","淡水區"
"251009","575-R6","2018/01/05 17:09:40","新北市淡水區三民街17號","121.438961666667","25.1718266666667","6501000","淡水區"
"251007","577-R6","2018/01/05 17:09:46","新北市淡水區中正東路二段129號","121.459536666667","25.1488083333333","6501000","淡水區"
"251011","650-BX","2018/01/05 17:09:37","新北市淡水區坪頂路52巷18號","121.457718333333","25.1623866666667","6501000","淡水區"
"251003","673-BX","2018/01/05 17:09:40","新北市淡水區中正路二段31號","121.41946","25.1815566666667","6501000","淡水區"
"252002","178-VK","2018/01/05 17:09:49","新北市三芝區忠孝街1-6號","121.505641666667","25.2544333333333","6502100","三芝區"
"252001","702-TV","2018/01/05 17:09:50","新北市三芝區埔頭里埔頭27-1號","121.495088333333","25.2602066666667","6502100","三芝區"
"242032","AAC-296","2018/01/05 17:09:51","新北市新莊區新泰路357巷3弄57號","121.442153333333","25.0395433333333","6500500","新莊區"
"242029","986-R7","2018/01/05 17:09:36","新北市新莊區新泰路357巷3弄57號","121.442375","25.039655","6500500","新莊區"
"242050","751-BX","2018/01/05 17:09:54","新北市新莊區新樹路67巷5號","121.442156666667","25.0310083333333","6500500","新莊區"
"242025","615-BX","2018/01/05 17:09:53","新北市新莊區新泰路255巷83號","121.442306666667","25.03882","6500500","新莊區"
"242023","613-BX","2018/01/05 17:09:44","新北市新莊區新泰路255巷83號","121.442266666667","25.0391933333333","6500500","新莊區"
"242027","612-BX","2018/01/05 17:09:50","新北市新莊區新泰路357巷3弄57號","121.442156666667","25.0392583333333","6500500","新莊區"
"242039","566-BX","2018/01/05 17:09:46","新北市新莊區新泰路357巷3號","121.442135","25.04154","6500500","新莊區"
"242048","441-UM","2018/01/05 17:09:48","新北市新莊區中正路529號","121.439368333333","25.0332116666667","6500500","新莊區"
"242054","440-UM","2018/01/05 17:09:53","新北市新莊區中正路400號","121.441976666667","25.034415","6500500","新莊區"
"242034","415-TV","2018/01/05 17:09:42","新北市新莊區新泰路357巷3弄57號","121.442001666667","25.0392733333333","6500500","新莊區"
"242041","400-BY","2018/01/05 17:09:51","新北市新莊區新泰路357巷3弄57號","121.442283333333","25.0397266666667","6500500","新莊區"
"242060","362-BY","2018/01/05 17:09:53","新北市新莊區新泰路255巷83號","121.442261666667","25.0388083333333","6500500","新莊區"
"242058","353-BY","2018/01/05 17:09:52","新北市新莊區新泰路255巷83號","121.442253333333","25.0387516666667","6500500","新莊區"
"242007","132-UY","2018/01/05 17:09:52","新北市新莊區三和路18-19號","121.440791666667","25.03869","6500500","新莊區"
"242037","133-UY","2018/01/05 17:09:53","新北市新莊區中正路481號","121.441341666667","25.03378","6500500","新莊區"
"242021","135-UY","2018/01/05 17:09:43","新北市新莊區新泰路255巷83號","121.442425","25.0388483333333","6500500","新莊區"
"242046","172-VK","2018/01/05 14:59:20","新北市新莊區三和路12-21號","121.441858333333","25.0388083333333","6500500","新莊區"
"242009","173-VK","2018/01/05 00:36:44","新北市新莊區三和路12-21號","121.442046666667","25.0384383333333","6500500","新莊區"
"242015","175-VK","2018/01/05 17:09:56","新北市新莊區三和路12-21號","121.442033333333","25.0386316666667","6500500","新莊區"
"242013","346-TH","2018/01/05 17:09:40","新北市新莊區三和路12-16號","121.442008333333","25.0373933333333","6500500","新莊區"
"242017","350-TH","2018/01/05 17:09:41","新北市新莊區三和路12-11號","121.442235","25.0369966666667","6500500","新莊區"
"242011","351-TH","2018/01/05 17:09:50","新北市新莊區新泰路357巷3弄57號","121.442053333333","25.0394466666667","6500500","新莊區"
"238015","755-BX","2018/01/05 17:09:39","新北市樹林區育德街78-1號","121.38808","24.968065","6500700","樹林區"
"238023","601-UM","2018/01/05 17:09:41","新北市樹林區中山路三段27號","121.401555","24.9754933333333","6500700","樹林區"
"238019","599-UM","2018/01/05 17:09:45","新北市樹林區八德街450-1號","121.400923333333","24.9703216666667","6500700","樹林區"
"238018","571-TV","2018/01/05 17:09:54","新北市樹林區水源街86號","121.425893333333","24.9801833333333","6500700","樹林區"
"238024","5061-A6","2018/01/05 17:09:40","新北市樹林區鎮前街160號","121.424516666667","24.990075","6500700","樹林區"
"238021","KEA-2217","2018/01/05 17:09:37","新北市樹林區西圳街165巷20弄26號","121.395545","24.9600333333333","6500700","樹林區"
"238022","KEA-2213","2018/01/05 17:09:44","新北市樹林區環河路600號","121.404535","24.9693333333333","6500700","樹林區"
"238025","303-VK","2018/01/05 17:09:41","新北市樹林區中山路三段125-10號","121.397413333333","24.9734483333333","6500700","樹林區"
"238017","283-BY","2018/01/05 17:09:49","新北市樹林區大安路305號","121.417718333333","24.992225","6500700","樹林區"
"238020","268-VK","2018/01/05 17:09:40","新北市樹林區大安路251號","121.419373333333","24.9941933333333","6500700","樹林區"
"238026","172-UY","2018/01/05 17:09:36","新北市樹林區八德街502號","121.39972","24.97021","6500700","樹林區"
"238016","169-UY","2018/01/05 17:09:40","新北市樹林區中洲街3號","121.397388333333","24.97293","6500700","樹林區"
"239007","AAC-297","2018/01/05 17:09:53","新北市鶯歌區信義街42號","121.353341666667","24.955535","6500800","鶯歌區"
"239006","891-R6","2018/01/05 17:09:50","新北市鶯歌區八德路2巷37弄10號","121.337163333333","24.9464216666667","6500800","鶯歌區"
"239008","527-UM","2018/01/05 17:09:46","新北市鶯歌區尖山路57-1號","121.350098333333","24.94968","6500800","鶯歌區"
"239005","526-UM","2018/01/05 17:09:43","新北市鶯歌區德昌街7-1號","121.333628333333","24.9604816666667","6500800","鶯歌區"
"239001","417-VK","2018/01/05 17:09:52","新北市鶯歌區尖山路86巷17號","121.347165","24.94956","6500800","鶯歌區"
"239003","360-BY","2018/01/05 17:09:46","新北市鶯歌區八德路50號","121.330226666667","24.9561216666667","6500800","鶯歌區"
"239002","359-BY","2018/01/05 17:09:43","新北市鶯歌區建國路255號","121.347903333333","24.953325","6500800","鶯歌區"
"239004","193-VK","2018/01/05 17:09:40","新北市鶯歌區文化路256巷20號","121.352081666667","24.9476516666667","6500800","鶯歌區"
"221012","276-VK","2018/01/05 13:31:07","新北市汐止區汐萬路一段256巷3號","121.653383333333","25.0746516666667","6501100","汐止區"
"242005","281-VK","2018/01/05 17:09:42","新北市新莊區三和路12-13號","121.442358333333","25.0371266666667","6500500","新莊區"
"220080","461-BY","2018/01/05 14:30:22","新北市板橋區華東街1-8號","121.44802","24.994815","6500100","板橋區"
