"lineid","car","time","location","longitude","latitude","cityid","cityname"
"234026","9371-KE","2018/01/05 17:39:38","新北市永和區中正路649號","121.51516","25.0101733333333","6500400","永和區"
"249005","172-UM","2018/01/05 17:39:41","新北市八里區荖阡坑路34號","121.4027","25.1298283333333","6502300","八里區"
"249001","173-UM","2018/01/05 17:39:47","新北市八里區龍米路二段153-8號","121.440156666667","25.1534783333333","6502300","八里區"
"249004","303-UY","2018/01/05 17:39:46","新北市八里區賢二街29號","121.418796666667","25.158145","6502300","八里區"
"249002","305-UY","2018/01/05 17:39:39","新北市八里區龍形三街9巷6號","121.45066","25.13171","6502300","八里區"
"249003","593-UM","2018/01/05 17:39:54","新北市八里區中山路二段157號","121.404941666667","25.15084","6502300","八里區"
"248006","077-UY","2018/01/05 17:39:57","新北市五股區中興路二段37巷28號","121.460088333333","25.0748866666667","6501500","五股區"
"232011","375-UM","2018/01/05 17:39:41","新北市坪林區北宜路八段298號","121.710218333333","24.9352983333333","6502000","坪林區"
"244013","069-UM","2018/01/05 17:39:51","新北市林口區中山路319號","121.383611666667","25.0805466666667","6501700","林口區"
"244007","080-UY","2018/01/05 17:39:54","新北市林口區林口路272巷2號","121.386476666667","25.0846833333333","6501700","林口區"
"244004","248-BX","2018/01/05 15:23:38","新北市林口區粉寮路二段128號","121.404285","25.090495","6501700","林口區"
"244019","403-UM","2018/01/05 17:39:44","新北市林口區文化一路一段83巷14弄15號","121.371958333333","25.0713366666667","6501700","林口區"
"244025","742-UY","2018/01/05 17:39:44","新北市林口區文化三路一段365號","121.365115","25.0727733333333","6501700","林口區"
"244023","483-VK","2018/01/05 17:39:47","新北市林口區東明一街121巷11號","121.390098333333","25.0701916666667","6501700","林口區"
"244011","656-BX","2018/01/05 17:39:50","新北市林口區佳林路154號","121.384205","25.0770766666667","6501700","林口區"
"244009","837-TS","2018/01/05 17:39:40","新北市林口區中北三街176巷60號","121.382345","25.0820316666667","6501700","林口區"
"244021","838-TS","2018/01/05 17:39:51","新北市林口區仁愛路一段213號","121.398193333333","25.0746183333333","6501700","林口區"
"231046","278-BY","2018/01/05 17:39:55","新北市新店區直潭路92號","121.530926666667","24.9376566666667","6500600","新店區"
"241008","059-VK","2018/01/05 17:39:53","新北市三重區永福街66號","121.480743333333","25.07687","6500200","三重區"
"241024","065-VK","2018/01/05 17:39:42","新北市三重區大勇街82巷15弄30號","121.481213333333","25.0719983333333","6500200","三重區"
"241005","262-UM","2018/01/05 17:39:46","新北市三重區仁愛街517號","121.487596666667","25.0824016666667","6500200","三重區"
"241016","266-UM","2018/01/05 17:39:46","新北市三重區重新路二段23號","121.497816666667","25.0627266666667","6500200","三重區"
"241007","398-BY","2018/01/05 17:39:35","新北市三重區永福街256號","121.484343333333","25.07487","6500200","三重區"
"241014","543-UM","2018/01/05 17:39:54","新北市三重區龍門路254號","121.501058333333","25.0738966666667","6500200","三重區"
"241023","545-UM","2018/01/05 17:39:52","新北市三重區中華路97號","121.483636666667","25.06317","6500200","三重區"
"241012","941-UM","2018/01/05 17:39:43","新北市三重區龍濱路285號","121.501061666667","25.0733333333333","6500200","三重區"
"241033","AAC-255","2018/01/05 17:39:53","新北市三重區光復路一段53號","121.472143333333","25.0489533333333","6500200","三重區"
"235064","005-UY","2018/01/05 17:39:56","新北市中和區員山路36巷16-3號","121.485146666667","24.9913166666667","6500300","中和區"
"235046","031-BX","2018/01/05 16:26:18","新北市中和區員山路36巷16-2號","121.485261666667","24.9916116666667","6500300","中和區"
"235061","378-QA","2018/01/05 14:51:29","新北市中和區員山路36巷13號","121.484211666667","24.9911466666667","6500300","中和區"
"235062","800-TS","2018/01/05 16:55:24","新北市中和區員山路36巷16-3號","121.484903333333","24.991515","6500300","中和區"
"247022","893-R6","2018/01/05 17:39:55","新北市蘆洲區三民路285號","121.467373333333","25.0901","6501400","蘆洲區"
"247012","546-UM","2018/01/05 17:39:50","新北市蘆洲區民權路3巷12號","121.475953333333","25.0853833333333","6501400","蘆洲區"
"247020","500-BY","2018/01/05 17:39:47","新北市蘆洲區民義街119-1號","121.474106666667","25.0911866666667","6501400","蘆洲區"
"247008","341-TH","2018/01/05 17:39:39","新北市蘆洲區中山一路281巷6號","121.472316666667","25.0793383333333","6501400","蘆洲區"
"247010","339-TH","2018/01/05 17:39:41","新北市蘆洲區集賢路406號","121.479871666667","25.0819966666667","6501400","蘆洲區"
"247002","337-TH","2018/01/05 17:39:44","新北市蘆洲區永平街32巷11弄36號","121.457603333333","25.0920316666667","6501400","蘆洲區"
"247004","336-TH","2018/01/05 17:39:42","新北市蘆洲區長安街172巷11號","121.459545","25.083545","6501400","蘆洲區"
"247016","057-VK","2018/01/05 17:39:14","新北市蘆洲區光華路68號","121.468171666667","25.082805","6501400","蘆洲區"
"247006","056-VK","2018/01/05 17:39:53","新北市蘆洲區長安街23巷8號","121.463666666667","25.07888","6501400","蘆洲區"
"247024","053-VK","2018/01/05 17:39:45","新北市蘆洲區長樂路125-1號","121.462138333333","25.08795","6501400","蘆洲區"
"247014","007-UY","2018/01/05 17:39:41","新北市蘆洲區中正路66號","121.470366666667","25.0832016666667","6501400","蘆洲區"
"247018","001-UY","2018/01/05 17:39:42","新北市蘆洲區民權路63號","121.473843333333","25.0881183333333","6501400","蘆洲區"
"228002","663-BX","2018/01/05 17:39:44","新北市貢寮區福隆里外隆林街15-2號","121.958661666667","25.0037833333333","6502600","貢寮區"
"228001","670-TC","2018/01/05 17:39:46","新北市貢寮區真理里新港街26巷28-6號","121.927645","25.0553833333333","6502600","貢寮區"
"228003","828-UM","2018/01/05 17:39:44","新北市貢寮區真理里大澳街1號","121.92478","25.0554283333333","6502600","貢寮區"
"224010","AGQ-8101","2018/01/05 17:39:13","新北市瑞芳區岳王路42號","121.808701666667","25.1109483333333","6501200","瑞芳區"
"224006","676-BX","2018/01/05 17:39:49","新北市瑞芳區傑魚坑路16號","121.794541666667","25.11049","6501200","瑞芳區"
"224009","285-BY","2018/01/05 17:39:46","新北市瑞芳區山尖路215-1號","121.848846666667","25.112475","6501200","瑞芳區"
"224008","275-VK","2018/01/05 17:39:54","新北市瑞芳區瑞柑新村60號","121.82803","25.1068366666667","6501200","瑞芳區"
"224005","271-BY","2018/01/05 17:39:42","新北市瑞芳區海濱路77-1號","121.83194","25.12353","6501200","瑞芳區"
"227003","400-TW","2018/01/05 17:39:54","新北市雙溪區牡丹里牡丹170號","121.850238333333","25.0579183333333","6502500","雙溪區"
"251004","009-UM","2018/01/05 17:39:35","新北市淡水區中正東路二段88巷37-21號","121.459158333333","25.1445483333333","6501000","淡水區"
"251001","011-UM","2018/01/05 17:39:53","新北市淡水區民權路92巷35-1號","121.462223333333","25.1266766666667","6501000","淡水區"
"251008","181-VK","2018/01/05 17:39:47","新北市淡水區八勢路30巷19號","121.462938333333","25.1537216666667","6501000","淡水區"
"251010","413-VK","2018/01/05 17:39:40","新北市淡水區淡海路280巷33弄34-2號","121.418758333333","25.1886116666667","6501000","淡水區"
"251012","441-VK","2018/01/05 17:39:40","新北市淡水區北新路200巷10號","121.451838333333","25.1796933333333","6501000","淡水區"
"251005","443-VK","2018/01/05 17:39:53","新北市淡水區鄧公路33巷5號","121.451666666667","25.171","6501000","淡水區"
"251006","561-UM","2018/01/05 17:39:42","新北市淡水區大信街1巷25號","121.440211666667","25.1767216666667","6501000","淡水區"
"251009","575-R6","2018/01/05 17:39:40","新北市淡水區中正路36號","121.44376","25.169225","6501000","淡水區"
"251007","577-R6","2018/01/05 17:39:45","新北市淡水區民生路52巷52號","121.463371666667","25.1377966666667","6501000","淡水區"
"251011","650-BX","2018/01/05 17:39:57","新北市淡水區小坪頂13-3號","121.486615","25.1561466666667","6501000","淡水區"
"251002","672-BX","2018/01/05 17:39:47","新北市淡水區中山路143-2號","121.440641666667","25.1719366666667","6501000","淡水區"
"251003","673-BX","2018/01/05 17:39:40","新北市淡水區大忠街5巷1號","121.443125","25.1763983333333","6501000","淡水區"
"207003","550-UM","2018/01/05 17:39:43","新北市萬里區龜吼里漁澳路85-2號","121.688246666667","25.1963983333333","6502800","萬里區"
"207004","225-TW","2018/01/05 17:39:51","新北市萬里區中幅里中福路7-2號","121.685998333333","25.1646366666667","6502800","萬里區"
"252002","178-VK","2018/01/05 17:39:49","新北市三芝區中正路二段18號","121.504475","25.255375","6502100","三芝區"
"252001","702-TV","2018/01/05 17:39:50","新北市三芝區淡金路一段67號","121.50147","25.25884","6502100","三芝區"
"237011","572-TV","2018/01/05 12:49:11","新北市三峽區中山路459巷163-3號","121.348653333333","24.9330233333333","6500900","三峽區"
"237010","706-TV","2018/01/05 17:39:46","新北市三峽區中山路137號","121.365138333333","24.9360916666667","6500900","三峽區"
"236079","166-UM","2018/01/05 15:47:31","新北市土城區中山路46-1號","121.427018333333","24.965225","6501300","土城區"
"236015","270-VK","2018/01/05 17:39:41","新北市土城區城林路6巷80號","121.438508333333","24.979565","6501300","土城區"
"236022","401-BY","2018/01/05 17:39:47","新北市土城區城林路6巷80號","121.438508333333","24.9796216666667","6501300","土城區"
"242032","AAC-296","2018/01/05 17:39:52","新北市新莊區新泰路361巷23號","121.442411666667","25.043015","6500500","新莊區"
"242029","986-R7","2018/01/05 17:39:36","新北市新莊區復興路二段5號","121.453533333333","25.0438866666667","6500500","新莊區"
"242050","751-BX","2018/01/05 17:39:54","新北市新莊區西盛街187-16號","121.428981666667","25.0171866666667","6500500","新莊區"
"242025","615-BX","2018/01/05 17:39:54","新北市新莊區思源路98號","121.46012","25.0461183333333","6500500","新莊區"
"242023","613-BX","2018/01/05 17:39:44","新北市新莊區民樂街55號","121.457911666667","25.0415016666667","6500500","新莊區"
"242027","612-BX","2018/01/05 17:39:49","新北市新莊區福壽街126-5號","121.457741666667","25.0512283333333","6500500","新莊區"
"242039","566-BX","2018/01/05 17:39:46","新北市新莊區民安路322號","121.428983333333","25.02201","6500500","新莊區"
"242044","442-UM","2018/01/05 17:39:55","新北市新莊區中正路871巷9弄41號","121.419848333333","25.0267933333333","6500500","新莊區"
"242048","441-UM","2018/01/05 17:39:48","新北市新莊區萬安街120號","121.420376666667","25.021905","6500500","新莊區"
"242054","440-UM","2018/01/05 17:39:53","新北市新莊區新樹路398號","121.4322","25.0025083333333","6500500","新莊區"
"242034","415-TV","2018/01/05 17:39:42","新北市新莊區新莊路637號","121.445261666667","25.0328683333333","6500500","新莊區"
"242041","400-BY","2018/01/05 17:39:51","新北市新莊區中正路514巷51號","121.43219","25.0336066666667","6500500","新莊區"
"242060","362-BY","2018/01/05 17:39:51","新北市新莊區瓊林南路118-27號","121.433896666667","25.01075","6500500","新莊區"
"242058","353-BY","2018/01/05 17:39:53","新北市新莊區中正路698號","121.418893333333","25.0278933333333","6500500","新莊區"
"242007","132-UY","2018/01/05 17:39:52","新北市新莊區福樂街118巷5號","121.457295","25.0480683333333","6500500","新莊區"
"242037","133-UY","2018/01/05 17:39:53","新北市新莊區後港一路138號","121.429715","25.02737","6500500","新莊區"
"242021","135-UY","2018/01/05 17:39:43","新北市新莊區中華路一段118號","121.452478333333","25.0406183333333","6500500","新莊區"
"242046","172-VK","2018/01/05 17:39:51","新北市新莊區中正路577號","121.434625","25.0323366666667","6500500","新莊區"
"242009","173-VK","2018/01/05 17:39:49","新北市新莊區昌明街14巷3弄2號","121.457328333333","25.0529766666667","6500500","新莊區"
"242015","175-VK","2018/01/05 17:39:56","新北市新莊區新泰路406巷2弄1號","121.444328333333","25.043855","6500500","新莊區"
"242002","176-VK","2018/01/05 17:39:41","新北市新莊區新莊路280號","121.45159","25.0339016666667","6500500","新莊區"
"242013","346-TH","2018/01/05 17:39:40","新北市新莊區中誠街127號","121.449238333333","25.047565","6500500","新莊區"
"242019","348-TH","2018/01/05 17:39:46","新北市新莊區中港路176號","121.454903333333","25.0419083333333","6500500","新莊區"
"242056","349-TH","2018/01/05 17:39:54","新北市新莊區泰豐街28號","121.448351666667","25.0318533333333","6500500","新莊區"
"242017","350-TH","2018/01/05 17:39:41","新北市新莊區復興路一段147號","121.450436666667","25.0432866666667","6500500","新莊區"
"242011","351-TH","2018/01/05 17:39:49","新北市新莊區中港路649號","121.450998333333","25.0550716666667","6500500","新莊區"
"238015","755-BX","2018/01/05 17:39:39","新北市樹林區啟智街36號","121.420685","24.993225","6500700","樹林區"
"238023","601-UM","2018/01/05 17:39:46","新北市樹林區三福街79號","121.407355","25.0163633333333","6500700","樹林區"
"238019","599-UM","2018/01/05 17:39:45","新北市樹林區太平路125號","121.419161666667","24.9804616666667","6500700","樹林區"
"238018","571-TV","2018/01/05 17:39:54","新北市樹林區鎮前街117號","121.42428","24.9896433333333","6500700","樹林區"
"238024","5061-A6","2018/01/05 17:39:40","新北市樹林區八德街262-1號","121.417861666667","24.9722166666667","6500700","樹林區"
"238021","KEA-2217","2018/01/05 17:39:57","新北市樹林區佳園路二段36-5號","121.391325","24.961845","6500700","樹林區"
"238022","KEA-2213","2018/01/05 17:39:44","新北市樹林區和平街2巷1號","121.421033333333","24.9812483333333","6500700","樹林區"
"238025","303-VK","2018/01/05 17:39:41","新北市樹林區保安街二段159號","121.41529","25.00273","6500700","樹林區"
"238017","283-BY","2018/01/05 17:39:49","新北市樹林區三德街30巷16弄37號","121.413851666667","25.012065","6500700","樹林區"
"238014","282-BY","2018/01/05 17:39:39","新北市樹林區保安街一段294巷2號","121.419708333333","24.997905","6500700","樹林區"
"238020","268-VK","2018/01/05 17:39:40","新北市樹林區千歲街101-2號","121.428501666667","25.0009283333333","6500700","樹林區"
"238026","172-UY","2018/01/05 17:39:56","新北市樹林區新興街19巷36弄14號","121.402448333333","24.9730283333333","6500700","樹林區"
"238016","169-UY","2018/01/05 17:39:40","新北市樹林區日新街63號","121.422345","24.9911416666667","6500700","樹林區"
"239007","AAC-297","2018/01/05 17:39:53","新北市鶯歌區鶯桃路182巷20號","121.337373333333","24.95606","6500800","鶯歌區"
"239006","891-R6","2018/01/05 17:39:50","新北市鶯歌區永和街56巷5號","121.33373","24.9677733333333","6500800","鶯歌區"
"239008","527-UM","2018/01/05 17:39:46","新北市鶯歌區大湖路361巷1號","121.3312","24.9779033333333","6500800","鶯歌區"
"239005","526-UM","2018/01/05 17:39:43","新北市鶯歌區福隆二街58號","121.324488333333","24.9715416666667","6500800","鶯歌區"
"239001","417-VK","2018/01/05 17:39:52","新北市鶯歌區中正三路234-6號","121.33054","24.936995","6500800","鶯歌區"
"239003","360-BY","2018/01/05 17:39:46","新北市鶯歌區鶯桃路206巷55號","121.338085","24.960265","6500800","鶯歌區"
"239002","359-BY","2018/01/05 17:39:43","新北市鶯歌區育德街51號","121.343743333333","24.9551383333333","6500800","鶯歌區"
"239004","193-VK","2018/01/05 17:39:40","新北市鶯歌區文化路393巷2弄2號","121.35295","24.950575","6500800","鶯歌區"
"221008","489-VK","2018/01/05 17:39:58","新北市汐止區康寧街901號","121.65137","25.0749816666667","6501100","汐止區"
"221010","269-BY","2018/01/05 17:39:53","新北市汐止區汐萬路一段418巷20號","121.650438333333","25.078615","6501100","汐止區"
"221012","276-VK","2018/01/05 13:31:07","新北市汐止區汐萬路一段256巷3號","121.653383333333","25.0746516666667","6501100","汐止區"
"221023","279-VK","2018/01/05 17:39:52","新北市汐止區康寧街901號","121.651593333333","25.0749733333333","6501100","汐止區"
"221021","299-VK","2018/01/05 17:39:47","新北市汐止區康寧街901號","121.650855","25.0752816666667","6501100","汐止區"
"221033","647-BX","2018/01/05 17:39:53","新北市汐止區新台五路一段116號","121.649178333333","25.0615716666667","6501100","汐止區"
"221018","753-BX","2018/01/05 17:39:35","新北市汐止區康寧街901號","121.650718333333","25.075335","6501100","汐止區"
"242005","281-VK","2018/01/05 17:39:42","新北市新莊區自立街214巷7號","121.457193333333","25.04503","6500500","新莊區"
"220080","461-BY","2018/01/05 14:30:22","新北市板橋區華東街1-8號","121.44802","24.994815","6500100","板橋區"
