"lineid","car","time","location","longitude","latitude","cityid","cityname"
"234046","148-BY","2018/01/05 18:39:56","新北市永和區永元路52巷3號","121.522666666667","25.0011933333333","6500400","永和區"
"234013","149-BY","2018/01/05 18:39:44","新北市永和區竹林路75巷25弄34號","121.521145","25.0149783333333","6500400","永和區"
"234007","207-UY","2018/01/05 18:39:41","新北市永和區文化路170號","121.511766666667","25.0155616666667","6500400","永和區"
"234081","298-R6","2018/01/05 18:39:39","新北市永和區林森路77號","121.523935","25.0039233333333","6500400","永和區"
"234038","336-UY","2018/01/05 18:39:43","新北市永和區福和路1號","121.526568333333","25.00998","6500400","永和區"
"234064","337-UY","2018/01/05 18:39:59","新北市永和區福和路1號","121.526478333333","25.0100683333333","6500400","永和區"
"234086","338-UY","2018/01/05 18:39:40","新北市中和區安平路30號","121.509591666667","24.9947266666667","6500400","永和區"
"234017","745-BX","2018/01/05 18:39:45","新北市永和區福和路1號","121.526421666667","25.0098933333333","6500400","永和區"
"234030","746-BX","2018/01/05 18:39:43","新北市永和區成功路一段89號","121.526886666667","25.0028716666667","6500400","永和區"
"234061","AAD-866","2018/01/05 18:39:38","新北市永和區福和路8巷1號","121.524831666667","25.0088066666667","6500400","永和區"
"234042","862-TW","2018/01/05 18:39:48","新北市永和區永貞路302號","121.512045","25.0047166666667","6500400","永和區"
"234050","863-TW","2018/01/05 18:39:54","新北市永和區福和路1號","121.526416666667","25.00987","6500400","永和區"
"234026","9371-KE","2018/01/05 18:39:58","新北市永和區永貞路345號","121.50945","25.00725","6500400","永和區"
"234011","9373-KE","2018/01/05 18:39:52","新北市永和區文化路9巷22弄12號","121.514938333333","25.0145866666667","6500400","永和區"
"249005","172-UM","2018/01/05 18:39:40","新北市八里區中華路三段196號","121.38825","25.1257116666667","6502300","八里區"
"249001","173-UM","2018/01/05 18:39:47","新北市八里區龍米路一段398號","121.451376666667","25.1329916666667","6502300","八里區"
"249004","303-UY","2018/01/05 18:39:46","新北市八里區中山路一段126-1號","121.418513333333","25.15967","6502300","八里區"
"249002","305-UY","2018/01/05 18:39:39","新北市八里區頂寮二街138號","121.449355","25.1294483333333","6502300","八里區"
"248016","026-BX","2018/01/05 18:39:45","新北市五股區凌雲路一段133巷27-3號","121.448645","25.1008633333333","6501500","五股區"
"248008","095-VK","2018/01/05 18:39:40","新北市五股區中興路一段151巷1弄1號","121.465075","25.0732783333333","6501500","五股區"
"248018","225-UY","2018/01/05 18:39:49","新北市五股區民義路二段78號","121.405943333333","25.108995","6501500","五股區"
"248012","247-BX","2018/01/05 18:39:35","新北市五股區御史路2號","121.442253333333","25.090235","6501500","五股區"
"248014","261-SL","2018/01/05 18:39:44","新北市五股區成泰路一段194-1號","121.435565","25.077805","6501500","五股區"
"248004","677-BX","2018/01/05 18:39:52","新北市五股區民義路一段312-7號","121.423295","25.0948333333333","6501500","五股區"
"248002","678-BX","2018/01/05 18:39:55","新北市五股區西雲路205號","121.448576666667","25.0964833333333","6501500","五股區"
"248010","682-TV","2018/01/05 18:39:49","新北市五股區自強路91號","121.432526666667","25.0716733333333","6501500","五股區"
"234023","9380-KE","2018/01/05 18:39:36","新北市永和區福和路10巷2號","121.524728333333","25.0087733333333","6500400","永和區"
"234077","969-R7","2018/01/05 18:39:52","新北市永和區中正路59號","121.514643333333","24.996315","6500400","永和區"
"234067","AAC-212","2018/01/05 18:39:45","新北市永和區安樂路250-2號","121.514506666667","25.003775","6500400","永和區"
"234003","AAC-295","2018/01/05 18:39:37","新北市永和區福和路1號","121.526613333333","25.0098966666667","6500400","永和區"
"232011","375-UM","2018/01/05 18:18:51","新北市坪林區坪雙路一段43號","121.711813333333","24.94244","6502000","坪林區"
"244013","069-UM","2018/01/05 18:39:51","新北市林口區中正路465號","121.38424","25.0777583333333","6501700","林口區"
"244007","080-UY","2018/01/05 18:39:45","新北市林口區太平里3號","121.379445","25.111965","6501700","林口區"
"244004","248-BX","2018/01/05 15:23:38","新北市林口區粉寮路二段128號","121.404285","25.090495","6501700","林口區"
"244019","403-UM","2018/01/05 18:39:44","新北市林口區忠孝路616巷27號","121.37737","25.0671283333333","6501700","林口區"
"244025","742-UY","2018/01/05 18:39:44","新北市林口區南勢街163號","121.359475","25.0750266666667","6501700","林口區"
"244023","483-VK","2018/01/05 18:39:51","新北市林口區民享路30號","121.380676666667","25.0804866666667","6501700","林口區"
"244017","485-VK","2018/01/05 18:39:50","新北市林口區文化二路一段68巷18-2號","121.366106666667","25.0677983333333","6501700","林口區"
"244011","656-BX","2018/01/05 18:39:50","新北市林口區新寮1-65號","121.3927","25.0764933333333","6501700","林口區"
"244009","837-TS","2018/01/05 18:39:40","新北市林口區林口路241號","121.386633333333","25.0837883333333","6501700","林口區"
"244021","838-TS","2018/01/05 18:39:47","新北市林口區工六路52號","121.399238333333","25.0781333333333","6501700","林口區"
"243012","AAD-798","2018/01/05 18:39:46","新北市泰山區福興三街13號","121.434448333333","25.0578066666667","6501600","泰山區"
"243013","646-TV","2018/01/05 18:31:53","新北市泰山區明志路三段206巷3號","121.423276666667","25.0379066666667","6501600","泰山區"
"222003","436-BY","2018/01/05 18:39:37","新北市深坑區翠谷街34巷10號","121.626733333333","25.0089733333333","6501800","深坑區"
"222002","659-BX","2018/01/05 18:39:44","新北市深坑區文山路一段64號","121.623321666667","25.0008066666667","6501800","深坑區"
"231041","001-UM","2018/01/05 18:39:50","新北市新店區安華路28-1號","121.519428333333","24.9608016666667","6500600","新店區"
"231066","0293-UT","2018/01/05 18:39:50","新北市新店區安華路1-1號","121.519483333333","24.9604833333333","6500600","新店區"
"231059","046-UY","2018/01/05 18:39:38","新北市新店區安華路28-1號","121.519495","24.9608366666667","6500600","新店區"
"231061","047-UY","2018/01/05 18:39:37","新北市新店區安華路28-1號","121.518978333333","24.9609733333333","6500600","新店區"
"231060","106-UY","2018/01/05 18:39:44","新北市新店區安華路28-1號","121.519661666667","24.960795","6500600","新店區"
"231051","107-UY","2018/01/05 18:39:42","新北市新店區安康路一段3-1號","121.534476666667","24.9607416666667","6500600","新店區"
"231048","108-UY","2018/01/05 18:39:41","新北市新店區光明街129號","121.53919","24.96195","6500600","新店區"
"231053","187-VK","2018/01/05 18:39:48","新北市新店區永興路12號","121.545248333333","24.9400033333333","6500600","新店區"
"231050","KEA-2219","2018/01/05 18:39:49","新北市新店區安華路28-1號","121.519818333333","24.9612266666667","6500600","新店區"
"231057","256-BX","2018/01/05 18:39:37","新北市新店區新烏路161號","121.545263333333","24.93293","6500600","新店區"
"231046","278-BY","2018/01/05 18:39:55","新北市新店區直潭二街1號","121.535546666667","24.94317","6500600","新店區"
"231054","AAD-862","2018/01/05 18:39:44","新北市新店區安華路28-1號","121.519775","24.960985","6500600","新店區"
"231058","3712-VJ","2018/01/05 18:39:51","新北市新店區北宜路一段170號","121.54061","24.9530733333333","6500600","新店區"
"231056","3713-VJ","2018/01/05 18:39:48","新北市新店區民族路77-2號","121.539135","24.97799","6500600","新店區"
"231055","4716-K9","2018/01/05 18:39:53","新北市新店區華興街40號","121.536986666667","24.9691383333333","6500600","新店區"
"231067","4772-VM","2018/01/05 18:39:47","新北市新店區安康路一段323-3號","121.521491666667","24.9637766666667","6500600","新店區"
"231065","512-UM","2018/01/05 18:39:40","新北市新店區安華路28-1號","121.51933","24.961275","6500600","新店區"
"231064","515-UM","2018/01/05 18:39:53","新北市新店區安華路28-1號","121.51962","24.9610116666667","6500600","新店區"
"231045","617-UM","2018/01/05 18:39:43","新北市新店區安華路28-1號","121.519395","24.9608366666667","6500600","新店區"
"231040","619-UM","2018/01/05 18:39:41","新北市新店區安華路28-1號","121.519411666667","24.9607316666667","6500600","新店區"
"231042","641-BX","2018/01/05 18:39:46","新北市新店區安華路1-1號","121.519486666667","24.96042","6500600","新店區"
"231063","645-TV","2018/01/05 18:39:45","新北市新店區安華路1-1號","121.519325","24.96052","6500600","新店區"
"231049","719-UM","2018/01/05 18:39:43","新北市新店區安康路一段100號","121.527463333333","24.9623433333333","6500600","新店區"
"231062","720-UM","2018/01/05 18:39:38","新北市新店區安華路28-1號","121.51934","24.9611283333333","6500600","新店區"
"231044","897-TW","2018/01/05 18:39:39","新北市新店區中正路111號","121.542465","24.9705716666667","6500600","新店區"
"231043","899-TW","2018/01/05 18:39:45","新北市新店區安華路28-1號","121.519133333333","24.960865","6500600","新店區"
"235066","003-UY","2018/01/05 18:39:47","新北市中和區水源路39號","121.50452","25.0036066666667","6500300","中和區"
"235064","005-UY","2018/01/05 18:39:37","新北市中和區連城路115號","121.496245","24.99947","6500300","中和區"
"235063","006-UY","2018/01/05 18:39:39","新北市中和區建一路196號","121.4879","24.9964666666667","6500300","中和區"
"235046","031-BX","2018/01/05 18:39:42","新北市中和區南山路399巷10號","121.507106666667","24.9904366666667","6500300","中和區"
"235056","096-UM","2018/01/05 18:39:58","新北市中和區員山路611巷1號","121.477898333333","25.0112683333333","6500300","中和區"
"235039","097-UM","2018/01/05 18:39:52","新北市中和區安平路192-1號","121.513213333333","24.999315","6500300","中和區"
"235065","098-UM","2018/01/05 18:39:43","新北市中和區莊敬路33巷3弄1號","121.499995","25.006055","6500300","中和區"
"235040","150-BY","2018/01/05 18:39:39","新北市中和區宜安路41號","121.511863333333","24.9964133333333","6500300","中和區"
"235058","151-BY","2018/01/05 18:39:48","新北市中和區圓通路369巷30弄10號","121.489056666667","24.9847433333333","6500300","中和區"
"235055","183-VK","2018/01/05 18:39:36","新北市中和區中山路三段229巷49號","121.469261666667","25.00549","6500300","中和區"
"235038","185-VK","2018/01/05 18:39:40","新北市中和區立人街14巷4號","121.519428333333","24.9948516666667","6500300","中和區"
"235049","186-VK","2018/01/05 18:39:36","新北市中和區景安路78號","121.505783333333","24.996455","6500300","中和區"
"235067","255-BX","2018/01/05 18:39:41","新北市中和區中山路二段479號","121.483096666667","25.004775","6500300","中和區"
"235044","293-VK","2018/01/05 18:39:48","新北市中和區復興路280巷13號","121.50219","24.9912983333333","6500300","中和區"
"235072","301-VK","2018/01/05 18:39:43","新北市中和區連城路137號","121.495873333333","24.9988733333333","6500300","中和區"
"235043","352-BY","2018/01/05 18:39:39","新北市中和區景平路103號","121.517086666667","24.9917433333333","6500300","中和區"
"235068","377-QA","2018/01/05 18:39:51","新北市中和區中正路155號","121.499028333333","24.993645","6500300","中和區"
"235061","378-QA","2018/01/05 18:39:56","新北市中和區民享街114巷27號","121.47342","24.9994866666667","6500300","中和區"
"235050","4979-A6","2018/01/05 18:39:50","新北市中和區忠孝街122-2號","121.51214","24.9861333333333","6500300","中和區"
"235069","4980-A6","2018/01/05 18:39:41","新北市中和區連城路87號","121.496931666667","25.0004216666667","6500300","中和區"
"235042","551-UM","2018/01/05 18:39:38","新北市中和區成功路97巷18弄3號","121.526896666667","24.9915633333333","6500300","中和區"
"235070","558-UM","2018/01/05 18:39:43","新北市中和區景新街129號","121.505738333333","24.99726","6500300","中和區"
"235045","565-BX","2018/01/05 18:39:43","新北市中和區南山路236巷11號","121.505726666667","24.9887816666667","6500300","中和區"
"235054","640-BX","2018/01/05 18:39:53","新北市中和區莒光路147號","121.472581666667","25.00123","6500300","中和區"
"235060","647-TV","2018/01/05 18:39:49","新北市中和區中山路二段570號","121.483048333333","25.0051216666667","6500300","中和區"
"235047","732-UM","2018/01/05 18:39:52","新北市中和區興南路一段164號","121.507991666667","24.986615","6500300","中和區"
"235062","800-TS","2018/01/05 18:39:56","新北市中和區景平路703巷9號","121.495931666667","25.0033466666667","6500300","中和區"
"235057","801-TS","2018/01/05 18:39:44","新北市中和區員山路327巷41號","121.479788333333","25.0020116666667","6500300","中和區"
"235041","802-TS","2018/01/05 18:39:53","新北市中和區宜安路152號","121.50935","24.9987566666667","6500300","中和區"
"235052","805-TS","2018/01/05 18:39:58","新北市中和區興南路二段342-10號","121.499771666667","24.9800816666667","6500300","中和區"
"235048","896-TW","2018/01/05 18:39:48","新北市中和區南山路323號","121.505138333333","24.99132","6500300","中和區"
"235053","900-TW","2018/01/05 18:39:55","新北市中和區華安街98-1號","121.468308333333","24.9961466666667","6500300","中和區"
"235051","157-BY","2018/01/05 18:39:36","新北市中和區興南路二段114巷10弄12號","121.503981666667","24.9848633333333","6500300","中和區"
"235037","AAC-213","2018/01/05 18:39:46","新北市中和區景德街95-8號","121.51522","24.9913033333333","6500300","中和區"
"235059","AAC-215","2018/01/05 18:39:57","新北市中和區錦和路356號","121.490471666667","24.99147","6500300","中和區"
"220065","072-UY","2018/01/05 18:39:52","新北市板橋區民族路166號","121.464948333333","25.0085816666667","6500100","板橋區"
"220086","073-UY","2018/01/05 18:39:55","新北市板橋區南雅西路二段192巷1弄1號","121.452015","25.01446","6500100","板橋區"
"220069","AAD-861","2018/01/05 18:39:38","新北市板橋區華東街1-10號","121.448293333333","24.9950416666667","6500100","板橋區"
"226004","205-ST","2018/01/05 18:39:54","新北市平溪區靜安路二段352號","121.737501666667","25.024495","6502400","平溪區"
"228002","663-BX","2018/01/05 18:39:44","新北市貢寮區福隆里東興街6-11號","121.950743333333","25.021085","6502600","貢寮區"
"228001","670-TC","2018/01/05 18:39:46","新北市貢寮區仁理村保健街73號","121.923735","25.0517","6502600","貢寮區"
"228003","828-UM","2018/01/05 18:39:24","新北市貢寮區和美里龍洞街5-2號","121.918731666667","25.1120683333333","6502600","貢寮區"
"224010","AGQ-8101","2018/01/05 18:39:13","新北市瑞芳區烏勢巷108號","121.846176666667","25.1087183333333","6501200","瑞芳區"
"224006","676-BX","2018/01/05 18:39:38","新北市瑞芳區明燈路三段84號","121.805735","25.1082816666667","6501200","瑞芳區"
"224002","639-TC","2018/01/05 18:39:51","新北市瑞芳區靜安路四段42號","121.792823333333","25.1008333333333","6501200","瑞芳區"
"224009","285-BY","2018/01/05 18:39:46","新北市瑞芳區祈堂路137號","121.859055","25.10935","6501200","瑞芳區"
"224008","275-VK","2018/01/05 18:39:51","新北市瑞芳區瑞芳街43號","121.806461666667","25.1094716666667","6501200","瑞芳區"
"224007","272-VK","2018/01/05 18:39:52","新北市瑞芳區大埔路115巷24-1號","121.762923333333","25.10147","6501200","瑞芳區"
"224005","271-BY","2018/01/05 18:39:56","新北市瑞芳區瑞芳街32-10號","121.821818333333","25.1209083333333","6501200","瑞芳區"
"227003","400-TW","2018/01/05 18:39:54","新北市雙溪區魚行里坤溪3-5號","121.875371666667","25.0214466666667","6502500","雙溪區"
"227011","030-BX","2018/01/05 18:39:37","新北市雙溪區牡丹里下坑11號","121.851001666667","25.0561666666667","6502500","雙溪區"
"253005","032-BX","2018/01/05 18:39:54","新北市石門區中山路62號","121.567018333333","25.2906833333333","6502200","石門區"
"253006","741-TV","2018/01/05 18:39:41","新北市石門區崁子腳46號","121.534041666667","25.2885783333333","6502200","石門區"
"222001","KEA-2212","2018/01/05 18:39:41","新北市深坑區北深路一段82號","121.636311666667","25.01074","6501800","深坑區"
"208002","742-BX","2018/01/05 18:39:41","新北市金山區忠孝一路22號","121.638455","25.2195133333333","6502700","金山區"
"208003","665-BX","2018/01/05 18:39:48","新北市金山區中山路395號","121.633316666667","25.2252966666667","6502700","金山區"
"208001","761-BX","2018/01/05 18:39:54","新北市金山區文化三路7號","121.635116666667","25.2249483333333","6502700","金山區"
"251004","009-UM","2018/01/05 18:39:34","新北市淡水區八勢二街51巷2號","121.46081","25.1491933333333","6501000","淡水區"
"251001","011-UM","2018/01/05 18:39:53","新北市淡水區自強路415巷2號","121.465523333333","25.1342016666667","6501000","淡水區"
"251008","181-VK","2018/01/05 18:39:47","新北市淡水區北投子73-1號","121.453411666667","25.1826783333333","6501000","淡水區"
"251010","413-VK","2018/01/05 18:39:40","新北市淡水區沙崙路126號","121.42352","25.1829416666667","6501000","淡水區"
"251012","441-VK","2018/01/05 18:39:40","新北市淡水區北新路180號","121.449048333333","25.1785516666667","6501000","淡水區"
"251006","561-UM","2018/01/05 18:39:42","新北市淡水區崁頂50號","121.441535","25.1964383333333","6501000","淡水區"
"251011","650-BX","2018/01/05 18:39:53","新北市淡水區鄧公路36巷15號","121.455608333333","25.1692216666667","6501000","淡水區"
"251002","672-BX","2018/01/05 18:39:47","新北市淡水區中正東路一段3巷14弄1號","121.450898333333","25.1641766666667","6501000","淡水區"
"251003","673-BX","2018/01/05 18:39:40","新北市淡水區中山北路一段212巷38號","121.446123333333","25.1790183333333","6501000","淡水區"
"207003","550-UM","2018/01/05 18:39:43","新北市萬里區大鵬里頂社2-1號","121.660321666667","25.2071816666667","6502800","萬里區"
"207004","225-TW","2018/01/05 18:39:51","新北市萬里區萬里里獅頭路7號","121.691938333333","25.1783733333333","6502800","萬里區"
"252002","178-VK","2018/01/05 18:39:49","新北市三芝區民生街36號","121.503756666667","25.256195","6502100","三芝區"
"252003","249-BX","2018/01/05 18:39:46","新北市三芝區後厝里土地公坑73號","121.461108333333","25.2477283333333","6502100","三芝區"
"252001","702-TV","2018/01/05 18:39:50","新北市三芝區埔頭里埔頭14號","121.500738333333","25.2538883333333","6502100","三芝區"
"237004","078-UY","2018/01/05 18:39:41","新北市三峽區有木111-1號","121.434888333333","24.8595633333333","6500900","三峽區"
"237007","153-BY","2018/01/05 18:39:46","新北市三峽區中正路二段411號","121.363361666667","24.9069066666667","6500900","三峽區"
"237009","210-TH","2018/01/05 18:39:50","新北市三峽區民權街168號","121.367955","24.9301666666667","6500900","三峽區"
"237013","252-BX","2018/01/05 18:39:51","新北市三峽區光明路69巷25號","121.376748333333","24.9292433333333","6500900","三峽區"
"237012","275-BY","2018/01/05 18:39:43","新北市三峽區三樹路332-1號","121.382011666667","24.9441016666667","6500900","三峽區"
"237008","302-VK","2018/01/05 18:39:49","新北市三峽區白雞33-61號","121.370926666667","24.9131116666667","6500900","三峽區"
"237014","433-BY","2018/01/05 18:39:57","新北市三峽區復興路465-1號","121.361615","24.93864","6500900","三峽區"
"237006","5529-G3","2018/01/05 18:39:51","新北市三峽區溪東路315巷42號","121.41131","24.9311983333333","6500900","三峽區"
"237011","572-TV","2018/01/05 12:49:11","新北市三峽區中山路459巷163-3號","121.348653333333","24.9330233333333","6500900","三峽區"
"237015","649-BX","2018/01/05 18:22:45","新北市三峽區紫微南路33號","121.422048333333","24.915225","6500900","三峽區"
"237010","706-TV","2018/01/05 18:39:46","新北市三峽區復興路269號","121.366493333333","24.9389216666667","6500900","三峽區"
"237005","AKY-6261","2018/01/05 18:39:49","新北市三峽區新興街14號","121.372626666667","24.9356966666667","6500900","三峽區"
"236072","105-UM","2018/01/05 18:39:39","新北市土城區永豐路157巷29弄6-1號","121.468348333333","24.9814733333333","6501300","土城區"
"236043","107-UM","2018/01/05 18:39:49","新北市土城區學成路137巷2號","121.449025","24.9892483333333","6501300","土城區"
"236079","166-UM","2018/01/05 15:47:31","新北市土城區中山路46-1號","121.427018333333","24.965225","6501300","土城區"
"236031","253-BX","2018/01/05 18:39:37","新北市土城區福仁街79號","121.439331666667","24.9740783333333","6501300","土城區"
"236027","269-VK","2018/01/05 18:39:43","新北市土城區金城路一段66號","121.443003333333","24.9713966666667","6501300","土城區"
"236015","270-VK","2018/01/05 18:39:41","新北市土城區青雲路185號","121.459348333333","24.9826133333333","6501300","土城區"
"236039","271-VK","2018/01/05 18:39:49","新北市土城區明德路一段313巷3弄13號","121.46017","24.9765516666667","6501300","土城區"
"236022","401-BY","2018/01/05 18:39:47","新北市土城區延吉街327-1號","121.465473333333","24.9841783333333","6501300","土城區"
"236059","912-UM","2018/01/05 18:39:46","新北市土城區中央路四段56-5號","121.420155","24.960315","6501300","土城區"
"236050","913-UM","2018/01/05 18:39:50","新北市土城區明德路一段53號","121.465248333333","24.984685","6501300","土城區"
"236063","915-UM","2018/01/05 18:39:48","新北市土城區延和路125巷65號","121.469311666667","24.9913716666667","6501300","土城區"
"236055","AAC-216","2018/01/05 18:39:46","新北市土城區中華路一段59號","121.445535","24.9880416666667","6501300","土城區"
"242060","362-BY","2018/01/05 18:39:53","新北市新莊區民安路211號","121.42644","25.0220966666667","6500500","新莊區"
"242009","173-VK","2018/01/05 18:36:41","新北市新莊區三和路18-23號","121.441768333333","25.0389716666667","6500500","新莊區"
"238023","601-UM","2018/01/05 18:39:41","新北市樹林區三福街114號","121.406335","25.0163966666667","6500700","樹林區"
"238019","599-UM","2018/01/05 18:39:43","新北市樹林區中華路190-16號","121.41173","24.980575","6500700","樹林區"
"238018","571-TV","2018/01/05 18:39:54","新北市樹林區樹新路66號","121.429055","24.9971433333333","6500700","樹林區"
"238024","5061-A6","2018/01/05 18:39:40","新北市樹林區太順街79巷17號","121.417111666667","24.9780366666667","6500700","樹林區"
"238025","303-VK","2018/01/05 18:35:22","新北市樹林區大安路576號","121.411841666667","24.9836483333333","6500700","樹林區"
"238017","283-BY","2018/01/05 18:39:49","新北市樹林區光興街50號","121.40982","25.002695","6500700","樹林區"
"238014","282-BY","2018/01/05 18:39:39","新北市樹林區大安路111巷25號","121.423175","24.99762","6500700","樹林區"
"238020","268-VK","2018/01/05 18:39:40","新北市樹林區三龍街10號","121.409585","25.0182883333333","6500700","樹林區"
"238026","172-UY","2018/01/05 18:39:56","新北市樹林區信和街138號","121.386886666667","24.97438","6500700","樹林區"
"238016","169-UY","2018/01/05 18:39:40","新北市樹林區文化街23號","121.41922","24.9876616666667","6500700","樹林區"
"239007","AAC-297","2018/01/05 18:39:53","新北市鶯歌區中正一路建德巷28號","121.364608333333","24.9577483333333","6500800","鶯歌區"
"239006","891-R6","2018/01/05 18:39:50","新北市鶯歌區鶯桃路242巷11號","121.33649","24.9600516666667","6500800","鶯歌區"
"239008","527-UM","2018/01/05 18:39:45","新北市鶯歌區國際一路179號","121.336226666667","24.9764933333333","6500800","鶯歌區"
"239005","526-UM","2018/01/05 18:39:43","新北市鶯歌區鳳吉一街116號","121.327645","24.9746933333333","6500800","鶯歌區"
"239001","417-VK","2018/01/05 18:39:57","新北市鶯歌區中正二路187-2號","121.340303333333","24.9472066666667","6500800","鶯歌區"
"239003","360-BY","2018/01/05 18:39:46","新北市鶯歌區永和街249號","121.336978333333","24.9721833333333","6500800","鶯歌區"
"239002","359-BY","2018/01/05 18:39:43","新北市鶯歌區中山路290號","121.343901666667","24.95701","6500800","鶯歌區"
"239004","193-VK","2018/01/05 18:39:40","新北市鶯歌區中正三路247巷50弄1號","121.333226666667","24.93742","6500800","鶯歌區"
"221008","489-VK","2018/01/05 18:39:38","新北市汐止區康寧街901號","121.65143","25.075055","6501100","汐止區"
"221036","130-UY","2018/01/05 18:39:48","新北市汐止區南昌街27號","121.663193333333","25.06921","6501100","汐止區"
"221010","269-BY","2018/01/05 18:39:53","新北市汐止區汐萬路二段62巷1號","121.649361666667","25.08225","6501100","汐止區"
"221012","276-VK","2018/01/05 13:31:07","新北市汐止區汐萬路一段256巷3號","121.653383333333","25.0746516666667","6501100","汐止區"
"221012","278-VK","2018/01/05 18:39:58","新北市汐止區長江街47號","121.655918333333","25.0713433333333","6501100","汐止區"
"221023","279-VK","2018/01/05 18:39:52","新北市汐止區民族二街84巷2弄1號","121.633301666667","25.0700616666667","6501100","汐止區"
"221032","280-BY","2018/01/05 18:39:45","新北市汐止區福山街58巷20號","121.618173333333","25.0459116666667","6501100","汐止區"
"221027","281-BY","2018/01/05 18:39:45","新北市汐止區汐萬路一段144號","121.653146666667","25.071135","6501100","汐止區"
"221029","298-VK","2018/01/05 18:39:50","新北市汐止區樟樹一路131號","121.64219","25.0650183333333","6501100","汐止區"
"221021","299-VK","2018/01/05 18:39:47","新北市汐止區新興路46號","121.657123333333","25.0631516666667","6501100","汐止區"
"221031","353-TW","2018/01/05 18:39:40","新北市汐止區中興路102號","121.633966666667","25.0629816666667","6501100","汐止區"
"221015","567-BX","2018/01/05 18:39:46","新北市汐止區鄉長路二段4號","121.66882","25.0807033333333","6501100","汐止區"
"221035","622-UM","2018/01/05 18:39:57","新北市汐止區大同路二段49號","121.648351666667","25.062875","6501100","汐止區"
"221025","623-UM","2018/01/05 18:39:44","新北市汐止區福安街20巷22號","121.66193","25.0645466666667","6501100","汐止區"
"221038","646-BX","2018/01/05 18:39:41","新北市汐止區汐萬路一段256巷3號","121.6533","25.0747066666667","6501100","汐止區"
"221033","647-BX","2018/01/05 18:39:53","新北市汐止區南勢街1巷1號","121.627056666667","25.0374583333333","6501100","汐止區"
"221002","707-TV","2018/01/05 18:39:40","新北市汐止區中興路20號","121.636978333333","25.0595983333333","6501100","汐止區"
"221018","753-BX","2018/01/05 18:39:55","新北市汐止區茄興街7號","121.673436666667","25.0674716666667","6501100","汐止區"
"220079","145-BY","2018/01/05 18:39:39","新北市板橋區大觀路一段31號","121.449775","25.0084233333333","6500100","板橋區"
"220082","610-BX","2018/01/05 18:39:40","新北市板橋區華東街1-8號","121.447825","24.9947716666667","6500100","板橋區"
"220072","277-BY","2018/01/05 18:39:50","新北市板橋區大觀路三段59巷17弄6-1號","121.435658333333","24.9955366666667","6500100","板橋區"
"220094","285-UM","2018/01/05 18:39:36","新北市板橋區民生路二段161巷3號","121.470163333333","25.019775","6500100","板橋區"
"220053","285-VK","2018/01/05 18:39:42","新北市板橋區民生路二段161巷1號","121.470165","25.0199","6500100","板橋區"
"220083","286-VK","2018/01/05 18:39:48","新北市板橋區大觀路二段153巷46弄1號","121.448515","24.99867","6500100","板橋區"
"220061","293-UM","2018/01/05 18:39:46","新北市板橋區民生路二段161巷9號","121.470205","25.0195483333333","6500100","板橋區"
"220084","296-UM","2018/01/05 18:39:47","新北市板橋區大觀路二段266號","121.448658333333","24.9970516666667","6500100","板橋區"
"220075","297-UM","2018/01/05 18:39:52","新北市板橋區南雅南路二段120-16號","121.451926666667","24.9990433333333","6500100","板橋區"
"220062","305-R5","2018/01/05 18:39:53","新北市板橋區民生路二段120號","121.47033","25.01974","6500100","板橋區"
"220098","317-R6","2018/01/05 18:39:39","新北市板橋區民生路二段161巷5號","121.470105","25.0196466666667","6500100","板橋區"
"220080","461-BY","2018/01/05 14:30:22","新北市板橋區華東街1-8號","121.44802","24.994815","6500100","板橋區"
"220064","486-VK","2018/01/05 18:39:42","新北市板橋區民生路二段36-1號","121.472051666667","25.0167816666667","6500100","板橋區"
"220035","560-BX","2018/01/05 18:39:58","新北市板橋區南雅西路二段145巷10號","121.451588333333","25.012045","6500100","板橋區"
"220071","568-UM","2018/01/05 18:39:46","新北市板橋區華東街1-10號","121.448596666667","24.99484","6500100","板橋區"
"220056","630-UY","2018/01/05 18:39:55","新北市板橋區四川路二段橋頭6號","121.448353333333","24.9940683333333","6500100","板橋區"
"220057","686-BX","2018/01/05 18:39:52","新北市板橋區華東街1-9號","121.44822","24.9949166666667","6500100","板橋區"
"220077","687-BX","2018/01/05 18:39:51","新北市板橋區大觀路二段419號","121.441015","24.9957183333333","6500100","板橋區"
"220054","741-BX","2018/01/05 18:39:52","新北市板橋區華東街1-9號","121.44815","24.9948883333333","6500100","板橋區"
"220055","827-TW","2018/01/05 18:39:51","新北市板橋區華東街1-9號","121.448198333333","24.9949233333333","6500100","板橋區"
"220067","829-TW","2018/01/05 18:39:46","新北市板橋區民生路二段120號","121.470376666667","25.0195066666667","6500100","板橋區"
"220074","895-R6","2018/01/05 18:39:57","新北市板橋區四川路二段130巷27號","121.449263333333","24.9943033333333","6500100","板橋區"
"220073","985-R7","2018/01/05 18:39:54","新北市板橋區南雅南路二段122-23號","121.452308333333","24.9974316666667","6500100","板橋區"
"220097","AAC-210","2018/01/05 18:39:42","新北市板橋區民生路二段161巷9號","121.470291666667","25.019575","6500100","板橋區"
