"lineid","car","time","location","longitude","latitude","cityid","cityname"
"234046","148-BY","2018/01/05 18:59:56","新北市永和區永元路52巷50號","121.524428333333","25.000785","6500400","永和區"
"234013","149-BY","2018/01/05 18:59:44","新北市永和區中山路一段62號","121.512823333333","25.0106383333333","6500400","永和區"
"234007","207-UY","2018/01/05 18:59:41","新北市永和區中山路一段51號","121.512898333333","25.010525","6500400","永和區"
"234081","298-R6","2018/01/05 18:59:39","新北市永和區永亨路59號","121.52095","25.00621","6500400","永和區"
"234038","336-UY","2018/01/05 18:59:43","新北市永和區成功路二段207號","121.526566666667","24.9959616666667","6500400","永和區"
"234064","337-UY","2018/01/05 18:59:39","新北市永和區秀朗路一段156號","121.518326666667","25.003405","6500400","永和區"
"234086","338-UY","2018/01/05 18:59:40","新北市永和區永寧街121號","121.51802","25.0056783333333","6500400","永和區"
"234054","553-UM","2018/01/05 18:59:41","新北市永和區竹林路64號","121.51835","25.013445","6500400","永和區"
"234017","745-BX","2018/01/05 18:59:45","新北市永和區永和路二段297號","121.51607","25.01603","6500400","永和區"
"234030","746-BX","2018/01/05 18:59:47","新北市永和區厚德街5號","121.52566","24.99799","6500400","永和區"
"234061","AAD-866","2018/01/05 18:59:38","新北市永和區福和路309巷1號","121.516398333333","25.0070883333333","6500400","永和區"
"234070","847-RS","2018/01/05 18:59:44","新北市永和區竹林路124巷32號","121.518063333333","25.01154","6500400","永和區"
"234042","862-TW","2018/01/05 18:59:48","新北市永和區永貞路267號","121.511845","25.0048016666667","6500400","永和區"
"234050","863-TW","2018/01/05 18:59:54","新北市永和區文化路194號","121.510781666667","25.0162216666667","6500400","永和區"
"234026","9371-KE","2018/01/05 18:59:38","新北市永和區安樂路451號","121.514325","25.0049266666667","6500400","永和區"
"234011","9373-KE","2018/01/05 18:59:52","新北市永和區仁愛路109巷9號","121.512351666667","25.0128033333333","6500400","永和區"
"249005","172-UM","2018/01/05 18:59:40","新北市八里區長道坑2號","121.393653333333","25.12464","6502300","八里區"
"249001","173-UM","2018/01/05 18:59:47","新北市八里區龍米路二段228-1號","121.432715","25.15845","6502300","八里區"
"248016","026-BX","2018/01/05 18:59:44","新北市五股區成泰路三段543巷18號","121.450898333333","25.1023316666667","6501500","五股區"
"248006","077-UY","2018/01/05 18:59:57","新北市五股區中興路一段50號","121.468086666667","25.0726366666667","6501500","五股區"
"248008","095-VK","2018/01/05 18:59:40","新北市五股區中興路一段118巷6弄4號","121.466335","25.0742833333333","6501500","五股區"
"248018","225-UY","2018/01/05 18:59:49","新北市五股區民義路一段287巷3號","121.42524","25.0921866666667","6501500","五股區"
"248012","247-BX","2018/01/05 18:59:55","新北市五股區工商路38號","121.439375","25.0837483333333","6501500","五股區"
"248004","677-BX","2018/01/05 18:59:52","新北市五股區民義路一段240號","121.427028333333","25.091565","6501500","五股區"
"248002","678-BX","2018/01/05 18:59:47","新北市五股區凌雲路一段111號","121.450033333333","25.1017583333333","6501500","五股區"
"248010","682-TV","2018/01/05 18:59:49","新北市五股區水碓七路1號","121.42808","25.0713483333333","6501500","五股區"
"234023","9380-KE","2018/01/05 18:59:56","新北市永和區竹林路91巷70號","121.521951666667","25.01372","6500400","永和區"
"234077","969-R7","2018/01/05 18:59:52","新北市永和區智光街32巷1號","121.517778333333","24.998795","6500400","永和區"
"234074","AAC-211","2018/01/05 18:59:59","新北市永和區豫溪街217巷27號","121.524241666667","25.01014","6500400","永和區"
"234067","AAC-212","2018/01/05 18:59:45","新北市永和區永和路一段1號","121.512928333333","25.0051983333333","6500400","永和區"
"234003","AAC-295","2018/01/05 18:59:57","新北市永和區保福路一段68-1號","121.512635","25.0099566666667","6500400","永和區"
"232011","375-UM","2018/01/05 18:59:54","新北市坪林區水聳淒坑19-1號","121.712586666667","24.9348183333333","6502000","坪林區"
"244013","069-UM","2018/01/05 18:59:51","新北市林口區麗園一街6巷4-2號","121.375528333333","25.0699216666667","6501700","林口區"
"244004","248-BX","2018/01/05 15:23:38","新北市林口區粉寮路二段128號","121.404285","25.090495","6501700","林口區"
"244019","403-UM","2018/01/05 18:59:44","新北市林口區麗園二街47巷27號","121.381685","25.0697883333333","6501700","林口區"
"244025","742-UY","2018/01/05 18:59:44","新北市林口區文化北路一段542巷55弄1號","121.369198333333","25.0784783333333","6501700","林口區"
"244023","483-VK","2018/01/05 18:59:47","新北市林口區文林六街13巷22號","121.37021","25.0808233333333","6501700","林口區"
"244017","485-VK","2018/01/05 18:59:50","新北市林口區公園路90號","121.369501666667","25.070515","6501700","林口區"
"244011","656-BX","2018/01/05 18:59:50","新北市林口區中正路315號","121.388746666667","25.07772","6501700","林口區"
"244009","837-TS","2018/01/05 18:59:40","新北市林口區竹林路462號","121.38776","25.0847983333333","6501700","林口區"
"243012","AAD-798","2018/01/05 18:59:46","新北市泰山區仁德路114號","121.43279","25.05702","6501600","泰山區"
"243011","297-R6","2018/01/05 18:59:43","新北市泰山區明志路二段257號","121.427088333333","25.0477383333333","6501600","泰山區"
"243015","380-SR","2018/01/05 18:59:43","新北市泰山區明志路一段226號","121.432566666667","25.06133","6501600","泰山區"
"243014","421-VK","2018/01/05 18:59:47","新北市泰山區黎明路23號","121.420903333333","25.0626233333333","6501600","泰山區"
"243010","KEA-2215","2018/01/05 18:59:53","新北市泰山區辭修路24號","121.429053333333","25.0582083333333","6501600","泰山區"
"243009","KEA-2216","2018/01/05 18:59:36","新北市泰山區泰林路二段236號","121.43234","25.0620883333333","6501600","泰山區"
"243013","646-TV","2018/01/05 18:59:50","新北市泰山區明志路三段351巷10號","121.422443333333","25.034945","6501600","泰山區"
"243016","680-BX","2018/01/05 18:59:50","新北市泰山區明志路二段137號","121.427643333333","25.0507266666667","6501600","泰山區"
"222003","436-BY","2018/01/05 18:59:57","新北市深坑區深南路51-1號","121.62146","25.0101833333333","6501800","深坑區"
"222002","659-BX","2018/01/05 18:59:47","新北市深坑區烏月路38號","121.63196","25.0055866666667","6501800","深坑區"
"231041","001-UM","2018/01/05 18:59:50","新北市新店區環河路76號","121.537008333333","24.96322","6500600","新店區"
"231066","0293-UT","2018/01/05 18:59:50","新北市新店區安祥路98-3號","121.488901666667","24.9597833333333","6500600","新店區"
"231059","046-UY","2018/01/05 18:59:38","新北市新店區安康路一段266巷4號","121.519791666667","24.9640333333333","6500600","新店區"
"231061","047-UY","2018/01/05 18:59:37","新北市新店區安康路二段1-5號","121.517263333333","24.963785","6500600","新店區"
"231060","106-UY","2018/01/05 18:59:44","新北市新店區車子路10-4號","121.50488","24.9545566666667","6500600","新店區"
"231051","107-UY","2018/01/05 18:59:42","新北市新店區百忍街8號","121.535041666667","24.9755683333333","6500600","新店區"
"231048","108-UY","2018/01/05 18:59:43","新北市新店區德正街27巷29弄36號","121.545775","24.9725316666667","6500600","新店區"
"231053","187-VK","2018/01/05 18:59:54","新北市新店區屈尺路2號","121.549396666667","24.922765","6500600","新店區"
"231050","KEA-2219","2018/01/05 18:59:49","新北市新店區新烏路一段11巷13號","121.54763","24.9509916666667","6500600","新店區"
"231046","278-BY","2018/01/05 18:59:55","新北市新店區直潭六街20號","121.534328333333","24.94096","6500600","新店區"
"231054","AAD-862","2018/01/05 18:59:44","新北市新店區新店路13號","121.54027","24.952875","6500600","新店區"
"231058","3712-VJ","2018/01/05 18:59:51","新北市新店區中興路一段121號","121.541653333333","24.9630183333333","6500600","新店區"
"231056","3713-VJ","2018/01/05 18:59:48","新北市新店區大同街8巷27號","121.538878333333","24.9810033333333","6500600","新店區"
"231055","4716-K9","2018/01/05 18:59:53","新北市新店區北新路一段271巷32號","121.540085","24.9672333333333","6500600","新店區"
"231067","4772-VM","2018/01/05 18:59:47","新北市新店區安康路一段247巷31號","121.524816666667","24.9619166666667","6500600","新店區"
"231065","512-UM","2018/01/05 18:59:40","新北市新店區安祥路147巷86號","121.47554","24.95535","6500600","新店區"
"231064","515-UM","2018/01/05 18:59:56","新北市新店區安忠路13號","121.514708333333","24.962545","6500600","新店區"
"231045","617-UM","2018/01/05 18:59:43","新北市新店區北新路一段2-19號","121.538663333333","24.96006","6500600","新店區"
"231040","619-UM","2018/01/05 18:59:41","新北市新店區中正路373號","121.534808333333","24.97673","6500600","新店區"
"231042","641-BX","2018/01/05 18:59:46","新北市新店區中興路一段266-1號","121.544908333333","24.967385","6500600","新店區"
"231063","645-TV","2018/01/05 18:59:45","新北市新店區車子路110號","121.505211666667","24.9520833333333","6500600","新店區"
"231049","719-UM","2018/01/05 18:59:43","新北市新店區中正路454-5號","121.534496666667","24.9792033333333","6500600","新店區"
"231062","720-UM","2018/01/05 18:59:38","新北市新店區吉安街41號","121.515358333333","24.96603","6500600","新店區"
"231044","897-TW","2018/01/05 18:59:59","新北市新店區寶中路72號","121.548045","24.9806316666667","6500600","新店區"
"231043","899-TW","2018/01/05 18:59:45","新北市新店區北新路二段1號","121.542671666667","24.9712516666667","6500600","新店區"
"241035","462-BY","2018/01/05 18:59:52","新北市三重區重新路四段121號","121.484506666667","25.0520416666667","6500200","三重區"
"241029","942-UM","2018/01/05 18:59:40","新北市三重區重安街18號","121.490353333333","25.0580883333333","6500200","三重區"
"235066","003-UY","2018/01/05 18:59:47","新北市中和區中山路二段131巷5弄6號","121.50299","25.0029066666667","6500300","中和區"
"235064","005-UY","2018/01/05 18:59:36","新北市中和區景平路511號","121.49927","24.9986833333333","6500300","中和區"
"235063","006-UY","2018/01/05 18:59:39","新北市中和區連城路319巷12號","121.489198333333","24.9950916666667","6500300","中和區"
"235046","031-BX","2018/01/05 18:59:42","新北市中和區興南路二段11號","121.508203333333","24.9862033333333","6500300","中和區"
"235056","096-UM","2018/01/05 18:59:38","新北市中和區員山路466巷17弄10號","121.480531666667","25.0072833333333","6500300","中和區"
"235039","097-UM","2018/01/05 18:59:54","新北市中和區宜安路39號","121.512115","24.996495","6500300","中和區"
"235065","098-UM","2018/01/05 18:59:43","新北市中和區勝利路35巷3弄13-1號","121.499586666667","25.007235","6500300","中和區"
"235040","150-BY","2018/01/05 18:59:39","新北市中和區宜安路28號","121.5129","24.9959483333333","6500300","中和區"
"235058","151-BY","2018/01/05 18:59:48","新北市中和區連城路518巷1號","121.476691666667","24.9917666666667","6500300","中和區"
"235055","183-VK","2018/01/05 18:59:55","新北市中和區民德路23號","121.468828333333","25.0026833333333","6500300","中和區"
"235038","185-VK","2018/01/05 18:59:40","新北市中和區立人街24-5號","121.518838333333","24.9941333333333","6500300","中和區"
"235049","186-VK","2018/01/05 18:59:36","新北市中和區景安路177巷25號","121.506558333333","24.994465","6500300","中和區"
"235067","255-BX","2018/01/05 18:59:40","新北市中和區中正路839巷9號","121.48427","25.0022666666667","6500300","中和區"
"235044","293-VK","2018/01/05 18:59:48","新北市中和區中興街161巷2弄2號","121.500185","24.9908683333333","6500300","中和區"
"235072","301-VK","2018/01/05 18:59:43","新北市中和區中山路二段65號","121.504163333333","25.0046633333333","6500300","中和區"
"235043","352-BY","2018/01/05 18:59:39","新北市中和區成功路70號","121.526031666667","24.9919766666667","6500300","中和區"
"235068","377-QA","2018/01/05 18:59:51","新北市中和區圓通路265巷16號","121.49585","24.99273","6500300","中和區"
"235061","378-QA","2018/01/05 18:59:56","新北市中和區民享街40-2號","121.47399","25.0028233333333","6500300","中和區"
"235050","4979-A6","2018/01/05 18:59:36","新北市中和區華新街50巷8號","121.507668333333","24.983945","6500300","中和區"
"235069","4980-A6","2018/01/05 18:59:51","新北市中和區圓通路109巷5號","121.50008","24.99636","6500300","中和區"
"235042","551-UM","2018/01/05 18:59:58","新北市中和區秀朗路三段50巷7-1號","121.525738333333","24.9954183333333","6500300","中和區"
"235070","558-UM","2018/01/05 18:59:47","新北市中和區安和路213號","121.506003333333","24.9989966666667","6500300","中和區"
"235045","565-BX","2018/01/05 18:59:43","新北市中和區景新街467巷4號","121.513636666667","24.9881383333333","6500300","中和區"
"235054","640-BX","2018/01/05 18:59:53","新北市中和區民享街29巷1-1號","121.474041666667","25.0045066666667","6500300","中和區"
"235060","647-TV","2018/01/05 18:59:49","新北市中和區民治街5巷2號","121.475038333333","25.00496","6500300","中和區"
"235047","732-UM","2018/01/05 18:59:52","新北市中和區興南路二段107號","121.505743333333","24.98446","6500300","中和區"
"235062","800-TS","2018/01/05 18:59:45","新北市中和區中山路二段389號","121.486796666667","25.0048266666667","6500300","中和區"
"235057","801-TS","2018/01/05 18:59:44","新北市中和區民利街40巷1弄11號","121.479001666667","24.9988366666667","6500300","中和區"
"235041","802-TS","2018/01/05 18:59:53","新北市中和區宜安路127號","121.509788333333","24.998155","6500300","中和區"
"235052","805-TS","2018/01/05 18:59:38","新北市中和區興南路二段261巷1號","121.502676666667","24.981405","6500300","中和區"
"235048","896-TW","2018/01/05 18:59:48","新北市中和區華新街109巷15號","121.508788333333","24.9811766666667","6500300","中和區"
"235053","900-TW","2018/01/05 18:59:55","新北市板橋區和平路190巷30號","121.465061666667","24.994445","6500300","中和區"
"235051","157-BY","2018/01/05 18:59:56","新北市中和區忠孝街37巷4號","121.511311666667","24.98357","6500300","中和區"
"235037","AAC-213","2018/01/05 18:59:46","新北市中和區自立路17號","121.522253333333","24.9960083333333","6500300","中和區"
"235059","AAC-215","2018/01/05 18:59:57","新北市中和區圓通路369巷14弄8號","121.490425","24.9878316666667","6500300","中和區"
"220065","072-UY","2018/01/05 18:59:52","新北市板橋區漢生東路342號","121.471825","25.00748","6500100","板橋區"
"220086","073-UY","2018/01/05 18:59:55","新北市板橋區民權路328-4號","121.45672","25.0165","6500100","板橋區"
"220106","075-UY","2018/01/05 18:59:37","新北市板橋區文化路二段124巷28-2號","121.471236666667","25.02574","6500100","板橋區"
"220069","AAD-861","2018/01/05 18:59:38","新北市板橋區華興街87號","121.456701666667","25.0051783333333","6500100","板橋區"
"220096","120-SR","2018/01/05 18:59:53","新北市板橋區莒光路103號","121.472655","25.024145","6500100","板橋區"
"226004","205-ST","2018/01/05 18:59:54","新北市平溪區靜安路二段458號","121.740558333333","25.0248683333333","6502400","平溪區"
"228002","663-BX","2018/01/05 18:59:44","新北市貢寮區福隆里東興街106巷25弄1號","121.946421666667","25.0183116666667","6502600","貢寮區"
"228001","670-TC","2018/01/05 18:59:46","新北市貢寮區仁理村研海街12-1號","121.923803333333","25.0516983333333","6502600","貢寮區"
"228003","828-UM","2018/01/05 18:59:04","新北市貢寮區和美里龍洞街24-1號","121.919466666667","25.1085183333333","6502600","貢寮區"
"224010","AGQ-8101","2018/01/05 18:59:53","新北市瑞芳區基山街27號","121.84542","25.109305","6501200","瑞芳區"
"224006","676-BX","2018/01/05 18:59:42","新北市瑞芳區民族街31號","121.806828333333","25.10692","6501200","瑞芳區"
"224009","285-BY","2018/01/05 18:59:46","新北市瑞芳區洞頂路101號","121.862091666667","25.118195","6501200","瑞芳區"
"224008","275-VK","2018/01/05 18:59:51","新北市瑞芳區逢甲路274號","121.804765","25.110895","6501200","瑞芳區"
"224007","272-VK","2018/01/05 18:59:57","新北市瑞芳區中央路48巷5號","121.76169","25.1029033333333","6501200","瑞芳區"
"224005","271-BY","2018/01/05 18:59:16","新北市瑞芳區瑞濱路185號","121.816425","25.113615","6501200","瑞芳區"
"227003","400-TW","2018/01/05 18:59:54","新北市雙溪區平林里康福家園10號","121.858791666667","25.0373166666667","6502500","雙溪區"
"227011","030-BX","2018/01/05 18:59:37","新北市雙溪區牡丹里中正路58巷23號","121.866413333333","25.04154","6502500","雙溪區"
"253005","032-BX","2018/01/05 18:59:51","新北市石門區尖子鹿76號","121.57169","25.2968283333333","6502200","石門區"
"253006","741-TV","2018/01/05 18:59:42","新北市石門區八甲11-3號","121.52219","25.281055","6502200","石門區"
"222001","KEA-2212","2018/01/05 18:59:41","新北市深坑區北深路一段300號","121.624325","25.0057666666667","6501800","深坑區"
"208002","742-BX","2018/01/05 18:59:55","新北市金山區仁愛路67巷2號","121.634648333333","25.2209316666667","6502700","金山區"
"208003","665-BX","2018/01/05 18:59:48","新北市金山區中正路53號","121.63461","25.2219933333333","6502700","金山區"
"208001","761-BX","2018/01/05 18:59:54","新北市金山區中山路69號","121.640905","25.218095","6502700","金山區"
"251001","011-UM","2018/01/05 18:59:53","新北市淡水區自強路56-1號","121.463311666667","25.1275283333333","6501000","淡水區"
"251010","413-VK","2018/01/05 18:59:40","新北市淡水區淡海路69巷8弄6號","121.4227","25.18156","6501000","淡水區"
"251006","561-UM","2018/01/05 18:59:42","新北市淡水區下圭柔山91-4號","121.4289","25.2080266666667","6501000","淡水區"
"251009","575-R6","2018/01/05 18:59:50","新北市淡水區重建街44號","121.440001666667","25.1714033333333","6501000","淡水區"
"251007","577-R6","2018/01/05 18:59:45","新北市淡水區民生路113巷1弄43號","121.462838333333","25.13863","6501000","淡水區"
"251011","650-BX","2018/01/05 18:59:37","新北市淡水區中正東路二段153號","121.459615","25.1465883333333","6501000","淡水區"
"251002","672-BX","2018/01/05 18:59:47","新北市淡水區學府路1號","121.447401666667","25.1678616666667","6501000","淡水區"
"251003","673-BX","2018/01/05 18:59:40","新北市淡水區中山北路一段149巷24號","121.44294","25.1780266666667","6501000","淡水區"
"207003","550-UM","2018/01/05 18:59:43","新北市萬里區大鵬里頂社8號","121.656333333333","25.2096083333333","6502800","萬里區"
"207004","225-TW","2018/01/05 18:59:51","新北市萬里區萬里里獅頭路23號","121.693248333333","25.1782883333333","6502800","萬里區"
"252002","178-VK","2018/01/05 18:59:49","新北市三芝區中正路一段78號","121.50403","25.257385","6502100","三芝區"
"252003","249-BX","2018/01/05 18:59:46","新北市三芝區後厝里北勢子42-6號","121.472375","25.25273","6502100","三芝區"
"252001","702-TV","2018/01/05 18:59:50","新北市三芝區中興街二段260號","121.501766666667","25.2530383333333","6502100","三芝區"
"237004","078-UY","2018/01/05 18:59:41","新北市三峽區有木206號","121.439095","24.8514616666667","6500900","三峽區"
"237007","153-BY","2018/01/05 18:59:46","新北市三峽區中正路二段42巷84號","121.364348333333","24.920525","6500900","三峽區"
"237013","252-BX","2018/01/05 18:59:51","新北市三峽區光明路69巷25號","121.376676666667","24.9292216666667","6500900","三峽區"
"237012","275-BY","2018/01/05 18:59:43","新北市三峽區三樹路222巷69號","121.384151666667","24.9423733333333","6500900","三峽區"
"237008","302-VK","2018/01/05 18:59:49","新北市三峽區大同路104號","121.374475","24.9269633333333","6500900","三峽區"
"237014","433-BY","2018/01/05 18:59:57","新北市三峽區隆恩街551號","121.35743","24.9399433333333","6500900","三峽區"
"237006","5529-G3","2018/01/05 18:59:51","新北市三峽區溪東路233巷18弄27號","121.408413333333","24.9337816666667","6500900","三峽區"
"237011","572-TV","2018/01/05 12:49:11","新北市三峽區中山路459巷163-3號","121.348653333333","24.9330233333333","6500900","三峽區"
"237015","649-BX","2018/01/05 18:22:45","新北市三峽區紫微南路33號","121.422048333333","24.915225","6500900","三峽區"
"237010","706-TV","2018/01/05 18:59:55","新北市三峽區復興路36-8號","121.373895","24.936765","6500900","三峽區"
"237005","AKY-6261","2018/01/05 18:59:48","新北市三峽區中山路459巷163-3號","121.348625","24.9329233333333","6500900","三峽區"
"236072","105-UM","2018/01/05 18:59:39","新北市土城區金城路二段205-2號","121.454196666667","24.98148","6501300","土城區"
"236043","107-UM","2018/01/05 18:59:55","新北市土城區學府路一段264號","121.451211666667","24.9842533333333","6501300","土城區"
"236079","166-UM","2018/01/05 15:47:31","新北市土城區中山路46-1號","121.427018333333","24.965225","6501300","土城區"
"236031","253-BX","2018/01/05 18:59:44","新北市土城區慶利街15號","121.439318333333","24.9737833333333","6501300","土城區"
"236027","269-VK","2018/01/05 18:59:43","新北市土城區中正路56巷11號","121.444081666667","24.9748516666667","6501300","土城區"
"236015","270-VK","2018/01/05 18:59:41","新北市土城區立德路107號","121.463875","24.98779","6501300","土城區"
"236039","271-VK","2018/01/05 18:59:49","新北市土城區青仁路47號","121.461358333333","24.9793733333333","6501300","土城區"
"236022","401-BY","2018/01/05 18:59:47","新北市土城區延吉街168巷3號","121.468245","24.98558","6501300","土城區"
"236059","912-UM","2018/01/05 18:59:46","新北市土城區金城路一段118號","121.445831666667","24.974505","6501300","土城區"
"236050","913-UM","2018/01/05 18:59:45","新北市土城區明德路一段288-1號","121.45693","24.9776033333333","6501300","土城區"
"236063","915-UM","2018/01/05 18:59:49","新北市土城區延和路43號","121.466128333333","24.9893616666667","6501300","土城區"
"236055","AAC-216","2018/01/05 18:59:46","新北市土城區學成路179號","121.447931666667","24.9885566666667","6501300","土城區"
"242009","173-VK","2018/01/05 18:36:41","新北市新莊區三和路18-23號","121.441768333333","25.0389716666667","6500500","新莊區"
"238023","601-UM","2018/01/05 18:59:41","新北市樹林區工興街35巷1號","121.40125","25.013175","6500700","樹林區"
"238019","599-UM","2018/01/05 18:59:43","新北市樹林區東華街33號","121.415006666667","24.981785","6500700","樹林區"
"238018","571-TV","2018/01/05 18:59:54","新北市樹林區中華路120號","121.417761666667","24.9807483333333","6500700","樹林區"
"238021","KEA-2217","2018/01/05 18:59:44","新北市樹林區西圳街二段100號","121.384376666667","24.9578233333333","6500700","樹林區"
"238022","KEA-2213","2018/01/05 18:59:52","新北市樹林區東興街43號","121.410668333333","24.9776883333333","6500700","樹林區"
"238025","303-VK","2018/01/05 18:59:52","新北市樹林區民和街83巷22號","121.379566666667","24.972485","6500700","樹林區"
"238017","283-BY","2018/01/05 18:59:49","新北市樹林區光興街83-3號","121.40988","25.0026683333333","6500700","樹林區"
"238014","282-BY","2018/01/05 18:59:46","新北市樹林區千歲街73號","121.42739","24.9990183333333","6500700","樹林區"
"238020","268-VK","2018/01/05 18:59:40","新北市樹林區俊英街125號","121.424376666667","25.011045","6500700","樹林區"
"238026","172-UY","2018/01/05 18:59:35","新北市樹林區佳園路一段41巷14號","121.393746666667","24.9710083333333","6500700","樹林區"
"238016","169-UY","2018/01/05 18:59:40","新北市樹林區文化街28號","121.419305","24.9876816666667","6500700","樹林區"
"239007","AAC-297","2018/01/05 18:59:53","新北市鶯歌區中山路138巷36號","121.351225","24.9594116666667","6500800","鶯歌區"
"239006","891-R6","2018/01/05 18:59:50","新北市鶯歌區建國路512巷27號","121.339793333333","24.9511566666667","6500800","鶯歌區"
"239008","527-UM","2018/01/05 18:59:26","新北市鶯歌區國際二路18巷43號","121.338278333333","24.9759","6500800","鶯歌區"
"239005","526-UM","2018/01/05 18:59:43","新北市鶯歌區中湖街118號","121.348991666667","24.972945","6500800","鶯歌區"
"239001","417-VK","2018/01/05 18:59:52","新北市鶯歌區永安街40號","121.337846666667","24.9561533333333","6500800","鶯歌區"
"239003","360-BY","2018/01/05 18:59:46","新北市鶯歌區鶯桃路419號","121.332711666667","24.9648","6500800","鶯歌區"
"239002","359-BY","2018/01/05 18:59:43","新北市鶯歌區中正一路307號","121.356658333333","24.9570333333333","6500800","鶯歌區"
"239004","193-VK","2018/01/05 18:59:40","新北市鶯歌區二甲路79號","121.332328333333","24.932535","6500800","鶯歌區"
"221008","489-VK","2018/01/05 18:59:58","新北市汐止區康寧街753巷2弄8號","121.639315","25.073905","6501100","汐止區"
"221036","130-UY","2018/01/05 18:59:48","新北市汐止區忠孝東路276號","121.663611666667","25.0681416666667","6501100","汐止區"
"221010","269-BY","2018/01/05 18:59:53","新北市汐止區康寧街901號","121.65136","25.075145","6501100","汐止區"
"221012","276-VK","2018/01/05 13:31:07","新北市汐止區汐萬路一段256巷3號","121.653383333333","25.0746516666667","6501100","汐止區"
"221012","278-VK","2018/01/05 18:59:58","新北市汐止區康寧街901號","121.650798333333","25.075285","6501100","汐止區"
"221023","279-VK","2018/01/05 18:59:52","新北市汐止區康寧街901號","121.651015","25.0752","6501100","汐止區"
"221032","280-BY","2018/01/05 18:59:45","新北市汐止區橫科路407巷30弄28號","121.627263333333","25.0482483333333","6501100","汐止區"
"221027","281-BY","2018/01/05 18:59:44","新北市汐止區康寧街901號","121.651451666667","25.0750033333333","6501100","汐止區"
"221029","298-VK","2018/01/05 18:59:50","新北市汐止區樟樹一路256號","121.6424","25.06734","6501100","汐止區"
"221021","299-VK","2018/01/05 18:59:47","新北市汐止區康寧街901號","121.651481666667","25.07502","6501100","汐止區"
"221031","353-TW","2018/01/05 18:59:40","新北市汐止區福德二路156巷14號","121.630045","25.0656883333333","6501100","汐止區"
"221015","567-BX","2018/01/05 18:59:46","新北市汐止區大同路二段381號","121.657511666667","25.0672816666667","6501100","汐止區"
"221035","622-UM","2018/01/05 18:59:57","新北市汐止區汐萬路一段273號","121.650465","25.0745116666667","6501100","汐止區"
"221025","623-UM","2018/01/05 18:59:43","新北市汐止區康寧街901號","121.651631666667","25.0749533333333","6501100","汐止區"
"221038","646-BX","2018/01/05 18:59:41","新北市汐止區康寧街901號","121.650705","25.0753383333333","6501100","汐止區"
"221033","647-BX","2018/01/05 18:59:53","新北市汐止區南勢街1巷1號","121.627061666667","25.0375266666667","6501100","汐止區"
"221002","707-TV","2018/01/05 18:59:40","新北市汐止區大同路一段4號","121.621091666667","25.0550483333333","6501100","汐止區"
"220079","145-BY","2018/01/05 18:59:51","新北市板橋區民權路202巷9弄4號","121.460301666667","25.015405","6500100","板橋區"
"220080","200-UY","2018/01/05 18:59:48","新北市板橋區大觀路二段265巷1弄14號","121.443563333333","24.99842","6500100","板橋區"
"220082","610-BX","2018/01/05 18:59:40","新北市板橋區篤行路二段136號","121.4298","24.9883733333333","6500100","板橋區"
"220072","277-BY","2018/01/05 18:59:50","新北市板橋區篤行路一段33號","121.431976666667","24.9942966666667","6500100","板橋區"
"220101","280-UM","2018/01/05 18:59:55","新北市板橋區文化路二段182巷11號","121.472006666667","25.0268466666667","6500100","板橋區"
"220094","285-UM","2018/01/05 18:59:36","新北市板橋區文化路二段76號","121.469426666667","25.0250716666667","6500100","板橋區"
"220053","285-VK","2018/01/05 18:59:42","新北市板橋區成功路2號","121.475658333333","25.01682","6500100","板橋區"
"220083","286-VK","2018/01/05 18:59:48","新北市板橋區大觀路一段38巷156弄36-1號","121.442578333333","25.005615","6500100","板橋區"
"220081","287-VK","2018/01/05 18:59:48","新北市板橋區南雅西路二段98-5號","121.45243","25.01146","6500100","板橋區"
"220090","288-VK","2018/01/05 18:59:40","新北市板橋區四維路177巷2弄1號","121.46402","25.0262416666667","6500100","板橋區"
"220061","293-UM","2018/01/05 18:59:47","新北市板橋區富山街100號","121.476345","25.0219216666667","6500100","板橋區"
"220084","296-UM","2018/01/05 18:59:47","新北市板橋區龍興街63巷2號","121.442993333333","25.0012966666667","6500100","板橋區"
"220075","297-UM","2018/01/05 18:59:52","新北市板橋區館前西路213巷22號","121.454183333333","25.00797","6500100","板橋區"
"220062","305-R5","2018/01/05 18:59:53","新北市板橋區三民路二段正隆巷40號","121.477021666667","25.0137516666667","6500100","板橋區"
"220092","307-R5","2018/01/05 18:59:58","新北市板橋區文化路一段92號","121.464475","25.0178","6500100","板橋區"
"220098","317-R6","2018/01/05 18:59:46","新北市板橋區民有街18號","121.466218333333","25.02495","6500100","板橋區"
"220080","461-BY","2018/01/05 14:30:22","新北市板橋區華東街1-8號","121.44802","24.994815","6500100","板橋區"
"220064","486-VK","2018/01/05 18:59:42","新北市板橋區縣民大道二段100號","121.466771666667","25.014805","6500100","板橋區"
"220089","487-VK","2018/01/05 18:59:49","新北市板橋區民生路二段236號","121.468403333333","25.0229516666667","6500100","板橋區"
"220088","491-VK","2018/01/05 18:59:48","新北市板橋區民生路二段236號","121.468431666667","25.0230666666667","6500100","板橋區"
"220035","560-BX","2018/01/05 18:59:37","新北市板橋區中正路325巷23號","121.454193333333","25.0196866666667","6500100","板橋區"
"220103","561-BX","2018/01/05 18:59:49","新北市板橋區民生路二段121號","121.470785","25.01845","6500100","板橋區"
"220071","568-UM","2018/01/05 18:59:46","新北市板橋區重慶路243號","121.463048333333","25.0006233333333","6500100","板橋區"
"220011","609-BX","2018/01/05 18:59:51","新北市板橋區中山路二段132號","121.47637","25.0169366666667","6500100","板橋區"
"220056","630-UY","2018/01/05 18:59:55","新北市板橋區信義路112號","121.458313333333","24.99259","6500100","板橋區"
"220091","637-BX","2018/01/05 18:59:44","新北市板橋區雙十路二段47巷50號","121.474741666667","25.0254133333333","6500100","板橋區"
"220057","686-BX","2018/01/05 18:59:52","新北市板橋區館前西路46巷2號","121.458945","25.0070433333333","6500100","板橋區"
"220077","687-BX","2018/01/05 18:59:55","新北市板橋區大觀路二段146-5號","121.44184","24.9988316666667","6500100","板橋區"
"220093","689-BX","2018/01/05 18:59:36","新北市板橋區民生路二段232號","121.468818333333","25.0219616666667","6500100","板橋區"
"220054","741-BX","2018/01/05 18:59:52","新北市板橋區重慶路139巷17號","121.463551666667","25.0046533333333","6500100","板橋區"
"220055","827-TW","2018/01/05 18:59:51","新北市板橋區新站路1號","121.467106666667","25.0111416666667","6500100","板橋區"
"220067","829-TW","2018/01/05 18:59:46","新北市板橋區三民路二段154巷8號","121.478621666667","25.0150933333333","6500100","板橋區"
"220102","830-TW","2018/01/05 18:59:52","新北市板橋區懷德街235巷2號","121.480748333333","25.02845","6500100","板橋區"
"220074","895-R6","2018/01/05 18:59:37","新北市板橋區林園街52號","121.453613333333","25.01064","6500100","板橋區"
"220073","985-R7","2018/01/05 18:59:56","新北市板橋區民權路200號","121.45904","25.0137933333333","6500100","板橋區"
"220097","AAC-210","2018/01/05 18:59:42","新北市板橋區陽明街166號","121.463566666667","25.02453","6500100","板橋區"
"220070","AAC-253","2018/01/05 18:59:45","新北市板橋區四川路一段318號","121.458416666667","25.0001133333333","6500100","板橋區"
