"lineid","car","time","location","longitude","latitude","cityid","cityname"
"234046","148-BY","2018/01/05 19:09:56","新北市永和區秀朗路二段126巷30號","121.524633333333","25.0008683333333","6500400","永和區"
"234013","149-BY","2018/01/05 19:09:44","新北市永和區永和路二段81號","121.514788333333","25.0112","6500400","永和區"
"234007","207-UY","2018/01/05 19:09:41","新北市永和區中山路一段275號","121.507178333333","25.007045","6500400","永和區"
"234081","298-R6","2018/01/05 19:09:39","新北市永和區永貞路39巷9弄10號","121.52224","25.0069483333333","6500400","永和區"
"234038","336-UY","2018/01/05 19:09:43","新北市永和區民樂街71巷2號","121.527381666667","24.9974","6500400","永和區"
"234064","337-UY","2018/01/05 19:09:39","新北市永和區秀朗路二段45號","121.521631666667","25.0022733333333","6500400","永和區"
"234086","338-UY","2018/01/05 19:09:40","新北市永和區永貞路98號","121.51924","25.0044916666667","6500400","永和區"
"234054","553-UM","2018/01/05 19:09:41","新北市永和區中興街133巷8號","121.518611666667","25.01264","6500400","永和區"
"234017","745-BX","2018/01/05 19:09:45","新北市永和區忠孝街27號","121.51398","25.0156116666667","6500400","永和區"
"234030","746-BX","2018/01/05 19:09:43","新北市永和區民生路23號","121.522876666667","24.99883","6500400","永和區"
"234061","AAD-866","2018/01/05 19:09:46","新北市永和區安樂路306號","121.514471666667","25.0053983333333","6500400","永和區"
"234070","847-RS","2018/01/05 19:09:44","新北市永和區豫溪街137巷1弄12號","121.519143333333","25.0104683333333","6500400","永和區"
"234042","862-TW","2018/01/05 19:09:48","新北市永和區永貞路330號","121.511316666667","25.0054866666667","6500400","永和區"
"234050","863-TW","2018/01/05 19:09:54","新北市永和區仁愛路104巷7弄23號","121.51096","25.01407","6500400","永和區"
"234026","9371-KE","2018/01/05 19:09:58","新北市永和區安樂路272巷7弄1號","121.5148","25.0043083333333","6500400","永和區"
"234011","9373-KE","2018/01/05 19:09:52","新北市永和區信義路25巷53號","121.512318333333","25.0115816666667","6500400","永和區"
"249005","172-UM","2018/01/05 19:09:40","新北市八里區中華路三段27號","121.396473333333","25.142935","6502300","八里區"
"249001","173-UM","2018/01/05 19:09:46","新北市八里區龍米路三段8號","121.429196666667","25.159055","6502300","八里區"
"248016","026-BX","2018/01/05 19:09:44","新北市五股區成泰路三段577巷45號","121.450791666667","25.1030483333333","6501500","五股區"
"248006","077-UY","2018/01/05 19:09:52","新北市五股區四維路90-1號","121.46746","25.0731983333333","6501500","五股區"
"248018","225-UY","2018/01/05 19:09:49","新北市五股區民義路一段312-22號","121.422318333333","25.0955633333333","6501500","五股區"
"248012","247-BX","2018/01/05 19:09:35","新北市五股區中興路四段38巷11號","121.43876","25.0835016666667","6501500","五股區"
"248004","677-BX","2018/01/05 19:09:52","新北市五股區民義路一段198號","121.432536666667","25.08815","6501500","五股區"
"248002","678-BX","2018/01/05 19:09:47","新北市五股區凌雲路一段158巷13號","121.447795","25.10352","6501500","五股區"
"248010","682-TV","2018/01/05 19:09:49","新北市五股區水碓一路23號","121.430601666667","25.07133","6501500","五股區"
"234023","9380-KE","2018/01/05 19:09:36","新北市永和區中興街10巷1號","121.515675","25.0118116666667","6500400","永和區"
"234077","969-R7","2018/01/05 19:09:52","新北市永和區民權路34號","121.520148333333","24.99889","6500400","永和區"
"234074","AAC-211","2018/01/05 19:09:38","新北市永和區竹林路187號","121.520565","25.0095833333333","6500400","永和區"
"234067","AAC-212","2018/01/05 19:09:45","新北市永和區永和路一段69號","121.513108333333","25.00711","6500400","永和區"
"234003","AAC-295","2018/01/05 19:09:44","新北市永和區保福路一段47巷15號","121.512111666667","25.009185","6500400","永和區"
"244013","069-UM","2018/01/05 19:09:51","新北市林口區麗園一街11巷11號","121.378641666667","25.070505","6501700","林口區"
"244004","248-BX","2018/01/05 15:23:38","新北市林口區粉寮路二段128號","121.404285","25.090495","6501700","林口區"
"244019","403-UM","2018/01/05 19:09:44","新北市林口區麗園二街27號","121.379936666667","25.069405","6501700","林口區"
"244023","483-VK","2018/01/05 19:09:47","新北市林口區文化三路一段555巷90-1號","121.368935","25.07684","6501700","林口區"
"244011","656-BX","2018/01/05 19:09:50","新北市林口區中正路296巷22號","121.388068333333","25.07826","6501700","林口區"
"244009","837-TS","2018/01/05 19:09:40","新北市林口區林口路64號","121.390258333333","25.0791616666667","6501700","林口區"
"243012","AAD-798","2018/01/05 19:09:46","新北市泰山區辭修路36巷8弄1號","121.427843333333","25.0585466666667","6501600","泰山區"
"243011","297-R6","2018/01/05 19:09:43","新北市泰山區明志路二段374號","121.42543","25.04484","6501600","泰山區"
"243015","380-SR","2018/01/05 19:09:43","新北市泰山區明志路一段431號","121.430661666667","25.05648","6501600","泰山區"
"243014","421-VK","2018/01/05 19:09:47","新北市泰山區泰林路二段438號","121.426515","25.0642816666667","6501600","泰山區"
"243010","KEA-2215","2018/01/05 19:09:53","新北市泰山區明志路一段483巷1弄6號","121.431155","25.0555066666667","6501600","泰山區"
"243009","KEA-2216","2018/01/05 19:09:56","新北市泰山區明志路一段117巷26號","121.434293333333","25.0636166666667","6501600","泰山區"
"243013","646-TV","2018/01/05 19:09:50","新北市泰山區台麗街16巷9號","121.424501666667","25.03762","6501600","泰山區"
"243016","680-BX","2018/01/05 19:09:50","新北市泰山區明志路三段1號","121.42482","25.043465","6501600","泰山區"
"222003","436-BY","2018/01/05 19:09:37","新北市深坑區深南路162號","121.626073333333","25.0150116666667","6501800","深坑區"
"222002","659-BX","2018/01/05 19:09:44","新北市深坑區紅葉街61號","121.632303333333","25.01386","6501800","深坑區"
"231041","001-UM","2018/01/05 19:09:50","新北市新店區溪園路361號","121.523258333333","24.9808866666667","6500600","新店區"
"231066","0293-UT","2018/01/05 19:09:49","新北市新店區安康路三段359巷16號","121.484631666667","24.9495633333333","6500600","新店區"
"231059","046-UY","2018/01/05 19:09:58","新北市新店區安和路二段138號","121.519516666667","24.9722433333333","6500600","新店區"
"231061","047-UY","2018/01/05 19:09:56","新北市新店區安康路一段105號","121.529115","24.961545","6500600","新店區"
"231060","106-UY","2018/01/05 19:09:54","新北市新店區安康路二段243號","121.508066666667","24.9585166666667","6500600","新店區"
"231051","107-UY","2018/01/05 19:09:45","新北市新店區中正路384號","121.534738333333","24.9770266666667","6500600","新店區"
"231048","108-UY","2018/01/05 19:09:41","新北市新店區中興路二段67巷1號","121.546486666667","24.9708666666667","6500600","新店區"
"231053","187-VK","2018/01/05 19:09:54","新北市新店區自強路117號","121.546141666667","24.9231216666667","6500600","新店區"
"231050","KEA-2219","2018/01/05 19:09:49","新北市新店區竹林路2巷29弄9號","121.550491666667","24.950245","6500600","新店區"
"231046","278-BY","2018/01/05 19:09:55","新北市新店區華潭街1巷49號","121.52663","24.9469083333333","6500600","新店區"
"231054","AAD-862","2018/01/05 19:09:44","新北市新店區新店路178號","121.53716","24.955915","6500600","新店區"
"231058","3712-VJ","2018/01/05 19:09:51","新北市新店區光明街138巷13弄5號","121.540236666667","24.9614566666667","6500600","新店區"
"231056","3713-VJ","2018/01/05 19:09:48","新北市新店區民權路109號","121.536146666667","24.98198","6500600","新店區"
"231055","4716-K9","2018/01/05 19:09:53","新北市新店區新生街13巷26號","121.538953333333","24.9664883333333","6500600","新店區"
"231067","4772-VM","2018/01/05 19:09:47","新北市新店區安康路一段351-1號","121.519681666667","24.9640016666667","6500600","新店區"
"231065","512-UM","2018/01/05 19:09:40","新北市新店區安祥路112號","121.475068333333","24.9569283333333","6500600","新店區"
"231064","515-UM","2018/01/05 19:09:32","新北市新店區安忠路102巷2號","121.510826666667","24.9564133333333","6500600","新店區"
"231045","617-UM","2018/01/05 19:09:43","新北市新店區北宜路一段164號","121.540361666667","24.9533783333333","6500600","新店區"
"231040","619-UM","2018/01/05 19:09:41","新北市新店區三民路155-1號","121.5339","24.973405","6500600","新店區"
"231042","641-BX","2018/01/05 19:09:46","新北市新店區中興路一段113號","121.541346666667","24.96273","6500600","新店區"
"231063","645-TV","2018/01/05 19:09:45","新北市新店區車子路121號","121.505246666667","24.9504316666667","6500600","新店區"
"231049","719-UM","2018/01/05 19:09:43","新北市新店區二十張路25巷18弄19號","121.539251666667","24.9815033333333","6500600","新店區"
"231062","720-UM","2018/01/05 19:09:58","新北市新店區安平路8號","121.523836666667","24.9638283333333","6500600","新店區"
"231044","897-TW","2018/01/05 19:09:39","新北市新店區中興路三段202號","121.543926666667","24.9819683333333","6500600","新店區"
"231043","899-TW","2018/01/05 19:09:45","新北市新店區寶橋路97號","121.547068333333","24.9761683333333","6500600","新店區"
"241026","066-VK","2018/01/05 19:09:40","新北市三重區泉州街72號","121.494853333333","25.05486","6500200","三重區"
"241035","462-BY","2018/01/05 19:09:52","新北市三重區新北大道一段7號","121.48986","25.0614166666667","6500200","三重區"
"241029","942-UM","2018/01/05 19:09:40","新北市三重區集美街237號","121.49223","25.0553933333333","6500200","三重區"
"235066","003-UY","2018/01/05 19:09:47","新北市中和區廣福路40號","121.504341666667","25.0021833333333","6500300","中和區"
"235064","005-UY","2018/01/05 19:09:36","新北市中和區泰和街30巷21號","121.498951666667","25.0011466666667","6500300","中和區"
"235063","006-UY","2018/01/05 19:09:39","新北市中和區中正路578號","121.486135","24.9947816666667","6500300","中和區"
"235046","031-BX","2018/01/05 19:09:42","新北市中和區忠孝街1巷18號","121.50862","24.9838366666667","6500300","中和區"
"235056","096-UM","2018/01/05 19:09:38","新北市板橋區三民路二段204號","121.478901666667","25.012215","6500300","中和區"
"235039","097-UM","2018/01/05 19:09:52","新北市中和區安平路214號","121.51377","24.9999066666667","6500300","中和區"
"235065","098-UM","2018/01/05 19:09:43","新北市中和區中山路二段2巷45弄2號","121.502296666667","25.0071633333333","6500300","中和區"
"235040","150-BY","2018/01/05 19:09:42","新北市中和區保健路61巷3號","121.509655","24.9974316666667","6500300","中和區"
"235058","151-BY","2018/01/05 19:09:48","新北市中和區連城路428巷11號","121.479895","24.9954716666667","6500300","中和區"
"235055","183-VK","2018/01/05 19:09:55","新北市中和區德光路26號","121.47076","25.0043133333333","6500300","中和區"
"235038","185-VK","2018/01/05 19:09:40","新北市中和區大仁街20巷27號","121.518533333333","24.9933466666667","6500300","中和區"
"235049","186-VK","2018/01/05 19:09:36","新北市中和區景安路139號","121.505611666667","24.99553","6500300","中和區"
"235067","255-BX","2018/01/05 19:09:40","新北市中和區新生街213號","121.483831666667","24.9996733333333","6500300","中和區"
"235044","293-VK","2018/01/05 19:09:48","新北市中和區中興街222-4號","121.500581666667","24.9895616666667","6500300","中和區"
"235072","301-VK","2018/01/05 19:09:43","新北市中和區景平路701號","121.496458333333","25.0034433333333","6500300","中和區"
"235043","352-BY","2018/01/05 19:09:39","新北市中和區景平路148號","121.518333333333","24.9919516666667","6500300","中和區"
"235068","377-QA","2018/01/05 19:09:51","新北市中和區安邦街132號","121.497315","24.9955816666667","6500300","中和區"
"235061","378-QA","2018/01/05 19:09:56","新北市中和區民有街92號","121.4762","25.0036283333333","6500300","中和區"
"235050","4979-A6","2018/01/05 19:09:56","新北市中和區復興路81號","121.503605","24.9898333333333","6500300","中和區"
"235069","4980-A6","2018/01/05 19:09:41","新北市中和區中和路217巷6號","121.504146666667","25.0005016666667","6500300","中和區"
"235042","551-UM","2018/01/05 19:09:58","新北市中和區自立路113號","121.522248333333","24.9944916666667","6500300","中和區"
"235070","558-UM","2018/01/05 19:09:43","新北市中和區中和路116號","121.503038333333","24.99976","6500300","中和區"
"235045","565-BX","2018/01/05 19:09:43","新北市中和區景新街467巷35弄1號","121.514591666667","24.9890866666667","6500300","中和區"
"235054","640-BX","2018/01/05 19:09:53","新北市中和區國光街127號","121.469281666667","25.00097","6500300","中和區"
"235060","647-TV","2018/01/05 19:09:49","新北市中和區中山路三段145號","121.473825","25.0059433333333","6500300","中和區"
"235047","732-UM","2018/01/05 19:09:52","新北市中和區興南路一段56巷32號","121.510111666667","24.9914533333333","6500300","中和區"
"235057","801-TS","2018/01/05 19:09:44","新北市中和區民利街80號","121.478078333333","24.998195","6500300","中和區"
"235041","802-TS","2018/01/05 19:09:53","新北市中和區中和路252巷1號","121.507638333333","24.9993216666667","6500300","中和區"
"235052","805-TS","2018/01/05 19:09:58","新北市中和區興南路二段242巷18號","121.502233333333","24.9831966666667","6500300","中和區"
"235048","896-TW","2018/01/05 19:09:48","新北市中和區忠孝街3號","121.509455","24.982975","6500300","中和區"
"235053","900-TW","2018/01/05 19:09:55","新北市中和區民德路274號","121.467776666667","24.9964666666667","6500300","中和區"
"235051","157-BY","2018/01/05 19:09:56","新北市中和區忠孝街31巷33弄1號","121.509853333333","24.9845183333333","6500300","中和區"
"235037","AAC-213","2018/01/05 19:09:46","新北市中和區秀朗路三段60巷42號","121.524906666667","24.99491","6500300","中和區"
"235059","AAC-215","2018/01/05 19:09:37","新北市中和區圓通路294巷1號","121.48883","24.9894183333333","6500300","中和區"
"220065","072-UY","2018/01/05 19:09:52","新北市板橋區民族路151巷75號","121.469581666667","25.0087516666667","6500100","板橋區"
"220086","073-UY","2018/01/05 19:09:55","新北市板橋區中正路250巷83號","121.458975","25.0199216666667","6500100","板橋區"
"220106","075-UY","2018/01/05 19:09:57","新北市板橋區雙十路三段18巷1弄2號","121.471906666667","25.0306766666667","6500100","板橋區"
"220069","AAD-861","2018/01/05 19:09:38","新北市板橋區華興街26號","121.459163333333","25.0046583333333","6500100","板橋區"
"220096","120-SR","2018/01/05 19:09:49","新北市板橋區雙十路二段33巷10號","121.476391666667","25.0254216666667","6500100","板橋區"
"226004","205-ST","2018/01/05 19:09:54","新北市平溪區望古里灰3-1號","121.754966666667","25.028925","6502400","平溪區"
"228002","663-BX","2018/01/05 19:09:44","新北市貢寮區福隆里福隆街32-1號","121.945088333333","25.0174133333333","6502600","貢寮區"
"228001","670-TC","2018/01/05 19:09:46","新北市貢寮區真理里新港街10號","121.925531666667","25.054385","6502600","貢寮區"
"228003","828-UM","2018/01/05 19:09:44","新北市貢寮區和美里和美街21-10號","121.912498333333","25.0825466666667","6502600","貢寮區"
"224010","AGQ-8101","2018/01/05 19:05:13","新北市瑞芳區基山街27號","121.84542","25.109305","6501200","瑞芳區"
"224006","676-BX","2018/01/05 19:09:38","新北市瑞芳區三爪子坑路110號","121.807595","25.1052583333333","6501200","瑞芳區"
"224009","285-BY","2018/01/05 19:09:46","新北市瑞芳區洞頂路101巷65號","121.860668333333","25.121045","6501200","瑞芳區"
"224008","275-VK","2018/01/05 19:09:51","新北市瑞芳區明燈路三段151號","121.802936666667","25.1095683333333","6501200","瑞芳區"
"224005","271-BY","2018/01/05 19:09:56","新北市瑞芳區國中新村18號","121.817208333333","25.1073383333333","6501200","瑞芳區"
"227003","400-TW","2018/01/05 19:09:56","新北市雙溪區平林里梅竹蹊56-4號","121.860593333333","25.0368483333333","6502500","雙溪區"
"227011","030-BX","2018/01/05 19:09:37","新北市雙溪區雙溪里中正路15號","121.865208333333","25.03666","6502500","雙溪區"
"253005","032-BX","2018/01/05 19:09:51","新北市石門區阿里荖41-1號","121.605675","25.2806016666667","6502200","石門區"
"253006","741-TV","2018/01/05 19:09:41","新北市石門區崁子腳41-5號","121.53327","25.2875016666667","6502200","石門區"
"222001","KEA-2212","2018/01/05 19:09:41","新北市深坑區北深路一段300號","121.624291666667","25.0058333333333","6501800","深坑區"
"208002","742-BX","2018/01/05 19:09:41","新北市金山區中正路73號","121.633755","25.22162","6502700","金山區"
"208003","665-BX","2018/01/05 19:09:48","新北市金山區中正路39號","121.63496","25.2220683333333","6502700","金山區"
"208001","761-BX","2018/01/05 19:09:54","新北市金山區金包里街68號","121.63903","25.2214166666667","6502700","金山區"
"251001","011-UM","2018/01/05 19:09:53","新北市淡水區自強路201巷43號","121.462108333333","25.12686","6501000","淡水區"
"251010","413-VK","2018/01/05 19:09:40","新北市淡水區中正路一段156巷3號","121.421125","25.180275","6501000","淡水區"
"251005","443-VK","2018/01/05 19:09:53","新北市淡水區原德路11號","121.442076666667","25.1712283333333","6501000","淡水區"
"251006","561-UM","2018/01/05 19:09:42","新北市淡水區中山北路一段271號","121.444643333333","25.1813083333333","6501000","淡水區"
"251009","575-R6","2018/01/05 19:09:40","新北市淡水區中正路51號","121.441853333333","25.1695416666667","6501000","淡水區"
"251007","577-R6","2018/01/05 19:09:45","新北市淡水區民生路145巷46號","121.467028333333","25.1389583333333","6501000","淡水區"
"251002","672-BX","2018/01/05 19:09:47","新北市淡水區中山路77號","121.442725","25.170485","6501000","淡水區"
"251003","673-BX","2018/01/05 19:09:40","新北市淡水區中山北路一段22號","121.441585","25.1751266666667","6501000","淡水區"
"207003","550-UM","2018/01/05 19:09:44","新北市萬里區大鵬里萬里加投15-2號","121.650208333333","25.2095883333333","6502800","萬里區"
"207004","225-TW","2018/01/05 19:09:51","新北市萬里區萬里里瑪鋉路112-1號","121.691143333333","25.178565","6502800","萬里區"
"252002","178-VK","2018/01/05 19:09:49","新北市三芝區埔坪里埔頭坑78號","121.50916","25.254355","6502100","三芝區"
"252003","249-BX","2018/01/05 19:09:46","新北市三芝區錫板里南勢崗6號","121.47954","25.2619766666667","6502100","三芝區"
"252001","702-TV","2018/01/05 19:09:50","新北市三芝區長勤街45巷2號","121.50037","25.255085","6502100","三芝區"
"237004","078-UY","2018/01/05 19:09:41","新北市三峽區有木206號","121.439098333333","24.851455","6500900","三峽區"
"237007","153-BY","2018/01/05 19:09:46","新北市三峽區二鬮路178號","121.35912","24.9068683333333","6500900","三峽區"
"237009","210-TH","2018/01/05 19:09:50","新北市三峽區文化路56號","121.372568333333","24.93615","6500900","三峽區"
"237013","252-BX","2018/01/05 19:09:50","新北市三峽區光明路69巷25號","121.37673","24.9292316666667","6500900","三峽區"
"237012","275-BY","2018/01/05 19:09:43","新北市三峽區三樹路222巷236弄23號","121.391613333333","24.9430516666667","6500900","三峽區"
"237008","302-VK","2018/01/05 19:09:49","新北市三峽區光明路106巷73號","121.374896666667","24.926605","6500900","三峽區"
"237014","433-BY","2018/01/05 19:09:36","新北市三峽區中山路257巷39號","121.362165","24.9364983333333","6500900","三峽區"
"237006","5529-G3","2018/01/05 19:09:51","新北市三峽區溪北街109號","121.39837","24.935465","6500900","三峽區"
"237015","649-BX","2018/01/05 18:22:45","新北市三峽區紫微南路33號","121.422048333333","24.915225","6500900","三峽區"
"237010","706-TV","2018/01/05 19:09:46","新北市三峽區復興路59號","121.373143333333","24.937185","6500900","三峽區"
"237005","AKY-6261","2018/01/05 19:09:48","新北市三峽區中山路459巷163-3號","121.348626666667","24.9329516666667","6500900","三峽區"
"236072","105-UM","2018/01/05 19:09:39","新北市土城區裕生路84巷2號","121.447313333333","24.9854066666667","6501300","土城區"
"236079","166-UM","2018/01/05 15:47:31","新北市土城區中山路46-1號","121.427018333333","24.965225","6501300","土城區"
"236031","253-BX","2018/01/05 19:09:37","新北市土城區城林路6巷80號","121.438561666667","24.97963","6501300","土城區"
"236027","269-VK","2018/01/05 19:09:43","新北市土城區中央路二段193號","121.442125","24.9752766666667","6501300","土城區"
"236015","270-VK","2018/01/05 19:09:41","新北市土城區學府路一段73號","121.456955","24.9881416666667","6501300","土城區"
"236039","271-VK","2018/01/05 19:09:49","新北市土城區清水路143號","121.458415","24.981745","6501300","土城區"
"236022","401-BY","2018/01/05 19:09:47","新北市土城區延吉街185號","121.469203333333","24.9855633333333","6501300","土城區"
"236059","912-UM","2018/01/05 19:09:46","新北市土城區金城路二段200號","121.454683333333","24.981665","6501300","土城區"
"236050","913-UM","2018/01/05 19:09:45","新北市土城區明德路一段398-1號","121.453658333333","24.9790766666667","6501300","土城區"
"236063","915-UM","2018/01/05 19:09:48","新北市土城區金城路三段202-3號","121.469428333333","24.9885383333333","6501300","土城區"
"236055","AAC-216","2018/01/05 19:09:46","新北市土城區學府路一段214號","121.452353333333","24.985235","6501300","土城區"
"242009","173-VK","2018/01/05 18:36:41","新北市新莊區三和路18-23號","121.441768333333","25.0389716666667","6500500","新莊區"
"238015","755-BX","2018/01/05 19:09:49","新北市樹林區備內街101號","121.407405","24.9893833333333","6500700","樹林區"
"238023","601-UM","2018/01/05 19:09:41","新北市樹林區大慶街48號","121.397121666667","25.0140266666667","6500700","樹林區"
"238019","599-UM","2018/01/05 19:09:43","新北市樹林區東榮街91巷1弄11號","121.41648","24.982745","6500700","樹林區"
"238018","571-TV","2018/01/05 19:09:54","新北市樹林區太平路48號","121.419","24.9825383333333","6500700","樹林區"
"238024","5061-A6","2018/01/05 19:09:40","新北市樹林區中山路二段249巷12號","121.402466666667","24.9757683333333","6500700","樹林區"
"238021","KEA-2217","2018/01/05 19:09:44","新北市樹林區柑園街二段328巷2弄42號","121.373776666667","24.9523316666667","6500700","樹林區"
"238022","KEA-2213","2018/01/05 19:09:48","新北市樹林區中山路二段151巷2號","121.407178333333","24.9779083333333","6500700","樹林區"
"238025","303-VK","2018/01/05 19:09:52","新北市樹林區中山路三段68號","121.393863333333","24.972385","6500700","樹林區"
"238017","283-BY","2018/01/05 19:09:49","新北市樹林區光興街196號","121.407971666667","25.0046866666667","6500700","樹林區"
"238014","282-BY","2018/01/05 19:09:39","新北市樹林區千歲街63-13號","121.426935","24.9986616666667","6500700","樹林區"
"238020","268-VK","2018/01/05 19:09:40","新北市樹林區俊英街200號","121.425378333333","25.0091","6500700","樹林區"
"238026","172-UY","2018/01/05 19:09:56","新北市樹林區佳園路二段26號","121.391668333333","24.9630783333333","6500700","樹林區"
"238016","169-UY","2018/01/05 19:09:40","新北市樹林區復興路373巷3弄3號","121.417155","24.9869133333333","6500700","樹林區"
"239007","AAC-297","2018/01/05 19:09:53","新北市鶯歌區西湖街53巷30-1號","121.341941666667","24.96109","6500800","鶯歌區"
"239006","891-R6","2018/01/05 19:09:50","新北市鶯歌區尖山埔路134號","121.343656666667","24.9498016666667","6500800","鶯歌區"
"239008","527-UM","2018/01/05 19:09:45","新北市鶯歌區國際二路6巷18號","121.339128333333","24.9738183333333","6500800","鶯歌區"
"239005","526-UM","2018/01/05 19:09:43","新北市鶯歌區中湖街154號","121.349513333333","24.9737616666667","6500800","鶯歌區"
"239001","417-VK","2018/01/05 19:09:55","新北市鶯歌區鶯桃路95巷79號","121.337033333333","24.9527533333333","6500800","鶯歌區"
"239003","360-BY","2018/01/05 19:09:46","新北市鶯歌區尖山埔路二段23號","121.342726666667","24.9485383333333","6500800","鶯歌區"
"239002","359-BY","2018/01/05 19:09:43","新北市鶯歌區中山路215號","121.346598333333","24.9570333333333","6500800","鶯歌區"
"239004","193-VK","2018/01/05 19:09:40","新北市鶯歌區二甲路33號","121.340341666667","24.9373233333333","6500800","鶯歌區"
"221008","489-VK","2018/01/05 19:09:58","新北市汐止區康寧街432號","121.630806666667","25.0681016666667","6501100","汐止區"
"221036","130-UY","2018/01/05 19:09:48","新北市汐止區大同路二段377號","121.657456666667","25.06725","6501100","汐止區"
"221010","269-BY","2018/01/05 19:09:53","新北市汐止區康寧街901號","121.65145","25.07507","6501100","汐止區"
"221012","276-VK","2018/01/05 13:31:07","新北市汐止區汐萬路一段256巷3號","121.653383333333","25.0746516666667","6501100","汐止區"
"221012","278-VK","2018/01/05 19:09:38","新北市汐止區康寧街901號","121.650788333333","25.075275","6501100","汐止區"
"221023","279-VK","2018/01/05 19:09:52","新北市汐止區康寧街901號","121.651001666667","25.0752033333333","6501100","汐止區"
"221027","281-BY","2018/01/05 19:09:44","新北市汐止區康寧街901號","121.651456666667","25.075015","6501100","汐止區"
"221029","298-VK","2018/01/05 19:09:50","新北市汐止區汐萬路一段256巷3號","121.652271666667","25.0746966666667","6501100","汐止區"
"221021","299-VK","2018/01/05 19:09:47","新北市汐止區康寧街901號","121.65145","25.0750583333333","6501100","汐止區"
"221031","353-TW","2018/01/05 19:09:40","新北市汐止區福德三路75號","121.636258333333","25.0690883333333","6501100","汐止區"
"221015","567-BX","2018/01/05 19:09:46","新北市汐止區汐萬路一段256巷3號","121.652965","25.074415","6501100","汐止區"
"221035","622-UM","2018/01/05 19:09:37","新北市汐止區汐萬路一段256巷1號","121.651726666667","25.074905","6501100","汐止區"
"221025","623-UM","2018/01/05 19:09:43","新北市汐止區康寧街901號","121.65157","25.0749233333333","6501100","汐止區"
"221038","646-BX","2018/01/05 19:09:41","新北市汐止區康寧街901號","121.650703333333","25.0753","6501100","汐止區"
"221033","647-BX","2018/01/05 19:09:53","新北市汐止區南勢街1巷1號","121.627113333333","25.0375416666667","6501100","汐止區"
"221002","707-TV","2018/01/05 19:09:40","台北市南港區南港路一段2號","121.620513333333","25.05472","6501100","汐止區"
"220079","145-BY","2018/01/05 19:09:39","新北市板橋區民權路239號","121.457468333333","25.0155883333333","6500100","板橋區"
"220080","200-UY","2018/01/05 19:09:48","新北市板橋區大觀路二段7巷22號","121.44788","25.00336","6500100","板橋區"
"220082","610-BX","2018/01/05 19:09:40","新北市板橋區溪崑二街14號","121.428898333333","24.9918566666667","6500100","板橋區"
"220072","277-BY","2018/01/05 19:09:50","新北市板橋區溪城路89號","121.42704","24.9833866666667","6500100","板橋區"
"220101","280-UM","2018/01/05 19:09:48","新北市板橋區萬板路13號","121.470515","25.0209816666667","6500100","板橋區"
"220094","285-UM","2018/01/05 19:09:36","新北市板橋區光武街133號","121.465678333333","25.02915","6500100","板橋區"
"220053","285-VK","2018/01/05 19:09:44","新北市板橋區懷仁街14巷14號","121.475616666667","25.0198166666667","6500100","板橋區"
"220083","286-VK","2018/01/05 19:09:53","新北市板橋區龍興街97巷2號","121.444208333333","25.0026916666667","6500100","板橋區"
"220081","287-VK","2018/01/05 19:09:51","新北市板橋區南雅西路二段110巷31號","121.452746666667","25.012675","6500100","板橋區"
"220090","288-VK","2018/01/05 19:09:40","新北市板橋區裕民街33號","121.46178","25.02876","6500100","板橋區"
"220061","293-UM","2018/01/05 19:09:46","新北市板橋區中山路二段267號","121.477645","25.0179366666667","6500100","板橋區"
"220084","296-UM","2018/01/05 19:09:47","新北市板橋區篤行路二段92-3號","121.431525","24.9914266666667","6500100","板橋區"
"220075","297-UM","2018/01/05 19:09:52","新北市板橋區館前西路104號","121.457125","25.0074483333333","6500100","板橋區"
"220062","305-R5","2018/01/05 19:09:53","新北市板橋區三民路二段245巷69弄2號","121.481096666667","25.0128833333333","6500100","板橋區"
"220092","307-R5","2018/01/05 19:09:58","新北市板橋區文化路二段175-1號","121.470371666667","25.0282716666667","6500100","板橋區"
"220098","317-R6","2018/01/05 19:09:41","新北市板橋區自由路51巷11號","121.464918333333","25.0233583333333","6500100","板橋區"
"220080","461-BY","2018/01/05 14:30:22","新北市板橋區華東街1-8號","121.44802","24.994815","6500100","板橋區"
"220064","486-VK","2018/01/05 19:09:42","新北市板橋區板新路17號","121.474771666667","25.0128","6500100","板橋區"
"220089","487-VK","2018/01/05 19:09:49","新北市板橋區文化路二段413號","121.474251666667","25.0321766666667","6500100","板橋區"
"220088","491-VK","2018/01/05 19:09:48","新北市板橋區文化路二段182巷1弄17號","121.471396666667","25.02796","6500100","板橋區"
"220035","560-BX","2018/01/05 19:09:50","新北市板橋區中正路379巷1弄32號","121.453113333333","25.02189","6500100","板橋區"
"220103","561-BX","2018/01/05 19:09:49","新北市板橋區文化路一段188巷9弄126號","121.46925","25.0190533333333","6500100","板橋區"
"220071","568-UM","2018/01/05 19:09:46","新北市板橋區重慶路327巷24弄11號","121.465006666667","24.9981616666667","6500100","板橋區"
"220011","609-BX","2018/01/05 19:09:50","新北市板橋區三民路二段150號","121.479055","25.0150633333333","6500100","板橋區"
"220056","630-UY","2018/01/05 19:09:55","新北市板橋區信義路74巷1弄1號","121.45723","24.9931866666667","6500100","板橋區"
"220091","637-BX","2018/01/05 19:09:53","新北市板橋區縣民大道247巷80號","121.482156666667","25.0269616666667","6500100","板橋區"
"220057","686-BX","2018/01/05 19:09:52","新北市板橋區重慶路239號","121.463058333333","25.0007866666667","6500100","板橋區"
"220077","687-BX","2018/01/05 19:09:51","新北市板橋區大觀路一段51號","121.447838333333","25.0072833333333","6500100","板橋區"
"220093","689-BX","2018/01/05 19:09:48","新北市板橋區民生路三段239號","121.464588333333","25.02873","6500100","板橋區"
"220054","741-BX","2018/01/05 19:09:52","新北市板橋區重慶路62巷5號","121.461451666667","25.00674","6500100","板橋區"
"220055","827-TW","2018/01/05 19:09:53","新北市板橋區新民街37號","121.463916666667","25.01054","6500100","板橋區"
"220067","829-TW","2018/01/05 19:09:46","新北市板橋區長安街230-3號","121.47505","25.012385","6500100","板橋區"
"220102","830-TW","2018/01/05 19:09:39","新北市板橋區田單街49巷1弄9號","121.482731666667","25.0286366666667","6500100","板橋區"
"220074","895-R6","2018/01/05 19:09:57","新北市板橋區中正路43號","121.456306666667","25.0132966666667","6500100","板橋區"
"220073","985-R7","2018/01/05 19:09:54","新北市板橋區中正路170號","121.456393333333","25.0172233333333","6500100","板橋區"
"220097","AAC-210","2018/01/05 19:09:42","新北市板橋區幸福路70巷30號","121.460213333333","25.0209183333333","6500100","板橋區"
"220070","AAC-253","2018/01/05 19:09:45","新北市板橋區忠孝路86號","121.46163","25.0020916666667","6500100","板橋區"
