"lineid","car","time","location","longitude","latitude","cityid","cityname"
"234046","148-BY","2018/01/05 19:59:56","新北市永和區成功路一段82號","121.526763333333","25.003","6500400","永和區"
"234013","149-BY","2018/01/05 19:59:44","新北市永和區保生路55號","121.504743333333","25.0105616666667","6500400","永和區"
"234007","207-UY","2018/01/05 19:59:41","新北市永和區保生路22巷10號","121.507315","25.0080333333333","6500400","永和區"
"234081","298-R6","2018/01/05 19:59:39","新北市永和區國中路12號","121.524383333333","25.004925","6500400","永和區"
"234038","336-UY","2018/01/05 19:59:43","新北市永和區成功路二段179-1號","121.526623333333","24.9966566666667","6500400","永和區"
"234064","337-UY","2018/01/05 19:59:59","新北市永和區中正路412巷2弄11號","121.518513333333","25.0019716666667","6500400","永和區"
"234086","338-UY","2018/01/05 19:59:45","新北市永和區福和路194號","121.520103333333","25.00771","6500400","永和區"
"234054","553-UM","2018/01/05 19:59:41","新北市永和區環河東路一段122號","121.520681666667","25.01548","6500400","永和區"
"234017","745-BX","2018/01/05 19:59:44","新北市永和區文化路9號","121.51525","25.0149733333333","6500400","永和區"
"234030","746-BX","2018/01/05 19:59:43","新北市永和區民生路22巷17號","121.521598333333","24.9971416666667","6500400","永和區"
"234061","AAD-866","2018/01/05 19:59:43","新北市永和區得和路76號","121.516531666667","25.0000416666667","6500400","永和區"
"234070","847-RS","2018/01/05 19:59:44","新北市永和區國光路37號","121.519213333333","25.0083183333333","6500400","永和區"
"234042","862-TW","2018/01/05 19:59:48","新北市永和區中和路421巷5弄7號","121.508615","25.0008633333333","6500400","永和區"
"234050","863-TW","2018/01/05 19:59:54","新北市永和區保安路254號","121.506256666667","25.0126116666667","6500400","永和區"
"234026","9371-KE","2018/01/05 19:59:38","新北市永和區水源街21巷14弄4號","121.511371666667","25.0038","6500400","永和區"
"234011","9373-KE","2018/01/05 19:59:52","新北市永和區仁愛路352巷120號","121.500261666667","25.008425","6500400","永和區"
"249005","172-UM","2018/01/05 19:59:40","新北市八里區楓林路3-2號","121.382161666667","25.1302416666667","6502300","八里區"
"249001","173-UM","2018/01/05 19:59:43","新北市八里區中華路二段312號","121.403771666667","25.148355","6502300","八里區"
"249004","303-UY","2018/01/05 19:59:52","新北市八里區埤頭二街67巷7號","121.412023333333","25.1552616666667","6502300","八里區"
"249002","305-UY","2018/01/05 19:59:39","新北市八里區龍米路一段87巷1號","121.454268333333","25.12338","6502300","八里區"
"249003","593-UM","2018/01/05 19:59:38","新北市八里區中華路二段560巷3號","121.398635","25.1450183333333","6502300","八里區"
"248016","026-BX","2018/01/05 19:59:44","新北市五股區成泰路三段577巷80弄54號","121.449768333333","25.10511","6501500","五股區"
"248008","095-VK","2018/01/05 19:59:53","新北市五股區中興路一段3號","121.469676666667","25.072025","6501500","五股區"
"248018","225-UY","2018/01/05 19:59:49","新北市五股區登林路99-1號","121.413258333333","25.0765016666667","6501500","五股區"
"248012","247-BX","2018/01/05 19:59:55","新北市五股區民義路一段109號","121.434041666667","25.0865133333333","6501500","五股區"
"248014","261-SL","2018/01/05 19:59:55","新北市五股區五福路24號","121.434351666667","25.0889316666667","6501500","五股區"
"248004","677-BX","2018/01/05 19:59:52","新北市五股區成泰路一段34巷1號","121.43512","25.0680933333333","6501500","五股區"
"248002","678-BX","2018/01/05 19:59:47","新北市五股區成泰路三段487號","121.450748333333","25.09933","6501500","五股區"
"248010","682-TV","2018/01/05 19:59:49","新北市五股區登林路79-2號","121.427893333333","25.070355","6501500","五股區"
"234023","9380-KE","2018/01/05 19:59:35","新北市永和區中正路702巷18號","121.516481666667","25.0105583333333","6500400","永和區"
"234077","969-R7","2018/01/05 19:59:52","新北市永和區民有街23巷1號","121.516835","24.9963566666667","6500400","永和區"
"234074","AAC-211","2018/01/05 19:59:58","新北市永和區豫溪街207巷8號","121.523618333333","25.0098283333333","6500400","永和區"
"234067","AAC-212","2018/01/05 19:59:45","新北市永和區永貞路372號","121.510001666667","25.0069416666667","6500400","永和區"
"234003","AAC-295","2018/01/05 19:59:49","新北市永和區中正路672號","121.516853333333","25.0091483333333","6500400","永和區"
"244004","248-BX","2018/01/05 15:23:38","新北市林口區粉寮路二段128號","121.404285","25.090495","6501700","林口區"
"244011","656-BX","2018/01/05 19:59:50","新北市八里區長道坑33-2號","121.400143333333","25.0972483333333","6501700","林口區"
"243012","AAD-798","2018/01/05 19:59:46","新北市泰山區仁德路61號","121.43446","25.0569233333333","6501600","泰山區"
"243011","297-R6","2018/01/05 19:59:43","新北市泰山區明志路三段184號","121.424171666667","25.0387833333333","6501600","泰山區"
"243015","380-SR","2018/01/05 19:59:43","新北市泰山區明志路二段194號","121.427506666667","25.0496366666667","6501600","泰山區"
"243014","421-VK","2018/01/05 19:59:57","新北市泰山區泰林路二段156號","121.433961666667","25.0602","6501600","泰山區"
"243010","KEA-2215","2018/01/05 19:59:53","新北市泰山區中華街10巷1號","121.427885","25.0525116666667","6501600","泰山區"
"243009","KEA-2216","2018/01/05 19:59:36","新北市泰山區泰林路二段164巷30號","121.434458333333","25.0611233333333","6501600","泰山區"
"243013","646-TV","2018/01/05 19:59:43","新北市泰山區明志路三段74巷28弄8號","121.423226666667","25.0425233333333","6501600","泰山區"
"243016","680-BX","2018/01/05 19:59:50","新北市泰山區新北大道六段470號","121.421798333333","25.03257","6501600","泰山區"
"222003","436-BY","2018/01/05 19:59:42","新北市深坑區埔新街14號","121.620775","25.0039533333333","6501800","深坑區"
"222002","659-BX","2018/01/05 19:59:44","新北市深坑區文化街43號","121.61746","25.0016016666667","6501800","深坑區"
"231041","001-UM","2018/01/05 19:59:50","新北市新店區中正路356號","121.535763333333","24.9757066666667","6500600","新店區"
"231066","0293-UT","2018/01/05 19:59:49","新北市新店區柴埕路38-8號","121.513396666667","24.9649466666667","6500600","新店區"
"231059","046-UY","2018/01/05 19:59:38","新北市新店區安康路二段147號","121.511333333333","24.9598633333333","6500600","新店區"
"231061","047-UY","2018/01/05 19:59:37","新北市新店區安興路39號","121.516358333333","24.9710066666667","6500600","新店區"
"231060","106-UY","2018/01/05 19:59:44","新北市新店區安康路二段341巷2號","121.496465","24.955115","6500600","新店區"
"231051","107-UY","2018/01/05 19:59:42","新北市新店區中央五街30號","121.528916666667","24.9747633333333","6500600","新店區"
"231048","108-UY","2018/01/05 19:59:41","新北市新店區寶宏路3-5號","121.54923","24.9765133333333","6500600","新店區"
"231053","187-VK","2018/01/05 19:59:54","新北市新店區新烏路三段191-1號","121.550343333333","24.9007783333333","6500600","新店區"
"231050","KEA-2219","2018/01/05 19:59:49","新北市新店區北新路一段337號","121.54185","24.9686933333333","6500600","新店區"
"231057","256-BX","2018/01/05 19:59:56","新北市新店區花園二路一段11號","121.555551666667","24.9324816666667","6500600","新店區"
"231046","278-BY","2018/01/05 19:59:55","新北市新店區安興路121號","121.51541","24.9790066666667","6500600","新店區"
"231054","AAD-862","2018/01/05 19:59:49","新北市新店區光明街125號","121.539403333333","24.9617566666667","6500600","新店區"
"231056","3713-VJ","2018/01/05 19:59:48","新北市新店區北新路三段137號","121.541195","24.9828666666667","6500600","新店區"
"231055","4716-K9","2018/01/05 19:59:53","新北市新店區中華路83巷67號","121.53836","24.9673133333333","6500600","新店區"
"231067","4772-VM","2018/01/05 19:59:47","新北市新店區秀山路45巷23號","121.530931666667","24.9598216666667","6500600","新店區"
"231065","512-UM","2018/01/05 19:59:40","新北市新店區安祥路106巷345號","121.472888333333","24.959515","6500600","新店區"
"231064","515-UM","2018/01/05 19:59:52","新北市新店區安和路二段35號","121.5181","24.9677466666667","6500600","新店區"
"231045","617-UM","2018/01/05 19:59:43","新北市新店區北宜路二段82-13號","121.554683333333","24.9535316666667","6500600","新店區"
"231040","619-UM","2018/01/05 19:59:52","新北市新店區中正路74號","121.543906666667","24.970225","6500600","新店區"
"231042","641-BX","2018/01/05 19:59:46","新北市新店區中興路二段100巷1號","121.547525","24.9716566666667","6500600","新店區"
"231063","645-TV","2018/01/05 19:59:48","新北市新店區黎明路11號","121.502043333333","24.950005","6500600","新店區"
"231068","718-UY","2018/01/05 19:59:45","新北市新店區安華路28-1號","121.51947","24.9611633333333","6500600","新店區"
"231049","719-UM","2018/01/05 19:59:43","新北市新店區明德路30號","121.541446666667","24.9778166666667","6500600","新店區"
"231062","720-UM","2018/01/05 19:59:38","新北市新店區華城路16-1號","121.529245","24.9575166666667","6500600","新店區"
"231044","897-TW","2018/01/05 19:59:39","新北市新店區寶慶街66號","121.541881666667","24.98668","6500600","新店區"
"231043","899-TW","2018/01/05 19:59:50","新北市新店區中正路263-2號","121.538398333333","24.9736716666667","6500600","新店區"
"241011","013-R5","2018/01/05 19:59:56","新北市三重區三和路三段13號","121.496221666667","25.0708383333333","6500200","三重區"
"241028","022-UY","2018/01/05 19:59:44","新北市三重區中正南路18號","121.493535","25.06041","6500200","三重區"
"241008","059-VK","2018/01/05 19:59:48","新北市三重區永福街179巷26號","121.478063333333","25.07484","6500200","三重區"
"241009","060-VK","2018/01/05 19:59:49","新北市三重區三和路四段392-1號","121.481746666667","25.0789916666667","6500200","三重區"
"241031","061-VK","2018/01/05 19:59:53","新北市三重區重新路四段144巷5號","121.486975","25.0556666666667","6500200","三重區"
"241015","062-VK","2018/01/05 19:59:41","新北市三重區三和路二段17號","121.501226666667","25.066825","6500200","三重區"
"241017","063-VK","2018/01/05 19:59:39","新北市三重區自強路一段306號","121.491291666667","25.0684383333333","6500200","三重區"
"241024","065-VK","2018/01/05 19:59:42","新北市三重區大勇街51號","121.481263333333","25.0717","6500200","三重區"
"241026","066-VK","2018/01/05 19:59:41","新北市三重區福德南路15-1號","121.502556666667","25.063165","6500200","三重區"
"241003","091-VK","2018/01/05 19:59:54","新北市三重區仁愛街445巷15號","121.49049","25.08256","6500200","三重區"
"241005","262-UM","2018/01/05 19:59:43","新北市三重區五華街255號","121.488926666667","25.0862983333333","6500200","三重區"
"241016","266-UM","2018/01/05 19:59:57","新北市三重區正德街58號","121.495523333333","25.0633683333333","6500200","三重區"
"241022","267-UM","2018/01/05 19:59:37","新北市三重區新北大道一段7號","121.489718333333","25.0616133333333","6500200","三重區"
"241018","268-UM","2018/01/05 19:59:36","新北市三重區自強路一段157號","121.49336","25.0671333333333","6500200","三重區"
"241032","269-UM","2018/01/05 19:59:44","新北市三重區捷運路61號","121.483493333333","25.0555966666667","6500200","三重區"
"241013","270-UM","2018/01/05 19:59:55","新北市三重區三和路三段125巷42號","121.494035","25.07377","6500200","三重區"
"241025","271-UM","2018/01/05 19:59:36","新北市三重區頂崁街210巷15-1號","121.476288333333","25.067895","6500200","三重區"
"241007","398-BY","2018/01/05 19:59:56","新北市三重區溪尾街119號","121.489665","25.078945","6500200","三重區"
"241020","413-TH","2018/01/05 19:59:48","新北市三重區大智街165巷12號","121.49032","25.07274","6500200","三重區"
"241035","462-BY","2018/01/05 19:59:52","新北市三重區大榮街9號","121.498141666667","25.0632466666667","6500200","三重區"
"241004","475-VK","2018/01/05 19:59:43","新北市三重區五華街70號","121.493493333333","25.0819233333333","6500200","三重區"
"241019","478-VK","2018/01/05 19:59:46","新北市三重區自強路二段12號","121.490111666667","25.068925","6500200","三重區"
"241030","480-VK","2018/01/05 19:59:47","新北市三重區重新路四段244巷10號","121.486266666667","25.0534983333333","6500200","三重區"
"241014","543-UM","2018/01/05 19:59:45","新北市三重區三和路二段115號","121.499103333333","25.0687766666667","6500200","三重區"
"241023","545-UM","2018/01/05 19:59:52","新北市三重區大有街1-9號","121.477613333333","25.0660183333333","6500200","三重區"
"241001","547-UM","2018/01/05 19:59:44","新北市三重區仁愛街265號","121.493125","25.0787766666667","6500200","三重區"
"241006","AAD-863","2018/01/05 19:59:55","新北市三重區力行路二段121號","121.483101666667","25.0764816666667","6500200","三重區"
"241012","941-UM","2018/01/05 19:59:43","新北市三重區仁義街29號","121.499826666667","25.0763716666667","6500200","三重區"
"241029","942-UM","2018/01/05 19:59:40","新北市三重區重新路三段204號","121.490103333333","25.058235","6500200","三重區"
"241033","AAC-255","2018/01/05 19:59:48","新北市三重區中興北街87號","121.469541666667","25.0479466666667","6500200","三重區"
"235066","003-UY","2018/01/05 19:59:47","新北市中和區中山路二段9號","121.50527","25.005685","6500300","中和區"
"235046","031-BX","2018/01/05 19:59:42","新北市中和區興南路一段93巷69號","121.510456666667","24.98686","6500300","中和區"
"235056","096-UM","2018/01/05 19:59:57","新北市中和區中山路三段170巷8弄22號","121.473033333333","25.0076516666667","6500300","中和區"
"235039","097-UM","2018/01/05 19:59:52","新北市中和區大勇街27巷31號","121.516136666667","24.9938916666667","6500300","中和區"
"235065","098-UM","2018/01/05 19:59:43","新北市中和區福美路267號","121.498291666667","25.005045","6500300","中和區"
"235040","150-BY","2018/01/05 19:59:59","新北市中和區保健路10巷1弄1號","121.507951666667","24.9979566666667","6500300","中和區"
"235058","151-BY","2018/01/05 19:59:48","新北市中和區員山路148巷28號","121.48212","24.9970483333333","6500300","中和區"
"235055","183-VK","2018/01/05 19:59:55","新北市中和區民生街23巷3弄2號","121.471058333333","25.0050166666667","6500300","中和區"
"235038","185-VK","2018/01/05 19:59:40","新北市中和區更生街1號","121.521508333333","24.9962983333333","6500300","中和區"
"235049","186-VK","2018/01/05 19:59:56","新北市中和區景平路385-1號","121.503015","24.9941583333333","6500300","中和區"
"235067","255-BX","2018/01/05 19:59:40","新北市中和區中正路751巷3弄4號","121.48434","24.9995533333333","6500300","中和區"
"235044","293-VK","2018/01/05 19:59:55","新北市中和區中正路65巷2弄2號","121.501265","24.9931616666667","6500300","中和區"
"235043","352-BY","2018/01/05 19:59:39","新北市中和區興南路二段159巷7號","121.505318333333","24.9831966666667","6500300","中和區"
"235068","377-QA","2018/01/05 19:59:51","新北市中和區中山路二段250巷18號","121.497381666667","25.0031283333333","6500300","中和區"
"235050","4979-A6","2018/01/05 19:59:56","新北市中和區景平路153號","121.513565","24.9917266666667","6500300","中和區"
"235069","4980-A6","2018/01/05 19:59:41","新北市中和區南山路37巷3弄2號","121.50286","24.99916","6500300","中和區"
"235070","558-UM","2018/01/05 19:59:43","新北市中和區圓通路117號","121.499323333333","24.9963616666667","6500300","中和區"
"235054","640-BX","2018/01/05 19:59:53","新北市中和區莒光路14號","121.472135","25.004345","6500300","中和區"
"235041","802-TS","2018/01/05 19:59:53","新北市中和區景平路406號","121.508911666667","24.9932083333333","6500300","中和區"
"235052","805-TS","2018/01/05 19:59:38","新北市中和區華新街75號","121.508245","24.9837783333333","6500300","中和區"
"235048","896-TW","2018/01/05 19:59:53","新北市中和區景新街568-1號","121.514735","24.98654","6500300","中和區"
"235051","157-BY","2018/01/05 19:59:36","新北市中和區中興街233巷10號","121.501466666667","24.9894733333333","6500300","中和區"
"235037","AAC-213","2018/01/05 19:59:46","新北市中和區自立路24號","121.522451666667","24.9930866666667","6500300","中和區"
"235059","AAC-215","2018/01/05 19:59:37","新北市中和區圓通路335巷3弄2號","121.492548333333","24.9900733333333","6500300","中和區"
"220065","072-UY","2018/01/05 19:59:52","新北市板橋區中山路一段154巷3弄2號","121.465365","25.0103966666667","6500100","板橋區"
"220106","075-UY","2018/01/05 19:59:37","新北市板橋區仁化街150號","121.47764","25.033135","6500100","板橋區"
"220069","AAD-861","2018/01/05 19:59:43","新北市板橋區大明街20巷19弄16號","121.458086666667","25.003295","6500100","板橋區"
"220096","120-SR","2018/01/05 19:59:34","新北市板橋區莒光路40巷17弄7號","121.470486666667","25.0236","6500100","板橋區"
"247020","500-BY","2018/01/05 19:59:45","新北市蘆洲區民義街80號","121.473438333333","25.0902383333333","6501400","蘆洲區"
"247008","341-TH","2018/01/05 19:59:39","新北市蘆洲區信義路93號","121.477753333333","25.0799516666667","6501400","蘆洲區"
"247010","339-TH","2018/01/05 19:59:45","新北市三重區集賢路188號","121.483946666667","25.0880133333333","6501400","蘆洲區"
"247002","337-TH","2018/01/05 19:59:44","新北市蘆洲區長安街274巷4號","121.457611666667","25.0870233333333","6501400","蘆洲區"
"247004","336-TH","2018/01/05 19:59:51","新北市蘆洲區永康街79號","121.455743333333","25.08523","6501400","蘆洲區"
"247016","057-VK","2018/01/05 19:59:46","新北市蘆洲區成功路201巷3號","121.470923333333","25.0836116666667","6501400","蘆洲區"
"247006","056-VK","2018/01/05 19:59:54","新北市蘆洲區九芎街82號","121.466201666667","25.0795166666667","6501400","蘆洲區"
"247024","002-UY","2018/01/05 19:59:52","新北市蘆洲區光榮路120巷12號","121.465203333333","25.0883566666667","6501400","蘆洲區"
"226004","205-ST","2018/01/05 19:59:54","新北市平溪區靜安路二段532號","121.746335","25.027875","6502400","平溪區"
"228003","828-UM","2018/01/05 19:59:44","新北市貢寮區仁理村仁和路78號","121.922695","25.0502633333333","6502600","貢寮區"
"227003","400-TW","2018/01/05 19:59:54","新北市雙溪區雙溪里長安街16號","121.864966666667","25.034695","6502500","雙溪區"
"227011","030-BX","2018/01/05 19:59:57","新北市雙溪區新基里新基南街25號","121.866221666667","25.0381833333333","6502500","雙溪區"
"222001","KEA-2212","2018/01/05 19:59:41","新北市深坑區北深路三段165-1號","121.602173333333","25.003365","6501800","深坑區"
"208002","742-BX","2018/01/05 19:59:41","新北市金山區中山路16號","121.641861666667","25.21725","6502700","金山區"
"208003","665-BX","2018/01/05 19:59:48","新北市金山區永興里忠義路25號","121.632215","25.2602433333333","6502700","金山區"
"251004","009-UM","2018/01/05 19:49:12","新北市淡水區民權路185巷17號","121.46047","25.13395","6501000","淡水區"
"251001","011-UM","2018/01/05 19:59:53","新北市淡水區淡金路二段147號","121.44968","25.1829066666667","6501000","淡水區"
"251010","413-VK","2018/01/05 19:59:40","新北市淡水區崁頂92號","121.429533333333","25.2024883333333","6501000","淡水區"
"251012","441-VK","2018/01/05 19:59:52","新北市淡水區下圭柔山70巷2號","121.446311666667","25.208055","6501000","淡水區"
"251005","443-VK","2018/01/05 19:59:53","新北市淡水區學府路136巷34號","121.45185","25.1726333333333","6501000","淡水區"
"251006","561-UM","2018/01/05 19:59:59","新北市淡水區水碓街42-1號","121.444651666667","25.1773466666667","6501000","淡水區"
"251009","575-R6","2018/01/05 19:59:40","新北市淡水區英專路28巷2弄18號","121.445821666667","25.169445","6501000","淡水區"
"251007","577-R6","2018/01/05 19:59:45","新北市淡水區水源街二段177巷2弄8號","121.456141666667","25.177035","6501000","淡水區"
"251011","650-BX","2018/01/05 19:59:47","新北市淡水區崁頂55-1號","121.442316666667","25.19695","6501000","淡水區"
"251002","672-BX","2018/01/05 19:59:46","新北市淡水區中正路一段156巷1號","121.420653333333","25.18002","6501000","淡水區"
"207003","550-UM","2018/01/05 19:59:43","新北市萬里區磺潭里公館崙5號","121.641871666667","25.2142383333333","6502800","萬里區"
"207004","225-TW","2018/01/05 19:59:51","新北市萬里區北基里忠二街35號","121.685641666667","25.1757433333333","6502800","萬里區"
"252002","178-VK","2018/01/05 19:59:49","新北市三芝區三民街39巷36號","121.50543","25.2575233333333","6502100","三芝區"
"252001","702-TV","2018/01/05 19:59:50","新北市三芝區公正街66號","121.49982","25.25748","6502100","三芝區"
"237007","153-BY","2018/01/05 19:59:46","新北市三峽區二鬮路136巷20弄13號","121.356631666667","24.9098483333333","6500900","三峽區"
"237012","275-BY","2018/01/05 19:59:43","新北市三峽區中華路3巷8-1號","121.374948333333","24.9311416666667","6500900","三峽區"
"237014","433-BY","2018/01/05 19:59:57","新北市三峽區介壽路一段1號","121.375351666667","24.9339883333333","6500900","三峽區"
"237006","5529-G3","2018/01/05 19:59:51","新北市三峽區中正路二段176巷79-2號","121.36438","24.9132316666667","6500900","三峽區"
"237015","649-BX","2018/01/05 19:54:45","新北市三峽區介壽路二段138巷1弄130-1號","121.399125","24.9312866666667","6500900","三峽區"
"237005","AKY-6261","2018/01/05 19:59:48","新北市三峽區民生街1巷29-2號","121.380348333333","24.933495","6500900","三峽區"
"236072","105-UM","2018/01/05 19:59:39","新北市土城區忠義路83號","121.443365","24.9645866666667","6501300","土城區"
"236043","107-UM","2018/01/05 19:59:55","新北市土城區學府路一段98巷4號","121.456103333333","24.988185","6501300","土城區"
"236079","166-UM","2018/01/05 15:47:31","新北市土城區中山路46-1號","121.427018333333","24.965225","6501300","土城區"
"236031","253-BX","2018/01/05 19:59:57","新北市土城區中華路一段191號","121.44362","24.9853266666667","6501300","土城區"
"236027","269-VK","2018/01/05 19:59:43","新北市土城區中央路二段86號","121.442383333333","24.9787983333333","6501300","土城區"
"236015","270-VK","2018/01/05 19:59:41","新北市土城區廣福街123號","121.456236666667","24.992915","6501300","土城區"
"236039","271-VK","2018/01/05 19:59:49","新北市土城區國際路52號","121.466611666667","24.9783416666667","6501300","土城區"
"236022","401-BY","2018/01/05 19:59:54","新北市土城區延吉街137巷2弄25號","121.470148333333","24.98553","6501300","土城區"
"236059","912-UM","2018/01/05 19:59:46","新北市土城區中央路一段197號","121.445973333333","24.9869","6501300","土城區"
"236050","913-UM","2018/01/05 19:59:45","新北市土城區金城路三段192號","121.468438333333","24.9880383333333","6501300","土城區"
"236063","915-UM","2018/01/05 19:59:48","新北市土城區金城路三段33巷10號","121.465448333333","24.9872166666667","6501300","土城區"
"236055","AAC-216","2018/01/05 19:59:51","新北市土城區立德路105號","121.463613333333","24.9875366666667","6501300","土城區"
"242032","AAC-296","2018/01/05 19:59:44","新北市新莊區中正路356號","121.443866666667","25.034265","6500500","新莊區"
"242029","986-R7","2018/01/05 19:59:53","新北市新莊區中平路348號","121.445195","25.0528633333333","6500500","新莊區"
"242025","615-BX","2018/01/05 19:59:52","新北市新莊區五工一路86號","121.461353333333","25.067435","6500500","新莊區"
"242023","613-BX","2018/01/05 19:59:45","新北市新莊區化成路386號","121.465895","25.0502233333333","6500500","新莊區"
"242027","612-BX","2018/01/05 19:59:41","新北市新莊區幸福路902號","121.443108333333","25.04927","6500500","新莊區"
"242039","566-BX","2018/01/05 19:59:51","新北市新莊區民安路287-2號","121.428866666667","25.0228833333333","6500500","新莊區"
"242044","442-UM","2018/01/05 19:59:55","新北市新莊區中正路891-51號","121.412545","25.022285","6500500","新莊區"
"242048","441-UM","2018/01/05 19:59:51","新北市新莊區四維路3號","121.423945","25.02507","6500500","新莊區"
"242054","440-UM","2018/01/05 19:59:43","新北市新莊區西盛街418號","121.427208333333","25.012225","6500500","新莊區"
"242034","415-TV","2018/01/05 19:59:54","新北市新莊區建中街86號","121.44707","25.0367916666667","6500500","新莊區"
"242041","400-BY","2018/01/05 19:59:39","新北市新莊區青山路一段8-2號","121.41161","25.0275866666667","6500500","新莊區"
"242060","362-BY","2018/01/05 19:59:55","新北市新莊區瓊泰路26號","121.444338333333","25.02863","6500500","新莊區"
"242058","353-BY","2018/01/05 19:59:45","新北市新莊區八德街150號","121.42365","25.0200383333333","6500500","新莊區"
"242007","132-UY","2018/01/05 19:59:41","新北市新莊區思源路583號","121.459728333333","25.05892","6500500","新莊區"
"242037","133-UY","2018/01/05 19:59:53","新北市新莊區建安街26巷2號","121.42889","25.0260116666667","6500500","新莊區"
"242021","135-UY","2018/01/05 19:59:46","新北市新莊區建中街28號","121.448998333333","25.03752","6500500","新莊區"
"242009","173-VK","2018/01/05 19:59:55","新北市新莊區中平路198巷10號","121.44555","25.0484533333333","6500500","新莊區"
"242015","175-VK","2018/01/05 19:59:56","新北市新莊區中平路6巷37號","121.446105","25.0427833333333","6500500","新莊區"
"242002","176-VK","2018/01/05 19:59:42","新北市新莊區中正路219號","121.450963333333","25.0357483333333","6500500","新莊區"
"242013","346-TH","2018/01/05 19:59:56","新北市新莊區中港路398號","121.452205","25.0498116666667","6500500","新莊區"
"242019","348-TH","2018/01/05 19:59:47","新北市新莊區長青街35巷14號","121.456625","25.0417766666667","6500500","新莊區"
"242056","349-TH","2018/01/05 19:59:54","新北市新莊區中正路347巷17弄4號","121.447356666667","25.03437","6500500","新莊區"
"242017","350-TH","2018/01/05 19:59:55","新北市新莊區中港路411號","121.452203333333","25.04734","6500500","新莊區"
"242011","351-TH","2018/01/05 19:59:47","新北市新莊區中港路531巷90號","121.450061666667","25.0518183333333","6500500","新莊區"
"238015","755-BX","2018/01/05 19:59:09","新北市樹林區中山路三段210-2號","121.380885","24.9671233333333","6500700","樹林區"
"238021","KEA-2217","2018/01/05 19:59:45","新北市樹林區佳園路三段101巷62弄40-9號","121.394085","24.9475033333333","6500700","樹林區"
"238020","268-VK","2018/01/05 19:59:40","新北市樹林區八德街1012號","121.391376666667","24.9685516666667","6500700","樹林區"
"221008","489-VK","2018/01/05 19:59:37","新北市汐止區忠一街9巷7號","121.620508333333","25.073195","6501100","汐止區"
"221036","130-UY","2018/01/05 19:59:48","新北市汐止區新台五路二段85巷15號","121.664183333333","25.06736","6501100","汐止區"
"221010","269-BY","2018/01/05 19:59:53","新北市汐止區連峰街225巷20號","121.644231666667","25.08103","6501100","汐止區"
"221012","276-VK","2018/01/05 13:31:07","新北市汐止區汐萬路一段256巷3號","121.653383333333","25.0746516666667","6501100","汐止區"
"221012","278-VK","2018/01/05 19:59:38","新北市汐止區大同路三段290號","121.678115","25.07121","6501100","汐止區"
"221023","279-VK","2018/01/05 19:59:52","新北市汐止區明峰街201-1號","121.627593333333","25.0690416666667","6501100","汐止區"
"221032","280-BY","2018/01/05 19:59:51","新北市汐止區橫科路18巷32弄8號","121.617493333333","25.049865","6501100","汐止區"
"221027","281-BY","2018/01/05 19:59:45","新北市汐止區中正路68號","121.661761666667","25.069895","6501100","汐止區"
"221029","298-VK","2018/01/05 19:59:50","新北市汐止區樟樹一路137巷26號","121.640971666667","25.0659366666667","6501100","汐止區"
"221021","299-VK","2018/01/05 19:59:47","新北市汐止區水源路一段137號","121.656085","25.0623716666667","6501100","汐止區"
"221031","353-TW","2018/01/05 19:59:40","新北市汐止區福德路52號","121.635553333333","25.0663966666667","6501100","汐止區"
"221015","567-BX","2018/01/05 19:59:52","新北市汐止區大同路二段689號","121.665028333333","25.072485","6501100","汐止區"
"221035","622-UM","2018/01/05 19:59:57","新北市汐止區長江街43號","121.655751666667","25.07131","6501100","汐止區"
"221025","623-UM","2018/01/05 19:59:43","新北市汐止區秀峰路104號","121.660003333333","25.0638183333333","6501100","汐止區"
"221038","646-BX","2018/01/05 19:59:41","新北市汐止區忠孝東路493號","121.666336666667","25.0743816666667","6501100","汐止區"
"221033","647-BX","2018/01/05 19:59:53","新北市汐止區東勢街201巷133號","121.633396666667","25.04299","6501100","汐止區"
"221018","753-BX","2018/01/05 19:59:35","新北市汐止區茄苳路42號","121.665901666667","25.0707866666667","6501100","汐止區"
"220079","145-BY","2018/01/05 19:59:39","新北市板橋區僑中一街124巷86-4號","121.447668333333","25.0184116666667","6500100","板橋區"
"220080","200-UY","2018/01/05 19:59:51","新北市板橋區大觀路二段167號","121.44529","25.000215","6500100","板橋區"
"220082","610-BX","2018/01/05 19:59:40","新北市板橋區篤行路二段131巷1-2號","121.431431666667","24.9904233333333","6500100","板橋區"
"220072","277-BY","2018/01/05 19:59:50","新北市板橋區篤行路二段1巷6-3號","121.432211666667","24.992975","6500100","板橋區"
"220101","280-UM","2018/01/05 19:59:47","新北市板橋區莒光路180巷20號","121.473303333333","25.0228266666667","6500100","板橋區"
"220094","285-UM","2018/01/05 19:59:56","新北市板橋區陽明街239號","121.462998333333","25.0245283333333","6500100","板橋區"
"220053","285-VK","2018/01/05 19:59:42","新北市板橋區永豐街155號","121.475356666667","25.0202183333333","6500100","板橋區"
"220083","286-VK","2018/01/05 19:59:48","新北市板橋區僑中二街10巷1號","121.446925","25.0108233333333","6500100","板橋區"
"220081","287-VK","2018/01/05 19:59:48","新北市板橋區大觀路一段28巷88號","121.449911666667","25.0110766666667","6500100","板橋區"
"220090","288-VK","2018/01/05 19:59:40","新北市板橋區幸福路32巷48號","121.460501666667","25.022005","6500100","板橋區"
"220061","293-UM","2018/01/05 19:59:48","新北市板橋區板新路112號","121.471378333333","25.0152816666667","6500100","板橋區"
"220084","296-UM","2018/01/05 19:59:47","新北市板橋區滿平街2巷10號","121.425328333333","24.9894716666667","6500100","板橋區"
"220075","297-UM","2018/01/05 19:59:52","新北市板橋區金華街10巷122號","121.459438333333","25.0205366666667","6500100","板橋區"
"242005","281-VK","2018/01/05 19:59:57","新北市新莊區化成路352巷29號","121.467066666667","25.049155","6500500","新莊區"
"220062","305-R5","2018/01/05 19:59:53","新北市板橋區萬安街85巷2弄11號","121.484721666667","25.024535","6500100","板橋區"
"220092","307-R5","2018/01/05 19:59:57","新北市板橋區四維路259巷67號","121.460751666667","25.026735","6500100","板橋區"
"220098","317-R6","2018/01/05 19:59:49","新北市板橋區新海路72巷38號","121.462281666667","25.0227066666667","6500100","板橋區"
"220080","461-BY","2018/01/05 14:30:22","新北市板橋區華東街1-8號","121.44802","24.994815","6500100","板橋區"
"220064","486-VK","2018/01/05 19:59:42","新北市板橋區實踐路47號","121.463713333333","25.0069016666667","6500100","板橋區"
"220089","487-VK","2018/01/05 19:59:49","新北市板橋區新海路385巷32號","121.457493333333","25.0254516666667","6500100","板橋區"
"220088","491-VK","2018/01/05 19:59:48","新北市板橋區懷德街181巷5號","121.47948","25.02997","6500100","板橋區"
"220035","560-BX","2018/01/05 19:59:37","新北市板橋區新生街37號","121.456695","25.02112","6500100","板橋區"
"220103","561-BX","2018/01/05 19:59:50","新北市板橋區陽明街29巷1弄2號","121.465038333333","25.0214516666667","6500100","板橋區"
"220071","568-UM","2018/01/05 19:59:46","新北市中和區和平路200巷33-3號","121.465175","24.9944766666667","6500100","板橋區"
"220063","609-BX","2018/01/05 19:59:50","新北市板橋區中山路二段66號","121.474298333333","25.0159266666667","6500100","板橋區"
"220091","637-BX","2018/01/05 19:59:44","新北市板橋區文聖街89巷27號","121.478461666667","25.0306183333333","6500100","板橋區"
"220057","686-BX","2018/01/05 19:59:52","新北市板橋區四川路二段94號","121.451861666667","24.9945333333333","6500100","板橋區"
"220093","689-BX","2018/01/05 19:59:37","新北市板橋區長江路三段120號","121.475236666667","25.0343083333333","6500100","板橋區"
"220054","741-BX","2018/01/05 19:59:51","新北市板橋區忠孝路忠義巷9弄54號","121.465173333333","25.0047583333333","6500100","板橋區"
"220055","827-TW","2018/01/05 19:59:51","新北市板橋區仁愛路76巷2號","121.46051","24.999415","6500100","板橋區"
"220067","829-TW","2018/01/05 19:59:46","新北市板橋區中山路一段206巷74號","121.472485","25.0134733333333","6500100","板橋區"
"220102","830-TW","2018/01/05 19:59:59","新北市板橋區文聖街54號","121.47669","25.031105","6500100","板橋區"
"220074","895-R6","2018/01/05 19:59:48","新北市板橋區縣民大道一段295號","121.46097","25.0103616666667","6500100","板橋區"
"220073","985-R7","2018/01/05 19:59:54","新北市板橋區南雅西路二段117號","121.4525","25.0108633333333","6500100","板橋區"
"220097","AAC-210","2018/01/05 19:59:42","新北市板橋區文化路一段221巷26號","121.462785","25.017885","6500100","板橋區"
"220070","AAC-253","2018/01/05 19:59:50","新北市板橋區四川路一段127號","121.459885","25.0047016666667","6500100","板橋區"
