"lineid","car","time","location","longitude","latitude","cityid","cityname"
"234013","149-BY","2018/01/05 20:19:44","新北市永和區仁愛路282巷8號","121.50341","25.0086533333333","6500400","永和區"
"234007","207-UY","2018/01/05 20:19:41","新北市永和區仁愛路295號","121.504753333333","25.0093366666667","6500400","永和區"
"234081","298-R6","2018/01/05 20:19:59","新北市永和區福和路55-1號","121.523036666667","25.0077966666667","6500400","永和區"
"234038","336-UY","2018/01/05 20:19:43","新北市永和區成功路一段93巷11-1號","121.527608333333","25.0027583333333","6500400","永和區"
"234064","337-UY","2018/01/05 20:19:39","新北市永和區得和路110號","121.518398333333","25.0002","6500400","永和區"
"234086","338-UY","2018/01/05 20:19:40","新北市永和區永和路二段59號","121.514706666667","25.010985","6500400","永和區"
"234054","553-UM","2018/01/05 20:19:41","新北市永和區光復街2巷26弄1號","121.51767","25.016665","6500400","永和區"
"234017","745-BX","2018/01/05 20:19:44","新北市永和區文化路7號","121.515433333333","25.0150016666667","6500400","永和區"
"234030","746-BX","2018/01/05 20:19:46","新北市永和區民有街75巷10弄33號","121.519265","24.9960833333333","6500400","永和區"
"234061","AAD-866","2018/01/05 20:19:38","新北市永和區得和路25號","121.515661666667","25.0002916666667","6500400","永和區"
"234070","847-RS","2018/01/05 20:19:44","新北市永和區福和路263巷7弄3號","121.517996666667","25.0069483333333","6500400","永和區"
"234042","862-TW","2018/01/05 20:19:48","新北市永和區雙和街3號","121.5098","25.00168","6500400","永和區"
"234050","863-TW","2018/01/05 20:19:54","新北市永和區新生路27號","121.509248333333","25.0165933333333","6500400","永和區"
"249005","172-UM","2018/01/05 20:19:40","新北市八里區下罟子15-9號","121.379941666667","25.1394216666667","6502300","八里區"
"249001","173-UM","2018/01/05 20:19:43","新北市八里區中華路二段538號","121.398986666667","25.1451516666667","6502300","八里區"
"249004","303-UY","2018/01/05 20:19:52","新北市八里區中山路一段129巷35號","121.414155","25.1584766666667","6502300","八里區"
"249002","305-UY","2018/01/05 20:19:58","新北市八里區龍米路二段32巷18號","121.448946666667","25.14081","6502300","八里區"
"249003","593-UM","2018/01/05 20:19:38","新北市八里區訊埔路20號","121.397576666667","25.14544","6502300","八里區"
"248008","095-VK","2018/01/05 20:19:40","新北市五股區凌雲路二段18巷62-5號","121.440651666667","25.1062816666667","6501500","五股區"
"248012","247-BX","2018/01/05 20:19:55","新北市五股區民義路一段212號","121.430573333333","25.089415","6501500","五股區"
"248004","677-BX","2018/01/05 20:19:52","新北市五股區中興路四段17-4號","121.439468333333","25.0824133333333","6501500","五股區"
"248002","678-BX","2018/01/05 20:19:47","新北市五股區成泰路三段101-1號","121.44394","25.09026","6501500","五股區"
"234023","9380-KE","2018/01/05 20:19:56","新北市永和區勵行街31號","121.516435","25.0138983333333","6500400","永和區"
"234077","969-R7","2018/01/05 20:19:52","新北市永和區民享街15號","121.515393333333","24.99523","6500400","永和區"
"234074","AAC-211","2018/01/05 20:19:39","新北市永和區竹林路201巷24弄7號","121.522568333333","25.0097233333333","6500400","永和區"
"234067","AAC-212","2018/01/05 20:19:45","新北市永和區保平路236巷1弄15號","121.508515","25.0053083333333","6500400","永和區"
"234003","AAC-295","2018/01/05 20:19:57","新北市永和區大新街51號","121.515796666667","25.0083983333333","6500400","永和區"
"244004","248-BX","2018/01/05 15:23:38","新北市林口區粉寮路二段128號","121.404285","25.090495","6501700","林口區"
"243012","AAD-798","2018/01/05 20:19:52","新北市泰山區文化街42號","121.435236666667","25.063475","6501600","泰山區"
"243011","297-R6","2018/01/05 20:19:43","新北市泰山區新北大道六段313巷13弄11號","121.424705","25.0337883333333","6501600","泰山區"
"243015","380-SR","2018/01/05 20:19:43","新北市泰山區仁德路67號","121.434335","25.05663","6501600","泰山區"
"243014","421-VK","2018/01/05 20:19:47","新北市泰山區泰林路二段464-1號","121.425581666667","25.0641666666667","6501600","泰山區"
"243010","KEA-2215","2018/01/05 20:19:53","新北市泰山區明志路二段255巷2弄1號","121.427643333333","25.0473733333333","6501600","泰山區"
"243009","KEA-2216","2018/01/05 20:19:56","新北市泰山區忠孝街40巷3號","121.428438333333","25.0653416666667","6501600","泰山區"
"243013","646-TV","2018/01/05 20:19:43","新北市泰山區中央路14巷7號","121.42632","25.04376","6501600","泰山區"
"243016","680-BX","2018/01/05 20:19:50","新北市泰山區新生路28號","121.42917","25.0445583333333","6501600","泰山區"
"222003","436-BY","2018/01/05 20:19:51","新北市深坑區文化街74號","121.618166666667","25.0018533333333","6501800","深坑區"
"222002","659-BX","2018/01/05 20:19:24","新北市深坑區萬福路16巷35號","121.609175","25.0090316666667","6501800","深坑區"
"231041","001-UM","2018/01/05 20:19:50","新北市新店區民權路46-2號","121.539998333333","24.9830116666667","6500600","新店區"
"231066","0293-UT","2018/01/05 20:19:49","新北市新店區安興路105-1號","121.514615","24.977705","6500600","新店區"
"231059","046-UY","2018/01/05 20:19:52","新北市新店區安德街167號","121.508535","24.95926","6500600","新店區"
"231061","047-UY","2018/01/05 20:19:37","新北市新店區安民街133巷26號","121.515316666667","24.9694883333333","6500600","新店區"
"231060","106-UY","2018/01/05 20:19:44","新北市新店區錦秀路11巷96弄2號","121.480018333333","24.94205","6500600","新店區"
"231051","107-UY","2018/01/05 20:19:42","新北市新店區中央六街43號","121.52857","24.9755183333333","6500600","新店區"
"231048","108-UY","2018/01/05 20:19:41","新北市新店區中興路三段221-1號","121.5434","24.98271","6500600","新店區"
"231053","187-VK","2018/01/05 20:19:54","新北市新店區松林路1號","121.547393333333","24.9123866666667","6500600","新店區"
"231050","KEA-2219","2018/01/05 20:19:49","新北市新店區北新路一段96巷23號","121.54278","24.9687","6500600","新店區"
"231057","256-BX","2018/01/05 20:19:36","新北市新店區花園十二路1號","121.554785","24.9346866666667","6500600","新店區"
"231054","AAD-862","2018/01/05 20:19:44","新北市新店區檳榔路109號","121.54442","24.96154","6500600","新店區"
"231058","3712-VJ","2018/01/05 20:19:51","新北市新店區中正路360號","121.535523333333","24.9757866666667","6500600","新店區"
"231056","3713-VJ","2018/01/05 20:19:48","新北市新店區中正路328巷3號","121.537095","24.97522","6500600","新店區"
"231055","4716-K9","2018/01/05 20:19:53","新北市新店區中華路48巷16號","121.540391666667","24.96886","6500600","新店區"
"231067","4772-VM","2018/01/05 20:19:47","新北市新店區溪洲路44號","121.532931666667","24.961175","6500600","新店區"
"231065","512-UM","2018/01/05 20:19:40","新北市新店區安祥路104巷6弄36號","121.483131666667","24.9629466666667","6500600","新店區"
"231064","515-UM","2018/01/05 20:19:52","新北市新店區安和路三段89號","121.51785","24.9839783333333","6500600","新店區"
"231045","617-UM","2018/01/05 20:19:43","新北市新店區新坡一街85號","121.548961666667","24.9644933333333","6500600","新店區"
"231040","619-UM","2018/01/05 20:19:51","新北市新店區中正路211號","121.539886666667","24.9725733333333","6500600","新店區"
"231042","641-BX","2018/01/05 20:19:46","新北市新店區中興路二段235號","121.547438333333","24.975145","6500600","新店區"
"231063","645-TV","2018/01/05 20:19:45","新北市新店區安康路二段320巷15弄2號","121.504075","24.9597333333333","6500600","新店區"
"231068","718-UY","2018/01/05 20:19:45","新北市新店區寶安街30-1號","121.542123333333","24.98233","6500600","新店區"
"231049","719-UM","2018/01/05 20:19:43","新北市新店區安康路一段3-1號","121.535218333333","24.9610133333333","6500600","新店區"
"231062","720-UM","2018/01/05 20:19:38","新北市新店區安泰路7巷16號","121.48569","24.950985","6500600","新店區"
"231044","897-TW","2018/01/05 20:19:39","新北市新店區北新路三段196號","121.541428333333","24.9833466666667","6500600","新店區"
"231043","899-TW","2018/01/05 20:19:45","新北市新店區建國路133號","121.539393333333","24.978235","6500600","新店區"
"241011","013-R5","2018/01/05 20:19:36","新北市三重區龍門路148號","121.49852","25.0730316666667","6500200","三重區"
"241028","022-UY","2018/01/05 20:19:44","新北市三重區大同南路119號","121.496336666667","25.058245","6500200","三重區"
"241008","059-VK","2018/01/05 20:19:48","新北市三重區永福街211巷2弄2號","121.479845","25.0740983333333","6500200","三重區"
"241009","060-VK","2018/01/05 20:19:49","新北市三重區三和路四段382巷72號","121.480381666667","25.07823","6500200","三重區"
"241031","061-VK","2018/01/05 20:19:45","新北市三重區三寧街22號","121.489486666667","25.0598716666667","6500200","三重區"
"241015","062-VK","2018/01/05 20:19:41","新北市三重區重新路一段130號","121.500131666667","25.063005","6500200","三重區"
"241017","063-VK","2018/01/05 20:19:39","新北市三重區自強路一段290號","121.491468333333","25.0682733333333","6500200","三重區"
"241024","065-VK","2018/01/05 20:19:42","新北市三重區中正北路238號","121.481801666667","25.0678566666667","6500200","三重區"
"241026","066-VK","2018/01/05 20:19:40","新北市三重區重新路一段50號","121.502708333333","25.06379","6500200","三重區"
"241002","090-VK","2018/01/05 20:19:54","新北市三重區仁義街168號","121.497041666667","25.081055","6500200","三重區"
"241003","091-VK","2018/01/05 20:19:58","新北市三重區富華街128號","121.491903333333","25.0840683333333","6500200","三重區"
"241005","262-UM","2018/01/05 20:19:53","新北市三重區碧華街246號","121.487638333333","25.0828233333333","6500200","三重區"
"241016","266-UM","2018/01/05 20:19:37","新北市三重區大同北路54巷4號","121.494043333333","25.0634583333333","6500200","三重區"
"241022","267-UM","2018/01/05 20:19:54","新北市三重區市前街2號","121.48894","25.0619383333333","6500200","三重區"
"241018","268-UM","2018/01/05 20:19:56","新北市三重區自強路一段157號","121.493415","25.067125","6500200","三重區"
"241032","269-UM","2018/01/05 20:19:44","新北市三重區捷運路19巷8弄13號","121.48443","25.0572566666667","6500200","三重區"
"241013","270-UM","2018/01/05 20:19:55","新北市三重區三和路三段167巷21號","121.492731666667","25.0743116666667","6500200","三重區"
"241025","271-UM","2018/01/05 20:19:56","新北市三重區頂崁街187巷10號","121.478015","25.0664316666667","6500200","三重區"
"241007","398-BY","2018/01/05 20:19:45","新北市三重區溪尾街108巷31號","121.488253333333","25.0784883333333","6500200","三重區"
"241020","413-TH","2018/01/05 20:19:48","新北市三重區忠孝路一段21巷5弄1號","121.491713333333","25.0723766666667","6500200","三重區"
"241035","462-BY","2018/01/05 20:19:52","新北市三重區文化北路31號","121.499385","25.0640083333333","6500200","三重區"
"241004","475-VK","2018/01/05 20:19:44","新北市三重區仁愛街391號","121.491271666667","25.08077","6500200","三重區"
"241019","478-VK","2018/01/05 20:19:46","新北市三重區忠孝路一段31號","121.491596666667","25.0718383333333","6500200","三重區"
"241030","480-VK","2018/01/05 20:19:47","新北市三重區環河南路254巷63號","121.487688333333","25.0523883333333","6500200","三重區"
"241014","543-UM","2018/01/05 20:19:45","新北市三重區龍門路238號","121.500655","25.0737","6500200","三重區"
"241023","545-UM","2018/01/05 20:19:52","新北市三重區忠孝路三段93巷12號","121.478663333333","25.0649216666667","6500200","三重區"
"241001","547-UM","2018/01/05 20:19:44","新北市三重區溪尾街42號","121.490875","25.0769033333333","6500200","三重區"
"241012","941-UM","2018/01/05 20:19:43","新北市三重區河邊北街379-1號","121.50173","25.0764833333333","6500200","三重區"
"241029","942-UM","2018/01/05 20:19:40","新北市三重區光明路102號","121.492555","25.0563816666667","6500200","三重區"
"241033","AAC-255","2018/01/05 20:19:48","新北市三重區五谷王北街50巷22號","121.475468333333","25.051405","6500200","三重區"
"235066","003-UY","2018/01/05 20:19:46","新北市中和區保平路326巷29號","121.50633","25.0047066666667","6500300","中和區"
"235039","097-UM","2018/01/05 20:19:52","新北市中和區立人街46號","121.517738333333","24.9940383333333","6500300","中和區"
"235065","098-UM","2018/01/05 20:19:43","新北市中和區永和路128巷9號","121.497651666667","25.0069416666667","6500300","中和區"
"235068","377-QA","2018/01/05 20:19:51","新北市中和區福美路258號","121.498276666667","25.0051433333333","6500300","中和區"
"235050","4979-A6","2018/01/05 20:19:56","新北市中和區景平路472號","121.505488333333","24.993685","6500300","中和區"
"235069","4980-A6","2018/01/05 20:19:41","新北市中和區中正路440號","121.491021666667","24.9943583333333","6500300","中和區"
"235070","558-UM","2018/01/05 20:19:43","新北市中和區中正路764號","121.48525","24.9994633333333","6500300","中和區"
"235037","AAC-213","2018/01/05 20:19:46","新北市中和區秀朗路三段10巷31弄7號","121.524756666667","24.9958716666667","6500300","中和區"
"235059","AAC-215","2018/01/05 20:19:37","新北市中和區員山路22-1號","121.4835","24.9847583333333","6500300","中和區"
"247022","893-R6","2018/01/05 20:19:52","新北市蘆洲區民族路431號","121.468048333333","25.089105","6501400","蘆洲區"
"247012","546-UM","2018/01/05 20:19:55","新北市蘆洲區中興街15巷8號","121.480466666667","25.0872883333333","6501400","蘆洲區"
"247020","500-BY","2018/01/05 20:19:45","新北市蘆洲區仁愛街76號","121.470786666667","25.0943816666667","6501400","蘆洲區"
"247008","341-TH","2018/01/05 20:19:39","新北市蘆洲區集賢路238號","121.481998333333","25.0857783333333","6501400","蘆洲區"
"247010","339-TH","2018/01/05 20:19:45","新北市蘆洲區信義路224號","121.479076666667","25.08528","6501400","蘆洲區"
"247002","337-TH","2018/01/05 20:19:44","新北市蘆洲區長安街331巷15號","121.455931666667","25.0865316666667","6501400","蘆洲區"
"247004","336-TH","2018/01/05 20:19:51","新北市蘆洲區永康街1巷23號","121.459795","25.0852633333333","6501400","蘆洲區"
"247016","057-VK","2018/01/05 20:19:46","新北市蘆洲區中正路185巷45弄2號","121.465908333333","25.0836583333333","6501400","蘆洲區"
"247006","056-VK","2018/01/05 20:19:54","新北市蘆洲區九芎街167巷3號","121.465033333333","25.0785366666667","6501400","蘆洲區"
"247014","007-UY","2018/01/05 20:19:58","新北市蘆洲區中山二路137巷33號","121.472526666667","25.0806633333333","6501400","蘆洲區"
"247024","002-UY","2018/01/05 20:19:52","新北市蘆洲區光榮路120巷8弄39號","121.464585","25.0879233333333","6501400","蘆洲區"
"247018","001-UY","2018/01/05 20:19:56","新北市蘆洲區民族路309號","121.474775","25.0913133333333","6501400","蘆洲區"
"222001","KEA-2212","2018/01/05 20:19:41","新北市深坑區北深路三段260號","121.599481666667","25.0043516666667","6501800","深坑區"
"251008","181-VK","2018/01/05 20:19:47","新北市淡水區淡海路180巷18弄1號","121.421205","25.184615","6501000","淡水區"
"251010","413-VK","2018/01/05 20:19:40","新北市淡水區新民街一段132號","121.42782","25.18883","6501000","淡水區"
"251012","441-VK","2018/01/05 20:19:40","新北市淡水區淡金路三段426號","121.450588333333","25.212715","6501000","淡水區"
"251006","561-UM","2018/01/05 20:19:42","新北市淡水區北新路一段297號","121.46369","25.182015","6501000","淡水區"
"251009","575-R6","2018/01/05 20:19:24","新北市淡水區中正東路36-1號","121.448858333333","25.1657383333333","6501000","淡水區"
"251002","672-BX","2018/01/05 20:19:46","新北市淡水區中正路63號","121.441406666667","25.16954","6501000","淡水區"
"251003","673-BX","2018/01/05 20:19:40","新北市淡水區中山北路一段153號","121.443236666667","25.1774266666667","6501000","淡水區"
"207004","225-TW","2018/01/05 20:19:51","新北市萬里區北基里孝七街6號","121.683155","25.1758733333333","6502800","萬里區"
"252002","178-VK","2018/01/05 20:19:48","新北市三芝區中正路一段24號","121.503056666667","25.2585833333333","6502100","三芝區"
"252001","702-TV","2018/01/05 20:19:50","新北市三芝區中山路一段14號","121.500661666667","25.2580516666667","6502100","三芝區"
"237006","5529-G3","2018/01/05 20:19:51","新北市三峽區中園街86巷22號","121.36724","24.925145","6500900","三峽區"
"236072","105-UM","2018/01/05 20:19:39","新北市土城區三民路47號","121.419923333333","24.964035","6501300","土城區"
"236031","253-BX","2018/01/05 20:19:37","新北市土城區中華路一段14號","121.447751666667","24.9904116666667","6501300","土城區"
"236027","269-VK","2018/01/05 20:19:49","新北市土城區裕生路82巷9號","121.446896666667","24.9858166666667","6501300","土城區"
"236015","270-VK","2018/01/05 20:19:41","新北市土城區廣明街90巷18號","121.455396666667","24.994495","6501300","土城區"
"236039","271-VK","2018/01/05 20:19:48","新北市土城區明德路一段220號","121.460916666667","24.9775283333333","6501300","土城區"
"236022","401-BY","2018/01/05 20:19:54","新北市土城區延吉街41號","121.472393333333","24.9880016666667","6501300","土城區"
"236059","912-UM","2018/01/05 20:19:47","新北市土城區中央路三段130-2號","121.43468","24.9658566666667","6501300","土城區"
"242032","AAC-296","2018/01/05 20:19:43","新北市新莊區三泰路1號","121.440603333333","25.0339866666667","6500500","新莊區"
"242029","986-R7","2018/01/05 20:19:53","新北市新莊區中原路233號","121.449738333333","25.0542733333333","6500500","新莊區"
"242050","751-BX","2018/01/05 20:19:55","新北市新莊區民安西路233號","121.426046666667","25.0141","6500500","新莊區"
"242025","615-BX","2018/01/05 20:19:52","新北市新莊區五工二路62巷26號","121.461395","25.0662433333333","6500500","新莊區"
"242023","613-BX","2018/01/05 20:19:45","新北市新莊區化成路405號","121.465156666667","25.0588133333333","6500500","新莊區"
"242027","612-BX","2018/01/05 20:19:43","新北市新莊區幸福路584號","121.45381","25.0493216666667","6500500","新莊區"
"242039","566-BX","2018/01/05 20:19:45","新北市新莊區龍安路457號","121.424508333333","25.01856","6500500","新莊區"
"242044","442-UM","2018/01/05 20:19:55","新北市新莊區中正路新建巷28弄6號","121.414078333333","25.0217366666667","6500500","新莊區"
"242048","441-UM","2018/01/05 20:19:51","新北市新莊區龍安路228號","121.420473333333","25.019825","6500500","新莊區"
"242054","440-UM","2018/01/05 20:19:43","新北市新莊區西盛街367號","121.428025","25.013665","6500500","新莊區"
"242034","415-TV","2018/01/05 20:19:42","新北市新莊區建中街90巷3弄2號","121.44683","25.0373383333333","6500500","新莊區"
"242041","400-BY","2018/01/05 20:19:39","新北市新莊區天祥街54巷2弄2號","121.416776666667","25.0293283333333","6500500","新莊區"
"242060","362-BY","2018/01/05 20:19:56","新北市新莊區新樹路178號","121.434306666667","25.02149","6500500","新莊區"
"242058","353-BY","2018/01/05 20:19:45","新北市新莊區四維路183號","121.422136666667","25.021125","6500500","新莊區"
"242007","132-UY","2018/01/05 20:19:44","新北市新莊區福壽街94巷19弄4號","121.459326666667","25.0502116666667","6500500","新莊區"
"242037","133-UY","2018/01/05 20:19:53","新北市新莊區後港一路56巷24弄9號","121.42623","25.0251383333333","6500500","新莊區"
"242021","135-UY","2018/01/05 20:19:46","新北市新莊區和興街19號","121.447313333333","25.039395","6500500","新莊區"
"242046","172-VK","2018/01/05 20:19:51","新北市新莊區中正路新生巷33號","121.417161666667","25.0234366666667","6500500","新莊區"
"242009","173-VK","2018/01/05 20:19:35","新北市新莊區昌平街1號","121.455111666667","25.05131","6500500","新莊區"
"242015","175-VK","2018/01/05 20:19:56","新北市新莊區永樂街248號","121.445535","25.0444633333333","6500500","新莊區"
"242002","176-VK","2018/01/05 20:19:42","新北市新莊區化成路32號","121.46496","25.0430383333333","6500500","新莊區"
"242013","346-TH","2018/01/05 20:19:55","新北市新莊區中平路270巷7弄19號","121.445655","25.0510316666667","6500500","新莊區"
"242019","348-TH","2018/01/05 20:19:55","新北市新莊區銘德街14號","121.458948333333","25.0438033333333","6500500","新莊區"
"242056","349-TH","2018/01/05 20:19:54","新北市新莊區新莊路649巷26弄14號","121.444525","25.0319983333333","6500500","新莊區"
"242017","350-TH","2018/01/05 20:19:55","新北市新莊區中港二街71號","121.449885","25.0458383333333","6500500","新莊區"
"242011","351-TH","2018/01/05 20:19:47","新北市新莊區中信街23巷1號","121.451053333333","25.0505716666667","6500500","新莊區"
"221008","489-VK","2018/01/05 20:19:57","新北市汐止區康寧街137號","121.621201666667","25.066665","6501100","汐止區"
"221036","130-UY","2018/01/05 20:19:48","新北市汐止區福安街61巷18號","121.665051666667","25.0636183333333","6501100","汐止區"
"221010","269-BY","2018/01/05 20:19:53","新北市汐止區八連路二段376-1號","121.6296","25.101485","6501100","汐止區"
"221012","276-VK","2018/01/05 13:31:07","新北市汐止區汐萬路一段256巷3號","121.653383333333","25.0746516666667","6501100","汐止區"
"221012","278-VK","2018/01/05 20:19:38","新北市汐止區保新街99號","121.686445","25.0716416666667","6501100","汐止區"
"221023","279-VK","2018/01/05 20:19:52","新北市汐止區湖東街5巷6號","121.6337","25.0728516666667","6501100","汐止區"
"221032","280-BY","2018/01/05 20:19:45","新北市汐止區民權街二段46號","121.619388333333","25.0491616666667","6501100","汐止區"
"221027","281-BY","2018/01/05 20:19:44","新北市汐止區大同路二段483號","121.660683333333","25.0683166666667","6501100","汐止區"
"221029","298-VK","2018/01/05 20:19:50","新北市汐止區工建路90號","121.639676666667","25.0633933333333","6501100","汐止區"
"221021","299-VK","2018/01/05 20:19:47","新北市汐止區水源路一段284號","121.654275","25.0582883333333","6501100","汐止區"
"221031","353-TW","2018/01/05 20:19:40","新北市汐止區中興路150巷8號","121.63301","25.064925","6501100","汐止區"
"221015","567-BX","2018/01/05 20:19:46","新北市汐止區建成路142巷19弄17號","121.661831666667","25.0739383333333","6501100","汐止區"
"221035","622-UM","2018/01/05 20:19:37","新北市汐止區長江街101-5號","121.658685","25.0732083333333","6501100","汐止區"
"221025","623-UM","2018/01/05 20:19:43","新北市汐止區水源路二段72巷6弄5號","121.65566","25.0556833333333","6501100","汐止區"
"221038","646-BX","2018/01/05 20:19:41","新北市汐止區忠孝東路474號","121.666213333333","25.0733766666667","6501100","汐止區"
"221033","647-BX","2018/01/05 20:19:53","新北市汐止區東勢街201巷102號","121.633648333333","25.0429866666667","6501100","汐止區"
"221002","707-TV","2018/01/05 20:19:40","新北市汐止區福德三路67號","121.636758333333","25.06939","6501100","汐止區"
"221018","753-BX","2018/01/05 20:19:55","新北市汐止區茄苳路242號","121.671346666667","25.06847","6501100","汐止區"
"220101","280-UM","2018/01/05 20:19:47","新北市板橋區萬板路516號","121.48054","25.0263116666667","6500100","板橋區"
"220083","286-VK","2018/01/05 20:19:47","新北市板橋區僑中二街102巷20號","121.44532","25.0085466666667","6500100","板橋區"
"220081","287-VK","2018/01/05 20:19:48","新北市板橋區僑中一街80巷5弄7號","121.447413333333","25.0125083333333","6500100","板橋區"
"220061","293-UM","2018/01/05 20:19:45","新北市板橋區四川路一段257號","121.4597","25.0023466666667","6500100","板橋區"
"220084","296-UM","2018/01/05 20:19:47","新北市新莊區新莊路763巷6號","121.44231","25.032355","6500100","板橋區"
"242005","281-VK","2018/01/05 20:19:37","新北市新莊區頭前路16號","121.468066666667","25.0524966666667","6500500","新莊區"
"220080","461-BY","2018/01/05 20:05:54","新北市板橋區華東街1-9號","121.44812","24.9947383333333","6500100","板橋區"
"220089","487-VK","2018/01/05 20:19:49","新北市板橋區四維路199號","121.4641","25.02705","6500100","板橋區"
"220103","561-BX","2018/01/05 20:19:48","新北市板橋區陽明街269號","121.462335","25.0259166666667","6500100","板橋區"
"220055","827-TW","2018/01/05 20:19:51","新北市板橋區四川路一段371號","121.458411666667","24.9995416666667","6500100","板橋區"
"220102","830-TW","2018/01/05 20:19:59","新北市板橋區文化路一段231號","121.464005","25.0173566666667","6500100","板橋區"
"220070","AAC-253","2018/01/05 20:19:45","新北市板橋區南雅南路二段148號","121.451816666667","24.9958783333333","6500100","板橋區"
