"lineid","car","time","location","longitude","latitude","cityid","cityname"
"234064","337-UY","2018/01/05 20:39:39","新北市永和區環河西路二段219號","121.50121","25.0105166666667","6500400","永和區"
"234061","AAD-866","2018/01/05 20:39:38","新北市永和區秀朗路一段171號","121.516946666667","25.0037966666667","6500400","永和區"
"234042","862-TW","2018/01/05 20:39:48","新北市永和區自由街20號","121.514423333333","25.0064833333333","6500400","永和區"
"249001","173-UM","2018/01/05 20:39:43","新北市八里區下罟子15-9號","121.380263333333","25.13943","6502300","八里區"
"249004","303-UY","2018/01/05 20:38:52","新北市八里區中山路一段157巷19號","121.413051666667","25.1582216666667","6502300","八里區"
"248008","095-VK","2018/01/05 20:39:40","新北市林口區太平里180號","121.366541666667","25.1344583333333","6501500","五股區"
"234023","9380-KE","2018/01/05 20:39:56","新北市永和區竹林路25巷21號","121.518153333333","25.01499","6500400","永和區"
"234074","AAC-211","2018/01/05 20:39:38","新北市永和區竹林路39巷3號","121.518118333333","25.01441","6500400","永和區"
"244004","248-BX","2018/01/05 15:23:38","新北市林口區粉寮路二段128號","121.404285","25.090495","6501700","林口區"
"243014","421-VK","2018/01/05 20:39:47","新北市泰山區泰林路三段745巷145號","121.405576666667","25.0676733333333","6501600","泰山區"
"243010","KEA-2215","2018/01/05 20:39:53","新北市泰山區泰林路三段17巷3號","121.420411666667","25.0644483333333","6501600","泰山區"
"243013","646-TV","2018/01/05 20:39:43","新北市泰山區泰林路三段745巷145號","121.406291666667","25.0686133333333","6501600","泰山區"
"222003","436-BY","2018/01/05 20:39:42","新北市深坑區文山路二段30巷31號","121.615615","24.9989066666667","6501800","深坑區"
"222002","659-BX","2018/01/05 20:39:44","新北市深坑區萬福路45號","121.599443333333","25.0068866666667","6501800","深坑區"
"231041","001-UM","2018/01/05 20:39:50","新北市新店區中正路547號","121.533723333333","24.9877866666667","6500600","新店區"
"231066","0293-UT","2018/01/05 20:39:49","新北市新店區安興路112號","121.514636666667","24.9776833333333","6500600","新店區"
"231059","046-UY","2018/01/05 20:39:38","新北市新店區僑愛三路8號","121.499553333333","24.9446933333333","6500600","新店區"
"231061","047-UY","2018/01/05 20:39:56","新北市新店區新和街52號","121.51969","24.985195","6500600","新店區"
"231060","106-UY","2018/01/05 20:39:44","新北市新店區安康路三段738號","121.47387","24.9420483333333","6500600","新店區"
"231051","107-UY","2018/01/05 20:39:42","新北市新店區中央八街86號","121.526983333333","24.97735","6500600","新店區"
"231048","108-UY","2018/01/05 20:39:41","新北市新店區寶慶街36號","121.542973333333","24.9868283333333","6500600","新店區"
"231053","187-VK","2018/01/05 20:39:54","新北市新店區廣興路5巷3號","121.54562","24.9117116666667","6500600","新店區"
"231050","KEA-2219","2018/01/05 20:39:49","新北市新店區建安街26號","121.539686666667","24.975525","6500600","新店區"
"231057","256-BX","2018/01/05 20:39:56","新北市新店區花園六路二段9號","121.555651666667","24.932915","6500600","新店區"
"231054","AAD-862","2018/01/05 20:39:44","新北市新店區北新路一段64巷39弄18號","121.542503333333","24.965915","6500600","新店區"
"231058","3712-VJ","2018/01/05 20:39:51","新北市新店區平等街63號","121.535955","24.97257","6500600","新店區"
"231056","3713-VJ","2018/01/05 20:39:48","新北市新店區中央七街59號","121.528093333333","24.97635","6500600","新店區"
"231065","512-UM","2018/01/05 20:39:43","新北市新店區安祥路104巷11弄14號","121.48107","24.9636683333333","6500600","新店區"
"231064","515-UM","2018/01/05 20:39:52","新北市新店區安和路三段111巷8弄2號","121.516501666667","24.9848516666667","6500600","新店區"
"231045","617-UM","2018/01/05 20:39:43","新北市新店區長春路70號","121.551208333333","24.9581366666667","6500600","新店區"
"231040","619-UM","2018/01/05 20:39:41","新北市新店區中正路257號","121.538818333333","24.9735133333333","6500600","新店區"
"231042","641-BX","2018/01/05 20:39:46","新北市新店區寶高路120巷1-1號","121.554598333333","24.9759816666667","6500600","新店區"
"231063","645-TV","2018/01/05 20:39:45","新北市新店區玫瑰路4-1號","121.49358","24.95138","6500600","新店區"
"231068","718-UY","2018/01/05 20:39:56","新北市新店區寶慶街35巷6號","121.543056666667","24.9863416666667","6500600","新店區"
"231049","719-UM","2018/01/05 20:39:43","新北市新店區永業路81巷1弄7號","121.52991","24.9499033333333","6500600","新店區"
"231062","720-UM","2018/01/05 20:39:38","新北市新店區安康路三段131號","121.489973333333","24.9517533333333","6500600","新店區"
"231044","897-TW","2018/01/05 20:39:39","新北市新店區建國路293巷2號","121.536978333333","24.9857583333333","6500600","新店區"
"231043","899-TW","2018/01/05 20:39:45","新北市新店區建國路29號","121.540193333333","24.9740983333333","6500600","新店區"
"241011","013-R5","2018/01/05 20:39:56","新北市三重區龍濱路219巷20號","121.502863333333","25.072495","6500200","三重區"
"241028","022-UY","2018/01/05 20:39:44","新北市三重區光興街95號","121.49727","25.0599983333333","6500200","三重區"
"241008","059-VK","2018/01/05 20:39:48","新北市三重區下竹圍街42號","121.481036666667","25.074865","6500200","三重區"
"241009","060-VK","2018/01/05 20:39:49","新北市三重區碧華街51號","121.484651666667","25.0812416666667","6500200","三重區"
"241031","061-VK","2018/01/05 20:39:45","新北市三重區重陽路一段113巷1弄49號","121.488123333333","25.0586883333333","6500200","三重區"
"241015","062-VK","2018/01/05 20:39:41","新北市三重區文化北路119號","121.497758333333","25.0686633333333","6500200","三重區"
"241017","063-VK","2018/01/05 20:39:39","新北市三重區大同北路245號","121.491065","25.0668766666667","6500200","三重區"
"241024","065-VK","2018/01/05 20:39:42","新北市三重區後竹圍街289-1號","121.479048333333","25.0702933333333","6500200","三重區"
"241026","066-VK","2018/01/05 20:39:40","新北市三重區文化南路1-2號","121.499973333333","25.0625166666667","6500200","三重區"
"241002","090-VK","2018/01/05 20:39:54","新北市三重區仁義街167巷4號","121.497226666667","25.081655","6500200","三重區"
"241005","262-UM","2018/01/05 20:39:43","新北市三重區集賢路87-1號","121.493965","25.0869133333333","6500200","三重區"
"241016","266-UM","2018/01/05 20:39:57","新北市三重區長壽西街85號","121.495113333333","25.0669866666667","6500200","三重區"
"241022","267-UM","2018/01/05 20:39:37","新北市三重區中正北路20巷12號","121.487895","25.0625133333333","6500200","三重區"
"241018","268-UM","2018/01/05 20:39:56","新北市三重區重陽路四段1號","121.491101666667","25.06867","6500200","三重區"
"241032","269-UM","2018/01/05 20:39:44","新北市三重區重陽路一段120巷37號","121.484998333333","25.0602233333333","6500200","三重區"
"241013","270-UM","2018/01/05 20:39:55","新北市三重區三和路三段55號","121.495035","25.071635","6500200","三重區"
"241025","271-UM","2018/01/05 20:39:56","新北市三重區頂崁街140號","121.477593333333","25.065065","6500200","三重區"
"241007","398-BY","2018/01/05 20:39:45","新北市三重區三和路四段111號","121.485916666667","25.0772166666667","6500200","三重區"
"241020","413-TH","2018/01/05 20:39:48","新北市三重區忠孝路一段101號","121.489408333333","25.072205","6500200","三重區"
"241035","462-BY","2018/01/05 20:39:52","新北市三重區正義北路378號","121.493505","25.0715566666667","6500200","三重區"
"241004","475-VK","2018/01/05 20:39:23","新北市三重區仁愛街438號","121.489506666667","25.0818616666667","6500200","三重區"
"241019","478-VK","2018/01/05 20:39:46","新北市三重區忠孝路一段10巷10號","121.491773333333","25.0714966666667","6500200","三重區"
"241030","480-VK","2018/01/05 20:39:47","新北市三重區成功路73巷18號","121.489381666667","25.05196","6500200","三重區"
"241014","543-UM","2018/01/05 20:39:48","新北市三重區萬壽街10號","121.499203333333","25.0693533333333","6500200","三重區"
"241023","545-UM","2018/01/05 20:39:52","新北市三重區頂崁街187巷10號","121.478098333333","25.066455","6500200","三重區"
"241001","547-UM","2018/01/05 20:39:44","新北市三重區車路頭街109巷10號","121.485451666667","25.0744316666667","6500200","三重區"
"241012","941-UM","2018/01/05 20:39:43","新北市三重區秀江街31號","121.502","25.0728783333333","6500200","三重區"
"241029","942-UM","2018/01/05 20:39:40","新北市三重區集美街126巷22號","121.48991","25.0538683333333","6500200","三重區"
"241033","AAC-255","2018/01/05 20:39:48","新北市三重區興德路100號","121.472361666667","25.053175","6500200","三重區"
"235069","4980-A6","2018/01/05 20:39:41","新北市中和區員山路359巷2號","121.480923333333","25.0020466666667","6500300","中和區"
"235026","800-TS","2018/01/05 20:39:08","新北市中和區員山路36巷16-3號","121.485105","24.9912866666667","6500300","中和區"
"235037","AAC-213","2018/01/05 20:39:46","新北市新店區薏仁坑路自強巷1號","121.497825","24.95773","6500300","中和區"
"247022","893-R6","2018/01/05 20:39:52","新北市蘆洲區中正路243巷7弄1號","121.467246666667","25.0863783333333","6501400","蘆洲區"
"247012","546-UM","2018/01/05 20:39:55","新北市蘆洲區民族路236巷38弄2號","121.481205","25.0887283333333","6501400","蘆洲區"
"247020","500-BY","2018/01/05 20:39:45","新北市蘆洲區民族路331號","121.47382","25.0916666666667","6501400","蘆洲區"
"247008","341-TH","2018/01/05 20:39:49","新北市蘆洲區永安北路二段12巷10號","121.480643333333","25.081175","6501400","蘆洲區"
"247010","339-TH","2018/01/05 20:39:45","新北市蘆洲區中山一路138號","121.476341666667","25.0817366666667","6501400","蘆洲區"
"247002","337-TH","2018/01/05 20:39:44","新北市蘆洲區環堤大道142號","121.45563","25.0884383333333","6501400","蘆洲區"
"247004","336-TH","2018/01/05 20:39:51","新北市蘆洲區長安街295號","121.458085","25.0847816666667","6501400","蘆洲區"
"247016","057-VK","2018/01/05 20:39:46","新北市蘆洲區和平路48號","121.47057","25.0792816666667","6501400","蘆洲區"
"247006","056-VK","2018/01/05 20:39:54","新北市蘆洲區和平路123號","121.46739","25.0799683333333","6501400","蘆洲區"
"247014","007-UY","2018/01/05 20:39:43","新北市蘆洲區中山二路100號","121.472658333333","25.0819016666667","6501400","蘆洲區"
"247024","002-UY","2018/01/05 20:39:52","新北市蘆洲區光榮路85號","121.461963333333","25.0883833333333","6501400","蘆洲區"
"222001","KEA-2212","2018/01/05 20:39:41","新北市深坑區北深路三段232號","121.600773333333","25.00411","6501800","深坑區"
"251001","011-UM","2018/01/05 20:39:53","新北市淡水區淡金路57號","121.456103333333","25.1613483333333","6501000","淡水區"
"251010","413-VK","2018/01/05 20:39:40","新北市淡水區沙崙路181巷1號","121.424006666667","25.1843566666667","6501000","淡水區"
"251012","441-VK","2018/01/05 20:39:20","新北市淡水區興仁路108號","121.451651666667","25.2181966666667","6501000","淡水區"
"251006","561-UM","2018/01/05 20:39:42","新北市淡水區商工路141號","121.447231666667","25.1883066666667","6501000","淡水區"
"251011","650-BX","2018/01/05 20:39:47","新北市淡水區新市一路一段361號","121.436193333333","25.1862466666667","6501000","淡水區"
"251002","672-BX","2018/01/05 20:39:46","新北市淡水區中正路32號","121.443801666667","25.169215","6501000","淡水區"
"251003","673-BX","2018/01/05 20:39:40","新北市淡水區新民街152巷6弄22號","121.438753333333","25.178465","6501000","淡水區"
"252002","178-VK","2018/01/05 20:39:49","新北市三芝區淡金路二段47-2號","121.503605","25.26063","6502100","三芝區"
"252001","702-TV","2018/01/05 20:39:50","新北市三芝區育英街29-1號","121.501263333333","25.25739","6502100","三芝區"
"242032","AAC-296","2018/01/05 20:39:43","新北市新莊區三泰路23號","121.43736","25.035525","6500500","新莊區"
"242029","986-R7","2018/01/05 20:39:53","新北市新莊區昌隆街31號","121.454805","25.05098","6500500","新莊區"
"242050","751-BX","2018/01/05 20:39:55","新北市新莊區民安西路168號","121.426058333333","25.0160316666667","6500500","新莊區"
"242025","615-BX","2018/01/05 20:39:52","新北市三重區五谷王南街11巷23弄47號","121.472758333333","25.044085","6500500","新莊區"
"242023","613-BX","2018/01/05 20:39:45","新北市新莊區復興路三段117號","121.464718333333","25.0445983333333","6500500","新莊區"
"242027","612-BX","2018/01/05 20:39:41","新北市新莊區思源路45號","121.459941666667","25.03993","6500500","新莊區"
"242039","566-BX","2018/01/05 20:39:25","新北市新莊區民安路331號","121.4305","25.022935","6500500","新莊區"
"242044","442-UM","2018/01/05 20:39:54","新北市新莊區龍安路120號","121.418905","25.02009","6500500","新莊區"
"242048","441-UM","2018/01/05 20:39:53","新北市新莊區中正路785號","121.42164","25.028505","6500500","新莊區"
"242054","440-UM","2018/01/05 20:39:43","新北市新莊區民安西路189巷10弄20號","121.426435","25.0148683333333","6500500","新莊區"
"242034","415-TV","2018/01/05 20:39:56","新北市新莊區中正路380號","121.443135","25.0341833333333","6500500","新莊區"
"242041","400-BY","2018/01/05 20:39:54","新北市新莊區天祥街19巷7號","121.416883333333","25.027845","6500500","新莊區"
"242060","362-BY","2018/01/05 20:39:55","新北市新莊區新樹路268巷1號","121.43253","25.013595","6500500","新莊區"
"242007","132-UY","2018/01/05 20:39:44","新北市新莊區福壽街14巷13號","121.458651666667","25.0481916666667","6500500","新莊區"
"242037","133-UY","2018/01/05 20:39:53","新北市新莊區建安街11號","121.428928333333","25.0264783333333","6500500","新莊區"
"242046","172-VK","2018/01/05 20:39:51","新北市新莊區龍安路80號","121.417565","25.0209416666667","6500500","新莊區"
"242009","173-VK","2018/01/05 20:39:55","新北市新莊區福壽街99巷11弄1號","121.45747","25.0504316666667","6500500","新莊區"
"242015","175-VK","2018/01/05 20:39:56","新北市新莊區中和街6號","121.448506666667","25.042945","6500500","新莊區"
"242002","176-VK","2018/01/05 20:39:56","新北市新莊區中港路五守新村1巷3號","121.455293333333","25.038405","6500500","新莊區"
"242013","346-TH","2018/01/05 20:39:36","新北市新莊區中信街74號","121.448078333333","25.0524783333333","6500500","新莊區"
"242019","348-TH","2018/01/05 20:39:42","新北市新莊區中港路五守新村1巷5號","121.455396666667","25.0381683333333","6500500","新莊區"
"242056","349-TH","2018/01/05 20:39:54","新北市新莊區瓊泰路94巷59號","121.44486","25.02948","6500500","新莊區"
"242011","351-TH","2018/01/05 20:39:47","新北市新莊區中榮街120號","121.446646666667","25.052705","6500500","新莊區"
"221008","489-VK","2018/01/05 20:39:37","新北市汐止區康寧街861巷1號","121.645405","25.0760883333333","6501100","汐止區"
"221036","130-UY","2018/01/05 20:39:55","新北市汐止區新昌路21號","121.661943333333","25.06769","6501100","汐止區"
"221012","276-VK","2018/01/05 13:31:07","新北市汐止區汐萬路一段256巷3號","121.653383333333","25.0746516666667","6501100","汐止區"
"221023","279-VK","2018/01/05 20:39:52","新北市汐止區康寧街609號","121.636165","25.0708683333333","6501100","汐止區"
"221032","280-BY","2018/01/05 20:39:45","新北市汐止區橫科路322巷24弄6-1號","121.620543333333","25.05003","6501100","汐止區"
"221027","281-BY","2018/01/05 20:39:44","新北市汐止區中正路9號","121.662948333333","25.0700033333333","6501100","汐止區"
"221029","298-VK","2018/01/05 20:39:50","新北市汐止區大同路一段421號","121.642588333333","25.06113","6501100","汐止區"
"221021","299-VK","2018/01/05 20:39:47","新北市汐止區水源路一段282巷1號","121.65408","25.0581466666667","6501100","汐止區"
"221031","353-TW","2018/01/05 20:39:40","新北市汐止區中興路27巷21號","121.634096666667","25.0608466666667","6501100","汐止區"
"221015","567-BX","2018/01/05 20:39:46","新北市汐止區建成路34號","121.664128333333","25.0727466666667","6501100","汐止區"
"221035","622-UM","2018/01/05 20:39:37","新北市汐止區長江街101-5號","121.65875","25.0732383333333","6501100","汐止區"
"221025","623-UM","2018/01/05 20:39:43","新北市汐止區水源路二段182號","121.657726666667","25.0536416666667","6501100","汐止區"
"221038","646-BX","2018/01/05 20:39:41","新北市汐止區汐萬路一段115巷50號","121.65301","25.0702166666667","6501100","汐止區"
"221033","647-BX","2018/01/05 20:39:53","台北市南港區合順街8巷7弄38號","121.620223333333","25.04183","6501100","汐止區"
"221002","707-TV","2018/01/05 20:39:40","新北市汐止區福德二路125巷6弄4號","121.631008333333","25.0650533333333","6501100","汐止區"
"221018","753-BX","2018/01/05 20:39:55","新北市汐止區中華街75號","121.6682","25.0709466666667","6501100","汐止區"
"220101","280-UM","2018/01/05 20:39:47","新北市八里區下罟子17號","121.379665","25.14301","6500100","板橋區"
"242005","281-VK","2018/01/05 20:39:37","新北市新莊區化成路349巷74號","121.463321666667","25.0565766666667","6500500","新莊區"
"220080","461-BY","2018/01/05 20:05:54","新北市板橋區華東街1-9號","121.44812","24.9947383333333","6500100","板橋區"
"220089","487-VK","2018/01/05 20:39:49","新北市板橋區民生路三段319號","121.462761666667","25.0309333333333","6500100","板橋區"
"220103","561-BX","2018/01/05 20:39:48","新北市板橋區漢生東路83巷25號","121.467428333333","25.0167766666667","6500100","板橋區"
"220070","AAC-253","2018/01/05 20:39:45","新北市八里區荖阡坑路32號","121.403753333333","25.1273966666667","6500100","板橋區"
