"lineid","car","time","location","longitude","latitude","cityid","cityname"
"248008","095-VK","2018/01/05 20:59:40","新北市五股區中興路二段37巷24號","121.460723333333","25.0749766666667","6501500","五股區"
"234074","AAC-211","2018/01/05 20:59:38","新北市永和區環河西路二段49號","121.507048333333","25.015605","6500400","永和區"
"244004","248-BX","2018/01/05 15:23:38","新北市林口區粉寮路二段128號","121.404285","25.090495","6501700","林口區"
"222002","659-BX","2018/01/05 20:59:44","新北市深坑區北深路三段93巷11號","121.605406666667","25.00109","6501800","深坑區"
"231066","0293-UT","2018/01/05 20:59:49","新北市新店區安民街72號","121.516658333333","24.9665966666667","6500600","新店區"
"231059","046-UY","2018/01/05 20:59:58","新北市新店區僑信路82號","121.499653333333","24.9483366666667","6500600","新店區"
"231061","047-UY","2018/01/05 20:59:57","新北市新店區永安街32號","121.517813333333","24.9866416666667","6500600","新店區"
"231060","106-UY","2018/01/05 20:59:44","新北市新店區安康路三段381號","121.483593333333","24.95032","6500600","新店區"
"231051","107-UY","2018/01/05 20:59:42","新北市新店區中正路663巷7弄15號","121.532966666667","24.9900733333333","6500600","新店區"
"231048","108-UY","2018/01/05 20:59:41","新北市新店區文化路88號","121.544925","24.9824333333333","6500600","新店區"
"231053","187-VK","2018/01/05 20:59:54","新北市新店區北宜路一段187號","121.54716","24.9524183333333","6500600","新店區"
"231050","KEA-2219","2018/01/05 20:59:49","新北市新店區三民路117巷8弄2號","121.534076666667","24.971135","6500600","新店區"
"231054","AAD-862","2018/01/05 20:59:44","新北市新店區北新路一段126巷27號","121.543228333333","24.96946","6500600","新店區"
"231058","3712-VJ","2018/01/05 20:59:51","新北市新店區安康路二段414巷2號","121.495715","24.957805","6500600","新店區"
"231067","4772-VM","2018/01/05 20:59:47","新北市新店區安德街148巷16號","121.507766666667","24.9601866666667","6500600","新店區"
"231065","512-UM","2018/01/05 20:59:52","新北市新店區安祥路67巷28弄2號","121.484768333333","24.9595183333333","6500600","新店區"
"231064","515-UM","2018/01/05 20:59:52","新北市新店區安民街243-1號","121.516598333333","24.97257","6500600","新店區"
"231040","619-UM","2018/01/05 20:59:41","新北市新店區北新路一段100號","121.542116666667","24.9693583333333","6500600","新店區"
"231042","641-BX","2018/01/05 20:59:46","新北市新店區寶興路60巷4號","121.549765","24.9719283333333","6500600","新店區"
"231063","645-TV","2018/01/05 20:59:45","新北市新店區富貴街8巷2號","121.494476666667","24.9498933333333","6500600","新店區"
"231068","718-UY","2018/01/05 20:59:45","新北市新店區寶中路77號","121.547636666667","24.9806116666667","6500600","新店區"
"231062","720-UM","2018/01/05 20:59:38","新北市新店區雙城路45巷14號","121.492833333333","24.9480583333333","6500600","新店區"
"231043","899-TW","2018/01/05 20:59:45","新北市新店區中正路348號","121.536363333333","24.9754166666667","6500600","新店區"
"241011","013-R5","2018/01/05 20:59:56","新北市三重區秀江街119-1號","121.499648333333","25.07224","6500200","三重區"
"241028","022-UY","2018/01/05 20:59:44","新北市三重區重新路三段90號","121.493095","25.0609016666667","6500200","三重區"
"241008","059-VK","2018/01/05 20:59:48","新北市三重區車路頭街140號","121.484091666667","25.0756733333333","6500200","三重區"
"241009","060-VK","2018/01/05 20:59:49","新北市三重區三和路四段328號","121.483591666667","25.0783266666667","6500200","三重區"
"241031","061-VK","2018/01/05 20:59:45","新北市三重區重陽路一段113巷2弄2號","121.487438333333","25.05989","6500200","三重區"
"241015","062-VK","2018/01/05 20:59:41","新北市三重區福德北路46號","121.502031666667","25.065355","6500200","三重區"
"241017","063-VK","2018/01/05 20:59:39","新北市三重區大仁街23號","121.49208","25.0645133333333","6500200","三重區"
"241024","065-VK","2018/01/05 20:59:42","新北市三重區國道路一段58巷20號","121.481271666667","25.0720883333333","6500200","三重區"
"241026","066-VK","2018/01/05 20:59:40","新北市三重區文化南路39號","121.500101666667","25.0615366666667","6500200","三重區"
"241002","090-VK","2018/01/05 20:59:54","新北市三重區五華街1巷66號","121.496763333333","25.080335","6500200","三重區"
"241003","091-VK","2018/01/05 20:59:54","新北市三重區進安街196號","121.493828333333","25.0861266666667","6500200","三重區"
"241005","262-UM","2018/01/05 20:59:43","新北市三重區三信路5號","121.488605","25.0865916666667","6500200","三重區"
"241016","266-UM","2018/01/05 20:59:57","新北市三重區正義北路99號","121.497166666667","25.0653716666667","6500200","三重區"
"241022","267-UM","2018/01/05 20:59:57","新北市三重區中正北路20巷12號","121.487941666667","25.0625766666667","6500200","三重區"
"241018","268-UM","2018/01/05 20:59:56","新北市三重區自強路一段236號","121.493391666667","25.0670833333333","6500200","三重區"
"241032","269-UM","2018/01/05 20:59:45","新北市三重區新生街96號","121.483466666667","25.059315","6500200","三重區"
"241013","270-UM","2018/01/05 20:59:55","新北市三重區仁賢街6號","121.495705","25.07477","6500200","三重區"
"241025","271-UM","2018/01/05 20:59:56","新北市三重區貴陽街14號","121.484235","25.0618716666667","6500200","三重區"
"241007","398-BY","2018/01/05 20:59:47","新北市三重區三和路四段163巷73號","121.485776666667","25.0792083333333","6500200","三重區"
"241020","413-TH","2018/01/05 20:59:48","新北市三重區忠孝路二段35號","121.485913333333","25.0711083333333","6500200","三重區"
"241004","475-VK","2018/01/05 20:59:43","新北市三重區仁愛街420號","121.490406666667","25.081405","6500200","三重區"
"241019","478-VK","2018/01/05 20:59:46","新北市三重區自強路二段74巷19號","121.487973333333","25.0699016666667","6500200","三重區"
"241030","480-VK","2018/01/05 20:59:47","新北市三重區中正南路252巷5號","121.493421666667","25.052685","6500200","三重區"
"241014","543-UM","2018/01/05 20:59:45","新北市三重區長榮路75號","121.502566666667","25.06904","6500200","三重區"
"241023","545-UM","2018/01/05 20:59:52","新北市三重區洛陽街45巷15號","121.482416666667","25.0636916666667","6500200","三重區"
"241001","547-UM","2018/01/05 20:59:44","新北市三重區自強路三段87巷11號","121.48787","25.074745","6500200","三重區"
"241006","AAD-863","2018/01/05 20:59:55","新北市三重區永福街62-5號","121.480755","25.0778033333333","6500200","三重區"
"241012","941-UM","2018/01/05 20:59:43","新北市三重區仁信街29號","121.501238333333","25.0755383333333","6500200","三重區"
"241029","942-UM","2018/01/05 20:59:46","新北市三重區正義南路107號","121.498005","25.05854","6500200","三重區"
"241033","AAC-255","2018/01/05 20:59:48","新北市三重區光復路二段43號","121.4721","25.0554916666667","6500200","三重區"
"235010","031-BX","2018/01/05 20:56:17","新北市中和區員山路36巷16-2號","121.485265","24.9916083333333","6500300","中和區"
"235026","800-TS","2018/01/05 20:39:08","新北市中和區員山路36巷16-3號","121.485105","24.9912866666667","6500300","中和區"
"247022","893-R6","2018/01/05 20:59:52","新北市蘆洲區中正路263巷2號","121.467335","25.0874933333333","6501400","蘆洲區"
"247012","546-UM","2018/01/05 20:59:55","新北市蘆洲區民權路5號","121.476556666667","25.0858716666667","6501400","蘆洲區"
"247020","500-BY","2018/01/05 20:59:45","新北市蘆洲區民族路371號","121.471055","25.091225","6501400","蘆洲區"
"247008","341-TH","2018/01/05 20:59:39","新北市蘆洲區民生街74號","121.472865","25.07906","6501400","蘆洲區"
"247010","339-TH","2018/01/05 20:59:45","新北市蘆洲區鷺江街76號","121.477005","25.08379","6501400","蘆洲區"
"247002","337-TH","2018/01/05 20:59:44","新北市蘆洲區永樂街38巷57弄1-1號","121.458268333333","25.0899866666667","6501400","蘆洲區"
"247004","336-TH","2018/01/05 20:59:51","新北市蘆洲區永安南路二段268號","121.458588333333","25.08078","6501400","蘆洲區"
"247016","057-VK","2018/01/05 20:59:46","新北市蘆洲區正和街83號","121.468196666667","25.080735","6501400","蘆洲區"
"247006","056-VK","2018/01/05 20:59:54","新北市蘆洲區永安南路二段16巷16號","121.468021666667","25.0776766666667","6501400","蘆洲區"
"247014","007-UY","2018/01/05 20:59:38","新北市蘆洲區中山二路36巷38號","121.474073333333","25.083415","6501400","蘆洲區"
"247024","002-UY","2018/01/05 20:59:52","新北市蘆洲區光明路25號","121.460828333333","25.0868633333333","6501400","蘆洲區"
"247018","001-UY","2018/01/05 20:59:56","新北市蘆洲區民權路148號","121.472575","25.0894483333333","6501400","蘆洲區"
"251001","011-UM","2018/01/05 20:59:53","新北市淡水區北投子14-5號","121.448976666667","25.1832783333333","6501000","淡水區"
"251010","413-VK","2018/01/05 20:59:40","新北市淡水區淡海路22號","121.424013333333","25.1786783333333","6501000","淡水區"
"251012","441-VK","2018/01/05 20:59:40","新北市淡水區淡金路五段42號","121.453956666667","25.2330083333333","6501000","淡水區"
"251005","443-VK","2018/01/05 20:59:53","新北市淡水區學府路96號","121.449251666667","25.171085","6501000","淡水區"
"251009","575-R6","2018/01/05 20:59:40","新北市淡水區民族路168號","121.462378333333","25.1333166666667","6501000","淡水區"
"251007","577-R6","2018/01/05 20:59:48","新北市淡水區仁愛街2巷8號","121.446428333333","25.1706766666667","6501000","淡水區"
"251011","650-BX","2018/01/05 20:59:47","新北市淡水區新民街296號","121.435123333333","25.182465","6501000","淡水區"
"251002","672-BX","2018/01/05 20:59:46","新北市淡水區水源街一段107號","121.446313333333","25.1722066666667","6501000","淡水區"
"251003","673-BX","2018/01/05 20:59:55","新北市淡水區新春街103-39號","121.440783333333","25.18291","6501000","淡水區"
"242037","133-UY","2018/01/05 20:59:53","新北市新莊區環河路48-7號","121.436593333333","25.0101216666667","6500500","新莊區"
"221012","276-VK","2018/01/05 13:31:07","新北市汐止區汐萬路一段256巷3號","121.653383333333","25.0746516666667","6501100","汐止區"
"221029","298-VK","2018/01/05 20:59:50","新北市汐止區康寧街901號","121.651655","25.07495","6501100","汐止區"
"220080","461-BY","2018/01/05 20:05:54","新北市板橋區華東街1-9號","121.44812","24.9947383333333","6500100","板橋區"
"220089","487-VK","2018/01/05 20:59:49","新北市八里區商港路120號","121.392851666667","25.1500866666667","6500100","板橋區"
"220070","AAC-253","2018/01/05 20:59:45","新北市八里區中山路三段409號","121.368393333333","25.1349833333333","6500100","板橋區"
