"lineid","car","time","location","longitude","latitude","cityid","cityname"
"244004","248-BX","2018/01/05 15:23:38","新北市林口區粉寮路二段128號","121.404285","25.090495","6501700","林口區"
"231059","046-UY","2018/01/05 21:09:38","新北市新店區僑義路17巷1號","121.50032","24.9514033333333","6500600","新店區"
"231061","047-UY","2018/01/05 21:09:37","新北市新店區永平街8號","121.517346666667","24.9834816666667","6500600","新店區"
"231060","106-UY","2018/01/05 21:09:44","新北市新店區薏仁坑路6-3號","121.499551666667","24.9588166666667","6500600","新店區"
"231051","107-UY","2018/01/05 21:09:52","新北市新店區中正路678號","121.534068333333","24.989855","6500600","新店區"
"231048","108-UY","2018/01/05 21:09:41","新北市新店區寶強路9號","121.543026666667","24.9791983333333","6500600","新店區"
"231053","187-VK","2018/01/05 21:09:54","新北市新店區安康路一段214號","121.524018333333","24.9635166666667","6500600","新店區"
"231050","KEA-2219","2018/01/05 21:09:49","新北市新店區中華路147號","121.538126666667","24.970365","6500600","新店區"
"231054","AAD-862","2018/01/05 21:09:44","新北市新店區中興路一段263號","121.544601666667","24.967515","6500600","新店區"
"231067","4772-VM","2018/01/05 21:09:46","新北市新店區安康路二段316號","121.505465","24.9581783333333","6500600","新店區"
"231065","512-UM","2018/01/05 21:09:54","新北市新店區安祥路67巷2號","121.48376","24.95957","6500600","新店區"
"231064","515-UM","2018/01/05 21:09:52","新北市新店區薏仁坑路23號","121.498235","24.9590616666667","6500600","新店區"
"231040","619-UM","2018/01/05 21:09:41","新北市新店區北新路一段100號","121.542225","24.9692983333333","6500600","新店區"
"231042","641-BX","2018/01/05 21:09:46","新北市新店區寶興路60巷4號","121.549806666667","24.9718816666667","6500600","新店區"
"231063","645-TV","2018/01/05 21:09:45","新北市新店區玫瑰路58巷2號","121.495383333333","24.9466066666667","6500600","新店區"
"241011","013-R5","2018/01/05 21:09:54","新北市三重區龍濱路118-5號","121.502048333333","25.0706283333333","6500200","三重區"
"241028","022-UY","2018/01/05 21:09:44","新北市三重區正義南路47號","121.49822","25.0607416666667","6500200","三重區"
"241008","059-VK","2018/01/05 21:09:48","新北市三重區自強路一段62號","121.497315","25.0666466666667","6500200","三重區"
"241009","060-VK","2018/01/05 21:09:49","新北市三重區忠孝路二段122號","121.483003333333","25.06882","6500200","三重區"
"241031","061-VK","2018/01/05 21:09:45","新北市三重區重新路五段406-1號","121.476193333333","25.0476916666667","6500200","三重區"
"241015","062-VK","2018/01/05 21:09:45","新北市三重區長元街100-6號","121.503083333333","25.0667633333333","6500200","三重區"
"241017","063-VK","2018/01/05 21:09:39","新北市三重區大同北路132巷8號","121.492226666667","25.0646","6500200","三重區"
"241024","065-VK","2018/01/05 21:09:49","新北市三重區國道路一段58巷15號","121.481396666667","25.07201","6500200","三重區"
"241026","066-VK","2018/01/05 21:09:40","新北市三重區文化南路42號","121.500418333333","25.060265","6500200","三重區"
"241002","090-VK","2018/01/05 21:09:54","新北市三重區五華街19號","121.494973333333","25.0804633333333","6500200","三重區"
"241003","091-VK","2018/01/05 21:09:34","新北市三重區仁義街337-1號","121.495103333333","25.0849216666667","6500200","三重區"
"241005","262-UM","2018/01/05 21:09:43","新北市三重區三信路182號","121.488028333333","25.08613","6500200","三重區"
"241016","266-UM","2018/01/05 21:09:57","新北市三重區大智街12號","121.49538","25.0646","6500200","三重區"
"241022","267-UM","2018/01/05 21:09:37","新北市三重區中正北路64巷24號","121.486108333333","25.0637783333333","6500200","三重區"
"241018","268-UM","2018/01/05 21:09:36","新北市三重區六張街40號","121.49453","25.070385","6500200","三重區"
"241032","269-UM","2018/01/05 21:09:44","新北市三重區新北大道二段80-1號","121.470253333333","25.0615566666667","6500200","三重區"
"241013","270-UM","2018/01/05 21:09:55","新北市三重區仁愛街123-4號","121.49593","25.0750333333333","6500200","三重區"
"241025","271-UM","2018/01/05 21:09:56","新北市三重區中正北路208巷10弄4號","121.482431666667","25.0668533333333","6500200","三重區"
"241007","398-BY","2018/01/05 21:09:45","新北市三重區三和路四段145巷85號","121.486393333333","25.0788166666667","6500200","三重區"
"241020","413-TH","2018/01/05 21:09:48","新北市三重區忠孝路二段34號","121.485736666667","25.07104","6500200","三重區"
"241004","475-VK","2018/01/05 21:09:43","新北市三重區仁愛街423-1號","121.490375","25.0814616666667","6500200","三重區"
"241019","478-VK","2018/01/05 21:09:46","新北市三重區自強路二段74巷21號","121.487991666667","25.0698816666667","6500200","三重區"
"241030","480-VK","2018/01/05 21:09:47","新北市三重區五谷王北街20巷15弄1號","121.47508","25.0484816666667","6500200","三重區"
"241014","543-UM","2018/01/05 21:09:45","新北市三重區長安街82號","121.501446666667","25.0676433333333","6500200","三重區"
"241023","545-UM","2018/01/05 21:09:52","新北市三重區忠孝路三段50巷41弄64號","121.482408333333","25.0637216666667","6500200","三重區"
"241001","547-UM","2018/01/05 21:09:44","新北市三重區福隆路101號","121.492423333333","25.078355","6500200","三重區"
"241006","AAD-863","2018/01/05 21:09:55","新北市三重區中正北路2號","121.489308333333","25.0631783333333","6500200","三重區"
"241012","941-UM","2018/01/05 21:09:43","新北市三重區河邊北街305號","121.502438333333","25.074695","6500200","三重區"
"241029","942-UM","2018/01/05 21:09:40","新北市三重區正義南路107號","121.498203333333","25.0585516666667","6500200","三重區"
"241033","AAC-255","2018/01/05 21:09:48","新北市三重區新北大道二段45號","121.469656666667","25.0613633333333","6500200","三重區"
"235010","031-BX","2018/01/05 20:56:17","新北市中和區員山路36巷16-2號","121.485265","24.9916083333333","6500300","中和區"
"235026","800-TS","2018/01/05 20:39:08","新北市中和區員山路36巷16-3號","121.485105","24.9912866666667","6500300","中和區"
"247022","893-R6","2018/01/05 21:09:53","新北市蘆洲區民族路544號","121.467891666667","25.0891333333333","6501400","蘆洲區"
"247012","546-UM","2018/01/05 21:09:55","新北市蘆洲區三民路72號","121.475233333333","25.0838616666667","6501400","蘆洲區"
"247020","500-BY","2018/01/05 21:09:45","新北市蘆洲區民族路426巷22號","121.47301","25.092785","6501400","蘆洲區"
"247008","341-TH","2018/01/05 21:09:39","新北市蘆洲區民生街45號","121.475018333333","25.0788183333333","6501400","蘆洲區"
"247010","339-TH","2018/01/05 21:09:45","新北市蘆洲區鷺江街40號","121.477351666667","25.083105","6501400","蘆洲區"
"247002","337-TH","2018/01/05 21:09:44","新北市蘆洲區永樂街38巷42弄6號","121.458848333333","25.0898683333333","6501400","蘆洲區"
"247004","336-TH","2018/01/05 21:09:58","新北市蘆洲區永安南路二段292號","121.45731","25.0817716666667","6501400","蘆洲區"
"247016","057-VK","2018/01/05 21:09:46","新北市蘆洲區和平路166號","121.466461666667","25.0811566666667","6501400","蘆洲區"
"247006","056-VK","2018/01/05 21:09:54","新北市蘆洲區九芎街15巷4號","121.468006666667","25.07826","6501400","蘆洲區"
"247014","007-UY","2018/01/05 21:09:38","新北市蘆洲區中央路155號","121.472646666667","25.084715","6501400","蘆洲區"
"247024","002-UY","2018/01/05 21:09:52","新北市蘆洲區長興路50巷1號","121.463776666667","25.0837716666667","6501400","蘆洲區"
"247018","001-UY","2018/01/05 21:09:56","新北市蘆洲區民族路408巷12號","121.475016666667","25.0918666666667","6501400","蘆洲區"
"251001","011-UM","2018/01/05 21:09:53","新北市淡水區新市一路三段101巷16弄14號","121.446721666667","25.18381","6501000","淡水區"
"251010","413-VK","2018/01/05 21:09:40","新北市淡水區中正路一段63巷9號","121.422456666667","25.1770616666667","6501000","淡水區"
"251012","441-VK","2018/01/05 21:09:40","新北市淡水區六塊厝15號","121.453455","25.240825","6501000","淡水區"
"251005","443-VK","2018/01/05 21:09:53","新北市淡水區博愛街47號","121.44667","25.1691233333333","6501000","淡水區"
"251009","575-R6","2018/01/05 21:09:40","新北市淡水區民族路112巷53號","121.462221666667","25.13425","6501000","淡水區"
"251011","650-BX","2018/01/05 21:09:47","新北市淡水區新民街120巷45弄34號","121.437618333333","25.1799333333333","6501000","淡水區"
"251002","672-BX","2018/01/05 21:09:46","新北市淡水區英專路151號","121.448376666667","25.1748516666667","6501000","淡水區"
"251003","673-BX","2018/01/05 21:09:39","新北市淡水區新春街94號","121.439091666667","25.1823566666667","6501000","淡水區"
"221012","276-VK","2018/01/05 13:31:07","新北市汐止區汐萬路一段256巷3號","121.653383333333","25.0746516666667","6501100","汐止區"
"220080","461-BY","2018/01/05 20:05:54","新北市板橋區華東街1-9號","121.44812","24.9947383333333","6500100","板橋區"
"220089","487-VK","2018/01/05 21:09:49","新北市八里區中山路三段409號","121.368665","25.134775","6500100","板橋區"
"220070","AAC-253","2018/01/05 21:09:45","新北市八里區下罟子30-35號","121.367745","25.1351783333333","6500100","板橋區"
