"lineid","car","time","location","longitude","latitude","cityid","cityname"
"244004","248-BX","2018/01/05 15:23:38","新北市林口區粉寮路二段128號","121.404285","25.090495","6501700","林口區"
"235010","031-BX","2018/01/05 20:56:17","新北市中和區員山路36巷16-2號","121.485265","24.9916083333333","6500300","中和區"
"247003","336-TH","2018/01/05 22:16:43","新北市五股區中興路三段163號","121.449253333333","25.0809416666667","6501400","蘆洲區"
"251007","577-R6","2018/01/05 22:39:48","新北市淡水區崁頂133號","121.431153333333","25.2054316666667","6501000","淡水區"
"221012","276-VK","2018/01/05 13:31:07","新北市汐止區汐萬路一段256巷3號","121.653383333333","25.0746516666667","6501100","汐止區"
"220080","461-BY","2018/01/05 20:05:54","新北市板橋區華東街1-9號","121.44812","24.9947383333333","6500100","板橋區"
"220070","AAC-253","2018/01/05 21:49:45","新北市板橋區華東街1-9號","121.448276666667","24.99486","6500100","板橋區"
