"lineid","car","time","location","longitude","latitude","cityid","cityname"
"232001","290-BY","2018/10/15 06:49:44","新北市坪林區坪林街16-1號","121.712966666667","24.9356316666667","6502000","坪林區"
"232012","291-BY","2018/10/15 06:49:40","新北市坪林區北宜路八段238號","121.709011666667","24.9349533333333","6502000","坪林區"
"232010","375-UM","2018/10/15 06:49:28","新北市坪林區北宜路八段453號","121.705625","24.9236566666667","6502000","坪林區"
"232017","705-BZ","2018/10/15 06:49:37","新北市坪林區北宜路八段422號","121.708681666667","24.9263416666667","6502000","坪林區"
"232005","758-BX","2018/10/15 06:49:29","新北市坪林區北宜路八段301號","121.710911666667","24.93391","6502000","坪林區"
"244001","248-BX","2018/10/15 06:49:28","新北市林口區頭湖70號","121.37499","25.0887833333333","6501700","林口區"
"235001","611-BX","2018/10/15 06:49:27","新北市中和區圓通路335巷33弄53號","121.494338333333","24.9885883333333","6500300","中和區"
"235010","733-UM","2018/10/15 06:49:34","新北市中和區和平街29-1號","121.507446666667","24.9910683333333","6500300","中和區"
"223006","022-BY","2018/10/15 06:49:44","新北市石碇區楓子林30號","121.64235","25.0096316666667","6501900","石碇區"
"223002","KEA-2673","2018/10/15 06:49:16","新北市石碇區烏塗窟48號","121.654035","24.9701933333333","6501900","石碇區"
"223008","406-TH","2018/10/15 06:49:07","新北市深坑區文山路一段8號","121.644366666667","25.0088133333333","6501900","石碇區"
"223004","437-BY","2018/10/15 06:49:31","新北市石碇區碇坪路一段95號","121.662616666667","24.9898433333333","6501900","石碇區"
"223001","592-UM","2018/10/15 06:49:26","新北市石碇區湳窟30號","121.663683333333","24.9923966666667","6501900","石碇區"
"223007","661-BX","2018/10/15 06:49:41","新北市石碇區雙溪84-1號","121.66108","25.009055","6501900","石碇區"
"223005","677-TV","2018/10/15 06:49:29","新北市石碇區碇坪路一段101號","121.663201666667","24.9893833333333","6501900","石碇區"
"227005","282-VK","2018/10/15 06:49:30","新北市雙溪區新基里自強路5號","121.866313333333","25.0390333333333","6502500","雙溪區"
"242001","233-RS","2018/10/15 06:49:41","新北市新莊區中港路301號","121.452941666667","25.044535","6500500","新莊區"
