"lineid","car","time","location","longitude","latitude","cityid","cityname"
"248005","653-BX","2018/10/15 06:59:44","新北市五股區中興路二段161號","121.457791666667","25.0772033333333","6501500","五股區"
"248011","655-BX","2018/10/15 06:59:35","新北市五股區中興路二段57-6號","121.460476666667","25.0754966666667","6501500","五股區"
"232001","290-BY","2018/10/15 06:59:44","新北市坪林區桶盤嶼7-1號","121.709203333333","24.9532316666667","6502000","坪林區"
"232012","291-BY","2018/10/15 06:59:40","新北市坪林區黃舉皮寮2-1號","121.688796666667","24.9425633333333","6502000","坪林區"
"232010","375-UM","2018/10/15 06:59:28","新北市坪林區水聳淒坑5-2號","121.725235","24.9283916666667","6502000","坪林區"
"232017","705-BZ","2018/10/15 06:59:37","新北市坪林區坪雙路一段106號","121.724255","24.9470983333333","6502000","坪林區"
"232005","758-BX","2018/10/15 06:59:29","新北市坪林區魚堀17-8號","121.703048333333","24.9182833333333","6502000","坪林區"
"244001","248-BX","2018/10/15 06:59:28","新北市林口區忠孝路1號","121.364098333333","25.0761166666667","6501700","林口區"
"235001","611-BX","2018/10/15 06:59:27","新北市中和區圓通路367巷4號","121.49141","24.9892316666667","6500300","中和區"
"235010","733-UM","2018/10/15 06:59:34","新北市中和區和平街29-1號","121.507488333333","24.991045","6500300","中和區"
"226003","8452-VL","2018/10/15 06:59:31","新北市平溪區石底里公園街18-3號","121.73429","25.02548","6502400","平溪區"
"223006","022-BY","2018/10/15 06:59:44","新北市石碇區八分寮56-1號","121.645113333333","25.0177483333333","6501900","石碇區"
"223002","KEA-2673","2018/10/15 06:58:36","新北市石碇區烏塗窟48號","121.6525","24.9690866666667","6501900","石碇區"
"223008","406-TH","2018/10/15 06:59:41","新北市石碇區雙溪81-1號","121.6646","25.0092166666667","6501900","石碇區"
"223004","437-BY","2018/10/15 06:59:31","新北市石碇區碇坪路一段58號","121.657063333333","24.991375","6501900","石碇區"
"223001","592-UM","2018/10/15 06:59:26","新北市石碇區石崁35-2號","121.657626666667","24.9928916666667","6501900","石碇區"
"223007","661-BX","2018/10/15 06:59:37","新北市石碇區雙溪81-2號","121.665236666667","25.0089733333333","6501900","石碇區"
"223005","677-TV","2018/10/15 06:59:29","新北市石碇區碇坪路一段62號","121.657165","24.9914883333333","6501900","石碇區"
"227005","282-VK","2018/10/15 06:59:30","新北市雙溪區新基里自強路5號","121.866315","25.039015","6502500","雙溪區"
"252006","073-UM","2018/10/15 06:59:28","新北市三芝區埔坪里埔頭坑44號","121.504658333333","25.2618116666667","6502100","三芝區"
"252004","249-BX","2018/10/15 06:59:29","新北市三芝區埔坪里埔頭坑41號","121.504455","25.2645233333333","6502100","三芝區"
"242001","233-RS","2018/10/15 06:59:41","新北市新莊區中港路303號","121.452906666667","25.0445766666667","6500500","新莊區"
