"lineid","car","time","location","longitude","latitude","cityid","cityname"
"248005","653-BX","2018/10/15 07:49:44","新北市五股區明德路12巷6號","121.433371666667","25.0718083333333","6501500","五股區"
"248011","655-BX","2018/10/15 07:49:35","新北市五股區中興路二段11號","121.462868333333","25.0741766666667","6501500","五股區"
"232001","290-BY","2018/10/15 07:49:23","新北市坪林區下坑子口19-2號","121.708246666667","24.9473866666667","6502000","坪林區"
"232012","291-BY","2018/10/15 07:49:40","新北市坪林區金瓜寮22-1號","121.679835","24.912395","6502000","坪林區"
"232010","375-UM","2018/10/15 07:49:28","新北市坪林區厚德岡坑3號","121.730776666667","24.9405616666667","6502000","坪林區"
"232017","705-BZ","2018/10/15 07:49:37","新北市坪林區乾溪1-7號","121.736891666667","24.9752333333333","6502000","坪林區"
"232005","758-BX","2018/10/15 07:49:29","新北市坪林區魚堀49號","121.701466666667","24.930045","6502000","坪林區"
"244001","248-BX","2018/10/15 07:49:28","新北市林口區嘉溪雅坑16號","121.339426666667","25.107135","6501700","林口區"
"244012","KEA-2802","2018/10/15 07:49:42","新北市林口區粉寮路二段88巷100-12號","121.409623333333","25.0902016666667","6501700","林口區"
"222005","289-BY","2018/10/15 07:49:30","新北市深坑區文化街45號","121.616835","25.0017316666667","6501800","深坑區"
"231008","192-VK","2018/10/15 07:49:27","新北市新店區安一路一段1-1號","121.519348333333","24.961285","6500600","新店區"
"235001","611-BX","2018/10/15 07:49:27","新北市中和區圓通路367巷6號","121.491468333333","24.9892533333333","6500300","中和區"
"235010","733-UM","2018/10/15 07:49:34","新北市中和區和平街29-1號","121.507438333333","24.991105","6500300","中和區"
"226005","5620-A6","2018/10/15 07:49:41","新北市平溪區靜安路二段418號","121.739225","25.0243683333333","6502400","平溪區"
"226001","7418-A5","2018/10/15 07:49:31","新北市平溪區南山里乾坑11號","121.782698333333","25.047205","6502400","平溪區"
"226003","8452-VL","2018/10/15 07:37:51","新北市平溪區嶺腳里嶺腳寮83-2號","121.749938333333","25.0352816666667","6502400","平溪區"
"223006","022-BY","2018/10/15 07:49:40","新北市石碇區番子坑76號","121.675873333333","25.0109333333333","6501900","石碇區"
"223002","KEA-2673","2018/10/15 07:49:36","新北市石碇區北宜路五段潭腰巷14-1號","121.63721","24.934205","6501900","石碇區"
"223004","437-BY","2018/10/15 07:49:31","新北市石碇區楓子林30號","121.64227","25.00954","6501900","石碇區"
"223001","592-UM","2018/10/15 07:49:26","新北市石碇區橫坪8號","121.663801666667","24.9702","6501900","石碇區"
"223007","661-BX","2018/10/15 07:49:36","新北市石碇區大湖格21號","121.697485","25.01856","6501900","石碇區"
"223005","677-TV","2018/10/15 07:49:29","新北市石碇區楓子林30號","121.642291666667","25.009625","6501900","石碇區"
"227005","282-VK","2018/10/15 07:49:30","新北市雙溪區雙溪里太平路54號","121.86473","25.03543","6502500","雙溪區"
"252006","073-UM","2018/10/15 07:49:28","新北市三芝區古庄里茂興店60-2號","121.487383333333","25.2659716666667","6502100","三芝區"
"252004","249-BX","2018/10/15 07:49:29","新北市三芝區圓山里石曹子坑53-6號","121.51799","25.20736","6502100","三芝區"
"237001","159-UY","2018/10/15 07:49:32","新北市三峽區國慶路142號","121.375771666667","24.9396033333333","6500900","三峽區"
"242057","986-R7","2018/10/15 07:49:27","新北市新莊區中正路400號","121.44196","25.034285","6500500","新莊區"
"242008","751-BX","2018/10/15 07:49:40","新北市新莊區新泰路357巷3弄57號","121.442378333333","25.03959","6500500","新莊區"
"242026","705-TV","2018/10/15 07:49:34","新北市新莊區復興路二段174號","121.45867","25.0443916666667","6500500","新莊區"
"242024","613-BX","2018/10/15 07:49:44","新北市新莊區中港路293號","121.452821666667","25.0441733333333","6500500","新莊區"
"242028","612-BX","2018/10/15 07:49:28","新北市新莊區幸福路83號","121.4564","25.0493083333333","6500500","新莊區"
"242043","566-BX","2018/10/15 07:49:33","新北市新莊區中正路420號","121.44081","25.0336766666667","6500500","新莊區"
"242047","497-BY","2018/10/15 07:49:33","新北市新莊區龍安路249-1號","121.41931","25.0218816666667","6500500","新莊區"
"242014","442-UM","2018/10/15 07:49:28","新北市新莊區新泰路334號","121.444903333333","25.0419916666667","6500500","新莊區"
"242052","441-UM","2018/10/15 07:49:46","新北市新莊區瓊林南路75-36號","121.437686666667","25.014215","6500500","新莊區"
"242045","400-BY","2018/10/15 07:49:40","新北市新莊區新泰路357巷3弄45號","121.442056666667","25.0402183333333","6500500","新莊區"
"242022","362-BY","2018/10/15 07:49:41","新北市新莊區中港一街145號","121.447791666667","25.044985","6500500","新莊區"
"242059","353-BY","2018/10/15 07:49:31","新北市新莊區三和路12-21號","121.442195","25.0386883333333","6500500","新莊區"
"242010","132-UY","2018/10/15 07:49:35","新北市新莊區新泰路488號","121.442425","25.0457583333333","6500500","新莊區"
"242040","133-UY","2018/10/15 07:49:36","新北市新莊區新樹路29號","121.440365","25.0324166666667","6500500","新莊區"
"242033","135-UY","2018/10/15 07:49:44","新北市新莊區中正路384號","121.441973333333","25.0345516666667","6500500","新莊區"
"242049","172-VK","2018/10/15 07:49:30","新北市新莊區新樹路449巷23號","121.434751666667","25.0142116666667","6500500","新莊區"
"242012","173-VK","2018/10/15 07:49:31","新北市新莊區三和路12-10號","121.442156666667","25.036735","6500500","新莊區"
"242018","175-VK","2018/10/15 07:49:30","新北市新莊區中港一街4號","121.451883333333","25.0457083333333","6500500","新莊區"
"242006","176-VK","2018/10/15 07:49:31","新北市新莊區中和街61號","121.447431666667","25.0468683333333","6500500","新莊區"
"242001","233-RS","2018/10/15 07:49:41","新北市新莊區中港路301號","121.4529","25.0445116666667","6500500","新莊區"
"242016","346-TH","2018/10/15 07:49:46","新北市新莊區中華路一段103號","121.452678333333","25.0439283333333","6500500","新莊區"
"242001","347-TH","2018/10/15 07:49:37","新北市新莊區瓊林路89-32號","121.443326666667","25.026155","6500500","新莊區"
"242030","348-TH","2018/10/15 07:49:35","新北市新莊區新泰路500號","121.442565","25.0459916666667","6500500","新莊區"
"242003","349-TH","2018/10/15 07:49:39","新北市新莊區復興路一段59號","121.447475","25.042255","6500500","新莊區"
"242020","350-TH","2018/10/15 07:49:28","新北市新莊區中港一街10號","121.451676666667","25.045735","6500500","新莊區"
"242038","281-VK","2018/10/15 07:49:43","新北市新莊區民安路302號","121.428223333333","25.0218833333333","6500500","新莊區"
"242055","280-VK","2018/10/15 07:49:36","新北市新莊區中正路400號","121.441986666667","25.0341633333333","6500500","新莊區"
