"lineid","car","time","location","longitude","latitude","cityid","cityname"
"248005","653-BX","2018/01/30 08:28:11","新北市五股區明德路12巷6號","121.43351","25.0719066666667","6501500","五股區"
"244002","248-BX","2018/01/30 08:29:37","新北市林口區下福里99-99號","121.28574","25.1165983333333","6501700","林口區"
"222004","289-BY","2018/01/30 08:29:36","新北市深坑區王軍寮3-1號","121.617933333333","24.9845916666667","6501800","深坑區"
"222002","659-BX","2018/01/30 08:12:54","新北市深坑區文山路三段48-1號","121.609983333333","24.9985483333333","6501800","深坑區"
"231007","189-VK","2018/01/30 08:29:25","新北市新店區新潭路一段158-1號","121.529305","24.9336433333333","6500600","新店區"
"231009","192-VK","2018/01/30 08:29:42","新北市新店區新烏路三段1號","121.5517","24.9066983333333","6500600","新店區"
"235043","352-BY","2018/01/30 08:29:39","新北市中和區興南路二段347-2號","121.501075","24.980595","6500300","中和區"
"235001","611-BX","2018/01/30 08:29:36","新北市中和區錦和路216號","121.490473333333","24.99396","6500300","中和區"
"226005","5620-A6","2018/01/30 08:29:29","新北市平溪區十分里十分街259號","121.778295","25.0449616666667","6502400","平溪區"
"226002","7418-A5","2018/01/30 08:29:25","新北市平溪區東勢里芊蓁林51號","121.753063333333","25.010035","6502400","平溪區"
"226003","AGD-0702","2018/01/30 08:29:27","新北市平溪區十分里十分街259號","121.77825","25.0449583333333","6502400","平溪區"
"223006","022-BY","2018/01/30 08:29:29","新北市石碇區靜安路一段97號","121.660665","25.0072983333333","6501900","石碇區"
"223002","198-BX","2018/01/30 08:29:35","新北市石碇區靜安路一段60號","121.644898333333","25.012275","6501900","石碇區"
"223001","205-TH","2018/01/30 08:29:40","新北市石碇區北宜路六段直潭巷6號","121.659333333333","24.9363","6501900","石碇區"
"223008","406-TH","2018/01/30 08:29:29","新北市石碇區十八重溪68-2號","121.672651666667","25.0176683333333","6501900","石碇區"
"223001","437-BY","2018/01/30 08:29:30","新北市石碇區北宜路六段直潭巷6號","121.659065","24.9365966666667","6501900","石碇區"
"223007","592-UM","2018/01/30 08:29:39","新北市石碇區十八重溪68-2號","121.671718333333","25.0179366666667","6501900","石碇區"
"223004","660-BX","2018/01/30 08:29:33","新北市石碇區崩山14號","121.673816666667","24.9729383333333","6501900","石碇區"
"223005","677-TV","2018/01/30 08:29:27","新北市石碇區崩山22號","121.677136666667","24.9716066666667","6501900","石碇區"
"227006","282-VK","2018/01/30 08:29:34","新北市雙溪區平林里竹寮坑7號","121.841193333333","25.04042","6502500","雙溪區"
"227012","030-BX","2018/01/30 08:29:25","新北市雙溪區外柑里外柑腳17號","121.812641666667","25.0196866666667","6502500","雙溪區"
"252004","249-BX","2018/01/30 08:29:27","新北市三芝區興華里楓子林45-2號","121.501581666667","25.2046216666667","6502100","三芝區"
"252007","AAC-283","2018/01/30 08:29:18","新北市三芝區後厝里番社后38號","121.47236","25.2425416666667","6502100","三芝區"
"237001","159-UY","2018/01/30 08:29:38","新北市三峽區學成路398號","121.378561666667","24.9444","6500900","三峽區"
"236008","165-UM","2018/01/30 08:29:39","新北市土城區金城路二段46巷3-10號","121.455565","24.97585","6501300","土城區"
"236006","498-BY","2018/01/30 08:29:37","新北市土城區中央路四段35-3號","121.422875","24.9618983333333","6501300","土城區"
"220029","461-BY","2018/01/30 08:29:36","新北市樹林區中山路三段210-2號","121.381498333333","24.9655533333333","6500100","板橋區"
"220057","686-BX","2018/01/30 08:29:29","新北市板橋區大觀路二段31號","121.446743333333","25.0031033333333","6500100","板橋區"
