"lineid","car","time","location","longitude","latitude","cityid","cityname"
"248005","653-BX","2018/01/30 08:45:35","新北市五股區明德路12巷3號","121.433293333333","25.0717716666667","6501500","五股區"
"222004","289-BY","2018/01/30 08:39:31","新北市深坑區大崙尾1-1號","121.615743333333","24.97528","6501800","深坑區"
"222002","659-BX","2018/01/30 08:55:16","新北市深坑區文山路三段48-1號","121.609963333333","24.99857","6501800","深坑區"
"231007","189-VK","2018/01/30 08:59:25","新北市新店區小坑二路19號","121.525015","24.9137533333333","6500600","新店區"
"231009","192-VK","2018/01/30 08:59:42","新北市新店區廣興路7-5號","121.546216666667","24.9119333333333","6500600","新店區"
"235001","611-BX","2018/01/30 08:59:36","新北市中和區國光街54號","121.470626666667","25.00027","6500300","中和區"
"226005","5620-A6","2018/01/30 08:59:29","新北市平溪區靜安路二段532號","121.746088333333","25.027765","6502400","平溪區"
"226002","7418-A5","2018/01/30 08:41:25","新北市平溪區東勢里東勢格12號","121.732811666667","25.0011433333333","6502400","平溪區"
"226003","AGD-0702","2018/01/30 08:59:27","新北市平溪區石底里石底街92-1號","121.73354","25.0235366666667","6502400","平溪區"
"223001","205-TH","2018/01/30 08:59:41","新北市石碇區北宜路四段30號","121.623738333333","24.9566983333333","6501900","石碇區"
"223001","437-BY","2018/01/30 08:59:30","新北市石碇區北宜路1-2號","121.612583333333","24.9603033333333","6501900","石碇區"
"223004","660-BX","2018/01/30 08:59:32","新北市石碇區碇坪路二段25號","121.683761666667","24.9763083333333","6501900","石碇區"
"223005","677-TV","2018/01/30 08:59:27","新北市石碇區大崙16-3號","121.690258333333","24.9788666666667","6501900","石碇區"
"227006","282-VK","2018/01/30 08:59:34","新北市雙溪區上林里內平林136號","121.82087","25.0255516666667","6502500","雙溪區"
"227012","030-BX","2018/01/30 08:48:25","新北市雙溪區泰平里料角坑32號","121.795633333333","24.9770216666667","6502500","雙溪區"
"252004","249-BX","2018/01/30 08:59:27","新北市三芝區興華里田心子28號","121.494151666667","25.1989066666667","6502100","三芝區"
"252007","AAC-283","2018/01/30 08:59:38","新北市三芝區後厝里北勢子25號","121.474733333333","25.2510066666667","6502100","三芝區"
"237001","159-UY","2018/01/30 08:59:38","新北市樹林區學勤路200號","121.377288333333","24.9470966666667","6500900","三峽區"
"236008","165-UM","2018/01/30 08:59:39","新北市土城區金城路一段3號","121.439196666667","24.9688933333333","6501300","土城區"
"236002","339-SR","2018/01/30 08:59:31","新北市土城區興城路2號","121.44287","24.9735266666667","6501300","土城區"
"236006","498-BY","2018/01/30 08:59:33","新北市土城區承天路31號","121.436823333333","24.965315","6501300","土城區"
"220057","686-BX","2018/01/30 08:59:29","新北市板橋區國光路185號","121.461013333333","25.018455","6500100","板橋區"
