"lineid","car","time","location","longitude","latitude","cityid","cityname"
"248005","653-BX","2018/01/30 09:49:43","新北市五股區蓬萊路6巷43號","121.435805","25.0802983333333","6501500","五股區"
"222004","289-BY","2018/01/30 09:46:18","新北市深坑區昇高坑路51-1號","121.630555","24.99329","6501800","深坑區"
"222002","659-BX","2018/01/30 09:49:35","新北市深坑區文山路三段48-1號","121.609965","24.9985533333333","6501800","深坑區"
"231007","189-VK","2018/01/30 09:49:25","新北市新店區新潭路三段215巷25號","121.50817","24.9041316666667","6500600","新店區"
"231009","192-VK","2018/01/30 09:45:02","新北市新店區平廣路一段256號","121.50755","24.88802","6500600","新店區"
"227006","282-VK","2018/01/30 09:29:54","新北市雙溪區長源里柑腳55-1號","121.793841666667","25.0071916666667","6502500","雙溪區"
"227012","030-BX","2018/01/30 09:45:45","新北市雙溪區泰平里烏山路15號","121.794536666667","24.9504166666667","6502500","雙溪區"
"252004","249-BX","2018/01/30 09:48:47","新北市三芝區圓山里石曹子坑64號","121.524013333333","25.2125516666667","6502100","三芝區"
"252007","AAC-283","2018/01/30 09:49:38","新北市三芝區新庄里新庄子97號","121.514921666667","25.2716433333333","6502100","三芝區"
"237001","159-UY","2018/01/30 09:49:37","新北市三峽區國際二街21-5號","121.373221666667","24.9436783333333","6500900","三峽區"
"236002","339-SR","2018/01/30 09:49:30","新北市樹林區中山路三段202號","121.386586666667","24.9683333333333","6501300","土城區"
"236006","498-BY","2018/01/30 09:49:33","新北市土城區中華路二段243號","121.437573333333","24.9725","6501300","土城區"
