"lineid","car","time","location","longitude","latitude","cityid","cityname"
"248005","653-BX","2018/01/30 09:59:23","新北市五股區中興路二段37巷24號","121.460655","25.075095","6501500","五股區"
"231007","189-VK","2018/01/30 09:59:25","新北市新店區新潭路三段215巷25號","121.508103333333","24.9041716666667","6500600","新店區"
"231009","192-VK","2018/01/30 09:45:02","新北市新店區平廣路一段256號","121.50755","24.88802","6500600","新店區"
"227006","282-VK","2018/01/30 09:59:34","新北市雙溪區長源里柑腳18號","121.804823333333","25.0141783333333","6502500","雙溪區"
"227012","030-BX","2018/01/30 09:59:25","新北市坪林區鷺鶿岫4-2號","121.785476666667","24.9561883333333","6502500","雙溪區"
"252004","249-BX","2018/01/30 09:59:27","新北市三芝區錫板里棟板頭24號","121.514378333333","25.2282116666667","6502100","三芝區"
"252007","AAC-283","2018/01/30 09:59:38","新北市三芝區新庄里新庄子57-4號","121.507771666667","25.2785116666667","6502100","三芝區"
"237001","159-UY","2018/01/30 09:59:37","新北市三峽區國學街24號","121.373191666667","24.9420166666667","6500900","三峽區"
