"lineid","car","time","location","longitude","latitude","cityid","cityname"
"231007","189-VK","2018/01/30 10:21:25","新北市新店區新潭路三段130-1號","121.509758333333","24.9100466666667","6500600","新店區"
"231009","192-VK","2018/01/30 10:21:22","新北市新店區小坑一路21-1號","121.53086","24.91093","6500600","新店區"
"227006","282-VK","2018/01/30 10:21:34","新北市雙溪區外柑里外柑腳32號","121.814531666667","25.0212316666667","6502500","雙溪區"
"227012","030-BX","2018/01/30 10:21:25","新北市雙溪區泰平里料角坑40號","121.792993333333","24.9596566666667","6502500","雙溪區"
"252007","AAC-283","2018/01/30 10:21:38","新北市三芝區新庄里番社后1-1號","121.501395","25.2642933333333","6502100","三芝區"
