"lineid","car","time","location","longitude","latitude","cityid","cityname"
"234044","148-BY","2018/01/30 13:19:27","新北市永和區得和路328號","121.523288333333","24.99949","6500400","永和區"
"234066","149-BY","2018/01/30 13:19:40","新北市永和區保平路55號","121.51179","25.0071383333333","6500400","永和區"
"234005","207-UY","2018/01/30 13:19:45","新北市永和區中山路一段326號","121.506338333333","25.0065233333333","6500400","永和區"
"234078","298-R6","2018/01/30 13:19:35","新北市永和區福和路7巷7-2號","121.525495","25.0076033333333","6500400","永和區"
"234036","336-UY","2018/01/30 13:19:37","新北市永和區民樂街70號","121.527403333333","24.99842","6500400","永和區"
"234062","337-UY","2018/01/30 13:19:48","新北市永和區得和路243巷28弄21號","121.521416666667","25.0011216666667","6500400","永和區"
"234084","338-UY","2018/01/30 13:19:30","新北市永和區中正路560號","121.517265","25.0059333333333","6500400","永和區"
"234068","552-UM","2018/01/30 13:19:41","新北市永和區豫溪街33號","121.516378333333","25.00979","6500400","永和區"
"234015","745-BX","2018/01/30 13:19:44","新北市永和區環河西路一段95巷19弄4號","121.511683333333","25.0170683333333","6500400","永和區"
"234028","746-BX","2018/01/30 13:19:45","新北市永和區厚德街77號","121.524603333333","24.9987383333333","6500400","永和區"
"234054","KEA-2590","2018/01/30 13:19:48","新北市永和區中興街32號","121.516291666667","25.0117283333333","6500400","永和區"
"234012","KEA-2591","2018/01/30 13:19:43","新北市永和區信義路23號","121.513875","25.0122416666667","6500400","永和區"
"234060","AAD-866","2018/01/30 13:19:47","新北市永和區秀朗路一段120號","121.517031666667","25.0036083333333","6500400","永和區"
"234040","862-TW","2018/01/30 13:19:45","新北市永和區永貞路287巷5號","121.510756666667","25.0050716666667","6500400","永和區"
"234048","863-TW","2018/01/30 13:19:38","新北市永和區保福路二段88巷21號","121.51175","25.0139183333333","6500400","永和區"
"234025","9371-KE","2018/01/30 13:19:46","新北市永和區豫溪街28巷15號","121.515158333333","25.0092583333333","6500400","永和區"
"234010","9373-KE","2018/01/30 13:19:40","新北市永和區永和路二段405巷40號","121.514408333333","25.0170516666667","6500400","永和區"
"248017","225-UY","2018/01/30 13:19:43","新北市五股區御史路134號","121.434991666667","25.0985633333333","6501500","五股區"
"234022","9380-KE","2018/01/30 13:19:43","新北市永和區竹林路109巷7號","121.52024","25.0119866666667","6500400","永和區"
"234076","969-R7","2018/01/30 13:19:46","新北市永和區民有街28號","121.51703","24.996295","6500400","永和區"
"234072","AAC-211","2018/01/30 13:19:34","新北市永和區竹林路7號","121.516521666667","25.0149066666667","6500400","永和區"
"234001","AAC-295","2018/01/30 13:19:30","新北市永和區保福路一段54號","121.51275","25.00947","6500400","永和區"
"244002","248-BX","2018/01/30 13:19:41","新北市林口區頂福16-1號","121.356238333333","25.0885666666667","6501700","林口區"
"244009","658-BX","2018/01/30 13:19:33","新北市林口區文化三路二段302號","121.377536666667","25.0840633333333","6501700","林口區"
"231025","0293-UT","2018/01/30 13:19:35","新北市新店區環河路120號","121.536648333333","24.9682033333333","6500600","新店區"
"231028","046-UY","2018/01/30 13:19:38","新北市新店區安華路28-1號","121.519775","24.9606666666667","6500600","新店區"
"231030","047-UY","2018/01/30 13:19:42","新北市新店區安華路28-1號","121.519178333333","24.9609483333333","6500600","新店區"
"231029","106-UY","2018/01/30 13:19:47","新北市新店區安華路28-1號","121.519763333333","24.9609083333333","6500600","新店區"
"231018","107-UY","2018/01/30 13:19:43","新北市新店區安康路一段83-2號","121.529545","24.9613366666667","6500600","新店區"
"231012","108-UY","2018/01/30 13:19:27","新北市新店區安康路一段35號","121.531688333333","24.960715","6500600","新店區"
"231020","187-VK","2018/01/30 13:19:31","新北市新店區北新路一段51號","121.538143333333","24.9595266666667","6500600","新店區"
"231015","KEA-2219","2018/01/30 13:19:38","新北市新店區安康路一段152號","121.52634","24.9629516666667","6500600","新店區"
"231026","256-BX","2018/01/30 13:19:40","新北市新店區安華路28-1號","121.51988","24.9611166666667","6500600","新店區"
"231010","278-BY","2018/01/30 13:19:45","新北市新店區秀山路4號","121.532855","24.9601633333333","6500600","新店區"
"231023","AAD-862","2018/01/30 13:19:45","新北市新店區安康路一段3-1號","121.53425","24.96058","6500600","新店區"
"231027","3712-VJ","2018/01/30 13:19:29","新北市新店區安康路一段35號","121.531665","24.96072","6500600","新店區"
"231024","4716-K9","2018/01/30 13:19:40","新北市新店區安康路一段186號","121.524911666667","24.96331","6500600","新店區"
"231038","4715-K9","2018/01/30 13:19:44","新北市新店區安華路1-1號","121.519246666667","24.9604816666667","6500600","新店區"
"231036","512-UM","2018/01/30 13:19:27","新北市新店區安康路二段360號","121.501965","24.95745","6500600","新店區"
"231035","515-UM","2018/01/30 13:19:29","新北市新店區安華路28-1號","121.519515","24.9612166666667","6500600","新店區"
"231003","616-UM","2018/01/30 13:19:26","新北市新店區安華路28-1號","121.519415","24.9606966666667","6500600","新店區"
"231006","617-UM","2018/01/30 13:19:47","新北市新店區安華路28-1號","121.519343333333","24.9610083333333","6500600","新店區"
"231001","619-UM","2018/01/30 13:19:46","新北市新店區安華路28-1號","121.51937","24.9607683333333","6500600","新店區"
"231034","645-TV","2018/01/30 13:19:36","新北市新店區安華路28-1號","121.519211666667","24.96061","6500600","新店區"
"231013","719-UM","2018/01/30 13:19:30","新北市新店區安康路一段249-1號","121.524698333333","24.9632716666667","6500600","新店區"
"231032","720-UM","2018/01/30 13:19:26","新北市新店區安忠路205巷8號","121.510036666667","24.9554433333333","6500600","新店區"
"231005","897-TW","2018/01/30 13:19:37","新北市新店區安華路28-1號","121.51939","24.96073","6500600","新店區"
"231004","899-TW","2018/01/30 13:19:43","新北市新店區安華路28-1號","121.519098333333","24.9609066666667","6500600","新店區"
"231037","AKT-0513","2018/01/30 13:19:43","新北市新店區安華路28-1號","121.519471666667","24.9606133333333","6500600","新店區"
"235030","003-UY","2018/01/30 13:19:47","新北市中和區中山路二段64巷14弄2號","121.50345","25.0054866666667","6500300","中和區"
"235028","005-UY","2018/01/30 13:19:38","新北市中和區中正路166號","121.49834","24.993835","6500300","中和區"
"235027","031-BX","2018/01/30 13:19:38","新北市中和區中正路589巷1號","121.485885","24.9944383333333","6500300","中和區"
"235020","096-UM","2018/01/30 13:19:33","新北市中和區和城路一段271巷1號","121.485541666667","24.99224","6500300","中和區"
"235003","097-UM","2018/01/30 13:19:38","新北市中和區中正路19號","121.502891666667","24.9934916666667","6500300","中和區"
"235004","150-BY","2018/01/30 13:19:18","新北市中和區景新街168-2號","121.505803333333","24.9968033333333","6500300","中和區"
"235022","151-BY","2018/01/30 13:19:45","新北市中和區圓通路367巷58號","121.492241666667","24.9847333333333","6500300","中和區"
"235019","183-VK","2018/01/30 13:19:40","新北市中和區中正路637巷52弄1號","121.48545","24.993455","6500300","中和區"
"235002","185-VK","2018/01/30 13:19:41","新北市中和區大智街106巷2號","121.524008333333","24.99253","6500300","中和區"
"235031","255-BX","2018/01/30 13:19:27","新北市中和區新生街288號","121.483653333333","24.9965566666667","6500300","中和區"
"235008","293-VK","2018/01/30 13:19:34","新北市中和區員山路36巷16-2號","121.485283333333","24.9916183333333","6500300","中和區"
"235036","301-VK","2018/01/30 13:19:43","新北市中和區錦和路105號","121.49011","24.99526","6500300","中和區"
"235007","352-BY","2018/01/30 13:19:46","新北市中和區中正路2-1號","121.503071666667","24.9936316666667","6500300","中和區"
"235032","377-QA","2018/01/30 13:19:31","新北市中和區員山路36巷20號","121.485441666667","24.9909266666667","6500300","中和區"
"235025","378-QA","2018/01/30 13:19:16","新北市中和區國光街215巷71-2號","121.467956666667","24.9994066666667","6500300","中和區"
"235035","269-TV","2018/01/30 13:19:36","新北市中和區永和路458巷2弄2號","121.483956666667","25.0121366666667","6500300","中和區"
"235014","4979-A6","2018/01/30 13:19:45","新北市中和區捷運路135號","121.507005","24.9908866666667","6500300","中和區"
"235033","4980-A6","2018/01/30 13:19:35","新北市中和區圓通路295-3號","121.49447","24.991735","6500300","中和區"
"235006","551-UM","2018/01/30 13:19:30","新北市中和區大勇街44號","121.517336666667","24.9935866666667","6500300","中和區"
"235034","558-UM","2018/01/30 13:19:42","新北市中和區圓通路207號","121.497203333333","24.994435","6500300","中和區"
"235009","565-BX","2018/01/30 13:19:44","新北市中和區中興街119號","121.499898333333","24.992005","6500300","中和區"
"235018","640-BX","2018/01/30 13:19:42","新北市中和區國光街52號","121.470763333333","25.000345","6500300","中和區"
"235024","647-TV","2018/01/30 13:19:30","新北市中和區員山路36巷16-3號","121.484955","24.9917566666667","6500300","中和區"
"235011","732-UM","2018/01/30 13:19:43","新北市中和區中興街132號","121.499826666667","24.9922516666667","6500300","中和區"
"235026","800-TS","2018/01/30 13:19:45","新北市中和區景平路999巷2號","121.495393333333","25.0060633333333","6500300","中和區"
"235005","802-TS","2018/01/30 13:19:27","新北市中和區景安路6號","121.507693333333","24.9990766666667","6500300","中和區"
"235016","805-TS","2018/01/30 13:19:36","新北市中和區南山路188號","121.505915","24.9906266666667","6500300","中和區"
"235017","900-TW","2018/01/30 13:19:33","新北市中和區中正路637巷52弄1號","121.485415","24.9935316666667","6500300","中和區"
"235029","911-UM","2018/01/30 13:19:37","新北市中和區中山路二段64巷16弄2號","121.503308333333","25.0057333333333","6500300","中和區"
"235015","157-BY","2018/01/30 13:19:31","新北市中和區信義街115號","121.512005","24.9868316666667","6500300","中和區"
"235001","AAC-213","2018/01/30 13:19:32","新北市中和區景德街40號","121.517963333333","24.9914716666667","6500300","中和區"
"235021","251-BX","2018/01/30 13:19:42","新北市中和區民利街24號","121.480141666667","24.9990833333333","6500300","中和區"
"228004","212-TW","2018/01/30 13:19:40","新北市貢寮區吉林里內寮街21號","121.901346666667","24.98356","6502600","貢寮區"
"228005","828-UM","2018/01/30 13:19:38","新北市貢寮區美豐里丹裡街59-2號","121.91181","25.0587066666667","6502600","貢寮區"
"208004","AAC-292","2018/01/30 13:19:40","新北市金山區南勢湖75號","121.610651666667","25.21067","6502700","金山區"
"207002","749-BX","2018/01/30 13:19:39","新北市萬里區崁腳里崁腳路166號","121.645055","25.15581","6502800","萬里區"
"207001","662-BX","2018/01/30 13:19:36","新北市萬里區龜吼里光宇大道2號","121.67956","25.1908816666667","6502800","萬里區"
"252005","AAC-283","2018/01/30 13:19:38","新北市三芝區圓山里木屐寮38-1號","121.524805","25.2267733333333","6502100","三芝區"
"236006","498-BY","2018/01/30 13:19:26","新北市土城區大安路138巷12號","121.433881666667","24.9711066666667","6501300","土城區"
"221032","280-BY","2018/01/30 13:19:27","新北市汐止區龍安路44號","121.654201666667","25.063645","6501100","汐止區"
"220030","610-BX","2018/01/30 13:19:43","新北市板橋區華東街1-10號","121.448298333333","24.99493","6500100","板橋區"
"220012","486-VK","2018/01/30 13:19:46","新北市板橋區華東街1-9號","121.448281666667","24.9946333333333","6500100","板橋區"
"220002","741-BX","2018/01/30 13:19:45","新北市板橋區華東街1-9號","121.4481","24.9948633333333","6500100","板橋區"
