"lineid","car","time","location","longitude","latitude","cityid","cityname"
"234044","148-BY","2018/01/30 13:39:27","新北市永和區永利路322巷25號","121.525215","25.0026783333333","6500400","永和區"
"234066","149-BY","2018/01/30 13:39:40","新北市永和區永平路173巷9號","121.510116666667","25.00832","6500400","永和區"
"234005","207-UY","2018/01/30 13:39:45","新北市永和區永和路一段100號","121.513353333333","25.0068933333333","6500400","永和區"
"234078","298-R6","2018/01/30 13:39:41","新北市永和區林森路44巷6弄10號","121.525608333333","25.0050916666667","6500400","永和區"
"234036","336-UY","2018/01/30 13:39:46","新北市永和區民樂街37巷7號","121.528088333333","25.0008733333333","6500400","永和區"
"234062","337-UY","2018/01/30 13:39:40","新北市永和區秀朗路一段192巷6弄7號","121.519433333333","25.00208","6500400","永和區"
"234084","338-UY","2018/01/30 13:39:41","新北市永和區成功路一段28巷11號","121.52629","25.004745","6500400","永和區"
"234068","552-UM","2018/01/30 13:39:41","新北市永和區永和路二段181號","121.515368333333","25.01338","6500400","永和區"
"234015","745-BX","2018/01/30 13:39:44","新北市永和區永和路二段425巷62號","121.513758333333","25.0173733333333","6500400","永和區"
"234028","746-BX","2018/01/30 13:39:45","新北市永和區民權路1巷10號","121.520901666667","24.99832","6500400","永和區"
"234054","KEA-2590","2018/01/30 13:39:28","新北市永和區竹林路39巷10號","121.51831","25.0144533333333","6500400","永和區"
"234012","KEA-2591","2018/01/30 13:39:43","新北市永和區仁愛路203號","121.50992","25.0124566666667","6500400","永和區"
"234060","AAD-866","2018/01/30 13:39:27","新北市永和區中正路434號","121.517518333333","25.0024883333333","6500400","永和區"
"234040","862-TW","2018/01/30 13:39:45","新北市永和區中和路305巷2弄1號","121.506663333333","25.00017","6500400","永和區"
"234048","863-TW","2018/01/30 13:39:43","新北市永和區保安路76號","121.509946666667","25.0163666666667","6500400","永和區"
"234025","9371-KE","2018/01/30 13:39:24","新北市永和區永平路173號","121.510603333333","25.00903","6500400","永和區"
"234010","9373-KE","2018/01/30 13:39:40","新北市永和區保福路二段23巷19號","121.510123333333","25.0111766666667","6500400","永和區"
"248017","225-UY","2018/01/30 13:39:43","新北市五股區民義路二段54-1號","121.406466666667","25.1075516666667","6501500","五股區"
"234022","9380-KE","2018/01/30 13:39:43","新北市永和區豫溪街53號","121.51712","25.010005","6500400","永和區"
"234076","969-R7","2018/01/30 13:39:42","新北市永和區得和路184號","121.519935","25.0000916666667","6500400","永和區"
"234072","AAC-211","2018/01/30 13:39:34","新北市永和區竹林路211號","121.520926666667","25.00885","6500400","永和區"
"234001","AAC-295","2018/01/30 13:39:30","新北市永和區福和路346號","121.514966666667","25.007305","6500400","永和區"
"244002","248-BX","2018/01/30 13:39:41","新北市林口區文化北路一段208號","121.357968333333","25.07071","6501700","林口區"
"244009","658-BX","2018/01/30 13:39:33","新北市林口區忠孝二路55號","121.363853333333","25.0701033333333","6501700","林口區"
"231002","002-UM","2018/01/30 13:39:45","新北市新店區溪園路405號","121.524096666667","24.9781933333333","6500600","新店區"
"231025","0293-UT","2018/01/30 13:39:35","新北市新店區中央六街56號","121.527876666667","24.9757283333333","6500600","新店區"
"231028","046-UY","2018/01/30 13:39:38","新北市新店區安和路二段166-1號","121.519453333333","24.9737833333333","6500600","新店區"
"231030","047-UY","2018/01/30 13:39:42","新北市新店區安康路一段70號","121.528525","24.9617716666667","6500600","新店區"
"231029","106-UY","2018/01/30 13:39:27","新北市新店區安康路二段216號","121.50987","24.9593683333333","6500600","新店區"
"231018","107-UY","2018/01/30 13:39:43","新北市新店區百忍街17巷2號","121.534176666667","24.975665","6500600","新店區"
"231012","108-UY","2018/01/30 13:39:38","新北市新店區德正街27巷29弄28號","121.545795","24.972295","6500600","新店區"
"231020","187-VK","2018/01/30 13:39:31","新北市新店區永興路95-3號","121.544495","24.9325516666667","6500600","新店區"
"231015","KEA-2219","2018/01/30 13:39:38","新北市新店區竹林路2巷7號","121.550988333333","24.951745","6500600","新店區"
"231026","256-BX","2018/01/30 13:39:40","新北市新店區光明街119號","121.538988333333","24.961615","6500600","新店區"
"231010","278-BY","2018/01/30 13:39:45","新北市新店區中正路305號","121.536566666667","24.97465","6500600","新店區"
"231023","AAD-862","2018/01/30 13:39:45","新北市新店區新店路208號","121.537198333333","24.956365","6500600","新店區"
"231027","3712-VJ","2018/01/30 13:39:42","新北市新店區北宜路一段105巷4弄1號","121.539861666667","24.95546","6500600","新店區"
"231024","4716-K9","2018/01/30 13:39:40","新北市新店區華興街23號","121.537673333333","24.969175","6500600","新店區"
"231038","4715-K9","2018/01/30 13:39:44","新北市新店區安華路30巷1號","121.519626666667","24.9592683333333","6500600","新店區"
"231036","512-UM","2018/01/30 13:39:37","新北市新店區安祥路147巷68號","121.475973333333","24.9559033333333","6500600","新店區"
"231035","515-UM","2018/01/30 13:39:37","新北市新店區安忠路94-1號","121.511171666667","24.9572983333333","6500600","新店區"
"231003","616-UM","2018/01/30 13:39:45","新北市新店區中正路41號","121.544945","24.9697683333333","6500600","新店區"
"231006","617-UM","2018/01/30 13:39:27","新北市新店區北宜路一段108號","121.539073333333","24.9552783333333","6500600","新店區"
"231001","619-UM","2018/01/30 13:39:34","新北市新店區中正路361號","121.53505","24.9762516666667","6500600","新店區"
"231034","645-TV","2018/01/30 13:39:36","新北市新店區車子路109號","121.505203333333","24.9521066666667","6500600","新店區"
"231013","719-UM","2018/01/30 13:39:30","新北市新店區中正路454-5號","121.534508333333","24.9791116666667","6500600","新店區"
"231032","720-UM","2018/01/30 13:39:46","新北市新店區莒光路40號","121.523411666667","24.9585433333333","6500600","新店區"
"231005","897-TW","2018/01/30 13:39:37","新北市新店區寶中路72號","121.54785","24.980625","6500600","新店區"
"231004","899-TW","2018/01/30 13:39:43","新北市新店區北新路二段1號","121.54273","24.9712566666667","6500600","新店區"
"231037","AKT-0513","2018/01/30 13:39:43","新北市新店區安康路二段311號","121.499855","24.9569083333333","6500600","新店區"
"235030","003-UY","2018/01/30 13:39:47","新北市中和區水源路45號","121.504813333333","25.00357","6500300","中和區"
"235028","005-UY","2018/01/30 13:39:38","新北市中和區連城路125號","121.496136666667","24.9992683333333","6500300","中和區"
"235027","031-BX","2018/01/30 13:39:38","新北市中和區中正路700號","121.486033333333","24.9963233333333","6500300","中和區"
"235020","096-UM","2018/01/30 13:39:33","新北市中和區員山路466巷21弄44號","121.480958333333","25.00746","6500300","中和區"
"235003","097-UM","2018/01/30 13:39:45","新北市中和區大勇街25巷29弄1號","121.515185","24.9937916666667","6500300","中和區"
"235004","150-BY","2018/01/30 13:39:38","新北市中和區安平路59號","121.509441666667","24.99513","6500300","中和區"
"235022","151-BY","2018/01/30 13:39:45","新北市中和區圓通路369巷39號","121.489703333333","24.9859783333333","6500300","中和區"
"235019","183-VK","2018/01/30 13:39:40","新北市中和區莒光路120巷19弄2號","121.471758333333","25.00072","6500300","中和區"
"235002","185-VK","2018/01/30 13:39:41","新北市中和區自強路60號","121.519806666667","24.99451","6500300","中和區"
"235013","186-VK","2018/01/30 13:39:41","新北市中和區景平路480號","121.505055","24.993705","6500300","中和區"
"235031","255-BX","2018/01/30 13:39:46","新北市中和區新生街220巷13號","121.482936666667","24.998495","6500300","中和區"
"235008","293-VK","2018/01/30 13:39:42","新北市中和區復興路280巷5號","121.502275","24.9909266666667","6500300","中和區"
"235036","301-VK","2018/01/30 13:39:43","新北市中和區連城路87-1號","121.496658333333","25.0002033333333","6500300","中和區"
"235007","352-BY","2018/01/30 13:39:45","新北市中和區景平路159巷1號","121.51271","24.9923083333333","6500300","中和區"
"235032","377-QA","2018/01/30 13:39:31","新北市中和區中正路211巷13弄5號","121.497163333333","24.9931233333333","6500300","中和區"
"235025","378-QA","2018/01/30 13:39:36","新北市中和區民享街90巷8號","121.474235","25.000385","6500300","中和區"
"235035","269-TV","2018/01/30 13:39:35","新北市中和區中原街92號","121.48805","25.0101783333333","6500300","中和區"
"235014","4979-A6","2018/01/30 13:39:45","新北市中和區景新街496巷28-1號","121.513398333333","24.9856366666667","6500300","中和區"
"235033","4980-A6","2018/01/30 13:39:35","新北市中和區連城路89巷7-3號","121.4973","24.9990083333333","6500300","中和區"
"235006","551-UM","2018/01/30 13:39:30","新北市中和區成功路97巷18弄1號","121.526821666667","24.9916683333333","6500300","中和區"
"235034","558-UM","2018/01/30 13:34:38","新北市中和區景平路429號","121.501428333333","24.99532","6500300","中和區"
"235009","565-BX","2018/01/30 13:39:44","新北市中和區南山路236巷21號","121.505651666667","24.9885733333333","6500300","中和區"
"235018","640-BX","2018/01/30 13:39:42","新北市中和區民享街86巷28號","121.473235","25.0006083333333","6500300","中和區"
"235024","647-TV","2018/01/30 13:39:30","新北市中和區員山路453號","121.480588333333","25.0042783333333","6500300","中和區"
"235011","732-UM","2018/01/30 13:39:43","新北市中和區興南路二段3巷3號","121.508063333333","24.986415","6500300","中和區"
"235026","800-TS","2018/01/30 13:39:45","新北市中和區景平路703巷2弄17號","121.495551666667","25.0037466666667","6500300","中和區"
"235005","802-TS","2018/01/30 13:39:27","新北市中和區新興街6巷13號","121.512113333333","25.0022316666667","6500300","中和區"
"235016","805-TS","2018/01/30 13:39:40","新北市中和區興南路三段52巷2-5號","121.494555","24.9758883333333","6500300","中和區"
"235012","896-TW","2018/01/30 13:39:40","新北市中和區中正路76號","121.500748333333","24.993605","6500300","中和區"
"235017","900-TW","2018/01/30 13:39:33","新北市中和區民德路266號","121.468031666667","24.9966233333333","6500300","中和區"
"235029","911-UM","2018/01/30 13:39:37","新北市中和區中山路二段2巷45弄44號","121.501745","25.006315","6500300","中和區"
"235015","157-BY","2018/01/30 13:39:31","新北市中和區華新街143巷106弄5號","121.506035","24.9789333333333","6500300","中和區"
"235001","AAC-213","2018/01/30 13:39:32","新北市中和區景平路111巷67號","121.515121666667","24.9903433333333","6500300","中和區"
"235023","AAC-215","2018/01/30 13:39:41","新北市中和區員山路36巷16-4號","121.485321666667","24.9918516666667","6500300","中和區"
"220016","013-TV","2018/01/30 13:39:30","新北市板橋區民生路二段161巷3號","121.470213333333","25.0197966666667","6500100","板橋區"
"220013","072-UY","2018/01/30 13:39:40","新北市板橋區漢生東路282號","121.471196666667","25.008965","6500100","板橋區"
"220034","073-UY","2018/01/30 13:39:40","新北市板橋區南雅西路二段192巷3號","121.452028333333","25.01445","6500100","板橋區"
"247011","546-UM","2018/01/30 13:39:45","新北市五股區中興路三段163號","121.449215","25.0806216666667","6501400","蘆洲區"
"247003","336-TH","2018/01/30 13:39:40","新北市五股區中興路二段182巷15弄13號","121.457166666667","25.0816633333333","6501400","蘆洲區"
"247005","056-VK","2018/01/30 13:39:35","新北市五股區中興路二段182巷15弄13號","121.457231666667","25.0816133333333","6501400","蘆洲區"
"235021","251-BX","2018/01/30 13:39:42","新北市中和區民享街97巷19號","121.47538","24.99955","6500300","中和區"
"228004","212-TW","2018/01/30 13:36:00","新北市貢寮區龍崗里石壁坑街24號","121.911585","24.9979233333333","6502600","貢寮區"
"228005","828-UM","2018/01/30 13:39:38","新北市貢寮區美豐里文秀坑1號","121.902806666667","25.05373","6502600","貢寮區"
"208004","AAC-292","2018/01/30 13:39:40","新北市金山區南勢湖67號","121.616101666667","25.215105","6502700","金山區"
"207002","749-BX","2018/01/30 13:39:39","新北市萬里區崁腳里崁腳路166號","121.645063333333","25.1558516666667","6502800","萬里區"
"207001","662-BX","2018/01/30 13:39:36","新北市金山區中華路21-1號","121.638088333333","25.215565","6502800","萬里區"
"252005","AAC-283","2018/01/30 13:39:37","新北市三芝區圓山里二坪頂77-1號","121.537578333333","25.2382766666667","6502100","三芝區"
"236075","166-UM","2018/01/30 13:39:39","新北市土城區員福街38號","121.440981666667","24.97886","6501300","土城區"
"236024","269-VK","2018/01/30 13:39:44","新北市土城區城林路6巷80號","121.438413333333","24.97959","6501300","土城區"
"236013","270-VK","2018/01/30 13:39:31","新北市土城區城林路6巷80號","121.438465","24.979785","6501300","土城區"
"236034","271-VK","2018/01/30 13:39:40","新北市土城區城林路6巷80號","121.4384","24.9798083333333","6501300","土城區"
"236017","401-BY","2018/01/30 13:39:34","新北市土城區城林路6巷80號","121.438535","24.9797716666667","6501300","土城區"
"236006","498-BY","2018/01/30 13:39:46","新北市土城區慶祥街1巷11號","121.43743","24.9744033333333","6501300","土城區"
"236054","AAC-216","2018/01/30 13:39:40","新北市土城區城林路6巷80號","121.43851","24.9797683333333","6501300","土城區"
"221032","280-BY","2018/01/30 13:39:47","新北市汐止區仁愛路25號","121.659321666667","25.06372","6501100","汐止區"
"220027","145-BY","2018/01/30 13:39:51","新北市板橋區國光路33號","121.45721","25.0175533333333","6500100","板橋區"
"220028","200-UY","2018/01/30 13:39:39","新北市板橋區大觀路二段435號","121.441903333333","24.9949266666667","6500100","板橋區"
"220030","610-BX","2018/01/30 13:39:43","新北市板橋區大觀路三段59巷17弄6-1號","121.437796666667","24.9953483333333","6500100","板橋區"
"220045","255-TC","2018/01/30 13:39:46","新北市板橋區民生路二段120號","121.470336666667","25.01977","6500100","板橋區"
"220004","276-BY","2018/01/30 13:39:38","新北市板橋區四川路二段140巷18號","121.44939","24.993305","6500100","板橋區"
"220020","277-BY","2018/01/30 13:39:29","新北市板橋區大觀路二段431-1號","121.441593333333","24.994915","6500100","板橋區"
"220019","283-VK","2018/01/30 13:39:39","新北市板橋區華東街1-10號","121.448638333333","24.9948833333333","6500100","板橋區"
"220043","285-UM","2018/01/30 13:39:46","新北市板橋區民生路二段161巷1號","121.470148333333","25.0198683333333","6500100","板橋區"
"220001","285-VK","2018/01/30 13:39:40","新北市板橋區民生路二段161巷1號","121.47019","25.01993","6500100","板橋區"
"220031","286-VK","2018/01/30 13:39:25","新北市板橋區華東街1-8號","121.447548333333","24.9950066666667","6500100","板橋區"
"220029","287-VK","2018/01/30 13:39:36","新北市板橋區板城路421號","121.448035","24.99639","6500100","板橋區"
"220009","293-UM","2018/01/30 13:39:48","新北市板橋區民生路二段120號","121.470353333333","25.019745","6500100","板橋區"
"220032","296-UM","2018/01/30 13:39:28","新北市板橋區板城路421號","121.447923333333","24.9963716666667","6500100","板橋區"
"220023","303-R5","2018/01/30 13:39:37","新北市板橋區南雅南路二段120-2號","121.452401666667","24.9998433333333","6500100","板橋區"
"220012","486-VK","2018/01/30 13:39:45","新北市板橋區縣民大道一段310號","121.46155","25.0107433333333","6500100","板橋區"
"220104","560-BX","2018/01/30 13:39:30","新北市板橋區南雅西路二段145巷6號","121.451588333333","25.011885","6500100","板橋區"
"220005","686-BX","2018/01/30 13:39:49","新北市板橋區華東街1-9號","121.448228333333","24.9949433333333","6500100","板橋區"
"220025","687-BX","2018/01/30 13:39:40","新北市板橋區大觀路三段212巷36號","121.42961","24.993235","6500100","板橋區"
"220002","741-BX","2018/01/30 13:39:45","新北市板橋區華東街1-9號","121.448088333333","24.99491","6500100","板橋區"
"220014","829-TW","2018/01/30 13:39:34","新北市板橋區民生路二段161巷3號","121.470235","25.0198033333333","6500100","板橋區"
"220022","895-R6","2018/01/30 13:39:44","新北市板橋區南雅南路一段43號","121.455998333333","25.00632","6500100","板橋區"
"220046","AAC-210","2018/01/30 13:39:33","新北市板橋區民生路二段161巷9號","121.470278333333","25.01965","6500100","板橋區"
"220018","AAC-253","2018/01/30 13:39:37","新北市板橋區華東街1-10號","121.448268333333","24.9949166666667","6500100","板橋區"
