"lineid","car","time","location","longitude","latitude","cityid","cityname"
"234044","148-BY","2018/01/30 13:49:27","新北市永和區永利路137號","121.523998333333","25.00342","6500400","永和區"
"234066","149-BY","2018/01/30 13:49:40","新北市永和區中山路一段281巷2弄1號","121.507385","25.0066183333333","6500400","永和區"
"234005","207-UY","2018/01/30 13:49:45","新北市永和區中和路573號","121.511695","25.0033766666667","6500400","永和區"
"234078","298-R6","2018/01/30 13:49:45","新北市永和區林森路77號","121.523928333333","25.0039683333333","6500400","永和區"
"234036","336-UY","2018/01/30 13:49:37","新北市永和區民樂街55巷2號","121.527491666667","24.99832","6500400","永和區"
"234062","337-UY","2018/01/30 13:49:40","新北市永和區中正路368巷23號","121.518433333333","25.00083","6500400","永和區"
"234084","338-UY","2018/01/30 13:49:30","新北市永和區林森路62號","121.523816666667","25.00437","6500400","永和區"
"234068","552-UM","2018/01/30 13:49:41","新北市永和區竹林路77號","121.519391666667","25.0127966666667","6500400","永和區"
"234015","745-BX","2018/01/30 13:49:44","新北市永和區文化路9巷2號","121.515265","25.0149816666667","6500400","永和區"
"234028","746-BX","2018/01/30 13:49:45","新北市永和區民生路63號","121.522653333333","24.9974016666667","6500400","永和區"
"234054","KEA-2590","2018/01/30 13:49:48","新北市永和區竹林路39巷28弄12號","121.51947","25.0144416666667","6500400","永和區"
"234012","KEA-2591","2018/01/30 13:49:43","新北市永和區保生路55號","121.504701666667","25.01064","6500400","永和區"
"234060","AAD-866","2018/01/30 13:49:40","新北市永和區中正路281號","121.51761","25.00121","6500400","永和區"
"234040","862-TW","2018/01/30 13:49:45","新北市永和區中和路389巷1弄1號","121.508436666667","25.000335","6500400","永和區"
"234048","863-TW","2018/01/30 13:49:31","新北市永和區保安路75號","121.508791666667","25.0148083333333","6500400","永和區"
"234025","9371-KE","2018/01/30 13:49:44","新北市永和區自由街54號","121.513693333333","25.0060416666667","6500400","永和區"
"234010","9373-KE","2018/01/30 13:49:40","新北市永和區仁愛路315號","121.503566666667","25.007905","6500400","永和區"
"248017","225-UY","2018/01/30 13:48:23","新北市五股區民義路二段42號","121.414556666667","25.1008616666667","6501500","五股區"
"234022","9380-KE","2018/01/30 13:49:44","新北市永和區中正路654巷26號","121.517668333333","25.0085566666667","6500400","永和區"
"234076","969-R7","2018/01/30 13:49:42","新北市永和區民權路36巷6號","121.519668333333","24.9989133333333","6500400","永和區"
"234072","AAC-211","2018/01/30 13:49:37","新北市永和區豫溪街215巷12號","121.524155","25.009595","6500400","永和區"
"234001","AAC-295","2018/01/30 13:49:31","新北市永和區永和路一段118號","121.514001666667","25.0078966666667","6500400","永和區"
"244002","248-BX","2018/01/30 13:49:41","新北市林口區寶林路42號","121.385146666667","25.0843483333333","6501700","林口區"
"244009","658-BX","2018/01/30 13:49:33","新北市林口區文化三路一段575號","121.370896666667","25.076575","6501700","林口區"
"231002","002-UM","2018/01/30 13:49:45","新北市新店區溪園路393號","121.524185","24.97912","6500600","新店區"
"231025","0293-UT","2018/01/30 13:49:35","新北市新店區中央五街44號","121.528278333333","24.9751083333333","6500600","新店區"
"231028","046-UY","2018/01/30 13:49:38","新北市新店區安和路三段4巷1-3號","121.518241666667","24.9805083333333","6500600","新店區"
"231030","047-UY","2018/01/30 13:49:42","新北市新店區安康路一段228號","121.52315","24.9636883333333","6500600","新店區"
"231029","106-UY","2018/01/30 13:49:47","新北市新店區安康路二段130號","121.512618333333","24.9623883333333","6500600","新店區"
"231018","107-UY","2018/01/30 13:49:43","新北市新店區中正路398號","121.534725","24.9774533333333","6500600","新店區"
"231012","108-UY","2018/01/30 13:49:48","新北市新店區德正街27巷30號","121.54552","24.9711733333333","6500600","新店區"
"231020","187-VK","2018/01/30 13:49:31","新北市新店區新烏路二段50巷1號","121.547075","24.9279933333333","6500600","新店區"
"231015","KEA-2219","2018/01/30 13:49:38","新北市新店區竹林路97巷1號","121.554548333333","24.9502466666667","6500600","新店區"
"231026","256-BX","2018/01/30 13:49:40","新北市新店區三民路84巷12號","121.53491","24.9731533333333","6500600","新店區"
"231010","278-BY","2018/01/30 13:49:45","新北市新店區三民路60巷2號","121.535443333333","24.97248","6500600","新店區"
"231023","AAD-862","2018/01/30 13:49:46","新北市新店區文中路51-5號","121.540296666667","24.9565766666667","6500600","新店區"
"231027","3712-VJ","2018/01/30 13:49:29","新北市新店區北宜路一段3號","121.538546666667","24.9584666666667","6500600","新店區"
"231024","4716-K9","2018/01/30 13:49:40","新北市新店區北新路一段271巷43-1號","121.539411666667","24.9669683333333","6500600","新店區"
"231038","4715-K9","2018/01/30 13:49:44","新北市新店區安康路一段321巷5號","121.521865","24.9626716666667","6500600","新店區"
"231036","512-UM","2018/01/30 13:49:37","新北市新店區安祥路110巷30弄1號","121.473936666667","24.9564066666667","6500600","新店區"
"231035","515-UM","2018/01/30 13:49:38","新北市新店區安忠路57巷9弄2號","121.513476666667","24.9581483333333","6500600","新店區"
"231003","616-UM","2018/01/30 13:49:46","新北市新店區中興路一段69號","121.540168333333","24.9608183333333","6500600","新店區"
"231006","617-UM","2018/01/30 13:49:47","新北市新店區北宜路一段260號","121.545678333333","24.9527566666667","6500600","新店區"
"231001","619-UM","2018/01/30 13:49:46","新北市新店區三民路40號","121.536185","24.9715183333333","6500600","新店區"
"231034","645-TV","2018/01/30 13:49:36","新北市新店區達觀路14巷3號","121.5029","24.941535","6500600","新店區"
"231013","719-UM","2018/01/30 13:49:30","新北市新店區二十張路25巷16號","121.53919","24.981985","6500600","新店區"
"231032","720-UM","2018/01/30 13:49:46","新北市新店區莒光路44巷21弄11-6號","121.51839","24.9523033333333","6500600","新店區"
"231005","897-TW","2018/01/30 13:49:37","新北市新店區寶中路123號","121.549735","24.97934","6500600","新店區"
"231004","899-TW","2018/01/30 13:49:43","新北市新店區寶橋路69-1號","121.545518333333","24.974965","6500600","新店區"
"231037","AKT-0513","2018/01/30 13:49:43","新北市新店區安康路三段355巷4號","121.484655","24.9505716666667","6500600","新店區"
"235030","003-UY","2018/01/30 13:49:47","新北市中和區水源路7巷4號","121.50407","25.0036783333333","6500300","中和區"
"235028","005-UY","2018/01/30 13:49:38","新北市中和區連城路109巷1號","121.496551666667","24.9993333333333","6500300","中和區"
"235027","031-BX","2018/01/30 13:49:38","新北市中和區連城路319巷9號","121.489283333333","24.995045","6500300","中和區"
"235020","096-UM","2018/01/30 13:49:33","新北市中和區新民街94巷18號","121.481365","25.0091583333333","6500300","中和區"
"235003","097-UM","2018/01/30 13:49:38","新北市中和區大勇街25巷20號","121.516505","24.9934166666667","6500300","中和區"
"235004","150-BY","2018/01/30 13:49:38","新北市中和區保健路48巷3號","121.510033333333","24.9969016666667","6500300","中和區"
"235022","151-BY","2018/01/30 13:49:45","新北市中和區連城路565號","121.479488333333","24.9945483333333","6500300","中和區"
"235019","183-VK","2018/01/30 13:49:40","新北市中和區德光路79號","121.469446666667","25.0035416666667","6500300","中和區"
"235002","185-VK","2018/01/30 13:49:41","新北市中和區立人街24-5號","121.518698333333","24.9941416666667","6500300","中和區"
"235013","186-VK","2018/01/30 13:49:44","新北市中和區景安路177巷2號","121.505395","24.9940516666667","6500300","中和區"
"235031","255-BX","2018/01/30 13:49:46","新北市中和區新生街242巷1弄8號","121.483366666667","24.9975133333333","6500300","中和區"
"235008","293-VK","2018/01/30 13:49:34","新北市中和區中興街141號","121.499963333333","24.991295","6500300","中和區"
"235036","301-VK","2018/01/30 13:49:43","新北市中和區中山路二段5號","121.505308333333","25.00576","6500300","中和區"
"235007","352-BY","2018/01/30 13:49:45","新北市中和區成功路139號","121.526061666667","24.9901766666667","6500300","中和區"
"235032","377-QA","2018/01/30 13:49:31","新北市中和區中正路211巷36弄2號","121.497346666667","24.9927383333333","6500300","中和區"
"235025","378-QA","2018/01/30 13:49:36","新北市中和區民享街30巷12號","121.473355","25.0036266666667","6500300","中和區"
"235035","269-TV","2018/01/30 13:49:35","新北市中和區立德街7巷7號","121.490088333333","25.0060266666667","6500300","中和區"
"235014","4979-A6","2018/01/30 13:49:45","新北市中和區忠孝街60巷15號","121.511965","24.9837666666667","6500300","中和區"
"235033","4980-A6","2018/01/30 13:49:35","新北市中和區南山路59號","121.502086666667","24.99829","6500300","中和區"
"235006","551-UM","2018/01/30 13:49:30","新北市中和區秀朗路三段70巷39號","121.52532","24.9943216666667","6500300","中和區"
"235034","558-UM","2018/01/30 13:47:38","新北市中和區景平路459巷1弄5號","121.50057","24.9961116666667","6500300","中和區"
"235009","565-BX","2018/01/30 13:49:44","新北市中和區景安路251號","121.50394","24.990585","6500300","中和區"
"235018","640-BX","2018/01/30 13:49:42","新北市中和區莒光路129巷2弄7號","121.47315","25.00169","6500300","中和區"
"235024","647-TV","2018/01/30 13:49:30","新北市中和區中山路三段33號","121.479043333333","25.0059416666667","6500300","中和區"
"235011","732-UM","2018/01/30 13:47:43","新北市中和區興南路二段34巷55弄2號","121.504826666667","24.9860066666667","6500300","中和區"
"235010","733-UM","2018/01/30 13:49:49","新北市中和區仁愛街36巷44號","121.51137","24.986265","6500300","中和區"
"235026","800-TS","2018/01/30 13:49:45","新北市中和區中山路二段338號","121.493625","25.00266","6500300","中和區"
"235005","802-TS","2018/01/30 13:49:47","新北市永和區中和路593號","121.512308333333","25.0041083333333","6500300","中和區"
"235016","805-TS","2018/01/30 13:49:36","新北市中和區興南路二段399巷66號","121.499831666667","24.9785733333333","6500300","中和區"
"235012","896-TW","2018/01/30 13:49:42","新北市中和區南山路407號","121.506943333333","24.98985","6500300","中和區"
"235017","900-TW","2018/01/30 13:49:33","新北市中和區民德路290巷13號","121.466738333333","24.9959216666667","6500300","中和區"
"235029","911-UM","2018/01/30 13:49:37","新北市中和區中山路二段2巷45弄3號","121.502238333333","25.0068683333333","6500300","中和區"
"235015","157-BY","2018/01/30 13:49:31","新北市中和區華新街111號","121.508758333333","24.9816733333333","6500300","中和區"
"235001","AAC-213","2018/01/30 13:49:32","新北市中和區秀朗路三段175巷7號","121.525011666667","24.9915233333333","6500300","中和區"
"235023","AAC-215","2018/01/30 13:49:41","新北市中和區圓通路393巷1號","121.489686666667","24.9889266666667","6500300","中和區"
"220016","013-TV","2018/01/30 13:49:30","新北市板橋區民生路二段123號","121.47075","25.018645","6500100","板橋區"
"220013","072-UY","2018/01/30 13:49:40","新北市板橋區漢生東路281號","121.471291666667","25.0090566666667","6500100","板橋區"
"220034","073-UY","2018/01/30 13:49:40","新北市板橋區大智街71巷3弄1號","121.453511666667","25.0153033333333","6500100","板橋區"
"220105","075-UY","2018/01/30 13:49:42","新北市板橋區民生路二段161巷5號","121.470271666667","25.0197633333333","6500100","板橋區"
"220017","AAD-861","2018/01/30 13:49:31","新北市板橋區華東街11號","121.450493333333","24.9975366666667","6500100","板橋區"
"247011","546-UM","2018/01/30 13:49:45","新北市蘆洲區中正路520巷10號","121.463806666667","25.0998216666667","6501400","蘆洲區"
"247003","336-TH","2018/01/30 13:49:40","新北市蘆洲區長安街108巷24號","121.461951666667","25.0823466666667","6501400","蘆洲區"
"247005","056-VK","2018/01/30 13:49:35","新北市蘆洲區中山二路281號","121.469421666667","25.0789683333333","6501400","蘆洲區"
"235021","251-BX","2018/01/30 13:49:42","新北市中和區員山路327巷70號","121.479821666667","25.00205","6500300","中和區"
"228004","212-TW","2018/01/30 13:41:20","新北市貢寮區龍崗里嵩陽街41號","121.905018333333","25.0135733333333","6502600","貢寮區"
"228005","828-UM","2018/01/30 13:49:18","新北市貢寮區美豐里土地公嶺23號","121.888635","25.0609033333333","6502600","貢寮區"
"208004","AAC-292","2018/01/30 13:49:40","新北市金山區南勢湖67號","121.616091666667","25.2151033333333","6502700","金山區"
"207002","749-BX","2018/01/30 13:49:39","新北市萬里區崁腳里崁腳路166號","121.645128333333","25.15589","6502800","萬里區"
"207001","662-BX","2018/01/30 13:49:36","新北市萬里區磺潭里清水1號","121.640483333333","25.202145","6502800","萬里區"
"252005","AAC-283","2018/01/30 13:49:37","新北市三芝區圓山里二坪頂47號","121.539226666667","25.24351","6502100","三芝區"
"236065","105-UM","2018/01/30 13:49:41","新北市土城區城林路6巷80號","121.43838","24.979575","6501300","土城區"
"236041","107-UM","2018/01/30 13:49:37","新北市土城區城林路6巷80號","121.43841","24.9797266666667","6501300","土城區"
"236075","166-UM","2018/01/30 13:49:30","新北市土城區中央路三段38號","121.438448333333","24.9688783333333","6501300","土城區"
"236029","253-BX","2018/01/30 13:49:37","新北市土城區員福街36號","121.441055","24.9788433333333","6501300","土城區"
"236024","269-VK","2018/01/30 13:49:45","新北市土城區中華路二段168-1號","121.437483333333","24.9723216666667","6501300","土城區"
"236013","270-VK","2018/01/30 13:49:31","新北市土城區城林路6巷80號","121.438486666667","24.9798316666667","6501300","土城區"
"236034","271-VK","2018/01/30 13:49:40","新北市土城區城林路6巷80號","121.438386666667","24.9797566666667","6501300","土城區"
"236017","401-BY","2018/01/30 13:49:34","新北市土城區城林路6巷80號","121.438581666667","24.9797566666667","6501300","土城區"
"236006","498-BY","2018/01/30 13:49:48","新北市土城區學府路二段156-1號","121.445835","24.9786516666667","6501300","土城區"
"236057","912-UM","2018/01/30 13:49:28","新北市土城區城林路6巷80號","121.43854","24.9797116666667","6501300","土城區"
"236045","913-UM","2018/01/30 13:49:46","新北市土城區城林路6巷80號","121.438403333333","24.9798133333333","6501300","土城區"
"236061","915-UM","2018/01/30 13:49:41","新北市土城區城林路6巷80號","121.438478333333","24.9796916666667","6501300","土城區"
"236054","AAC-216","2018/01/30 13:49:40","新北市土城區城林路6巷80號","121.438511666667","24.9798433333333","6501300","土城區"
"221032","280-BY","2018/01/30 13:49:27","新北市汐止區新興路32號","121.656681666667","25.06415","6501100","汐止區"
"220027","145-BY","2018/01/30 13:49:31","新北市板橋區中正路79號","121.456376666667","25.0140916666667","6500100","板橋區"
"220028","200-UY","2018/01/30 13:49:39","新北市板橋區大觀路二段265巷66弄32號","121.441456666667","24.9971133333333","6500100","板橋區"
"220030","610-BX","2018/01/30 13:49:43","新北市板橋區篤行路三段49號","121.428131666667","24.98621","6500100","板橋區"
"220045","255-TC","2018/01/30 13:49:46","新北市板橋區民生路二段120號","121.470321666667","25.0198083333333","6500100","板橋區"
"220040","267-BY","2018/01/30 13:49:40","新北市板橋區民生路二段161巷1號","121.470135","25.0201533333333","6500100","板橋區"
"220004","276-BY","2018/01/30 13:49:38","新北市板橋區四川路二段31號","121.454373333333","24.9956166666667","6500100","板橋區"
"220020","277-BY","2018/01/30 13:49:42","新北市板橋區金門街21號","121.433555","24.9946883333333","6500100","板橋區"
"220019","283-VK","2018/01/30 13:49:39","新北市板橋區忠孝路176巷5弄2號","121.46473","25.0019433333333","6500100","板橋區"
"220043","285-UM","2018/01/30 13:49:46","新北市板橋區民生路二段161巷1號","121.470135","25.0199183333333","6500100","板橋區"
"220001","285-VK","2018/01/30 13:49:40","新北市板橋區民生路二段123號","121.470633333333","25.018585","6500100","板橋區"
"220031","286-VK","2018/01/30 13:49:45","新北市板橋區大觀路二段22巷32號","121.445068333333","25.0036183333333","6500100","板橋區"
"220029","287-VK","2018/01/30 13:49:36","新北市板橋區南雅西路二段122號","121.452053333333","25.0124233333333","6500100","板橋區"
"220039","288-VK","2018/01/30 13:49:34","新北市板橋區民生路二段161巷7號","121.470261666667","25.0196916666667","6500100","板橋區"
"220009","293-UM","2018/01/30 13:49:41","新北市板橋區太和街4巷3號","121.474006666667","25.01981","6500100","板橋區"
"220010","295-UM","2018/01/30 13:49:47","新北市板橋區中山路二段34號","121.472828333333","25.0151933333333","6500100","板橋區"
"220032","296-UM","2018/01/30 13:49:29","新北市板橋區大觀路二段150巷58號","121.44162","25.0004533333333","6500100","板橋區"
"220023","303-R5","2018/01/30 13:49:37","新北市板橋區南雅西路一段174巷3號","121.452993333333","25.0078183333333","6500100","板橋區"
"220041","307-R5","2018/01/30 13:49:45","新北市板橋區民生路二段120號","121.47044","25.0196666666667","6500100","板橋區"
"220012","486-VK","2018/01/30 13:49:45","新北市板橋區民生路二段36-1號","121.472078333333","25.0168183333333","6500100","板橋區"
"220038","487-VK","2018/01/30 13:49:32","新北市板橋區民生路二段171號","121.46996","25.0202116666667","6500100","板橋區"
"220037","491-VK","2018/01/30 13:49:27","新北市板橋區民生路二段175號","121.469978333333","25.0202633333333","6500100","板橋區"
"220104","560-BX","2018/01/30 13:49:46","新北市板橋區中正路325巷3弄11號","121.453821666667","25.01882","6500100","板橋區"
"220011","609-BX","2018/01/30 13:49:31","新北市板橋區中山路二段37號","121.473056666667","25.0157283333333","6500100","板橋區"
"220003","630-UY","2018/01/30 13:49:39","新北市板橋區南雅南路二段116號","121.45252","25.000565","6500100","板橋區"
"220005","686-BX","2018/01/30 13:49:29","新北市板橋區華東街1-9號","121.44823","24.9949516666667","6500100","板橋區"
"220025","687-BX","2018/01/30 13:49:40","新北市板橋區金門街107號","121.43316","24.9921333333333","6500100","板橋區"
"220042","689-BX","2018/01/30 13:49:48","新北市板橋區民生路二段161巷1號","121.469955","25.0200733333333","6500100","板橋區"
"220002","741-BX","2018/01/30 13:49:45","新北市板橋區南雅南路二段144巷60號","121.450305","24.9974416666667","6500100","板橋區"
"220014","829-TW","2018/01/30 13:49:34","新北市板橋區民生路二段120號","121.470763333333","25.0194183333333","6500100","板橋區"
"220022","895-R6","2018/01/30 13:49:34","新北市板橋區南門街45號","121.457313333333","25.008605","6500100","板橋區"
"220021","985-R7","2018/01/30 13:49:48","新北市板橋區館前西路115號","121.45674","25.007365","6500100","板橋區"
"220046","AAC-210","2018/01/30 13:49:33","新北市板橋區民生路二段161巷7號","121.470103333333","25.0196266666667","6500100","板橋區"
"220018","AAC-253","2018/01/30 13:49:44","新北市板橋區四川路一段68號","121.459613333333","25.0054733333333","6500100","板橋區"
