"lineid","car","time","location","longitude","latitude","cityid","cityname"
"249005","172-UM","2018/01/30 17:09:37","新北市八里區華富山5-3號","121.41786","25.144335","6502300","八里區"
"249001","173-UM","2018/01/30 17:09:47","新北市八里區中華路二段203號","121.405438333333","25.1495483333333","6502300","八里區"
"249004","303-UY","2018/01/30 17:09:48","新北市八里區忠孝路203號","121.422066666667","25.1608866666667","6502300","八里區"
"249002","305-UY","2018/01/30 17:09:35","新北市八里區龍米路二段147巷7號","121.441391666667","25.1507883333333","6502300","八里區"
"249003","593-UM","2018/01/30 17:09:50","新北市八里區中山路二段502號","121.398195","25.1468766666667","6502300","八里區"
"244007","080-UY","2018/01/30 17:09:38","新北市林口區菁埔13鄰39號","121.374838333333","25.097375","6501700","林口區"
"244019","402-UM","2018/01/30 17:09:39","新北市林口區文化一路一段190巷5弄1號","121.37851","25.0752966666667","6501700","林口區"
"244023","483-VK","2018/01/30 17:09:39","新北市林口區粉寮路一段55號","121.396688333333","25.07787","6501700","林口區"
"244021","657-BX","2018/01/30 17:09:51","新北市林口區粉寮路二段30號","121.403091666667","25.0864783333333","6501700","林口區"
"231046","278-BY","2018/01/30 17:09:43","新北市新店區直潭路92號","121.530923333333","24.9376066666667","6500600","新店區"
"241011","013-R5","2018/01/30 17:09:40","新北市三重區河邊北街142-2號","121.503343333333","25.0723783333333","6500200","三重區"
"241028","022-UY","2018/01/30 17:09:43","新北市三重區重新路三段110號","121.492308333333","25.060265","6500200","三重區"
"241008","059-VK","2018/01/30 17:09:39","新北市三重區力行路二段134號","121.482058333333","25.0756616666667","6500200","三重區"
"241009","060-VK","2018/01/30 17:09:44","新北市三重區三和路四段211-10號","121.482055","25.0798583333333","6500200","三重區"
"241015","062-VK","2018/01/30 17:09:52","新北市三重區長生街38號","121.49973","25.0664933333333","6500200","三重區"
"241017","063-VK","2018/01/30 17:09:45","新北市三重區中正北路25巷25弄2號","121.493236666667","25.062595","6500200","三重區"
"241024","065-VK","2018/01/30 17:09:34","新北市三重區中正北路175號","121.477961666667","25.0694283333333","6500200","三重區"
"241026","066-VK","2018/01/30 17:09:45","新北市三重區重新路一段102號","121.50102","25.0633466666667","6500200","三重區"
"241002","090-VK","2018/01/30 17:09:37","新北市三重區五華街35巷14號","121.494936666667","25.0811733333333","6500200","三重區"
"241003","091-VK","2018/01/30 17:09:44","新北市三重區仁義街250號","121.493693333333","25.0857916666667","6500200","三重區"
"241025","156-TC","2018/01/30 17:09:42","新北市三重區中正北路560巷51號","121.470906666667","25.069925","6500200","三重區"
"241005","262-UM","2018/01/30 17:09:43","新北市三重區仁愛街670號","121.48226","25.0806066666667","6500200","三重區"
"241016","266-UM","2018/01/30 17:09:26","新北市三重區中正北路25巷16號","121.493571666667","25.0631033333333","6500200","三重區"
"241018","268-UM","2018/01/30 17:09:50","新北市三重區大智街83-1號","121.492026666667","25.0687866666667","6500200","三重區"
"241032","269-UM","2018/01/30 17:09:32","新北市三重區興華街83號","121.484675","25.0598416666667","6500200","三重區"
"241013","270-UM","2018/01/30 17:09:51","新北市三重區仁愛街88號","121.495571666667","25.0738933333333","6500200","三重區"
"241007","398-BY","2018/01/30 17:09:35","新北市三重區三和路四段163巷46號","121.485898333333","25.0794266666667","6500200","三重區"
"241020","413-TH","2018/01/30 17:09:39","新北市三重區自強路三段34巷27號","121.485941666667","25.0723166666667","6500200","三重區"
"241004","475-VK","2018/01/30 17:09:48","新北市三重區五華街92巷2號","121.492635","25.082165","6500200","三重區"
"241019","478-VK","2018/01/30 17:09:46","新北市三重區力行路一段153巷42號","121.486256666667","25.0691416666667","6500200","三重區"
"241030","480-VK","2018/01/30 17:09:38","新北市三重區集成路21號","121.488941666667","25.0523816666667","6500200","三重區"
"241014","543-UM","2018/01/30 17:09:34","新北市三重區龍濱路120-1號","121.501893333333","25.0709916666667","6500200","三重區"
"241023","545-UM","2018/01/30 17:09:38","新北市三重區忠孝路三段84巷1號","121.480258333333","25.0644916666667","6500200","三重區"
"241001","547-UM","2018/01/30 17:09:53","新北市三重區仁愛街269巷30號","121.493943333333","25.0792716666667","6500200","三重區"
"241006","AAD-863","2018/01/30 17:09:48","新北市三重區車路頭街131巷28號","121.48572","25.0758833333333","6500200","三重區"
"241022","887-TS","2018/01/30 17:09:48","新北市三重區三民街101號","121.485278333333","25.0633183333333","6500200","三重區"
"241012","941-UM","2018/01/30 17:09:33","新北市三重區仁壽街215號","121.500663333333","25.0746683333333","6500200","三重區"
"241029","942-UM","2018/01/30 17:09:51","新北市三重區重新路三段132號","121.491513333333","25.0598216666667","6500200","三重區"
"241033","AAC-255","2018/01/30 17:09:36","新北市三重區中興北街271號","121.469121666667","25.0605716666667","6500200","三重區"
"235062","800-TS","2018/01/30 16:45:16","新北市中和區員山路36巷16-3號","121.485021666667","24.991575","6500300","中和區"
"247022","893-R6","2018/01/30 17:09:39","新北市蘆洲區民族路395號","121.469248333333","25.0900733333333","6501400","蘆洲區"
"247012","546-UM","2018/01/30 17:09:40","新北市蘆洲區信義路292巷7號","121.478108333333","25.0877516666667","6501400","蘆洲區"
"247020","500-BY","2018/01/30 17:09:43","新北市蘆洲區民族路422巷130號","121.47235","25.09441","6501400","蘆洲區"
"247008","341-TH","2018/01/30 17:09:36","新北市蘆洲區信義路30巷35號","121.474576666667","25.0783566666667","6501400","蘆洲區"
"247010","339-TH","2018/01/30 17:09:44","新北市蘆洲區民族路20號","121.47605","25.0841216666667","6501400","蘆洲區"
"247002","337-TH","2018/01/30 17:09:40","新北市蘆洲區永樂街83號","121.455838333333","25.0887816666667","6501400","蘆洲區"
"247004","336-TH","2018/01/30 17:09:34","新北市蘆洲區長安街142號","121.460168333333","25.082155","6501400","蘆洲區"
"247006","056-VK","2018/01/30 17:09:47","新北市蘆洲區長安街108巷37號","121.46209","25.0825766666667","6501400","蘆洲區"
"247016","053-VK","2018/01/30 17:09:52","新北市蘆洲區光華路67號","121.468225","25.0827283333333","6501400","蘆洲區"
"247014","007-UY","2018/01/30 17:09:36","新北市蘆洲區中央路37巷15-17號","121.473163333333","25.08253","6501400","蘆洲區"
"247024","002-UY","2018/01/30 17:09:44","新北市蘆洲區長興路37號","121.463253333333","25.08364","6501400","蘆洲區"
"247018","001-UY","2018/01/30 17:09:45","新北市蘆洲區復興路178號","121.477823333333","25.0885116666667","6501400","蘆洲區"
"228001","212-TW","2018/01/30 17:09:49","新北市貢寮區仁理村研海街62-2號","121.92573","25.0437733333333","6502600","貢寮區"
"228002","663-BX","2018/01/30 17:09:45","新北市貢寮區龍崗里嵩陽街38號","121.909143333333","25.016535","6502600","貢寮區"
"228003","828-UM","2018/01/30 17:09:52","新北市貢寮區福隆里東興街56號","121.948311666667","25.0177416666667","6502600","貢寮區"
"224006","676-BX","2018/01/30 17:09:42","新北市瑞芳區大寮路91號","121.780678333333","25.0977166666667","6501200","瑞芳區"
"224009","285-BY","2018/01/30 17:09:42","新北市瑞芳區八號巷22號","121.842415","25.110445","6501200","瑞芳區"
"224008","275-VK","2018/01/30 17:09:34","新北市瑞芳區侯硐路48號","121.825725","25.0829483333333","6501200","瑞芳區"
"224007","273-VK","2018/01/30 17:09:42","新北市瑞芳區粗坑口路100-1號","121.760281666667","25.099265","6501200","瑞芳區"
"224005","271-BY","2018/01/30 17:09:46","新北市瑞芳區鼻頭路169-1號","121.91584","25.12269","6501200","瑞芳區"
"227009","642-TC","2018/01/30 17:09:44","新北市雙溪區三貂里子崙坑1-6號","121.849923333333","25.0574766666667","6502500","雙溪區"
"227003","400-TW","2018/01/30 17:09:38","新北市雙溪區外柑里外柑腳52號","121.808146666667","25.0178983333333","6502500","雙溪區"
"251004","009-UM","2018/01/30 17:09:37","新北市淡水區中正東路36-1號","121.448891666667","25.1657333333333","6501000","淡水區"
"251005","010-UM","2018/01/30 17:09:37","新北市淡水區水源街一段34巷1號","121.443258333333","25.172255","6501000","淡水區"
"251013","179-VK","2018/01/30 17:09:49","新北市淡水區桂花樹1號","121.483066666667","25.196775","6501000","淡水區"
"251014","180-VK","2018/01/30 17:09:42","新北市淡水區八里堆8號","121.462223333333","25.224405","6501000","淡水區"
"251008","181-VK","2018/01/30 17:09:52","新北市淡水區樹梅坑15號","121.47113","25.1435883333333","6501000","淡水區"
"251015","182-VK","2018/01/30 17:09:32","新北市淡水區樹林口43號","121.470926666667","25.1685316666667","6501000","淡水區"
"251010","413-VK","2018/01/30 17:09:44","新北市淡水區新市五路二段75號","121.43125","25.198265","6501000","淡水區"
"251012","441-VK","2018/01/30 17:09:50","新北市淡水區中山北路一段156號","121.444113333333","25.1779666666667","6501000","淡水區"
"251016","442-VK","2018/01/30 17:09:48","新北市淡水區社厝坑2-5號","121.475873333333","25.18897","6501000","淡水區"
"251006","561-UM","2018/01/30 17:09:46","新北市淡水區新民街21號","121.43909","25.1751366666667","6501000","淡水區"
"251009","575-R6","2018/01/30 17:09:36","新北市淡水區三民街21號","121.439053333333","25.1718783333333","6501000","淡水區"
"251007","577-R6","2018/01/30 17:09:47","新北市淡水區民權路89號","121.459803333333","25.1381183333333","6501000","淡水區"
"251011","650-BX","2018/01/30 17:09:47","新北市淡水區坪頂路50號","121.457888333333","25.1625683333333","6501000","淡水區"
"252002","178-VK","2018/01/30 17:09:35","新北市三芝區忠孝街1-6號","121.505665","25.2544516666667","6502100","三芝區"
"252001","292-VK","2018/01/30 17:09:38","新北市三芝區埔頭里埔頭27-1號","121.495108333333","25.2601766666667","6502100","三芝區"
"242032","AAC-296","2018/01/30 17:09:31","新北市新莊區新泰路357巷3弄57號","121.44195","25.0391433333333","6500500","新莊區"
"242029","986-R7","2018/01/30 17:09:46","新北市新莊區新泰路357巷3弄57號","121.442158333333","25.0394833333333","6500500","新莊區"
"242025","615-BX","2018/01/30 17:09:34","新北市新莊區新泰路255巷83號","121.4422","25.0389","6500500","新莊區"
"242023","613-BX","2018/01/30 17:09:33","新北市新莊區新泰路255巷83號","121.442195","25.03913","6500500","新莊區"
"242027","612-BX","2018/01/30 17:09:36","新北市新莊區新泰路357巷3弄57號","121.442105","25.0391183333333","6500500","新莊區"
"242039","566-BX","2018/01/30 17:09:44","新北市新莊區新泰路357巷3弄1號","121.442271666667","25.041375","6500500","新莊區"
"242044","442-UM","2018/01/30 17:09:47","新北市新莊區中正路535-3號","121.438163333333","25.0332283333333","6500500","新莊區"
"242054","440-UM","2018/01/30 17:09:40","新北市泰山區磚雅厝3號","121.442018333333","25.0419016666667","6500500","新莊區"
"242034","415-TV","2018/01/30 17:09:49","新北市新莊區新泰路357巷3弄57號","121.442071666667","25.039395","6500500","新莊區"
"242005","413-TV","2018/01/30 17:09:42","新北市新莊區新泰路357巷3弄57號","121.442076666667","25.0394966666667","6500500","新莊區"
"242042","400-BY","2018/01/30 17:09:38","新北市新莊區新泰路357巷3弄57號","121.442175","25.0393","6500500","新莊區"
"242058","353-BY","2018/01/30 17:09:32","新北市新莊區新泰路255巷83號","121.442155","25.0388116666667","6500500","新莊區"
"242007","132-UY","2018/01/30 17:09:42","新北市新莊區新泰路255巷83號","121.442005","25.0389283333333","6500500","新莊區"
"242037","133-UY","2018/01/30 17:09:45","新北市泰山區磚雅厝3號","121.44201","25.041815","6500500","新莊區"
"242021","135-UY","2018/01/30 17:09:32","新北市新莊區新泰路255巷83號","121.442031666667","25.0388933333333","6500500","新莊區"
"242015","175-VK","2018/01/30 17:09:43","新北市新莊區三和路12-21號","121.441945","25.03876","6500500","新莊區"
"242002","176-VK","2018/01/30 17:09:43","新北市新莊區三和路12-21號","121.441935","25.0386783333333","6500500","新莊區"
"242013","346-TH","2018/01/30 17:09:44","新北市新莊區三和路12-16號","121.4421","25.0374683333333","6500500","新莊區"
"242051","347-TH","2018/01/30 17:09:34","新北市新莊區新泰路357巷3弄51號","121.442061666667","25.040045","6500500","新莊區"
"242019","348-TH","2018/01/30 17:09:46","新北市新莊區新泰路357巷3弄57號","121.442145","25.03953","6500500","新莊區"
"242056","349-TH","2018/01/30 17:09:36","新北市新莊區三和路12-15號","121.441835","25.0373883333333","6500500","新莊區"
"242017","350-TH","2018/01/30 17:09:46","新北市新莊區新泰路255巷83號","121.442031666667","25.038945","6500500","新莊區"
"242011","351-TH","2018/01/30 17:09:44","新北市新莊區新泰路357巷3弄57號","121.441958333333","25.0395966666667","6500500","新莊區"
"238015","755-BX","2018/01/30 17:09:52","新北市樹林區新興街59號","121.399888333333","24.9712583333333","6500700","樹林區"
"238023","601-UM","2018/01/30 17:09:43","新北市樹林區中山路三段39號","121.401221666667","24.975315","6500700","樹林區"
"238019","599-UM","2018/01/30 17:09:45","新北市樹林區八德街438號","121.401515","24.970345","6500700","樹林區"
"238018","571-TV","2018/01/30 17:09:30","新北市樹林區太平路247巷30號","121.422175","24.9746716666667","6500700","樹林區"
"238024","5061-A6","2018/01/30 17:09:44","新北市樹林區環河路2-2號","121.425621666667","24.9769733333333","6500700","樹林區"
"238021","KEA-2217","2018/01/30 17:09:44","新北市樹林區西圳街一段165巷20弄28號","121.395655","24.9600683333333","6500700","樹林區"
"238022","KEA-2213","2018/01/30 17:09:45","新北市樹林區八德街247巷24-1號","121.421123333333","24.974045","6500700","樹林區"
"238025","303-VK","2018/01/30 17:09:37","新北市樹林區中山路二段2號","121.417791666667","24.9851283333333","6500700","樹林區"
"238017","283-BY","2018/01/30 17:09:43","新北市樹林區中山路三段43號","121.401066666667","24.9752666666667","6500700","樹林區"
"238014","282-BY","2018/01/30 17:09:36","新北市樹林區八德街648號","121.396541666667","24.96913","6500700","樹林區"
"238020","268-VK","2018/01/30 17:09:45","新北市樹林區中山路三段125-10號","121.397396666667","24.9733933333333","6500700","樹林區"
"238026","172-UY","2018/01/30 17:09:46","新北市樹林區東豐街68-1號","121.409101666667","24.97433","6500700","樹林區"
"238016","169-UY","2018/01/30 17:09:41","新北市樹林區中洲街2-2號","121.397446666667","24.9729816666667","6500700","樹林區"
"239007","AAC-297","2018/01/30 17:09:44","新北市鶯歌區建國路81號","121.353231666667","24.95398","6500800","鶯歌區"
"239006","891-R6","2018/01/30 17:09:42","新北市鶯歌區八德路2巷37弄1號","121.33685","24.9465683333333","6500800","鶯歌區"
"239008","527-UM","2018/01/30 17:09:49","新北市鶯歌區尖山路57-1號","121.350098333333","24.949775","6500800","鶯歌區"
"239005","526-UM","2018/01/30 17:09:38","新北市鶯歌區德昌街11號","121.333581666667","24.96024","6500800","鶯歌區"
"239001","417-VK","2018/01/30 17:09:45","新北市鶯歌區尖山路140巷12弄8號","121.346445","24.9495683333333","6500800","鶯歌區"
"239003","360-BY","2018/01/30 17:09:32","新北市鶯歌區八德路50號","121.330493333333","24.9555016666667","6500800","鶯歌區"
"239002","359-BY","2018/01/30 17:09:33","新北市鶯歌區建國路234號","121.348211666667","24.9534416666667","6500800","鶯歌區"
"239004","193-VK","2018/01/30 17:09:33","新北市鶯歌區文化路324巷8弄8號","121.349698333333","24.9451766666667","6500800","鶯歌區"
