"lineid","car","time","location","longitude","latitude","cityid","cityname"
"234007","207-UY","2018/01/30 18:19:56","新北市永和區仁愛路264號","121.504566666667","25.00881","6500400","永和區"
"234042","862-TW","2018/01/30 18:19:54","新北市永和區福和路1號","121.526036666667","25.0097883333333","6500400","永和區"
"234050","863-TW","2018/01/30 18:19:33","新北市永和區福和路1號","121.526418333333","25.0097416666667","6500400","永和區"
"234026","9371-KE","2018/01/30 18:19:29","新北市永和區豫溪街28巷2號","121.51523","25.0096666666667","6500400","永和區"
"249005","172-UM","2018/01/30 18:19:37","新北市八里區荖阡坑路15-14號","121.400263333333","25.1404133333333","6502300","八里區"
"249001","173-UM","2018/01/30 18:19:47","新北市八里區龍米路一段131號","121.452198333333","25.1267433333333","6502300","八里區"
"249004","303-UY","2018/01/30 18:19:48","新北市八里區龍米路二段232巷3號","121.43157","25.1589533333333","6502300","八里區"
"249002","305-UY","2018/01/30 18:19:35","新北市八里區龍形二街48號","121.450493333333","25.1329816666667","6502300","八里區"
"248014","025-BX","2018/01/30 18:19:50","新北市五股區自強路19巷11號","121.434656666667","25.07369","6501500","五股區"
"248016","026-BX","2018/01/30 18:19:40","新北市五股區成泰路三段477巷18號","121.449891666667","25.0989116666667","6501500","五股區"
"248006","077-UY","2018/01/30 18:19:36","新北市五股區中興路一段152號","121.464466666667","25.0738183333333","6501500","五股區"
"248008","095-VK","2018/01/30 18:19:44","新北市五股區更洲路32巷8弄14號","121.459263333333","25.0796333333333","6501500","五股區"
"248020","225-UY","2018/01/30 18:19:39","新北市五股區孝義路47巷3號","121.453953333333","25.1102716666667","6501500","五股區"
"248004","677-BX","2018/01/30 18:19:51","新北市五股區成泰路二段101號","121.438375","25.08426","6501500","五股區"
"248002","678-BX","2018/01/30 18:18:03","新北市五股區西雲路18號","121.44324","25.0902516666667","6501500","五股區"
"248010","682-TV","2018/01/30 18:19:37","新北市五股區成泰路一段139巷2弄2號","121.435156666667","25.0730183333333","6501500","五股區"
"232011","375-UM","2018/01/30 18:18:13","新北市坪林區坪雙路一段43號","121.711693333333","24.9424633333333","6502000","坪林區"
"244013","069-UM","2018/01/30 18:19:45","新北市林口區中山路160巷21號","121.391681666667","25.0793383333333","6501700","林口區"
"244007","080-UY","2018/01/30 18:19:38","新北市林口區林口路113巷6弄1號","121.388728333333","25.0806416666667","6501700","林口區"
"244019","402-UM","2018/01/30 18:19:39","新北市林口區忠孝路569巷6號","121.373918333333","25.06849","6501700","林口區"
"244009","410-SL","2018/01/30 18:19:54","新北市林口區文林二街12號","121.376886666667","25.0888883333333","6501700","林口區"
"244023","483-VK","2018/01/30 18:19:39","新北市林口區仁愛路二段109號","121.383918333333","25.0750583333333","6501700","林口區"
"244017","485-VK","2018/01/30 18:19:36","新北市林口區公園路43號","121.367243333333","25.0682733333333","6501700","林口區"
"244011","656-BX","2018/01/30 18:19:42","新北市林口區中正路16號","121.39613","25.07743","6501700","林口區"
"244021","657-BX","2018/01/30 18:19:31","新北市林口區自強一街8號","121.398093333333","25.078415","6501700","林口區"
"244025","837-TS","2018/01/30 18:19:50","新北市林口區南勢六街51號","121.355903333333","25.0716333333333","6501700","林口區"
"243013","646-TV","2018/01/30 18:19:38","新北市泰山區南林路103號","121.41551","25.0441866666667","6501600","泰山區"
"222003","016-RS","2018/01/30 18:19:34","新北市深坑區旺耽路67號","121.626265","25.00301","6501800","深坑區"
"222002","659-BX","2018/01/30 18:19:44","新北市深坑區雲鄉路63號","121.621673333333","24.9989166666667","6501800","深坑區"
"231059","046-UY","2018/01/30 18:19:36","新北市新店區安華路28-1號","121.519581666667","24.9607816666667","6500600","新店區"
"231061","047-UY","2018/01/30 18:19:35","新北市新店區安華路28-1號","121.519278333333","24.960905","6500600","新店區"
"231060","106-UY","2018/01/30 18:19:39","新北市新店區安華路28-1號","121.51969","24.9608266666667","6500600","新店區"
"231051","107-UY","2018/01/30 18:19:42","新北市新店區安華路28-1號","121.519328333333","24.9613966666667","6500600","新店區"
"231048","108-UY","2018/01/30 18:19:39","新北市新店區安華路28-1號","121.519603333333","24.9608816666667","6500600","新店區"
"231053","187-VK","2018/01/30 18:19:40","新北市新店區安康路一段355號","121.519861666667","24.96326","6500600","新店區"
"231050","KEA-2219","2018/01/30 18:19:54","新北市新店區安華路28-1號","121.51993","24.9612133333333","6500600","新店區"
"231057","256-BX","2018/01/30 18:19:53","新北市新店區安華路28-1號","121.51973","24.9611016666667","6500600","新店區"
"231046","278-BY","2018/01/30 18:19:43","新北市新店區直潭七街60號","121.532256666667","24.9399083333333","6500600","新店區"
"231058","3712-VJ","2018/01/30 18:19:41","新北市新店區環河路15-1號","121.537778333333","24.9613333333333","6500600","新店區"
"231056","3713-VJ","2018/01/30 18:19:53","新北市新店區中央路45號","121.532928333333","24.9775866666667","6500600","新店區"
"231055","4716-K9","2018/01/30 18:19:41","新北市新店區秀山路20號","121.532371666667","24.96042","6500600","新店區"
"231065","512-UM","2018/01/30 18:19:32","新北市新店區安華路28-1號","121.519455","24.9612766666667","6500600","新店區"
"231042","616-UM","2018/01/30 18:19:33","新北市新店區安華路1-1號","121.519415","24.9604866666667","6500600","新店區"
"231040","619-UM","2018/01/30 18:19:53","新北市新店區安華路28-1號","121.519616666667","24.9609266666667","6500600","新店區"
"231063","645-TV","2018/01/30 18:19:44","新北市新店區安華路28-1號","121.519405","24.9607966666667","6500600","新店區"
"231049","719-UM","2018/01/30 18:19:46","新北市新店區安華路28-1號","121.519475","24.96135","6500600","新店區"
"231062","720-UM","2018/01/30 18:19:48","新北市新店區安華路28-1號","121.519218333333","24.9613116666667","6500600","新店區"
"231044","897-TW","2018/01/30 18:19:46","新北市新店區安華路28-1號","121.519606666667","24.9614816666667","6500600","新店區"
"231043","899-TW","2018/01/30 18:19:46","新北市新店區安華路28-1號","121.519253333333","24.960865","6500600","新店區"
"231066","AKT-0513","2018/01/30 18:19:41","新北市新店區安華路28-1號","121.519511666667","24.9606433333333","6500600","新店區"
"241033","AAC-255","2018/01/30 18:19:36","新北市三重區中興北街42巷9號","121.469598333333","25.0493483333333","6500200","三重區"
"235066","003-UY","2018/01/30 18:19:39","新北市中和區中山路二段120號","121.502703333333","25.0037166666667","6500300","中和區"
"235064","005-UY","2018/01/30 18:19:40","新北市中和區圓通路165-1號","121.497703333333","24.99546","6500300","中和區"
"235063","031-BX","2018/01/30 18:19:42","新北市中和區中正路545巷1號","121.487391666667","24.9936216666667","6500300","中和區"
"235056","096-UM","2018/01/30 18:19:48","新北市中和區新生街136號","121.483588333333","25.001045","6500300","中和區"
"235039","097-UM","2018/01/30 18:19:43","新北市中和區中正路305號","121.492586666667","24.9937483333333","6500300","中和區"
"235058","151-BY","2018/01/30 18:19:37","新北市中和區圓通路367巷15-1號","121.492245","24.98755","6500300","中和區"
"235055","183-VK","2018/01/30 18:19:45","新北市中和區中正路637巷52弄1號","121.485403333333","24.9935783333333","6500300","中和區"
"235038","185-VK","2018/01/30 18:19:36","新北市中和區秀朗路三段128巷7弄7號","121.524183333333","24.9926133333333","6500300","中和區"
"235049","186-VK","2018/01/30 18:19:41","新北市中和區員山路36巷16-2號","121.48533","24.9917933333333","6500300","中和區"
"235067","255-BX","2018/01/30 18:19:43","新北市中和區和城路一段271巷1號","121.485773333333","24.9917533333333","6500300","中和區"
"235044","293-VK","2018/01/30 18:19:48","新北市中和區錦和路350-1號","121.49035","24.9935033333333","6500300","中和區"
"235043","352-BY","2018/01/30 18:19:42","新北市中和區景平路379號","121.504066666667","24.993415","6500300","中和區"
"235068","377-QA","2018/01/30 18:19:36","新北市中和區員山路36巷16-3號","121.485126666667","24.9912266666667","6500300","中和區"
"235061","378-QA","2018/01/30 18:19:33","新北市中和區國光街215巷24弄9號","121.466945","25.000295","6500300","中和區"
"235050","4979-A6","2018/01/30 18:19:51","新北市中和區捷運路61巷28號","121.509163333333","24.9892966666667","6500300","中和區"
"235069","4980-A6","2018/01/30 18:19:47","新北市中和區圓通路118號","121.499156666667","24.996115","6500300","中和區"
"235042","551-UM","2018/01/30 18:19:54","新北市中和區大勇街46巷2號","121.517428333333","24.9938","6500300","中和區"
"235045","565-BX","2018/01/30 18:19:48","新北市中和區景安路200巷2弄1號","121.503811666667","24.9914933333333","6500300","中和區"
"235054","640-BX","2018/01/30 18:19:38","新北市中和區莒光路185號","121.47268","24.9990166666667","6500300","中和區"
"235060","647-TV","2018/01/30 18:19:38","新北市中和區連城路378號","121.481013333333","24.9951933333333","6500300","中和區"
"235047","732-UM","2018/01/30 18:19:39","新北市中和區錦和路350-1號","121.490321666667","24.993575","6500300","中和區"
"235046","733-UM","2018/01/30 18:19:39","新北市中和區員山路36巷13號","121.484255","24.990705","6500300","中和區"
"235062","800-TS","2018/01/30 18:19:45","新北市中和區景平路989巷11號","121.495625","25.00527","6500300","中和區"
"235041","802-TS","2018/01/30 18:19:34","新北市中和區中正路273號","121.495613333333","24.9937066666667","6500300","中和區"
"235052","805-TS","2018/01/30 18:19:46","新北市中和區興南路二段22-3號","121.507638333333","24.98582","6500300","中和區"
"235048","896-TW","2018/01/30 18:19:43","新北市中和區中正路395號","121.489951666667","24.9935533333333","6500300","中和區"
"235053","900-TW","2018/01/30 18:19:39","新北市中和區中正路637巷52弄1號","121.485346666667","24.9937283333333","6500300","中和區"
"235065","911-UM","2018/01/30 18:19:45","新北市中和區莊敬路49巷20弄12號","121.5022","25.00584","6500300","中和區"
"235051","157-BY","2018/01/30 18:19:41","新北市中和區信義街1號","121.510871666667","24.9898333333333","6500300","中和區"
"235037","AAC-213","2018/01/30 18:19:53","新北市中和區景平路89號","121.517701666667","24.9916733333333","6500300","中和區"
"226004","205-ST","2018/01/30 18:19:50","新北市平溪區薯榔里雙菁路93號","121.71401","25.0212433333333","6502400","平溪區"
"235057","251-BX","2018/01/30 18:19:36","新北市中和區員山路109號","121.480823333333","24.9946466666667","6500300","中和區"
"228001","212-TW","2018/01/30 18:19:49","新北市貢寮區真理里新港街26巷55弄2-1號","121.927426666667","25.0528683333333","6502600","貢寮區"
"228002","663-BX","2018/01/30 18:19:45","新北市貢寮區福連里馬崗街1號","121.998058333333","25.0160433333333","6502600","貢寮區"
"228003","828-UM","2018/01/30 18:19:32","新北市貢寮區真理里美艷山街66號","121.918373333333","25.073955","6502600","貢寮區"
"224006","676-BX","2018/01/30 18:19:42","新北市瑞芳區民權街3-2號","121.80811","25.1074333333333","6501200","瑞芳區"
"224002","639-TC","2018/01/30 18:19:36","新北市瑞芳區三爪子坑路91巷22號","121.811681666667","25.10678","6501200","瑞芳區"
"224009","285-BY","2018/01/30 18:19:42","新北市瑞芳區新山路43號","121.855945","25.1083266666667","6501200","瑞芳區"
"224008","275-VK","2018/01/30 18:19:34","新北市瑞芳區逢甲路15號","121.809775","25.10866","6501200","瑞芳區"
"224007","273-VK","2018/01/30 18:19:53","新北市瑞芳區大埔路67巷3-1號","121.764433333333","25.1015433333333","6501200","瑞芳區"
"224005","271-BY","2018/01/30 18:19:46","新北市瑞芳區建基新村20-15號","121.81121","25.1310516666667","6501200","瑞芳區"
"227009","642-TC","2018/01/30 18:19:44","新北市雙溪區牡丹里牡丹73號","121.85179","25.0593283333333","6502500","雙溪區"
"227003","400-TW","2018/01/30 18:19:38","新北市雙溪區共和里中山路2號","121.863803333333","25.0337766666667","6502500","雙溪區"
"253005","032-BX","2018/01/30 18:19:41","新北市石門區中央路4-1號","121.565381666667","25.2913383333333","6502200","石門區"
"253006","295-VK","2018/01/30 18:19:50","新北市石門區老梅路65號","121.545865","25.289235","6502200","石門區"
"222001","KEA-2212","2018/01/30 18:19:36","新北市深坑區北深路二段58號","121.61905","25.004175","6501800","深坑區"
"208002","742-BX","2018/01/30 18:19:39","新北市金山區清泉里清水路60巷18號","121.63398","25.2316","6502700","金山區"
"208003","665-BX","2018/01/30 18:19:47","新北市金山區中山路90-1號","121.641711666667","25.21881","6502700","金山區"
"208001","761-BX","2018/01/30 18:19:50","新北市金山區環金路19號","121.640935","25.2177016666667","6502700","金山區"
"251004","009-UM","2018/01/30 18:19:37","新北市淡水區民族路146號","121.462698333333","25.1341816666667","6501000","淡水區"
"251005","010-UM","2018/01/30 18:19:37","新北市淡水區水源街一段122巷37號","121.447103333333","25.17047","6501000","淡水區"
"251013","179-VK","2018/01/30 18:19:49","新北市淡水區行忠路862號","121.478376666667","25.2000533333333","6501000","淡水區"
"251014","180-VK","2018/01/30 18:19:42","新北市淡水區崙頂32號","121.487201666667","25.2224166666667","6501000","淡水區"
"251008","181-VK","2018/01/30 18:19:45","新北市淡水區淡金路一段102號","121.457791666667","25.174565","6501000","淡水區"
"251015","182-VK","2018/01/30 18:19:52","新北市淡水區興福寮88巷1號","121.485538333333","25.164995","6501000","淡水區"
"251010","413-VK","2018/01/30 18:19:44","新北市淡水區淡海路199號","121.420411666667","25.1847533333333","6501000","淡水區"
"251012","441-VK","2018/01/30 18:19:50","新北市淡水區北新路二段77-5號","121.480441666667","25.1855766666667","6501000","淡水區"
"251016","442-VK","2018/01/30 18:19:53","新北市淡水區下圭柔山34-3號","121.45067","25.2048116666667","6501000","淡水區"
"251001","559-UM","2018/01/30 18:19:46","新北市淡水區自強路307巷1號","121.462088333333","25.1317866666667","6501000","淡水區"
"251006","561-UM","2018/01/30 18:19:46","新北市淡水區新民街76巷36弄1號","121.439451666667","25.17794","6501000","淡水區"
"251009","575-R6","2018/01/30 18:19:36","新北市淡水區中山北路三段165-1號","121.445285","25.196855","6501000","淡水區"
"251007","577-R6","2018/01/30 18:19:27","新北市淡水區中正東路二段143巷2弄1號","121.460601666667","25.1473966666667","6501000","淡水區"
"251011","650-BX","2018/01/30 18:19:47","新北市淡水區坪頂路47號","121.45752","25.1624566666667","6501000","淡水區"
"251002","672-BX","2018/01/30 18:19:46","新北市淡水區中正東路一段77號","121.45277","25.1621216666667","6501000","淡水區"
"251003","673-BX","2018/01/30 18:19:37","新北市淡水區北新路186-3號","121.449525","25.1787783333333","6501000","淡水區"
"207003","550-UM","2018/01/30 18:19:52","新北市萬里區野柳里港東路14號","121.687253333333","25.2036366666667","6502800","萬里區"
"207004","225-TW","2018/01/30 18:19:42","新北市萬里區中幅里中福路39-1號","121.677253333333","25.1658566666667","6502800","萬里區"
"252002","178-VK","2018/01/30 18:19:35","新北市三芝區中山路二段33號","121.502811666667","25.25524","6502100","三芝區"
"252003","249-BX","2018/01/30 18:19:47","新北市三芝區錫板里海尾11-7號","121.478343333333","25.2606","6502100","三芝區"
"252001","292-VK","2018/01/30 18:19:37","新北市三芝區中興街二段2號","121.498431666667","25.2566716666667","6502100","三芝區"
"237004","078-UY","2018/01/30 18:19:42","新北市三峽區五寮106號","121.36186","24.8608066666667","6500900","三峽區"
"237007","153-BY","2018/01/30 18:19:36","新北市三峽區中正路二段582號","121.359291666667","24.9059433333333","6500900","三峽區"
"237009","210-TH","2018/01/30 18:19:35","新北市三峽區中山路152巷24號","121.36532","24.9370433333333","6500900","三峽區"
"237013","252-BX","2018/01/30 18:19:53","新北市三峽區永安街7號","121.377815","24.9299816666667","6500900","三峽區"
"237012","275-BY","2018/01/30 18:19:46","新北市三峽區民生街1巷3-7號","121.377048333333","24.9363116666667","6500900","三峽區"
"237008","302-VK","2018/01/30 18:19:41","新北市三峽區白雞68-333號","121.391605","24.9098633333333","6500900","三峽區"
"237014","433-BY","2018/01/30 18:19:34","新北市三峽區復興路78號","121.373118333333","24.9373216666667","6500900","三峽區"
"237006","5529-G3","2018/01/30 18:19:39","新北市三峽區溪東路238巷5號","121.408226666667","24.9314683333333","6500900","三峽區"
"237016","649-BX","2018/01/30 18:12:41","新北市三峽區紫新路47號","121.422238333333","24.9216433333333","6500900","三峽區"
"237010","706-TV","2018/01/30 18:19:49","新北市三峽區中山路81號","121.366726666667","24.9352366666667","6500900","三峽區"
"237005","AKY-6261","2018/01/30 18:19:47","新北市三峽區忠孝街35號","121.370998333333","24.9338983333333","6500900","三峽區"
"236070","105-UM","2018/01/30 18:19:39","新北市土城區明德路一段154號","121.46317","24.97861","6501300","土城區"
"236043","107-UM","2018/01/30 18:19:52","新北市土城區裕生路21巷1弄2號","121.44878","24.9871466666667","6501300","土城區"
"236079","166-UM","2018/01/30 18:19:47","新北市土城區永平街9號","121.427881666667","24.9629633333333","6501300","土城區"
"236031","253-BX","2018/01/30 18:19:49","新北市土城區順風路59號","121.44023","24.9773","6501300","土城區"
"236026","269-VK","2018/01/30 18:19:43","新北市土城區承天路73號","121.440096666667","24.96311","6501300","土城區"
"236015","270-VK","2018/01/30 18:19:48","新北市土城區青雲路39巷7號","121.46035","24.987455","6501300","土城區"
"236038","271-VK","2018/01/30 18:19:47","新北市土城區青雲路483巷9號","121.459348333333","24.9736616666667","6501300","土城區"
"236023","401-BY","2018/01/30 18:19:52","新北市土城區福仁街51號","121.439798333333","24.9751683333333","6501300","土城區"
"236059","912-UM","2018/01/30 18:19:41","新北市土城區信義路2號","121.412945","24.9545583333333","6501300","土城區"
"236049","913-UM","2018/01/30 18:19:38","新北市土城區明德路一段375-1號","121.454903333333","24.9781183333333","6501300","土城區"
"236063","915-UM","2018/01/30 18:19:45","新北市土城區金城路二段354巷4號","121.461288333333","24.9849783333333","6501300","土城區"
"236055","AAC-216","2018/01/30 18:19:34","新北市土城區中華路二段102號","121.438038333333","24.97436","6501300","土城區"
"242032","AAC-296","2018/01/30 18:19:51","新北市新莊區新泰路277巷40號","121.443878333333","25.040205","6500500","新莊區"
"242029","986-R7","2018/01/30 18:19:50","新北市新莊區中平路200號","121.44478","25.0486","6500500","新莊區"
"242025","615-BX","2018/01/30 18:19:34","新北市新莊區五工三路94巷1號","121.458168333333","25.0656016666667","6500500","新莊區"
"242027","612-BX","2018/01/30 18:19:36","新北市新莊區幸福路599號","121.453276666667","25.0491966666667","6500500","新莊區"
"242044","442-UM","2018/01/30 18:19:46","新北市新莊區新北大道七段788號","121.41326","25.0244216666667","6500500","新莊區"
"242054","440-UM","2018/01/30 18:19:40","新北市新莊區西盛街395巷37弄11號","121.428765","25.0117233333333","6500500","新莊區"
"242034","415-TV","2018/01/30 18:19:49","新北市新莊區景德路304號","121.447633333333","25.033545","6500500","新莊區"
"242042","400-BY","2018/01/30 18:19:48","新北市新莊區天祥街76號","121.415783333333","25.029325","6500500","新莊區"
"242061","362-BY","2018/01/30 18:19:49","新北市新莊區新樹路181-2號","121.436165","25.0245083333333","6500500","新莊區"
"242058","353-BY","2018/01/30 18:19:38","新北市新莊區新北大道七段768號","121.412735","25.02515","6500500","新莊區"
"242007","132-UY","2018/01/30 18:19:42","新北市新莊區自強街37巷1號","121.454511666667","25.0464383333333","6500500","新莊區"
"242037","133-UY","2018/01/30 18:19:52","新北市新莊區後港一路65巷11弄11號","121.425725","25.027055","6500500","新莊區"
"242021","135-UY","2018/01/30 18:19:52","新北市新莊區新興街22號","121.450731666667","25.0366666666667","6500500","新莊區"
"242046","172-VK","2018/01/30 18:19:36","新北市新莊區中正路829巷19號","121.421156666667","25.0276466666667","6500500","新莊區"
"242009","173-VK","2018/01/30 18:19:49","新北市新莊區昌平街71巷17號","121.45361","25.0534116666667","6500500","新莊區"
"242015","175-VK","2018/01/30 18:19:43","新北市新莊區中和街89號","121.447438333333","25.0478916666667","6500500","新莊區"
"242051","347-TH","2018/01/30 18:19:34","新北市新莊區民本街11巷4號","121.428136666667","25.0203366666667","6500500","新莊區"
"242056","349-TH","2018/01/30 18:19:36","新北市新莊區泰豐街23巷3號","121.448038333333","25.031815","6500500","新莊區"
"242011","351-TH","2018/01/30 18:19:44","新北市新莊區中港路中慶巷27弄18號","121.45003","25.053225","6500500","新莊區"
"238015","755-BX","2018/01/30 18:19:47","新北市樹林區啟智街82-12號","121.418775","24.9905166666667","6500700","樹林區"
"238023","601-UM","2018/01/30 18:19:48","新北市樹林區三福街85巷10號","121.40701","25.01553","6500700","樹林區"
"238019","599-UM","2018/01/30 18:19:46","新北市樹林區國凱街136巷25號","121.423706666667","24.9796","6500700","樹林區"
"238018","571-TV","2018/01/30 18:19:50","新北市樹林區保安街一段20巷2號","121.427668333333","24.9935","6500700","樹林區"
"238024","5061-A6","2018/01/30 18:19:44","新北市樹林區中山路一段137巷9號","121.4229","24.9895416666667","6500700","樹林區"
"238021","KEA-2217","2018/01/30 18:19:44","新北市樹林區柑園街二段149巷1號","121.382325","24.9538833333333","6500700","樹林區"
"238022","KEA-2213","2018/01/30 18:19:45","新北市樹林區太順街105號","121.414801666667","24.9770983333333","6500700","樹林區"
"238025","303-VK","2018/01/30 18:19:47","新北市樹林區保安街一段382號","121.417388333333","24.9987516666667","6500700","樹林區"
"238017","283-BY","2018/01/30 18:19:43","新北市樹林區中正路825號","121.409416666667","25.0171966666667","6500700","樹林區"
"238014","282-BY","2018/01/30 18:19:36","新北市樹林區大安路47-1號","121.4243","24.9995066666667","6500700","樹林區"
"238020","268-VK","2018/01/30 18:19:45","新北市樹林區三龍街118巷11號","121.415363333333","25.0176933333333","6500700","樹林區"
"238026","172-UY","2018/01/30 18:19:46","新北市樹林區佳園路一段80巷8號","121.392911666667","24.9696716666667","6500700","樹林區"
"238016","169-UY","2018/01/30 18:19:41","新北市樹林區文化街23號","121.419308333333","24.98757","6500700","樹林區"
"239007","AAC-297","2018/01/30 18:19:44","新北市鶯歌區重慶街65號","121.349516666667","24.9517416666667","6500800","鶯歌區"
"239006","891-R6","2018/01/30 18:19:42","新北市鶯歌區鶯桃路365巷62號","121.331616666667","24.9623433333333","6500800","鶯歌區"
"239008","527-UM","2018/01/30 18:19:49","新北市鶯歌區國際一路179號","121.336235","24.9765216666667","6500800","鶯歌區"
"239005","526-UM","2018/01/30 18:19:38","桃園市八德區桃鶯路130號","121.328453333333","24.96972","6500800","鶯歌區"
"239001","417-VK","2018/01/30 18:19:45","新北市鶯歌區國中街195號","121.338256666667","24.9391766666667","6500800","鶯歌區"
"239003","360-BY","2018/01/30 18:19:32","新北市鶯歌區福安街58號","121.33557","24.9652433333333","6500800","鶯歌區"
"239002","359-BY","2018/01/30 18:19:33","新北市鶯歌區中山路138巷1號","121.349798333333","24.9570966666667","6500800","鶯歌區"
"239004","193-VK","2018/01/30 18:19:53","新北市鶯歌區尖山路165號","121.345596666667","24.948105","6500800","鶯歌區"
"221036","130-UY","2018/01/30 18:19:47","新北市汐止區長安路60號","121.66886","25.0783766666667","6501100","汐止區"
"221010","269-BY","2018/01/30 18:19:38","新北市汐止區祥雲街18巷6號","121.646578333333","25.08976","6501100","汐止區"
"221012","278-VK","2018/01/30 18:19:52","新北市汐止區保長路35巷15弄6號","121.673163333333","25.0802833333333","6501100","汐止區"
"221023","279-VK","2018/01/30 18:19:49","新北市汐止區康寧街430號","121.631253333333","25.0675133333333","6501100","汐止區"
"221032","280-BY","2018/01/30 18:19:46","新北市汐止區民權街二段97巷4弄9號","121.618811666667","25.0471266666667","6501100","汐止區"
"221027","281-BY","2018/01/30 18:19:40","新北市汐止區和平街13號","121.663056666667","25.0706866666667","6501100","汐止區"
"221002","297-VK","2018/01/30 18:19:51","新北市汐止區福德一路213巷35號","121.63581","25.0648483333333","6501100","汐止區"
"221029","298-VK","2018/01/30 18:19:35","新北市汐止區樟樹二路330巷68號","121.642935","25.0698116666667","6501100","汐止區"
"221021","299-VK","2018/01/30 18:19:39","新北市汐止區龍安路202巷20號","121.652968333333","25.0636833333333","6501100","汐止區"
"221031","353-TW","2018/01/30 18:19:41","新北市汐止區中興路148號","121.632531666667","25.0646216666667","6501100","汐止區"
"221015","567-BX","2018/01/30 18:19:38","新北市汐止區鄉長路二段23巷11號","121.667641666667","25.0826666666667","6501100","汐止區"
"221035","622-UM","2018/01/30 18:19:31","新北市汐止區大同路二段187巷8弄4號","121.652581666667","25.065495","6501100","汐止區"
"221025","623-UM","2018/01/30 18:19:53","新北市汐止區勤進路12巷37號","121.65916","25.0626866666667","6501100","汐止區"
"221038","646-BX","2018/01/30 18:19:43","新北市汐止區仁愛路178號","121.66473","25.065655","6501100","汐止區"
"221033","647-BX","2018/01/30 18:19:38","新北市汐止區宜興街59巷13號","121.62168","25.04271","6501100","汐止區"
"221018","753-BX","2018/01/30 18:19:55","新北市汐止區茄苳路118號","121.668076666667","25.070275","6501100","汐止區"
"242048","281-VK","2018/01/30 18:19:38","新北市新莊區富國路87號","121.420428333333","25.0258133333333","6500500","新莊區"
"220075","303-R5","2018/01/30 18:19:45","新北市板橋區華東街1-9號","121.448223333333","24.994955","6500100","板橋區"
"220064","486-VK","2018/01/30 18:19:47","新北市板橋區華東街1-10號","121.448363333333","24.9949083333333","6500100","板橋區"
"220054","741-BX","2018/01/30 18:19:51","新北市板橋區華東街1-9號","121.448091666667","24.9949283333333","6500100","板橋區"
