"lineid","car","time","location","longitude","latitude","cityid","cityname"
"234046","148-BY","2018/01/30 18:39:51","新北市永和區永元路64號","121.52261","25.0013183333333","6500400","永和區"
"234067","149-BY","2018/01/30 18:39:34","新北市永和區永貞路175號","121.515265","25.00394","6500400","永和區"
"234007","207-UY","2018/01/30 18:39:36","新北市永和區文化路170號","121.511828333333","25.0155866666667","6500400","永和區"
"234081","298-R6","2018/01/30 18:39:50","新北市永和區林森路77號","121.524025","25.003805","6500400","永和區"
"234038","336-UY","2018/01/30 18:39:54","新北市永和區福和路1號","121.52665","25.0101633333333","6500400","永和區"
"234064","337-UY","2018/01/30 18:39:49","新北市永和區福和路1號","121.526616666667","25.0101183333333","6500400","永和區"
"234086","338-UY","2018/01/30 18:39:49","新北市中和區安平路102號","121.511623333333","24.99723","6500400","永和區"
"234030","746-BX","2018/01/30 18:39:45","新北市永和區得和路328號","121.52332","24.99958","6500400","永和區"
"234013","KEA-2591","2018/01/30 18:39:38","新北市永和區保福路二段109巷2號","121.510186666667","25.013415","6500400","永和區"
"234061","AAD-866","2018/01/30 18:39:37","新北市永和區福和路8巷1號","121.52492","25.00888","6500400","永和區"
"234042","862-TW","2018/01/30 18:39:54","新北市永和區永貞路308號","121.511865","25.00493","6500400","永和區"
"234050","863-TW","2018/01/30 18:39:33","新北市永和區福和路1號","121.526315","25.0096633333333","6500400","永和區"
"234026","9371-KE","2018/01/30 18:39:48","新北市永和區永貞路331號","121.509696666667","25.0070083333333","6500400","永和區"
"234011","9373-KE","2018/01/30 18:39:35","新北市永和區文化路9巷22弄34號","121.514453333333","25.0146116666667","6500400","永和區"
"249005","172-UM","2018/01/30 18:39:37","新北市八里區中華路三段196號","121.38815","25.12556","6502300","八里區"
"249001","173-UM","2018/01/30 18:39:47","新北市八里區龍米路一段328號","121.451555","25.1303983333333","6502300","八里區"
"249004","303-UY","2018/01/30 18:39:48","新北市八里區龍米路三段60號","121.423653333333","25.1589783333333","6502300","八里區"
"249002","305-UY","2018/01/30 18:39:35","新北市八里區龍形一街18號","121.449668333333","25.1304666666667","6502300","八里區"
"248014","025-BX","2018/01/30 18:39:50","新北市五股區蓬萊路24號","121.434163333333","25.0798116666667","6501500","五股區"
"248016","026-BX","2018/01/30 18:39:51","新北市五股區凌雲路一段149巷9號","121.448821666667","25.1015","6501500","五股區"
"248008","095-VK","2018/01/30 18:39:52","新北市五股區中興路一段148號","121.464666666667","25.074035","6501500","五股區"
"248020","225-UY","2018/01/30 18:39:39","新北市五股區孝義路69-1號","121.447298333333","25.11772","6501500","五股區"
"248004","677-BX","2018/01/30 18:39:43","新北市五股區六合街3號","121.431876666667","25.08849","6501500","五股區"
"248002","678-BX","2018/01/30 18:39:45","新北市五股區西雲路180號","121.447253333333","25.0950133333333","6501500","五股區"
"248010","682-TV","2018/01/30 18:39:52","新北市五股區明德路43號","121.43425","25.0712416666667","6501500","五股區"
"234023","9380-KE","2018/01/30 18:39:36","新北市永和區福和路10巷2號","121.524628333333","25.0087833333333","6500400","永和區"
"234077","969-R7","2018/01/30 18:39:44","新北市永和區中正路324號","121.51749","24.999625","6500400","永和區"
"232011","375-UM","2018/01/30 18:18:13","新北市坪林區坪雙路一段43號","121.711693333333","24.9424633333333","6502000","坪林區"
"244013","069-UM","2018/01/30 18:39:52","新北市林口區中山路267號","121.385308333333","25.0795416666667","6501700","林口區"
"244007","080-UY","2018/01/30 18:39:38","新北市林口區湖北里55號","121.384528333333","25.10665","6501700","林口區"
"244019","402-UM","2018/01/30 18:39:39","新北市林口區忠孝路622巷9號","121.378131666667","25.067095","6501700","林口區"
"244009","410-SL","2018/01/30 18:39:54","新北市林口區竹林路278巷8號","121.390558333333","25.08154","6501700","林口區"
"244023","483-VK","2018/01/30 18:39:51","新北市林口區文化二路二段86號","121.378536666667","25.0811283333333","6501700","林口區"
"244017","485-VK","2018/01/30 18:39:36","新北市林口區文化二路一段20巷25弄11號","121.365501666667","25.0671466666667","6501700","林口區"
"244011","656-BX","2018/01/30 18:39:47","新北市林口區興林路17巷3弄1號","121.390051666667","25.0770183333333","6501700","林口區"
"244021","657-BX","2018/01/30 18:39:51","新北市林口區工六路62-6號","121.39991","25.0776716666667","6501700","林口區"
"244025","837-TS","2018/01/30 18:39:50","新北市林口區南勢街252號","121.358455","25.0757833333333","6501700","林口區"
"243012","AAD-798","2018/01/30 18:39:51","新北市泰山區忠孝街14-1號","121.427606666667","25.0649333333333","6501600","泰山區"
"243013","646-TV","2018/01/30 18:39:38","新北市泰山區明志路三段206巷3號","121.423263333333","25.0379116666667","6501600","泰山區"
"243016","680-BX","2018/01/30 18:39:53","新北市泰山區泰林路二段598號","121.42185","25.0635316666667","6501600","泰山區"
"222003","016-RS","2018/01/30 18:39:54","新北市深坑區翠谷街29號","121.626643333333","25.00898","6501800","深坑區"
"222002","659-BX","2018/01/30 18:39:44","新北市深坑區文山路一段62巷10號","121.62193","25.00098","6501800","深坑區"
"231041","002-UM","2018/01/30 18:39:47","新北市新店區安華路28-1號","121.519843333333","24.9607733333333","6500600","新店區"
"231059","046-UY","2018/01/30 18:39:36","新北市新店區安華路28-1號","121.519546666667","24.960765","6500600","新店區"
"231061","047-UY","2018/01/30 18:39:35","新北市新店區安華路28-1號","121.519276666667","24.960905","6500600","新店區"
"231060","106-UY","2018/01/30 18:39:39","新北市新店區安華路28-1號","121.519716666667","24.9607633333333","6500600","新店區"
"231051","107-UY","2018/01/30 18:39:42","新北市新店區安康路一段3-1號","121.534003333333","24.9606033333333","6500600","新店區"
"231048","108-UY","2018/01/30 18:39:39","新北市新店區安康路一段69號","121.530245","24.96108","6500600","新店區"
"231053","187-VK","2018/01/30 18:39:40","新北市新店區新烏路一段58-2號","121.546001666667","24.9474266666667","6500600","新店區"
"231050","KEA-2219","2018/01/30 18:39:54","新北市新店區安華路28-1號","121.519953333333","24.9611866666667","6500600","新店區"
"231057","256-BX","2018/01/30 18:39:53","新北市新店區新烏路一段201號","121.548281666667","24.931215","6500600","新店區"
"231046","278-BY","2018/01/30 18:39:43","新北市新店區直潭二街1號","121.535558333333","24.9431933333333","6500600","新店區"
"231054","AAD-862","2018/01/30 18:39:49","新北市新店區安華路28-1號","121.519981666667","24.9612016666667","6500600","新店區"
"231058","3712-VJ","2018/01/30 18:39:39","新北市新店區北宜路一段168號","121.540488333333","24.952975","6500600","新店區"
"231056","3713-VJ","2018/01/30 18:39:33","新北市新店區自立街34號","121.538483333333","24.978545","6500600","新店區"
"231055","4716-K9","2018/01/30 18:39:41","新北市新店區華興街38巷5號","121.537073333333","24.9691733333333","6500600","新店區"
"231067","4772-VM","2018/01/30 18:39:43","新北市新店區安康路一段355-3號","121.519731666667","24.9619016666667","6500600","新店區"
"231065","512-UM","2018/01/30 18:39:32","新北市新店區安華路28-1號","121.519278333333","24.9612016666667","6500600","新店區"
"231042","616-UM","2018/01/30 18:39:33","新北市新店區安華路1-1號","121.519426666667","24.9604616666667","6500600","新店區"
"231045","617-UM","2018/01/30 18:39:38","新北市新店區安華路28-1號","121.519408333333","24.9609016666667","6500600","新店區"
"231040","619-UM","2018/01/30 18:39:53","新北市新店區安華路28-1號","121.519658333333","24.9608516666667","6500600","新店區"
"231063","645-TV","2018/01/30 18:39:44","新北市新店區安華路28-1號","121.519335","24.96068","6500600","新店區"
"231049","719-UM","2018/01/30 18:39:46","新北市新店區安康路一段3-1號","121.53521","24.9608666666667","6500600","新店區"
"231062","720-UM","2018/01/30 18:39:48","新北市新店區安華路28-1號","121.519325","24.9612683333333","6500600","新店區"
"231044","897-TW","2018/01/30 18:39:46","新北市新店區寶中路72號","121.547936666667","24.9806333333333","6500600","新店區"
"231043","899-TW","2018/01/30 18:39:46","新北市新店區安華路28-1號","121.519171666667","24.960935","6500600","新店區"
"231066","AKT-0513","2018/01/30 18:39:41","新北市新店區安華路30巷1號","121.519346666667","24.9596066666667","6500600","新店區"
"235066","003-UY","2018/01/30 18:39:40","新北市中和區水源路28號","121.504481666667","25.0035233333333","6500300","中和區"
"235064","005-UY","2018/01/30 18:39:39","新北市中和區連城路126號","121.496055","24.9994316666667","6500300","中和區"
"235063","031-BX","2018/01/30 18:39:42","新北市中和區連城路347巷16弄34號","121.487006666667","24.99511","6500300","中和區"
"235056","096-UM","2018/01/30 18:39:48","新北市中和區員山路611巷1號","121.477866666667","25.0112616666667","6500300","中和區"
"235039","097-UM","2018/01/30 18:39:43","新北市中和區安平路154號","121.512453333333","24.9983833333333","6500300","中和區"
"235040","150-BY","2018/01/30 18:39:38","新北市中和區保健路78號","121.511638333333","24.9963083333333","6500300","中和區"
"235058","151-BY","2018/01/30 18:39:37","新北市中和區員山路24-1號","121.483985","24.9855683333333","6500300","中和區"
"235055","183-VK","2018/01/30 18:39:45","新北市中和區中山路三段229巷49號","121.46923","25.005465","6500300","中和區"
"235038","185-VK","2018/01/30 18:39:36","新北市中和區大勇街45巷1號","121.517911666667","24.9949033333333","6500300","中和區"
"235049","186-VK","2018/01/30 18:39:45","新北市中和區景安路140號","121.50511","24.9942333333333","6500300","中和區"
"235067","255-BX","2018/01/30 18:39:43","新北市中和區新生街3號","121.483165","25.0046766666667","6500300","中和區"
"235044","293-VK","2018/01/30 18:39:48","新北市中和區復興路280巷24號","121.501951666667","24.9917183333333","6500300","中和區"
"235072","301-VK","2018/01/30 18:39:37","新北市中和區連城路87號","121.496716666667","25.0003183333333","6500300","中和區"
"235043","352-BY","2018/01/30 18:39:42","新北市中和區景德街70號","121.516801666667","24.9917133333333","6500300","中和區"
"235068","377-QA","2018/01/30 18:39:36","新北市中和區中正路131號","121.499825","24.9935316666667","6500300","中和區"
"235061","378-QA","2018/01/30 18:39:33","新北市中和區民享街90巷12號","121.474096666667","25.000185","6500300","中和區"
"235050","4979-A6","2018/01/30 18:39:51","新北市中和區景新街496巷28-1號","121.513398333333","24.98557","6500300","中和區"
"235069","4980-A6","2018/01/30 18:39:47","新北市中和區連城路89巷3-1號","121.497008333333","24.99967","6500300","中和區"
"235042","551-UM","2018/01/30 18:39:54","新北市中和區成功路127巷16號","121.527251666667","24.99094","6500300","中和區"
"235070","558-UM","2018/01/30 18:39:42","新北市中和區景新街133號","121.505986666667","24.99725","6500300","中和區"
"235045","565-BX","2018/01/30 18:39:48","新北市中和區南山路236巷51號","121.50494","24.9882583333333","6500300","中和區"
"235054","640-BX","2018/01/30 18:39:38","新北市中和區民享街86巷9號","121.474051666667","25.0007066666667","6500300","中和區"
"235060","647-TV","2018/01/30 18:39:51","新北市中和區中山路三段27號","121.479215","25.0059766666667","6500300","中和區"
"235047","732-UM","2018/01/30 18:39:39","新北市中和區南山路320巷10弄21號","121.506741666667","24.9867416666667","6500300","中和區"
"235046","733-UM","2018/01/30 18:39:39","新北市中和區捷運路8-5號","121.509535","24.98957","6500300","中和區"
"235062","800-TS","2018/01/30 18:39:43","新北市中和區中山路二段312巷19號","121.49557","25.0036433333333","6500300","中和區"
"235041","802-TS","2018/01/30 18:39:34","新北市中和區宜安路166號","121.508923333333","24.9990083333333","6500300","中和區"
"235052","805-TS","2018/01/30 18:39:46","新北市中和區興南路三段35號","121.496786666667","24.9780866666667","6500300","中和區"
"235048","896-TW","2018/01/30 18:39:43","新北市中和區南山路218號","121.506326666667","24.99033","6500300","中和區"
"235053","900-TW","2018/01/30 18:39:39","新北市中和區華安街96號","121.46859","24.995575","6500300","中和區"
"235065","911-UM","2018/01/30 18:39:45","新北市中和區莊敬路33巷34弄8號","121.50033","25.0060533333333","6500300","中和區"
"235051","157-BY","2018/01/30 18:39:46","新北市中和區興南路二段142巷35弄2號","121.502265","24.98461","6500300","中和區"
"235037","AAC-213","2018/01/30 18:39:53","新北市中和區景德街86號","121.516303333333","24.991475","6500300","中和區"
"235059","AAC-215","2018/01/30 18:39:34","新北市中和區錦和路350-1號","121.490525","24.9935566666667","6500300","中和區"
"220068","013-TV","2018/01/30 18:39:32","新北市板橋區民生路二段120號","121.47039","25.019725","6500100","板橋區"
"220065","072-UY","2018/01/30 18:39:40","新北市板橋區區運路35號","121.466176666667","25.0103166666667","6500100","板橋區"
"220086","073-UY","2018/01/30 18:39:33","新北市板橋區南雅西路二段192巷4-2號","121.45197","25.0143466666667","6500100","板橋區"
"220069","AAD-861","2018/01/30 18:39:47","新北市板橋區華東街1-10號","121.448316666667","24.9950766666667","6500100","板橋區"
"226004","205-ST","2018/01/30 18:39:50","新北市平溪區平溪里三坑路49-1號","121.731816666667","25.0329733333333","6502400","平溪區"
"235057","251-BX","2018/01/30 18:39:45","新北市中和區員山路327巷78號","121.479623333333","25.0021583333333","6500300","中和區"
"228001","212-TW","2018/01/30 18:39:49","新北市貢寮區仁理村研海街12-1號","121.923755","25.05168","6502600","貢寮區"
"228002","663-BX","2018/01/30 18:39:45","新北市貢寮區福隆里東興街6-11號","121.950751666667","25.02107","6502600","貢寮區"
"228003","828-UM","2018/01/30 18:39:52","新北市貢寮區和美里龍洞街12-2號","121.918258333333","25.1117416666667","6502600","貢寮區"
"224010","AGQ-8101","2018/01/30 18:39:54","新北市瑞芳區基山街31巷19號","121.845856666667","25.1098466666667","6501200","瑞芳區"
"224006","676-BX","2018/01/30 18:39:42","新北市瑞芳區明燈路三段85號","121.804991666667","25.1083733333333","6501200","瑞芳區"
"224002","639-TC","2018/01/30 18:39:36","新北市瑞芳區中山路307-2號","121.794028333333","25.1095116666667","6501200","瑞芳區"
"224009","285-BY","2018/01/30 18:39:42","新北市瑞芳區祈堂路8號","121.858998333333","25.1126166666667","6501200","瑞芳區"
"224008","275-VK","2018/01/30 18:39:34","新北市瑞芳區瑞芳街139號","121.805081666667","25.1098466666667","6501200","瑞芳區"
"224007","273-VK","2018/01/30 18:39:40","新北市瑞芳區大埔路115巷10號","121.763153333333","25.1011916666667","6501200","瑞芳區"
"224005","271-BY","2018/01/30 18:39:46","新北市瑞芳區瑞濱路131號","121.81995","25.1200016666667","6501200","瑞芳區"
"227009","642-TC","2018/01/30 18:39:44","新北市雙溪區牡丹里下坑11號","121.851008333333","25.0561983333333","6502500","雙溪區"
"227003","400-TW","2018/01/30 18:39:38","新北市雙溪區魚行里坤溪3-5號","121.87554","25.0213433333333","6502500","雙溪區"
"253005","032-BX","2018/01/30 18:39:40","新北市石門區中山路33號","121.567156666667","25.29096","6502200","石門區"
"253006","295-VK","2018/01/30 18:39:50","新北市石門區崁子腳1-1號","121.531795","25.288035","6502200","石門區"
"222001","KEA-2212","2018/01/30 18:39:56","新北市深坑區北深路一段84號","121.636258333333","25.01064","6501800","深坑區"
"208002","742-BX","2018/01/30 18:39:39","新北市金山區忠孝一路19巷15號","121.637541666667","25.2178516666667","6502700","金山區"
"208003","665-BX","2018/01/30 18:39:47","新北市金山區中山路399號","121.633185","25.2253683333333","6502700","金山區"
"208001","761-BX","2018/01/30 18:39:50","新北市金山區文化三路42-6號","121.635106666667","25.2250566666667","6502700","金山區"
"251013","179-VK","2018/01/30 18:39:49","新北市淡水區雲廣坑7-1號","121.47569","25.21319","6501000","淡水區"
"251014","180-VK","2018/01/30 18:39:42","新北市淡水區南平19-2號","121.493233333333","25.2163016666667","6501000","淡水區"
"251008","181-VK","2018/01/30 18:39:45","新北市淡水區北投子77號","121.458513333333","25.1788016666667","6501000","淡水區"
"251015","182-VK","2018/01/30 18:39:52","新北市淡水區興福寮66巷267號","121.486753333333","25.1620733333333","6501000","淡水區"
"251010","413-VK","2018/01/30 18:39:44","新北市淡水區沙崙路126號","121.423548333333","25.18277","6501000","淡水區"
"251012","441-VK","2018/01/30 18:39:50","新北市淡水區北新路117號","121.44902","25.1784483333333","6501000","淡水區"
"251016","442-VK","2018/01/30 18:39:34","新北市淡水區下圭柔山76-1號","121.442556666667","25.20533","6501000","淡水區"
"251001","559-UM","2018/01/30 18:39:46","新北市淡水區自強路415巷2號","121.465425","25.1342783333333","6501000","淡水區"
"251006","561-UM","2018/01/30 18:39:46","新北市淡水區中山北路三段79號","121.444586666667","25.19223","6501000","淡水區"
"251007","577-R6","2018/01/30 18:39:48","新北市淡水區中正東路二段143巷2弄1號","121.460651666667","25.1473366666667","6501000","淡水區"
"251011","650-BX","2018/01/30 18:39:47","新北市淡水區鄧公路30巷2弄42號","121.454293333333","25.1690216666667","6501000","淡水區"
"251002","672-BX","2018/01/30 18:39:46","新北市淡水區中正東路一段3巷14弄1號","121.450915","25.164205","6501000","淡水區"
"251003","673-BX","2018/01/30 18:39:36","新北市淡水區北新路69巷26號","121.446716666667","25.18016","6501000","淡水區"
"207003","550-UM","2018/01/30 18:39:52","新北市萬里區大鵬里頂社2-1號","121.660321666667","25.2072083333333","6502800","萬里區"
"207004","225-TW","2018/01/30 18:39:42","新北市萬里區萬里里獅頭路2-1號","121.691916666667","25.1778733333333","6502800","萬里區"
"252002","178-VK","2018/01/30 18:39:55","新北市三芝區民生街64巷4號","121.5035","25.2553283333333","6502100","三芝區"
"252003","249-BX","2018/01/30 18:39:47","新北市三芝區後厝里土地公坑73-17號","121.459793333333","25.2470766666667","6502100","三芝區"
"252001","292-VK","2018/01/30 18:39:37","新北市三芝區中興街二段260號","121.501123333333","25.2536116666667","6502100","三芝區"
"237004","078-UY","2018/01/30 18:39:42","新北市三峽區有木107-2號","121.433838333333","24.8608233333333","6500900","三峽區"
"237007","153-BY","2018/01/30 18:39:36","新北市三峽區中正路三段42號","121.357085","24.90433","6500900","三峽區"
"237009","210-TH","2018/01/30 18:39:35","新北市三峽區大同路238號","121.366123333333","24.92571","6500900","三峽區"
"237013","252-BX","2018/01/30 18:39:53","新北市三峽區光明路69巷25號","121.376726666667","24.9292716666667","6500900","三峽區"
"237012","275-BY","2018/01/30 18:39:46","新北市三峽區三樹路240號","121.379403333333","24.9430516666667","6500900","三峽區"
"237008","302-VK","2018/01/30 18:39:41","新北市三峽區紫微路87號","121.403963333333","24.90884","6500900","三峽區"
"237014","433-BY","2018/01/30 18:39:34","新北市三峽區復興路480巷52-1號","121.361983333333","24.94125","6500900","三峽區"
"237006","5529-G3","2018/01/30 18:39:39","新北市三峽區溪東路315巷10號","121.410776666667","24.9308383333333","6500900","三峽區"
"237016","649-BX","2018/01/30 18:32:41","新北市三峽區紫微路6號","121.425946666667","24.922125","6500900","三峽區"
"237010","706-TV","2018/01/30 18:39:49","新北市三峽區復興路323號","121.364781666667","24.938775","6500900","三峽區"
"237005","AKY-6261","2018/01/30 18:39:47","新北市三峽區新興街3號","121.372621666667","24.93588","6500900","三峽區"
"236070","105-UM","2018/01/30 18:39:39","新北市土城區永豐路185號","121.470238333333","24.9782","6501300","土城區"
"236043","107-UM","2018/01/30 18:39:44","新北市土城區學成路108巷9號","121.45001","24.9895666666667","6501300","土城區"
"236079","166-UM","2018/01/30 18:39:47","新北市土城區中央路四段46巷28號","121.421905","24.9616433333333","6501300","土城區"
"236031","253-BX","2018/01/30 18:39:49","新北市土城區中華路二段104號","121.438086666667","24.9742433333333","6501300","土城區"
"236026","269-VK","2018/01/30 18:39:43","新北市土城區金城路一段66號","121.442805","24.971155","6501300","土城區"
"236015","270-VK","2018/01/30 18:39:53","新北市土城區清水路207巷8號","121.460041666667","24.9822433333333","6501300","土城區"
"236038","271-VK","2018/01/30 18:39:47","新北市土城區明德路一段291巷11弄20號","121.460915","24.976065","6501300","土城區"
"236023","401-BY","2018/01/30 18:39:52","新北市土城區延吉街266號","121.465965","24.9844366666667","6501300","土城區"
"236059","912-UM","2018/01/30 18:39:41","新北市土城區中央路四段33號","121.423711666667","24.9621233333333","6501300","土城區"
"236049","913-UM","2018/01/30 18:39:38","新北市土城區明德路一段179號","121.464106666667","24.979095","6501300","土城區"
"236063","915-UM","2018/01/30 18:39:45","新北市土城區延壽路19號","121.471233333333","24.99067","6501300","土城區"
"236055","AAC-216","2018/01/30 18:39:54","新北市土城區裕民路8號","121.446975","24.98903","6501300","土城區"
"242032","AAC-296","2018/01/30 18:39:51","新北市新莊區新泰路277巷17號","121.44513","25.0401316666667","6500500","新莊區"
"242054","440-UM","2018/01/30 18:39:40","新北市新莊區樹新路120巷25號","121.430411666667","24.99634","6500500","新莊區"
"242061","362-BY","2018/01/30 18:39:49","新北市新莊區民安西路42號","121.427495","25.0209716666667","6500500","新莊區"
"242058","353-BY","2018/01/30 18:39:45","新北市新莊區中正路887-13號","121.41637","25.0242766666667","6500500","新莊區"
"242007","132-UY","2018/01/30 18:39:42","新北市新莊區中正路181號","121.45391","25.0365333333333","6500500","新莊區"
"242046","172-VK","2018/01/30 18:39:36","新北市樹林區三俊街125號","121.417801666667","25.0155433333333","6500500","新莊區"
"238015","755-BX","2018/01/30 18:39:52","新北市樹林區大安路576號","121.411765","24.9836116666667","6500700","樹林區"
"238023","601-UM","2018/01/30 18:39:43","新北市樹林區三福街114號","121.406453333333","25.0163483333333","6500700","樹林區"
"238019","599-UM","2018/01/30 18:39:45","新北市樹林區中華路190號","121.411961666667","24.9804883333333","6500700","樹林區"
"238018","571-TV","2018/01/30 18:39:50","新北市樹林區樹新路135號","121.428406666667","24.99631","6500700","樹林區"
"238024","5061-A6","2018/01/30 18:39:44","新北市樹林區太順街49巷12號","121.418003333333","24.97888","6500700","樹林區"
"238025","303-VK","2018/01/30 18:39:37","新北市樹林區中山路三段22號","121.395671666667","24.9729233333333","6500700","樹林區"
"238017","283-BY","2018/01/30 18:39:43","新北市樹林區光榮街3巷1號","121.413105","25.0039866666667","6500700","樹林區"
"238014","282-BY","2018/01/30 18:39:36","新北市樹林區大安路111巷25號","121.42318","24.9976116666667","6500700","樹林區"
"238020","268-VK","2018/01/30 18:39:45","新北市樹林區三龍街113號","121.417386666667","25.0182533333333","6500700","樹林區"
"238026","172-UY","2018/01/30 18:39:46","新北市樹林區育德街78-1號","121.387378333333","24.96811","6500700","樹林區"
"238016","169-UY","2018/01/30 18:39:41","新北市樹林區文化街28號","121.419398333333","24.9876966666667","6500700","樹林區"
"239007","AAC-297","2018/01/30 18:39:44","新北市鶯歌區中正一路建德巷28號","121.364583333333","24.9577566666667","6500800","鶯歌區"
"239008","527-UM","2018/01/30 18:39:49","新北市鶯歌區國際一路179號","121.336235","24.9765233333333","6500800","鶯歌區"
"239005","526-UM","2018/01/30 18:39:37","新北市鶯歌區鳳吉一街18號","121.325323333333","24.97342","6500800","鶯歌區"
"239001","417-VK","2018/01/30 18:39:45","新北市鶯歌區中正三路106-1號","121.338045","24.94085","6500800","鶯歌區"
"239003","360-BY","2018/01/30 18:39:52","新北市鶯歌區永和街200號","121.336793333333","24.9712266666667","6500800","鶯歌區"
"239002","359-BY","2018/01/30 18:39:36","新北市鶯歌區中正一路4號","121.352541666667","24.9528233333333","6500800","鶯歌區"
"239004","193-VK","2018/01/30 18:39:53","新北市鶯歌區尖山路249號","121.340641666667","24.94353","6500800","鶯歌區"
"221036","130-UY","2018/01/30 18:39:47","新北市汐止區南昌街29號","121.663173333333","25.069205","6501100","汐止區"
"221010","269-BY","2018/01/30 18:39:38","新北市汐止區汐萬路三段282號","121.641123333333","25.1086216666667","6501100","汐止區"
"221012","278-VK","2018/01/30 18:39:52","新北市汐止區鄉長路一段295號","121.669271666667","25.079475","6501100","汐止區"
"221023","279-VK","2018/01/30 18:39:49","新北市汐止區康寧街706-2號","121.638476666667","25.073065","6501100","汐止區"
"221032","280-BY","2018/01/30 18:39:52","新北市汐止區民權街二段79號","121.619173333333","25.0480216666667","6501100","汐止區"
"221027","281-BY","2018/01/30 18:39:40","新北市汐止區大同路二段359號","121.657148333333","25.0672783333333","6501100","汐止區"
"221002","297-VK","2018/01/30 18:39:51","新北市汐止區中興路23號","121.636973333333","25.0595683333333","6501100","汐止區"
"221029","298-VK","2018/01/30 18:39:35","新北市汐止區樟樹一路150號","121.642358333333","25.0651883333333","6501100","汐止區"
"221021","299-VK","2018/01/30 18:39:39","新北市汐止區復興路71號","121.657268333333","25.06201","6501100","汐止區"
"221031","353-TW","2018/01/30 18:39:41","新北市汐止區中興路108號","121.63353","25.0634916666667","6501100","汐止區"
"221015","567-BX","2018/01/30 18:39:38","新北市汐止區鄉長路二段18巷1號","121.668066666667","25.081745","6501100","汐止區"
"221035","622-UM","2018/01/30 18:39:51","新北市汐止區大同路二段193號","121.652466666667","25.0643283333333","6501100","汐止區"
"221025","623-UM","2018/01/30 18:27:13","新北市汐止區仁愛路121巷1號","121.662766666667","25.06375","6501100","汐止區"
"221038","646-BX","2018/01/30 18:39:38","新北市汐止區汐萬路一段273號","121.65053","25.0745033333333","6501100","汐止區"
"221033","647-BX","2018/01/30 18:39:38","新北市汐止區南勢街3號","121.627073333333","25.0373833333333","6501100","汐止區"
"221018","753-BX","2018/01/30 18:39:55","新北市汐止區茄苳路282巷3號","121.672315","25.0677933333333","6501100","汐止區"
"220079","145-BY","2018/01/30 18:39:53","新北市板橋區館前西路162號","121.452908333333","25.0085916666667","6500100","板橋區"
"220082","610-BX","2018/01/30 18:39:47","新北市板橋區四川路二段橋頭1巷1號","121.446928333333","24.994055","6500100","板橋區"
"220056","276-BY","2018/01/30 18:39:46","新北市板橋區四川路二段橋頭6號","121.44836","24.9940383333333","6500100","板橋區"
"220020","277-BY","2018/01/30 18:39:39","新北市板橋區大觀路三段5-4號","121.43282","24.9959016666667","6500100","板橋區"
"220071","283-VK","2018/01/30 18:39:53","新北市板橋區華東街1號","121.448505","24.9941833333333","6500100","板橋區"
"220053","285-VK","2018/01/30 18:39:46","新北市板橋區民生路二段120號","121.470406666667","25.0198633333333","6500100","板橋區"
"220083","286-VK","2018/01/30 18:39:45","新北市板橋區板城路407號","121.447463333333","24.99525","6500100","板橋區"
"220081","287-VK","2018/01/30 18:39:44","新北市板橋區大觀路二段11-12號","121.448291666667","24.996685","6500100","板橋區"
"220061","293-UM","2018/01/30 18:39:40","新北市板橋區民生路二段120號","121.470413333333","25.019745","6500100","板橋區"
"220062","295-UM","2018/01/30 18:39:36","新北市板橋區民生路二段161巷9號","121.4703","25.01958","6500100","板橋區"
"220084","296-UM","2018/01/30 18:39:43","新北市板橋區大觀路二段266號","121.448486666667","24.9969166666667","6500100","板橋區"
"220098","299-UM","2018/01/30 18:39:42","新北市板橋區民生路二段120號","121.470341666667","25.0198166666667","6500100","板橋區"
"220075","303-R5","2018/01/30 18:39:45","新北市板橋區南雅南路二段120-7號","121.452155","24.9994716666667","6500100","板橋區"
"220064","486-VK","2018/01/30 18:39:47","新北市板橋區縣民大道二段101號","121.466641666667","25.0152533333333","6500100","板橋區"
"220055","630-UY","2018/01/30 18:39:42","新北市板橋區華東街1-9號","121.448135","24.99488","6500100","板橋區"
"220057","686-BX","2018/01/30 18:39:53","新北市板橋區華東街1-9號","121.448241666667","24.9948666666667","6500100","板橋區"
"220077","687-BX","2018/01/30 18:39:45","新北市板橋區大觀路二段431-1號","121.441258333333","24.9951016666667","6500100","板橋區"
"220054","741-BX","2018/01/30 18:39:51","新北市板橋區華東街1-9號","121.448116666667","24.99491","6500100","板橋區"
"220067","829-TW","2018/01/30 18:39:53","新北市板橋區民生路二段120號","121.470323333333","25.0197033333333","6500100","板橋區"
"220074","895-R6","2018/01/30 18:39:37","新北市板橋區南雅南路二段140號","121.451916666667","24.9962483333333","6500100","板橋區"
"220073","985-R7","2018/01/30 18:39:51","新北市板橋區南雅南路二段134號","121.45194","24.9966483333333","6500100","板橋區"
"220070","AAC-253","2018/01/30 18:39:40","新北市板橋區華東街1-9號","121.44802","24.994885","6500100","板橋區"
