"lineid","car","time","location","longitude","latitude","cityid","cityname"
"234067","149-BY","2018/01/30 20:19:34","新北市永和區保平路185號","121.509211666667","25.0052833333333","6500400","永和區"
"234007","207-UY","2018/01/30 20:19:36","新北市永和區仁愛路264號","121.504356666667","25.00874","6500400","永和區"
"234081","298-R6","2018/01/30 20:19:30","新北市永和區福和路19巷14號","121.524381666667","25.007795","6500400","永和區"
"234038","336-UY","2018/01/30 20:19:39","新北市永和區成功路一段91號","121.526938333333","25.0027916666667","6500400","永和區"
"234064","337-UY","2018/01/30 20:19:28","新北市永和區得和路110號","121.518461666667","25.0001333333333","6500400","永和區"
"234086","338-UY","2018/01/30 20:19:29","新北市永和區中正路633號","121.515448333333","25.0099983333333","6500400","永和區"
"234070","552-UM","2018/01/30 20:19:22","新北市永和區福和路263巷15號","121.518006666667","25.0064566666667","6500400","永和區"
"234017","745-BX","2018/01/30 20:19:35","新北市永和區仁愛路7號","121.514911666667","25.013475","6500400","永和區"
"234030","746-BX","2018/01/30 20:19:25","新北市永和區民有街96號","121.517376666667","24.9959566666667","6500400","永和區"
"234054","KEA-2590","2018/01/30 20:19:34","新北市永和區光復街2巷16弄9號","121.517515","25.0163183333333","6500400","永和區"
"234013","KEA-2591","2018/01/30 20:19:18","新北市永和區保生路64號","121.505156666667","25.00901","6500400","永和區"
"234061","AAD-866","2018/01/30 20:19:37","新北市永和區得和路21號","121.515498333333","25.0005416666667","6500400","永和區"
"234042","862-TW","2018/01/30 20:19:34","新北市永和區雙和街3號","121.509795","25.0016866666667","6500400","永和區"
"234050","863-TW","2018/01/30 20:19:13","新北市永和區保安路8號","121.510545","25.0174683333333","6500400","永和區"
"249005","172-UM","2018/01/30 20:19:37","新北市八里區下罟子1-14號","121.389376666667","25.1419466666667","6502300","八里區"
"249001","173-UM","2018/01/30 20:19:30","新北市八里區中華路二段341-10號","121.399105","25.1449433333333","6502300","八里區"
"249004","303-UY","2018/01/30 20:19:35","新北市八里區中山路一段326號","121.412865","25.159105","6502300","八里區"
"249002","305-UY","2018/01/30 20:19:35","新北市八里區龍米路一段358號","121.451563333333","25.1312866666667","6502300","八里區"
"249003","593-UM","2018/01/30 20:19:27","新北市八里區訊埔路20號","121.397591666667","25.1452966666667","6502300","八里區"
"248014","025-BX","2018/01/30 20:18:08","新北市五股區中直路13-7號","121.424276666667","25.1107066666667","6501500","五股區"
"248016","026-BX","2018/01/30 20:19:39","新北市五股區天乙路16號","121.448518333333","25.1034366666667","6501500","五股區"
"248012","247-BX","2018/01/30 20:19:36","新北市五股區民義路一段212號","121.430605","25.0893766666667","6501500","五股區"
"248004","677-BX","2018/01/30 20:19:23","新北市五股區中興路四段48巷1號","121.43824","25.082965","6501500","五股區"
"248002","678-BX","2018/01/30 20:19:26","新北市五股區成泰路三段165號","121.445296666667","25.0917366666667","6501500","五股區"
"248010","682-TV","2018/01/30 20:19:36","新北市泰山區新五路一段104號","121.440735","25.060915","6501500","五股區"
"234023","9380-KE","2018/01/30 20:19:36","新北市永和區復興街18號","121.51586","25.0128916666667","6500400","永和區"
"234077","969-R7","2018/01/30 20:19:24","新北市永和區中正路102號","121.514376666667","24.9957916666667","6500400","永和區"
"234074","AAC-211","2018/01/30 20:19:37","新北市永和區豫溪街160巷1號","121.523318333333","25.009575","6500400","永和區"
"234003","AAC-295","2018/01/30 20:19:28","新北市永和區大新街3號","121.514536666667","25.008695","6500400","永和區"
"243011","267-VK","2018/01/30 20:19:42","新北市泰山區貴陽街36巷3號","121.423","25.032015","6501600","泰山區"
"243012","AAD-798","2018/01/30 20:19:30","新北市泰山區楓江路53號","121.435581666667","25.0626216666667","6501600","泰山區"
"243015","380-SR","2018/01/30 20:19:26","新北市泰山區泰林路二段158號","121.433901666667","25.0602733333333","6501600","泰山區"
"243014","421-VK","2018/01/30 20:19:36","新北市泰山區泰林路二段396號","121.427865","25.0640883333333","6501600","泰山區"
"243010","KEA-2215","2018/01/30 20:19:25","新北市泰山區明志路二段246巷4號","121.426393333333","25.0484783333333","6501600","泰山區"
"243009","KEA-2216","2018/01/30 20:19:40","新北市泰山區福泰街24巷4號","121.43336","25.059885","6501600","泰山區"
"243013","646-TV","2018/01/30 20:19:27","新北市泰山區中央路5巷21號","121.427316666667","25.0432616666667","6501600","泰山區"
"243016","680-BX","2018/01/30 20:19:33","新北市泰山區明志路三段129號","121.424985","25.04056","6501600","泰山區"
"222003","016-RS","2018/01/30 20:19:27","新北市深坑區文化街78號","121.61802","25.0020033333333","6501800","深坑區"
"222002","659-BX","2018/01/30 20:19:24","新北市深坑區萬福路75巷8號","121.600828333333","25.0093133333333","6501800","深坑區"
"231041","002-UM","2018/01/30 20:19:27","新北市新店區民權路42號","121.540375","24.98296","6500600","新店區"
"231059","046-UY","2018/01/30 20:19:36","新北市新店區安德街116巷40號","121.5085","24.9612033333333","6500600","新店區"
"231061","047-UY","2018/01/30 20:19:35","新北市新店區安民街133巷26號","121.515346666667","24.9694416666667","6500600","新店區"
"231060","106-UY","2018/01/30 20:19:39","新北市新店區錦秀路13號","121.479486666667","24.944815","6500600","新店區"
"231051","107-UY","2018/01/30 20:19:41","新北市新店區中央六街27號","121.529328333333","24.9750133333333","6500600","新店區"
"231048","108-UY","2018/01/30 20:19:19","新北市新店區寶橋路132號","121.54738","24.97608","6500600","新店區"
"231064","110-UY","2018/01/30 20:19:25","新北市新店區安樂街14巷2號","121.520598333333","24.9735716666667","6500600","新店區"
"231053","187-VK","2018/01/30 20:19:40","新北市新店區新烏路二段385號","121.550875","24.9099766666667","6500600","新店區"
"231050","KEA-2219","2018/01/30 20:19:34","新北市新店區北新路二段2號","121.54279","24.9707283333333","6500600","新店區"
"231057","256-BX","2018/01/30 20:19:40","新北市新店區花園十路二段7-6號","121.554238333333","24.9345216666667","6500600","新店區"
"231054","AAD-862","2018/01/30 20:19:29","新北市新店區檳榔路109號","121.544506666667","24.9617","6500600","新店區"
"231058","3712-VJ","2018/01/30 20:19:39","新北市新店區中正路347號","121.535441666667","24.9759066666667","6500600","新店區"
"231056","3713-VJ","2018/01/30 20:19:13","新北市新店區中正路306號","121.537405","24.9746366666667","6500600","新店區"
"231055","4716-K9","2018/01/30 20:19:21","新北市新店區北新路一段297巷25號","121.54065","24.9680783333333","6500600","新店區"
"231067","4772-VM","2018/01/30 20:19:23","新北市新店區安康路一段32號","121.531701666667","24.9610716666667","6500600","新店區"
"231065","512-UM","2018/01/30 20:19:32","新北市新店區安祥路104巷6弄36號","121.4831","24.962975","6500600","新店區"
"231042","616-UM","2018/01/30 20:19:33","新北市新店區寶橋路230號","121.551485","24.9788733333333","6500600","新店區"
"231045","617-UM","2018/01/30 20:19:37","新北市新店區新坡一街72號","121.548918333333","24.9645433333333","6500600","新店區"
"231040","619-UM","2018/01/30 20:19:39","新北市新店區三民路57號","121.536731666667","24.9711016666667","6500600","新店區"
"231063","645-TV","2018/01/30 20:19:24","新北市新店區薏仁坑路自強巷6號","121.496936666667","24.9586666666667","6500600","新店區"
"231068","718-UY","2018/01/30 20:19:29","新北市新店區寶安街32號","121.542191666667","24.9823433333333","6500600","新店區"
"231049","719-UM","2018/01/30 20:19:26","新北市新店區北新路二段139巷5號","121.54221","24.97562","6500600","新店區"
"231062","720-UM","2018/01/30 20:19:28","新北市新店區安泰路7巷16號","121.485653333333","24.951","6500600","新店區"
"231044","897-TW","2018/01/30 20:19:33","新北市新店區北新路三段148號","121.54149","24.9823816666667","6500600","新店區"
"231043","899-TW","2018/01/30 20:19:26","新北市新店區建國路133號","121.539331666667","24.9782766666667","6500600","新店區"
"231066","AKT-0513","2018/01/30 20:19:29","新北市新店區安興路112號","121.514598333333","24.9774416666667","6500600","新店區"
"241011","013-R5","2018/01/30 20:19:27","新北市三重區龍門路160號","121.498738333333","25.0731183333333","6500200","三重區"
"241028","022-UY","2018/01/30 20:19:29","新北市三重區大同南路127-2號","121.4964","25.0579733333333","6500200","三重區"
"241008","059-VK","2018/01/30 20:19:39","新北市三重區永福街211巷21號","121.479175","25.0741416666667","6500200","三重區"
"241009","060-VK","2018/01/30 20:19:33","新北市三重區三和路四段382巷41號","121.481351666667","25.0786166666667","6500200","三重區"
"241031","061-VK","2018/01/30 20:19:27","新北市三重區過圳街31巷5號","121.489111666667","25.0602933333333","6500200","三重區"
"241015","062-VK","2018/01/30 20:19:38","新北市三重區重新路一段126號","121.500301666667","25.0629316666667","6500200","三重區"
"241017","063-VK","2018/01/30 20:19:25","新北市三重區大智街100號","121.493278333333","25.06654","6500200","三重區"
"241024","065-VK","2018/01/30 20:19:34","新北市三重區中正北路284號","121.480525","25.068675","6500200","三重區"
"241026","066-VK","2018/01/30 20:19:37","新北市三重區中央南路31號","121.501271666667","25.0621733333333","6500200","三重區"
"241002","090-VK","2018/01/30 20:19:37","新北市三重區仁義街101巷42號","121.499153333333","25.080825","6500200","三重區"
"241003","091-VK","2018/01/30 20:19:22","新北市三重區富華街61號","121.49127","25.0835916666667","6500200","三重區"
"241025","156-TC","2018/01/30 20:19:36","新北市三重區三民街272巷6-1號","121.478716666667","25.067845","6500200","三重區"
"241016","266-UM","2018/01/30 20:19:22","新北市三重區大同北路97-3號","121.494378333333","25.06354","6500200","三重區"
"241018","268-UM","2018/01/30 20:19:35","新北市三重區自強路一段95號","121.49587","25.066405","6500200","三重區"
"241032","269-UM","2018/01/30 20:19:26","新北市三重區捷運路19巷6弄15號","121.484456666667","25.0568916666667","6500200","三重區"
"241013","270-UM","2018/01/30 20:19:28","新北市三重區三和路三段167巷3號","121.492105","25.074065","6500200","三重區"
"241007","398-BY","2018/01/30 20:19:34","新北市三重區溪尾街108巷42-2號","121.487708333333","25.0781783333333","6500200","三重區"
"241020","413-TH","2018/01/30 20:19:30","新北市三重區明德街7號","121.493015","25.0724733333333","6500200","三重區"
"241035","462-BY","2018/01/30 20:19:33","新北市三重區正義北路33巷48號","121.498973333333","25.0639016666667","6500200","三重區"
"241004","475-VK","2018/01/30 20:19:22","新北市三重區仁愛街390號","121.49085","25.080835","6500200","三重區"
"241019","478-VK","2018/01/30 20:19:34","新北市三重區大智街212號","121.490291666667","25.0714166666667","6500200","三重區"
"241030","480-VK","2018/01/30 20:19:38","新北市三重區集美街89巷36號","121.488261666667","25.0522816666667","6500200","三重區"
"241014","543-UM","2018/01/30 20:19:34","新北市三重區龍濱路165號","121.502361666667","25.0698433333333","6500200","三重區"
"241023","545-UM","2018/01/30 20:19:37","新北市三重區頂崁街141號","121.477778333333","25.0650183333333","6500200","三重區"
"241001","547-UM","2018/01/30 20:19:27","新北市三重區三和路四段89巷36號","121.490516666667","25.0763483333333","6500200","三重區"
"241022","887-TS","2018/01/30 20:19:27","新北市三重區市前街14號","121.489173333333","25.0623933333333","6500200","三重區"
"241012","941-UM","2018/01/30 20:19:32","新北市三重區河邊北街379-1號","121.501751666667","25.0764516666667","6500200","三重區"
"241029","942-UM","2018/01/30 20:19:27","新北市三重區重安街98號","121.492666666667","25.0561616666667","6500200","三重區"
"241033","AAC-255","2018/01/30 20:19:23","新北市三重區五谷王北街77號","121.475756666667","25.05011","6500200","三重區"
"235066","003-UY","2018/01/30 20:19:39","新北市中和區南工路105號","121.507235","25.003865","6500300","中和區"
"235039","097-UM","2018/01/30 20:19:23","新北市中和區立人街24-5號","121.518811666667","24.9941216666667","6500300","中和區"
"235040","150-BY","2018/01/30 20:19:38","新北市中和區保健路26巷29號","121.508871666667","24.99701","6500300","中和區"
"235068","377-QA","2018/01/30 20:19:36","新北市中和區福祥路85巷2弄5號","121.498611666667","25.00605","6500300","中和區"
"235050","4979-A6","2018/01/30 20:19:31","新北市中和區景平路464巷2弄1-4號","121.505908333333","24.9939433333333","6500300","中和區"
"235069","4980-A6","2018/01/30 20:19:27","新北市中和區景平路477號","121.500245","24.9971066666667","6500300","中和區"
"235070","558-UM","2018/01/30 19:59:42","新北市中和區連勝街13號","121.49891","24.9981","6500300","中和區"
"235026","800-TS","2018/01/30 20:19:23","新北市中和區員山路36巷13號","121.484336666667","24.990705","6500300","中和區"
"235065","911-UM","2018/01/30 20:19:25","新北市中和區福美路256巷8號","121.498255","25.0057566666667","6500300","中和區"
"235037","AAC-213","2018/01/30 20:19:33","新北市板橋區中山路二段50-6號","121.473623333333","25.0151716666667","6500300","中和區"
"235059","AAC-215","2018/01/30 20:19:34","新北市中和區圓通路367巷5號","121.492238333333","24.9881166666667","6500300","中和區"
"220069","AAD-861","2018/01/30 20:19:27","新北市板橋區大觀路二段431-1號","121.44125","24.99503","6500100","板橋區"
"247022","893-R6","2018/01/30 20:19:40","新北市蘆洲區民族路447號","121.467566666667","25.0887433333333","6501400","蘆洲區"
"247012","546-UM","2018/01/30 20:19:25","新北市蘆洲區中興街15巷13號","121.480321666667","25.08747","6501400","蘆洲區"
"247020","500-BY","2018/01/30 20:19:24","新北市蘆洲區仁愛街37號","121.47213","25.09279","6501400","蘆洲區"
"247008","341-TH","2018/01/30 20:19:28","新北市蘆洲區集賢路229-1號","121.482273333333","25.0857966666667","6501400","蘆洲區"
"247010","339-TH","2018/01/30 20:19:27","新北市蘆洲區信義路188巷19號","121.479988333333","25.0845516666667","6501400","蘆洲區"
"247002","337-TH","2018/01/30 20:19:40","新北市蘆洲區長安街331巷36號","121.455818333333","25.0867633333333","6501400","蘆洲區"
"247004","336-TH","2018/01/30 20:19:35","新北市蘆洲區長安街220巷34號","121.45967","25.0850866666667","6501400","蘆洲區"
"247006","056-VK","2018/01/30 20:19:28","新北市蘆洲區九芎街126號","121.465098333333","25.0791716666667","6501400","蘆洲區"
"247016","053-VK","2018/01/30 20:19:22","新北市蘆洲區中正路185巷45弄2號","121.465848333333","25.0837333333333","6501400","蘆洲區"
"247014","007-UY","2018/01/30 20:19:34","新北市蘆洲區中山二路137巷46號","121.472556666667","25.0805566666667","6501400","蘆洲區"
"247024","002-UY","2018/01/30 20:19:24","新北市蘆洲區光榮路120巷8弄39號","121.464553333333","25.087945","6501400","蘆洲區"
"247018","001-UY","2018/01/30 20:19:30","新北市蘆洲區民族路406號","121.474648333333","25.0914883333333","6501400","蘆洲區"
"222001","KEA-2212","2018/01/30 20:19:36","新北市深坑區北深路三段223號","121.600241666667","25.0041366666667","6501800","深坑區"
"251004","009-UM","2018/01/30 20:19:27","新北市淡水區民權路38號","121.45981","25.1372666666667","6501000","淡水區"
"251013","179-VK","2018/01/30 20:19:29","新北市淡水區水汴頭4-3號","121.475425","25.2044683333333","6501000","淡水區"
"251014","180-VK","2018/01/30 20:19:42","新北市淡水區石頭厝3號","121.458701666667","25.2355533333333","6501000","淡水區"
"251015","182-VK","2018/01/30 20:19:32","新北市淡水區興仁路162號","121.4516","25.2207633333333","6501000","淡水區"
"251010","413-VK","2018/01/30 20:19:24","新北市淡水區新民街一段134號","121.427468333333","25.1889683333333","6501000","淡水區"
"251012","441-VK","2018/01/30 20:19:29","新北市淡水區淡金路三段374號","121.449478333333","25.209745","6501000","淡水區"
"251016","442-VK","2018/01/30 20:19:32","新北市淡水區淡金路五段20號","121.453185","25.2325083333333","6501000","淡水區"
"251006","561-UM","2018/01/30 20:19:26","新北市淡水區淡金路一段571號","121.452551666667","25.180475","6501000","淡水區"
"251002","672-BX","2018/01/30 20:19:26","新北市淡水區中正路118號","121.44152","25.1695516666667","6501000","淡水區"
"251003","673-BX","2018/01/30 20:19:36","新北市淡水區中山北路一段229號","121.444498333333","25.179545","6501000","淡水區"
"207004","225-TW","2018/01/30 20:19:22","新北市萬里區北基里大仁路11號","121.682613333333","25.1755266666667","6502800","萬里區"
"252002","178-VK","2018/01/30 20:19:35","新北市三芝區中正路一段16-1號","121.502973333333","25.2587283333333","6502100","三芝區"
"252001","292-VK","2018/01/30 20:19:37","新北市三芝區中山路一段35號","121.500666666667","25.257985","6502100","三芝區"
"237007","153-BY","2018/01/30 20:19:36","新北市三峽區麻園43號","121.363853333333","24.9211683333333","6500900","三峽區"
"237012","275-BY","2018/01/30 20:19:26","新北市三峽區中華路33號","121.372823333333","24.9311733333333","6500900","三峽區"
"237006","5529-G3","2018/01/30 20:19:39","新北市三峽區嘉添155號","121.369001666667","24.9118066666667","6500900","三峽區"
"237016","649-BX","2018/01/30 20:19:21","新北市三峽區介壽路二段138巷1弄146-1號","121.399313333333","24.9307366666667","6500900","三峽區"
"236070","105-UM","2018/01/30 20:19:39","新北市土城區三民路47-1號","121.41988","24.9640866666667","6501300","土城區"
"236079","166-UM","2018/01/30 20:19:33","新北市土城區德安街4巷2號","121.422223333333","24.9648116666667","6501300","土城區"
"236031","253-BX","2018/01/30 20:19:29","新北市土城區學成路128巷11號","121.449511666667","24.9900366666667","6501300","土城區"
"236026","269-VK","2018/01/30 20:19:34","新北市土城區中央路一段249巷12號","121.445828333333","24.985455","6501300","土城區"
"236015","270-VK","2018/01/30 20:19:28","新北市土城區廣明街90巷18號","121.455486666667","24.9944833333333","6501300","土城區"
"236038","271-VK","2018/01/30 20:19:27","新北市土城區明德路一段225號","121.46312","24.97848","6501300","土城區"
"236023","401-BY","2018/01/30 20:19:32","新北市土城區和城路二段255巷140號","121.476108333333","24.9880016666667","6501300","土城區"
"236059","912-UM","2018/01/30 20:19:41","新北市土城區中央路三段38號","121.438295","24.96869","6501300","土城區"
"236063","915-UM","2018/01/30 20:19:25","新北市土城區金城路二段214號","121.455698333333","24.9823866666667","6501300","土城區"
"242032","AAC-296","2018/01/30 20:19:36","新北市新莊區中正路380號","121.443091666667","25.03414","6500500","新莊區"
"242029","986-R7","2018/01/30 20:19:24","新北市新莊區中原路263號","121.448348333333","25.0542866666667","6500500","新莊區"
"242025","615-BX","2018/01/30 20:19:23","新北市新莊區五工二路70巷16號","121.46087","25.06639","6500500","新莊區"
"242023","613-BX","2018/01/30 20:19:41","新北市新莊區化成路373-2號","121.465448333333","25.0578483333333","6500500","新莊區"
"242027","612-BX","2018/01/30 20:19:31","新北市新莊區幸福路554號","121.454871666667","25.0493366666667","6500500","新莊區"
"242039","566-BX","2018/01/30 20:19:24","新北市新莊區龍安路438號","121.424275","25.01854","6500500","新莊區"
"242044","442-UM","2018/01/30 20:19:26","新北市新莊區中正路新建巷28弄20號","121.41361","25.02143","6500500","新莊區"
"242054","440-UM","2018/01/30 20:19:32","新北市新莊區民安西路261巷18號","121.42676","25.0130216666667","6500500","新莊區"
"242034","415-TV","2018/01/30 20:19:34","新北市新莊區建中街90巷3弄11號","121.446221666667","25.0370933333333","6500500","新莊區"
"242005","413-TV","2018/01/30 20:19:38","新北市新莊區頭前路2巷30號","121.468271666667","25.053805","6500500","新莊區"
"242042","400-BY","2018/01/30 20:19:32","新北市新莊區天祥街54巷2弄1號","121.41674","25.02916","6500500","新莊區"
"242061","362-BY","2018/01/30 20:19:25","新北市新莊區新樹路172-13號","121.434618333333","25.0216833333333","6500500","新莊區"
"242058","353-BY","2018/01/30 20:19:26","新北市新莊區龍安路278巷5號","121.422265","25.01885","6500500","新莊區"
"242007","132-UY","2018/01/30 20:19:30","新北市新莊區福壽街124巷34弄9號","121.459376666667","25.050945","6500500","新莊區"
"242037","133-UY","2018/01/30 20:19:25","新北市新莊區建安街76巷3弄2號","121.426185","25.024905","6500500","新莊區"
"242021","135-UY","2018/01/30 20:19:27","新北市新莊區復興路一段3號","121.445558333333","25.041485","6500500","新莊區"
"242046","172-VK","2018/01/30 20:19:38","新北市新莊區中正路新生巷47號","121.417568333333","25.02306","6500500","新莊區"
"242009","173-VK","2018/01/30 20:18:49","新北市新莊區昌平街39號","121.454696666667","25.052285","6500500","新莊區"
"242015","175-VK","2018/01/30 20:19:25","新北市新莊區永樂街239巷1號","121.446118333333","25.0443816666667","6500500","新莊區"
"242002","176-VK","2018/01/30 20:19:36","新北市新莊區化成路26號","121.46478","25.0425733333333","6500500","新莊區"
"242013","346-TH","2018/01/30 20:19:30","新北市新莊區中和街155巷2號","121.447158333333","25.0497633333333","6500500","新莊區"
"242051","347-TH","2018/01/30 20:19:34","新北市新莊區民安西路212巷10號","121.425108333333","25.014855","6500500","新莊區"
"242019","348-TH","2018/01/30 20:19:20","新北市新莊區復興路二段196巷3號","121.459483333333","25.0439816666667","6500500","新莊區"
"242056","349-TH","2018/01/30 20:19:36","新北市新莊區新莊路649巷7號","121.445195","25.0323016666667","6500500","新莊區"
"242017","350-TH","2018/01/30 20:19:33","新北市新莊區中港一街98號","121.449113333333","25.0452783333333","6500500","新莊區"
"242011","351-TH","2018/01/30 20:19:24","新北市新莊區中信街23巷1號","121.451078333333","25.05056","6500500","新莊區"
"238021","KEA-2217","2018/01/30 20:19:34","新北市樹林區佳園路三段99巷31-1號","121.39088","24.9522766666667","6500700","樹林區"
"221036","130-UY","2018/01/30 20:19:26","新北市汐止區福安街59巷13號","121.66459","25.064025","6501100","汐止區"
"221010","269-BY","2018/01/30 20:19:37","新北市汐止區八連路二段636-3號","121.625711666667","25.1104466666667","6501100","汐止區"
"221012","278-VK","2018/01/30 20:19:32","新北市汐止區保新街一段285號","121.692853333333","25.06835","6501100","汐止區"
"221023","279-VK","2018/01/30 20:19:28","新北市汐止區湖東街5巷3號","121.633686666667","25.072855","6501100","汐止區"
"221032","280-BY","2018/01/30 20:19:31","新北市汐止區民權街二段34號","121.619443333333","25.04971","6501100","汐止區"
"221027","281-BY","2018/01/30 20:19:40","新北市汐止區大同路二段517號","121.661413333333","25.068935","6501100","汐止區"
"221002","297-VK","2018/01/30 20:19:31","新北市汐止區福德二路21號","121.63538","25.06837","6501100","汐止區"
"221029","298-VK","2018/01/30 20:19:35","新北市汐止區工建路90號","121.639653333333","25.0633966666667","6501100","汐止區"
"221021","299-VK","2018/01/30 20:19:39","新北市汐止區水源路一段249號","121.654251666667","25.0597733333333","6501100","汐止區"
"221031","353-TW","2018/01/30 20:19:21","新北市汐止區中興路150巷15-2號","121.633008333333","25.0651633333333","6501100","汐止區"
"221015","567-BX","2018/01/30 20:19:28","新北市汐止區建成路142巷19弄9號","121.66201","25.0737966666667","6501100","汐止區"
"221035","622-UM","2018/01/30 20:19:24","新北市汐止區長江街101-5號","121.658673333333","25.0732283333333","6501100","汐止區"
"221038","646-BX","2018/01/30 20:19:38","新北市汐止區忠孝東路462巷18號","121.666733333333","25.073615","6501100","汐止區"
"221033","647-BX","2018/01/30 20:19:38","新北市汐止區東勢街201巷86號","121.634106666667","25.0432533333333","6501100","汐止區"
"221018","753-BX","2018/01/30 20:19:35","新北市汐止區茄苳路245號","121.671603333333","25.0684133333333","6501100","汐止區"
"220101","245-BX","2018/01/30 20:19:28","新北市板橋區雙十路二段47巷19號","121.475565","25.0255716666667","6500100","板橋區"
"220103","257-TC","2018/01/30 20:19:26","新北市板橋區陽明街275號","121.462248333333","25.0261133333333","6500100","板橋區"
"220083","286-VK","2018/01/30 20:19:24","新北市板橋區僑中二街90巷6號","121.446018333333","25.00922","6500100","板橋區"
"220081","287-VK","2018/01/30 20:19:24","新北市板橋區僑中一街102巷5弄9號","121.446316666667","25.01264","6500100","板橋區"
"220061","293-UM","2018/01/30 20:19:20","新北市板橋區四川路一段162號","121.460003333333","25.0032433333333","6500100","板橋區"
"242048","281-VK","2018/01/30 20:19:37","新北市新莊區四維路188巷10號","121.421398333333","25.0210566666667","6500500","新莊區"
"220092","307-R5","2018/01/30 20:19:32","新北市板橋區民權路174號","121.459598333333","25.0131616666667","6500100","板橋區"
"220089","487-VK","2018/01/30 20:19:37","新北市板橋區四維路194號","121.46416","25.0269366666667","6500100","板橋區"
"220088","491-VK","2018/01/30 20:19:26","新北市三重區光復路二段143巷8-3號","121.474275","25.0602816666667","6500100","板橋區"
"220055","630-UY","2018/01/30 20:19:33","新北市板橋區忠孝路48巷11弄16號","121.462201666667","24.9997966666667","6500100","板橋區"
"220097","AAC-210","2018/01/30 20:19:35","新北市板橋區公館街84號","121.461198333333","25.0152483333333","6500100","板橋區"
"220070","AAC-253","2018/01/30 20:19:36","新北市板橋區四川路二段245巷26號","121.451341666667","24.9928716666667","6500100","板橋區"
