"lineid","car","time","location","longitude","latitude","cityid","cityname"
"234064","337-UY","2018/01/30 20:39:28","新北市永和區林森路81號","121.523831666667","25.0039233333333","6500400","永和區"
"234030","746-BX","2018/01/30 20:39:25","新北市中和區景平路71-2號","121.519493333333","24.9914116666667","6500400","永和區"
"234061","AAD-866","2018/01/30 20:39:37","新北市永和區秀朗路一段175號","121.51707","25.003685","6500400","永和區"
"249001","173-UM","2018/01/30 20:36:30","新北市八里區中山路三段363號","121.375316666667","25.1385983333333","6502300","八里區"
"249004","303-UY","2018/01/30 20:39:35","新北市八里區中山路一段217巷70號","121.411921666667","25.1575483333333","6502300","八里區"
"234023","9380-KE","2018/01/30 20:39:36","新北市永和區竹林路25巷26號","121.517965","25.014865","6500400","永和區"
"234074","AAC-211","2018/01/30 20:39:37","新北市永和區竹林路100-1號","121.519656666667","25.0120533333333","6500400","永和區"
"243011","267-VK","2018/01/30 20:39:24","新北市泰山區犁頭窠6號","121.421743333333","25.059035","6501600","泰山區"
"243012","AAD-798","2018/01/30 20:39:30","新北市泰山區橫窠雅2號","121.401891666667","25.0731016666667","6501600","泰山區"
"243010","KEA-2215","2018/01/30 20:39:25","新北市泰山區明志路二段8號","121.429996666667","25.053625","6501600","泰山區"
"243016","680-BX","2018/01/30 20:39:33","新北市泰山區明志路二段187號","121.427591666667","25.0494316666667","6501600","泰山區"
"222003","016-RS","2018/01/30 20:39:27","新北市深坑區深坑街77號","121.614578333333","25.0016133333333","6501800","深坑區"
"222002","659-BX","2018/01/30 20:39:24","新北市深坑區萬福路45號","121.59946","25.0068333333333","6501800","深坑區"
"231041","002-UM","2018/01/30 20:39:27","新北市新店區中正路543-4號","121.533628333333","24.9875116666667","6500600","新店區"
"231061","047-UY","2018/01/30 20:39:35","新北市新店區新和街62號","121.51991","24.9853733333333","6500600","新店區"
"231060","106-UY","2018/01/30 20:39:19","新北市新店區安康路三段567-1號","121.475583333333","24.9436566666667","6500600","新店區"
"231051","107-UY","2018/01/30 20:39:22","新北市新店區中央六街28號","121.529305","24.97498","6500600","新店區"
"231048","108-UY","2018/01/30 20:39:39","新北市新店區寶慶街72號","121.541715","24.9867166666667","6500600","新店區"
"231064","110-UY","2018/01/30 20:39:30","新北市新店區安和路三段157號","121.51639","24.9857633333333","6500600","新店區"
"231053","187-VK","2018/01/30 20:39:20","新北市新店區廣興路5巷3號","121.545643333333","24.9117266666667","6500600","新店區"
"231050","KEA-2219","2018/01/30 20:39:34","新北市新店區建國路30號","121.540503333333","24.9745766666667","6500600","新店區"
"231057","256-BX","2018/01/30 20:39:24","新北市新店區花園一路一段2號","121.55326","24.9328816666667","6500600","新店區"
"231054","AAD-862","2018/01/30 20:39:29","新北市新店區行政街43號","121.543133333333","24.96562","6500600","新店區"
"231058","3712-VJ","2018/01/30 20:39:19","新北市新店區平等街36號","121.536561666667","24.9735866666667","6500600","新店區"
"231056","3713-VJ","2018/01/30 20:39:33","新北市新店區中央路3號","121.533578333333","24.9788066666667","6500600","新店區"
"231065","512-UM","2018/01/30 20:39:32","新北市新店區安祥路102巷138號","121.486631666667","24.9646433333333","6500600","新店區"
"231042","616-UM","2018/01/30 20:39:33","新北市新店區寶高路120巷1-1號","121.554543333333","24.975955","6500600","新店區"
"231045","617-UM","2018/01/30 20:39:37","新北市新店區長春路34號","121.550286666667","24.9575833333333","6500600","新店區"
"231040","619-UM","2018/01/30 20:39:33","新北市新店區中正路268號","121.538981666667","24.9735483333333","6500600","新店區"
"231063","645-TV","2018/01/30 20:39:24","新北市新店區玫瑰路4-1號","121.493591666667","24.9513833333333","6500600","新店區"
"231068","718-UY","2018/01/30 20:39:29","新北市新店區寶元路一段65號","121.542205","24.985835","6500600","新店區"
"231049","719-UM","2018/01/30 20:39:26","新北市新店區北新路二段139巷9-1號","121.542181666667","24.97559","6500600","新店區"
"231062","720-UM","2018/01/30 20:39:28","新北市新店區雙城路4巷2號","121.49132","24.9510933333333","6500600","新店區"
"231044","897-TW","2018/01/30 20:39:26","新北市新店區民權路90巷27號","121.537056666667","24.9841766666667","6500600","新店區"
"231043","899-TW","2018/01/30 20:39:26","新北市新店區博愛街13巷23號","121.540376666667","24.9740616666667","6500600","新店區"
"231066","AKT-0513","2018/01/30 20:39:21","新北市新店區安興路105-1號","121.514565","24.9777033333333","6500600","新店區"
"241011","013-R5","2018/01/30 20:39:27","新北市三重區龍濱路217號","121.501885","25.0720116666667","6500200","三重區"
"241028","022-UY","2018/01/30 20:39:29","新北市三重區光興街91號","121.497358333333","25.0599133333333","6500200","三重區"
"241008","059-VK","2018/01/30 20:39:39","新北市三重區下竹圍街42-1號","121.48099","25.0748433333333","6500200","三重區"
"241009","060-VK","2018/01/30 20:39:24","新北市三重區碧華街51號","121.484678333333","25.081255","6500200","三重區"
"241031","061-VK","2018/01/30 20:39:27","新北市三重區重陽路一段113巷1弄49號","121.48805","25.0585","6500200","三重區"
"241015","062-VK","2018/01/30 20:39:38","新北市三重區文化北路105號","121.497831666667","25.0684533333333","6500200","三重區"
"241017","063-VK","2018/01/30 20:39:25","新北市三重區大同北路265號","121.490868333333","25.0672233333333","6500200","三重區"
"241024","065-VK","2018/01/30 20:39:34","新北市三重區忠孝路三段23號","121.481436666667","25.0673916666667","6500200","三重區"
"241026","066-VK","2018/01/30 20:39:33","新北市三重區文化南路3號","121.500036666667","25.06238","6500200","三重區"
"241002","090-VK","2018/01/30 20:39:37","新北市三重區仁義街167巷20號","121.497751666667","25.082005","6500200","三重區"
"241003","091-VK","2018/01/30 20:37:00","新北市三重區自強路四段32-2號","121.489051666667","25.0769966666667","6500200","三重區"
"241025","156-TC","2018/01/30 20:39:36","新北市三重區頂崁街140號","121.477595","25.06505","6500200","三重區"
"241016","266-UM","2018/01/30 20:39:22","新北市三重區長壽西街126號","121.49513","25.0669116666667","6500200","三重區"
"241018","268-UM","2018/01/30 20:39:35","新北市三重區自強路一段91號","121.496018333333","25.0664166666667","6500200","三重區"
"241032","269-UM","2018/01/30 20:39:26","新北市三重區重陽路一段120巷35號","121.485063333333","25.0601816666667","6500200","三重區"
"241013","270-UM","2018/01/30 20:39:28","新北市三重區三和路四段83號","121.489106666667","25.075375","6500200","三重區"
"241007","398-BY","2018/01/30 20:39:34","新北市三重區三和路四段101巷20號","121.488785","25.0770416666667","6500200","三重區"
"241020","413-TH","2018/01/30 20:39:30","新北市三重區忠孝路一段101號","121.489356666667","25.0721683333333","6500200","三重區"
"241035","462-BY","2018/01/30 20:39:33","新北市三重區正義北路288號","121.495545","25.0695333333333","6500200","三重區"
"241004","475-VK","2018/01/30 20:39:22","新北市三重區仁愛街458巷13號","121.489515","25.0819883333333","6500200","三重區"
"241019","478-VK","2018/01/30 20:39:34","新北市三重區重陽路四段114巷3號","121.492006666667","25.070645","6500200","三重區"
"241030","480-VK","2018/01/30 20:39:38","新北市三重區成功路73巷11號","121.489586666667","25.0518716666667","6500200","三重區"
"241014","543-UM","2018/01/30 20:39:34","新北市三重區介壽路9號","121.499108333333","25.0692666666667","6500200","三重區"
"241023","545-UM","2018/01/30 20:39:37","新北市三重區自由街35巷2號","121.479016666667","25.066915","6500200","三重區"
"241001","547-UM","2018/01/30 20:39:27","新北市三重區自強路三段110巷37號","121.485911666667","25.0746066666667","6500200","三重區"
"241022","887-TS","2018/01/30 20:39:27","新北市三重區新北大道一段46巷18弄3號","121.48815","25.0620283333333","6500200","三重區"
"241012","941-UM","2018/01/30 20:39:33","新北市三重區河邊北街190號","121.50277","25.073945","6500200","三重區"
"241029","942-UM","2018/01/30 20:39:27","新北市三重區集美街126巷27號","121.49007","25.0538183333333","6500200","三重區"
"241033","AAC-255","2018/01/30 20:39:23","新北市三重區光復路二段87巷59號","121.475353333333","25.0581716666667","6500200","三重區"
"235069","4980-A6","2018/01/30 20:39:26","新北市中和區新生街278號","121.483711666667","24.9968333333333","6500300","中和區"
"235026","800-TS","2018/01/30 20:31:14","新北市中和區員山路36巷16-3號","121.484891666667","24.9915883333333","6500300","中和區"
"235065","911-UM","2018/01/30 20:39:25","新北市中和區永和路69號","121.496478333333","25.00566","6500300","中和區"
"235059","AAC-215","2018/01/30 20:39:34","新北市中和區員山路72號","121.48091","24.9937433333333","6500300","中和區"
"247022","893-R6","2018/01/30 20:39:27","新北市蘆洲區中正路243巷9號","121.467166666667","25.08627","6501400","蘆洲區"
"247012","546-UM","2018/01/30 20:39:25","新北市蘆洲區集賢路224巷46弄60-1號","121.48079","25.0879883333333","6501400","蘆洲區"
"247020","500-BY","2018/01/30 20:39:24","新北市蘆洲區民族路424號","121.473916666667","25.09185","6501400","蘆洲區"
"247008","341-TH","2018/01/30 20:39:28","新北市蘆洲區重陽街18號","121.480748333333","25.081555","6501400","蘆洲區"
"247010","339-TH","2018/01/30 20:39:27","新北市蘆洲區集賢路401號","121.480178333333","25.0817483333333","6501400","蘆洲區"
"247002","337-TH","2018/01/30 20:39:20","新北市蘆洲區長安街375巷19號","121.45631","25.087835","6501400","蘆洲區"
"247004","336-TH","2018/01/30 20:39:35","新北市蘆洲區長安街222號","121.458148333333","25.08492","6501400","蘆洲區"
"247006","056-VK","2018/01/30 20:39:28","新北市蘆洲區和平路146號","121.466738333333","25.0809183333333","6501400","蘆洲區"
"247016","053-VK","2018/01/30 20:39:22","新北市蘆洲區和平路56號","121.470306666667","25.07914","6501400","蘆洲區"
"247014","007-UY","2018/01/30 20:39:34","新北市蘆洲區成功路99號","121.472885","25.0814683333333","6501400","蘆洲區"
"247024","002-UY","2018/01/30 20:39:24","新北市蘆洲區長樂路56-2號","121.463066666667","25.0861816666667","6501400","蘆洲區"
"222001","KEA-2212","2018/01/30 20:39:36","新北市深坑區北深路三段230號","121.600751666667","25.0040033333333","6501800","深坑區"
"251013","179-VK","2018/01/30 20:39:29","新北市淡水區行忠路258號","121.458738333333","25.2004966666667","6501000","淡水區"
"251014","180-VK","2018/01/30 20:39:21","新北市淡水區桂竹圍10-1號","121.471021666667","25.2318116666667","6501000","淡水區"
"251015","182-VK","2018/01/30 20:39:32","新北市淡水區興仁路162號","121.451591666667","25.220825","6501000","淡水區"
"251010","413-VK","2018/01/30 20:39:24","新北市淡水區沙崙路181巷15號","121.423988333333","25.184365","6501000","淡水區"
"251012","441-VK","2018/01/30 20:39:29","新北市淡水區興仁路109號","121.451605","25.2181633333333","6501000","淡水區"
"251016","442-VK","2018/01/30 20:39:32","新北市淡水區後洲子16-1號","121.449551666667","25.2240466666667","6501000","淡水區"
"251001","559-UM","2018/01/30 20:39:29","新北市淡水區淡金路65號","121.456078333333","25.1615616666667","6501000","淡水區"
"251006","561-UM","2018/01/30 20:39:26","新北市淡水區商工路186巷25號","121.450963333333","25.1870433333333","6501000","淡水區"
"251011","650-BX","2018/01/30 20:39:23","新北市淡水區新市一路一段361號","121.436315","25.1861433333333","6501000","淡水區"
"251002","672-BX","2018/01/30 20:39:26","新北市淡水區中正路38-1號","121.443658333333","25.169305","6501000","淡水區"
"251003","673-BX","2018/01/30 20:39:36","新北市淡水區新民街120巷3號","121.438118333333","25.1779033333333","6501000","淡水區"
"252002","178-VK","2018/01/30 20:39:35","新北市三芝區淡金路二段47-2號","121.50371","25.2605833333333","6502100","三芝區"
"242032","AAC-296","2018/01/30 20:39:36","新北市新莊區義豐街25巷10號","121.440663333333","25.0352766666667","6500500","新莊區"
"242029","986-R7","2018/01/30 20:39:24","新北市新莊區中華路二段158號","121.453361666667","25.050965","6500500","新莊區"
"242025","615-BX","2018/01/30 20:39:23","新北市新莊區化成路579巷1號","121.464368333333","25.066085","6500500","新莊區"
"242023","613-BX","2018/01/30 20:39:25","新北市新莊區化成路542號","121.466301666667","25.053575","6500500","新莊區"
"242027","612-BX","2018/01/30 20:39:42","新北市新莊區思源路37號","121.460125","25.0397216666667","6500500","新莊區"
"242039","566-BX","2018/01/30 20:39:24","新北市新莊區民安路381號","121.43186","25.0230433333333","6500500","新莊區"
"242044","442-UM","2018/01/30 20:39:26","新北市新莊區龍安路108號","121.418383333333","25.0204766666667","6500500","新莊區"
"242054","440-UM","2018/01/30 20:39:32","新北市新莊區西盛街323巷24號","121.428885","25.0146283333333","6500500","新莊區"
"242034","415-TV","2018/01/30 20:39:29","新北市新莊區中正路403號","121.445146666667","25.0345483333333","6500500","新莊區"
"242005","413-TV","2018/01/30 20:39:38","新北市新莊區化成路371巷28弄1號","121.463438333333","25.056985","6500500","新莊區"
"242042","400-BY","2018/01/30 20:39:39","新北市新莊區天祥街29號","121.417135","25.0282083333333","6500500","新莊區"
"242061","362-BY","2018/01/30 20:39:25","新北市新莊區新樹路262號","121.43269","25.0148183333333","6500500","新莊區"
"242058","353-BY","2018/01/30 20:39:21","新北市新莊區民安路138號","121.42426","25.0253516666667","6500500","新莊區"
"242007","132-UY","2018/01/30 20:39:22","新北市新莊區思源路287巷2弄13號","121.459245","25.04877","6500500","新莊區"
"242037","133-UY","2018/01/30 20:39:36","新北市新莊區後港一路94巷3弄4號","121.428158333333","25.0262683333333","6500500","新莊區"
"242021","135-UY","2018/01/30 20:39:27","新北市新莊區公園路100號","121.4507","25.0398566666667","6500500","新莊區"
"242046","172-VK","2018/01/30 20:39:36","新北市新莊區裕民街39號","121.418985","25.0250066666667","6500500","新莊區"
"242009","173-VK","2018/01/30 20:39:29","新北市新莊區昌隆街104號","121.456735","25.05082","6500500","新莊區"
"242015","175-VK","2018/01/30 20:39:23","新北市新莊區中和街32號","121.44824","25.0438733333333","6500500","新莊區"
"242002","176-VK","2018/01/30 20:39:36","新北市新莊區明中街12號","121.458548333333","25.038525","6500500","新莊區"
"242013","346-TH","2018/01/30 20:39:24","新北市新莊區中和街175巷13號","121.44706","25.0506183333333","6500500","新莊區"
"242051","347-TH","2018/01/30 20:39:34","新北市新莊區西盛街280巷3-1號","121.4276","25.0152833333333","6500500","新莊區"
"242019","348-TH","2018/01/30 20:39:21","新北市新莊區銘德街140號","121.454653333333","25.042875","6500500","新莊區"
"242056","349-TH","2018/01/30 20:39:36","新北市新莊區瓊泰路64號","121.443348333333","25.02865","6500500","新莊區"
"242017","350-TH","2018/01/30 20:39:33","新北市新莊區中和街62號","121.447893333333","25.04594","6500500","新莊區"
"242011","351-TH","2018/01/30 20:39:39","新北市新莊區中榮街122巷2號","121.446636666667","25.05323","6500500","新莊區"
"221036","130-UY","2018/01/30 20:39:26","新北市汐止區新昌路9號","121.662056666667","25.0672483333333","6501100","汐止區"
"221023","279-VK","2018/01/30 20:39:28","新北市汐止區康寧街607號","121.635938333333","25.0708383333333","6501100","汐止區"
"221027","281-BY","2018/01/30 20:39:40","新北市汐止區大同路二段567號","121.662911666667","25.0699383333333","6501100","汐止區"
"221002","297-VK","2018/01/30 20:39:31","新北市汐止區福德二路138號","121.630776666667","25.0651966666667","6501100","汐止區"
"221029","298-VK","2018/01/30 20:39:35","新北市汐止區大同路一段415號","121.642208333333","25.0613116666667","6501100","汐止區"
"221021","299-VK","2018/01/30 20:39:39","新北市汐止區水源路一段284號","121.654146666667","25.0582983333333","6501100","汐止區"
"221031","353-TW","2018/01/30 20:39:41","新北市汐止區中興路27巷21號","121.63409","25.06083","6501100","汐止區"
"221015","567-BX","2018/01/30 20:39:29","新北市汐止區建成路44號","121.663908333333","25.07282","6501100","汐止區"
"221035","622-UM","2018/01/30 20:39:24","新北市汐止區長江街101-5號","121.658738333333","25.0732133333333","6501100","汐止區"
"221038","646-BX","2018/01/30 20:39:38","新北市汐止區汐萬路一段217號","121.651971666667","25.0723666666667","6501100","汐止區"
"221033","647-BX","2018/01/30 20:39:38","台北市南港區合順街8巷7弄38號","121.620263333333","25.0419016666667","6501100","汐止區"
"221018","753-BX","2018/01/30 20:39:34","新北市汐止區中華街57巷2號","121.66764","25.0714666666667","6501100","汐止區"
"220103","257-TC","2018/01/30 20:39:26","新北市板橋區漢生東路83巷25號","121.467375","25.016765","6500100","板橋區"
"220083","286-VK","2018/01/30 20:39:24","新北市板橋區大觀路一段38巷156弄110-7號","121.444546666667","25.0075016666667","6500100","板橋區"
"220081","287-VK","2018/01/30 20:39:24","新北市板橋區大觀路二段142號","121.442755","24.999045","6500100","板橋區"
"242048","281-VK","2018/01/30 20:39:37","新北市新莊區中正路863-3號","121.418743333333","25.027645","6500500","新莊區"
"220089","487-VK","2018/01/30 20:39:37","新北市板橋區長江路一段156巷9弄19號","121.46204","25.0303666666667","6500100","板橋區"
"220070","AAC-253","2018/01/30 20:39:40","新北市五股區新城三路43號","121.448436666667","25.09273","6500100","板橋區"
