"lineid","car","time","location","longitude","latitude","cityid","cityname"
"231059","046-UY","2018/01/30 21:19:36","新北市新店區薏仁坑路自強巷6號","121.496753333333","24.95843","6500600","新店區"
"231060","106-UY","2018/01/30 21:19:39","新北市新店區薏仁坑路自強巷1號","121.497738333333","24.95758","6500600","新店區"
"231051","107-UY","2018/01/30 21:19:42","新北市新店區中正路700巷82號","121.536021666667","24.9931316666667","6500600","新店區"
"231048","108-UY","2018/01/30 21:19:39","新北市新店區溪園路401號","121.52383","24.978015","6500600","新店區"
"231049","188-VK","2018/01/30 21:19:36","新北市新店區永業路81巷1弄6號","121.529973333333","24.9497333333333","6500600","新店區"
"231050","KEA-2219","2018/01/30 21:19:34","新北市新店區三民路18號","121.539381666667","24.9719283333333","6500600","新店區"
"231065","512-UM","2018/01/30 21:19:32","新北市新店區薏仁坑路自強巷2號","121.497558333333","24.9588666666667","6500600","新店區"
"231040","619-UM","2018/01/30 21:19:32","新北市新店區北新路一段209號","121.540443333333","24.9650566666667","6500600","新店區"
"231063","645-TV","2018/01/30 21:19:24","新北市新店區玫瑰路57巷34號","121.4969","24.9463283333333","6500600","新店區"
"241011","013-R5","2018/01/30 21:19:27","新北市三重區龍濱路197號","121.501855","25.0714116666667","6500200","三重區"
"241028","022-UY","2018/01/30 21:19:29","新北市三重區正義南路169號","121.498956666667","25.0574966666667","6500200","三重區"
"241008","059-VK","2018/01/30 21:19:39","新北市三重區自強路一段62號","121.497273333333","25.06672","6500200","三重區"
"241009","060-VK","2018/01/30 21:19:24","新北市三重區忠孝路三段18號","121.481555","25.0672066666667","6500200","三重區"
"241031","061-VK","2018/01/30 21:19:27","新北市三重區重新路五段408巷19號","121.475783333333","25.045535","6500200","三重區"
"241017","063-VK","2018/01/30 21:19:25","新北市三重區中正北路25巷2號","121.493218333333","25.0626833333333","6500200","三重區"
"241024","065-VK","2018/01/30 21:19:34","新北市三重區中正北路145巷14號","121.484113333333","25.0677683333333","6500200","三重區"
"241026","066-VK","2018/01/30 21:19:32","新北市三重區大同南路220號","121.496793333333","25.05622","6500200","三重區"
"241002","090-VK","2018/01/30 21:19:37","新北市三重區自強路五段57號","121.49455","25.0818066666667","6500200","三重區"
"241025","156-TC","2018/01/30 21:19:36","新北市三重區中正北路208巷8號","121.482278333333","25.0669566666667","6500200","三重區"
"241005","262-UM","2018/01/30 21:19:22","新北市三重區集勇街19號","121.485091666667","25.085095","6500200","三重區"
"241016","266-UM","2018/01/30 21:19:22","新北市三重區自強路一段166號","121.49533","25.066365","6500200","三重區"
"241018","268-UM","2018/01/30 21:19:35","新北市三重區忠孝路二段99號","121.484121666667","25.0699133333333","6500200","三重區"
"241032","269-UM","2018/01/30 21:19:26","新北市三重區光復路二段152號","121.47215","25.060715","6500200","三重區"
"241013","270-UM","2018/01/30 21:19:28","新北市三重區仁愛街66號","121.495828333333","25.0731116666667","6500200","三重區"
"241007","398-BY","2018/01/30 21:19:34","新北市三重區國道路一段26號","121.485251666667","25.0731766666667","6500200","三重區"
"241004","475-VK","2018/01/30 21:19:22","新北市三重區分子尾街98號","121.488706666667","25.0826266666667","6500200","三重區"
"241019","478-VK","2018/01/30 21:19:34","新北市三重區重陽路三段7-3號","121.48916","25.066525","6500200","三重區"
"241030","480-VK","2018/01/30 21:19:38","新北市三重區頂崁街23號","121.476436666667","25.0564216666667","6500200","三重區"
"241014","543-UM","2018/01/30 21:19:34","新北市三重區萬全街15號","121.499413333333","25.0696183333333","6500200","三重區"
"241023","545-UM","2018/01/30 21:19:37","新北市三重區忠孝路三段40巷21號","121.482548333333","25.0659566666667","6500200","三重區"
"241001","547-UM","2018/01/30 21:19:26","新北市三重區五華街133號","121.491113333333","25.0843966666667","6500200","三重區"
"241006","AAD-863","2018/01/30 21:19:27","新北市三重區重陽路二段67號","121.487711666667","25.0638266666667","6500200","三重區"
"241012","941-UM","2018/01/30 21:19:32","新北市三重區龍門路282號","121.501951666667","25.0741116666667","6500200","三重區"
"241033","AAC-255","2018/01/30 21:19:23","新北市三重區中興北街219號","121.468915","25.0584666666667","6500200","三重區"
"247022","893-R6","2018/01/30 21:19:27","新北市蘆洲區三民路224號","121.468686666667","25.08925","6501400","蘆洲區"
"247012","546-UM","2018/01/30 21:19:26","新北市蘆洲區集賢路224巷66號","121.480746666667","25.0880766666667","6501400","蘆洲區"
"247020","500-BY","2018/01/30 21:19:24","新北市蘆洲區仁愛街62巷10號","121.471965","25.0941883333333","6501400","蘆洲區"
"247008","341-TH","2018/01/30 21:19:28","新北市蘆洲區中山一路97巷30號","121.475808333333","25.080855","6501400","蘆洲區"
"247010","339-TH","2018/01/30 21:19:27","新北市蘆洲區鷺江街23號","121.478908333333","25.0824766666667","6501400","蘆洲區"
"247002","337-TH","2018/01/30 21:19:40","新北市蘆洲區永樂街46號","121.457735","25.0884066666667","6501400","蘆洲區"
"247004","336-TH","2018/01/30 21:19:35","新北市蘆洲區永安南路二段324號","121.456906666667","25.0827566666667","6501400","蘆洲區"
"247006","056-VK","2018/01/30 21:19:28","新北市蘆洲區長安街63號","121.462841666667","25.0798","6501400","蘆洲區"
"247014","007-UY","2018/01/30 21:19:34","新北市蘆洲區保和街50-5號","121.46979","25.0863166666667","6501400","蘆洲區"
"247024","002-UY","2018/01/30 21:19:23","新北市蘆洲區光明路96號","121.463065","25.08796","6501400","蘆洲區"
"247018","001-UY","2018/01/30 21:19:29","新北市蘆洲區復興路111-6號","121.476465","25.088285","6501400","蘆洲區"
"251004","009-UM","2018/01/30 21:19:08","新北市淡水區民族路33號","121.46234","25.13582","6501000","淡水區"
"251005","010-UM","2018/01/30 21:19:37","新北市淡水區仁愛街14號","121.446578333333","25.1704166666667","6501000","淡水區"
"251013","179-VK","2018/01/30 21:19:29","新北市淡水區行忠路328號","121.460446666667","25.1996183333333","6501000","淡水區"
"251014","180-VK","2018/01/30 21:19:21","新北市淡水區六塊厝2-1號","121.450136666667","25.240485","6501000","淡水區"
"251008","181-VK","2018/01/30 21:19:25","新北市淡水區水源街二段227號","121.460488333333","25.1764466666667","6501000","淡水區"
"251015","182-VK","2018/01/30 21:19:32","新北市淡水區淡金路四段542巷85號","121.455413333333","25.2265233333333","6501000","淡水區"
"251010","413-VK","2018/01/30 21:19:24","新北市淡水區中正路一段156巷12號","121.421841666667","25.1808266666667","6501000","淡水區"
"251012","441-VK","2018/01/30 21:19:29","新北市淡水區石頭埔8號","121.45262","25.2345816666667","6501000","淡水區"
"251016","442-VK","2018/01/30 21:19:32","新北市淡水區前洲子28號","121.441038333333","25.2192216666667","6501000","淡水區"
"251001","559-UM","2018/01/30 21:19:26","新北市淡水區中山北路二段191號","121.44427","25.1853566666667","6501000","淡水區"
"251006","561-UM","2018/01/30 21:19:22","新北市淡水區中正路32巷3號","121.430731666667","25.1752566666667","6501000","淡水區"
"251009","575-R6","2018/01/30 21:19:36","新北市淡水區民族路33巷16-12號","121.462681666667","25.13579","6501000","淡水區"
"251011","650-BX","2018/01/30 21:19:23","新北市淡水區新民街120巷29號","121.438965","25.1788266666667","6501000","淡水區"
"251002","672-BX","2018/01/30 21:19:26","新北市淡水區英專路151號","121.448365","25.1748916666667","6501000","淡水區"
"251003","673-BX","2018/01/30 21:19:36","新北市淡水區新春街94號","121.439043333333","25.1823333333333","6501000","淡水區"
"220070","AAC-253","2018/01/30 21:19:19","新北市八里區商港路48號","121.39595","25.1450916666667","6500100","板橋區"
