"lineid","car","time","location","longitude","latitude","cityid","cityname"
"232014","291-BY","2018/12/06 06:38:57","新北市坪林區北宜路八段558號","121.71814","24.9092833333333","6502000","坪林區"
"232018","705-BZ","2018/12/06 06:39:02","新北市坪林區北宜路八段558號","121.717925","24.9092683333333","6502000","坪林區"
"232007","758-BX","2018/12/06 06:39:02","新北市坪林區北宜路八段558號","121.717945","24.909305","6502000","坪林區"
"223006","022-BY","2018/12/06 06:38:53","新北市石碇區碇坪路一段125號","121.666286666667","24.9862916666667","6501900","石碇區"
"223002","KEA-2673","2018/12/06 06:38:55","新北市石碇區石碇東街109-1號","121.659501666667","24.9903116666667","6501900","石碇區"
"223003","205-TH","2018/12/06 06:38:49","新北市石碇區小粗坑(潭邊里)2號","121.670775","24.9828966666667","6501900","石碇區"
"223001","592-UM","2018/12/06 06:38:52","新北市石碇區小粗坑(潭邊里)2號","121.669233333333","24.9828833333333","6501900","石碇區"
"223007","660-BX","2018/12/06 06:39:01","新北市石碇區碇坪路一段18號","121.651498333333","25.0033966666667","6501900","石碇區"
"227007","282-VK","2018/12/06 06:38:39","新北市雙溪區牡丹里聖南19號","121.85712","25.052735","6502500","雙溪區"
