"lineid","car","time","location","longitude","latitude","cityid","cityname"
"232001","290-BY","2018/12/06 07:28:47","新北市坪林區上坑子口11-2號","121.702098333333","24.9635616666667","6502000","坪林區"
"232014","291-BY","2018/12/06 07:28:57","新北市坪林區金瓜寮34-1號","121.677055","24.9034733333333","6502000","坪林區"
"232010","375-UM","2018/12/06 07:29:04","新北市坪林區水聳淒坑16號","121.717933333333","24.9304916666667","6502000","坪林區"
"232018","705-BZ","2018/12/06 07:29:01","新北市坪林區坪雙路二段17號","121.729855","24.966635","6502000","坪林區"
"232007","758-BX","2018/12/06 07:29:02","新北市坪林區魚堀48-3號","121.701836666667","24.9334416666667","6502000","坪林區"
"244003","248-BX","2018/12/06 07:28:56","新北市林口區南勢里71-96號","121.348856666667","25.0832116666667","6501700","林口區"
"222006","289-BY","2018/12/06 07:29:04","新北市深坑區文化街52號","121.618938333333","25.0016366666667","6501800","深坑區"
"226005","5620-A6","2018/12/06 07:28:48","新北市平溪區菁桐里二坑路1號","121.720995","25.0240283333333","6502400","平溪區"
"226007","7418-A5","2018/12/06 07:20:46","新北市平溪區望古里灰4-2號","121.763653333333","25.0281966666667","6502400","平溪區"
"226003","AGD-0702","2018/12/06 07:28:51","新北市平溪區嶺腳里嶺腳寮94號","121.746245","25.0373033333333","6502400","平溪區"
"223006","022-BY","2018/12/06 07:29:00","新北市石碇區八分寮31-3號","121.643758333333","25.0121183333333","6501900","石碇區"
"223002","KEA-2673","2018/12/06 07:28:35","新北市石碇區北宜路五段土巷8號","121.629568333333","24.9459516666667","6501900","石碇區"
"223003","205-TH","2018/12/06 07:28:57","新北市石碇區中楒子腳4號","121.641173333333","24.9705516666667","6501900","石碇區"
"223004","437-BY","2018/12/06 07:28:51","新北市石碇區八分寮56-2號","121.645006666667","25.01783","6501900","石碇區"
"223001","592-UM","2018/12/06 07:28:52","新北市石碇區中楒子腳4號","121.640828333333","24.9705783333333","6501900","石碇區"
"223007","660-BX","2018/12/06 07:29:01","新北市石碇區大湖格21-2號","121.698158333333","25.0173033333333","6501900","石碇區"
"223005","677-TV","2018/12/06 07:28:54","新北市石碇區八分寮55-3號","121.644618333333","25.013635","6501900","石碇區"
"227007","282-VK","2018/12/06 07:28:59","新北市雙溪區新基里自強路5號","121.866366666667","25.0390333333333","6502500","雙溪區"
"252004","249-BX","2018/12/06 07:28:52","新北市三芝區店子里龜子山15-3號","121.499898333333","25.2153833333333","6502100","三芝區"
"252007","AAC-283","2018/12/06 07:28:49","新北市三芝區埔頭里埔頭15-6號","121.49574","25.25995","6502100","三芝區"
"242055","751-BX","2018/12/06 07:28:56","新北市新莊區三和路12-21號","121.442143333333","25.0386933333333","6500500","新莊區"
"242028","612-BX","2018/12/06 07:28:50","新北市新莊區新泰路255巷83號","121.442035","25.03902","6500500","新莊區"
"242047","497-BY","2018/12/06 07:29:02","新北市新莊區新泰路357巷3弄57號","121.442091666667","25.039295","6500500","新莊區"
"242052","441-UM","2018/12/06 07:28:43","新北市新莊區三和路12-21號","121.441976666667","25.0380566666667","6500500","新莊區"
"242001","440-UM","2018/12/06 07:28:45","新北市新莊區三和路12-21號","121.44188","25.0385766666667","6500500","新莊區"
"242022","362-BY","2018/12/06 07:29:06","新北市新莊區三和路18-23號","121.441646666667","25.0389083333333","6500500","新莊區"
"242033","135-UY","2018/12/06 07:28:59","新北市新莊區三和路12-21號","121.441895","25.038735","6500500","新莊區"
"242016","233-RS","2018/12/06 07:28:52","新北市新莊區三和路12-21號","121.4422","25.0381616666667","6500500","新莊區"
"242030","348-TH","2018/12/06 07:28:50","新北市新莊區新泰路357巷3弄57號","121.44198","25.0396916666667","6500500","新莊區"
"242003","349-TH","2018/12/06 07:29:00","新北市新莊區三和路12-21號","121.442185","25.0383","6500500","新莊區"
"242020","350-TH","2018/12/06 07:28:53","新北市新莊區新泰路255巷83號","121.442051666667","25.0389733333333","6500500","新莊區"
"242014","351-TH","2018/12/06 07:29:02","新北市新莊區新泰路357巷3弄57號","121.441961666667","25.0396083333333","6500500","新莊區"
"242040","281-VK","2018/12/06 07:29:02","新北市新莊區三和路12-21號","121.442188333333","25.038255","6500500","新莊區"
