"lineid","car","time","location","longitude","latitude","cityid","cityname"
"234084","338-UY","2018/02/24 07:59:28","新北市鶯歌區鶯桃路34巷8號","121.342081666667","24.95272","6500400","永和區"
"248005","653-BX","2018/02/24 07:51:42","新北市五股區明德路12巷16號","121.433295","25.0719183333333","6501500","五股區"
"244005","248-BX","2018/02/24 07:59:23","新北市林口區下福135號","121.295731666667","25.12051","6501700","林口區"
"231007","189-VK","2018/02/24 07:59:29","新北市新店區安華路28-1號","121.519766666667","24.9612183333333","6500600","新店區"
"231008","192-VK","2018/02/24 07:59:32","新北市新店區安康路一段355-3號","121.519286666667","24.961745","6500600","新店區"
"235001","611-BX","2018/02/24 07:59:24","新北市中和區圓通路367巷2號","121.491265","24.989225","6500300","中和區"
"220072","015-TV","2018/02/24 07:59:13","新北市板橋區金門街215巷111弄22號","121.434545","24.9877866666667","6500100","板橋區"
"226005","5620-A6","2018/02/24 07:59:23","新北市平溪區石底里公園街18-3號","121.733513333333","25.02562","6502400","平溪區"
"226002","7418-A5","2018/02/24 07:59:26","新北市平溪區南山里乾坑11號","121.782671666667","25.0471833333333","6502400","平溪區"
"226003","AGD-0702","2018/02/24 07:59:23","新北市平溪區新寮里頂寮子4號","121.773773333333","25.0519083333333","6502400","平溪區"
"223006","022-BY","2018/02/24 07:59:31","新北市石碇區北宜路五段58號","121.634088333333","24.9532516666667","6501900","石碇區"
"223001","205-TH","2018/02/24 07:55:23","新北市石碇區樟空子1號","121.666541666667","24.9592533333333","6501900","石碇區"
"223008","406-TH","2018/02/24 07:59:30","新北市石碇區靜安路一段337號","121.698883333333","25.0134316666667","6501900","石碇區"
"223001","592-UM","2018/02/24 07:58:54","新北市石碇區月扇湖3號","121.66351","24.95691","6501900","石碇區"
"223004","660-BX","2018/02/24 07:59:17","新北市石碇區外按9-2號","121.65061","24.9973683333333","6501900","石碇區"
"223007","661-BX","2018/02/24 07:59:28","新北市石碇區大溪墘2-4號","121.69916","25.0120616666667","6501900","石碇區"
"223005","677-TV","2018/02/24 07:59:23","新北市石碇區靜安路一段75號","121.651263333333","25.007215","6501900","石碇區"
"227006","282-VK","2018/02/24 07:59:16","新北市雙溪區牡丹里中正路68號","121.863695","25.0432633333333","6502500","雙溪區"
"252004","249-BX","2018/02/24 07:59:33","新北市三芝區興華里車埕36-3號","121.505885","25.1918933333333","6502100","三芝區"
"252007","AAC-283","2018/02/24 07:59:28","新北市三芝區後厝里北勢子45-33號","121.47033","25.2511316666667","6502100","三芝區"
"237001","159-UY","2018/02/24 07:59:29","新北市三峽區學成路285號","121.37624","24.9432633333333","6500900","三峽區"
"236011","165-UM","2018/02/24 07:59:21","新北市土城區青雲路322巷28號","121.457821666667","24.97499","6501300","土城區"
"236002","339-SR","2018/02/24 07:59:29","新北市土城區龍泉路23-3號","121.411946666667","24.946125","6501300","土城區"
