"lineid","car","time","location","longitude","latitude","cityid","cityname"
"234084","338-UY","2018/02/24 08:19:19","新北市三峽區復興路489號","121.36117","24.9389466666667","6500400","永和區"
"248005","653-BX","2018/02/24 08:08:05","新北市五股區水碓路5巷1號","121.433401666667","25.0720583333333","6501500","五股區"
"244005","248-BX","2018/02/24 08:19:23","新北市林口區嘉溪雅坑29號","121.31689","25.1196616666667","6501700","林口區"
"222004","289-BY","2018/02/24 08:19:26","新北市深坑區文山路二段31號","121.61597","24.998795","6501800","深坑區"
"231007","189-VK","2018/02/24 08:19:29","新北市新店區新潭路一段30號","121.523231666667","24.9424583333333","6500600","新店區"
"231008","192-VK","2018/02/24 08:19:12","新北市新店區北宜路一段190-8號","121.542338333333","24.9528233333333","6500600","新店區"
"235001","611-BX","2018/02/24 08:19:25","新北市中和區圓通路367巷2號","121.491313333333","24.9894766666667","6500300","中和區"
"220072","015-TV","2018/02/24 08:19:13","新北市樹林區八德街65-2號","121.400826666667","24.9693066666667","6500100","板橋區"
"226005","5620-A6","2018/02/24 08:19:23","新北市平溪區南山里南山坪118-1號","121.783221666667","25.044135","6502400","平溪區"
"226002","7418-A5","2018/02/24 08:19:26","新北市平溪區嶺腳里田子1-3號","121.751205","25.0228366666667","6502400","平溪區"
"226003","AGD-0702","2018/02/24 08:19:23","新北市平溪區十分里十分街45-1號","121.774566666667","25.0409283333333","6502400","平溪區"
"223006","022-BY","2018/02/24 08:19:31","新北市石碇區北宜路五段58號","121.634305","24.95324","6501900","石碇區"
"223001","205-TH","2018/02/24 08:19:23","新北市石碇區北宜路六段塗潭巷27號","121.649468333333","24.9338783333333","6501900","石碇區"
"223008","406-TH","2018/02/24 08:19:30","新北市石碇區靜安路一段139號","121.671418333333","25.0056333333333","6501900","石碇區"
"223001","592-UM","2018/02/24 08:19:14","新北市石碇區北宜路六段塗潭巷53號","121.652336666667","24.93506","6501900","石碇區"
"223004","660-BX","2018/02/24 08:19:17","新北市石碇區碇坪路一段39號","121.658093333333","24.9914566666667","6501900","石碇區"
"223007","661-BX","2018/02/24 08:19:07","新北市石碇區靜安路一段139號","121.671251666667","25.0055283333333","6501900","石碇區"
"223005","677-TV","2018/02/24 08:19:23","新北市石碇區碇坪路一段52號","121.656695","24.99149","6501900","石碇區"
"227006","282-VK","2018/02/24 08:19:16","新北市雙溪區平林里竹寮坑10號","121.843435","25.0463083333333","6502500","雙溪區"
"252004","249-BX","2018/02/24 08:19:33","新北市三芝區興華里車埕62號","121.49868","25.19687","6502100","三芝區"
"252007","AAC-283","2018/02/24 08:19:28","新北市淡水區石頭厝6-1號","121.461916666667","25.239935","6502100","三芝區"
"237001","159-UY","2018/02/24 08:19:29","新北市三峽區三樹路279號","121.378946666667","24.9432066666667","6500900","三峽區"
"236011","165-UM","2018/02/24 08:19:21","新北市土城區清水路32巷12號","121.457081666667","24.9811466666667","6501300","土城區"
"236002","339-SR","2018/02/24 08:19:29","新北市土城區中央路三段283號","121.426201666667","24.96325","6501300","土城區"
"236006","498-BY","2018/02/24 08:19:21","新北市土城區大暖路34號","121.423266666667","24.9596433333333","6501300","土城區"
