"lineid","car","time","location","longitude","latitude","cityid","cityname"
"248005","653-BX","2018/02/24 09:49:38","新北市五股區成泰路一段241巷15號","121.435645","25.0810233333333","6501500","五股區"
"231007","189-VK","2018/02/24 09:49:29","新北市新店區新潭路三段215巷25號","121.508121666667","24.9041266666667","6500600","新店區"
"231008","192-VK","2018/02/24 09:41:13","新北市新店區平廣路一段256號","121.507813333333","24.8882916666667","6500600","新店區"
"235001","611-BX","2018/02/24 09:49:24","新北市中和區員山路82巷10弄1號","121.481483333333","24.9940733333333","6500300","中和區"
"247012","335-TH","2018/02/24 09:49:19","新北市蘆洲區永安南路二段108-2號","121.46276","25.0784233333333","6501400","蘆洲區"
"223006","022-BY","2018/02/24 09:49:31","新北市石碇區小粗坑(潭邊里)2號","121.669208333333","24.9831583333333","6501900","石碇區"
"223001","205-TH","2018/02/24 09:49:23","新北市石碇區內楒仔腳1號","121.632553333333","24.9700816666667","6501900","石碇區"
"223005","677-TV","2018/02/24 09:49:26","新北市石碇區小粗坑(潭邊里)9-2號","121.67896","24.9863816666667","6501900","石碇區"
"227006","282-VK","2018/02/24 09:49:19","新北市雙溪區長源里柑腳38號","121.803583333333","25.0134416666667","6502500","雙溪區"
"252004","249-BX","2018/02/24 09:49:32","新北市三芝區福德里大水堀32-1號","121.511225","25.217985","6502100","三芝區"
"252007","AAC-283","2018/02/24 09:49:28","新北市三芝區陽明路2號","121.518521666667","25.2634016666667","6502100","三芝區"
"237001","159-UY","2018/02/24 09:49:29","新北市三峽區中正路一段28號","121.375905","24.9309733333333","6500900","三峽區"
"236006","498-BY","2018/02/24 09:49:21","新北市土城區城林路6巷80號","121.438705","24.97976","6501300","土城區"
