"lineid","car","time","location","longitude","latitude","cityid","cityname"
"244025","742-UY","2018/02/24 10:29:21","新北市林口區粉寮路二段160巷40號","121.405538333333","25.0910683333333","6501700","林口區"
"231007","189-VK","2018/02/24 10:29:29","新北市新店區小坑三路52-1號","121.517168333333","24.9083516666667","6500600","新店區"
"231008","192-VK","2018/02/24 10:29:12","新北市新店區小坑一路35巷1號","121.529308333333","24.908235","6500600","新店區"
"247012","335-TH","2018/02/24 10:29:19","新北市蘆洲區永安南路二段108-2號","121.462655","25.0783966666667","6501400","蘆洲區"
"227006","282-VK","2018/02/24 10:29:36","新北市雙溪區新基里新基北街78號","121.869978333333","25.0394366666667","6502500","雙溪區"
"252007","AAC-283","2018/02/24 10:29:37","新北市三芝區新庄里番社后18號","121.496425","25.2746083333333","6502100","三芝區"
"237001","159-UY","2018/02/24 10:29:29","新北市三峽區復興路555號","121.356558333333","24.940575","6500900","三峽區"
