"lineid","car","time","location","longitude","latitude","cityid","cityname"
"231007","189-VK","2018/02/24 10:49:29","新北市新店區新潭路三段62號","121.507451666667","24.9125816666667","6500600","新店區"
"231008","192-VK","2018/02/24 10:49:32","新北市新店區新烏路二段300號","121.548516666667","24.91297","6500600","新店區"
"247012","335-TH","2018/02/24 10:49:38","新北市蘆洲區永安南路二段132-1號","121.462651666667","25.0784683333333","6501400","蘆洲區"
"227006","282-VK","2018/02/24 10:49:36","新北市雙溪區共和里中山路59號","121.869263333333","25.031165","6502500","雙溪區"
"252007","AAC-283","2018/02/24 10:47:13","新北市三芝區埔坪里埔頭坑41號","121.504506666667","25.264435","6502100","三芝區"
"237001","159-UY","2018/02/24 10:49:29","新北市三峽區大義路235號","121.377751666667","24.9457583333333","6500900","三峽區"
