"lineid","car","time","location","longitude","latitude","cityid","cityname"
"234040","862-TW","2018/02/24 12:09:24","新北市永和區福和路1號","121.52632","25.0094916666667","6500400","永和區"
"231008","192-VK","2018/02/24 12:09:35","新北市新店區屈尺路2號","121.549435","24.9226566666667","6500600","新店區"
"235031","255-BX","2018/02/24 11:45:38","新北市中和區和城路一段271巷1號","121.485846666667","24.9918166666667","6500300","中和區"
"228005","097-TW","2018/02/24 12:09:29","新北市貢寮區福隆里興隆街100號","121.937995","25.018355","6502600","貢寮區"
"228004","212-TW","2018/02/24 12:09:35","新北市貢寮區貢寮里長泰路18號","121.907505","25.0197866666667","6502600","貢寮區"
