"lineid","car","time","location","longitude","latitude","cityid","cityname"
"234044","148-BY","2018/02/24 12:49:29","新北市永和區秀朗路二段124-3號","121.524778333333","25.0015733333333","6500400","永和區"
"234066","149-BY","2018/02/24 12:49:35","新北市永和區永和路一段22號","121.513023333333","25.004865","6500400","永和區"
"234005","207-UY","2018/02/24 12:49:23","新北市永和區文化路26號","121.515215","25.0150733333333","6500400","永和區"
"234078","298-R6","2018/02/24 12:49:23","新北市永和區永利路108號","121.52117","25.0034716666667","6500400","永和區"
"234036","336-UY","2018/02/24 12:49:30","新北市永和區成功路一段54號","121.526955","25.0039933333333","6500400","永和區"
"234062","337-UY","2018/02/24 12:49:23","新北市永和區福和路1號","121.526166666667","25.0096016666667","6500400","永和區"
"234084","338-UY","2018/02/24 12:49:29","新北市永和區中正路138號","121.514648333333","24.9961833333333","6500400","永和區"
"234068","552-UM","2018/02/24 12:49:24","新北市永和區豫溪街191巷3弄4號","121.523455","25.0104633333333","6500400","永和區"
"234015","745-BX","2018/02/24 12:49:29","新北市永和區永和路二段299號","121.516065","25.01625","6500400","永和區"
"234028","746-BX","2018/02/24 12:49:31","新北市永和區得和路337號","121.52376","24.999615","6500400","永和區"
"234052","KEA-2590","2018/02/24 12:49:24","新北市永和區福和路1號","121.526173333333","25.0095416666667","6500400","永和區"
"234012","KEA-2591","2018/02/24 12:49:32","新北市永和區保福路二段133巷18號","121.509296666667","25.0136983333333","6500400","永和區"
"234060","AAD-866","2018/02/24 12:49:38","新北市永和區福和路309巷1號","121.516271666667","25.0070416666667","6500400","永和區"
"234040","862-TW","2018/02/24 12:49:24","新北市永和區永貞路308號","121.511798333333","25.0048766666667","6500400","永和區"
"234048","863-TW","2018/02/24 12:49:34","新北市永和區環河東路二段20號","121.522508333333","25.0131533333333","6500400","永和區"
"234025","9371-KE","2018/02/24 12:49:37","新北市永和區中正路708號","121.516075","25.009945","6500400","永和區"
"234010","9373-KE","2018/02/24 12:49:34","新北市永和區保福路二段158巷1號","121.50909","25.0150766666667","6500400","永和區"
"234022","9380-KE","2018/02/24 12:49:36","新北市永和區竹林路119巷28-3號","121.521841666667","25.0117966666667","6500400","永和區"
"234076","969-R7","2018/02/24 12:49:41","新北市永和區中正路40號","121.512926666667","24.99435","6500400","永和區"
"234072","AAC-211","2018/02/24 12:49:39","新北市永和區福和路1號","121.526195","25.0096","6500400","永和區"
"234001","AAC-295","2018/02/24 12:49:26","新北市永和區福和路285號","121.517346666667","25.0074083333333","6500400","永和區"
"231028","046-UY","2018/02/24 12:49:30","新北市新店區安華路28-1號","121.519575","24.9607916666667","6500600","新店區"
"231017","KEA-2219","2018/02/24 12:49:36","新北市新店區安華路28-1號","121.519976666667","24.96122","6500600","新店區"
"231023","AAD-862","2018/02/24 12:49:33","新北市新店區安華路28-1號","121.519748333333","24.9610366666667","6500600","新店區"
"231038","4715-K9","2018/02/24 12:49:36","新北市新店區安華路28-1號","121.519533333333","24.9605783333333","6500600","新店區"
"231036","512-UM","2018/02/24 12:49:27","新北市新店區安華路28-1號","121.519315","24.9612966666667","6500600","新店區"
"231003","641-BX","2018/02/24 12:49:36","新北市新店區安華路28-1號","121.519558333333","24.9606266666667","6500600","新店區"
"231004","899-TW","2018/02/24 12:49:36","新北市新店區安華路28-1號","121.518903333333","24.96084","6500600","新店區"
"231037","AKT-0513","2018/02/24 12:49:30","新北市新店區安華路28-1號","121.519598333333","24.96057","6500600","新店區"
"235027","006-UY","2018/02/24 12:49:20","新北市中和區員山路36巷16-3號","121.485033333333","24.99129","6500300","中和區"
"235002","185-VK","2018/02/24 12:49:43","新北市中和區秀朗路三段42號","121.526483333333","24.99578","6500300","中和區"
"235031","255-BX","2018/02/24 12:49:36","新北市中和區新民街90號","121.482091666667","25.007585","6500300","中和區"
"235001","611-BX","2018/02/24 12:49:19","新北市中和區員山路481號","121.479986666667","25.0053733333333","6500300","中和區"
"228005","097-TW","2018/02/24 12:49:29","新北市貢寮區福連里福連街37號","121.988813333333","25.0108583333333","6502600","貢寮區"
"228004","212-TW","2018/02/24 12:49:29","新北市貢寮區吉林里內寮街20-1號","121.889825","24.9947883333333","6502600","貢寮區"
"207002","749-BX","2018/02/24 12:49:03","新北市萬里區雙興里二坪路6號","121.651278333333","25.1741733333333","6502800","萬里區"
"207001","662-BX","2018/02/24 12:49:27","新北市萬里區萬里里獅頭路4號","121.692058333333","25.177895","6502800","萬里區"
"252007","AAC-283","2018/02/24 12:49:33","新北市三芝區埔坪里埔頭坑41號","121.504503333333","25.264465","6502100","三芝區"
"236006","498-BY","2018/02/24 12:49:24","新北市土城區永寧路32巷1號","121.42911","24.960155","6501300","土城區"
"221032","280-BY","2018/02/24 12:49:19","新北市汐止區汐萬路一段306號","121.650376666667","25.074575","6501100","汐止區"
