"lineid","car","time","location","longitude","latitude","cityid","cityname"
"234005","207-UY","2018/02/24 14:29:23","新北市永和區中正路516號","121.517391666667","25.0047883333333","6500400","永和區"
"234036","336-UY","2018/02/24 14:29:30","新北市永和區民樂街31巷10弄11號","121.52893","25.0009","6500400","永和區"
"234062","337-UY","2018/02/24 14:29:43","新北市永和區中正路433號","121.517156666667","25.0050816666667","6500400","永和區"
"234084","338-UY","2018/02/24 14:29:29","新北市永和區光復街36號","121.5166","25.0174816666667","6500400","永和區"
"234068","552-UM","2018/02/24 14:29:24","新北市永和區永亨路7號","121.519423333333","25.0056916666667","6500400","永和區"
"234028","746-BX","2018/02/24 14:29:31","新北市永和區民有街9號","121.516241666667","24.9969583333333","6500400","永和區"
"234052","KEA-2590","2018/02/24 14:29:24","新北市永和區環河東路一段42號","121.518768333333","25.0170566666667","6500400","永和區"
"234060","AAD-866","2018/02/24 14:29:38","新北市永和區秀朗路一段175號","121.517025","25.0037","6500400","永和區"
"234040","862-TW","2018/02/24 14:29:24","新北市永和區安樂路330號","121.514413333333","25.005875","6500400","永和區"
"234048","863-TW","2018/02/24 14:29:14","新北市永和區新生路142號","121.506608333333","25.0142883333333","6500400","永和區"
"234025","9371-KE","2018/02/24 14:29:43","新北市永和區中正路97號","121.514888333333","24.9974916666667","6500400","永和區"
"248017","225-UY","2018/02/24 14:18:19","新北市五股區壟路16號","121.415235","25.0855133333333","6501500","五股區"
"234072","AAC-211","2018/02/24 14:29:39","新北市永和區竹林路37號","121.517925","25.0142566666667","6500400","永和區"
"234001","AAC-295","2018/02/24 14:29:26","新北市永和區大新街43號","121.515493333333","25.00843","6500400","永和區"
"231002","002-UM","2018/02/24 14:29:31","新北市新店區中央路7號","121.533426666667","24.978685","6500600","新店區"
"231025","0293-UT","2018/02/24 14:29:27","新北市新店區民族路91號","121.538598333333","24.9776766666667","6500600","新店區"
"231028","046-UY","2018/02/24 14:29:30","新北市新店區安康路二段186號","121.511395","24.9601116666667","6500600","新店區"
"231030","047-UY","2018/02/24 14:29:41","新北市新店區安民街134號","121.516488333333","24.969365","6500600","新店區"
"231029","106-UY","2018/02/24 14:29:32","新北市新店區安康路二段454號","121.494423333333","24.95427","6500600","新店區"
"231018","107-UY","2018/02/24 14:29:35","新北市新店區中央二街81號","121.525771666667","24.97519","6500600","新店區"
"231012","108-UY","2018/02/24 14:29:22","新北市新店區寶興路65巷2號","121.550771666667","24.9716083333333","6500600","新店區"
"231020","187-VK","2018/02/24 14:29:31","新北市新店區桂山路37號","121.563023333333","24.90451","6500600","新店區"
"231017","KEA-2219","2018/02/24 14:29:35","新北市新店區北宜路三段214號","121.590101666667","24.9522733333333","6500600","新店區"
"231023","AAD-862","2018/02/24 14:29:33","新北市新店區光明街172號","121.539535","24.9620083333333","6500600","新店區"
"231027","3712-VJ","2018/02/24 14:29:28","新北市新店區寶橋路85巷23號","121.54525","24.9761466666667","6500600","新店區"
"231024","4716-K9","2018/02/24 14:29:38","新北市新店區新生街13巷42號","121.538935","24.966555","6500600","新店區"
"231038","4715-K9","2018/02/24 14:29:36","新北市新店區溪洲路54號","121.532776666667","24.9613833333333","6500600","新店區"
"231036","512-UM","2018/02/24 14:29:35","新北市新店區安祥路109巷151弄5號","121.478346666667","24.9587383333333","6500600","新店區"
"231035","515-UM","2018/02/24 14:29:26","新北市新店區安民街3巷1號","121.514556666667","24.9643133333333","6500600","新店區"
"231001","618-UM","2018/02/24 14:29:28","新北市新店區中正路75巷71號","121.543051666667","24.9689","6500600","新店區"
"231003","641-BX","2018/02/24 14:29:36","新北市新店區中興路一段268-3號","121.545181666667","24.9679216666667","6500600","新店區"
"231034","645-TV","2018/02/24 14:29:25","新北市新店區黎明路3號","121.503535","24.952475","6500600","新店區"
"231013","719-UM","2018/02/24 14:29:35","新北市新店區民權路108-2號","121.536135","24.983455","6500600","新店區"
"231005","897-TW","2018/02/24 14:29:39","新北市新店區北新路三段220號","121.541093333333","24.98443","6500600","新店區"
"231006","898-TW","2018/02/24 14:29:36","新北市新店區北宜路二段401號","121.559693333333","24.9544733333333","6500600","新店區"
"231004","899-TW","2018/02/24 14:29:36","新北市新店區中正路263-4號","121.538321666667","24.9738333333333","6500600","新店區"
"231037","AKT-0513","2018/02/24 14:29:30","新北市新店區柴埕路43號","121.51378","24.965485","6500600","新店區"
"235030","003-UY","2018/02/24 14:29:18","新北市中和區景新街53號","121.5045","24.9989016666667","6500300","中和區"
"235028","005-UY","2018/02/24 14:29:34","新北市中和區南山路85號","121.502028333333","24.9979833333333","6500300","中和區"
"235027","006-UY","2018/02/24 14:29:40","新北市中和區連城路219巷11號","121.494901666667","24.9965483333333","6500300","中和區"
"235020","096-UM","2018/02/24 14:29:40","新北市中和區民富街86號","121.476561666667","25.008185","6500300","中和區"
"235003","097-UM","2018/02/24 14:29:37","新北市中和區秀峰街127巷6號","121.519295","24.9909933333333","6500300","中和區"
"235029","098-UM","2018/02/24 14:29:43","新北市中和區永和路8巷17號","121.500575","25.00354","6500300","中和區"
"235004","150-BY","2018/02/24 14:29:44","新北市中和區保健路106巷67號","121.511528333333","24.9947583333333","6500300","中和區"
"235022","151-BY","2018/02/24 14:29:26","新北市中和區連城路328號","121.48323","24.99596","6500300","中和區"
"235019","183-VK","2018/02/24 14:29:37","新北市中和區德光路24號","121.470911666667","25.0044","6500300","中和區"
"235002","185-VK","2018/02/24 14:29:23","新北市中和區自立路99巷1號","121.521985","24.9948833333333","6500300","中和區"
"235013","186-VK","2018/02/24 14:29:36","新北市中和區景新街228-6號","121.508166666667","24.9941616666667","6500300","中和區"
"235031","255-BX","2018/02/24 14:29:36","新北市中和區連城路340巷8弄2號","121.482776666667","24.9962333333333","6500300","中和區"
"235008","293-VK","2018/02/24 14:29:22","新北市中和區捷運路185號","121.505521666667","24.991395","6500300","中和區"
"235036","301-VK","2018/02/24 14:29:38","新北市中和區枋寮街51巷7號","121.501623333333","25.000705","6500300","中和區"
"235007","352-BY","2018/02/24 14:29:26","新北市中和區景平路358號","121.51109","24.9928016666667","6500300","中和區"
"235032","377-QA","2018/02/24 14:29:36","新北市中和區中和路143號","121.502258333333","24.9998633333333","6500300","中和區"
"235025","378-QA","2018/02/24 14:29:35","新北市中和區民安街42巷32號","121.479211666667","25.0011683333333","6500300","中和區"
"235035","269-TV","2018/02/24 14:29:40","新北市中和區立德街9號","121.49032","25.0063583333333","6500300","中和區"
"235014","4979-A6","2018/02/24 14:29:22","新北市中和區中正路571巷2弄11號","121.48619","24.9937733333333","6500300","中和區"
"235033","4980-A6","2018/02/24 14:29:14","新北市中和區連城路134巷11號","121.495231666667","25.0000533333333","6500300","中和區"
"235006","551-UM","2018/02/24 14:29:33","新北市中和區中安街92號","121.511946666667","25.00139","6500300","中和區"
"235009","565-BX","2018/02/24 14:29:27","新北市中和區景新街399巷9號","121.512933333333","24.9899","6500300","中和區"
"235018","640-BX","2018/02/24 14:29:21","新北市中和區國光街112巷9號","121.469723333333","25.0014266666667","6500300","中和區"
"235024","647-TV","2018/02/24 14:29:31","新北市中和區員山路292號","121.481558333333","25.002425","6500300","中和區"
"235011","732-UM","2018/02/24 14:29:33","新北市中和區景平路241巷28號","121.508798333333","24.9925","6500300","中和區"
"235010","733-UM","2018/02/24 14:29:35","新北市中和區忠孝街37巷52號","121.51115","24.9849716666667","6500300","中和區"
"235026","800-TS","2018/02/24 14:29:32","新北市中和區中山路二段417號","121.485978333333","25.0048683333333","6500300","中和區"
"235021","801-TS","2018/02/24 14:29:24","新北市中和區中山路三段37巷27號","121.47943","25.0049166666667","6500300","中和區"
"235016","805-TS","2018/02/24 14:29:28","新北市中和區華新街143巷63弄1-1號","121.506391666667","24.979315","6500300","中和區"
"235012","896-TW","2018/02/24 14:29:22","新北市中和區忠孝街66號","121.51194","24.983995","6500300","中和區"
"235017","900-TW","2018/02/24 14:29:32","新北市中和區民德路198號","121.468171666667","24.99884","6500300","中和區"
"235034","911-UM","2018/02/24 14:29:33","新北市中和區中山路二段228號","121.499086666667","25.0027233333333","6500300","中和區"
"235015","157-BY","2018/02/24 14:29:31","新北市中和區景平路221巷28號","121.509425","24.9921516666667","6500300","中和區"
"235001","AAC-213","2018/02/24 14:29:27","新北市中和區秀朗路三段10巷14弄18號","121.52491","24.9966233333333","6500300","中和區"
"235023","AAC-215","2018/02/24 14:29:31","新北市中和區圓通路252巷1號","121.493581666667","24.9910366666667","6500300","中和區"
"220016","013-TV","2018/02/24 14:29:36","新北市板橋區中山路二段519號","121.483053333333","25.0212333333333","6500100","板橋區"
"220013","072-UY","2018/02/24 14:29:43","新北市板橋區實踐路93巷75號","121.467163333333","25.0052983333333","6500100","板橋區"
"220034","073-UY","2018/02/24 14:29:40","新北市板橋區中正路216巷150弄2號","121.460611666667","25.019275","6500100","板橋區"
"220105","075-UY","2018/02/24 14:29:29","新北市板橋區文化路二段417巷1號","121.473735","25.0334066666667","6500100","板橋區"
"220017","AAD-861","2018/02/24 14:29:40","新北市板橋區稚暉街13號","121.456386666667","25.004375","6500100","板橋區"
"247021","893-R6","2018/02/24 14:29:40","新北市蘆洲區中正路507號","121.461218333333","25.0973116666667","6501400","蘆洲區"
"247019","500-BY","2018/02/24 14:29:25","新北市蘆洲區仁愛街116號","121.469843333333","25.0948966666667","6501400","蘆洲區"
"247009","339-TH","2018/02/24 14:29:41","新北市蘆洲區信義路146號","121.479605","25.0831116666667","6501400","蘆洲區"
"247001","337-TH","2018/02/24 14:29:25","新北市蘆洲區永樂街38巷33弄19號","121.457255","25.0896783333333","6501400","蘆洲區"
"247003","336-TH","2018/02/24 14:29:40","新北市蘆洲區長安街220巷23號","121.459635","25.0852316666667","6501400","蘆洲區"
"247011","335-TH","2018/02/24 14:29:26","新北市蘆洲區中興街163號","121.482095","25.0897183333333","6501400","蘆洲區"
"247015","057-VK","2018/02/24 14:29:35","新北市蘆洲區中正路185巷68弄25號","121.466275","25.08537","6501400","蘆洲區"
"247005","056-VK","2018/02/24 14:29:42","新北市蘆洲區長安街46巷5號","121.463625","25.0800366666667","6501400","蘆洲區"
"247007","053-VK","2018/02/24 14:29:39","新北市蘆洲區民生街6號","121.47569","25.07915","6501400","蘆洲區"
"247013","007-UY","2018/02/24 14:29:37","新北市蘆洲區中山二路225號","121.470263333333","25.0801683333333","6501400","蘆洲區"
"247023","002-UY","2018/02/24 14:29:39","新北市蘆洲區中正路263巷2號","121.46726","25.08755","6501400","蘆洲區"
"247017","001-UY","2018/02/24 14:29:29","新北市蘆洲區民族路278號","121.478236666667","25.0893883333333","6501400","蘆洲區"
"235005","251-BX","2018/02/24 14:29:40","新北市中和區保健路7巷4號","121.508121666667","24.9985416666667","6500300","中和區"
"228005","097-TW","2018/02/24 14:29:29","新北市貢寮區美豐里巫里岸9-1號","121.901951666667","25.0700633333333","6502600","貢寮區"
"228004","212-TW","2018/02/24 14:29:29","新北市貢寮區雙玉里田寮洋街33-1號","121.93218","25.0136016666667","6502600","貢寮區"
"253003","6232-TK","2018/02/24 14:29:33","新北市石門區尖子鹿47-1號","121.580293333333","25.26827","6502200","石門區"
"253001","6251-TK","2018/02/24 14:29:26","新北市石門區崁子腳65號","121.531865","25.2863366666667","6502200","石門區"
"253002","637-UY","2018/02/24 14:29:41","新北市石門區七股12-6號","121.54711","25.2652383333333","6502200","石門區"
"253004","8270-PC","2018/02/24 14:29:30","新北市石門區內阿里磅6號","121.589565","25.252805","6502200","石門區"
"207002","749-BX","2018/02/24 14:29:37","新北市萬里區溪底里溪底路2號","121.618986666667","25.1518116666667","6502800","萬里區"
"207001","662-BX","2018/02/24 14:29:27","新北市萬里區磺潭里清水5-1號","121.64105","25.2004483333333","6502800","萬里區"
"252005","AAC-283","2018/02/24 14:29:33","新北市三芝區橫山里大坑34號","121.527423333333","25.2562433333333","6502100","三芝區"
"236068","105-UM","2018/02/24 14:29:36","新北市土城區永豐路255巷46號","121.47586","24.9727683333333","6501300","土城區"
"236041","107-UM","2018/02/24 14:29:32","新北市土城區裕民路67巷14號","121.449798333333","24.9880483333333","6501300","土城區"
"236075","166-UM","2018/02/24 14:29:33","新北市土城區中央路三段279號","121.426778333333","24.963425","6501300","土城區"
"236029","253-BX","2018/02/24 14:29:37","新北市土城區水源街83號","121.439638333333","24.9765133333333","6501300","土城區"
"236024","269-VK","2018/02/24 14:29:22","新北市土城區承天路18號","121.439506666667","24.96348","6501300","土城區"
"236013","270-VK","2018/02/24 14:29:28","新北市土城區青雲路39巷7號","121.46033","24.987505","6501300","土城區"
"236035","271-VK","2018/02/24 14:29:44","新北市土城區青雲路449號","121.458743333333","24.9751366666667","6501300","土城區"
"236017","401-BY","2018/02/24 14:29:35","新北市土城區永豐路135巷1號","121.466651666667","24.9833883333333","6501300","土城區"
"236045","752-BX","2018/02/24 14:29:40","新北市土城區明德路一段309號","121.459615","24.97716","6501300","土城區"
"236057","912-UM","2018/02/24 14:29:34","新北市土城區中央路四段406號","121.412161666667","24.9536733333333","6501300","土城區"
"236061","915-UM","2018/02/24 14:29:30","新北市土城區延壽路46號","121.470655","24.9916666666667","6501300","土城區"
"236047","970-R7","2018/02/24 14:29:24","新北市土城區學府路一段225號","121.451248333333","24.984195","6501300","土城區"
"236054","AAC-216","2018/02/24 14:29:35","新北市土城區中華路一段203號","121.442925","24.984915","6501300","土城區"
"221032","280-BY","2018/02/24 14:28:59","台北市文山區老泉街45巷18-1號","121.576195","24.9761933333333","6501100","汐止區"
"220027","145-BY","2018/02/24 14:29:28","新北市板橋區國光路162號","121.460158333333","25.0182316666667","6500100","板橋區"
"220028","200-UY","2018/02/24 14:29:41","新北市板橋區大觀路二段3巷1號","121.447321666667","25.003835","6500100","板橋區"
"220030","610-BX","2018/02/24 14:29:32","新北市板橋區金門街378號","121.426965","24.983765","6500100","板橋區"
"220050","245-BX","2018/02/24 14:29:32","新北市板橋區縣民大道三段133巷21號","121.476946666667","25.0238466666667","6500100","板橋區"
"220045","257-TC","2018/02/24 14:29:42","新北市板橋區莒光路140巷5號","121.473325","25.023495","6500100","板橋區"
"220004","276-BY","2018/02/24 14:29:43","新北市板橋區信義路1巷26弄36號","121.458683333333","24.996635","6500100","板橋區"
"220020","277-BY","2018/02/24 14:29:36","新北市板橋區篤行路二段149號","121.429733333333","24.9879666666667","6500100","板橋區"
"220019","283-VK","2018/02/24 14:29:42","新北市板橋區信義路88號","121.457806666667","24.9931183333333","6500100","板橋區"
"220043","285-UM","2018/02/24 14:29:42","新北市板橋區吳鳳路50巷85弄1號","121.470236666667","25.0303933333333","6500100","板橋區"
"220001","285-VK","2018/02/24 14:29:41","新北市板橋區永豐街181號","121.475958333333","25.0206416666667","6500100","板橋區"
"220031","286-VK","2018/02/24 14:29:37","新北市板橋區龍興街71巷21號","121.442915","25.0021966666667","6500100","板橋區"
"220029","287-VK","2018/02/24 14:29:28","新北市板橋區南雅西路一段7巷7號","121.45426","25.0039016666667","6500100","板橋區"
"220009","293-UM","2018/02/24 14:29:35","新北市板橋區中山路一段275號","121.469073333333","25.0135966666667","6500100","板橋區"
"220032","296-UM","2018/02/24 14:29:43","新北市板橋區滿平街84巷100弄19號","121.425833333333","24.986015","6500100","板橋區"
"220023","303-R5","2018/02/24 14:29:33","新北市板橋區南雅西路二段301巷41弄33號","121.450243333333","25.0178816666667","6500100","板橋區"
"220010","305-R5","2018/02/24 14:29:33","新北市板橋區三民路二段181巷2號","121.479456666667","25.0143183333333","6500100","板橋區"
"220041","307-R5","2018/02/24 14:29:34","新北市板橋區光武街2巷15號","121.468325","25.0253466666667","6500100","板橋區"
"220047","317-R6","2018/02/24 14:29:43","新北市板橋區民生路三段263巷2弄16號","121.463701666667","25.0298833333333","6500100","板橋區"
"220012","486-VK","2018/02/24 14:29:24","新北市板橋區中山路一段24號","121.460328333333","25.008205","6500100","板橋區"
"220038","487-VK","2018/02/24 14:29:40","新北市板橋區文化路一段49號","121.460688333333","25.0133816666667","6500100","板橋區"
"220037","491-VK","2018/02/24 14:29:38","新北市板橋區雙十路二段67號","121.476385","25.0266716666667","6500100","板橋區"
"220104","560-BX","2018/02/24 14:29:39","新北市板橋區新生街89巷10號","121.457838333333","25.0222666666667","6500100","板橋區"
"220052","561-BX","2018/02/24 14:29:28","新北市板橋區文化路一段266號","121.467263333333","25.020515","6500100","板橋區"
"220011","609-BX","2018/02/24 14:29:36","新北市板橋區三民路二段241號","121.479066666667","25.0125766666667","6500100","板橋區"
"220040","637-BX","2018/02/24 14:29:38","新北市板橋區文聖街149巷25號","121.479553333333","25.0286216666667","6500100","板橋區"
"220005","686-BX","2018/02/24 14:29:39","新北市中和區和平路250號","121.464725","24.9971416666667","6500100","板橋區"
"220025","687-BX","2018/02/24 14:29:39","新北市板橋區僑中二街52號","121.446713333333","25.0102083333333","6500100","板橋區"
"220042","689-BX","2018/02/24 14:29:31","新北市板橋區雨農路32號","121.46131","25.02437","6500100","板橋區"
"220002","741-BX","2018/02/24 14:29:43","新北市板橋區光明街15號","121.460383333333","25.0025266666667","6500100","板橋區"
"220051","KEA-2699","2018/02/24 14:29:37","新北市板橋區松柏街22巷18-3號","121.474765","25.0293533333333","6500100","板橋區"
"220003","827-TW","2018/02/24 14:29:36","新北市板橋區重慶路290巷20號","121.462383333333","24.9989233333333","6500100","板橋區"
"220014","829-TW","2018/02/24 14:29:34","新北市板橋區長安街138巷25號","121.473156666667","25.0089333333333","6500100","板橋區"
"220039","830-TW","2018/02/24 14:29:40","新北市板橋區裕民街87-4號","121.46047","25.0281033333333","6500100","板橋區"
"220022","895-R6","2018/02/24 14:29:23","新北市板橋區倉後街4號","121.455721666667","25.0086383333333","6500100","板橋區"
"220021","985-R7","2018/02/24 14:29:33","新北市板橋區新生街92號","121.45824","25.0218233333333","6500100","板橋區"
"220046","AAC-210","2018/02/24 14:29:28","新北市板橋區漢生西路153巷2號","121.4631","25.0228116666667","6500100","板橋區"
"220018","AAC-253","2018/02/24 14:29:25","新北市板橋區四川路一段107號","121.459743333333","25.00513","6500100","板橋區"
