"lineid","car","time","location","longitude","latitude","cityid","cityname"
"234048","863-TW","2018/02/24 14:57:33","新北市五股區中直路15號","121.423685","25.1109866666667","6500400","永和區"
"234025","9371-KE","2018/02/24 14:59:37","新北市永和區水源街33巷7號","121.510856666667","25.0041333333333","6500400","永和區"
"248017","225-UY","2018/02/24 14:59:41","新北市五股區登林路106巷12號","121.426713333333","25.0713466666667","6501500","五股區"
"231002","002-UM","2018/02/24 14:59:31","新北市新店區中正路501-2號","121.53362","24.9837283333333","6500600","新店區"
"231025","0293-UT","2018/02/24 14:59:27","新北市新店區大豐路72號","121.538918333333","24.9793966666667","6500600","新店區"
"231028","046-UY","2018/02/24 14:59:30","新北市新店區安豐路46號","121.500056666667","24.9549133333333","6500600","新店區"
"231030","047-UY","2018/02/24 14:59:41","新北市新店區安民街339號","121.516926666667","24.9748816666667","6500600","新店區"
"231029","106-UY","2018/02/24 14:59:42","新北市新店區安康路三段652號","121.476441666667","24.9444366666667","6500600","新店區"
"231018","107-UY","2018/02/24 14:59:35","新北市新店區中央六街7號","121.530213333333","24.97454","6500600","新店區"
"231012","108-UY","2018/02/24 14:59:43","新北市新店區寶橋路97號","121.547248333333","24.9763633333333","6500600","新店區"
"231020","187-VK","2018/02/24 14:59:31","新北市新店區永福路54號","121.558128333333","24.928675","6500600","新店區"
"231017","KEA-2219","2018/02/24 14:59:35","新北市新店區銀河路54號","121.576623333333","24.9572183333333","6500600","新店區"
"231026","256-BX","2018/02/24 14:59:37","新北市新店區博愛街1號","121.540533333333","24.972505","6500600","新店區"
"231023","AAD-862","2018/02/24 14:59:33","新北市新店區檳榔路109號","121.544513333333","24.9615283333333","6500600","新店區"
"231027","3712-VJ","2018/02/24 14:59:28","新北市新店區安康路二段414巷2號","121.495768333333","24.9577416666667","6500600","新店區"
"231024","4716-K9","2018/02/24 14:59:38","新北市新店區中華路83巷67號","121.538356666667","24.9672683333333","6500600","新店區"
"231036","512-UM","2018/02/24 14:59:35","新北市新店區安祥路102巷42弄35號","121.4852","24.9634483333333","6500600","新店區"
"231035","515-UM","2018/02/24 14:59:26","新北市新店區新和街59巷17號","121.519273333333","24.986005","6500600","新店區"
"231001","618-UM","2018/02/24 14:59:27","新北市新店區中正路276號","121.538823333333","24.9735983333333","6500600","新店區"
"231003","641-BX","2018/02/24 14:59:36","新北市新店區中興路二段224號","121.54802","24.9751333333333","6500600","新店區"
"231034","645-TV","2018/02/24 14:59:25","新北市新店區玫瑰路4-1號","121.493608333333","24.9513716666667","6500600","新店區"
"231039","718-UY","2018/02/24 14:59:29","新北市新店區民權路14號","121.542105","24.983005","6500600","新店區"
"231033","720-UM","2018/02/24 14:59:31","新北市新店區安泰路60巷134弄110號","121.483946666667","24.94344","6500600","新店區"
"231005","897-TW","2018/02/24 14:59:39","新北市新店區復興路51-8號","121.536395","24.9872166666667","6500600","新店區"
"231006","898-TW","2018/02/24 14:59:36","新北市新店區新坡一街72號","121.54889","24.9645966666667","6500600","新店區"
"231004","899-TW","2018/02/24 14:59:36","新北市新店區民族路12號","121.5415","24.9788966666667","6500600","新店區"
"231037","AKT-0513","2018/02/24 14:59:29","新北市新店區安民街365巷1弄10號","121.516495","24.9750316666667","6500600","新店區"
"235030","003-UY","2018/02/24 14:59:38","新北市中和區中山路二段3巷20號","121.506306666667","25.0054566666667","6500300","中和區"
"235028","005-UY","2018/02/24 14:59:34","新北市中和區中正路246號","121.495796666667","24.9939783333333","6500300","中和區"
"235020","096-UM","2018/02/24 14:59:32","新北市板橋區漢生東路339號","121.47207","25.0073816666667","6500300","中和區"
"235003","097-UM","2018/02/24 14:59:28","新北市中和區安樂路139號","121.514498333333","24.9968016666667","6500300","中和區"
"235029","098-UM","2018/02/24 14:59:43","新北市中和區永和路128巷9號","121.497676666667","25.00697","6500300","中和區"
"235004","150-BY","2018/02/24 14:59:25","新北市中和區景安路79巷21號","121.507003333333","24.9967283333333","6500300","中和區"
"235013","186-VK","2018/02/24 14:59:36","新北市中和區中興街35號","121.501075","24.9946116666667","6500300","中和區"
"235008","293-VK","2018/02/24 14:59:42","新北市中和區中正路67號","121.501218333333","24.993445","6500300","中和區"
"235007","352-BY","2018/02/24 14:59:26","新北市中和區興南路二段116號","121.504586666667","24.9838483333333","6500300","中和區"
"235032","377-QA","2018/02/24 14:59:36","新北市中和區福美路256巷16弄12號","121.498418333333","25.0060516666667","6500300","中和區"
"235014","4979-A6","2018/02/24 14:59:42","新北市中和區景平路155巷2弄1號","121.513393333333","24.9918616666667","6500300","中和區"
"235033","4980-A6","2018/02/24 14:59:34","新北市中和區景平路479號","121.500363333333","24.9972966666667","6500300","中和區"
"235018","640-BX","2018/02/24 14:59:41","新北市中和區莒光路76號","121.472315","25.00295","6500300","中和區"
"235010","733-UM","2018/02/24 14:59:35","新北市中和區興南路一段93巷21號","121.509968333333","24.9880333333333","6500300","中和區"
"235026","800-TS","2018/02/24 14:59:32","新北市中和區永和路191巷21號","121.491543333333","25.0064616666667","6500300","中和區"
"235016","805-TS","2018/02/24 14:59:28","新北市中和區華新街144巷16號","121.507611666667","24.9830916666667","6500300","中和區"
"235012","896-TW","2018/02/24 14:59:41","新北市中和區忠孝街1巷2-1號","121.509145","24.9830383333333","6500300","中和區"
"235017","900-TW","2018/02/24 14:59:29","新北市中和區民德路206號","121.468226666667","24.9984333333333","6500300","中和區"
"235034","911-UM","2018/02/24 14:59:33","新北市中和區圓通路71號","121.500091666667","24.9970366666667","6500300","中和區"
"235015","157-BY","2018/02/24 14:59:30","新北市中和區復興路301巷16號","121.501465","24.9895516666667","6500300","中和區"
"235001","AAC-213","2018/02/24 14:59:27","新北市中和區自立路115號","121.521993333333","24.9945116666667","6500300","中和區"
"235023","AAC-215","2018/02/24 14:59:31","新北市中和區圓通路365號","121.491425","24.98971","6500300","中和區"
"220016","013-TV","2018/02/24 14:59:36","新北市板橋區中山路二段320號","121.480841666667","25.0192383333333","6500100","板橋區"
"220013","072-UY","2018/02/24 14:59:40","新北市板橋區長安街18號","121.466923333333","25.0087883333333","6500100","板橋區"
"220105","075-UY","2018/02/24 14:59:29","新北市板橋區民治街42巷26號","121.478163333333","25.0330666666667","6500100","板橋區"
"220017","AAD-861","2018/02/24 14:59:40","新北市板橋區大明街22號","121.458561666667","25.00257","6500100","板橋區"
"228004","212-TW","2018/02/24 14:59:29","新北市貢寮區雙玉里田寮洋街25-1號","121.929605","25.017695","6502600","貢寮區"
"253003","6232-TK","2018/02/24 14:59:33","新北市石門區小坑9號","121.59428","25.2887466666667","6502200","石門區"
"253001","6251-TK","2018/02/24 14:59:26","新北市石門區老梅路52巷25弄2-1號","121.545843333333","25.28745","6502200","石門區"
"253002","637-UY","2018/02/24 14:59:41","新北市石門區崁子腳28-2號","121.54008","25.2889183333333","6502200","石門區"
"253004","8270-PC","2018/02/24 14:59:30","新北市石門區坪林29號","121.591878333333","25.2664616666667","6502200","石門區"
"207002","749-BX","2018/02/24 14:59:37","新北市萬里區崁腳里崁腳路106-4號","121.646336666667","25.1589233333333","6502800","萬里區"
"207001","662-BX","2018/02/24 14:59:27","新北市萬里區雙興里豐稟路6-3號","121.651251666667","25.18376","6502800","萬里區"
"236068","105-UM","2018/02/24 14:59:36","新北市土城區裕生路84巷12號","121.446726666667","24.98561","6501300","土城區"
"236041","107-UM","2018/02/24 14:59:32","新北市土城區學府路一段229巷11號","121.451841666667","24.9838216666667","6501300","土城區"
"236075","166-UM","2018/02/24 14:59:33","新北市土城區中央路四段125巷2弄18號","121.416345","24.95685","6501300","土城區"
"236029","253-BX","2018/02/24 14:59:32","新北市土城區中央路二段150號","121.44186","24.9769983333333","6501300","土城區"
"236024","269-VK","2018/02/24 14:59:43","新北市土城區中正路61號","121.444365","24.975545","6501300","土城區"
"236013","270-VK","2018/02/24 14:59:28","新北市土城區立德路107號","121.46381","24.9876316666667","6501300","土城區"
"236035","271-VK","2018/02/24 14:59:24","新北市土城區仁愛路13巷1號","121.460273333333","24.9808566666667","6501300","土城區"
"236017","401-BY","2018/02/24 14:59:35","新北市土城區延吉街217巷3弄1號","121.468703333333","24.98486","6501300","土城區"
"236045","752-BX","2018/02/24 14:59:40","新北市土城區明德路一段398-1號","121.453636666667","24.979105","6501300","土城區"
"236057","912-UM","2018/02/24 14:59:34","新北市土城區金城路二段12號","121.449268333333","24.9773166666667","6501300","土城區"
"236061","915-UM","2018/02/24 14:59:30","新北市土城區金城路三段173號","121.469315","24.9886083333333","6501300","土城區"
"236054","AAC-216","2018/02/24 14:59:35","新北市土城區裕民路174號","121.452493333333","24.985335","6501300","土城區"
"221032","280-BY","2018/02/24 14:59:39","新北市汐止區水源路一段52號","121.657325","25.0659166666667","6501100","汐止區"
"221002","707-TV","2018/02/24 14:59:27","新北市汐止區大同路二段306號","121.655621666667","25.0665833333333","6501100","汐止區"
"220027","145-BY","2018/02/24 14:59:28","新北市板橋區中正路183巷15號","121.455571666667","25.016155","6500100","板橋區"
"220028","200-UY","2018/02/24 14:59:40","新北市板橋區大觀路二段169巷6號","121.445503333333","25.0000733333333","6500100","板橋區"
"220030","610-BX","2018/02/24 14:59:41","新北市板橋區溪北路63號","121.42796","24.98968","6500100","板橋區"
"220050","245-BX","2018/02/24 14:59:32","新北市板橋區縣民大道三段61號","121.4748","25.0212066666667","6500100","板橋區"
"220045","257-TC","2018/02/24 14:59:28","新北市板橋區莒光路40巷7弄4號","121.470495","25.0237016666667","6500100","板橋區"
"220020","277-BY","2018/02/24 14:59:36","新北市板橋區篤行路二段77巷22號","121.432836666667","24.99161","6500100","板橋區"
"220019","283-VK","2018/02/24 14:59:42","新北市板橋區信義路16-7號","121.457021666667","24.9957333333333","6500100","板橋區"
"220043","285-UM","2018/02/24 14:59:41","新北市板橋區雨農路17巷5號","121.462196666667","25.02438","6500100","板橋區"
"220001","285-VK","2018/02/24 14:59:41","新北市板橋區永豐街167號","121.475625","25.0204833333333","6500100","板橋區"
"220031","286-VK","2018/02/24 14:59:37","新北市板橋區僑中二街88巷38號","121.444388333333","25.0096583333333","6500100","板橋區"
"220029","287-VK","2018/02/24 14:59:28","新北市板橋區僑中一街80巷10弄1號","121.447973333333","25.0128483333333","6500100","板橋區"
"220009","293-UM","2018/02/24 14:59:35","新北市板橋區觀光街4巷2弄1號","121.472321666667","25.0158233333333","6500100","板橋區"
"220023","303-R5","2018/02/24 14:59:32","新北市板橋區金華街10巷48弄41號","121.458458333333","25.020085","6500100","板橋區"
"220010","305-R5","2018/02/24 14:59:33","新北市板橋區中山路二段617巷1弄2號","121.485403333333","25.0225766666667","6500100","板橋區"
"220041","307-R5","2018/02/24 14:59:41","新北市板橋區四維路269巷94弄18號","121.459393333333","25.0270266666667","6500100","板橋區"
"220047","317-R6","2018/02/24 14:59:43","新北市板橋區新海路72巷60號","121.462045","25.0234466666667","6500100","板橋區"
"220012","486-VK","2018/02/24 14:59:24","新北市板橋區館前東路65號","121.464091666667","25.00801","6500100","板橋區"
"220038","487-VK","2018/02/24 14:59:42","新北市板橋區龍泉街55巷22號","121.457548333333","25.0252833333333","6500100","板橋區"
"220037","491-VK","2018/02/24 14:59:38","新北市板橋區懷德街109號","121.478526666667","25.03138","6500100","板橋區"
"220052","561-BX","2018/02/24 14:59:44","新北市板橋區自由路42號","121.465658333333","25.0232566666667","6500100","板橋區"
"220011","609-BX","2018/02/24 14:59:41","新北市板橋區中山路二段383號","121.480131666667","25.0192616666667","6500100","板橋區"
"220040","637-BX","2018/02/24 14:59:38","新北市板橋區文聖街101巷31號","121.478616666667","25.0299283333333","6500100","板橋區"
"220005","686-BX","2018/02/24 14:59:39","新北市板橋區四川路二段130巷1-2號","121.449936666667","24.99384","6500100","板橋區"
"220025","687-BX","2018/02/24 14:59:37","新北市板橋區僑中一街124巷62-9號","121.446758333333","25.0171366666667","6500100","板橋區"
"220042","689-BX","2018/02/24 14:59:31","新北市板橋區長江路三段127號","121.475443333333","25.0346333333333","6500100","板橋區"
"220002","741-BX","2018/02/24 14:59:41","新北市板橋區忠孝路忠義巷9弄2-1號","121.465491666667","25.0038083333333","6500100","板橋區"
"220051","KEA-2699","2018/02/24 14:59:34","新北市板橋區文聖街61號","121.476781666667","25.03114","6500100","板橋區"
"220003","827-TW","2018/02/24 14:59:30","新北市板橋區重慶路278號","121.463128333333","24.9994783333333","6500100","板橋區"
"220014","829-TW","2018/02/24 14:59:33","新北市板橋區漢生東路161巷3號","121.469591666667","25.0126833333333","6500100","板橋區"
"220039","830-TW","2018/02/24 14:59:37","新北市板橋區新海路109巷2弄2號","121.46079","25.022505","6500100","板橋區"
"220022","895-R6","2018/02/24 14:59:43","新北市板橋區館前西路68號","121.457616666667","25.00709","6500100","板橋區"
"220021","985-R7","2018/02/24 14:59:34","新北市板橋區南雅西路二段2-1號","121.453175","25.0089033333333","6500100","板橋區"
"220046","AAC-210","2018/02/24 14:59:28","新北市板橋區光正街18巷15號","121.46277","25.0178266666667","6500100","板橋區"
"220018","AAC-253","2018/02/24 14:59:25","新北市板橋區成都街43號","121.461331666667","25.0049433333333","6500100","板橋區"
