"lineid","car","time","location","longitude","latitude","cityid","cityname"
"234026","9371-KE","2018/02/24 17:59:42","新北市永和區永和路一段208號","121.514348333333","25.00934","6500400","永和區"
"249005","172-UM","2018/02/24 17:59:31","新北市八里區荖阡坑路16-8號","121.399828333333","25.1392033333333","6502300","八里區"
"249001","173-UM","2018/02/24 17:59:45","新北市八里區龍米路二段36號","121.448455","25.1401366666667","6502300","八里區"
"249004","303-UY","2018/02/24 17:59:38","新北市八里區龍米路三段8號","121.429168333333","25.1589516666667","6502300","八里區"
"249003","593-UM","2018/02/24 17:59:42","新北市八里區中山路二段306號","121.40469","25.1501866666667","6502300","八里區"
"248006","077-UY","2018/02/24 17:59:47","新北市五股區中興路二段37巷28號","121.460088333333","25.0749816666667","6501500","五股區"
"248008","095-VK","2018/02/24 17:59:45","新北市五股區更洲路40號","121.4575","25.0794483333333","6501500","五股區"
"248020","225-UY","2018/02/24 17:59:27","新北市五股區中興路二段83巷26-6號","121.460091666667","25.0752616666667","6501500","五股區"
"248004","677-BX","2018/02/24 17:59:42","新北市五股區中興路二段37巷28號","121.460205","25.0751583333333","6501500","五股區"
"232011","375-UM","2018/02/24 17:59:31","新北市坪林區北宜路八段211號","121.70859","24.93487","6502000","坪林區"
"244013","069-UM","2018/02/24 17:59:49","新北市林口區林口路31號","121.390791666667","25.07862","6501700","林口區"
"244007","080-UY","2018/02/24 17:59:39","新北市林口區竹林路269號","121.38956","25.0810083333333","6501700","林口區"
"244019","402-UM","2018/02/24 17:59:31","新北市林口區麗園路94號","121.372068333333","25.06806","6501700","林口區"
"244025","742-UY","2018/02/24 17:59:43","新北市林口區惠民街41號","121.356861666667","25.066945","6501700","林口區"
"244017","485-VK","2018/02/24 17:59:27","新北市林口區文化二路一段335-9號","121.369488333333","25.074015","6501700","林口區"
"244009","657-BX","2018/02/24 17:59:39","新北市林口區林口路297巷7號","121.38564","25.0846","6501700","林口區"
"244011","701-TV","2018/02/24 17:59:30","新北市林口區中正路246號","121.389911666667","25.0777266666667","6501700","林口區"
"244023","837-TS","2018/02/24 17:59:45","新北市林口區育林街30號","121.385755","25.0737483333333","6501700","林口區"
"244021","838-TS","2018/02/24 17:59:30","新北市林口區新寮40-2號","121.402581666667","25.0656616666667","6501700","林口區"
"243013","646-TV","2018/02/24 17:59:40","新北市泰山區黎明路47號","121.42187","25.0579516666667","6501600","泰山區"
"222003","016-RS","2018/02/24 17:59:31","新北市深坑區炮子崙24號","121.605348333333","24.9878716666667","6501800","深坑區"
"222002","659-BX","2018/02/24 17:59:31","新北市深坑區深坑街35號","121.615938333333","25.00183","6501800","深坑區"
"231046","278-BY","2018/02/24 17:59:28","新北市新店區康雅崙路45號","121.535863333333","24.92726","6500600","新店區"
"241016","265-UM","2018/02/24 17:59:37","新北市五股區成泰路一段98巷77號","121.450491666667","25.0776816666667","6500200","三重區"
"241024","478-VK","2018/02/24 17:59:39","新北市三重區中正北路193巷35弄69號","121.478666666667","25.07141","6500200","三重區"
"241033","AAC-255","2018/02/24 17:59:36","新北市三重區重新路五段561號","121.470381666667","25.046035","6500200","三重區"
"235064","005-UY","2018/02/24 17:59:32","新北市中和區員山路36巷16-3號","121.48501","24.9913366666667","6500300","中和區"
"235058","151-BY","2018/02/24 17:59:30","新北市中和區中正路395號","121.489938333333","24.993525","6500300","中和區"
"235038","185-VK","2018/02/24 17:59:37","新北市中和區圓通路213號","121.49686","24.9943233333333","6500300","中和區"
"235042","551-UM","2018/02/24 17:59:34","新北市中和區錦和路350-1號","121.490243333333","24.9935983333333","6500300","中和區"
"235062","800-TS","2018/02/24 17:59:35","新北市中和區中正路637巷52弄3號","121.485251666667","24.9937483333333","6500300","中和區"
"235052","805-TS","2018/02/24 17:59:37","新北市中和區中正路637巷52弄1號","121.485453333333","24.9934366666667","6500300","中和區"
"235051","157-BY","2018/02/24 17:59:39","新北市中和區錦和路350-1號","121.490136666667","24.99358","6500300","中和區"
"235037","AAC-213","2018/02/24 17:59:42","新北市中和區中正路589巷15號","121.485688333333","24.9935333333333","6500300","中和區"
"247020","500-BY","2018/02/24 17:59:29","新北市蘆洲區民義街35巷7號","121.471568333333","25.0895016666667","6501400","蘆洲區"
"247002","337-TH","2018/02/24 17:59:41","新北市蘆洲區永平街32巷57弄21號","121.459016666667","25.0931616666667","6501400","蘆洲區"
"247012","335-TH","2018/02/24 17:59:43","新北市蘆洲區民族路193號","121.478418333333","25.089065","6501400","蘆洲區"
"247016","057-VK","2018/02/24 17:59:28","新北市蘆洲區中正路185巷78弄1號","121.466111666667","25.0842233333333","6501400","蘆洲區"
"247006","056-VK","2018/02/24 17:59:31","新北市蘆洲區中華街35巷1號","121.463353333333","25.08126","6501400","蘆洲區"
"247014","007-UY","2018/02/24 17:59:37","新北市蘆洲區三民路105號","121.472693333333","25.0858833333333","6501400","蘆洲區"
"247024","002-UY","2018/02/24 17:59:23","新北市蘆洲區長興路52-1號","121.463513333333","25.0838333333333","6501400","蘆洲區"
"247018","001-UY","2018/02/24 17:59:32","新北市蘆洲區復興路288號","121.48089","25.0897316666667","6501400","蘆洲區"
"228003","097-TW","2018/02/24 17:59:38","新北市貢寮區真理里美艷山街6-2號","121.928895","25.0607416666667","6502600","貢寮區"
"228001","212-TW","2018/02/24 17:59:41","新北市貢寮區真理里新港街26巷53號","121.928535","25.05359","6502600","貢寮區"
"228002","585-TW","2018/02/24 17:59:40","新北市貢寮區福隆里桂安街17號","121.965643333333","25.0219166666667","6502600","貢寮區"
"224010","AGQ-8101","2018/02/24 17:59:42","新北市瑞芳區汽車路30號","121.8457","25.1101266666667","6501200","瑞芳區"
"224006","676-BX","2018/02/24 17:59:35","新北市瑞芳區傑魚坑路195-4號","121.787721666667","25.10706","6501200","瑞芳區"
"224002","639-TC","2018/02/24 17:59:44","新北市瑞芳區三爪子坑路34號","121.810505","25.1061883333333","6501200","瑞芳區"
"224009","285-BY","2018/02/24 17:59:39","新北市瑞芳區山尖路133-1號","121.853453333333","25.113035","6501200","瑞芳區"
"224008","275-VK","2018/02/24 17:59:38","新北市瑞芳區明燈路一段50號","121.820121666667","25.10706","6501200","瑞芳區"
"253005","032-BX","2018/02/24 17:59:39","新北市石門區中山路62-11號","121.567496666667","25.28966","6502200","石門區"
"253006","295-VK","2018/02/24 17:59:34","新北市石門區大丘田45-2號","121.549791666667","25.274855","6502200","石門區"
"222001","KEA-2212","2018/02/24 17:59:39","新北市深坑區北深路二段187號","121.612236666667","25.0010733333333","6501800","深坑區"
"208003","665-BX","2018/02/24 17:59:35","新北市金山區磺港里磺港路192-1號","121.645833333333","25.2275466666667","6502700","金山區"
"208001","761-BX","2018/02/24 17:59:35","新北市金山區磺港里青年路1號","121.64052","25.2252516666667","6502700","金山區"
"251009","008-UM","2018/02/24 17:59:47","新北市淡水區大仁街8號","121.442285","25.1746316666667","6501000","淡水區"
"251004","009-UM","2018/02/24 17:59:23","新北市淡水區民權路187號","121.459518333333","25.1334716666667","6501000","淡水區"
"251001","011-UM","2018/02/24 17:59:31","新北市淡水區民權路94巷1號","121.463146666667","25.1249116666667","6501000","淡水區"
"251013","179-VK","2018/02/24 17:59:46","新北市淡水區泉洲厝31號","121.479573333333","25.1910433333333","6501000","淡水區"
"251014","180-VK","2018/02/24 17:59:31","新北市淡水區公埔子16-6號","121.480988333333","25.2245983333333","6501000","淡水區"
"251008","181-VK","2018/02/24 17:59:25","新北市淡水區八勢一街32巷1號","121.461853333333","25.1558016666667","6501000","淡水區"
"251015","182-VK","2018/02/24 17:59:32","新北市淡水區興福寮1-6號","121.487676666667","25.1643433333333","6501000","淡水區"
"251010","413-VK","2018/02/24 17:59:39","新北市淡水區淡海路46號","121.423095","25.1800333333333","6501000","淡水區"
"251012","441-VK","2018/02/24 17:59:40","新北市淡水區北新路三段38巷7號","121.48451","25.1870366666667","6501000","淡水區"
"251016","442-VK","2018/02/24 17:59:37","新北市淡水區埤島28號","121.44754","25.1983666666667","6501000","淡水區"
"251005","443-VK","2018/02/24 17:59:42","新北市淡水區英專路124號","121.446188333333","25.1725466666667","6501000","淡水區"
"251006","561-UM","2018/02/24 17:59:41","新北市淡水區真理街5號","121.437808333333","25.1732983333333","6501000","淡水區"
"251011","650-BX","2018/02/24 17:59:41","新北市淡水區三空泉9-1號","121.474378333333","25.1631283333333","6501000","淡水區"
"251002","672-BX","2018/02/24 17:59:44","新北市淡水區長興街2巷1號","121.44385","25.1704516666667","6501000","淡水區"
"251003","673-BX","2018/02/24 17:59:38","新北市淡水區大忠街51號","121.4448","25.1764083333333","6501000","淡水區"
"207003","550-UM","2018/02/24 17:59:33","新北市萬里區港東路野柳風景區攤販68號","121.691265","25.2058483333333","6502800","萬里區"
"207004","225-TW","2018/02/24 17:59:27","新北市萬里區中幅里中福路48號","121.683365","25.17413","6502800","萬里區"
"252002","178-VK","2018/02/24 17:59:26","新北市三芝區中山路二段33號","121.502856666667","25.2552583333333","6502100","三芝區"
"252001","292-VK","2018/02/24 17:59:29","新北市三芝區中興街二段2號","121.49833","25.2566166666667","6502100","三芝區"
"237004","KEA-2597","2018/02/24 17:59:27","新北市三峽區中正路二段340號","121.365973333333","24.9103366666667","6500900","三峽區"
"237007","153-BY","2018/02/24 17:59:46","新北市三峽區中園街110號","121.367191666667","24.9229433333333","6500900","三峽區"
"237009","210-TH","2018/02/24 17:59:38","新北市三峽區中山路106巷16-2號","121.36613","24.93639","6500900","三峽區"
"237013","252-BX","2018/02/24 17:59:30","新北市三峽區長泰街78巷16號","121.376738333333","24.9336116666667","6500900","三峽區"
"237012","275-BY","2018/02/24 17:55:00","新北市三峽區民生街47號","121.375633333333","24.9361683333333","6500900","三峽區"
"237008","302-VK","2018/02/24 17:59:43","新北市三峽區白雞38-19號","121.373493333333","24.9116783333333","6500900","三峽區"
"237014","433-BY","2018/02/24 17:59:31","新北市三峽區和平街36巷7弄6號","121.370906666667","24.9373433333333","6500900","三峽區"
"237006","5529-G3","2018/02/24 17:59:34","新北市三峽區介壽路二段136巷102號","121.392166666667","24.9331833333333","6500900","三峽區"
"237011","KEA-2596","2018/02/24 17:59:29","新北市三峽區光明路100-5號","121.37612","24.9281383333333","6500900","三峽區"
"237010","706-TV","2018/02/24 17:59:39","新北市三峽區民權街168號","121.367953333333","24.9302116666667","6500900","三峽區"
"237005","AKY-6261","2018/02/24 17:59:34","新北市三峽區復興路235號","121.368523333333","24.9389166666667","6500900","三峽區"
"236073","105-UM","2018/02/24 17:59:41","新北市土城區青雲路460號","121.460176666667","24.9683383333333","6501300","土城區"
"236043","107-UM","2018/02/24 17:59:39","新北市土城區城林路6巷80號","121.438556666667","24.9796783333333","6501300","土城區"
"236079","166-UM","2018/02/24 17:59:37","新北市土城區中央路三段134-1號","121.433395","24.9655866666667","6501300","土城區"
"236031","253-BX","2018/02/24 17:59:26","新北市土城區城林路6巷80號","121.438511666667","24.97954","6501300","土城區"
"236026","269-VK","2018/02/24 17:59:37","新北市土城區承天路1號","121.435808333333","24.9665766666667","6501300","土城區"
"236015","270-VK","2018/02/24 17:59:31","新北市土城區城林路6巷80號","121.43852","24.9795533333333","6501300","土城區"
"236038","271-VK","2018/02/24 17:59:29","新北市土城區城林路6巷80號","121.43844","24.9797383333333","6501300","土城區"
"236023","401-BY","2018/02/24 17:59:26","新北市土城區城林路6巷80號","121.438698333333","24.97968","6501300","土城區"
"236049","752-BX","2018/02/24 17:59:27","新北市土城區城林路6巷80號","121.438676666667","24.97973","6501300","土城區"
"236059","912-UM","2018/02/24 17:59:34","新北市土城區中央路三段140號","121.433096666667","24.9655283333333","6501300","土城區"
"236063","915-UM","2018/02/24 17:59:30","新北市土城區中央路二段280號","121.440556666667","24.9740916666667","6501300","土城區"
"236055","AAC-216","2018/02/24 17:59:34","新北市土城區城林路6巷80號","121.43847","24.9797683333333","6501300","土城區"
"242029","986-R7","2018/02/24 17:59:29","新北市新莊區中平路32號","121.44475","25.04347","6500500","新莊區"
"242051","751-BX","2018/02/24 17:59:31","新北市新莊區龍安路498號","121.42657","25.017155","6500500","新莊區"
"242061","705-TV","2018/02/24 17:59:40","新北市新莊區新樹路295-5號","121.43364","25.0197483333333","6500500","新莊區"
"242025","615-BX","2018/02/24 17:59:40","新北市新莊區五工路86號","121.45721","25.0640166666667","6500500","新莊區"
"242023","613-BX","2018/02/24 17:59:46","新北市新莊區福壽街51號","121.458255","25.0488583333333","6500500","新莊區"
"242027","612-BX","2018/02/24 17:59:27","新北市新莊區思源路395號","121.459858333333","25.0517433333333","6500500","新莊區"
"242039","566-BX","2018/02/24 17:59:30","新北市新莊區民安西路22號","121.426605","25.02134","6500500","新莊區"
"242044","497-BY","2018/02/24 17:59:37","新北市新莊區雙鳳路143號","121.413005","25.0270983333333","6500500","新莊區"
"242015","441-UM","2018/02/24 17:59:29","新北市新莊區中平路87巷6號","121.444381666667","25.045975","6500500","新莊區"
"242053","440-UM","2018/02/24 17:59:44","新北市新莊區光華街4號","121.428673333333","25.010635","6500500","新莊區"
"242034","415-TV","2018/02/24 17:59:28","新北市新莊區景德路414號","121.444706666667","25.033395","6500500","新莊區"
"242004","413-TV","2018/02/24 17:59:43","新北市新莊區福樂街72巷9號","121.45863","25.046675","6500500","新莊區"
"242042","400-BY","2018/02/24 17:59:46","新北市新莊區中正路698號","121.418891666667","25.0278916666667","6500500","新莊區"
"242058","353-BY","2018/02/24 17:59:37","新北市新莊區雙鳳路134巷34號","121.41227","25.028445","6500500","新莊區"
"242007","132-UY","2018/02/24 17:59:43","新北市新莊區自信街81巷17弄2號","121.456013333333","25.048815","6500500","新莊區"
"242036","133-UY","2018/02/24 17:59:30","新北市新莊區建福路31號","121.42637","25.0287016666667","6500500","新莊區"
"242021","135-UY","2018/02/24 17:59:39","新北市新莊區中正路176號","121.450598333333","25.035975","6500500","新莊區"
"242046","172-VK","2018/02/24 17:59:44","新北市新莊區福營路195巷18號","121.431776666667","25.0299133333333","6500500","新莊區"
"242009","173-VK","2018/02/24 17:59:46","新北市新莊區昌平街59巷44號","121.45358","25.0532416666667","6500500","新莊區"
"242002","176-VK","2018/02/24 17:59:33","新北市新莊區中正路153-2號","121.455943333333","25.0366516666667","6500500","新莊區"
"242013","346-TH","2018/02/24 17:59:31","新北市新莊區中和街125巷14號","121.446921666667","25.0487433333333","6500500","新莊區"
"242056","347-TH","2018/02/24 17:59:42","新北市新莊區豐年街124巷2號","121.446228333333","25.0298483333333","6500500","新莊區"
"242019","348-TH","2018/02/24 17:59:38","新北市新莊區明中街14號","121.457605","25.0392933333333","6500500","新莊區"
"242017","350-TH","2018/02/24 17:59:39","新北市新莊區中港路339巷46號","121.450355","25.0451383333333","6500500","新莊區"
"242011","351-TH","2018/02/24 17:59:38","新北市新莊區中原路235巷1弄2號","121.449653333333","25.0539166666667","6500500","新莊區"
"238015","755-BX","2018/02/24 17:59:36","新北市樹林區復興路198號","121.419801666667","24.9910433333333","6500700","樹林區"
"238023","601-UM","2018/02/24 17:59:47","新北市樹林區龍興街31巷12號","121.40354","25.0159833333333","6500700","樹林區"
"238019","599-UM","2018/02/24 17:59:40","新北市樹林區水源街15號","121.42507","24.9830166666667","6500700","樹林區"
"238018","571-TV","2018/02/24 17:59:40","新北市樹林區樹新路122號","121.430235","24.99841","6500700","樹林區"
"238022","KEA-2213","2018/02/24 17:59:33","新北市樹林區太順街86巷11號","121.416598333333","24.9785433333333","6500700","樹林區"
"238026","KEA-2539","2018/02/24 17:59:47","新北市樹林區田尾街82號","121.409085","24.9580133333333","6500700","樹林區"
"238025","303-VK","2018/02/24 17:59:31","新北市樹林區三俊街113號","121.417296666667","25.0155116666667","6500700","樹林區"
"238017","283-BY","2018/02/24 17:59:32","新北市樹林區三德街30巷23號","121.414711666667","25.0124766666667","6500700","樹林區"
"238014","282-BY","2018/02/24 17:59:42","新北市樹林區中正路85號","121.426066666667","25.0005033333333","6500700","樹林區"
"238020","268-VK","2018/02/24 17:59:37","新北市樹林區三俊街135巷52號","121.418753333333","25.0172216666667","6500700","樹林區"
"238026","172-UY","2018/02/24 17:59:37","新北市樹林區佳園路一段13號","121.392828333333","24.9714783333333","6500700","樹林區"
"238016","169-UY","2018/02/24 17:59:38","新北市樹林區啟智街151巷11號","121.416481666667","24.987555","6500700","樹林區"
"239007","AAC-297","2018/02/24 17:59:35","新北市鶯歌區鶯桃路94巷59弄13號","121.341311666667","24.95524","6500800","鶯歌區"
"239006","891-R6","2018/02/24 17:59:39","新北市鶯歌區鶯桃路413巷70號","121.330081666667","24.9630883333333","6500800","鶯歌區"
"239008","527-UM","2018/02/24 17:59:42","新北市鶯歌區國際一路108巷1號","121.335426666667","24.9771416666667","6500800","鶯歌區"
"239005","526-UM","2018/02/24 17:59:37","新北市鶯歌區鶯桃路668巷69弄12號","121.329881666667","24.9729766666667","6500800","鶯歌區"
"239001","417-VK","2018/02/24 17:59:43","新北市鶯歌區中正三路17號","121.339196666667","24.9426433333333","6500800","鶯歌區"
"239003","360-BY","2018/02/24 17:59:34","新北市鶯歌區鶯桃路344號","121.333896666667","24.962445","6500800","鶯歌區"
"239004","193-VK","2018/02/24 17:59:39","新北市鶯歌區尖山路103-7號","121.348103333333","24.9487183333333","6500800","鶯歌區"
"221008","489-VK","2018/02/24 17:59:42","新北市汐止區明峰街24號","121.63434","25.0714583333333","6501100","汐止區"
"221036","130-UY","2018/02/24 17:59:33","新北市汐止區大同路二段713號","121.66523","25.07331","6501100","汐止區"
"221015","131-UY","2018/02/24 17:59:49","新北市汐止區長江街329號","121.666723333333","25.08177","6501100","汐止區"
"221010","269-BY","2018/02/24 17:59:39","新北市汐止區汐萬路二段245巷58號","121.645523333333","25.08793","6501100","汐止區"
"221012","278-VK","2018/02/24 17:59:43","新北市汐止區保一街8巷8號","121.673405","25.08129","6501100","汐止區"
"221023","279-VK","2018/02/24 17:59:46","新北市汐止區民族六街2巷1號","121.62914","25.0706366666667","6501100","汐止區"
"221032","280-BY","2018/02/24 17:59:45","新北市汐止區民權街一段16號","121.620951666667","25.0525583333333","6501100","汐止區"
"221027","281-BY","2018/02/24 17:59:41","新北市汐止區大同路二段374號","121.657861666667","25.0671216666667","6501100","汐止區"
"221038","297-VK","2018/02/24 17:59:32","新北市汐止區連興街128巷7弄7號","121.653541666667","25.0613266666667","6501100","汐止區"
"221029","298-VK","2018/02/24 17:59:46","新北市汐止區樟樹二路330巷4號","121.641715","25.070155","6501100","汐止區"
"221021","299-VK","2018/02/24 17:59:35","新北市汐止區新興路12號","121.656383333333","25.0647583333333","6501100","汐止區"
"221031","353-TW","2018/02/24 17:59:32","新北市汐止區中興路161號","121.631011666667","25.0661133333333","6501100","汐止區"
"221035","622-UM","2018/02/24 17:59:36","新北市汐止區汐萬路一段115巷50號","121.65306","25.07015","6501100","汐止區"
"221025","623-UM","2018/02/24 17:59:36","新北市汐止區仁愛路41號","121.659556666667","25.06336","6501100","汐止區"
"221033","647-BX","2018/02/24 17:59:40","新北市汐止區合順街37號","121.62063","25.0432666666667","6501100","汐止區"
"221002","707-TV","2018/02/24 17:59:47","新北市汐止區中興路66號","121.635161666667","25.0614933333333","6501100","汐止區"
"221018","753-BX","2018/02/24 17:59:34","新北市汐止區招商街16號","121.666616666667","25.0685316666667","6501100","汐止區"
"242048","281-VK","2018/02/24 17:59:40","新北市新莊區萬安街146巷24號","121.420065","25.02199","6500500","新莊區"
"242031","280-VK","2018/02/24 17:59:45","新北市新莊區新泰路289巷10號","121.444925","25.0407316666667","6500500","新莊區"
