"lineid","car","time","location","longitude","latitude","cityid","cityname"
"234042","862-TW","2018/02/24 18:09:49","新北市永和區福和路1號","121.52646","25.009685","6500400","永和區"
"234026","9371-KE","2018/02/24 18:09:42","新北市永和區水源街1號","121.512668333333","25.0049633333333","6500400","永和區"
"249005","172-UM","2018/02/24 18:09:31","新北市八里區荖阡坑路15號","121.401698333333","25.1398716666667","6502300","八里區"
"249001","173-UM","2018/02/24 18:09:45","新北市八里區龍米路二段17號","121.448641666667","25.139515","6502300","八里區"
"249004","303-UY","2018/02/24 18:09:38","新北市八里區龍米路二段200巷5號","121.433793333333","25.15894","6502300","八里區"
"249003","593-UM","2018/02/24 18:09:42","新北市八里區中華路二段350號","121.40262","25.1473766666667","6502300","八里區"
"248006","077-UY","2018/02/24 18:09:47","新北市五股區中興路二段86號","121.460788333333","25.077375","6501500","五股區"
"248008","095-VK","2018/02/24 18:09:45","新北市五股區更洲路32巷26號","121.459091666667","25.08013","6501500","五股區"
"248020","225-UY","2018/02/24 18:09:47","新北市五股區成泰路三段544-1號","121.454485","25.1024383333333","6501500","五股區"
"248014","261-SL","2018/02/24 18:09:45","新北市五股區成泰路一段189巷27號","121.433621666667","25.07632","6501500","五股區"
"248004","677-BX","2018/02/24 18:09:42","新北市五股區成泰路二段186號","121.438821666667","25.0845733333333","6501500","五股區"
"248002","678-BX","2018/02/24 18:08:09","新北市五股區新五路二段258號","121.44099","25.0818383333333","6501500","五股區"
"232011","375-UM","2018/02/24 18:09:31","新北市坪林區坪雙路一段21號","121.712805","24.9413316666667","6502000","坪林區"
"244013","069-UM","2018/02/24 18:09:29","新北市林口區中山路3號","121.396608333333","25.0780533333333","6501700","林口區"
"244007","080-UY","2018/02/24 18:09:39","新北市林口區林口路154號","121.38791","25.082225","6501700","林口區"
"244019","402-UM","2018/02/24 18:09:31","新北市林口區文化一路一段120號","121.374113333333","25.0719583333333","6501700","林口區"
"244025","742-UY","2018/02/24 18:09:43","新北市林口區文化北路一段299巷69號","121.358975","25.0726116666667","6501700","林口區"
"244017","485-VK","2018/02/24 18:09:47","新北市林口區忠孝路504巷21號","121.369628333333","25.06967","6501700","林口區"
"244009","657-BX","2018/02/24 18:09:39","新北市林口區佳林路56巷13號","121.385395","25.0814116666667","6501700","林口區"
"244011","701-TV","2018/02/24 18:09:30","新北市林口區中正路100號","121.393903333333","25.0773116666667","6501700","林口區"
"244023","837-TS","2018/02/24 18:09:25","新北市林口區東湖路79號","121.384568333333","25.0734166666667","6501700","林口區"
"244021","838-TS","2018/02/24 18:09:30","新北市林口區自強六街26號","121.399346666667","25.0761283333333","6501700","林口區"
"243013","646-TV","2018/02/24 18:09:40","新北市泰山區南林路93號","121.415655","25.051205","6501600","泰山區"
"222003","016-RS","2018/02/24 18:09:31","新北市深坑區腳坑2-1號","121.610478333333","24.9950416666667","6501800","深坑區"
"222002","659-BX","2018/02/24 18:09:31","新北市深坑區文化街56號","121.618838333333","25.0017183333333","6501800","深坑區"
"231041","002-UM","2018/02/24 18:09:45","新北市新店區安華路28-1號","121.519626666667","24.96092","6500600","新店區"
"231059","046-UY","2018/02/24 18:09:47","新北市新店區安華路28-1號","121.519653333333","24.9608833333333","6500600","新店區"
"231052","187-VK","2018/02/24 18:09:30","新北市新店區安華路28-1號","121.519563333333","24.9611716666667","6500600","新店區"
"231050","KEA-2219","2018/02/24 18:09:36","新北市新店區安華路28-1號","121.520265","24.9610816666667","6500600","新店區"
"231046","278-BY","2018/02/24 18:09:48","新北市新店區直潭七街60號","121.532211666667","24.9398783333333","6500600","新店區"
"231056","3713-VJ","2018/02/24 18:09:40","新北市新店區安康路一段355-10號","121.520448333333","24.9638516666667","6500600","新店區"
"231042","641-BX","2018/02/24 18:09:31","新北市新店區安華路28-1號","121.519611666667","24.9605283333333","6500600","新店區"
"231062","720-UM","2018/02/24 18:09:33","新北市新店區安康路一段359-27號","121.518835","24.9611633333333","6500600","新店區"
"231044","897-TW","2018/02/24 18:09:31","新北市新店區安華路28-1號","121.51955","24.9607983333333","6500600","新店區"
"231043","899-TW","2018/02/24 18:09:43","新北市新店區安華路28-1號","121.519301666667","24.960845","6500600","新店區"
"231066","AKT-0513","2018/02/24 18:09:29","新北市新店區安華路28-1號","121.519516666667","24.960675","6500600","新店區"
"241024","478-VK","2018/02/24 18:09:38","新北市三重區中正北路242號","121.481685","25.0679516666667","6500200","三重區"
"241033","AAC-255","2018/02/24 18:09:36","新北市三重區中興北街56-1號","121.469073333333","25.0513683333333","6500200","三重區"
"235064","005-UY","2018/02/24 18:09:32","新北市中和區中正路273-3號","121.495665","24.9934833333333","6500300","中和區"
"235056","096-UM","2018/02/24 18:09:33","新北市中和區新生街49號","121.483463333333","25.002775","6500300","中和區"
"235058","151-BY","2018/02/24 18:09:30","新北市中和區圓通路367巷29號","121.492288333333","24.985","6500300","中和區"
"235055","183-VK","2018/02/24 18:09:46","新北市中和區員山路36巷16-2號","121.485166666667","24.9915633333333","6500300","中和區"
"235038","185-VK","2018/02/24 18:09:37","新北市中和區景平路143號","121.51419","24.992235","6500300","中和區"
"235067","255-BX","2018/02/24 18:09:42","新北市中和區和城路一段271巷1號","121.485491666667","24.9917233333333","6500300","中和區"
"235072","301-VK","2018/02/24 18:09:35","新北市中和區員山路36巷16-3號","121.484843333333","24.9913133333333","6500300","中和區"
"235043","352-BY","2018/02/24 18:09:26","新北市中和區錦和路350-1號","121.490576666667","24.9935783333333","6500300","中和區"
"235061","378-QA","2018/02/24 18:09:38","新北市土城區延壽路1-10號","121.469193333333","24.9937316666667","6500300","中和區"
"235050","4979-A6","2018/02/24 18:09:30","新北市中和區錦和路350-1號","121.490566666667","24.993525","6500300","中和區"
"235042","551-UM","2018/02/24 18:09:34","新北市中和區景新街293號","121.510043333333","24.9931566666667","6500300","中和區"
"235045","565-BX","2018/02/24 18:09:37","新北市中和區錦和路350-1號","121.490436666667","24.993555","6500300","中和區"
"235054","640-BX","2018/02/24 18:09:38","新北市土城區延壽路77巷4弄21號","121.469131666667","24.9930783333333","6500300","中和區"
"235047","732-UM","2018/02/24 18:09:34","新北市中和區中正路426號","121.491716666667","24.9936466666667","6500300","中和區"
"235046","733-UM","2018/02/24 18:09:43","新北市中和區員山路36巷13號","121.484091666667","24.9908416666667","6500300","中和區"
"235062","800-TS","2018/02/24 18:09:35","新北市中和區橋和路172號","121.494586666667","25.00637","6500300","中和區"
"235052","805-TS","2018/02/24 18:09:37","新北市中和區捷運路102號","121.505565","24.9915516666667","6500300","中和區"
"235070","911-UM","2018/02/24 18:09:35","新北市中和區錦和路350-1號","121.490556666667","24.9934933333333","6500300","中和區"
"235051","157-BY","2018/02/24 18:09:39","新北市中和區復興路312號","121.501088333333","24.990375","6500300","中和區"
"235037","AAC-213","2018/02/24 18:09:42","新北市中和區中正路19號","121.502953333333","24.9935133333333","6500300","中和區"
"235059","AAC-215","2018/02/24 18:09:46","新北市中和區員山路36巷16-3號","121.484985","24.9913366666667","6500300","中和區"
"226004","205-ST","2018/02/24 18:09:29","新北市平溪區菁桐里菁桐街165號","121.722986666667","25.0234","6502400","平溪區"
"228003","097-TW","2018/02/24 18:09:38","新北市貢寮區真理里美艷山街6-2號","121.928883333333","25.0607316666667","6502600","貢寮區"
"228001","212-TW","2018/02/24 18:09:41","新北市貢寮區真理里新港街26巷55弄2-1號","121.92738","25.052885","6502600","貢寮區"
"228002","585-TW","2018/02/24 18:09:40","新北市貢寮區福連里福興街39-3號","121.993488333333","25.0129166666667","6502600","貢寮區"
"224010","AGQ-8101","2018/02/24 18:02:42","新北市瑞芳區烏勢巷145號","121.847406666667","25.1086666666667","6501200","瑞芳區"
"224006","676-BX","2018/02/24 18:09:43","新北市瑞芳區中山路318號","121.796858333333","25.110005","6501200","瑞芳區"
"224002","639-TC","2018/02/24 18:09:44","新北市瑞芳區三爪子坑路94-2號","121.809431666667","25.1053083333333","6501200","瑞芳區"
"224009","285-BY","2018/02/24 18:09:39","新北市瑞芳區金光路231號","121.851595","25.1072283333333","6501200","瑞芳區"
"224008","275-VK","2018/02/24 18:09:38","新北市瑞芳區員山子路23號","121.821753333333","25.10294","6501200","瑞芳區"
"227002","642-TC","2018/02/24 18:09:28","新北市雙溪區共和里東榮街31號","121.866271666667","25.033535","6502500","雙溪區"
"253005","032-BX","2018/02/24 18:09:39","新北市石門區中央路52號","121.568151666667","25.2932066666667","6502200","石門區"
"253006","295-VK","2018/02/24 18:09:34","新北市石門區老梅路52巷21號","121.546401666667","25.2885783333333","6502200","石門區"
"222001","KEA-2212","2018/02/24 18:09:39","新北市深坑區北深路二段188號","121.613901666667","25.0023766666667","6501800","深坑區"
"208003","665-BX","2018/02/24 18:09:48","新北市金山區民生路100號","121.64779","25.2237766666667","6502700","金山區"
"208001","761-BX","2018/02/24 18:09:35","新北市金山區磺港里磺港路108號","121.646435","25.2268483333333","6502700","金山區"
"251009","008-UM","2018/02/24 18:09:27","新北市淡水區大忠街34巷17號","121.44398","25.17576","6501000","淡水區"
"251004","009-UM","2018/02/24 18:09:44","新北市淡水區民族路112巷5號","121.462386666667","25.1350583333333","6501000","淡水區"
"251001","011-UM","2018/02/24 18:09:31","新北市淡水區自立路10號","121.463133333333","25.129655","6501000","淡水區"
"251013","179-VK","2018/02/24 18:09:46","新北市淡水區桂花樹4-3號","121.47633","25.1956633333333","6501000","淡水區"
"251014","180-VK","2018/02/24 18:09:47","新北市淡水區南平14-1號","121.48562","25.220835","6501000","淡水區"
"251008","181-VK","2018/02/24 18:09:46","新北市淡水區坪頂路70巷26號","121.460563333333","25.1604033333333","6501000","淡水區"
"251015","182-VK","2018/02/24 18:09:32","新北市淡水區興福寮88巷1號","121.485856666667","25.1649683333333","6501000","淡水區"
"251010","413-VK","2018/02/24 18:09:39","新北市淡水區中正路二段50巷10號","121.419901666667","25.1833283333333","6501000","淡水區"
"251012","441-VK","2018/02/24 18:09:40","新北市淡水區北新路三段157號","121.48871","25.1902316666667","6501000","淡水區"
"251016","442-VK","2018/02/24 18:09:39","新北市淡水區下圭柔山15號","121.453058333333","25.2021933333333","6501000","淡水區"
"251005","443-VK","2018/02/24 18:09:42","新北市淡水區水源街一段139號","121.447115","25.171965","6501000","淡水區"
"251006","561-UM","2018/02/24 18:09:41","新北市淡水區新民街70號","121.438856666667","25.1763133333333","6501000","淡水區"
"251011","650-BX","2018/02/24 18:09:41","新北市淡水區三空泉9號","121.47539","25.1628333333333","6501000","淡水區"
"251002","672-BX","2018/02/24 18:09:44","新北市淡水區中正東路一段38號","121.45267","25.1622633333333","6501000","淡水區"
"251003","673-BX","2018/02/24 18:09:38","新北市淡水區北新路182巷82號","121.447951666667","25.177535","6501000","淡水區"
"207003","550-UM","2018/02/24 18:09:33","新北市萬里區野柳里港西路74號","121.685691666667","25.2050566666667","6502800","萬里區"
"207004","225-TW","2018/02/24 18:09:46","新北市萬里區中幅里中福路115號","121.67623","25.16802","6502800","萬里區"
"252002","178-VK","2018/02/24 18:09:45","新北市三芝區中山路二段33號","121.502826666667","25.2552433333333","6502100","三芝區"
"252003","249-BX","2018/02/24 18:09:40","新北市三芝區埔頭里埔頭37號","121.498613333333","25.2604183333333","6502100","三芝區"
"252001","292-VK","2018/02/24 18:09:29","新北市三芝區中興街二段2號","121.498306666667","25.256705","6502100","三芝區"
"237004","KEA-2597","2018/02/24 18:09:27","新北市三峽區大埔路337號","121.3706","24.89822","6500900","三峽區"
"237007","153-BY","2018/02/24 18:09:46","新北市三峽區中正路二段331-1號","121.365895","24.9097716666667","6500900","三峽區"
"237009","210-TH","2018/02/24 18:09:37","新北市三峽區大仁路52號","121.365328333333","24.9375166666667","6500900","三峽區"
"237013","252-BX","2018/02/24 18:09:44","新北市三峽區長泰街33巷14弄9號","121.377285","24.9319333333333","6500900","三峽區"
"237012","275-BY","2018/02/24 18:07:39","新北市三峽區民生街1巷1-33號","121.377543333333","24.9349916666667","6500900","三峽區"
"237008","302-VK","2018/02/24 18:09:43","新北市三峽區白雞58-27號","121.386331666667","24.9094333333333","6500900","三峽區"
"237014","433-BY","2018/02/24 18:09:31","新北市三峽區復興路80巷24號","121.373723333333","24.93785","6500900","三峽區"
"237006","5529-G3","2018/02/24 18:09:34","新北市三峽區介壽路二段138巷1弄112號","121.398003333333","24.9307816666667","6500900","三峽區"
"237011","KEA-2596","2018/02/24 18:09:33","新北市三峽區橫溪路1號","121.396028333333","24.9362016666667","6500900","三峽區"
"237010","706-TV","2018/02/24 18:09:37","新北市三峽區民族街146號","121.369196666667","24.92848","6500900","三峽區"
"237005","AKY-6261","2018/02/24 18:09:27","新北市三峽區文化路65巷10號","121.371988333333","24.93565","6500900","三峽區"
"236073","105-UM","2018/02/24 18:09:41","新北市土城區明德路一段315號","121.459421666667","24.9771283333333","6501300","土城區"
"236043","107-UM","2018/02/24 18:09:39","新北市土城區城林路6巷80號","121.438361666667","24.9798866666667","6501300","土城區"
"236079","166-UM","2018/02/24 18:09:40","新北市土城區永寧路32巷10弄69號","121.428773333333","24.9613983333333","6501300","土城區"
"236031","253-BX","2018/02/24 18:09:46","新北市土城區城林路6巷80號","121.43852","24.9795716666667","6501300","土城區"
"236026","269-VK","2018/02/24 18:09:37","新北市土城區承天路22號","121.439571666667","24.9632983333333","6501300","土城區"
"236015","270-VK","2018/02/24 18:09:31","新北市土城區學府路二段2號","121.449428333333","24.9822566666667","6501300","土城區"
"236038","271-VK","2018/02/24 18:09:29","新北市土城區青雲路322巷2弄4號","121.457903333333","24.97735","6501300","土城區"
"236023","401-BY","2018/02/24 18:09:46","新北市土城區城林路6巷80號","121.438681666667","24.9796883333333","6501300","土城區"
"236049","752-BX","2018/02/24 18:09:47","新北市土城區金城路二段36號","121.45096","24.9786233333333","6501300","土城區"
"236059","912-UM","2018/02/24 18:09:34","新北市土城區中央路四段152號","121.417146666667","24.9582683333333","6501300","土城區"
"236063","915-UM","2018/02/24 18:09:30","新北市土城區金城路二段220號","121.4563","24.9826866666667","6501300","土城區"
"236055","AAC-216","2018/02/24 18:09:34","新北市土城區城林路6巷80號","121.43853","24.9797366666667","6501300","土城區"
"242029","986-R7","2018/02/24 18:09:43","新北市新莊區中平路110巷11號","121.44567","25.0459466666667","6500500","新莊區"
"242051","751-BX","2018/02/24 18:09:36","新北市新莊區民本街33巷19號","121.42905","25.0186416666667","6500500","新莊區"
"242061","705-TV","2018/02/24 18:09:40","新北市新莊區新樹路69-34號","121.438365","25.0291583333333","6500500","新莊區"
"242025","615-BX","2018/02/24 18:09:40","新北市新莊區五工一路96號","121.460561666667","25.0678483333333","6500500","新莊區"
"242023","613-BX","2018/02/24 18:09:26","新北市新莊區幸福路763-1號","121.447896666667","25.04909","6500500","新莊區"
"242027","612-BX","2018/02/24 18:09:47","新北市新莊區幸福路88號","121.456341666667","25.0494066666667","6500500","新莊區"
"242039","566-BX","2018/02/24 18:09:33","新北市新莊區民安西路38巷7號","121.42697","25.0207783333333","6500500","新莊區"
"242044","497-BY","2018/02/24 18:09:37","新北市新莊區天泉二街24巷2號","121.414793333333","25.0252533333333","6500500","新莊區"
"242015","441-UM","2018/02/24 18:09:46","新北市新莊區中和街59巷24號","121.446473333333","25.0465383333333","6500500","新莊區"
"242053","440-UM","2018/02/24 18:09:44","新北市新莊區民安西路311號","121.427176666667","25.011385","6500500","新莊區"
"242034","415-TV","2018/02/24 18:09:47","新北市新莊區福海街24巷5號","121.445773333333","25.0341033333333","6500500","新莊區"
"242004","413-TV","2018/02/24 18:09:43","新北市新莊區自由街52號","121.45581","25.045725","6500500","新莊區"
"242042","400-BY","2018/02/24 18:09:46","新北市新莊區雙鳳路116巷15弄5號","121.413335","25.0291083333333","6500500","新莊區"
"242058","353-BY","2018/02/24 18:09:37","新北市新莊區新北大道七段372號","121.413393333333","25.030205","6500500","新莊區"
"242007","132-UY","2018/02/24 18:09:49","新北市新莊區中華路二段116號","121.453175","25.04844","6500500","新莊區"
"242036","133-UY","2018/02/24 18:09:47","新北市新莊區後港一路62號","121.426586666667","25.0264566666667","6500500","新莊區"
"242021","135-UY","2018/02/24 18:09:39","新北市新莊區建興街68號","121.450081666667","25.0391883333333","6500500","新莊區"
"242046","172-VK","2018/02/24 18:09:44","新北市新莊區福營路298號","121.422516666667","25.0275216666667","6500500","新莊區"
"242009","173-VK","2018/02/24 18:09:07","新北市新莊區中華路二段258巷2號","121.452903333333","25.05311","6500500","新莊區"
"242002","176-VK","2018/02/24 18:09:33","新北市新莊區新莊路90號","121.456668333333","25.03627","6500500","新莊區"
"242056","347-TH","2018/02/24 18:09:34","新北市新莊區豐年街豐1巷8號","121.446925","25.03104","6500500","新莊區"
"242019","348-TH","2018/02/24 18:09:38","新北市新莊區民樂街20巷1號","121.457708333333","25.0403416666667","6500500","新莊區"
"242017","350-TH","2018/02/24 18:09:38","新北市新莊區永樂街63號","121.451088333333","25.0449683333333","6500500","新莊區"
"242011","351-TH","2018/02/24 18:09:38","新北市新莊區中信街80號","121.447966666667","25.0530383333333","6500500","新莊區"
"238015","755-BX","2018/02/24 18:09:36","新北市樹林區大安路320號","121.417061666667","24.9916233333333","6500700","樹林區"
"238023","601-UM","2018/02/24 18:09:27","新北市樹林區龍興街46巷30號","121.401968333333","25.015285","6500700","樹林區"
"238019","599-UM","2018/02/24 18:09:40","新北市樹林區忠孝街111號","121.4247","24.980515","6500700","樹林區"
"238018","571-TV","2018/02/24 18:09:39","新北市板橋區大觀路三段269號","121.42889","24.9923933333333","6500700","樹林區"
"238022","KEA-2213","2018/02/24 18:09:33","新北市樹林區太平路150巷25號","121.41749","24.97756","6500700","樹林區"
"238026","KEA-2539","2018/02/24 18:09:27","新北市樹林區柑園街一段154-1號","121.397971666667","24.9567983333333","6500700","樹林區"
"238025","303-VK","2018/02/24 18:09:31","新北市樹林區保安街二段103號","121.415658333333","25.0013233333333","6500700","樹林區"
"238017","283-BY","2018/02/24 18:09:32","新北市樹林區中正路464號","121.412841666667","25.012765","6500700","樹林區"
"238014","282-BY","2018/02/24 18:09:44","新北市樹林區千歲街59號","121.42483","24.9984283333333","6500700","樹林區"
"238020","268-VK","2018/02/24 18:09:37","新北市樹林區三俊街65巷24號","121.413348333333","25.0172233333333","6500700","樹林區"
"238026","172-UY","2018/02/24 18:09:37","新北市樹林區育德街101號","121.390526666667","24.9698983333333","6500700","樹林區"
"238016","169-UY","2018/02/24 18:09:38","新北市樹林區日新街155號","121.420441666667","24.9883666666667","6500700","樹林區"
"239007","AAC-297","2018/02/24 18:09:35","新北市鶯歌區尖山埔路127號","121.346886666667","24.951085","6500800","鶯歌區"
"239006","891-R6","2018/02/24 18:09:39","新北市鶯歌區鶯桃路455巷2弄4號","121.331753333333","24.965525","6500800","鶯歌區"
"239008","527-UM","2018/02/24 18:09:42","新北市鶯歌區朝陽街55號","121.337993333333","24.9782533333333","6500800","鶯歌區"
"239005","526-UM","2018/02/24 18:09:37","新北市鶯歌區鶯桃路668巷73號","121.329906666667","24.9717966666667","6500800","鶯歌區"
"239001","417-VK","2018/02/24 18:09:43","新北市鶯歌區中正三路福德巷2弄7號","121.339303333333","24.941095","6500800","鶯歌區"
"239003","360-BY","2018/02/24 18:09:34","新北市鶯歌區福安街58號","121.33561","24.9652733333333","6500800","鶯歌區"
"239004","193-VK","2018/02/24 18:09:39","新北市鶯歌區中正二路161號","121.344756666667","24.9493533333333","6500800","鶯歌區"
"221008","489-VK","2018/02/24 18:09:42","新北市汐止區康寧街388號","121.629373333333","25.067775","6501100","汐止區"
"221036","130-UY","2018/02/24 18:09:33","新北市汐止區大同路三段143號","121.669296666667","25.0777033333333","6501100","汐止區"
"221015","131-UY","2018/02/24 18:09:29","新北市汐止區鄉長路二段116號","121.664618333333","25.0860333333333","6501100","汐止區"
"221010","269-BY","2018/02/24 18:09:39","新北市汐止區汐萬路二段275巷1弄2號","121.645476666667","25.08895","6501100","汐止區"
"221012","278-VK","2018/02/24 18:09:43","新北市汐止區保一街49號","121.674478333333","25.0799766666667","6501100","汐止區"
"221023","279-VK","2018/02/24 18:09:25","新北市汐止區中興路291巷4號","121.627705","25.06989","6501100","汐止區"
"221032","280-BY","2018/02/24 18:09:45","新北市汐止區橫科路20號","121.61821","25.0510633333333","6501100","汐止區"
"221027","281-BY","2018/02/24 18:09:43","新北市汐止區中正路7號","121.663175","25.069995","6501100","汐止區"
"221038","297-VK","2018/02/24 18:09:32","新北市汐止區南興路83巷1號","121.652711666667","25.05923","6501100","汐止區"
"221029","298-VK","2018/02/24 18:09:46","新北市汐止區樟樹二路101號","121.640153333333","25.0662083333333","6501100","汐止區"
"221021","299-VK","2018/02/24 18:09:36","新北市汐止區龍安路173號","121.653751666667","25.0630366666667","6501100","汐止區"
"221031","353-TW","2018/02/24 18:09:40","新北市汐止區中興路168-1號","121.631931666667","25.0654133333333","6501100","汐止區"
"221035","622-UM","2018/02/24 18:09:36","新北市汐止區大同路二段202號","121.653305","25.0648416666667","6501100","汐止區"
"221025","623-UM","2018/02/24 18:09:35","新北市汐止區秀峰路145號","121.660496666667","25.0621966666667","6501100","汐止區"
"221033","647-BX","2018/02/24 18:09:40","新北市汐止區宜興街20巷21號","121.622363333333","25.0408983333333","6501100","汐止區"
"221002","707-TV","2018/02/24 18:09:27","新北市汐止區福德一路213巷35號","121.635786666667","25.0648733333333","6501100","汐止區"
"221018","753-BX","2018/02/24 18:09:34","新北市汐止區茄苳路43號","121.665853333333","25.070815","6501100","汐止區"
"242048","281-VK","2018/02/24 18:09:40","新北市新莊區萬安街47巷28號","121.422698333333","25.0240783333333","6500500","新莊區"
"242031","280-VK","2018/02/24 18:09:44","新北市新莊區新泰路277巷11號","121.445255","25.0401233333333","6500500","新莊區"
