"lineid","car","time","location","longitude","latitude","cityid","cityname"
"234046","148-BY","2018/02/24 18:59:46","新北市永和區得和路373巷31弄2號","121.525068333333","25.0004116666667","6500400","永和區"
"234067","149-BY","2018/02/24 18:59:43","新北市永和區中和路625號","121.513025","25.0049166666667","6500400","永和區"
"234007","207-UY","2018/02/24 18:59:43","新北市永和區中山路一段50號","121.513235","25.0105833333333","6500400","永和區"
"234081","298-R6","2018/02/24 18:59:35","新北市永和區永貞路41號","121.520988333333","25.0064416666667","6500400","永和區"
"234038","336-UY","2018/02/24 18:59:39","新北市永和區成功路二段207號","121.52656","24.9959583333333","6500400","永和區"
"234064","337-UY","2018/02/24 18:59:36","新北市永和區秀朗路一段146號","121.51816","25.0033916666667","6500400","永和區"
"234086","338-UY","2018/02/24 18:59:34","新北市永和區永寧街125號","121.518106666667","25.0054416666667","6500400","永和區"
"234070","552-UM","2018/02/24 18:59:34","新北市永和區中興街84巷8號","121.51851","25.0116666666667","6500400","永和區"
"234017","745-BX","2018/02/24 18:59:47","新北市永和區永和路二段298號","121.516123333333","25.0157783333333","6500400","永和區"
"234030","746-BX","2018/02/24 18:59:43","新北市永和區厚德街14號","121.525886666667","24.997995","6500400","永和區"
"234054","KEA-2590","2018/02/24 18:59:39","新北市永和區竹林路66巷4號","121.518146666667","25.0134166666667","6500400","永和區"
"234013","KEA-2591","2018/02/24 18:59:48","新北市永和區中山路一段60巷10號","121.513221666667","25.01107","6500400","永和區"
"234061","AAD-866","2018/02/24 18:59:34","新北市永和區福和路309巷1號","121.516391666667","25.0070716666667","6500400","永和區"
"234042","862-TW","2018/02/24 18:58:49","新北市永和區永貞路308號","121.511785","25.0048683333333","6500400","永和區"
"234050","863-TW","2018/02/24 18:59:37","新北市永和區文化路155號","121.510446666667","25.01632","6500400","永和區"
"234011","9373-KE","2018/02/24 18:59:34","新北市永和區忠孝街34巷18號","121.514508333333","25.0167933333333","6500400","永和區"
"249005","172-UM","2018/02/24 18:59:31","新北市八里區長道坑11號","121.395498333333","25.1228433333333","6502300","八里區"
"249001","173-UM","2018/02/24 18:59:36","新北市八里區龍米路二段222號","121.43294","25.1584333333333","6502300","八里區"
"248016","026-BX","2018/02/24 18:59:41","新北市五股區成泰路三段543巷24號","121.450746666667","25.1023583333333","6501500","五股區"
"248006","077-UY","2018/02/24 18:59:46","新北市五股區中興路一段68號","121.467243333333","25.072935","6501500","五股區"
"248008","095-VK","2018/02/24 18:59:45","新北市五股區中興路一段118巷6弄14號","121.466396666667","25.074505","6501500","五股區"
"248020","225-UY","2018/02/24 18:59:27","新北市五股區凌雲路三段73-1號","121.425258333333","25.1222033333333","6501500","五股區"
"248012","247-BX","2018/02/24 18:59:27","新北市五股區中興路四段48巷16號","121.438561666667","25.083455","6501500","五股區"
"248004","677-BX","2018/02/24 18:59:42","新北市五股區民義路二段23號","121.41683","25.0990216666667","6501500","五股區"
"248002","678-BX","2018/02/24 18:59:29","新北市五股區凌雲路一段138號","121.449508333333","25.10224","6501500","五股區"
"248010","682-TV","2018/02/24 18:59:29","新北市五股區水碓七路1號","121.428128333333","25.07135","6501500","五股區"
"234023","9380-KE","2018/02/24 18:59:28","新北市永和區竹林路91巷70號","121.521895","25.0136983333333","6500400","永和區"
"234077","969-R7","2018/02/24 18:59:33","新北市永和區智光街20號","121.517903333333","24.999355","6500400","永和區"
"234074","AAC-211","2018/02/24 18:59:40","新北市永和區福和路1號","121.526193333333","25.0097583333333","6500400","永和區"
"234003","AAC-295","2018/02/24 18:59:45","新北市永和區和平街25號","121.513293333333","25.0099283333333","6500400","永和區"
"232011","375-UM","2018/02/24 18:59:29","新北市坪林區坪林街11號","121.711835","24.9360583333333","6502000","坪林區"
"244013","069-UM","2018/02/24 18:59:08","新北市林口區麗園一街6巷5-3號","121.37536","25.0702533333333","6501700","林口區"
"244007","080-UY","2018/02/24 18:59:39","新北市林口區太平嶺30-1號","121.374871666667","25.1216416666667","6501700","林口區"
"244019","402-UM","2018/02/24 18:59:31","新北市林口區麗園二街38巷15號","121.380445","25.0686733333333","6501700","林口區"
"244025","742-UY","2018/02/24 18:59:43","新北市林口區文化北路一段370號","121.36245","25.07445","6501700","林口區"
"244017","485-VK","2018/02/24 18:59:46","新北市林口區公園路131巷5號","121.368873333333","25.0705116666667","6501700","林口區"
"244009","657-BX","2018/02/24 18:59:39","新北市林口區竹林路346巷12號","121.392326666667","25.08348","6501700","林口區"
"244011","701-TV","2018/02/24 18:59:30","新北市林口區仁愛路一段285巷52號","121.395456666667","25.0745833333333","6501700","林口區"
"244023","837-TS","2018/02/24 18:59:45","新北市林口區民權路102號","121.37317","25.082715","6501700","林口區"
"243012","AAD-798","2018/02/24 18:59:36","新北市泰山區福興三街170號","121.43236","25.0569733333333","6501600","泰山區"
"243015","380-SR","2018/02/24 18:59:29","新北市泰山區美寧街2號","121.430118333333","25.0632533333333","6501600","泰山區"
"243014","421-VK","2018/02/24 18:59:45","新北市泰山區黎明路23號","121.420891666667","25.0626433333333","6501600","泰山區"
"243010","KEA-2215","2018/02/24 18:59:29","新北市泰山區辭修路30號","121.428985","25.058175","6501600","泰山區"
"243009","KEA-2216","2018/02/24 18:59:37","新北市泰山區泰林路二段317號","121.42965","25.063285","6501600","泰山區"
"243013","646-TV","2018/02/24 18:59:42","新北市泰山區明志路三段351巷22號","121.42263","25.0348866666667","6501600","泰山區"
"243016","680-BX","2018/02/24 18:59:38","新北市泰山區明志路二段152-2號","121.427435","25.0505683333333","6501600","泰山區"
"222003","016-RS","2018/02/24 18:59:31","新北市深坑區深南路51-1號","121.621323333333","25.0102083333333","6501800","深坑區"
"222002","659-BX","2018/02/24 18:59:31","新北市深坑區文山路一段33號","121.629478333333","25.0038166666667","6501800","深坑區"
"231041","002-UM","2018/02/24 18:59:45","新北市新店區環河路76號","121.53709","24.9631883333333","6500600","新店區"
"231059","046-UY","2018/02/24 18:59:27","新北市新店區安華路8號","121.519841666667","24.9624266666667","6500600","新店區"
"231061","047-UY","2018/02/24 18:59:30","新北市新店區安康路一段351-1號","121.519605","24.9639033333333","6500600","新店區"
"231060","106-UY","2018/02/24 18:59:30","新北市新店區安豐路49號","121.500006666667","24.9540366666667","6500600","新店區"
"231051","107-UY","2018/02/24 18:59:45","新北市新店區百忍街12號","121.53468","24.97565","6500600","新店區"
"231048","108-UY","2018/02/24 18:59:47","新北市新店區德正街27巷21號","121.545395","24.9715683333333","6500600","新店區"
"231052","187-VK","2018/02/24 18:59:30","新北市新店區屈尺路58號","121.547351666667","24.9228","6500600","新店區"
"231050","KEA-2219","2018/02/24 18:59:36","新北市新店區新烏路一段11巷7號","121.547311666667","24.9513133333333","6500600","新店區"
"231046","278-BY","2018/02/24 18:59:28","新北市新店區直潭六街20號","121.534358333333","24.9408766666667","6500600","新店區"
"231054","AAD-862","2018/02/24 18:59:28","新北市新店區新店路13號","121.5403","24.9528366666667","6500600","新店區"
"231058","3712-VJ","2018/02/24 18:59:30","新北市新店區檳榔路29巷4號","121.542023333333","24.963625","6500600","新店區"
"231056","3713-VJ","2018/02/24 18:59:40","新北市新店區建國路220號","121.537803333333","24.9811866666667","6500600","新店區"
"231055","4716-K9","2018/02/24 18:59:33","新北市新店區新生街13巷14號","121.539436666667","24.9659516666667","6500600","新店區"
"231067","4772-VM","2018/02/24 18:59:33","新北市新店區安康路一段247巷31號","121.52472","24.961945","6500600","新店區"
"231065","512-UM","2018/02/24 18:59:25","新北市新店區安祥路147巷70號","121.475905","24.9558966666667","6500600","新店區"
"231064","515-UM","2018/02/24 18:59:41","新北市新店區安忠路8-2號","121.514823333333","24.96302","6500600","新店區"
"231040","618-UM","2018/02/24 18:59:39","新北市新店區中正路402號","121.534536666667","24.9774366666667","6500600","新店區"
"231042","641-BX","2018/02/24 18:59:31","新北市新店區中興路一段285-1號","121.54544","24.9686566666667","6500600","新店區"
"231063","645-TV","2018/02/24 18:59:43","新北市新店區車子路109號","121.505208333333","24.9521133333333","6500600","新店區"
"231049","719-UM","2018/02/24 18:59:43","新北市新店區中正路454-5號","121.534531666667","24.9790266666667","6500600","新店區"
"231062","720-UM","2018/02/24 18:59:47","新北市新店區安和路二段70-1號","121.519285","24.9685383333333","6500600","新店區"
"231044","897-TW","2018/02/24 18:59:31","新北市新店區寶中路86號","121.548525","24.9805916666667","6500600","新店區"
"231045","898-TW","2018/02/24 18:59:38","新北市新店區光明街1-1號","121.538116666667","24.959195","6500600","新店區"
"231043","899-TW","2018/02/24 18:59:43","新北市新店區北新路二段1號","121.542613333333","24.9712133333333","6500600","新店區"
"231066","AKT-0513","2018/02/24 18:59:29","新北市新店區安康路三段2號","121.493916666667","24.9538483333333","6500600","新店區"
"241035","462-BY","2018/02/24 18:59:38","新北市三重區重新路四段121號","121.484756666667","25.051825","6500200","三重區"
"241029","942-UM","2018/02/24 18:59:40","新北市三重區重安街15-1號","121.490336666667","25.0579316666667","6500200","三重區"
"235066","003-UY","2018/02/24 18:59:40","新北市中和區中山路二段131巷12號","121.503","25.00211","6500300","中和區"
"235064","005-UY","2018/02/24 18:59:32","新北市中和區泰和街30巷16號","121.499126666667","25.0010316666667","6500300","中和區"
"235063","006-UY","2018/02/24 18:59:32","新北市中和區中正路530號","121.487776666667","24.9944083333333","6500300","中和區"
"235056","096-UM","2018/02/24 18:59:47","新北市中和區員山路466巷17弄29號","121.480473333333","25.0073733333333","6500300","中和區"
"235039","097-UM","2018/02/24 18:59:35","新北市中和區安樂路143巷38弄1號","121.512991666667","24.9965083333333","6500300","中和區"
"235065","098-UM","2018/02/24 18:59:35","新北市中和區勝利路35巷3弄27號","121.500303333333","25.0076316666667","6500300","中和區"
"235040","150-BY","2018/02/24 18:59:42","新北市中和區宜安路11巷29號","121.512411666667","24.99469","6500300","中和區"
"235058","151-BY","2018/02/24 18:59:30","新北市中和區員山路143巷32號","121.47988","24.9957933333333","6500300","中和區"
"235055","183-VK","2018/02/24 18:59:46","新北市中和區德光路77巷6弄2號","121.469878333333","25.0033766666667","6500300","中和區"
"235038","185-VK","2018/02/24 18:59:37","新北市中和區立人街14巷42號","121.518773333333","24.9956266666667","6500300","中和區"
"235049","186-VK","2018/02/24 18:59:45","新北市中和區景安路167巷32號","121.506923333333","24.9948333333333","6500300","中和區"
"235067","255-BX","2018/02/24 18:59:42","新北市中和區民樂路72號","121.484216666667","25.0012","6500300","中和區"
"235044","293-VK","2018/02/24 18:59:30","新北市中和區中興街161巷2弄2號","121.500228333333","24.9908783333333","6500300","中和區"
"235072","301-VK","2018/02/24 18:59:35","新北市中和區永和路39巷14號","121.497565","25.0049816666667","6500300","中和區"
"235043","352-BY","2018/02/24 18:59:46","新北市中和區成功路75號","121.526151666667","24.9923","6500300","中和區"
"235068","377-QA","2018/02/24 18:59:50","新北市中和區圓通路232巷8號","121.49485","24.9931683333333","6500300","中和區"
"235061","378-QA","2018/02/24 18:59:38","新北市中和區民治街130巷11號","121.474688333333","25.0025216666667","6500300","中和區"
"235050","4979-A6","2018/02/24 18:59:46","新北市中和區華新街50巷2號","121.507755","24.9840583333333","6500300","中和區"
"235069","4980-A6","2018/02/24 18:59:29","新北市中和區圓通路109巷1弄4號","121.499931666667","24.9963983333333","6500300","中和區"
"235042","551-UM","2018/02/24 18:59:34","新北市中和區秀朗路三段100巷1號","121.525638333333","24.9932266666667","6500300","中和區"
"235045","565-BX","2018/02/24 18:59:37","新北市中和區景新街467巷32弄10號","121.51438","24.9881116666667","6500300","中和區"
"235054","640-BX","2018/02/24 18:59:39","新北市中和區民享街5號","121.473928333333","25.0056566666667","6500300","中和區"
"235060","647-TV","2018/02/24 18:59:31","新北市中和區民治街11巷1號","121.475201666667","25.0043066666667","6500300","中和區"
"235047","732-UM","2018/02/24 18:59:34","新北市中和區興南路二段54巷11弄2號","121.50565","24.9855733333333","6500300","中和區"
"235046","733-UM","2018/02/24 18:59:43","新北市中和區興南路一段117巷3弄2號","121.509471666667","24.987435","6500300","中和區"
"235062","800-TS","2018/02/24 18:59:35","新北市中和區中山路二段526巷12號","121.485855","25.0053633333333","6500300","中和區"
"235057","801-TS","2018/02/24 18:59:28","新北市中和區民安街65巷2號","121.478651666667","24.99953","6500300","中和區"
"235052","805-TS","2018/02/24 18:59:37","新北市中和區興南路二段114巷2號","121.50428","24.9842783333333","6500300","中和區"
"235048","896-TW","2018/02/24 18:59:33","新北市中和區華新街109巷16號","121.508686666667","24.98105","6500300","中和區"
"235053","900-TW","2018/02/24 18:59:34","新北市中和區民德路398號","121.465895","24.9935816666667","6500300","中和區"
"235070","911-UM","2018/02/24 18:59:35","新北市中和區中和路182號","121.504956666667","24.9994683333333","6500300","中和區"
"235051","157-BY","2018/02/24 18:59:39","新北市中和區忠孝街4號","121.510008333333","24.98266","6500300","中和區"
"235037","AAC-213","2018/02/24 18:59:42","新北市中和區自立路17號","121.52231","24.9960366666667","6500300","中和區"
"235059","AAC-215","2018/02/24 18:59:46","新北市中和區圓通路367巷20弄29號","121.491356666667","24.9881916666667","6500300","中和區"
"220068","013-TV","2018/02/24 18:59:27","新北市板橋區三民路一段120號","121.479266666667","25.0207766666667","6500100","板橋區"
"220065","072-UY","2018/02/24 18:59:42","新北市板橋區民族路287巷3號","121.471138333333","25.0071083333333","6500100","板橋區"
"220086","073-UY","2018/02/24 18:59:39","新北市板橋區中正路80巷1弄1號","121.456913333333","25.0147216666667","6500100","板橋區"
"220106","075-UY","2018/02/24 18:59:44","新北市板橋區文化路二段124巷22號","121.471138333333","25.0257433333333","6500100","板橋區"
"220069","AAD-861","2018/02/24 18:59:39","新北市板橋區大華街44號","121.458633333333","25.00571","6500100","板橋區"
"226004","205-ST","2018/02/24 18:59:29","新北市平溪區靜安路二段441號","121.740193333333","25.02498","6502400","平溪區"
"235041","251-BX","2018/02/24 18:59:38","新北市中和區安平路128號","121.51194","24.997845","6500300","中和區"
"228003","097-TW","2018/02/24 18:59:38","新北市貢寮區和美里龍洞街40號","121.91422","25.1114133333333","6502600","貢寮區"
"228001","212-TW","2018/02/24 18:59:41","新北市貢寮區仁理村研海街12-1號","121.923778333333","25.051645","6502600","貢寮區"
"228002","585-TW","2018/02/24 18:59:48","新北市貢寮區福隆里東興街106巷23弄1號","121.94616","25.0180883333333","6502600","貢寮區"
"224006","676-BX","2018/02/24 18:59:47","新北市瑞芳區中正路4號","121.808908333333","25.1070516666667","6501200","瑞芳區"
"224009","285-BY","2018/02/24 18:59:39","新北市瑞芳區祈堂路53-1號","121.859576666667","25.110575","6501200","瑞芳區"
"224008","275-VK","2018/02/24 18:59:49","新北市瑞芳區逢甲路277號","121.801548333333","25.11199","6501200","瑞芳區"
"224007","273-VK","2018/02/24 18:59:46","新北市瑞芳區中央路46號","121.761943333333","25.10289","6501200","瑞芳區"
"227002","642-TC","2018/02/24 18:59:48","新北市雙溪區平林里康福家園10號","121.858758333333","25.0373083333333","6502500","雙溪區"
"227010","400-TW","2018/02/24 18:59:30","新北市雙溪區牡丹里中正路58巷23號","121.86643","25.0416316666667","6502500","雙溪區"
"253005","032-BX","2018/02/24 18:59:19","新北市石門區中央路37-2號","121.568691666667","25.29564","6502200","石門區"
"253006","295-VK","2018/02/24 18:59:33","新北市石門區下員坑42-3號","121.517636666667","25.2775816666667","6502200","石門區"
"222001","KEA-2212","2018/02/24 18:59:39","新北市深坑區北深路一段177號","121.632561666667","25.0108816666667","6501800","深坑區"
"208003","665-BX","2018/02/24 18:59:48","新北市金山區中正路93號","121.63319","25.2216466666667","6502700","金山區"
"208001","761-BX","2018/02/24 18:59:34","新北市金山區中山路73號","121.640575","25.2184916666667","6502700","金山區"
"251009","008-UM","2018/02/24 18:59:47","新北市淡水區重建街55號","121.43982","25.1716783333333","6501000","淡水區"
"251001","011-UM","2018/02/24 18:59:31","新北市淡水區自強路54號","121.463258333333","25.1273966666667","6501000","淡水區"
"251013","179-VK","2018/02/24 18:59:45","新北市淡水區安子內3號","121.48722","25.2158433333333","6501000","淡水區"
"251014","180-VK","2018/02/24 18:59:30","新北市淡水區崙頂2-2號","121.491583333333","25.2239166666667","6501000","淡水區"
"251015","182-VK","2018/02/24 18:58:32","新北市淡水區糞箕湖131巷2號","121.488348333333","25.1733333333333","6501000","淡水區"
"251010","413-VK","2018/02/24 18:59:39","新北市淡水區沙崙路129號","121.422356666667","25.182385","6501000","淡水區"
"251016","442-VK","2018/02/24 18:59:37","新北市淡水區淡金路三段36號","121.447886666667","25.1990266666667","6501000","淡水區"
"251006","561-UM","2018/02/24 18:59:41","新北市淡水區崁頂108號","121.43319","25.20427","6501000","淡水區"
"251007","577-R6","2018/02/24 18:59:45","新北市淡水區民生路113巷1弄49號","121.46259","25.13861","6501000","淡水區"
"251002","672-BX","2018/02/24 18:59:44","新北市淡水區中正東路43號","121.446288333333","25.1681366666667","6501000","淡水區"
"251003","673-BX","2018/02/24 18:59:38","新北市淡水區中山北路一段149巷31號","121.443071666667","25.177925","6501000","淡水區"
"207003","550-UM","2018/02/24 18:59:33","新北市萬里區大鵬里頂社1-2號","121.657465","25.2098166666667","6502800","萬里區"
"207004","225-TW","2018/02/24 18:59:27","新北市萬里區萬里里獅頭路23號","121.693186666667","25.1782983333333","6502800","萬里區"
"252002","178-VK","2018/02/24 18:59:45","新北市三芝區民生街2號","121.50381","25.2575216666667","6502100","三芝區"
"252003","249-BX","2018/02/24 18:59:40","新北市三芝區後厝里北勢子42-1號","121.471846666667","25.2522383333333","6502100","三芝區"
"252001","292-VK","2018/02/24 18:59:29","新北市三芝區中興街二段260號","121.501711666667","25.2530583333333","6502100","三芝區"
"237004","KEA-2597","2018/02/24 18:59:47","新北市三峽區有木189號","121.449748333333","24.8425866666667","6500900","三峽區"
"237007","153-BY","2018/02/24 18:59:46","新北市三峽區大埔路134巷1號","121.367236666667","24.904535","6500900","三峽區"
"237009","210-TH","2018/02/24 18:59:37","新北市三峽區大同路289號","121.365596666667","24.9252816666667","6500900","三峽區"
"237013","252-BX","2018/02/24 18:59:30","新北市三峽區光明路69巷24號","121.37665","24.9290783333333","6500900","三峽區"
"237012","275-BY","2018/02/24 18:59:39","新北市三峽區三樹路222巷69號","121.384138333333","24.9423933333333","6500900","三峽區"
"237008","302-VK","2018/02/24 18:59:43","新北市三峽區中正路一段357號","121.370913333333","24.9228116666667","6500900","三峽區"
"237014","433-BY","2018/02/24 18:59:31","新北市三峽區大勇路14號","121.367096666667","24.9382866666667","6500900","三峽區"
"237006","5529-G3","2018/02/24 18:59:34","新北市三峽區溪東路233巷4弄19號","121.407233333333","24.9337833333333","6500900","三峽區"
"237011","KEA-2596","2018/02/24 18:59:49","新北市三峽區介壽路三段26號","121.395996666667","24.9365583333333","6500900","三峽區"
"237010","706-TV","2018/02/24 18:59:43","新北市三峽區復興路30-1號","121.374345","24.9361616666667","6500900","三峽區"
"237005","AKY-6261","2018/02/24 18:59:47","新北市三峽區中山路459巷163-3號","121.348635","24.9329483333333","6500900","三峽區"
"236073","105-UM","2018/02/24 18:59:41","新北市土城區清水路78號","121.456786666667","24.9817916666667","6501300","土城區"
"236043","107-UM","2018/02/24 18:59:39","新北市土城區學府路一段229巷11號","121.451788333333","24.9838166666667","6501300","土城區"
"236079","166-UM","2018/02/24 18:59:37","新北市土城區中央路四段67巷26號","121.417698333333","24.9573433333333","6501300","土城區"
"236031","253-BX","2018/02/24 18:59:46","新北市土城區慶利街18號","121.439638333333","24.973725","6501300","土城區"
"236026","269-VK","2018/02/24 18:59:37","新北市土城區中央路二段252號","121.441685","24.9747416666667","6501300","土城區"
"236015","270-VK","2018/02/24 18:59:31","新北市土城區延和路13巷1號","121.463561666667","24.9883866666667","6501300","土城區"
"236038","271-VK","2018/02/24 18:59:49","新北市土城區青仁路18號","121.460141666667","24.9786416666667","6501300","土城區"
"236023","401-BY","2018/02/24 18:59:46","新北市土城區延吉街168巷3號","121.46827","24.9855716666667","6501300","土城區"
"236049","752-BX","2018/02/24 18:59:47","新北市土城區青雲路318號","121.458891666667","24.9772233333333","6501300","土城區"
"236059","912-UM","2018/02/24 18:59:34","新北市土城區金城路二段36號","121.450925","24.9786","6501300","土城區"
"236063","915-UM","2018/02/24 18:59:49","新北市土城區延和路41巷6弄15號","121.466528333333","24.9903933333333","6501300","土城區"
"236055","AAC-216","2018/02/24 18:59:40","新北市土城區學成路170號","121.447981666667","24.9889733333333","6501300","土城區"
"238015","755-BX","2018/02/24 18:59:36","新北市樹林區備內街58號","121.41145","24.9880566666667","6500700","樹林區"
"238023","601-UM","2018/02/24 18:59:27","新北市樹林區工興街35巷1號","121.401301666667","25.0132183333333","6500700","樹林區"
"238018","571-TV","2018/02/24 18:59:39","新北市樹林區八德街31號","121.418401666667","24.983935","6500700","樹林區"
"238022","KEA-2213","2018/02/24 18:59:39","新北市樹林區東順街57巷5號","121.411348333333","24.97733","6500700","樹林區"
"238026","KEA-2539","2018/02/24 18:59:40","新北市樹林區西圳街二段185號","121.378831666667","24.955575","6500700","樹林區"
"238025","303-VK","2018/02/24 18:59:31","新北市樹林區民和街61-2號","121.381168333333","24.971165","6500700","樹林區"
"238017","283-BY","2018/02/24 18:59:32","新北市樹林區光興街50號","121.40985","25.002715","6500700","樹林區"
"238014","282-BY","2018/02/24 18:59:42","新北市樹林區中正路21號","121.427518333333","24.9992333333333","6500700","樹林區"
"238020","268-VK","2018/02/24 18:59:37","新北市樹林區俊英街79號","121.426095","25.00757","6500700","樹林區"
"238026","172-UY","2018/02/24 18:59:37","新北市樹林區佳園路一段77號","121.393351666667","24.9700466666667","6500700","樹林區"
"238016","169-UY","2018/02/24 18:59:38","新北市樹林區復興路373巷13號","121.417433333333","24.9863","6500700","樹林區"
"239007","AAC-297","2018/02/24 18:59:35","新北市鶯歌區中正一路345巷5號","121.357535","24.9574066666667","6500800","鶯歌區"
"239008","527-UM","2018/02/24 18:59:46","新北市鶯歌區國際二路48號","121.335723333333","24.975805","6500800","鶯歌區"
"239005","526-UM","2018/02/24 18:59:40","新北市鶯歌區大湖路361巷34號","121.330643333333","24.9778416666667","6500800","鶯歌區"
"239001","417-VK","2018/02/24 18:59:43","新北市鶯歌區永安街36號","121.33778","24.956095","6500800","鶯歌區"
"239003","360-BY","2018/02/24 18:59:34","新北市鶯歌區鶯桃路493號","121.331636666667","24.9663983333333","6500800","鶯歌區"
"239004","193-VK","2018/02/24 18:59:38","新北市鶯歌區中正三路302巷15號","121.328056666667","24.9360816666667","6500800","鶯歌區"
"221008","489-VK","2018/02/24 18:59:42","新北市汐止區康寧街861巷1號","121.645428333333","25.0759366666667","6501100","汐止區"
"221036","130-UY","2018/02/24 18:59:33","新北市汐止區忠孝東路271號","121.663665","25.0682433333333","6501100","汐止區"
"221015","131-UY","2018/02/24 18:59:49","新北市汐止區大同路二段387號","121.657691666667","25.0672733333333","6501100","汐止區"
"221010","269-BY","2018/02/24 18:59:39","新北市汐止區康寧街901號","121.651485","25.0750016666667","6501100","汐止區"
"221012","278-VK","2018/02/24 18:59:43","新北市汐止區康寧街901號","121.650735","25.0752883333333","6501100","汐止區"
"221023","279-VK","2018/02/24 18:59:45","新北市汐止區康寧街901號","121.650935","25.0752383333333","6501100","汐止區"
"221032","280-BY","2018/02/24 18:59:45","新北市汐止區橫科路407巷30弄28號","121.627235","25.048365","6501100","汐止區"
"221027","281-BY","2018/02/24 18:59:41","新北市汐止區康寧街901號","121.65138","25.07499","6501100","汐止區"
"221038","297-VK","2018/02/24 18:59:32","新北市汐止區汐萬路一段312號","121.650641666667","25.0753083333333","6501100","汐止區"
"221029","298-VK","2018/02/24 18:59:46","新北市汐止區樟樹一路254號","121.642436666667","25.06725","6501100","汐止區"
"221021","299-VK","2018/02/24 18:59:35","新北市汐止區康寧街901號","121.651375","25.07504","6501100","汐止區"
"221031","353-TW","2018/02/24 18:59:30","新北市汐止區福德二路156巷38號","121.629993333333","25.06592","6501100","汐止區"
"221025","623-UM","2018/02/24 18:59:35","新北市汐止區汐萬路一段256巷3號","121.653391666667","25.0745033333333","6501100","汐止區"
"221033","647-BX","2018/02/24 18:59:40","新北市汐止區南勢街1巷1號","121.627025","25.0374883333333","6501100","汐止區"
"221002","707-TV","2018/02/24 18:59:46","新北市汐止區大同路一段2號","121.621026666667","25.05505","6501100","汐止區"
"220079","145-BY","2018/02/24 18:59:45","新北市板橋區民權路202巷12弄2號","121.46049","25.0154733333333","6500100","板橋區"
"220080","200-UY","2018/02/24 18:59:37","新北市板橋區大觀路二段文和巷76號","121.44394","24.998395","6500100","板橋區"
"220082","610-BX","2018/02/24 18:59:46","新北市板橋區篤行路三段1號","121.429383333333","24.987765","6500100","板橋區"
"220101","245-BX","2018/02/24 18:59:47","新北市板橋區文化路二段182巷7弄1號","121.471928333333","25.026815","6500100","板橋區"
"220096","257-TC","2018/02/24 18:59:27","新北市板橋區莒光路99號","121.472511666667","25.0240033333333","6500100","板橋區"
"220056","276-BY","2018/02/24 18:59:41","新北市板橋區信義路148號","121.45875","24.9917983333333","6500100","板橋區"
"220072","277-BY","2018/02/24 18:59:37","新北市板橋區篤行路一段33號","121.43208","24.9943033333333","6500100","板橋區"
"220071","283-VK","2018/02/24 18:59:46","新北市板橋區重慶路221號","121.46306","25.00105","6500100","板橋區"
"220094","285-UM","2018/02/24 18:59:39","新北市板橋區文化路二段76號","121.469358333333","25.0249916666667","6500100","板橋區"
"220053","285-VK","2018/02/24 18:59:38","新北市板橋區中山路二段89巷38號","121.473771666667","25.0169266666667","6500100","板橋區"
"220083","286-VK","2018/02/24 18:59:35","新北市板橋區大觀路一段38巷156弄59號","121.442975","25.006675","6500100","板橋區"
"220081","287-VK","2018/02/24 18:59:42","新北市板橋區光華街19巷31號","121.452975","25.0118733333333","6500100","板橋區"
"220061","293-UM","2018/02/24 18:59:29","新北市板橋區富山街102號","121.4762","25.0219183333333","6500100","板橋區"
"220084","296-UM","2018/02/24 18:59:45","新北市板橋區大觀路二段174巷116弄49號","121.442461666667","25.001235","6500100","板橋區"
"220075","303-R5","2018/02/24 18:59:45","新北市板橋區後菜園街32巷2號","121.456796666667","25.0103633333333","6500100","板橋區"
"220062","305-R5","2018/02/24 18:59:46","新北市板橋區民享街107號","121.477465","25.0160666666667","6500100","板橋區"
"220092","307-R5","2018/02/24 18:59:44","新北市板橋區文化路一段90號","121.464343333333","25.017785","6500100","板橋區"
"220098","317-R6","2018/02/24 18:59:29","新北市板橋區民有街18號","121.466221666667","25.0249416666667","6500100","板橋區"
"220064","486-VK","2018/02/24 18:59:39","新北市板橋區漢生東路178號","121.46717","25.0145983333333","6500100","板橋區"
"220089","487-VK","2018/02/24 18:59:34","新北市板橋區仁化街2號","121.474096666667","25.03154","6500100","板橋區"
"220088","491-VK","2018/02/24 18:59:41","新北市板橋區民生路二段216號","121.469333333333","25.0215083333333","6500100","板橋區"
"220035","560-BX","2018/02/24 18:59:39","新北市板橋區中正路341巷8號","121.45455","25.0203683333333","6500100","板橋區"
"220103","561-BX","2018/02/24 18:59:50","新北市板橋區介壽街84巷1號","121.470146666667","25.0185433333333","6500100","板橋區"
"220063","609-BX","2018/02/24 18:59:47","新北市板橋區中山路二段170號","121.47702","25.0173033333333","6500100","板橋區"
"220091","637-BX","2018/02/24 18:59:34","新北市板橋區雙十路二段47巷13號","121.47577","25.0258233333333","6500100","板橋區"
"220057","686-BX","2018/02/24 18:59:46","新北市板橋區重慶路105號","121.462186666667","25.0053833333333","6500100","板橋區"
"220077","687-BX","2018/02/24 18:59:39","新北市板橋區大觀路二段146-2號","121.442028333333","24.99882","6500100","板橋區"
"220093","689-BX","2018/02/24 18:59:39","新北市板橋區民生路三段66號","121.467041666667","25.02571","6500100","板橋區"
"220054","741-BX","2018/02/24 18:59:44","新北市板橋區重慶路139巷42號","121.463741666667","25.0046","6500100","板橋區"
"220102","KEA-2699","2018/02/24 18:59:42","新北市板橋區萬板路706號","121.481486666667","25.0274233333333","6500100","板橋區"
"220055","827-TW","2018/02/24 18:59:40","新北市板橋區中山路一段158巷14-3號","121.466248333333","25.0115116666667","6500100","板橋區"
"220067","829-TW","2018/02/24 18:59:35","新北市板橋區三民路二段正泰2巷13號","121.47821","25.0143566666667","6500100","板橋區"
"220090","830-TW","2018/02/24 18:59:35","新北市板橋區四維路177巷4弄2號","121.463851666667","25.026125","6500100","板橋區"
"220074","895-R6","2018/02/24 18:59:32","新北市板橋區林園街4號","121.454118333333","25.009365","6500100","板橋區"
"220073","985-R7","2018/02/24 18:59:44","新北市板橋區民權路196號","121.459158333333","25.0137366666667","6500100","板橋區"
"220070","AAC-253","2018/02/24 18:59:43","新北市板橋區四川路一段318號","121.458428333333","25.00014","6500100","板橋區"
