"lineid","car","time","location","longitude","latitude","cityid","cityname"
"234046","148-BY","2018/02/24 19:19:46","新北市永和區得和路345號","121.523898333333","24.99948","6500400","永和區"
"234067","149-BY","2018/02/24 19:19:16","新北市永和區保平路30巷8號","121.511781666667","25.0075133333333","6500400","永和區"
"234007","207-UY","2018/02/24 19:19:43","新北市永和區中山路一段242號","121.507766666667","25.0078833333333","6500400","永和區"
"234081","298-R6","2018/02/24 19:19:35","新北市永和區福和路7巷15弄2號","121.52568","25.006755","6500400","永和區"
"234038","336-UY","2018/02/24 19:19:39","新北市永和區民樂街49號","121.527485","24.998815","6500400","永和區"
"234064","337-UY","2018/02/24 19:19:36","新北市永和區永元路17巷6弄2號","121.521381666667","25.0007016666667","6500400","永和區"
"234086","338-UY","2018/02/24 19:19:34","新北市永和區永利路72號","121.520271666667","25.004315","6500400","永和區"
"234070","552-UM","2018/02/24 19:19:34","新北市永和區豫溪街74巷1號","121.517258333333","25.00989","6500400","永和區"
"234017","745-BX","2018/02/24 19:19:47","新北市永和區環河西路一段85巷4弄20號","121.512023333333","25.0169233333333","6500400","永和區"
"234030","746-BX","2018/02/24 19:19:43","新北市永和區厚德街58號","121.524455","24.9988333333333","6500400","永和區"
"234054","KEA-2590","2018/02/24 19:19:39","新北市永和區中興街31號","121.516115","25.0119116666667","6500400","永和區"
"234013","KEA-2591","2018/02/24 19:19:47","新北市永和區仁愛路103號","121.512455","25.0131333333333","6500400","永和區"
"234061","AAD-866","2018/02/24 19:19:34","新北市永和區秀朗路一段175號","121.517091666667","25.0037333333333","6500400","永和區"
"234042","862-TW","2018/02/24 19:19:49","新北市永和區保平路151巷3號","121.510171666667","25.00561","6500400","永和區"
"234050","863-TW","2018/02/24 19:19:50","新北市永和區仁愛路104巷6號","121.512075","25.0134783333333","6500400","永和區"
"234026","9371-KE","2018/02/24 19:19:42","新北市永和區安樂路144巷21-3號","121.514933333333","24.99999","6500400","永和區"
"234011","9373-KE","2018/02/24 19:19:34","新北市永和區永平路218巷23號","121.510055","25.011135","6500400","永和區"
"249001","173-UM","2018/02/24 19:19:45","新北市八里區中華路二段103-1號","121.409256666667","25.152275","6502300","八里區"
"249003","593-UM","2018/02/24 19:19:31","新北市八里區中山路二段466巷7號","121.398693333333","25.1475283333333","6502300","八里區"
"248020","225-UY","2018/02/24 19:19:27","新北市五股區凌雲路三段57號","121.425261666667","25.1250183333333","6501500","五股區"
"248012","247-BX","2018/02/24 19:19:27","新北市五股區中興路四段48巷16號","121.43872","25.0834583333333","6501500","五股區"
"248004","677-BX","2018/02/24 19:19:42","新北市五股區五福路53-1號","121.432926666667","25.0897183333333","6501500","五股區"
"248002","678-BX","2018/02/24 19:19:29","新北市五股區凌雲路一段158巷14-1號","121.447905","25.10343","6501500","五股區"
"248010","682-TV","2018/02/24 19:19:29","新北市五股區水碓一路23號","121.430575","25.0713016666667","6501500","五股區"
"234023","9380-KE","2018/02/24 19:19:45","新北市永和區竹林路109巷2-1號","121.520138333333","25.0118516666667","6500400","永和區"
"234077","969-R7","2018/02/24 19:19:33","新北市永和區民治街72巷10號","121.518083333333","24.9984733333333","6500400","永和區"
"234074","AAC-211","2018/02/24 19:19:40","新北市永和區竹林路126號","121.519888333333","25.0114233333333","6500400","永和區"
"234003","AAC-295","2018/02/24 19:19:45","新北市永和區永平路152巷4號","121.511538333333","25.0089066666667","6500400","永和區"
"244013","069-UM","2018/02/24 19:19:28","新北市林口區麗園一街2巷1號","121.376096666667","25.07198","6501700","林口區"
"244019","402-UM","2018/02/24 19:19:31","新北市林口區麗園二街1巷4-2號","121.377513333333","25.0700616666667","6501700","林口區"
"244009","657-BX","2018/02/24 19:19:47","新北市林口區林口路97-1號","121.38937","25.0803083333333","6501700","林口區"
"244011","701-TV","2018/02/24 19:19:30","新北市林口區竹林路67號","121.387748333333","25.0786416666667","6501700","林口區"
"244023","837-TS","2018/02/24 19:19:45","新北市林口區民族路302-99號","121.37064","25.0794433333333","6501700","林口區"
"243012","AAD-798","2018/02/24 19:19:36","新北市泰山區仁愛路94號","121.433321666667","25.0553433333333","6501600","泰山區"
"243011","297-R6","2018/02/24 19:19:35","新北市泰山區中央路7巷2號","121.426435","25.0432466666667","6501600","泰山區"
"243015","380-SR","2018/02/24 19:19:49","新北市泰山區公園路30號","121.429106666667","25.054325","6501600","泰山區"
"243014","421-VK","2018/02/24 19:19:45","新北市泰山區泰林路二段152-1號","121.434065","25.0600833333333","6501600","泰山區"
"243010","KEA-2215","2018/02/24 19:19:29","新北市泰山區明志路一段480號","121.430203333333","25.0548183333333","6501600","泰山區"
"243009","KEA-2216","2018/02/24 19:19:48","新北市泰山區文化街3號","121.433975","25.0637933333333","6501600","泰山區"
"243013","646-TV","2018/02/24 19:19:42","新北市泰山區明志路三段145巷7號","121.425461666667","25.039975","6501600","泰山區"
"243016","680-BX","2018/02/24 19:19:38","新北市泰山區明志路三段159號","121.424765","25.0396283333333","6501600","泰山區"
"222003","016-RS","2018/02/24 19:19:31","新北市深坑區深南路93號","121.62639","25.01594","6501800","深坑區"
"222002","659-BX","2018/02/24 19:19:31","新北市深坑區紅葉街10巷3號","121.633018333333","25.0118133333333","6501800","深坑區"
"231041","002-UM","2018/02/24 19:19:45","新北市新店區溪園路245-6號","121.525401666667","24.9833283333333","6500600","新店區"
"231059","046-UY","2018/02/24 19:19:47","新北市新店區安和路三段35-2號","121.51702","24.9803433333333","6500600","新店區"
"231061","047-UY","2018/02/24 19:19:50","新北市新店區安康路一段244-1號","121.521423333333","24.963885","6500600","新店區"
"231060","106-UY","2018/02/24 19:19:30","新北市新店區安康路二段105-1號","121.512748333333","24.962405","6500600","新店區"
"231051","107-UY","2018/02/24 19:19:45","新北市新店區中央路97號","121.531105","24.9750966666667","6500600","新店區"
"231048","108-UY","2018/02/24 19:19:30","新北市新店區中興路二段79巷20號","121.546106666667","24.971485","6500600","新店區"
"231052","187-VK","2018/02/24 19:19:30","新北市新店區自強路251號","121.548138333333","24.9195883333333","6500600","新店區"
"231050","KEA-2219","2018/02/24 19:19:35","新北市新店區竹林路155號","121.55616","24.94851","6500600","新店區"
"231046","278-BY","2018/02/24 19:19:28","新北市新店區華城路36巷1-1號","121.528441666667","24.9553066666667","6500600","新店區"
"231054","AAD-862","2018/02/24 19:19:28","新北市新店區國校路43號","121.537893333333","24.9553016666667","6500600","新店區"
"231058","3712-VJ","2018/02/24 19:19:30","新北市新店區光明街286巷4號","121.540543333333","24.96379","6500600","新店區"
"231065","512-UM","2018/02/24 19:19:45","新北市新店區安祥路110巷2號","121.4749","24.9570066666667","6500600","新店區"
"231064","515-UM","2018/02/24 19:19:41","新北市新店區安忠路57巷26弄45號","121.512055","24.9576416666667","6500600","新店區"
"231040","618-UM","2018/02/24 19:19:39","新北市新店區三民路24號","121.537195","24.9709633333333","6500600","新店區"
"231042","641-BX","2018/02/24 19:19:31","新北市新店區北宜路一段3號","121.538425","24.9583916666667","6500600","新店區"
"231063","645-TV","2018/02/24 19:19:43","新北市新店區達觀路14巷8號","121.503196666667","24.94329","6500600","新店區"
"231049","719-UM","2018/02/24 19:19:35","新北市新店區明德路111號","121.541485","24.97946","6500600","新店區"
"231062","720-UM","2018/02/24 19:19:32","新北市新店區莒光路70號","121.52296","24.95491","6500600","新店區"
"231044","897-TW","2018/02/24 19:19:32","新北市新店區寶慶街71號","121.54197","24.9866133333333","6500600","新店區"
"231045","898-TW","2018/02/24 19:19:31","新北市新店區北宜路一段276號","121.546288333333","24.9526933333333","6500600","新店區"
"231043","899-TW","2018/02/24 19:19:43","新北市新店區北新路二段131號","121.542926666667","24.9754383333333","6500600","新店區"
"231066","AKT-0513","2018/02/24 19:19:49","新北市新店區安康路三段207巷15號","121.488416666667","24.9508","6500600","新店區"
"241009","060-VK","2018/02/24 19:19:35","新北市三重區溪尾街230巷46號","121.485938333333","25.08112","6500200","三重區"
"241031","061-VK","2018/02/24 19:19:41","新北市三重區重新路四段206-5號","121.485991666667","25.0544583333333","6500200","三重區"
"241017","063-VK","2018/02/24 19:19:30","新北市三重區大同北路213號","121.491855","25.0656566666667","6500200","三重區"
"241026","066-VK","2018/02/24 19:19:32","新北市三重區正義南路165號","121.498758333333","25.05744","6500200","三重區"
"241022","267-UM","2018/02/24 19:19:40","新北市三重區重陽路二段72號","121.487185","25.0642433333333","6500200","三重區"
"241032","269-UM","2018/02/24 19:19:36","新北市三重區新生街93號","121.48386","25.0593766666667","6500200","三重區"
"241025","271-UM","2018/02/24 19:19:44","新北市三重區中正北路408巷2號","121.4754","25.07034","6500200","三重區"
"241007","398-BY","2018/02/24 19:19:29","新北市三重區慈愛街45號","121.485878333333","25.0790416666667","6500200","三重區"
"241035","462-BY","2018/02/24 19:19:39","新北市三重區大智街17-3號","121.494445","25.065515","6500200","三重區"
"241030","480-VK","2018/02/24 19:19:36","新北市三重區成功路41巷72號","121.491413333333","25.0532233333333","6500200","三重區"
"241006","AAD-863","2018/02/24 19:19:39","新北市三重區車路頭街182號","121.48371","25.0771416666667","6500200","三重區"
"241029","942-UM","2018/02/24 19:19:40","新北市三重區重安街27號","121.49112","25.0570666666667","6500200","三重區"
"235066","003-UY","2018/02/24 19:19:38","新北市中和區景新街2號","121.502611666667","24.9997083333333","6500300","中和區"
"235064","005-UY","2018/02/24 19:19:49","新北市中和區連城路2號","121.49936","25.0024216666667","6500300","中和區"
"235063","006-UY","2018/02/24 19:19:32","新北市中和區連勝街121巷18弄1號","121.495168333333","24.994375","6500300","中和區"
"235056","096-UM","2018/02/24 19:19:33","新北市中和區中正路1171號","121.481291666667","25.00948","6500300","中和區"
"235039","097-UM","2018/02/24 19:19:35","新北市中和區景平路64巷13弄1號","121.522068333333","24.9912883333333","6500300","中和區"
"235065","098-UM","2018/02/24 19:19:35","新北市中和區中山路二段2巷3弄2號","121.504791666667","25.0062366666667","6500300","中和區"
"235040","150-BY","2018/02/24 19:17:02","新北市中和區保健路50巷50號","121.509591666667","24.9959","6500300","中和區"
"235058","151-BY","2018/02/24 19:19:30","新北市中和區員山路36巷16-2號","121.485323333333","24.9913566666667","6500300","中和區"
"235055","183-VK","2018/02/24 19:19:46","新北市中和區莒光路120巷11號","121.471616666667","25.0016983333333","6500300","中和區"
"235038","185-VK","2018/02/24 19:19:37","新北市中和區大仁街20巷2號","121.517778333333","24.993175","6500300","中和區"
"235049","186-VK","2018/02/24 19:19:41","新北市中和區景新街243號","121.5083","24.9943766666667","6500300","中和區"
"235067","255-BX","2018/02/24 19:19:42","新北市中和區中正路803號","121.484816666667","25.00123","6500300","中和區"
"235044","293-VK","2018/02/24 19:19:30","新北市中和區復興路290號","121.501768333333","24.99032","6500300","中和區"
"235072","301-VK","2018/02/24 19:19:35","新北市中和區連城路263巷4弄6號","121.491671666667","24.995585","6500300","中和區"
"235043","352-BY","2018/02/24 19:19:46","新北市中和區景平路426號","121.507498333333","24.9933516666667","6500300","中和區"
"235068","377-QA","2018/02/24 19:19:47","新北市中和區連勝街3號","121.499075","24.9985016666667","6500300","中和區"
"235061","378-QA","2018/02/24 19:19:38","新北市中和區中山路二段523巷56-1號","121.482141666667","25.0028816666667","6500300","中和區"
"235071","269-TV","2018/02/24 19:19:40","新北市中和區連城路469巷69號","121.48347","24.9942216666667","6500300","中和區"
"235050","4979-A6","2018/02/24 19:19:30","新北市中和區景安路208巷10號","121.503483333333","24.99122","6500300","中和區"
"235069","4980-A6","2018/02/24 19:19:29","新北市中和區莊敬路33巷20號","121.500206666667","25.0055133333333","6500300","中和區"
"235042","551-UM","2018/02/24 19:19:34","新北市永和區民有街61號","121.517618333333","24.99592","6500300","中和區"
"235045","565-BX","2018/02/24 19:19:37","新北市中和區景新街423巷37號","121.514141666667","24.98977","6500300","中和區"
"235054","640-BX","2018/02/24 19:19:38","新北市中和區國光街107巷2弄3號","121.470056666667","24.9998683333333","6500300","中和區"
"235060","647-TV","2018/02/24 19:19:31","新北市中和區員山路292號","121.48148","25.0024683333333","6500300","中和區"
"235047","732-UM","2018/02/24 19:19:34","新北市中和區景平路239巷53弄7號","121.508976666667","24.9918166666667","6500300","中和區"
"235046","733-UM","2018/02/24 19:19:45","新北市中和區忠孝街2巷9弄3號","121.510451666667","24.9823933333333","6500300","中和區"
"235057","801-TS","2018/02/24 19:19:49","新北市中和區員山路263號","121.481213333333","24.9991966666667","6500300","中和區"
"235052","805-TS","2018/02/24 19:19:37","新北市中和區華新街137號","121.506551666667","24.9817933333333","6500300","中和區"
"235048","896-TW","2018/02/24 19:19:37","新北市中和區忠孝街112號","121.512148333333","24.9853566666667","6500300","中和區"
"235053","900-TW","2018/02/24 19:19:33","新北市中和區華安街21巷2號","121.467433333333","24.99749","6500300","中和區"
"235070","911-UM","2018/02/24 19:19:35","新北市中和區中和路32號","121.499855","25.001665","6500300","中和區"
"235051","157-BY","2018/02/24 19:19:47","新北市中和區興南路一段56巷9號","121.510341666667","24.9912266666667","6500300","中和區"
"235037","AAC-213","2018/02/24 19:19:42","新北市中和區秀朗路三段10巷37弄4號","121.52406","24.995845","6500300","中和區"
"235059","AAC-215","2018/02/24 19:19:46","新北市中和區圓通路286巷1號","121.491425","24.991","6500300","中和區"
"220068","013-TV","2018/02/24 19:19:47","新北市板橋區翠華街6巷19號","121.481105","25.0243","6500100","板橋區"
"220065","072-UY","2018/02/24 19:19:42","新北市板橋區國泰街76巷4號","121.46737","25.0067516666667","6500100","板橋區"
"220086","073-UY","2018/02/24 19:19:49","新北市板橋區中正路216巷106號","121.459046666667","25.0191633333333","6500100","板橋區"
"220106","075-UY","2018/02/24 19:19:37","新北市板橋區雙十路三段68巷2號","121.470491666667","25.0319633333333","6500100","板橋區"
"220069","AAD-861","2018/02/24 19:19:39","新北市板橋區貴興路43號","121.457505","25.0035966666667","6500100","板橋區"
"226004","205-ST","2018/02/24 19:19:49","新北市平溪區十分里十分街96-2號","121.776651666667","25.0426066666667","6502400","平溪區"
"235041","251-BX","2018/02/24 19:19:38","新北市中和區景安路9號","121.50799","24.9990533333333","6500300","中和區"
"228003","097-TW","2018/02/24 19:19:38","新北市貢寮區和美里和美街22-1號","121.91283","25.0826333333333","6502600","貢寮區"
"228001","212-TW","2018/02/24 19:19:41","新北市貢寮區真理里新港街10號","121.925505","25.0544083333333","6502600","貢寮區"
"228002","585-TW","2018/02/24 19:19:40","新北市貢寮區雙玉里田寮洋街21號","121.926293333333","25.02517","6502600","貢寮區"
"224006","676-BX","2018/02/24 19:19:26","新北市瑞芳區中山路266號","121.799295","25.1076033333333","6501200","瑞芳區"
"224009","285-BY","2018/02/24 19:19:39","新北市瑞芳區洞頂路204號","121.860793333333","25.1195716666667","6501200","瑞芳區"
"224008","275-VK","2018/02/24 19:19:38","新北市瑞芳區瑞芳街102-1號","121.801773333333","25.1105683333333","6501200","瑞芳區"
"227002","642-TC","2018/02/24 19:19:28","新北市雙溪區平林里梅竹蹊66-1號","121.860138333333","25.03583","6502500","雙溪區"
"227010","400-TW","2018/02/24 19:19:50","新北市雙溪區新基里新基北街40號","121.86897","25.0382816666667","6502500","雙溪區"
"253005","032-BX","2018/02/24 19:19:39","新北市石門區阿里荖7-2號","121.609511666667","25.2799916666667","6502200","石門區"
"253006","295-VK","2018/02/24 19:19:33","新北市石門區崁子腳26號","121.5354","25.2908533333333","6502200","石門區"
"222001","KEA-2212","2018/02/24 19:19:39","新北市深坑區北深路二段84號","121.61752","25.0035283333333","6501800","深坑區"
"208003","665-BX","2018/02/24 19:19:37","新北市金山區中山路110號","121.639611666667","25.2194816666667","6502700","金山區"
"208001","761-BX","2018/02/24 19:19:34","新北市金山區慈護街12號","121.6397","25.2203183333333","6502700","金山區"
"251009","008-UM","2018/02/24 19:19:47","新北市淡水區中山路141號","121.440906666667","25.171775","6501000","淡水區"
"251001","011-UM","2018/02/24 19:19:31","新北市淡水區自強路201巷61號","121.461721666667","25.1274533333333","6501000","淡水區"
"251013","179-VK","2018/02/24 19:19:45","新北市淡水區安子內12號","121.48157","25.2190866666667","6501000","淡水區"
"251014","180-VK","2018/02/24 19:19:11","新北市淡水區小中寮19-7號","121.48477","25.229655","6501000","淡水區"
"251015","182-VK","2018/02/24 19:19:32","新北市淡水區南勢埔20-1號","121.481588333333","25.178475","6501000","淡水區"
"251010","413-VK","2018/02/24 19:19:39","新北市淡水區沙崙路28號","121.421423333333","25.1814316666667","6501000","淡水區"
"251012","441-VK","2018/02/24 19:19:40","新北市淡水區中山北路三段164號","121.445575","25.1966583333333","6501000","淡水區"
"251016","442-VK","2018/02/24 19:19:37","新北市淡水區下圭柔山119-51號","121.4508","25.2083933333333","6501000","淡水區"
"251005","443-VK","2018/02/24 19:19:42","新北市淡水區水源街一段34巷1號","121.443298333333","25.1722266666667","6501000","淡水區"
"251006","561-UM","2018/02/24 19:19:37","新北市淡水區大信街40-8號","121.441976666667","25.1773683333333","6501000","淡水區"
"251007","577-R6","2018/02/24 19:19:40","新北市淡水區民生路117巷34號","121.464905","25.13964","6501000","淡水區"
"251003","673-BX","2018/02/24 19:19:38","新北市淡水區中山北路一段33號","121.441548333333","25.17516","6501000","淡水區"
"207003","550-UM","2018/02/24 19:19:33","新北市萬里區大鵬里萬里加投79-3號","121.647308333333","25.21237","6502800","萬里區"
"207004","225-TW","2018/02/24 19:19:46","新北市萬里區萬里里瑪鋉路12-2號","121.68765","25.175485","6502800","萬里區"
"252001","292-VK","2018/02/24 19:19:49","新北市三芝區長勤街9巷11弄3號","121.501851666667","25.254725","6502100","三芝區"
"237004","KEA-2597","2018/02/24 19:19:47","新北市三峽區有木206號","121.439176666667","24.8515216666667","6500900","三峽區"
"237007","153-BY","2018/02/24 19:19:46","新北市三峽區麻園36-10號","121.363778333333","24.91962","6500900","三峽區"
"237009","210-TH","2018/02/24 19:19:37","新北市三峽區民族街180號","121.368393333333","24.92799","6500900","三峽區"
"237013","252-BX","2018/02/24 19:19:30","新北市三峽區大同路39巷7號","121.37704","24.9278533333333","6500900","三峽區"
"237012","275-BY","2018/02/24 19:19:39","新北市三峽區三樹路222巷236弄8-1號","121.39113","24.9431","6500900","三峽區"
"237008","302-VK","2018/02/24 19:19:43","新北市三峽區光明路106巷38號","121.375643333333","24.9270133333333","6500900","三峽區"
"237014","433-BY","2018/02/24 19:19:31","新北市三峽區中山路63巷8號","121.366903333333","24.9343283333333","6500900","三峽區"
"237006","5529-G3","2018/02/24 19:19:34","新北市三峽區橫溪路67號","121.397431666667","24.9353133333333","6500900","三峽區"
"237011","KEA-2596","2018/02/24 19:19:49","新北市三峽區中正路一段290-1號","121.37158","24.925885","6500900","三峽區"
"237010","706-TV","2018/02/24 19:19:36","新北市三峽區復興路27號","121.373968333333","24.9363916666667","6500900","三峽區"
"237005","AKY-6261","2018/02/24 19:19:27","新北市三峽區中山路459巷52-1號","121.356616666667","24.93699","6500900","三峽區"
"236073","105-UM","2018/02/24 19:19:41","新北市土城區學成路138號","121.44898","24.9895666666667","6501300","土城區"
"236079","166-UM","2018/02/24 19:18:37","新北市土城區龍泉路41-1號","121.415903333333","24.9434266666667","6501300","土城區"
"236031","253-BX","2018/02/24 19:19:46","新北市土城區城林路6巷80號","121.438501666667","24.9796266666667","6501300","土城區"
"236026","269-VK","2018/02/24 19:19:37","新北市土城區員林街76號","121.444378333333","24.9766766666667","6501300","土城區"
"236015","270-VK","2018/02/24 19:19:31","新北市土城區學府路一段23巷25弄42號","121.457625","24.986215","6501300","土城區"
"236023","401-BY","2018/02/24 19:19:46","新北市土城區峰廷街3號","121.4691","24.9873816666667","6501300","土城區"
"236049","752-BX","2018/02/24 19:19:47","新北市土城區明德路一段398-1號","121.453665","24.9791166666667","6501300","土城區"
"236059","912-UM","2018/02/24 19:19:34","新北市土城區金城路一段7號","121.439321666667","24.9690116666667","6501300","土城區"
"236055","AAC-216","2018/02/24 19:19:34","新北市土城區學府路一段276號","121.44994","24.9830583333333","6501300","土城區"
"238015","755-BX","2018/02/24 19:19:35","新北市樹林區大安路536號","121.413701666667","24.9857866666667","6500700","樹林區"
"238023","601-UM","2018/02/24 19:19:47","新北市樹林區三興路77號","121.39258","25.0144566666667","6500700","樹林區"
"238018","571-TV","2018/02/24 19:19:39","新北市樹林區中華路227號","121.418836666667","24.98087","6500700","樹林區"
"238024","5061-A6","2018/02/24 19:19:48","新北市樹林區福德街48-8號","121.398891666667","24.9748716666667","6500700","樹林區"
"238022","KEA-2213","2018/02/24 19:19:33","新北市樹林區中山路二段151巷6弄3號","121.406458333333","24.978315","6500700","樹林區"
"238026","KEA-2539","2018/02/24 19:19:40","新北市樹林區柑園街二段384巷15號","121.367541666667","24.9495916666667","6500700","樹林區"
"238025","303-VK","2018/02/24 19:19:11","新北市樹林區中華路190-6號","121.410195","24.9805266666667","6500700","樹林區"
"238017","283-BY","2018/02/24 19:19:32","新北市樹林區光興街50號","121.409853333333","25.0027183333333","6500700","樹林區"
"238014","282-BY","2018/02/24 19:19:42","新北市樹林區保安二街40巷18號","121.425611666667","24.9946516666667","6500700","樹林區"
"238020","268-VK","2018/02/24 19:19:37","新北市樹林區俊英街125號","121.424385","25.0109283333333","6500700","樹林區"
"238026","172-UY","2018/02/24 19:19:37","新北市樹林區佳園路三段36號","121.387655","24.9535","6500700","樹林區"
"238016","169-UY","2018/02/24 19:19:38","新北市樹林區中山路二段74號","121.415221666667","24.9842683333333","6500700","樹林區"
"239007","AAC-297","2018/02/24 19:19:35","新北市鶯歌區中山路138巷38號","121.351368333333","24.9596183333333","6500800","鶯歌區"
"239006","891-R6","2018/02/24 19:19:39","新北市鶯歌區鶯桃路242巷6號","121.336511666667","24.9597316666667","6500800","鶯歌區"
"239008","527-UM","2018/02/24 19:19:42","新北市鶯歌區國際二路6巷18號","121.339133333333","24.9739666666667","6500800","鶯歌區"
"239005","526-UM","2018/02/24 19:19:37","新北市鶯歌區東湖路15-1號","121.354848333333","24.9718916666667","6500800","鶯歌區"
"239001","417-VK","2018/02/24 19:19:43","新北市鶯歌區建國路540-1號","121.338521666667","24.9501133333333","6500800","鶯歌區"
"239003","360-BY","2018/02/24 19:19:34","新北市鶯歌區國慶街167號","121.3512","24.9530133333333","6500800","鶯歌區"
"239004","193-VK","2018/02/24 19:19:38","新北市鶯歌區中正三路228號","121.331368333333","24.937505","6500800","鶯歌區"
"221008","489-VK","2018/02/24 19:19:42","新北市汐止區康寧街358號","121.628233333333","25.0675833333333","6501100","汐止區"
"221036","130-UY","2018/02/24 19:19:33","新北市汐止區汐萬路一段256巷3號","121.65221","25.0747316666667","6501100","汐止區"
"221015","131-UY","2018/02/24 19:19:29","新北市汐止區康寧街901號","121.651658333333","25.0749516666667","6501100","汐止區"
"221010","269-BY","2018/02/24 19:19:39","新北市汐止區康寧街901號","121.651491666667","25.0750066666667","6501100","汐止區"
"221012","278-VK","2018/02/24 19:19:43","新北市汐止區汐萬路一段266號","121.651123333333","25.0736983333333","6501100","汐止區"
"221023","279-VK","2018/02/24 19:19:45","新北市汐止區康寧街901號","121.650991666667","25.0752316666667","6501100","汐止區"
"221027","281-BY","2018/02/24 19:19:41","新北市汐止區汐萬路一段39號","121.654961666667","25.0690283333333","6501100","汐止區"
"221038","297-VK","2018/02/24 19:19:32","新北市汐止區汐萬路一段312號","121.650626666667","25.0753183333333","6501100","汐止區"
"221029","298-VK","2018/02/24 19:19:46","新北市汐止區康寧街901號","121.651555","25.0749966666667","6501100","汐止區"
"221021","299-VK","2018/02/24 19:19:35","新北市汐止區康寧街901號","121.651378333333","25.0750533333333","6501100","汐止區"
"221031","353-TW","2018/02/24 19:19:30","新北市汐止區康寧街901號","121.651043333333","25.0751683333333","6501100","汐止區"
"221025","623-UM","2018/02/24 19:19:35","新北市汐止區汐萬路一段39號","121.655271666667","25.0687366666667","6501100","汐止區"
"221033","647-BX","2018/02/24 19:19:40","新北市汐止區南勢街1巷1號","121.627016666667","25.0374666666667","6501100","汐止區"
"221002","707-TV","2018/02/24 19:19:46","新北市汐止區大同路一段351-6號","121.639511666667","25.0598716666667","6501100","汐止區"
"220079","145-BY","2018/02/24 19:19:45","新北市板橋區民權路202巷36號","121.460705","25.01758","6500100","板橋區"
"220080","200-UY","2018/02/24 19:19:42","新北市板橋區大觀路二段19巷87號","121.449365","25.0028666666667","6500100","板橋區"
"220082","610-BX","2018/02/24 19:19:46","新北市板橋區溪崑二街122號","121.42609","24.9881333333333","6500100","板橋區"
"220101","245-BX","2018/02/24 19:19:47","新北市板橋區莒光路165巷42-1號","121.47455","25.0249833333333","6500100","板橋區"
"220096","257-TC","2018/02/24 19:19:47","新北市板橋區大同街14-4號","121.477521666667","25.026905","6500100","板橋區"
"220056","276-BY","2018/02/24 19:19:41","新北市板橋區和平路23號","121.459665","24.9951983333333","6500100","板橋區"
"220072","277-BY","2018/02/24 19:19:45","新北市板橋區金門街337巷8弄1號","121.429826666667","24.98517","6500100","板橋區"
"220071","283-VK","2018/02/24 19:19:41","新北市板橋區忠孝路48巷7弄1-3號","121.461051666667","25.0004716666667","6500100","板橋區"
"220094","285-UM","2018/02/24 19:19:39","新北市板橋區吳鳳路21巷2號","121.466923333333","25.0312533333333","6500100","板橋區"
"220053","285-VK","2018/02/24 19:19:45","新北市板橋區富山街16號","121.478391666667","25.0218166666667","6500100","板橋區"
"220083","286-VK","2018/02/24 19:19:40","新北市板橋區大觀路二段174巷186弄9號","121.442801666667","25.0035116666667","6500100","板橋區"
"220081","287-VK","2018/02/24 19:19:42","新北市板橋區南雅西路一段116號","121.452766666667","25.0065616666667","6500100","板橋區"
"220061","293-UM","2018/02/24 19:19:31","新北市板橋區中山路二段318巷20弄6號","121.480686666667","25.0188033333333","6500100","板橋區"
"220084","296-UM","2018/02/24 19:19:45","新北市板橋區溪北路73巷5號","121.428313333333","24.9899183333333","6500100","板橋區"
"220075","303-R5","2018/02/24 19:19:40","新北市板橋區南雅西路一段116號","121.452465","25.00644","6500100","板橋區"
"220062","305-R5","2018/02/24 19:19:46","新北市板橋區三民路二段153巷36弄2號","121.481166666667","25.0141516666667","6500100","板橋區"
"220092","307-R5","2018/02/24 19:19:44","新北市板橋區光武街36巷10號","121.467871666667","25.0260966666667","6500100","板橋區"
"220098","317-R6","2018/02/24 19:19:29","新北市板橋區民有街71號","121.464978333333","25.02696","6500100","板橋區"
"220064","486-VK","2018/02/24 19:19:40","新北市板橋區板新路238號","121.468196666667","25.0160216666667","6500100","板橋區"
"220089","487-VK","2018/02/24 19:19:46","新北市板橋區文化路一段379號","121.467066666667","25.0215466666667","6500100","板橋區"
"220088","491-VK","2018/02/24 19:19:43","新北市板橋區雙十路一段9號","121.477906666667","25.024155","6500100","板橋區"
"220035","560-BX","2018/02/24 19:19:39","新北市板橋區中正路433巷29號","121.453166666667","25.02367","6500100","板橋區"
"220103","561-BX","2018/02/24 19:19:34","新北市板橋區文化路一段188巷7弄42號","121.468193333333","25.0192616666667","6500100","板橋區"
"220063","609-BX","2018/02/24 19:19:47","新北市板橋區三民路一段43號","121.479521666667","25.0226566666667","6500100","板橋區"
"220091","637-BX","2018/02/24 19:19:43","新北市板橋區文聖街144號","121.478471666667","25.0278483333333","6500100","板橋區"
"220057","686-BX","2018/02/24 19:19:46","新北市板橋區廣權路113號","121.46496","24.99303","6500100","板橋區"
"220077","687-BX","2018/02/24 19:19:39","新北市板橋區僑中一街80巷6弄18號","121.448181666667","25.0114416666667","6500100","板橋區"
"220093","689-BX","2018/02/24 19:19:39","新北市板橋區文化路一段114號","121.464863333333","25.018405","6500100","板橋區"
"220054","741-BX","2018/02/24 19:19:47","新北市板橋區重慶路155巷17號","121.46297","25.0040383333333","6500100","板橋區"
"220102","KEA-2699","2018/02/24 19:19:42","新北市板橋區文聖街207號","121.47982","25.0263083333333","6500100","板橋區"
"220055","827-TW","2018/02/24 19:19:40","新北市板橋區館前東路156巷46號","121.464568333333","25.006555","6500100","板橋區"
"220067","829-TW","2018/02/24 19:19:35","新北市板橋區長安街138巷1弄56號","121.474071666667","25.0101216666667","6500100","板橋區"
"220090","830-TW","2018/02/24 19:19:35","新北市板橋區長江路一段106巷13弄20號","121.460781666667","25.0294433333333","6500100","板橋區"
"220074","895-R6","2018/02/24 19:19:32","新北市板橋區中正路自強新村91-1號","121.454878333333","25.0131416666667","6500100","板橋區"
"220073","985-R7","2018/02/24 19:19:44","新北市板橋區新生街33號","121.456603333333","25.0211383333333","6500100","板橋區"
"220097","AAC-210","2018/02/24 19:19:41","新北市板橋區幸福路32巷3弄9號","121.460976666667","25.0206916666667","6500100","板橋區"
"220070","AAC-253","2018/02/24 19:19:43","新北市板橋區忠孝路68號","121.46128","25.0019566666667","6500100","板橋區"
