"lineid","car","time","location","longitude","latitude","cityid","cityname"
"234084","748-BX","2018/11/27 12:09:55","","121.52655","25.01009","6500400","永和區"
"234040","862-TW","2018/11/27 12:09:47","新北市永和區福和路1號","121.525563333333","25.0096233333333","6500400","永和區"
"235029","098-UM","2018/11/27 12:09:38","新北市中和區員山路36巷16-3號","121.485003333333","24.9912916666667","6500300","中和區"
"228004","212-TW","2018/11/27 12:09:50","新北市貢寮區貢寮里貢寮街2號","121.907561666667","25.018795","6502600","貢寮區"
"228005","828-UM","2018/11/27 12:09:51","新北市貢寮區福隆里興隆街38號","121.93992","25.0181433333333","6502600","貢寮區"
"227006","282-VK","2018/11/27 12:09:53","新北市雙溪區魚行里魚杭1號","121.883795","25.026605","6502500","雙溪區"
