"lineid","car","time","location","longitude","latitude","cityid","cityname"
"234044","148-BY","2018/11/27 12:29:52","新北市永和區福和路1號","121.52636","25.0098333333333","6500400","永和區"
"234078","298-R6","2018/11/27 12:29:41","新北市永和區福和路8巷3號","121.524933333333","25.0091983333333","6500400","永和區"
"234036","336-UY","2018/11/27 12:29:58","新北市永和區福和路1號","121.526725","25.0101733333333","6500400","永和區"
"234015","745-BX","2018/11/27 12:29:58","新北市永和區福和路1號","121.526438333333","25.0096883333333","6500400","永和區"
"234084","748-BX","2018/11/27 12:29:54","新北市中和區景安路67號","121.50698","24.9978016666667","6500400","永和區"
"234040","862-TW","2018/11/27 12:29:47","新北市永和區福和路1號","121.525631666667","25.009575","6500400","永和區"
"234025","9371-KE","2018/11/27 12:29:41","新北市永和區福和路1號","121.526646666667","25.0100083333333","6500400","永和區"
"235029","098-UM","2018/11/27 12:29:58","新北市中和區員山路36巷16-3號","121.485008333333","24.9912533333333","6500300","中和區"
"228004","212-TW","2018/11/27 12:29:50","新北市貢寮區龍崗里嵩陽街2-1號","121.901876666667","25.0158516666667","6502600","貢寮區"
"228005","828-UM","2018/11/27 12:29:51","新北市貢寮區福連里蓬萊街16號","121.9857","24.9966433333333","6502600","貢寮區"
"207002","749-BX","2018/11/27 12:29:48","新北市萬里區雙興里太和路7-2號","121.658621666667","25.1741","6502800","萬里區"
"207001","662-BX","2018/11/27 12:29:38","新北市萬里區萬里里獅頭路15-1號","121.697445","25.1800633333333","6502800","萬里區"
"235025","KEA-2875","2018/11/27 12:19:03","新北市中和區和城路一段271巷1號","121.485416666667","24.9918583333333","6500300","中和區"
