"lineid","car","time","location","longitude","latitude","cityid","cityname"
"234044","148-BY","2018/11/27 14:09:52","新北市永和區得和路404號","121.525651666667","24.9992033333333","6500400","永和區"
"234005","207-UY","2018/11/27 14:09:48","新北市永和區中山路一段164號","121.509498333333","25.009245","6500400","永和區"
"234078","298-R6","2018/11/27 14:09:56","新北市永和區國中路109巷3弄1號","121.523825","25.0056133333333","6500400","永和區"
"234036","336-UY","2018/11/27 14:09:57","新北市永和區成功路一段47巷8號","121.527561666667","25.004025","6500400","永和區"
"234062","337-UY","2018/11/27 14:09:46","新北市永和區永利路152號","121.522415","25.0029","6500400","永和區"
"234068","552-UM","2018/11/27 14:09:38","新北市永和區福和路183巷1號","121.519973333333","25.0072866666667","6500400","永和區"
"234015","745-BX","2018/11/27 14:09:58","新北市永和區仁愛路89號","121.513055","25.0130716666667","6500400","永和區"
"234028","746-BX","2018/11/27 14:09:47","新北市永和區民權路49巷5弄11號","121.520596666667","24.997545","6500400","永和區"
"234052","KEA-2590","2018/11/27 14:09:48","新北市永和區博愛街9號","121.516978333333","25.0158766666667","6500400","永和區"
"234012","KEA-2591","2018/11/27 14:09:41","新北市永和區中山路一段253-1號","121.507701666667","25.007645","6500400","永和區"
"234060","AAD-866","2018/11/27 14:09:52","新北市永和區安樂路148號","121.514256666667","25.000525","6500400","永和區"
"234084","748-BX","2018/11/27 14:09:54","新北市永和區中正路605號","121.516365","25.0097216666667","6500400","永和區"
"234040","862-TW","2018/11/27 14:09:51","新北市永和區雙和街18-1號","121.509436666667","25.0020066666667","6500400","永和區"
"234048","863-TW","2018/11/27 14:09:56","新北市永和區文化路177號","121.5098","25.0168866666667","6500400","永和區"
"234022","9372-KE","2018/11/27 14:09:43","新北市永和區竹林路39巷1號","121.518038333333","25.014325","6500400","永和區"
"234025","9371-KE","2018/11/27 14:09:41","新北市永和區安樂路272巷11號","121.514968333333","25.00449","6500400","永和區"
"234010","9373-KE","2018/11/27 14:09:55","新北市永和區仁愛路352巷122弄13號","121.500685","25.00891","6500400","永和區"
"248017","225-UY","2018/11/27 14:09:49","新北市五股區民義路一段220巷17-13號","121.427686666667","25.09611","6501500","五股區"
"234076","969-R7","2018/11/27 14:09:42","新北市永和區民族街81巷62號","121.520378333333","24.9964783333333","6500400","永和區"
"234072","AAC-211","2018/11/27 14:09:40","新北市永和區竹林路201巷24弄1號","121.522323333333","25.0096883333333","6500400","永和區"
"234066","AAC-212","2018/11/27 14:09:49","新北市永和區保平路236巷7弄16號","121.50818","25.00575","6500400","永和區"
"234001","AAC-295","2018/11/27 14:09:54","新北市永和區中正路579號","121.516573333333","25.00889","6500400","永和區"
"244002","248-BX","2018/11/27 14:09:42","新北市林口區中山路585號","121.379888333333","25.0824416666667","6501700","林口區"
"231002","002-UM","2018/11/27 14:09:51","新北市新店區中正路487號","121.53374","24.9821033333333","6500600","新店區"
"231027","0293-UT","2018/11/27 14:09:52","新北市新店區光明街41號","121.538645","24.9597883333333","6500600","新店區"
"231028","046-UY","2018/11/27 14:09:39","新北市新店區安和路三段125號","121.517296666667","24.9851933333333","6500600","新店區"
"231001","047-UY","2018/11/27 14:09:44","新北市新店區中華路37號","121.540341666667","24.9676216666667","6500600","新店區"
"231005","106-UY","2018/11/27 14:09:52","新北市新店區中興路三段229號","121.54305","24.9834216666667","6500600","新店區"
"231020","108-UY","2018/11/27 14:09:57","新北市新店區屈尺路212號","121.544728333333","24.9235916666667","6500600","新店區"
"231012","187-VK","2018/11/27 14:09:51","新北市新店區五峰路97號","121.545776666667","24.9673116666667","6500600","新店區"
"231018","188-VK","2018/11/27 14:09:52","新北市新店區中央五街86號","121.526256666667","24.97621","6500600","新店區"
"231023","KEA-2219","2018/11/27 14:09:48","新北市新店區文中路45號","121.539626666667","24.9567183333333","6500600","新店區"
"231003","268-BY","2018/11/27 14:09:55","新北市新店區中興路一段94號","121.540101666667","24.960575","6500600","新店區"
"231015","AAD-862","2018/11/27 14:09:54","新北市新店區北宜路二段392巷1號","121.566053333333","24.9532116666667","6500600","新店區"
"231038","3712-VJ","2018/11/27 14:09:39","新北市新店區安康路一段321巷3號","121.521776666667","24.9631783333333","6500600","新店區"
"231037","4716-K9","2018/11/27 14:09:40","新北市新店區安康路三段207巷15號","121.488403333333","24.9508166666667","6500600","新店區"
"231025","4715-K9","2018/11/27 14:09:41","新北市新店區二十張路90號","121.536378333333","24.9798766666667","6500600","新店區"
"231036","512-UM","2018/11/27 14:09:46","新北市新店區安祥路109巷1弄59號","121.478133333333","24.9608516666667","6500600","新店區"
"231013","513-UM","2018/11/27 14:09:55","新北市新店區北新路三段65巷14號","121.54088","24.9810883333333","6500600","新店區"
"231034","616-UM","2018/11/27 14:09:50","新北市新店區車子路11號","121.503065","24.952085","6500600","新店區"
"231030","619-UM","2018/11/27 14:09:39","新北市新店區安民街65巷21-2號","121.515178333333","24.967545","6500600","新店區"
"231035","719-UM","2018/11/27 14:09:49","新北市新店區安和路二段115號","121.51881","24.97032","6500600","新店區"
"231032","720-UM","2018/11/27 14:09:44","新北市新店區秀山路43號","121.531498333333","24.96085","6500600","新店區"
"231029","897-TW","2018/11/27 14:09:54","新北市新店區安康路二段161號","121.510111666667","24.9594133333333","6500600","新店區"
"231006","898-TW","2018/11/27 14:09:58","新北市新店區北宜路二段457號","121.56162","24.9541333333333","6500600","新店區"
"231004","899-TW","2018/11/27 14:09:57","新北市新店區北新路二段108號","121.543161666667","24.9742583333333","6500600","新店區"
"235030","003-UY","2018/11/27 14:09:45","新北市中和區廣福路40號","121.504328333333","25.0022133333333","6500300","中和區"
"235027","006-UY","2018/11/27 14:09:51","新北市中和區中正路260號","121.495185","24.99442","6500300","中和區"
"235020","096-UM","2018/11/27 14:09:49","新北市中和區中山路三段1號","121.479996666667","25.0059566666667","6500300","中和區"
"235003","097-UM","2018/11/27 14:09:59","新北市中和區秀峰街119巷6弄2號","121.519666666667","24.9900683333333","6500300","中和區"
"235029","098-UM","2018/11/27 14:09:57","新北市中和區中山路二段64巷16弄2號","121.503263333333","25.00588","6500300","中和區"
"235004","150-BY","2018/11/27 13:41:13","新北市中和區保健路50巷68號","121.50939","24.9950383333333","6500300","中和區"
"235022","151-BY","2018/11/27 14:09:51","新北市中和區連城路477巷6弄18號","121.482538333333","24.9951366666667","6500300","中和區"
"235019","183-VK","2018/11/27 14:09:52","新北市中和區民德路2號","121.468678333333","25.0034216666667","6500300","中和區"
"235002","185-VK","2018/11/27 14:09:55","新北市中和區大仁街10巷9弄27號","121.51922","24.99282","6500300","中和區"
"235013","186-VK","2018/11/27 14:09:39","新北市中和區南華路89號","121.505596666667","24.997395","6500300","中和區"
"235008","293-VK","2018/11/27 14:09:52","新北市中和區中興街202巷2號","121.499453333333","24.9901316666667","6500300","中和區"
"235036","301-VK","2018/11/27 14:09:54","新北市中和區中山路二段257號","121.497366666667","25.00235","6500300","中和區"
"235007","352-BY","2018/11/27 14:09:44","新北市中和區大智街3號","121.519431666667","24.9918283333333","6500300","中和區"
"235006","KEA-2878","2018/11/27 14:09:59","新北市中和區大勇街60巷20號","121.518886666667","24.9946383333333","6500300","中和區"
"247011","KEA-2869","2018/11/27 14:09:49","新北市蘆洲區信義路321號","121.47829","25.0865666666667","6501400","蘆洲區"
"235014","4979-A6","2018/11/27 14:09:41","新北市中和區復興路249巷11弄3號","121.503461666667","24.9897483333333","6500300","中和區"
"235033","4980-A6","2018/11/27 14:09:58","新北市中和區廣福路63號","121.502408333333","25.0010683333333","6500300","中和區"
"235034","558-UM","2018/11/27 14:09:45","新北市中和區中和路27號","121.49988","25.0018283333333","6500300","中和區"
"235009","565-BX","2018/11/27 14:09:46","新北市中和區景新街437巷2弄1號","121.51358","24.9891433333333","6500300","中和區"
"235018","640-BX","2018/11/27 14:09:56","新北市中和區民德路105號","121.468885","25.0007916666667","6500300","中和區"
"235024","647-TV","2018/11/27 14:09:52","新北市中和區中山路三段118號","121.475496666667","25.0061383333333","6500300","中和區"
"235011","732-UM","2018/11/27 14:09:51","新北市中和區興南路一段151號","121.508583333333","24.9872083333333","6500300","中和區"
"235010","733-UM","2018/11/27 14:09:39","新北市中和區忠孝街1巷18號","121.508588333333","24.98387","6500300","中和區"
"235035","783-BX","2018/11/27 14:09:38","新北市中和區建一路66號","121.487936666667","25.00366","6500300","中和區"
"235021","801-TS","2018/11/27 14:09:39","新北市中和區民利街50號","121.479315","24.99885","6500300","中和區"
"235005","802-TS","2018/11/27 14:09:52","新北市中和區宜安路118巷18號","121.51085","24.9985783333333","6500300","中和區"
"235016","805-TS","2018/11/27 14:09:44","新北市中和區興南路二段114巷21弄1號","121.503691666667","24.9844266666667","6500300","中和區"
"235012","896-TW","2018/11/27 14:09:40","新北市中和區工專路147號","121.508371666667","24.9787366666667","6500300","中和區"
"235017","900-TW","2018/11/27 14:09:52","新北市中和區華福街73號","121.467211666667","24.9967266666667","6500300","中和區"
"235015","157-BY","2018/11/27 14:09:56","新北市中和區和平街2巷4弄7號","121.510173333333","24.9909316666667","6500300","中和區"
"235001","AAC-213","2018/11/27 14:09:38","新北市中和區秀朗路三段56號","121.52622","24.9951466666667","6500300","中和區"
"235023","AAC-215","2018/11/27 14:09:50","新北市中和區圓通路294巷17-5號","121.488653333333","24.9904316666667","6500300","中和區"
"220013","072-UY","2018/11/27 14:09:40","新北市板橋區民族路219巷75號","121.468835","25.0090316666667","6500100","板橋區"
"220034","073-UY","2018/11/27 14:09:56","新北市板橋區中正路236巷65號","121.458508333333","25.0195283333333","6500100","板橋區"
"220105","075-UY","2018/11/27 14:09:46","新北市板橋區雙十路三段10巷10號","121.472076666667","25.030695","6500100","板橋區"
"220017","AAD-861","2018/11/27 14:09:47","新北市板橋區華興街26號","121.459151666667","25.004645","6500100","板橋區"
"247001","893-R6","2018/11/27 14:09:38","新北市蘆洲區永平街62號","121.457298333333","25.091755","6501400","蘆洲區"
"247015","546-UM","2018/11/27 14:09:53","新北市蘆洲區光華路46巷22號","121.468286666667","25.08383","6501400","蘆洲區"
"247023","500-BY","2018/11/27 14:09:52","新北市蘆洲區光榮路118-2號","121.464823333333","25.089265","6501400","蘆洲區"
"247013","339-TH","2018/11/27 14:09:53","新北市蘆洲區三民路105號","121.472743333333","25.0859216666667","6501400","蘆洲區"
"247005","337-TH","2018/11/27 14:09:48","新北市蘆洲區永安南路二段16巷14號","121.468028333333","25.07756","6501400","蘆洲區"
"247007","336-TH","2018/11/27 14:09:41","新北市蘆洲區中山一路282號","121.471141666667","25.0788366666667","6501400","蘆洲區"
"247019","057-VK","2018/11/27 14:09:48","新北市蘆洲區仁愛街36巷18號","121.47284","25.0935183333333","6501400","蘆洲區"
"247009","056-VK","2018/11/27 14:09:52","新北市蘆洲區民族路55號","121.47863","25.0855","6501400","蘆洲區"
"247017","007-UY","2018/11/27 14:09:47","新北市蘆洲區民族路203-1號","121.478086666667","25.08919","6501400","蘆洲區"
"247003","002-UY","2018/11/27 14:10:00","新北市蘆洲區長安街108巷5弄2號","121.461345","25.0819016666667","6501400","蘆洲區"
"247021","001-UY","2018/11/27 14:09:52","新北市蘆洲區三民路118號","121.471511666667","25.087075","6501400","蘆洲區"
"228004","212-TW","2018/11/27 14:09:50","新北市貢寮區雙玉里德心街11-1號","121.918795","25.015625","6502600","貢寮區"
"228005","828-UM","2018/11/27 14:09:50","新北市雙溪區三港里雙澳路100號","121.888568333333","25.0562266666667","6502600","貢寮區"
"207002","749-BX","2018/11/27 14:09:48","新北市萬里區溪底里瑞泉路14號","121.60579","25.14722","6502800","萬里區"
"207001","662-BX","2018/11/27 14:09:57","新北市萬里區磺潭里清水18號","121.637765","25.1977716666667","6502800","萬里區"
"252005","AAC-283","2018/11/27 14:09:54","新北市三芝區橫山里大坑98-2號","121.526135","25.2610533333333","6502100","三芝區"
"236065","105-UM","2018/11/27 14:09:49","新北市土城區明德路一段385-1號","121.452591666667","24.97971","6501300","土城區"
"236040","KED-0685","2018/11/27 14:09:58","新北市土城區城林路6巷80號","121.43841","24.9796933333333","6501300","土城區"
"236074","166-UM","2018/11/27 14:09:56","新北市土城區永安街39號","121.433023333333","24.9643533333333","6501300","土城區"
"236029","253-BX","2018/11/27 14:10:00","新北市土城區城林路6巷80號","121.438435","24.9797583333333","6501300","土城區"
"236024","269-VK","2018/11/27 14:09:48","新北市土城區承天路18號","121.43952","24.9634816666667","6501300","土城區"
"236013","270-VK","2018/11/27 14:09:57","新北市土城區學府路一段239號","121.450621666667","24.9836566666667","6501300","土城區"
"236032","271-VK","2018/11/27 14:09:41","新北市土城區青雲路453號","121.458818333333","24.9746266666667","6501300","土城區"
"236017","752-BX","2018/11/27 14:09:14","新北市土城區城林路6巷80號","121.438483333333","24.979825","6501300","土城區"
"236057","912-UM","2018/11/27 14:09:57","新北市土城區中央路四段147號","121.41556","24.9571016666667","6501300","土城區"
"236045","913-UM","2018/11/27 14:09:48","新北市土城區明德路一段365-1號","121.453568333333","24.9790583333333","6501300","土城區"
"236060","915-UM","2018/11/27 14:09:53","新北市土城區金城路二段204號","121.455055","24.981955","6501300","土城區"
"236054","970-R7","2018/11/27 14:09:43","新北市土城區中華路二段106號","121.437996666667","24.974275","6501300","土城區"
"221033","647-BX","2018/11/27 14:09:22","新北市新店區新店路262-3號","121.537428333333","24.9583316666667","6501100","汐止區"
"220027","145-BY","2018/11/27 14:10:00","新北市板橋區民權路260巷21號","121.45872","25.0153383333333","6500100","板橋區"
"220028","200-UY","2018/11/27 14:09:55","新北市板橋區大觀路二段3巷1號","121.44738","25.0038433333333","6500100","板橋區"
"220030","610-BX","2018/11/27 14:09:56","新北市板橋區溪崑二街63號","121.428018333333","24.99036","6500100","板橋區"
"220050","245-BX","2018/11/27 14:09:52","新北市板橋區民生路二段56-6號","121.470888333333","25.01909","6500100","板橋區"
"220004","276-BY","2018/11/27 14:09:56","新北市板橋區信義路148號","121.458766666667","24.991755","6500100","板橋區"
"220020","277-BY","2018/11/27 14:09:43","新北市板橋區金門街369巷10號","121.428828333333","24.9836033333333","6500100","板橋區"
"220012","282-UM","2018/11/27 14:09:40","新北市板橋區板新路128號","121.47095","25.015585","6500100","板橋區"
"220019","283-VK","2018/11/27 14:09:50","新北市板橋區大豐街1號","121.462515","25.00143","6500100","板橋區"
"220043","285-UM","2018/11/27 14:09:50","新北市板橋區光武街157號","121.465416666667","25.02964","6500100","板橋區"
"220031","286-VK","2018/11/27 14:09:51","新北市板橋區大觀路二段174巷165弄18號","121.441286666667","25.0035983333333","6500100","板橋區"
"220029","287-VK","2018/11/27 14:09:58","新北市板橋區南雅西路二段160號","121.451825","25.0134533333333","6500100","板橋區"
"220039","288-VK","2018/11/27 14:09:44","新北市板橋區裕民街23-3號","121.46204","25.0289816666667","6500100","板橋區"
"220032","296-UM","2018/11/27 14:09:47","新北市板橋區溪崑二街22巷9號","121.428246666667","24.9915366666667","6500100","板橋區"
"220001","299-UM","2018/11/27 14:09:48","新北市板橋區懷仁街34巷24號","121.475761666667","25.01904","6500100","板橋區"
"220023","303-R5","2018/11/27 14:09:53","新北市板橋區倉後街6號","121.4557","25.0086766666667","6500100","板橋區"
"220010","305-R5","2018/11/27 14:09:39","新北市板橋區三民路二段居仁巷1弄20號","121.479861666667","25.013565","6500100","板橋區"
"220041","307-R5","2018/11/27 14:09:50","新北市板橋區文化路二段225巷60弄41號","121.469131666667","25.0293816666667","6500100","板橋區"
"220047","317-R6","2018/11/27 14:09:42","新北市板橋區自由路51巷10號","121.465043333333","25.02349","6500100","板橋區"
"220038","487-VK","2018/11/27 14:09:50","新北市板橋區文化路二段474號","121.47504","25.0328683333333","6500100","板橋區"
"220104","560-BX","2018/11/27 14:09:39","新北市板橋區中正路360巷55號","121.456335","25.02281","6500100","板橋區"
"220052","561-BX","2018/11/27 14:09:54","新北市板橋區介壽街84巷48號","121.468846666667","25.0185133333333","6500100","板橋區"
"220011","609-BX","2018/11/27 14:09:28","新北市板橋區三民路二段119號","121.479235","25.0157216666667","6500100","板橋區"
"220040","637-BX","2018/11/27 14:09:48","新北市板橋區縣民大道三段247巷22號","121.481881666667","25.0264616666667","6500100","板橋區"
"220005","686-BX","2018/11/27 14:09:42","新北市板橋區重慶路322-4號","121.463983333333","24.9978583333333","6500100","板橋區"
"220025","687-BX","2018/11/27 14:09:49","新北市板橋區龍興街69號","121.443648333333","25.00162","6500100","板橋區"
"220042","689-BX","2018/11/27 14:09:46","新北市板橋區民生路三段113號","121.46638","25.0254266666667","6500100","板橋區"
"220002","741-BX","2018/11/27 14:09:57","新北市板橋區四川路一段193號","121.461","25.0037383333333","6500100","板橋區"
"220051","KEA-2699","2018/11/27 14:09:42","新北市板橋區田單街49巷1弄15號","121.482668333333","25.028825","6500100","板橋區"
"220003","827-TW","2018/11/27 14:09:56","新北市板橋區新民街6巷16號","121.465045","25.0102033333333","6500100","板橋區"
"220014","829-TW","2018/11/27 14:09:49","新北市板橋區中山路二段90巷43弄20號","121.477043333333","25.015145","6500100","板橋區"
"220016","830-TW","2018/11/27 14:09:47","新北市板橋區三民路一段31巷91弄6號","121.48172","25.0238466666667","6500100","板橋區"
"220045","831-TW","2018/11/27 14:09:56","新北市板橋區大同街8巷12號","121.47714","25.0265016666667","6500100","板橋區"
"220037","833-TW","2018/11/27 14:09:56","新北市板橋區文化路二段182巷3弄30號","121.47217","25.0281416666667","6500100","板橋區"
"220022","895-R6","2018/11/27 14:09:59","新北市板橋區府中路126號","121.454908333333","25.0094333333333","6500100","板橋區"
"220021","985-R7","2018/11/27 14:09:41","新北市板橋區民權路239號","121.457445","25.01562","6500100","板橋區"
"220046","AAC-210","2018/11/27 14:10:00","新北市板橋區幸福路70巷28號","121.460248333333","25.0208883333333","6500100","板橋區"
"220018","AAC-253","2018/11/27 14:09:40","新北市板橋區忠孝路41-1號","121.46116","25.002045","6500100","板橋區"
"235032","KEA-2873","2018/11/27 14:09:46","新北市中和區連勝街57巷21號","121.498053333333","24.9966983333333","6500300","中和區"
"235025","KEA-2875","2018/11/27 14:09:50","新北市中和區員山路143巷20號","121.480168333333","24.9959866666667","6500300","中和區"
"235028","KEA-2876","2018/11/27 14:09:50","新北市中和區中和路40巷2號","121.499783333333","25.00145","6500300","中和區"
