"lineid","car","time","location","longitude","latitude","cityid","cityname"
"234028","746-BX","2018/11/27 14:49:47","新北市五股區中直路9號","121.427663333333","25.1092866666667","6500400","永和區"
"234025","9371-KE","2018/11/27 14:49:41","新北市永和區雙和街52巷1-1號","121.509115","25.003205","6500400","永和區"
"248017","225-UY","2018/11/27 14:42:49","新北市五股區外寮路13-1號","121.424836666667","25.0812433333333","6501500","五股區"
"231002","002-UM","2018/11/27 14:49:51","新北市新店區民權路88號","121.536788333333","24.9830316666667","6500600","新店區"
"231027","0293-UT","2018/11/27 14:49:51","新北市新店區中正路265號","121.538131666667","24.9740516666667","6500600","新店區"
"231028","046-UY","2018/11/27 14:49:59","新北市新店區安德街116巷10號","121.509103333333","24.9609216666667","6500600","新店區"
"231001","047-UY","2018/11/27 14:50:00","新北市新店區三民路183號","121.535096666667","24.9752483333333","6500600","新店區"
"231005","106-UY","2018/11/27 14:49:52","新北市新店區復興路2號","121.532441666667","24.98829","6500600","新店區"
"231020","108-UY","2018/11/27 14:49:57","新北市新店區新烏路二段370號","121.550953333333","24.9098083333333","6500600","新店區"
"231012","187-VK","2018/11/27 14:49:50","新北市新店區永華街32號","121.544578333333","24.9755833333333","6500600","新店區"
"231018","188-VK","2018/11/27 14:49:52","新北市新店區中央六街6號","121.530263333333","24.9743683333333","6500600","新店區"
"231023","KEA-2219","2018/11/27 14:49:48","新北市新店區檳榔路109號","121.544475","24.96175","6500600","新店區"
"231026","256-BX","2018/11/27 14:49:54","新北市新店區安康路一段231號","121.525285","24.9632233333333","6500600","新店區"
"231003","268-BY","2018/11/27 14:49:55","新北市新店區中興路二段121巷1號","121.547493333333","24.9720933333333","6500600","新店區"
"231015","AAD-862","2018/11/27 14:49:53","新北市新店區北宜路三段54號","121.573498333333","24.9514833333333","6500600","新店區"
"231038","3712-VJ","2018/11/27 14:49:39","新北市新店區安華路28-1號","121.519623333333","24.96096","6500600","新店區"
"231037","4716-K9","2018/11/27 14:49:40","新北市新店區柴埕路52巷1-1號","121.511231666667","24.9642433333333","6500600","新店區"
"231025","4715-K9","2018/11/27 14:49:41","新北市新店區大豐路68巷5號","121.538876666667","24.97997","6500600","新店區"
"231036","512-UM","2018/11/27 14:49:46","新北市新店區安祥路104巷6弄36號","121.483098333333","24.9629866666667","6500600","新店區"
"231013","513-UM","2018/11/27 14:49:55","新北市新店區北新路一段311-1號","121.541541666667","24.9679883333333","6500600","新店區"
"231034","616-UM","2018/11/27 14:49:50","新北市新店區玫瑰路4-1號","121.493548333333","24.9514333333333","6500600","新店區"
"231030","619-UM","2018/11/27 14:49:39","新北市新店區安興路102號","121.515373333333","24.976645","6500600","新店區"
"231035","719-UM","2018/11/27 14:48:49","新北市新店區安樂街1號","121.519741666667","24.9738366666667","6500600","新店區"
"231029","897-TW","2018/11/27 14:49:54","新北市新店區錦秀路11巷96弄2號","121.480021666667","24.9420066666667","6500600","新店區"
"231006","898-TW","2018/11/27 14:49:38","新北市新店區北宜路一段109巷2-1號","121.539861666667","24.95483","6500600","新店區"
"231004","899-TW","2018/11/27 14:49:57","新北市新店區建國路133號","121.539263333333","24.97813","6500600","新店區"
"231024","AKT-0513","2018/11/27 14:49:42","新北市新店區中華路83巷67號","121.538341666667","24.9672966666667","6500600","新店區"
"235030","003-UY","2018/11/27 14:49:44","新北市中和區南工路2巷2號","121.505355","25.0001833333333","6500300","中和區"
"235020","096-UM","2018/11/27 14:49:41","新北市中和區中山路三段114巷22號","121.475915","25.006865","6500300","中和區"
"235003","097-UM","2018/11/27 14:49:39","新北市永和區安樂路44號","121.514686666667","24.9969483333333","6500300","中和區"
"235029","098-UM","2018/11/27 14:49:58","新北市中和區永和路92-1號","121.497078333333","25.00546","6500300","中和區"
"235004","150-BY","2018/11/27 14:49:53","新北市中和區忠孝街19巷47號","121.509216666667","24.985095","6500300","中和區"
"235002","185-VK","2018/11/27 14:49:55","新北市中和區自強路38巷1號","121.520225","24.995265","6500300","中和區"
"235013","186-VK","2018/11/27 14:49:58","新北市中和區景平路522號","121.503213333333","24.9940033333333","6500300","中和區"
"235031","255-BX","2018/11/27 14:49:56","新北市中和區中正路751巷3弄4號","121.48433","24.99955","6500300","中和區"
"235008","293-VK","2018/11/27 14:49:51","新北市中和區南山路269號","121.503966666667","24.9925316666667","6500300","中和區"
"235036","301-VK","2018/11/27 14:49:54","新北市中和區中和路71號","121.50058","25.0009733333333","6500300","中和區"
"235007","352-BY","2018/11/27 14:49:44","新北市中和區安和路21號","121.511023333333","24.9939883333333","6500300","中和區"
"247011","KEA-2869","2018/11/27 14:49:48","新北市蘆洲區中山一路247號","121.473091666667","25.0804716666667","6501400","蘆洲區"
"235014","4979-A6","2018/11/27 14:49:41","新北市中和區景平路241巷84弄54號","121.506106666667","24.9923766666667","6500300","中和區"
"235034","558-UM","2018/11/27 14:49:45","新北市中和區連勝街11號","121.498951666667","24.998355","6500300","中和區"
"235018","640-BX","2018/11/27 14:49:56","新北市中和區中山路三段192號","121.472091666667","25.0065233333333","6500300","中和區"
"235024","647-TV","2018/11/27 14:49:52","新北市中和區員山路431號","121.480775","25.0036666666667","6500300","中和區"
"235011","732-UM","2018/11/27 14:49:53","新北市中和區和平街84號","121.507553333333","24.99117","6500300","中和區"
"235010","733-UM","2018/11/27 14:49:39","新北市中和區仁愛街14號","121.510596666667","24.9889766666667","6500300","中和區"
"235035","783-BX","2018/11/27 14:49:38","新北市中和區建一路179號","121.488266666667","24.9986016666667","6500300","中和區"
"235016","805-TS","2018/11/27 14:49:56","新北市中和區華新街144巷5號","121.507688333333","24.9828533333333","6500300","中和區"
"235012","896-TW","2018/11/27 14:49:40","新北市中和區忠孝街35號","121.510631666667","24.98326","6500300","中和區"
"235017","900-TW","2018/11/27 14:49:47","新北市中和區國光街189巷16號","121.467713333333","25.0010416666667","6500300","中和區"
"235015","157-BY","2018/11/27 14:49:56","新北市中和區景安路247巷20號","121.504418333333","24.9904516666667","6500300","中和區"
"235001","AAC-213","2018/11/27 14:49:38","新北市中和區秀朗路三段173-2號","121.52441","24.99141","6500300","中和區"
"235023","AAC-215","2018/11/27 14:49:50","新北市中和區圓通路335巷5弄15號","121.49351","24.99001","6500300","中和區"
"220013","072-UY","2018/11/27 14:49:46","新北市板橋區長安街23號","121.4667","25.0087616666667","6500100","板橋區"
"220034","073-UY","2018/11/27 14:49:56","新北市板橋區南雅西路二段7巷25號","121.45196","25.0094716666667","6500100","板橋區"
"220105","075-UY","2018/11/27 14:49:46","新北市板橋區民治街57巷26號","121.480163333333","25.0338483333333","6500100","板橋區"
"220017","AAD-861","2018/11/27 14:50:02","新北市板橋區大明街13號","121.458963333333","25.0025383333333","6500100","板橋區"
"247001","893-R6","2018/11/27 14:49:58","新北市蘆洲區永康街28號","121.458861666667","25.0856583333333","6501400","蘆洲區"
"247008","336-TH","2018/11/27 14:49:41","新北市蘆洲區中山一路234號","121.47278","25.0802516666667","6501400","蘆洲區"
"228004","212-TW","2018/11/27 14:49:52","新北市貢寮區福隆里裕隆街3-1號","121.946223333333","25.01584","6502600","貢寮區"
"228005","828-UM","2018/11/27 14:49:50","新北市貢寮區美豐里丹裡街69號","121.905258333333","25.0557133333333","6502600","貢寮區"
"207002","749-BX","2018/11/27 14:49:48","新北市萬里區崁腳里崁腳路73號","121.647593333333","25.159605","6502800","萬里區"
"207001","662-BX","2018/11/27 14:48:57","新北市萬里區雙興里豐稟路8號","121.646536666667","25.1824516666667","6502800","萬里區"
"236065","105-UM","2018/11/27 14:49:49","新北市土城區明德路二段99巷2弄4號","121.450328333333","24.9811016666667","6501300","土城區"
"236040","KED-0685","2018/11/27 14:49:58","新北市土城區裕民路136巷6弄3號","121.45065","24.9853383333333","6501300","土城區"
"236074","166-UM","2018/11/27 14:49:56","新北市土城區中央路四段125巷9弄14號","121.41701","24.9575983333333","6501300","土城區"
"236029","253-BX","2018/11/27 14:49:52","新北市土城區忠義路26巷19號","121.439728333333","24.9698233333333","6501300","土城區"
"236024","269-VK","2018/11/27 14:49:48","新北市土城區慶安街44號","121.441213333333","24.9733316666667","6501300","土城區"
"236013","270-VK","2018/11/27 14:49:57","新北市土城區金城路二段360-2號","121.461601666667","24.9851283333333","6501300","土城區"
"236032","271-VK","2018/11/27 14:49:41","新北市土城區仁愛路54巷1-3號","121.462386666667","24.9785966666667","6501300","土城區"
"236017","752-BX","2018/11/27 14:49:35","新北市土城區德峰街37號","121.467356666667","24.9855466666667","6501300","土城區"
"236057","912-UM","2018/11/27 14:49:57","新北市土城區金城路二段14號","121.449385","24.9773783333333","6501300","土城區"
"236045","913-UM","2018/11/27 14:49:48","新北市板橋區信義路208號","121.46013","24.990665","6501300","土城區"
"236060","915-UM","2018/11/27 14:49:53","新北市土城區延和路41巷6弄18號","121.4667","24.9903133333333","6501300","土城區"
"236054","970-R7","2018/11/27 14:49:43","新北市土城區裕民路124號","121.451183333333","24.9864566666667","6501300","土城區"
"221033","647-BX","2018/11/27 14:49:42","新北市汐止區康寧街609號","121.636115","25.0708633333333","6501100","汐止區"
"220027","145-BY","2018/11/27 14:49:40","新北市板橋區大仁街9號","121.455935","25.016995","6500100","板橋區"
"220028","200-UY","2018/11/27 14:49:51","新北市板橋區大觀路二段169巷23號","121.446455","24.99987","6500100","板橋區"
"220030","610-BX","2018/11/27 14:49:46","新北市板橋區溪崑一街86號","121.429051666667","24.9895666666667","6500100","板橋區"
"220050","245-BX","2018/11/27 14:49:52","新北市板橋區莒光路196巷27號","121.472995","25.022535","6500100","板橋區"
"220020","277-BY","2018/11/27 14:49:43","新北市板橋區篤行路二段77巷13-1號","121.432676666667","24.9917416666667","6500100","板橋區"
"220012","282-UM","2018/11/27 14:49:57","新北市板橋區實踐路85號","121.464001666667","25.0056283333333","6500100","板橋區"
"220019","283-VK","2018/11/27 14:49:50","新北市板橋區五權街1-9號","121.463728333333","24.99521","6500100","板橋區"
"220043","285-UM","2018/11/27 14:49:50","新北市板橋區新海路429號","121.458118333333","25.027545","6500100","板橋區"
"220031","286-VK","2018/11/27 14:49:50","新北市板橋區僑中二街10巷13號","121.446385","25.011025","6500100","板橋區"
"220029","287-VK","2018/11/27 14:49:58","新北市板橋區大觀路一段28巷75號","121.450076666667","25.0112133333333","6500100","板橋區"
"220039","288-VK","2018/11/27 14:49:44","新北市板橋區英士路192-1號","121.458236666667","25.0235216666667","6500100","板橋區"
"220009","295-UM","2018/11/27 14:49:59","新北市板橋區板新路112號","121.471401666667","25.01527","6500100","板橋區"
"220032","296-UM","2018/11/27 14:49:47","新北市樹林區博愛街209號","121.424086666667","24.9874366666667","6500100","板橋區"
"220001","299-UM","2018/11/27 14:49:48","新北市板橋區中山路二段60巷1弄13號","121.47475","25.0156","6500100","板橋區"
"220023","303-R5","2018/11/27 14:49:53","新北市板橋區金華街10巷48弄71號","121.459603333333","25.0203633333333","6500100","板橋區"
"220010","305-R5","2018/11/27 14:49:39","新北市板橋區光復街78號","121.482876666667","25.0185416666667","6500100","板橋區"
"220041","307-R5","2018/11/27 14:49:50","新北市板橋區四維路259巷80號","121.459861666667","25.0265033333333","6500100","板橋區"
"220047","317-R6","2018/11/27 14:49:42","新北市板橋區裕民街133巷1號","121.459195","25.0270683333333","6500100","板橋區"
"220038","487-VK","2018/11/27 14:49:49","新北市板橋區龍泉街133號","121.457581666667","25.024005","6500100","板橋區"
"220104","560-BX","2018/11/27 14:49:39","新北市板橋區中正路316號","121.454903333333","25.0208333333333","6500100","板橋區"
"220052","561-BX","2018/11/27 14:49:46","新北市板橋區陽明街29巷29號","121.464041666667","25.0224866666667","6500100","板橋區"
"220011","609-BX","2018/11/27 14:49:48","新北市板橋區三民路一段31巷86號","121.482258333333","25.023625","6500100","板橋區"
"220040","637-BX","2018/11/27 14:49:48","新北市板橋區懷德街191巷28號","121.480573333333","25.0298516666667","6500100","板橋區"
"220005","686-BX","2018/11/27 14:49:42","新北市板橋區信義路63號","121.457085","24.9956166666667","6500100","板橋區"
"220025","687-BX","2018/11/27 14:49:57","新北市板橋區僑中三街15號","121.446251666667","25.0046433333333","6500100","板橋區"
"220042","689-BX","2018/11/27 14:49:51","新北市板橋區長江路二段243號","121.468866666667","25.0327366666667","6500100","板橋區"
"220002","741-BX","2018/11/27 14:49:57","新北市板橋區忠孝路201巷101號","121.464541666667","25.00514","6500100","板橋區"
"220051","KEA-2699","2018/11/27 14:49:44","新北市板橋區松柏街33巷9號","121.474916666667","25.0306683333333","6500100","板橋區"
"220003","827-TW","2018/11/27 14:49:56","新北市板橋區仁愛路86巷24號","121.460668333333","24.9986666666667","6500100","板橋區"
"220014","829-TW","2018/11/27 14:49:49","新北市板橋區長安街331巷93弄1-4號","121.472113333333","25.012455","6500100","板橋區"
"220016","830-TW","2018/11/27 14:49:53","新北市板橋區光復街172巷4弄1號","121.485325","25.019315","6500100","板橋區"
"220045","831-TW","2018/11/27 14:49:52","新北市板橋區莒光路16巷4號","121.469626666667","25.024495","6500100","板橋區"
"220037","833-TW","2018/11/27 14:49:56","新北市板橋區仁化街103號","121.476551666667","25.0321833333333","6500100","板橋區"
"220022","895-R6","2018/11/27 14:49:45","新北市板橋區文化路一段46巷42號","121.460605","25.0111916666667","6500100","板橋區"
"220021","985-R7","2018/11/27 14:49:41","新北市板橋區南雅西路二段269號","121.451828333333","25.0150266666667","6500100","板橋區"
"220046","AAC-210","2018/11/27 14:50:00","新北市板橋區漢生西路58巷8號","121.463443333333","25.0189466666667","6500100","板橋區"
"220018","AAC-253","2018/11/27 14:50:00","新北市板橋區民族路67號","121.465356666667","25.0087533333333","6500100","板橋區"
"235032","KEA-2873","2018/11/27 14:49:46","新北市中和區福祥路85巷2弄5號","121.498575","25.0060116666667","6500300","中和區"
"235061","KEA-2875","2018/11/27 14:47:47","新北市中和區員山路36巷13號","121.484328333333","24.9911566666667","6500300","中和區"
