"lineid","car","time","location","longitude","latitude","cityid","cityname"
"248017","225-UY","2018/11/27 14:59:49","新北市五股區登林路106巷6號","121.427008333333","25.0708666666667","6501500","五股區"
"231002","002-UM","2018/11/27 14:59:51","新北市新店區民權路89號","121.537905","24.9828916666667","6500600","新店區"
"231027","0293-UT","2018/11/27 14:59:51","新北市新店區中央路208號","121.530195","24.9738833333333","6500600","新店區"
"231028","046-UY","2018/11/27 14:59:59","新北市新店區安康路二段308-1號","121.506996666667","24.95824","6500600","新店區"
"231001","047-UY","2018/11/27 15:00:00","新北市新店區中正路272號","121.538911666667","24.9735933333333","6500600","新店區"
"231005","106-UY","2018/11/27 14:59:58","新北市新店區寶慶街66號","121.542031666667","24.986905","6500600","新店區"
"231020","108-UY","2018/11/27 14:59:57","新北市新店區永福路42號","121.555481666667","24.9288416666667","6500600","新店區"
"231012","187-VK","2018/11/27 14:59:50","新北市新店區中興路三段88號","121.546033333333","24.9779566666667","6500600","新店區"
"231018","188-VK","2018/11/27 14:59:52","新北市新店區中央六街6號","121.530246666667","24.9743433333333","6500600","新店區"
"231023","KEA-2219","2018/11/27 14:59:48","新北市新店區檳榔路109號","121.544493333333","24.96171","6500600","新店區"
"231026","256-BX","2018/11/27 14:59:54","新北市新店區博愛街11巷2號","121.540973333333","24.9732416666667","6500600","新店區"
"231003","268-BY","2018/11/27 14:59:55","新北市新店區中興路二段100巷2號","121.547263333333","24.97113","6500600","新店區"
"231015","AAD-862","2018/11/27 14:59:54","新北市新店區明山路45號","121.563488333333","24.95576","6500600","新店區"
"231038","3712-VJ","2018/11/27 14:59:39","新北市新店區安華路28-1號","121.519876666667","24.9606483333333","6500600","新店區"
"231037","4716-K9","2018/11/27 14:59:40","新北市新店區柴埕路60巷2號","121.50975","24.9642833333333","6500600","新店區"
"231025","4715-K9","2018/11/27 14:59:41","新北市新店區二十張路46巷37弄7號","121.536228333333","24.9818066666667","6500600","新店區"
"231036","512-UM","2018/11/27 14:59:46","新北市新店區安祥路102巷42弄23號","121.485128333333","24.9640366666667","6500600","新店區"
"231013","513-UM","2018/11/27 14:59:55","新北市新店區永業路81巷1弄1-1號","121.529446666667","24.9493866666667","6500600","新店區"
"231034","616-UM","2018/11/27 14:59:50","新北市新店區玫瑰路4-1號","121.493578333333","24.95147","6500600","新店區"
"231030","619-UM","2018/11/27 14:59:59","新北市新店區安民街341-1號","121.516875","24.97492","6500600","新店區"
"231039","718-UY","2018/11/27 14:59:40","新北市新店區寶中路45-3號","121.545233333333","24.97898","6500600","新店區"
"231035","719-UM","2018/11/27 14:59:49","新北市新店區安和路二段240號","121.516668333333","24.978665","6500600","新店區"
"231032","720-UM","2018/11/27 14:59:44","新北市新店區安泰路20號","121.485513333333","24.948655","6500600","新店區"
"231029","897-TW","2018/11/27 14:59:54","新北市新店區錦秀路61號","121.479031666667","24.943145","6500600","新店區"
"231006","898-TW","2018/11/27 14:59:58","新北市新店區新坡一街72號","121.548923333333","24.9645433333333","6500600","新店區"
"231004","899-TW","2018/11/27 14:59:57","新北市新店區民族路12號","121.54164","24.9789166666667","6500600","新店區"
"231024","AKT-0513","2018/11/27 14:59:42","新北市新店區中華路83巷67號","121.538316666667","24.967325","6500600","新店區"
"235030","003-UY","2018/11/27 14:59:44","新北市中和區光華街7號","121.50438","25.0043483333333","6500300","中和區"
"235020","096-UM","2018/11/27 14:59:54","新北市中和區中山路三段176號","121.47272","25.0063866666667","6500300","中和區"
"235003","097-UM","2018/11/27 14:59:55","新北市中和區宜安路52巷1號","121.511976666667","24.9969266666667","6500300","中和區"
"235029","098-UM","2018/11/27 14:59:58","新北市中和區福美路312巷8號","121.496641666667","25.0052533333333","6500300","中和區"
"235004","150-BY","2018/11/27 14:59:53","新北市中和區忠孝街19巷47號","121.509216666667","24.985095","6500300","中和區"
"235013","186-VK","2018/11/27 14:59:39","新北市中和區景平路558號","121.502161666667","24.9949566666667","6500300","中和區"
"235031","255-BX","2018/11/27 14:59:56","新北市板橋區三民路二段220巷22號","121.477778333333","25.0116416666667","6500300","中和區"
"235008","293-VK","2018/11/27 14:59:51","新北市中和區中正路190-1號","121.49788","24.9939066666667","6500300","中和區"
"235036","301-VK","2018/11/27 14:59:54","新北市中和區板南路399巷2號","121.493515","24.9987833333333","6500300","中和區"
"235007","352-BY","2018/11/27 14:59:44","新北市中和區興南路二段22-3號","121.507515","24.9857583333333","6500300","中和區"
"247011","KEA-2869","2018/11/27 14:59:48","新北市五股區中興路三段163號","121.449033333333","25.0806733333333","6501400","蘆洲區"
"235014","4979-A6","2018/11/27 14:59:41","新北市中和區景平路155號","121.51346","24.9919083333333","6500300","中和區"
"235034","558-UM","2018/11/27 14:59:45","新北市中和區圓通路162-5號","121.49748","24.99509","6500300","中和區"
"235018","640-BX","2018/11/27 14:59:56","新北市中和區民安街148號","121.477565","24.999905","6500300","中和區"
"235010","733-UM","2018/11/27 14:59:47","新北市中和區興南路一段105巷20弄6號","121.510328333333","24.985565","6500300","中和區"
"235035","783-BX","2018/11/27 14:59:58","新北市中和區民樂路81號","121.485005","25.0014483333333","6500300","中和區"
"235012","896-TW","2018/11/27 15:00:00","新北市中和區忠孝街1巷2-1號","121.509193333333","24.9831533333333","6500300","中和區"
"235015","157-BY","2018/11/27 14:59:56","新北市中和區復興路265號","121.502793333333","24.9903","6500300","中和區"
"235001","AAC-213","2018/11/27 14:59:58","新北市中和區立人街1號","121.521955","24.993885","6500300","中和區"
"235023","AAC-215","2018/11/27 14:59:50","新北市中和區圓通路282號","121.49165","24.9906316666667","6500300","中和區"
"220013","072-UY","2018/11/27 14:59:40","新北市板橋區中山路一段154巷25號","121.465433333333","25.01049","6500100","板橋區"
"220105","075-UY","2018/11/27 14:59:45","新北市板橋區文聖街11巷25號","121.476053333333","25.032975","6500100","板橋區"
"220017","AAD-861","2018/11/27 14:59:41","新北市板橋區大明街20巷19弄8號","121.458355","25.0033266666667","6500100","板橋區"
"247008","336-TH","2018/11/27 14:59:28","新北市五股區中興路三段2巷10號","121.449215","25.08103","6501400","蘆洲區"
"228004","212-TW","2018/11/27 14:59:50","新北市貢寮區雙玉里田寮洋街25-4號","121.930515","25.0178333333333","6502600","貢寮區"
"228005","828-UM","2018/11/27 14:59:50","新北市貢寮區仁理村仁和路188號","121.923461666667","25.052565","6502600","貢寮區"
"207002","749-BX","2018/11/27 14:59:48","新北市萬里區崁腳里崁腳路60-1號","121.647746666667","25.1613816666667","6502800","萬里區"
"207001","662-BX","2018/11/27 14:59:57","新北市萬里區雙興里二坪路11號","121.646178333333","25.1750366666667","6502800","萬里區"
"236065","105-UM","2018/11/27 14:59:49","新北市土城區裕生路84巷2號","121.447343333333","24.9854316666667","6501300","土城區"
"236040","KED-0685","2018/11/27 14:59:58","新北市土城區裕民路181號","121.453441666667","24.9846133333333","6501300","土城區"
"236074","166-UM","2018/11/27 14:59:55","新北市土城區中央路四段146號","121.417256666667","24.95836","6501300","土城區"
"236029","253-BX","2018/11/27 15:00:00","新北市土城區福仁街79-1號","121.439228333333","24.9740683333333","6501300","土城區"
"236024","269-VK","2018/11/27 14:59:48","新北市土城區中正路74巷6弄2號","121.444688333333","24.9748733333333","6501300","土城區"
"236013","270-VK","2018/11/27 14:59:37","新北市土城區永豐路29巷7號","121.4633","24.9883916666667","6501300","土城區"
"236032","271-VK","2018/11/27 15:00:01","新北市土城區清水路139號","121.458313333333","24.9817633333333","6501300","土城區"
"236017","752-BX","2018/11/27 14:59:59","新北市土城區延安街35巷18號","121.468728333333","24.98459","6501300","土城區"
"236057","912-UM","2018/11/27 14:59:57","新北市土城區金城路二段236號","121.456686666667","24.9829916666667","6501300","土城區"
"236045","913-UM","2018/11/27 14:59:48","新北市土城區青雲路318-1號","121.458918333333","24.9778366666667","6501300","土城區"
"236054","970-R7","2018/11/27 14:59:54","新北市土城區學成路58號","121.452228333333","24.9877716666667","6501300","土城區"
"221033","647-BX","2018/11/27 14:59:42","新北市汐止區汐萬路二段275巷3弄1號","121.645238333333","25.088815","6501100","汐止區"
"220027","145-BY","2018/11/27 15:00:00","新北市板橋區南雅西路二段211號","121.451261666667","25.0135816666667","6500100","板橋區"
"220030","610-BX","2018/11/27 14:59:49","新北市板橋區篤行路二段109號","121.431406666667","24.9910666666667","6500100","板橋區"
"220050","245-BX","2018/11/27 14:59:53","新北市板橋區縣民大道三段79巷14號","121.475183333333","25.02218","6500100","板橋區"
"220020","277-BY","2018/11/27 14:59:53","新北市板橋區金門街117-2號","121.433105","24.99181","6500100","板橋區"
"220012","282-UM","2018/11/27 14:59:57","新北市板橋區區運路11號","121.465396666667","25.0098583333333","6500100","板橋區"
"220019","283-VK","2018/11/27 14:59:50","新北市板橋區干城路167號","121.460995","24.9918","6500100","板橋區"
"220043","285-UM","2018/11/27 14:59:51","新北市板橋區文德路42號","121.462005","25.024075","6500100","板橋區"
"220031","286-VK","2018/11/27 14:59:50","新北市板橋區僑中二街88巷27號","121.444946666667","25.009575","6500100","板橋區"
"220029","287-VK","2018/11/27 14:59:58","新北市板橋區僑中一街124巷18弄21號","121.447083333333","25.013635","6500100","板橋區"
"220039","288-VK","2018/11/27 14:59:44","新北市板橋區新海路116號","121.461253333333","25.022725","6500100","板橋區"
"220009","295-UM","2018/11/27 14:59:51","新北市板橋區民生路二段89-1號","121.471285","25.01801","6500100","板橋區"
"220001","299-UM","2018/11/27 14:59:48","新北市板橋區永豐街159號","121.475365","25.0203366666667","6500100","板橋區"
"220010","305-R5","2018/11/27 14:59:39","新北市板橋區中山路二段133號","121.475293333333","25.0164666666667","6500100","板橋區"
"220041","307-R5","2018/11/27 14:59:50","新北市板橋區英士路76號","121.460136666667","25.0244316666667","6500100","板橋區"
"220047","317-R6","2018/11/27 14:59:42","新北市板橋區新海路137號","121.460221666667","25.0235916666667","6500100","板橋區"
"220038","487-VK","2018/11/27 14:59:56","新北市板橋區龍泉街108巷11號","121.45633","25.0243916666667","6500100","板橋區"
"220052","561-BX","2018/11/27 14:59:43","新北市板橋區文化路一段435巷31弄1號","121.466816666667","25.02299","6500100","板橋區"
"220011","609-BX","2018/11/27 14:59:48","新北市板橋區中山路二段318巷4號","121.480168333333","25.019255","6500100","板橋區"
"220040","637-BX","2018/11/27 14:59:48","新北市板橋區民治街117號","121.478421666667","25.0308533333333","6500100","板橋區"
"220025","687-BX","2018/11/27 14:59:57","新北市板橋區僑中一街150號","121.444791666667","25.0121416666667","6500100","板橋區"
"220042","689-BX","2018/11/27 14:59:46","新北市板橋區長江路三段122號","121.475251666667","25.034445","6500100","板橋區"
"220051","KEA-2699","2018/11/27 14:59:42","新北市板橋區文聖街49號","121.476436666667","25.03141","6500100","板橋區"
"220003","827-TW","2018/11/27 14:59:56","新北市板橋區國慶路167巷13號","121.461901666667","24.9970583333333","6500100","板橋區"
"220014","829-TW","2018/11/27 14:59:49","新北市板橋區中山路一段206巷89號","121.47201","25.01322","6500100","板橋區"
"220016","830-TW","2018/11/27 14:59:49","新北市板橋區中山路二段359號","121.479575","25.0190566666667","6500100","板橋區"
"220045","831-TW","2018/11/27 14:59:50","新北市板橋區民生路二段226巷46號","121.471778333333","25.0221566666667","6500100","板橋區"
"220037","833-TW","2018/11/27 14:59:56","新北市板橋區懷德街181巷3號","121.479446666667","25.0300883333333","6500100","板橋區"
"220022","895-R6","2018/11/27 14:59:59","新北市板橋區府中路57號","121.45843","25.0094783333333","6500100","板橋區"
"220021","985-R7","2018/11/27 15:00:00","新北市板橋區館前西路168-1號","121.452133333333","25.00858","6500100","板橋區"
"220046","AAC-210","2018/11/27 15:00:00","新北市板橋區文化路一段221巷10-3號","121.463246666667","25.017865","6500100","板橋區"
"220018","AAC-253","2018/11/27 14:59:40","新北市板橋區四川路一段127號","121.459828333333","25.0046716666667","6500100","板橋區"
"235032","KEA-2873","2018/11/27 14:59:46","新北市中和區永和路39巷2號","121.498006666667","25.0050083333333","6500300","中和區"
"235061","KEA-2875","2018/11/27 14:47:47","新北市中和區員山路36巷13號","121.484328333333","24.9911566666667","6500300","中和區"
