"lineid","car","time","location","longitude","latitude","cityid","cityname"
"248017","225-UY","2018/11/27 15:09:49","新北市五股區登林路99-1號","121.412673333333","25.0768233333333","6501500","五股區"
"244002","248-BX","2018/11/27 15:09:44","新北市林口區竹林路266號","121.38967","25.080875","6501700","林口區"
"231002","002-UM","2018/11/27 15:09:51","新北市新店區中正路543-4號","121.533648333333","24.98749","6500600","新店區"
"231028","046-UY","2018/11/27 15:09:38","新北市新店區僑信路113號","121.500625","24.9462066666667","6500600","新店區"
"231001","047-UY","2018/11/27 15:09:40","新北市新店區中正路268號","121.538965","24.9735633333333","6500600","新店區"
"231005","106-UY","2018/11/27 15:09:52","新北市新店區北新路三段128號","121.541563333333","24.9818466666667","6500600","新店區"
"231020","108-UY","2018/11/27 15:09:57","新北市新店區永福路61號","121.558018333333","24.9287833333333","6500600","新店區"
"231012","187-VK","2018/11/27 15:09:50","新北市新店區寶元路一段65號","121.542248333333","24.9858366666667","6500600","新店區"
"231018","188-VK","2018/11/27 15:09:52","新北市新店區中央七街101號","121.526086666667","24.9774666666667","6500600","新店區"
"231023","KEA-2219","2018/11/27 15:09:48","新北市新店區檳榔路109號","121.544326666667","24.9616016666667","6500600","新店區"
"231026","256-BX","2018/11/27 15:09:54","新北市新店區建安街15巷1號","121.539728333333","24.9754533333333","6500600","新店區"
"231003","268-BY","2018/11/27 15:09:55","新北市新店區寶橋路103號","121.54832","24.9768983333333","6500600","新店區"
"231015","AAD-862","2018/11/27 15:09:53","新北市新店區明山路29號","121.564981666667","24.956835","6500600","新店區"
"231038","3712-VJ","2018/11/27 15:09:59","新北市新店區安華路28-1號","121.519633333333","24.9609283333333","6500600","新店區"
"231025","4715-K9","2018/11/27 15:09:41","新北市新店區中央路151號","121.529343333333","24.9724466666667","6500600","新店區"
"231036","512-UM","2018/11/27 15:09:46","新北市新店區安祥路104巷11弄17號","121.48086","24.9632383333333","6500600","新店區"
"231013","513-UM","2018/11/27 15:09:54","新北市新店區永業路81巷1弄1-1號","121.529468333333","24.9493983333333","6500600","新店區"
"231034","616-UM","2018/11/27 15:09:50","新北市新店區玫瑰路4-1號","121.493568333333","24.9514816666667","6500600","新店區"
"231030","619-UM","2018/11/27 15:09:39","新北市新店區安民街341-1號","121.516873333333","24.9748966666667","6500600","新店區"
"231039","718-UY","2018/11/27 15:09:40","新北市新店區中興路三段248號","121.543048333333","24.9839533333333","6500600","新店區"
"231035","719-UM","2018/11/27 15:09:49","新北市新店區永安街34巷12號","121.517973333333","24.98593","6500600","新店區"
"231032","720-UM","2018/11/27 15:09:49","新北市新店區安泰路45巷16號","121.48569","24.947065","6500600","新店區"
"231029","897-TW","2018/11/27 15:09:54","新北市新店區安康路三段740號","121.473806666667","24.94199","6500600","新店區"
"231006","898-TW","2018/11/27 15:09:58","新北市新店區新坡一街18巷1弄1號","121.549223333333","24.9617383333333","6500600","新店區"
"231004","899-TW","2018/11/27 15:09:57","新北市新店區建國路4號","121.539786666667","24.97333","6500600","新店區"
"231024","AKT-0513","2018/11/27 15:09:42","新北市新店區北新路一段297巷25號","121.540568333333","24.9680366666667","6500600","新店區"
"235030","003-UY","2018/11/27 15:09:44","新北市中和區中山路二段3巷52號","121.507466666667","25.0049","6500300","中和區"
"235004","150-BY","2018/11/27 15:09:53","新北市中和區忠孝街19巷47號","121.509216666667","24.985095","6500300","中和區"
"235013","186-VK","2018/11/27 15:09:58","新北市中和區錦和路57號","121.488675","24.998655","6500300","中和區"
"235007","352-BY","2018/11/27 15:09:44","新北市中和區興南路二段159巷12號","121.505091666667","24.9830016666667","6500300","中和區"
"235014","4979-A6","2018/11/27 15:09:59","新北市中和區景新街313號","121.511113333333","24.9923616666667","6500300","中和區"
"235034","558-UM","2018/11/27 15:09:45","新北市中和區中正路436號","121.491145","24.9943","6500300","中和區"
"235018","640-BX","2018/11/27 15:09:56","新北市中和區員山路36巷13號","121.484216666667","24.991205","6500300","中和區"
"235035","783-BX","2018/11/27 15:09:58","新北市中和區中板路47巷10號","121.482093333333","25.010975","6500300","中和區"
"235012","896-TW","2018/11/27 15:10:00","新北市中和區興南路一段143號","121.508768333333","24.9874133333333","6500300","中和區"
"235001","AAC-213","2018/11/27 15:09:38","新北市中和區自強路52號","121.520105","24.9947866666667","6500300","中和區"
"235023","AAC-215","2018/11/27 15:09:50","新北市中和區圓通路367巷13弄19號","121.492911666667","24.9884066666667","6500300","中和區"
"247008","336-TH","2018/11/27 14:59:28","新北市五股區中興路三段2巷10號","121.449215","25.08103","6501400","蘆洲區"
"228004","212-TW","2018/11/27 15:09:57","新北市貢寮區雙玉里田寮洋街16-2號","121.922003333333","25.0251266666667","6502600","貢寮區"
"228005","828-UM","2018/11/27 15:09:50","新北市貢寮區仁理村研海街20號","121.929113333333","25.0369083333333","6502600","貢寮區"
"207002","749-BX","2018/11/27 15:09:48","新北市萬里區崁腳里內中福路66號","121.655318333333","25.1668316666667","6502800","萬里區"
"207001","662-BX","2018/11/27 15:09:57","新北市萬里區雙興里麗水路8號","121.64918","25.1879633333333","6502800","萬里區"
"236065","105-UM","2018/11/27 15:09:49","新北市土城區學府路一段129巷26號","121.454551666667","24.985855","6501300","土城區"
"236040","KED-0685","2018/11/27 15:09:58","新北市土城區裕民路285號","121.456138333333","24.9817433333333","6501300","土城區"
"236074","166-UM","2018/11/27 15:09:55","新北市土城區中州路27巷14-2號","121.41335","24.95742","6501300","土城區"
"236029","253-BX","2018/11/27 15:10:00","新北市土城區福祥街43號","121.440751666667","24.979765","6501300","土城區"
"236024","269-VK","2018/11/27 15:09:48","新北市土城區中央路二段149巷23號","121.442808333333","24.976775","6501300","土城區"
"236013","270-VK","2018/11/27 15:09:57","新北市土城區學府路一段70號","121.456723333333","24.98833","6501300","土城區"
"236032","271-VK","2018/11/27 15:09:41","新北市土城區國際路127-7號","121.4679","24.9759816666667","6501300","土城區"
"236017","752-BX","2018/11/27 15:09:58","新北市土城區峰廷街3號","121.469195","24.9874166666667","6501300","土城區"
"236057","912-UM","2018/11/27 15:09:57","新北市土城區忠義路46號","121.44063","24.9695516666667","6501300","土城區"
"236045","913-UM","2018/11/27 15:09:48","新北市土城區清水路221號","121.460726666667","24.982145","6501300","土城區"
"236060","915-UM","2018/11/27 15:09:53","新北市土城區延和路105巷5弄2號","121.467168333333","24.991235","6501300","土城區"
"236054","970-R7","2018/11/27 15:09:43","新北市土城區學府路一段276號","121.450211666667","24.98336","6501300","土城區"
"220030","610-BX","2018/11/27 15:09:46","新北市板橋區大觀路二段435-10號","121.444646666667","24.9943416666667","6500100","板橋區"
"220050","245-BX","2018/11/27 15:09:55","新北市板橋區萬板路150號","121.475435","25.0234533333333","6500100","板橋區"
"220020","277-BY","2018/11/27 15:09:43","新北市樹林區八德街395號","121.415993333333","24.97151","6500100","板橋區"
"220012","282-UM","2018/11/27 15:09:57","新北市板橋區長安街331巷2號","121.474393333333","25.012145","6500100","板橋區"
"220019","283-VK","2018/11/27 15:09:50","新北市板橋區華東街1-10號","121.448555","24.9950216666667","6500100","板橋區"
"220031","286-VK","2018/11/27 15:09:50","新北市板橋區僑中二街100巷32號","121.444695","25.0087083333333","6500100","板橋區"
"220029","287-VK","2018/11/27 15:09:58","新北市板橋區僑中一街80巷1弄2號","121.447473333333","25.01195","6500100","板橋區"
"220009","295-UM","2018/11/27 15:09:51","新北市板橋區四川路一段29號","121.459485","25.0067533333333","6500100","板橋區"
"220041","307-R5","2018/11/27 15:09:50","新北市板橋區文化路一段39號","121.460463333333","25.0131816666667","6500100","板橋區"
"220047","317-R6","2018/11/27 15:09:51","新北市板橋區新海路72巷47號","121.461841666667","25.0231983333333","6500100","板橋區"
"220038","487-VK","2018/11/27 15:09:49","新北市板橋區新海路405號","121.458585","25.0268466666667","6500100","板橋區"
"220052","561-BX","2018/11/27 15:09:43","新北市板橋區英士路58巷26號","121.460776666667","25.0255966666667","6500100","板橋區"
"220011","609-BX","2018/11/27 15:09:48","新北市板橋區三民路一段72號","121.47941","25.0221716666667","6500100","板橋區"
"220025","687-BX","2018/11/27 15:09:57","新北市板橋區僑中一街124巷63號","121.446745","25.0169633333333","6500100","板橋區"
"220042","689-BX","2018/11/27 15:09:46","新北市板橋區長江路二段67號","121.46476","25.031515","6500100","板橋區"
"220051","KEA-2699","2018/11/27 15:09:42","新北市板橋區民治街132號","121.477695","25.0308416666667","6500100","板橋區"
"220014","829-TW","2018/11/27 15:09:49","新北市板橋區中山路二段265號","121.477606666667","25.0176783333333","6500100","板橋區"
"220016","830-TW","2018/11/27 15:09:48","新北市板橋區光復街234-1號","121.48472","25.02148","6500100","板橋區"
"220037","833-TW","2018/11/27 15:09:56","新北市板橋區民治街92-1號","121.47916","25.0317583333333","6500100","板橋區"
"220046","AAC-210","2018/11/27 15:09:40","新北市板橋區光正街45巷2弄4號","121.461716666667","25.0175616666667","6500100","板橋區"
"220018","AAC-253","2018/11/27 15:10:00","新北市板橋區四川路二段245巷49號","121.452038333333","24.9924466666667","6500100","板橋區"
"235032","KEA-2873","2018/11/27 15:09:46","新北市中和區錦和路142巷3號","121.48908","24.997515","6500300","中和區"
"235061","KEA-2875","2018/11/27 14:47:47","新北市中和區員山路36巷13號","121.484328333333","24.9911566666667","6500300","中和區"
