"lineid","car","time","location","longitude","latitude","cityid","cityname"
"249005","172-UM","2018/11/27 16:49:29","新北市八里區大堀湖1-5號","121.422835","25.15497","6502300","八里區"
"249004","303-UY","2018/11/27 16:49:29","新北市八里區博物館路202巷46號","121.406425","25.1605533333333","6502300","八里區"
"249002","305-UY","2018/11/27 16:49:29","新北市八里區牛寮埔31號","121.429866666667","25.145715","6502300","八里區"
"249003","593-UM","2018/11/27 16:49:20","新北市八里區中山路二段289號","121.401585","25.1486333333333","6502300","八里區"
"231046","107-UY","2018/11/27 16:49:13","新北市新店區灣潭路15-6號","121.542063333333","24.94113","6500600","新店區"
"241011","013-R5","2018/11/27 16:49:12","新北市三重區仁愛街53巷177號","121.500201666667","25.0728333333333","6500200","三重區"
"241028","022-UY","2018/11/27 16:49:17","新北市三重區光興街91號","121.49742","25.0599266666667","6500200","三重區"
"241008","059-VK","2018/11/27 16:49:26","新北市三重區永安北路一段3巷29號","121.47733","25.07476","6500200","三重區"
"241022","060-VK","2018/11/27 16:49:26","新北市三重區貴陽街47巷2號","121.484873333333","25.0630216666667","6500200","三重區"
"241031","061-VK","2018/11/27 16:49:22","新北市三重區過圳街5號","121.48903","25.0587833333333","6500200","三重區"
"241015","062-VK","2018/11/27 16:49:30","新北市三重區長元西街1號","121.498775","25.06562","6500200","三重區"
"241017","063-VK","2018/11/27 16:49:17","新北市三重區大同北路97-3號","121.494305","25.063615","6500200","三重區"
"241024","065-VK","2018/11/27 16:49:21","新北市三重區中正北路315巷6弄9號","121.474943333333","25.0719016666667","6500200","三重區"
"241026","066-VK","2018/11/27 16:49:13","新北市三重區中央南路37號","121.501358333333","25.0619983333333","6500200","三重區"
"241002","090-VK","2018/11/27 16:49:25","新北市三重區仁義街143巷10號","121.497478333333","25.0806816666667","6500200","三重區"
"241003","091-VK","2018/11/27 16:49:24","新北市三重區五華街141巷58號","121.493583333333","25.0868016666667","6500200","三重區"
"241005","262-UM","2018/11/27 16:49:30","新北市三重區仁安街55號","121.484066666667","25.08399","6500200","三重區"
"241016","265-UM","2018/11/27 16:49:22","新北市三重區大同北路135巷38號","121.493716666667","25.06491","6500200","三重區"
"241018","268-UM","2018/11/27 16:49:25","新北市三重區安慶街149巷13號","121.494336666667","25.0692533333333","6500200","三重區"
"241032","269-UM","2018/11/27 16:49:22","新北市三重區三光街30巷2號","121.484705","25.0605266666667","6500200","三重區"
"241013","270-UM","2018/11/27 16:49:27","新北市三重區仁愛街81-1號","121.495926666667","25.0731916666667","6500200","三重區"
"241025","271-UM","2018/11/27 16:49:21","新北市三重區中正北路530巷27號","121.47202","25.0702133333333","6500200","三重區"
"241007","398-BY","2018/11/27 16:49:11","新北市三重區三和路四段181巷70號","121.48414","25.0794566666667","6500200","三重區"
"241004","475-VK","2018/11/27 16:49:21","新北市三重區仁愛街397巷11號","121.491765","25.0813033333333","6500200","三重區"
"241030","480-VK","2018/11/27 16:49:13","新北市三重區新興路16號","121.492311666667","25.0530466666667","6500200","三重區"
"241014","543-UM","2018/11/27 16:49:13","新北市三重區長壽街120巷11號","121.50247","25.06916","6500200","三重區"
"241023","545-UM","2018/11/27 16:49:18","新北市三重區新北大道一段206巷16號","121.482506666667","25.0622116666667","6500200","三重區"
"241001","547-UM","2018/11/27 16:49:24","新北市三重區仁政街54巷25號","121.492303333333","25.0767716666667","6500200","三重區"
"241019","KEA-2593","2018/11/27 16:49:21","新北市三重區三張街149巷15號","121.486653333333","25.0700933333333","6500200","三重區"
"241006","AAD-863","2018/11/27 16:49:25","新北市三重區力行路二段158號","121.482763333333","25.0763016666667","6500200","三重區"
"241020","743-BX","2018/11/27 16:49:30","新北市三重區忠孝路二段34號","121.48573","25.07098","6500200","三重區"
"241009","887-TS","2018/11/27 16:49:30","新北市三重區溪尾街218巷8號","121.487538333333","25.08135","6500200","三重區"
"241012","941-UM","2018/11/27 16:49:19","新北市三重區仁壽街216號","121.501763333333","25.0751","6500200","三重區"
"241029","942-UM","2018/11/27 16:49:18","新北市三重區集美街257號","121.492436666667","25.0556233333333","6500200","三重區"
"235054","640-BX","2018/11/27 16:49:16","新北市中和區員山路36巷16號","121.484666666667","24.9918966666667","6500300","中和區"
"247016","546-UM","2018/11/27 16:49:27","新北市蘆洲區中正路69號","121.470403333333","25.082725","6501400","蘆洲區"
"247006","337-TH","2018/11/27 16:49:18","新北市蘆洲區永安南路二段132-1號","121.462578333333","25.0785883333333","6501400","蘆洲區"
"247008","336-TH","2018/11/27 16:49:27","新北市蘆洲區中山二路45巷30號","121.474296666667","25.08114","6501400","蘆洲區"
"247020","057-VK","2018/11/27 16:49:15","新北市蘆洲區民族路422巷14號","121.474138333333","25.0921466666667","6501400","蘆洲區"
"247004","002-UY","2018/11/27 16:49:16","新北市蘆洲區長榮路151號","121.461768333333","25.0839816666667","6501400","蘆洲區"
"247022","001-UY","2018/11/27 16:49:30","新北市蘆洲區仁愛街252號","121.465953333333","25.0931833333333","6501400","蘆洲區"
"228002","663-BX","2018/11/27 16:49:30","新北市貢寮區貢寮里朝陽街134號","121.907481666667","25.0224416666667","6502600","貢寮區"
"228003","828-UM","2018/11/27 16:49:31","新北市貢寮區貢寮里朝陽街1-2號","121.912376666667","25.0212216666667","6502600","貢寮區"
"224006","676-BX","2018/11/27 16:49:27","新北市瑞芳區大寮路356-1號","121.784603333333","25.1032133333333","6501200","瑞芳區"
"224008","285-BY","2018/11/27 16:49:30","新北市瑞芳區三爪子坑路25號","121.813198333333","25.10799","6501200","瑞芳區"
"224007","275-VK","2018/11/27 16:49:28","新北市瑞芳區中央路48巷54號","121.7608","25.10336","6501200","瑞芳區"
"224009","273-VK","2018/11/27 16:49:20","新北市瑞芳區中山路209號","121.801195","25.1066733333333","6501200","瑞芳區"
"224005","271-BY","2018/11/27 16:48:53","新北市瑞芳區洞頂路148號","121.859743333333","25.11774","6501200","瑞芳區"
"227009","642-TC","2018/11/27 16:49:13","新北市雙溪區牡丹里五分11號","121.86524","25.04793","6502500","雙溪區"
"227003","400-TW","2018/11/27 16:49:23","新北市雙溪區外柑里外柑腳66號","121.80767","25.01777","6502500","雙溪區"
"251013","KEA-2871","2018/11/27 16:49:31","新北市淡水區泉洲厝32號","121.489231666667","25.19258","6501000","淡水區"
"251016","179-VK","2018/11/27 16:49:23","新北市淡水區水頭42號","121.478131666667","25.1850616666667","6501000","淡水區"
"251014","180-VK","2018/11/27 16:49:17","新北市淡水區興仁路103巷15號","121.450016666667","25.2178816666667","6501000","淡水區"
"251008","181-VK","2018/11/27 16:49:31","新北市淡水區樹梅坑24號","121.474566666667","25.1430333333333","6501000","淡水區"
"251015","182-VK","2018/11/27 16:49:23","新北市淡水區忠愛街4號","121.459511666667","25.1713333333333","6501000","淡水區"
"251012","441-VK","2018/11/27 16:49:22","新北市淡水區中正路二段31號","121.419651666667","25.18151","6501000","淡水區"
"251006","561-UM","2018/11/27 16:49:32","新北市淡水區中正路二段31號","121.419261666667","25.18179","6501000","淡水區"
"251007","577-R6","2018/11/27 16:49:11","新北市淡水區中正路一段156巷1號","121.421165","25.179685","6501000","淡水區"
"251011","650-BX","2018/11/27 16:49:15","新北市淡水區中正路二段31號","121.419358333333","25.1817","6501000","淡水區"
"252002","178-VK","2018/11/27 16:49:32","新北市三芝區茂長里陳厝坑15-1號","121.516038333333","25.2548666666667","6502100","三芝區"
"252001","292-VK","2018/11/27 16:49:14","新北市三芝區淡金路二段89號","121.503915","25.26081","6502100","三芝區"
"242056","751-BX","2018/11/27 16:49:26","新北市新莊區三和路12-21號","121.442116666667","25.0387","6500500","新莊區"
"242029","612-BX","2018/11/27 16:49:26","新北市新莊區新泰路357巷3弄57號","121.442061666667","25.0392516666667","6500500","新莊區"
"242048","497-BY","2018/11/27 16:49:23","新北市新莊區新泰路357巷3弄57號","121.442348333333","25.0394183333333","6500500","新莊區"
"242023","362-BY","2018/11/27 16:49:10","新北市新莊區三和路12-21號","121.441945","25.03891","6500500","新莊區"
"242019","175-VK","2018/11/27 16:49:19","新北市新莊區三和路12-21號","121.442043333333","25.0386333333333","6500500","新莊區"
"242007","176-VK","2018/11/27 16:49:18","新北市新莊區三和路12-21號","121.441856666667","25.03855","6500500","新莊區"
"242017","346-TH","2018/11/27 16:49:20","新北市新莊區三和路12-21號","121.44224","25.0381233333333","6500500","新莊區"
"242015","351-TH","2018/11/27 16:49:27","新北市新莊區新泰路357巷3弄57號","121.442101666667","25.0397066666667","6500500","新莊區"
"238015","755-BX","2018/11/27 16:49:30","新北市樹林區育德街78-1號","121.38821","24.9680883333333","6500700","樹林區"
"238018","571-TV","2018/11/27 16:49:16","新北市樹林區育德街78-1號","121.388166666667","24.9680533333333","6500700","樹林區"
"239007","AAC-297","2018/11/27 16:49:24","新北市鶯歌區二甲路13-16號","121.345106666667","24.9350916666667","6500800","鶯歌區"
