"lineid","car","time","location","longitude","latitude","cityid","cityname"
"249005","172-UM","2018/11/27 16:59:09","新北市八里區渡船頭3-7號","121.434363333333","25.1529916666667","6502300","八里區"
"249001","173-UM","2018/11/27 16:59:33","新北市八里區中山路三段106號","121.391728333333","25.1426783333333","6502300","八里區"
"249004","303-UY","2018/11/27 16:59:29","新北市八里區忠孝路439號","121.413948333333","25.1617066666667","6502300","八里區"
"249002","305-UY","2018/11/27 16:59:29","新北市八里區牛寮埔11號","121.432901666667","25.1426366666667","6502300","八里區"
"249003","593-UM","2018/11/27 16:59:20","新北市八里區中山路二段301號","121.401046666667","25.1480966666667","6502300","八里區"
"244025","837-TS","2018/11/27 16:59:22","新北市林口區粉寮69號","121.405033333333","25.09083","6501700","林口區"
"244021","838-TS","2018/11/27 16:59:30","新北市林口區粉寮一街150號","121.403975","25.0865916666667","6501700","林口區"
"231046","107-UY","2018/11/27 16:59:13","新北市新店區永業路81巷12號","121.531946666667","24.9456933333333","6500600","新店區"
"241011","013-R5","2018/11/27 16:59:12","新北市三重區仁愛街55巷116號","121.498726666667","25.07279","6500200","三重區"
"241028","022-UY","2018/11/27 16:59:17","新北市三重區中正南路40號","121.49378","25.0601516666667","6500200","三重區"
"241008","059-VK","2018/11/27 16:59:26","新北市三重區永福街179-2號","121.47892","25.0750433333333","6500200","三重區"
"241022","060-VK","2018/11/27 16:59:31","新北市三重區中華路117號","121.48359","25.0636416666667","6500200","三重區"
"241031","061-VK","2018/11/27 16:59:22","新北市三重區重新路三段115巷12號","121.49012","25.060245","6500200","三重區"
"241015","062-VK","2018/11/27 16:59:26","新北市三重區福德北路82號","121.50168","25.0663716666667","6500200","三重區"
"241017","063-VK","2018/11/27 16:59:17","新北市三重區大仁街5號","121.491673333333","25.0637783333333","6500200","三重區"
"241024","065-VK","2018/11/27 16:59:21","新北市三重區力行路二段25號","121.48185","25.0726383333333","6500200","三重區"
"241026","066-VK","2018/11/27 16:59:21","新北市三重區正義南路40號","121.498216666667","25.0608816666667","6500200","三重區"
"241002","090-VK","2018/11/27 16:59:25","新北市三重區仁義街196號","121.496621666667","25.0819466666667","6500200","三重區"
"241003","091-VK","2018/11/27 16:59:24","新北市三重區五華街141巷58號","121.493568333333","25.08679","6500200","三重區"
"241005","262-UM","2018/11/27 16:59:30","新北市三重區碧華街112巷5號","121.484511666667","25.08216","6500200","三重區"
"241016","265-UM","2018/11/27 16:59:31","新北市三重區大同北路91號","121.494793333333","25.0635983333333","6500200","三重區"
"241018","268-UM","2018/11/27 16:59:25","新北市三重區六張街126巷2弄30號","121.492671666667","25.0695666666667","6500200","三重區"
"241032","269-UM","2018/11/27 16:59:22","新北市三重區重陽路一段130巷16號","121.486023333333","25.0603733333333","6500200","三重區"
"241013","270-UM","2018/11/27 16:59:22","新北市三重區仁昌街40號","121.497258333333","25.074345","6500200","三重區"
"241025","271-UM","2018/11/27 16:59:21","新北市三重區中正北路508巷5號","121.472633333333","25.071265","6500200","三重區"
"241007","398-BY","2018/11/27 16:59:31","新北市三重區溪尾街126巷3號","121.489066666667","25.0794466666667","6500200","三重區"
"241004","475-VK","2018/11/27 16:59:21","新北市三重區五華街98巷5號","121.49225","25.0823133333333","6500200","三重區"
"241030","480-VK","2018/11/27 16:59:33","新北市三重區昌隆街72號","121.491033333333","25.0506483333333","6500200","三重區"
"241014","543-UM","2018/11/27 16:59:13","新北市三重區三和路二段173巷149號","121.501161666667","25.07063","6500200","三重區"
"241023","545-UM","2018/11/27 16:59:18","新北市三重區忠孝路三段99巷4號","121.480153333333","25.06429","6500200","三重區"
"241001","547-UM","2018/11/27 16:59:24","新北市三重區仁愛街170號","121.494186666667","25.0766533333333","6500200","三重區"
"241019","KEA-2593","2018/11/27 16:59:14","新北市三重區自強路二段74巷93號","121.48755","25.06948","6500200","三重區"
"241006","AAD-863","2018/11/27 16:59:25","新北市三重區車路頭街119號","121.484426666667","25.0753583333333","6500200","三重區"
"241020","743-BX","2018/11/27 16:52:50","新北市三重區後竹圍街173-1號","121.486005","25.0718966666667","6500200","三重區"
"241009","887-TS","2018/11/27 16:59:30","新北市三重區仁愛街600巷15號","121.484211666667","25.0803766666667","6500200","三重區"
"241012","941-UM","2018/11/27 16:59:14","新北市三重區仁壽街137號","121.499231666667","25.0741683333333","6500200","三重區"
"241029","942-UM","2018/11/27 16:59:18","新北市三重區環河南路220-8號","121.493345","25.0526533333333","6500200","三重區"
"235065","098-UM","2018/11/27 16:59:17","新北市中和區員山路36巷16-3號","121.485138333333","24.9910866666667","6500300","中和區"
"235054","640-BX","2018/11/27 16:54:01","新北市中和區員山路36巷16-3號","121.484788333333","24.9917633333333","6500300","中和區"
"247016","546-UM","2018/11/27 16:59:27","新北市蘆洲區正和街20號","121.469995","25.0823566666667","6501400","蘆洲區"
"247024","500-BY","2018/11/27 16:59:19","新北市蘆洲區長興路202號","121.460546666667","25.08752","6501400","蘆洲區"
"247014","339-TH","2018/11/27 16:59:26","新北市蘆洲區中山二路36巷42-1號","121.473918333333","25.0836","6501400","蘆洲區"
"247006","337-TH","2018/11/27 16:59:18","新北市蘆洲區永安南路二段232號","121.46063","25.0795983333333","6501400","蘆洲區"
"247008","336-TH","2018/11/27 16:59:27","新北市蘆洲區信義路59巷5弄7號","121.474911666667","25.0801483333333","6501400","蘆洲區"
"247020","057-VK","2018/11/27 16:59:15","新北市蘆洲區民族路422巷82弄14號","121.47383","25.0938383333333","6501400","蘆洲區"
"247010","056-VK","2018/11/27 16:59:29","新北市蘆洲區信義路201號","121.478885","25.0831733333333","6501400","蘆洲區"
"247018","007-UY","2018/11/27 16:59:22","新北市蘆洲區民族路227巷24弄2號","121.476605","25.088985","6501400","蘆洲區"
"247004","002-UY","2018/11/27 16:59:16","新北市蘆洲區長安街108巷5弄2號","121.461405","25.08195","6501400","蘆洲區"
"247022","001-UY","2018/11/27 16:59:30","新北市蘆洲區三民路128巷85號","121.468363333333","25.0925116666667","6501400","蘆洲區"
"228001","212-TW","2018/11/27 16:59:24","新北市貢寮區貢寮里朝陽街1-2號","121.912288333333","25.0212733333333","6502600","貢寮區"
"228002","663-BX","2018/11/27 16:59:30","新北市貢寮區貢寮里朝陽街96號","121.908548333333","25.0221483333333","6502600","貢寮區"
"228003","828-UM","2018/11/27 16:59:11","新北市貢寮區福隆里興隆街36號","121.942048333333","25.0167316666667","6502600","貢寮區"
"224006","676-BX","2018/11/27 16:59:27","新北市瑞芳區大寮路2號","121.7853","25.1001333333333","6501200","瑞芳區"
"224008","285-BY","2018/11/27 16:59:30","新北市瑞芳區明燈路一段265號","121.817058333333","25.1084","6501200","瑞芳區"
"224007","275-VK","2018/11/27 16:59:28","新北市瑞芳區楓子瀨路54號","121.76883","25.1035816666667","6501200","瑞芳區"
"224009","273-VK","2018/11/27 16:59:19","新北市瑞芳區濱二路27號","121.83523","25.1118166666667","6501200","瑞芳區"
"224005","271-BY","2018/11/27 16:59:13","新北市瑞芳區明里路54號","121.868968333333","25.122215","6501200","瑞芳區"
"227009","642-TC","2018/11/27 16:59:13","新北市雙溪區牡丹里聖南10-3號","121.860871666667","25.0493116666667","6502500","雙溪區"
"227003","400-TW","2018/11/27 16:59:23","新北市雙溪區長源里柑腳41-2號","121.80265","25.01289","6502500","雙溪區"
"251005","010-UM","2018/11/27 16:59:14","新北市淡水區中正路一段87巷1號","121.42149","25.1794533333333","6501000","淡水區"
"251002","012-UM","2018/11/27 16:59:16","新北市淡水區中正路二段31號","121.419521666667","25.1814916666667","6501000","淡水區"
"251013","KEA-2871","2018/11/27 16:59:11","新北市淡水區泉洲厝32號","121.48926","25.1925666666667","6501000","淡水區"
"251016","179-VK","2018/11/27 16:59:23","新北市淡水區瓦坑3號","121.47762","25.180715","6501000","淡水區"
"251014","180-VK","2018/11/27 16:59:17","新北市淡水區淡金路四段472巷24號","121.452918333333","25.2239616666667","6501000","淡水區"
"251008","181-VK","2018/11/27 16:59:11","新北市淡水區樹梅坑9號","121.472743333333","25.1426733333333","6501000","淡水區"
"251015","182-VK","2018/11/27 16:59:23","新北市淡水區忠愛街5-2號","121.460683333333","25.1716216666667","6501000","淡水區"
"251012","441-VK","2018/11/27 16:59:22","新北市淡水區新民街一段117號","121.427976666667","25.1877983333333","6501000","淡水區"
"251004","443-VK","2018/11/27 16:58:42","新北市淡水區中正路二段31號","121.419698333333","25.1818866666667","6501000","淡水區"
"251006","561-UM","2018/11/27 16:59:12","新北市淡水區中正路二段12號","121.420505","25.18053","6501000","淡水區"
"251009","575-R6","2018/11/27 16:59:31","新北市淡水區中正路二段31號","121.419248333333","25.18182","6501000","淡水區"
"251007","577-R6","2018/11/27 16:59:31","新北市淡水區中正東路一段3巷2號","121.450376666667","25.1648833333333","6501000","淡水區"
"251011","650-BX","2018/11/27 16:59:15","新北市淡水區中山路50號","121.444063333333","25.17029","6501000","淡水區"
"252002","178-VK","2018/11/27 16:59:12","新北市三芝區忠孝街177號","121.505285","25.2615983333333","6502100","三芝區"
"252001","292-VK","2018/11/27 16:59:14","新北市三芝區淡金路二段81號","121.503818333333","25.2607716666667","6502100","三芝區"
"242056","751-BX","2018/11/27 16:59:26","新北市新莊區新泰路255巷83號","121.44223","25.038745","6500500","新莊區"
"242027","615-BX","2018/11/27 16:59:23","新北市新莊區新泰路357巷3弄57號","121.441998333333","25.039375","6500500","新莊區"
"242029","612-BX","2018/11/27 16:59:26","新北市新莊區新泰路357巷3弄57號","121.44213","25.039225","6500500","新莊區"
"242044","566-BX","2018/11/27 16:59:13","新北市新莊區三和路12-21號","121.442161666667","25.0385016666667","6500500","新莊區"
"242048","497-BY","2018/11/27 16:59:23","新北市新莊區新泰路357巷3弄57號","121.442351666667","25.0394633333333","6500500","新莊區"
"242054","441-UM","2018/11/27 16:59:15","新北市新莊區三和路12-21號","121.441986666667","25.038275","6500500","新莊區"
"242046","400-BY","2018/11/27 16:59:22","新北市新莊區新泰路357巷3弄57號","121.4422","25.0395966666667","6500500","新莊區"
"242023","362-BY","2018/11/27 16:59:30","新北市新莊區三和路18-23號","121.441745","25.039","6500500","新莊區"
"242019","175-VK","2018/11/27 16:59:19","新北市新莊區三和路12-21號","121.441971666667","25.0386283333333","6500500","新莊區"
"242007","176-VK","2018/11/27 16:59:18","新北市新莊區三和路12-21號","121.441856666667","25.0385866666667","6500500","新莊區"
"242017","346-TH","2018/11/27 16:59:20","新北市新莊區三和路12-21號","121.442165","25.0381416666667","6500500","新莊區"
"242032","348-TH","2018/11/27 16:59:19","新北市新莊區新泰路357巷3弄57號","121.442218333333","25.0395366666667","6500500","新莊區"
"242015","351-TH","2018/11/27 16:59:27","新北市新莊區新泰路357巷3弄57號","121.442035","25.0396316666667","6500500","新莊區"
"238015","755-BX","2018/11/27 16:59:30","新北市樹林區育德街78-1號","121.38825","24.967995","6500700","樹林區"
"238019","599-UM","2018/11/27 16:59:12","新北市樹林區育德街78-1號","121.388466666667","24.9681866666667","6500700","樹林區"
"238018","571-TV","2018/11/27 16:59:16","新北市樹林區八德街1018號","121.391233333333","24.9684666666667","6500700","樹林區"
"238022","KEA-2213","2018/11/27 16:59:30","新北市樹林區八德街1172號","121.389988333333","24.9682516666667","6500700","樹林區"
"239007","AAC-297","2018/11/27 16:59:24","新北市鶯歌區環河路177-3號","121.345971666667","24.9353683333333","6500800","鶯歌區"
"239006","891-R6","2018/11/27 16:59:27","新北市鶯歌區二甲路13-16號","121.345083333333","24.935155","6500800","鶯歌區"
"239001","417-VK","2018/11/27 16:59:32","新北市鶯歌區二甲路12-2號","121.34564","24.9349716666667","6500800","鶯歌區"
"242042","281-VK","2018/11/27 16:59:29","新北市新莊區三和路12-21號","121.442121666667","25.0384933333333","6500500","新莊區"
