"lineid","car","time","location","longitude","latitude","cityid","cityname"
"249005","172-UM","2018/11/27 17:19:28","新北市五股區民義路二段130號","121.40771","25.1217166666667","6502300","八里區"
"249001","173-UM","2018/11/27 17:19:13","新北市八里區中華路二段165巷3號","121.407653333333","25.1508566666667","6502300","八里區"
"249004","303-UY","2018/11/27 17:19:29","新北市八里區賢三街18號","121.418751666667","25.15889","6502300","八里區"
"249002","305-UY","2018/11/27 17:19:29","新北市八里區龍米路二段117巷37號","121.44338","25.1418716666667","6502300","八里區"
"249003","593-UM","2018/11/27 17:19:20","新北市八里區中山路二段460號","121.399121666667","25.147235","6502300","八里區"
"244023","069-UM","2018/11/27 17:19:12","新北市林口區隆林街96號","121.385693333333","25.0750983333333","6501700","林口區"
"244007","080-UY","2018/11/27 17:19:17","新北市林口區中華路355號","121.380831666667","25.092685","6501700","林口區"
"244013","KEA-2802","2018/11/27 17:19:17","新北市林口區粉寮69號","121.404806666667","25.0907916666667","6501700","林口區"
"244019","410-SL","2018/11/27 17:19:26","新北市林口區公園路191號","121.371973333333","25.0722466666667","6501700","林口區"
"244017","485-VK","2018/11/27 17:19:20","新北市林口區粉寮路一段105號","121.397896666667","25.0802833333333","6501700","林口區"
"244009","656-BX","2018/11/27 17:19:24","新北市林口區中華路355號","121.380911666667","25.0926033333333","6501700","林口區"
"244025","837-TS","2018/11/27 17:19:22","新北市林口區文化三路一段468號","121.369385","25.075325","6501700","林口區"
"244021","838-TS","2018/11/27 17:19:30","新北市林口區粉寮路二段8-1號","121.401246666667","25.0849616666667","6501700","林口區"
"231046","107-UY","2018/11/27 17:19:33","新北市新店區直潭路92號","121.530938333333","24.93761","6500600","新店區"
"241011","013-R5","2018/11/27 17:19:32","新北市三重區龍濱路197號","121.501878333333","25.0713633333333","6500200","三重區"
"241028","022-UY","2018/11/27 17:19:17","新北市三重區中正南路77號","121.494113333333","25.05881","6500200","三重區"
"241008","059-VK","2018/11/27 17:19:26","新北市三重區永福街72巷37-5號","121.480526666667","25.076345","6500200","三重區"
"241022","060-VK","2018/11/27 17:19:22","新北市三重區中正北路64巷24號","121.48625","25.0635016666667","6500200","三重區"
"241015","062-VK","2018/11/27 17:19:26","新北市三重區福德北路89號","121.501831666667","25.0662416666667","6500200","三重區"
"241017","063-VK","2018/11/27 17:19:17","新北市三重區大同北路44巷3號","121.495003333333","25.0630666666667","6500200","三重區"
"241024","065-VK","2018/11/27 17:19:21","新北市三重區中正北路193巷11弄19號","121.478086666667","25.0704316666667","6500200","三重區"
"241026","066-VK","2018/11/27 17:19:13","新北市三重區正義南路67號","121.498305","25.06019","6500200","三重區"
"241002","090-VK","2018/11/27 17:19:25","新北市三重區自強路五段7-1號","121.492478333333","25.08034","6500200","三重區"
"241003","091-VK","2018/11/27 17:19:24","新北市三重區五華街148號","121.491078333333","25.0838883333333","6500200","三重區"
"241005","262-UM","2018/11/27 17:19:30","新北市三重區永安北路二段25巷14號","121.482483333333","25.0818433333333","6500200","三重區"
"241016","265-UM","2018/11/27 17:19:22","新北市三重區大同北路91號","121.494643333333","25.0636383333333","6500200","三重區"
"241018","268-UM","2018/11/27 17:19:25","新北市三重區安慶街195號","121.49307","25.0683816666667","6500200","三重區"
"241032","269-UM","2018/11/27 17:19:22","新北市三重區興華街146號","121.482805","25.0598616666667","6500200","三重區"
"241013","270-UM","2018/11/27 17:19:22","新北市三重區仁愛街92巷22號","121.494455","25.0736083333333","6500200","三重區"
"241025","271-UM","2018/11/27 17:19:21","新北市三重區中正北路378號","121.476706666667","25.0697633333333","6500200","三重區"
"241007","398-BY","2018/11/27 17:19:31","新北市三重區慈愛街8號","121.48447","25.0784466666667","6500200","三重區"
"241030","480-VK","2018/11/27 17:19:13","新北市三重區集美街117號","121.48999","25.052665","6500200","三重區"
"241014","543-UM","2018/11/27 17:19:32","新北市三重區長榮路3號","121.500205","25.0684433333333","6500200","三重區"
"241023","545-UM","2018/11/27 17:19:18","新北市三重區三民街189號","121.482305","25.06559","6500200","三重區"
"241001","547-UM","2018/11/27 17:19:24","新北市三重區碧華街213號","121.488595","25.082835","6500200","三重區"
"241019","KEA-2593","2018/11/27 17:19:14","新北市三重區自強路二段74巷6號","121.488346666667","25.0698","6500200","三重區"
"241020","743-BX","2018/11/27 17:15:30","新北市三重區忠孝路一段171號","121.487586666667","25.0720033333333","6500200","三重區"
"241009","887-TS","2018/11/27 17:19:30","新北市三重區仁美街117號","121.485613333333","25.081115","6500200","三重區"
"241012","941-UM","2018/11/27 17:19:14","新北市三重區仁興街28巷44號","121.498365","25.07492","6500200","三重區"
"235065","098-UM","2018/11/27 17:19:17","新北市中和區員山路36巷16-3號","121.485106666667","24.9911733333333","6500300","中和區"
"247012","KEA-2869","2018/11/27 17:19:13","新北市蘆洲區信義路319巷7號","121.478011666667","25.0862433333333","6501400","蘆洲區"
"235054","640-BX","2018/11/27 16:54:01","新北市中和區員山路36巷16-3號","121.484788333333","24.9917633333333","6500300","中和區"
"247002","893-R6","2018/11/27 17:19:24","新北市蘆洲區永樂街38巷33弄4號","121.458001666667","25.0895033333333","6501400","蘆洲區"
"247016","546-UM","2018/11/27 17:19:27","新北市蘆洲區正和街96巷38號","121.467586666667","25.081415","6501400","蘆洲區"
"247024","500-BY","2018/11/27 17:19:19","新北市蘆洲區長榮路166號","121.461055","25.084965","6501400","蘆洲區"
"247014","339-TH","2018/11/27 17:19:26","新北市蘆洲區中正路81號","121.470111666667","25.08351","6501400","蘆洲區"
"247006","337-TH","2018/11/27 17:19:18","新北市蘆洲區長安街73巷11弄1號","121.46253","25.07956","6501400","蘆洲區"
"247008","336-TH","2018/11/27 17:19:27","新北市蘆洲區永安北路一段72巷29號","121.476273333333","25.0769433333333","6501400","蘆洲區"
"247020","057-VK","2018/11/27 17:19:15","新北市蘆洲區仁愛街35巷3號","121.472006666667","25.09272","6501400","蘆洲區"
"247010","056-VK","2018/11/27 17:19:29","新北市蘆洲區三民路26巷29號","121.476863333333","25.08283","6501400","蘆洲區"
"247018","007-UY","2018/11/27 17:19:22","新北市蘆洲區民權路82巷1弄12號","121.474458333333","25.0882233333333","6501400","蘆洲區"
"247004","002-UY","2018/11/27 17:19:16","新北市蘆洲區中原路62號","121.458733333333","25.08211","6501400","蘆洲區"
"247022","001-UY","2018/11/27 17:19:34","新北市蘆洲區民族路385號","121.469681666667","25.0901","6501400","蘆洲區"
"228001","212-TW","2018/11/27 17:19:24","新北市貢寮區仁理村尖山腳街18-3號","121.925393333333","25.0483233333333","6502600","貢寮區"
"228002","663-BX","2018/11/27 17:19:30","新北市貢寮區雙玉里下雙溪街26號","121.924175","25.0103266666667","6502600","貢寮區"
"228003","828-UM","2018/11/27 17:19:31","新北市貢寮區福隆里興隆街24-1號","121.944376666667","25.01663","6502600","貢寮區"
"224006","676-BX","2018/11/27 17:19:27","新北市瑞芳區傑魚坑路301號","121.786515","25.1048883333333","6501200","瑞芳區"
"224008","285-BY","2018/11/27 17:19:30","新北市瑞芳區侯硐路172號","121.828496666667","25.0858483333333","6501200","瑞芳區"
"224009","273-VK","2018/11/27 17:19:28","新北市瑞芳區汽車路45號","121.84447","25.1096783333333","6501200","瑞芳區"
"224005","271-BY","2018/11/27 17:19:13","新北市瑞芳區鼻頭路247號","121.912753333333","25.12391","6501200","瑞芳區"
"227009","642-TC","2018/11/27 17:19:27","新北市雙溪區三貂里定福路1-2號","121.850431666667","25.0638483333333","6502500","雙溪區"
"227003","400-TW","2018/11/27 17:19:23","新北市雙溪區上林里內平林90號","121.827555","25.0274583333333","6502500","雙溪區"
"251005","010-UM","2018/11/27 17:19:14","新北市淡水區鄧公路19號","121.451296666667","25.16997","6501000","淡水區"
"251002","012-UM","2018/11/27 17:19:16","新北市淡水區中正路二段31號","121.41932","25.1815466666667","6501000","淡水區"
"251013","KEA-2871","2018/11/27 17:19:31","新北市淡水區演戲埔腳1-2號","121.475235","25.19411","6501000","淡水區"
"251016","179-VK","2018/11/27 17:19:23","新北市淡水區鄒厝崙13-1號","121.462705","25.1908366666667","6501000","淡水區"
"251014","180-VK","2018/11/27 17:19:17","新北市淡水區番子田132號","121.464846666667","25.2276766666667","6501000","淡水區"
"251008","181-VK","2018/11/27 17:19:31","新北市淡水區大同路283號","121.467913333333","25.1424833333333","6501000","淡水區"
"251015","182-VK","2018/11/27 17:19:23","新北市淡水區樹林口23-1號","121.4772","25.1698483333333","6501000","淡水區"
"251010","413-VK","2018/11/27 17:19:16","新北市淡水區沙崙路257號","121.426481666667","25.1853583333333","6501000","淡水區"
"251012","441-VK","2018/11/27 17:19:22","新北市淡水區水碓街75號","121.44485","25.1776283333333","6501000","淡水區"
"251004","443-VK","2018/11/27 17:11:02","新北市淡水區中正東路一段3巷14弄1號","121.450798333333","25.1642866666667","6501000","淡水區"
"251006","561-UM","2018/11/27 17:19:12","新北市淡水區新生街108巷1-2號","121.440351666667","25.1747666666667","6501000","淡水區"
"251009","575-R6","2018/11/27 17:19:31","新北市淡水區三民街21號","121.439048333333","25.171975","6501000","淡水區"
"251007","577-R6","2018/11/27 17:19:31","新北市淡水區民生路47-4號","121.462103333333","25.1380166666667","6501000","淡水區"
"251011","650-BX","2018/11/27 17:19:15","新北市淡水區坪頂路128號","121.46491","25.1613466666667","6501000","淡水區"
"251003","766-UM","2018/11/27 17:19:26","新北市淡水區中正路一段87巷1號","121.421298333333","25.17953","6501000","淡水區"
"207003","550-UM","2018/11/27 17:19:16","新北市萬里區萬里里獅頭路23號","121.69324","25.178235","6502800","萬里區"
"252002","178-VK","2018/11/27 17:19:12","新北市三芝區忠孝街1-15號","121.50557","25.2539","6502100","三芝區"
"252001","292-VK","2018/11/27 17:19:34","新北市三芝區淡金路一段3號","121.498108333333","25.2596233333333","6502100","三芝區"
"237005","AKY-6261","2018/11/27 17:19:14","新北市三峽區中山路459巷137號","121.350083333333","24.9340483333333","6500900","三峽區"
"242037","AAC-296","2018/11/27 17:19:19","新北市新莊區中正路475號","121.44161","25.03374","6500500","新莊區"
"242058","986-R7","2018/11/27 17:19:19","新北市新莊區新泰路357巷3號","121.44202","25.0414983333333","6500500","新莊區"
"242056","751-BX","2018/11/27 17:19:26","新北市新莊區新莊路664號","121.442411666667","25.0328566666667","6500500","新莊區"
"242025","705-TV","2018/11/27 17:19:29","新北市新莊區中平路82巷29號","121.446043333333","25.04489","6500500","新莊區"
"242027","615-BX","2018/11/27 17:19:23","新北市新莊區中港路303號","121.45285","25.0446233333333","6500500","新莊區"
"242029","612-BX","2018/11/27 17:19:26","新北市新莊區幸福路770號","121.447093333333","25.04921","6500500","新莊區"
"242044","566-BX","2018/11/27 17:19:33","新北市新莊區中正路560號","121.428838333333","25.0308633333333","6500500","新莊區"
"242048","497-BY","2018/11/27 17:19:23","新北市新莊區龍安路249巷1號","121.419118333333","25.0211116666667","6500500","新莊區"
"242054","441-UM","2018/11/27 17:19:15","新北市新莊區環河路636-7號","121.436688333333","25.0108033333333","6500500","新莊區"
"242002","440-UM","2018/11/27 17:19:32","新北市新莊區瓊林路25-6號","121.44645","25.02883","6500500","新莊區"
"242039","415-TV","2018/11/27 17:19:22","新北市新莊區中正路481號","121.441426666667","25.0337766666667","6500500","新莊區"
"242009","413-TV","2018/11/27 17:19:23","新北市新莊區中環路二段392-1號","121.4424","25.0454483333333","6500500","新莊區"
"242046","400-BY","2018/11/27 17:19:22","新北市泰山區磚雅厝3號","121.442136666667","25.0416216666667","6500500","新莊區"
"242023","362-BY","2018/11/27 17:19:30","新北市新莊區中華路一段130號","121.452606666667","25.041015","6500500","新莊區"
"242061","353-BY","2018/11/27 17:19:18","新北市新莊區新泰路413巷22號","121.44249","25.0444566666667","6500500","新莊區"
"242011","132-UY","2018/11/27 17:19:18","新北市新莊區中環路二段392-1號","121.442428333333","25.04568","6500500","新莊區"
"242034","135-UY","2018/11/27 17:19:18","新北市新莊區中正路473-1號","121.442001666667","25.03315","6500500","新莊區"
"242051","172-VK","2018/11/27 17:19:23","新北市新莊區瓊林南路75-2號","121.434895","25.0142566666667","6500500","新莊區"
"242013","173-VK","2018/11/27 17:19:17","新北市新莊區三和路12-21號","121.441915","25.038805","6500500","新莊區"
"242019","175-VK","2018/11/27 17:19:19","新北市新莊區中平路82巷29號","121.446218333333","25.0449566666667","6500500","新莊區"
"242007","176-VK","2018/11/27 17:19:18","新北市新莊區中港路345號","121.452176666667","25.04558","6500500","新莊區"
"242017","346-TH","2018/11/27 17:19:20","新北市新莊區中環路二段392-1號","121.44236","25.045365","6500500","新莊區"
"242032","348-TH","2018/11/27 17:19:20","新北市新莊區中環路二段392-1號","121.442421666667","25.0456083333333","6500500","新莊區"
"242005","349-TH","2018/11/27 17:19:19","新北市新莊區新泰路488號","121.442398333333","25.0458233333333","6500500","新莊區"
"242021","350-TH","2018/11/27 17:19:19","新北市新莊區中港路179號","121.454911666667","25.0415066666667","6500500","新莊區"
"242015","351-TH","2018/11/27 17:19:27","新北市新莊區新泰路488號","121.442411666667","25.0457916666667","6500500","新莊區"
"238015","755-BX","2018/11/27 17:19:30","新北市樹林區大安路271號","121.418976666667","24.9936033333333","6500700","樹林區"
"238023","601-UM","2018/11/27 17:19:28","新北市樹林區中正路433-2號","121.415046666667","25.00844","6500700","樹林區"
"238019","599-UM","2018/11/27 17:19:12","新北市樹林區八德街170號","121.421615","24.9776583333333","6500700","樹林區"
"238018","571-TV","2018/11/27 17:19:16","新北市樹林區鎮前街269巷31號","121.41933","24.9849816666667","6500700","樹林區"
"238022","KEA-2213","2018/11/27 17:19:30","新北市樹林區仁愛街77號","121.423765","24.9828483333333","6500700","樹林區"
"238021","KEA-2539","2018/11/27 17:19:25","新北市樹林區西圳街一段110號","121.399846666667","24.9639633333333","6500700","樹林區"
"238025","303-VK","2018/11/27 17:19:32","新北市樹林區保安二街75號","121.424501666667","24.9950733333333","6500700","樹林區"
"238017","283-BY","2018/11/27 17:19:27","新北市樹林區光武街32巷2號","121.416176666667","25.005725","6500700","樹林區"
"238020","268-VK","2018/11/27 17:19:22","新北市樹林區千歲街101號","121.428516666667","25.0008683333333","6500700","樹林區"
"238016","169-UY","2018/11/27 17:19:27","新北市樹林區八德街1號","121.417525","24.984945","6500700","樹林區"
"239007","AAC-297","2018/11/27 17:19:24","新北市鶯歌區中正一路65巷16-1號","121.351588333333","24.954765","6500800","鶯歌區"
"239006","891-R6","2018/11/27 17:19:28","新北市鶯歌區德昌二街73號","121.333353333333","24.957795","6500800","鶯歌區"
"239008","527-UM","2018/11/27 17:19:19","新北市鶯歌區國光街66-2號","121.34082","24.9577233333333","6500800","鶯歌區"
"239001","417-VK","2018/11/27 17:19:32","新北市鶯歌區黃厝街31巷39-1號","121.342721666667","24.9454583333333","6500800","鶯歌區"
"239003","360-BY","2018/11/27 17:19:27","新北市鶯歌區德昌二街55號","121.333358333333","24.9583933333333","6500800","鶯歌區"
"239002","359-BY","2018/11/27 17:19:34","新北市鶯歌區國慶街100號","121.350185","24.95436","6500800","鶯歌區"
"239004","193-VK","2018/11/27 17:19:33","新北市鶯歌區文化路300號","121.352318333333","24.9467966666667","6500800","鶯歌區"
"242042","281-VK","2018/11/27 17:19:29","新北市新莊區中正路481號","121.44133","25.03379","6500500","新莊區"
