"lineid","car","time","location","longitude","latitude","cityid","cityname"
"234026","9371-KE","2018/11/27 17:39:27","新北市永和區中正路629號","121.515556666667","25.00997","6500400","永和區"
"249005","172-UM","2018/11/27 17:39:28","新北市八里區荖阡坑路34-1號","121.402658333333","25.12971","6502300","八里區"
"249001","173-UM","2018/11/27 17:39:33","新北市八里區龍米路二段159號","121.438903333333","25.1541266666667","6502300","八里區"
"249004","303-UY","2018/11/27 17:39:29","新北市八里區大崁腳35號","121.419513333333","25.1587366666667","6502300","八里區"
"249002","305-UY","2018/11/27 17:39:29","新北市八里區石壁腳9號","121.443571666667","25.1350433333333","6502300","八里區"
"249003","593-UM","2018/11/27 17:39:20","新北市八里區中山路二段125號","121.405451666667","25.1518383333333","6502300","八里區"
"232011","375-UM","2018/11/27 17:39:15","新北市坪林區北宜路八段105號","121.706138333333","24.9348366666667","6502000","坪林區"
"244023","069-UM","2018/11/27 17:39:32","新北市林口區興林路152巷20號","121.387921666667","25.071555","6501700","林口區"
"244007","080-UY","2018/11/27 17:39:17","新北市林口區湖子49號","121.383275","25.0924733333333","6501700","林口區"
"244013","KEA-2802","2018/11/27 17:39:17","新北市林口區文化一路二段40號","121.380563333333","25.0771366666667","6501700","林口區"
"244019","410-SL","2018/11/27 17:39:26","新北市林口區忠孝路512-1號","121.37147","25.06891","6501700","林口區"
"244017","485-VK","2018/11/27 17:39:20","新北市林口區忠孝路371-1號","121.368986666667","25.0717866666667","6501700","林口區"
"244009","656-BX","2018/11/27 17:39:24","新北市林口區寶林路123號","121.383165","25.0853583333333","6501700","林口區"
"244011","701-TV","2018/11/27 17:39:21","新北市林口區佳林路211號","121.384203333333","25.077095","6501700","林口區"
"244025","837-TS","2018/11/27 17:39:27","新北市林口區文化三路一段377-5號","121.364825","25.073395","6501700","林口區"
"244021","838-TS","2018/11/27 17:39:30","新北市林口區仁愛路一段211巷8號","121.398423333333","25.0739816666667","6501700","林口區"
"222002","659-BX","2018/11/27 17:39:18","新北市深坑區深南路31號","121.61977","25.0097583333333","6501800","深坑區"
"231046","107-UY","2018/11/27 17:39:33","新北市新店區直潭路107號","121.53153","24.936775","6500600","新店區"
"241024","065-VK","2018/11/27 17:39:22","新北市三重區力行路二段2號","121.481825","25.0718916666667","6500200","三重區"
"241003","091-VK","2018/11/27 17:39:24","新北市三重區三和路四段101巷18號","121.48868","25.077075","6500200","三重區"
"241005","262-UM","2018/11/27 17:39:30","新北市三重區碧華街1號","121.483568333333","25.0809683333333","6500200","三重區"
"241016","265-UM","2018/11/27 17:39:25","新北市三重區正義北路26號","121.497556666667","25.0631683333333","6500200","三重區"
"241007","398-BY","2018/11/27 17:39:31","新北市三重區國道路一段139號","121.476018333333","25.0735866666667","6500200","三重區"
"241030","480-VK","2018/11/27 17:39:13","新北市三重區新北大道一段115號","121.483486666667","25.0610133333333","6500200","三重區"
"241014","543-UM","2018/11/27 17:39:12","新北市三重區長榮路75號","121.50253","25.069055","6500200","三重區"
"241023","545-UM","2018/11/27 17:39:18","新北市三重區中華路81號","121.483538333333","25.062725","6500200","三重區"
"241001","547-UM","2018/11/27 17:39:24","新北市三重區福隆路47號","121.490756666667","25.0775516666667","6500200","三重區"
"235065","098-UM","2018/11/27 17:39:17","新北市中和區員山路36巷16-3號","121.485128333333","24.99108","6500300","中和區"
"247012","KEA-2869","2018/11/27 17:39:13","新北市蘆洲區民權路29號","121.476028333333","25.0864733333333","6501400","蘆洲區"
"235054","640-BX","2018/11/27 17:39:33","新北市中和區員山路36巷16-2號","121.485028333333","24.99181","6500300","中和區"
"247002","893-R6","2018/11/27 17:39:24","新北市蘆洲區環堤大道214號","121.457706666667","25.0919383333333","6501400","蘆洲區"
"247024","500-BY","2018/11/27 17:39:19","新北市蘆洲區長樂路159號","121.462086666667","25.088115","6501400","蘆洲區"
"247014","339-TH","2018/11/27 17:39:26","新北市蘆洲區中正路7號","121.471446666667","25.0819033333333","6501400","蘆洲區"
"247006","337-TH","2018/11/27 17:39:18","新北市蘆洲區長安街68巷17弄1號","121.463171666667","25.0807683333333","6501400","蘆洲區"
"247008","336-TH","2018/11/27 17:39:27","新北市蘆洲區民生街139號","121.47232","25.0792333333333","6501400","蘆洲區"
"247020","057-VK","2018/11/27 17:39:15","新北市蘆洲區民族路351號","121.472235","25.09187","6501400","蘆洲區"
"247010","056-VK","2018/11/27 17:39:29","新北市蘆洲區中山一路97巷2號","121.477058333333","25.0814716666667","6501400","蘆洲區"
"247018","007-UY","2018/11/27 17:39:22","新北市蘆洲區民權路120號","121.473466666667","25.0885983333333","6501400","蘆洲區"
"247004","002-UY","2018/11/27 17:39:16","新北市蘆洲區長安街249巷24號","121.458325","25.08291","6501400","蘆洲區"
"247022","001-UY","2018/11/27 17:39:30","新北市蘆洲區民族路451號","121.467385","25.08869","6501400","蘆洲區"
"228001","212-TW","2018/11/27 17:39:24","新北市貢寮區仁理村仁愛路95-1號","121.927658333333","25.0554216666667","6502600","貢寮區"
"228002","663-BX","2018/11/27 17:39:30","新北市貢寮區福隆里外隆林街14-1號","121.959133333333","25.0036166666667","6502600","貢寮區"
"228003","828-UM","2018/11/27 17:39:11","新北市貢寮區仁理村仁和路226號","121.923906666667","25.0535966666667","6502600","貢寮區"
"224010","AGQ-8101","2018/11/27 17:39:26","新北市瑞芳區岳王路162號","121.808041666667","25.1112016666667","6501200","瑞芳區"
"224006","676-BX","2018/11/27 17:39:27","新北市瑞芳區中山路326號","121.796528333333","25.110075","6501200","瑞芳區"
"224008","285-BY","2018/11/27 17:39:34","新北市瑞芳區瑞柑新村40號","121.82919","25.1070216666667","6501200","瑞芳區"
"224009","273-VK","2018/11/27 17:39:19","新北市瑞芳區金光路366號","121.849818333333","25.1103583333333","6501200","瑞芳區"
"224005","271-BY","2018/11/27 17:39:13","新北市瑞芳區海濱路8-6號","121.831613333333","25.126165","6501200","瑞芳區"
"227009","642-TC","2018/11/27 17:39:13","新北市雙溪區三貂里政光路3-1號","121.850781666667","25.0633983333333","6502500","雙溪區"
"208001","761-BX","2018/11/27 17:39:21","新北市金山區磺清路135號","121.639325","25.227575","6502700","金山區"
"251005","010-UM","2018/11/27 17:39:14","新北市淡水區鄧公路33巷7號","121.451711666667","25.1709883333333","6501000","淡水區"
"251002","012-UM","2018/11/27 17:39:16","新北市淡水區清水街250號","121.440393333333","25.172265","6501000","淡水區"
"251013","KEA-2871","2018/11/27 17:39:31","新北市淡水區演戲埔腳11號","121.469348333333","25.19457","6501000","淡水區"
"251016","179-VK","2018/11/27 17:39:23","新北市淡水區埤島39-15號","121.45274","25.1958583333333","6501000","淡水區"
"251014","180-VK","2018/11/27 17:39:17","新北市淡水區水碓30-1號","121.47772","25.2242983333333","6501000","淡水區"
"251008","181-VK","2018/11/27 17:39:31","新北市淡水區八勢路一段100巷6號","121.466811666667","25.1551283333333","6501000","淡水區"
"251015","182-VK","2018/11/27 17:39:23","新北市淡水區樹林口168號","121.475033333333","25.1666333333333","6501000","淡水區"
"251010","413-VK","2018/11/27 17:39:25","新北市淡水區淡海路292號","121.419056666667","25.1888466666667","6501000","淡水區"
"251012","441-VK","2018/11/27 17:39:22","新北市淡水區北新路200巷6號","121.451713333333","25.1798066666667","6501000","淡水區"
"251004","443-VK","2018/11/27 17:11:02","新北市淡水區中正東路一段3巷14弄1號","121.450798333333","25.1642866666667","6501000","淡水區"
"251006","561-UM","2018/11/27 17:39:32","新北市淡水區大信街24巷2號","121.44191","25.1766666666667","6501000","淡水區"
"251009","575-R6","2018/11/27 17:39:31","新北市淡水區中正路28號","121.444366666667","25.169095","6501000","淡水區"
"251007","577-R6","2018/11/27 17:39:31","新北市淡水區民生路124巷6號","121.463903333333","25.1380666666667","6501000","淡水區"
"251011","650-BX","2018/11/27 17:39:15","新北市淡水區小坪頂10號","121.487006666667","25.1557716666667","6501000","淡水區"
"251003","766-UM","2018/11/27 17:39:26","新北市淡水區中山北路一段33號","121.441593333333","25.175225","6501000","淡水區"
"207003","550-UM","2018/11/27 17:39:16","新北市萬里區龜吼里漁澳路85-2號","121.689791666667","25.1974066666667","6502800","萬里區"
"207004","225-TW","2018/11/27 17:39:25","新北市萬里區中幅里中福路21號","121.6825","25.16498","6502800","萬里區"
"252002","178-VK","2018/11/27 17:39:32","新北市三芝區智成街83號","121.505025","25.2557066666667","6502100","三芝區"
"252001","292-VK","2018/11/27 17:39:14","新北市三芝區淡金路一段87號","121.502206666667","25.259","6502100","三芝區"
"237013","252-BX","2018/11/27 17:39:31","新北市三峽區介壽路一段21-1號","121.375416666667","24.9332833333333","6500900","三峽區"
"237012","275-BY","2018/11/27 17:39:14","新北市三峽區中山路459巷163-3號","121.349036666667","24.9332483333333","6500900","三峽區"
"237014","433-BY","2018/11/27 17:39:27","新北市三峽區中山路459巷163-3號","121.348841666667","24.9330333333333","6500900","三峽區"
"237016","649-BX","2018/11/27 17:39:28","新北市三峽區正義街98號","121.368838333333","24.91757","6500900","三峽區"
"237010","706-TV","2018/11/27 17:39:29","新北市三峽區中山路117號","121.365531666667","24.9358466666667","6500900","三峽區"
"237005","AKY-6261","2018/11/27 17:39:14","新北市三峽區中山路459巷163-3號","121.34871","24.9329583333333","6500900","三峽區"
"236070","105-UM","2018/11/27 17:39:25","新北市土城區中華路一段219號","121.442275","24.98402","6501300","土城區"
"236079","166-UM","2018/11/27 17:39:22","新北市土城區城林路6巷80號","121.438691666667","24.9797066666667","6501300","土城區"
"236014","270-VK","2018/11/27 17:39:17","新北市土城區城林路6巷80號","121.43856","24.9796016666667","6501300","土城區"
"236055","970-R7","2018/11/27 17:39:32","新北市土城區城林路6巷80號","121.438573333333","24.9795783333333","6501300","土城區"
"242037","AAC-296","2018/11/27 17:39:19","新北市新莊區後港一路118號","121.428951666667","25.0269066666667","6500500","新莊區"
"242058","986-R7","2018/11/27 17:39:19","新北市新莊區中正路723-7號","121.42311","25.0291133333333","6500500","新莊區"
"242056","751-BX","2018/11/27 17:39:26","新北市新莊區泰豐街21號","121.448305","25.031825","6500500","新莊區"
"242025","705-TV","2018/11/27 17:39:29","新北市新莊區思源路98號","121.460166666667","25.04601","6500500","新莊區"
"242027","615-BX","2018/11/27 17:39:23","新北市新莊區福壽街105號","121.457981666667","25.0506933333333","6500500","新莊區"
"242029","612-BX","2018/11/27 17:39:26","新北市新莊區復興路一段165號","121.451051666667","25.0433566666667","6500500","新莊區"
"242044","566-BX","2018/11/27 17:39:13","新北市新莊區富國路19巷4號","121.418693333333","25.0267516666667","6500500","新莊區"
"242048","497-BY","2018/11/27 17:39:23","新北市新莊區萬安街125號","121.420706666667","25.022345","6500500","新莊區"
"242054","441-UM","2018/11/27 17:39:25","新北市新莊區新樹路699巷38號","121.432828333333","25.0013633333333","6500500","新莊區"
"242002","440-UM","2018/11/27 17:39:32","新北市新莊區新莊路435號","121.450115","25.033495","6500500","新莊區"
"242039","415-TV","2018/11/27 17:39:22","新北市新莊區民全街6號","121.429015","25.0214783333333","6500500","新莊區"
"242009","413-TV","2018/11/27 17:39:23","新北市新莊區昌明街14巷10號","121.45739","25.0532166666667","6500500","新莊區"
"242046","400-BY","2018/11/27 17:39:26","新北市新莊區中正路567號","121.434823333333","25.0323483333333","6500500","新莊區"
"242023","362-BY","2018/11/27 17:39:30","新北市新莊區公園路129-5號","121.457413333333","25.0407616666667","6500500","新莊區"
"242061","353-BY","2018/11/27 17:39:30","新北市新莊區瓊林南路73-30號","121.435051666667","25.0150433333333","6500500","新莊區"
"242011","132-UY","2018/11/27 17:39:26","新北市新莊區中港路556-1號","121.451605","25.053035","6500500","新莊區"
"242034","135-UY","2018/11/27 17:39:18","新北市新莊區新莊路617號","121.44574","25.03288","6500500","新莊區"
"242051","172-VK","2018/11/27 17:39:23","新北市新莊區西盛街201巷13號","121.428976666667","25.0171083333333","6500500","新莊區"
"242013","173-VK","2018/11/27 17:39:17","新北市新莊區中誠街71號","121.450613333333","25.0478566666667","6500500","新莊區"
"242019","175-VK","2018/11/27 17:39:19","新北市新莊區中港路225號","121.454641666667","25.0424983333333","6500500","新莊區"
"242007","176-VK","2018/11/27 17:39:18","新北市新莊區福樂街118巷2號","121.457343333333","25.0479816666667","6500500","新莊區"
"242017","346-TH","2018/11/27 17:39:20","新北市新莊區中和街30巷13號","121.448883333333","25.0438416666667","6500500","新莊區"
"242032","348-TH","2018/11/27 17:39:20","新北市新莊區新泰路370號","121.44424","25.0429183333333","6500500","新莊區"
"242005","349-TH","2018/11/27 17:39:23","新北市新莊區自立街180號","121.456051666667","25.0454533333333","6500500","新莊區"
"242021","350-TH","2018/11/27 17:39:30","新北市新莊區中華路一段118號","121.452525","25.0406166666667","6500500","新莊區"
"242015","351-TH","2018/11/27 17:39:27","新北市新莊區新泰路337號","121.444815","25.0418616666667","6500500","新莊區"
"238015","755-BX","2018/11/27 17:39:30","新北市樹林區樹德街121號","121.419706666667","24.992525","6500700","樹林區"
"238023","601-UM","2018/11/27 17:39:28","新北市樹林區三福街68號","121.404826666667","25.0163433333333","6500700","樹林區"
"238019","599-UM","2018/11/27 17:39:12","新北市樹林區太平路127巷12弄1號","121.41981","24.9805633333333","6500700","樹林區"
"238018","571-TV","2018/11/27 17:39:20","新北市樹林區博愛街6號","121.42759","24.9932066666667","6500700","樹林區"
"238022","KEA-2213","2018/11/27 17:39:30","新北市樹林區中華路185-2號","121.420285","24.9816633333333","6500700","樹林區"
"238021","KEA-2539","2018/11/27 17:39:25","新北市樹林區柑園街一段253巷47號","121.397046666667","24.95314","6500700","樹林區"
"238025","303-VK","2018/11/27 17:39:31","新北市樹林區保安街三段71-2號","121.412623333333","25.012175","6500700","樹林區"
"238017","283-BY","2018/11/27 17:39:27","新北市樹林區中正路641號","121.413063333333","25.0120066666667","6500700","樹林區"
"238014","282-BY","2018/11/27 17:39:29","新北市樹林區保安街一段374號","121.417756666667","24.998895","6500700","樹林區"
"238020","268-VK","2018/11/27 17:39:22","新北市樹林區俊英街116巷106號","121.428431666667","25.0060033333333","6500700","樹林區"
"238026","172-UY","2018/11/27 17:39:25","新北市樹林區新興街19巷26號","121.401375","24.97338","6500700","樹林區"
"238016","169-UY","2018/11/27 17:39:07","新北市樹林區育英街32號","121.421803333333","24.9893","6500700","樹林區"
"239007","AAC-297","2018/11/27 17:39:24","新北市鶯歌區鶯桃路182巷26號","121.337501666667","24.956245","6500800","鶯歌區"
"239006","891-R6","2018/11/27 17:39:28","新北市鶯歌區鶯桃路451-1號","121.332196666667","24.96556","6500800","鶯歌區"
"239008","527-UM","2018/11/27 17:39:19","新北市鶯歌區大湖路732巷15弄4號","121.332811666667","24.9778066666667","6500800","鶯歌區"
"239001","417-VK","2018/11/27 17:39:32","新北市鶯歌區中正三路250號","121.32977","24.9364716666667","6500800","鶯歌區"
"239003","360-BY","2018/11/27 17:39:27","新北市鶯歌區鶯桃路206巷12號","121.337593333333","24.9594066666667","6500800","鶯歌區"
"239002","359-BY","2018/11/27 17:39:34","新北市鶯歌區光明街109巷2號","121.344268333333","24.95558","6500800","鶯歌區"
"239004","193-VK","2018/11/27 17:39:33","新北市鶯歌區三鶯路121-1號","121.359988333333","24.94459","6500800","鶯歌區"
"221008","489-VK","2018/11/27 17:39:20","新北市汐止區康寧街901號","121.651375","25.0750216666667","6501100","汐止區"
"221010","269-BY","2018/11/27 17:39:34","新北市汐止區汐萬路一段418巷27號","121.650163333333","25.079005","6501100","汐止區"
"221023","279-VK","2018/11/27 17:39:18","新北市汐止區康寧街901號","121.651723333333","25.074965","6501100","汐止區"
"221032","280-BY","2018/11/27 17:39:13","新北市汐止區康寧街901號","121.650828333333","25.075255","6501100","汐止區"
"221021","299-VK","2018/11/27 17:39:22","新北市汐止區康寧街901號","121.651306666667","25.0750183333333","6501100","汐止區"
"221031","353-TW","2018/11/27 17:39:22","新北市汐止區康寧街901號","121.650853333333","25.0752633333333","6501100","汐止區"
"221038","646-BX","2018/11/27 17:39:33","新北市汐止區汐萬路一段256巷1號","121.65191","25.07488","6501100","汐止區"
"221018","753-BX","2018/11/27 17:39:28","新北市汐止區康寧街901號","121.6514","25.0750083333333","6501100","汐止區"
"242042","281-VK","2018/11/27 17:39:29","新北市新莊區中正路514巷17號","121.433005","25.0329783333333","6500500","新莊區"
"235061","KEA-2875","2018/11/27 17:22:19","新北市中和區員山路36巷16-2號","121.485395","24.9916666666667","6500300","中和區"
