"lineid","car","time","location","longitude","latitude","cityid","cityname"
"234086","748-BX","2018/11/27 18:09:28","新北市永和區福和路1號","121.526433333333","25.0098766666667","6500400","永和區"
"234042","862-TW","2018/11/27 18:09:15","新北市永和區福和路1號","121.52629","25.0097083333333","6500400","永和區"
"234026","9371-KE","2018/11/27 18:09:26","新北市永和區自由街52號","121.513496666667","25.0061066666667","6500400","永和區"
"249005","172-UM","2018/11/27 18:09:28","新北市八里區荖阡坑路15-40號","121.401671666667","25.1398683333333","6502300","八里區"
"249001","173-UM","2018/11/27 18:09:33","新北市八里區龍米路二段30號","121.448705","25.1400616666667","6502300","八里區"
"249004","303-UY","2018/11/27 18:09:29","新北市八里區龍米路二段200巷3號","121.433761666667","25.1587516666667","6502300","八里區"
"249002","305-UY","2018/11/27 18:09:29","新北市八里區龍米路一段386巷2號","121.451881666667","25.1319266666667","6502300","八里區"
"249003","593-UM","2018/11/27 18:09:20","新北市八里區松子腳4-3號","121.402995","25.1442316666667","6502300","八里區"
"248006","077-UY","2018/11/27 18:09:13","新北市五股區中興路二段70號","121.46131","25.07697","6501500","五股區"
"248008","095-VK","2018/11/27 18:09:15","新北市五股區更洲路32巷15弄9號","121.458176666667","25.080485","6501500","五股區"
"248020","225-UY","2018/11/27 18:09:34","新北市五股區成泰路三段544-1號","121.454745","25.1023033333333","6501500","五股區"
"248012","247-BX","2018/11/27 18:09:35","新北市五股區成泰路三段146號","121.4443","25.0899","6501500","五股區"
"248014","261-SL","2018/11/27 18:09:32","新北市五股區成泰路一段231-13號","121.435445","25.0777483333333","6501500","五股區"
"248010","272-BY","2018/11/27 18:09:17","新北市五股區成泰路一段219-18號","121.43466","25.0777383333333","6501500","五股區"
"248004","677-BX","2018/11/27 18:09:30","新北市五股區成泰路二段126號","121.438033333333","25.0834866666667","6501500","五股區"
"248002","678-BX","2018/11/27 18:09:24","新北市五股區新五路三段2號","121.44383","25.08704","6501500","五股區"
"244023","069-UM","2018/11/27 18:09:11","新北市林口區隆林街213號","121.383341666667","25.0741666666667","6501700","林口區"
"244007","080-UY","2018/11/27 18:09:17","新北市林口區林口路124巷10弄5號","121.38913","25.08167","6501700","林口區"
"244013","KEA-2802","2018/11/27 18:09:17","新北市林口區中山路140-1號","121.391595","25.078695","6501700","林口區"
"244019","410-SL","2018/11/27 18:09:26","新北市林口區忠孝路569巷50號","121.374521666667","25.0685666666667","6501700","林口區"
"244017","485-VK","2018/11/27 18:09:20","新北市林口區忠孝路506號","121.370703333333","25.0699216666667","6501700","林口區"
"244009","656-BX","2018/11/27 18:09:24","新北市林口區文化二路二段126號","121.380033333333","25.08276","6501700","林口區"
"244011","701-TV","2018/11/27 18:09:21","新北市林口區粉寮路一段47號","121.396681666667","25.07768","6501700","林口區"
"244025","837-TS","2018/11/27 18:09:22","新北市林口區文明街182號","121.361196666667","25.0726266666667","6501700","林口區"
"244021","838-TS","2018/11/27 18:09:30","新北市林口區自強一街107號","121.400655","25.07654","6501700","林口區"
"222003","436-BY","2018/11/27 18:09:17","新北市深坑區阿柔洋47號","121.612286666667","24.99731","6501800","深坑區"
"222002","659-BX","2018/11/27 18:09:18","新北市深坑區文化街52號","121.619026666667","25.0016483333333","6501800","深坑區"
"231041","002-UM","2018/11/27 18:09:29","新北市新店區安華路28-1號","121.519781666667","24.9609183333333","6500600","新店區"
"231059","046-UY","2018/11/27 18:09:27","新北市新店區安一路一段1-1號","121.51981","24.96108","6500600","新店區"
"231040","047-UY","2018/11/27 18:09:26","新北市新店區安華路28-1號","121.519045","24.9608683333333","6500600","新店區"
"231044","106-UY","2018/11/27 18:09:32","新北市新店區安華路28-1號","121.519606666667","24.9607233333333","6500600","新店區"
"231046","107-UY","2018/11/27 18:09:33","新北市新店區直潭七街60號","121.532263333333","24.9398416666667","6500600","新店區"
"231048","187-VK","2018/11/27 18:09:27","新北市新店區安一路一段1-1號","121.519655","24.9612033333333","6500600","新店區"
"231051","188-VK","2018/11/27 18:09:20","新北市新店區安一路一段1-1號","121.519705","24.9611083333333","6500600","新店區"
"231054","KEA-2219","2018/11/27 18:09:30","新北市新店區安一路一段1-1號","121.519803333333","24.9611616666667","6500600","新店區"
"231057","256-BX","2018/11/27 18:09:30","新北市新店區安一路一段1-1號","121.519785","24.9611616666667","6500600","新店區"
"231042","268-BY","2018/11/27 18:09:16","新北市新店區安華路28-1號","121.51962","24.9608216666667","6500600","新店區"
"231050","AAD-862","2018/11/27 18:09:22","新北市新店區安華路28-1號","121.520111666667","24.9610316666667","6500600","新店區"
"231058","3713-VJ","2018/11/27 18:09:11","新北市新店區安華路28-1號","121.519148333333","24.9606083333333","6500600","新店區"
"231066","4716-K9","2018/11/27 18:09:30","新北市新店區安一路一段1-1號","121.519263333333","24.9614916666667","6500600","新店區"
"231056","4715-K9","2018/11/27 18:09:28","新北市新店區安康路一段355號","121.519813333333","24.9630616666667","6500600","新店區"
"231065","512-UM","2018/11/27 18:09:35","新北市新店區安一路一段1-1號","121.519325","24.9612616666667","6500600","新店區"
"231049","513-UM","2018/11/27 18:09:23","新北市新店區安一路一段1-1號","121.519788333333","24.96138","6500600","新店區"
"231061","619-UM","2018/11/27 18:09:17","新北市新店區安華路28-1號","121.519558333333","24.96103","6500600","新店區"
"231062","720-UM","2018/11/27 18:09:18","新北市新店區安一路一段1-1號","121.519241666667","24.9613933333333","6500600","新店區"
"231060","897-TW","2018/11/27 18:09:27","新北市新店區安華路28-1號","121.519538333333","24.9607133333333","6500600","新店區"
"231043","899-TW","2018/11/27 18:09:14","新北市新店區安華路28-1號","121.51898","24.9609083333333","6500600","新店區"
"231055","AKT-0513","2018/11/27 18:09:17","新北市新店區安華路28-1號","121.519596666667","24.9606516666667","6500600","新店區"
"241024","065-VK","2018/11/27 18:09:21","新北市三重區中正北路193巷35弄23號","121.477088333333","25.0709633333333","6500200","三重區"
"235066","003-UY","2018/11/27 18:09:24","新北市中和區中和路12號","121.49967","25.0021666666667","6500300","中和區"
"235056","096-UM","2018/11/27 18:09:16","新北市中和區員山路36巷13號","121.484293333333","24.991455","6500300","中和區"
"235039","097-UM","2018/11/27 18:09:26","新北市中和區錦和路350-1號","121.490256666667","24.993535","6500300","中和區"
"235065","098-UM","2018/11/27 18:09:17","新北市中和區莊敬路49巷18號","121.501663333333","25.0060983333333","6500300","中和區"
"235040","150-BY","2018/11/27 18:09:14","新北市中和區中正路637巷52弄1號","121.485376666667","24.99336","6500300","中和區"
"235058","151-BY","2018/11/27 18:09:28","新北市中和區圓通路367巷62-5號","121.492476666667","24.9830116666667","6500300","中和區"
"235038","185-VK","2018/11/27 18:09:15","新北市中和區景平路111巷2號","121.51654","24.9918283333333","6500300","中和區"
"235067","255-BX","2018/11/27 18:09:19","新北市中和區和城路一段271巷1號","121.485683333333","24.991835","6500300","中和區"
"235044","293-VK","2018/11/27 18:09:19","新北市中和區員山路36巷16-3號","121.485161666667","24.991175","6500300","中和區"
"235043","352-BY","2018/11/27 18:09:14","新北市中和區中正路637巷60弄61號","121.485383333333","24.9932983333333","6500300","中和區"
"235042","KEA-2878","2018/11/27 18:09:30","新北市中和區錦和路350-1號","121.490348333333","24.9935566666667","6500300","中和區"
"247012","KEA-2869","2018/11/27 18:07:34","新北市蘆洲區民族路66號","121.477411666667","25.0847816666667","6501400","蘆洲區"
"235050","4979-A6","2018/11/27 18:09:12","新北市中和區中正路395號","121.489788333333","24.9935333333333","6500300","中和區"
"235070","558-UM","2018/11/27 18:09:26","新北市中和區圓通路207號","121.497205","24.9944483333333","6500300","中和區"
"235045","565-BX","2018/11/27 18:09:18","新北市中和區中正路273-1號","121.495676666667","24.9936066666667","6500300","中和區"
"235054","640-BX","2018/11/27 18:09:33","新北市中和區員山路72-2號","121.481178333333","24.9935033333333","6500300","中和區"
"235060","647-TV","2018/11/27 18:09:14","新北市中和區員山路36巷16-3號","121.485026666667","24.99166","6500300","中和區"
"235047","732-UM","2018/11/27 18:09:21","新北市中和區中正路273-1號","121.49564","24.993615","6500300","中和區"
"235062","800-TS","2018/11/27 18:09:28","新北市中和區中山路二段361號","121.487975","25.0046916666667","6500300","中和區"
"235057","801-TS","2018/11/27 18:09:15","新北市中和區連城路469巷4號","121.483536666667","24.995555","6500300","中和區"
"235041","802-TS","2018/11/27 18:09:15","新北市中和區和城路一段271巷1號","121.485533333333","24.9916416666667","6500300","中和區"
"235052","805-TS","2018/11/27 18:09:22","新北市中和區中正路271號","121.495968333333","24.9936683333333","6500300","中和區"
"235048","896-TW","2018/11/27 18:09:29","新北市中和區員山路36巷16-2號","121.484995","24.991875","6500300","中和區"
"235053","900-TW","2018/11/27 18:09:25","新北市中和區員山路36巷16-2號","121.48509","24.9918533333333","6500300","中和區"
"235051","157-BY","2018/11/27 18:09:28","新北市中和區南山路279號","121.504145","24.9923266666667","6500300","中和區"
"235037","AAC-213","2018/11/27 18:09:21","新北市中和區景平路149號","121.513706666667","24.9922616666667","6500300","中和區"
"226004","312-R5","2018/11/27 18:09:33","新北市平溪區白石里白石腳23號","121.720323333333","25.0216066666667","6502400","平溪區"
"228001","212-TW","2018/11/27 18:09:24","新北市貢寮區真理里新港街26巷55弄2-1號","121.92742","25.0528566666667","6502600","貢寮區"
"228002","663-BX","2018/11/27 18:09:30","新北市貢寮區福連里馬崗街2-5號","121.9993","25.0136883333333","6502600","貢寮區"
"228003","828-UM","2018/11/27 18:09:31","新北市貢寮區真理里美艷山街6-2號","121.928836666667","25.060715","6502600","貢寮區"
"224006","676-BX","2018/11/27 18:09:27","新北市瑞芳區中山路67號","121.804135","25.10617","6501200","瑞芳區"
"224008","285-BY","2018/11/27 18:09:30","新北市瑞芳區員山子路23號","121.821358333333","25.1030266666667","6501200","瑞芳區"
"224007","275-VK","2018/11/27 18:09:22","新北市瑞芳區四腳亭坑路22號","121.777463333333","25.1096116666667","6501200","瑞芳區"
"224009","273-VK","2018/11/27 18:09:19","新北市瑞芳區金光路115號","121.85363","25.10625","6501200","瑞芳區"
"224005","271-BY","2018/11/27 18:08:13","新北市瑞芳區建基路一段62巷24-1號","121.81657","25.1284783333333","6501200","瑞芳區"
"227009","642-TC","2018/11/27 18:09:33","新北市雙溪區三貂里定福路1-2號","121.850811666667","25.0634566666667","6502500","雙溪區"
"253006","032-BX","2018/11/27 18:09:15","新北市石門區老梅路52巷25弄2-1號","121.546713333333","25.2872816666667","6502200","石門區"
"253005","295-VK","2018/11/27 18:09:30","新北市石門區福安街27號","121.56885","25.2923483333333","6502200","石門區"
"222001","KEA-2212","2018/11/27 18:09:27","新北市深坑區北深路二段184號","121.61414","25.002255","6501800","深坑區"
"208002","KEA-2872","2018/11/27 18:09:21","新北市金山區三界壇路101號","121.620506666667","25.2304616666667","6502700","金山區"
"208003","665-BX","2018/11/27 18:09:23","新北市金山區磺港里磺港路313號","121.644428333333","25.2278966666667","6502700","金山區"
"208001","761-BX","2018/11/27 18:09:21","新北市金山區磺港里磺港路71號","121.647316666667","25.2268666666667","6502700","金山區"
"251005","010-UM","2018/11/27 18:09:33","新北市淡水區水源街一段145號","121.447343333333","25.1717966666667","6501000","淡水區"
"251002","012-UM","2018/11/27 18:09:16","新北市淡水區中正東路一段129號","121.455533333333","25.1592066666667","6501000","淡水區"
"251013","KEA-2871","2018/11/27 18:09:31","新北市淡水區竹圍子19-2號","121.477278333333","25.1914716666667","6501000","淡水區"
"251016","179-VK","2018/11/27 18:09:03","新北市淡水區下圭柔山13號","121.451146666667","25.2007383333333","6501000","淡水區"
"251014","180-VK","2018/11/27 18:09:16","新北市淡水區南平15號","121.48791","25.21975","6501000","淡水區"
"251008","181-VK","2018/11/27 18:09:30","新北市淡水區坪頂路70巷37號","121.460115","25.1607816666667","6501000","淡水區"
"251015","182-VK","2018/11/27 18:09:23","新北市淡水區興福寮88巷1號","121.485258333333","25.16493","6501000","淡水區"
"251010","413-VK","2018/11/27 18:09:16","新北市淡水區淡海路162號","121.420815","25.1832933333333","6501000","淡水區"
"251012","441-VK","2018/11/27 18:09:22","新北市淡水區北新路三段171-1號","121.49217","25.191695","6501000","淡水區"
"251004","443-VK","2018/11/27 18:01:07","新北市淡水區民權路187巷25號","121.4608","25.1335366666667","6501000","淡水區"
"251001","559-UM","2018/11/27 18:09:15","新北市淡水區自立路8號","121.462703333333","25.129565","6501000","淡水區"
"251006","561-UM","2018/11/27 18:09:32","新北市淡水區真理街3巷21-1號","121.437745","25.176315","6501000","淡水區"
"251007","577-R6","2018/11/27 18:09:31","新北市淡水區中正東路二段153號","121.459646666667","25.1466","6501000","淡水區"
"251011","650-BX","2018/11/27 18:09:15","新北市淡水區三空泉9-2號","121.474068333333","25.1634883333333","6501000","淡水區"
"251003","766-UM","2018/11/27 18:09:26","新北市淡水區大忠街113巷18號","121.447181666667","25.1775066666667","6501000","淡水區"
"207003","550-UM","2018/11/27 18:09:16","新北市萬里區野柳里港西路70號","121.685301666667","25.204515","6502800","萬里區"
"207004","225-TW","2018/11/27 18:09:25","新北市萬里區中幅里中福路93號","121.675716666667","25.1696983333333","6502800","萬里區"
"252002","178-VK","2018/11/27 18:09:32","新北市三芝區中山路二段41號","121.502961666667","25.2550816666667","6502100","三芝區"
"252003","249-BX","2018/11/27 18:09:24","新北市三芝區埔坪里埔頭坑41號","121.504728333333","25.263905","6502100","三芝區"
"252001","292-VK","2018/11/27 18:09:14","新北市三芝區中興街二段2號","121.498395","25.25662","6502100","三芝區"
"237004","KEA-2597","2018/11/27 18:09:25","新北市三峽區圳頭51號","121.378513333333","24.882985","6500900","三峽區"
"237007","153-BY","2018/11/27 18:09:17","新北市三峽區中正路二段370巷16號","121.365101666667","24.9104733333333","6500900","三峽區"
"237009","210-TH","2018/11/27 18:09:19","新北市三峽區大仁路64號","121.36498","24.9374466666667","6500900","三峽區"
"237013","252-BX","2018/11/27 18:09:31","新北市三峽區長泰街5巷12號","121.377921666667","24.9312833333333","6500900","三峽區"
"237012","275-BY","2018/11/27 18:09:14","新北市三峽區民生街1巷1-40號","121.377356666667","24.935655","6500900","三峽區"
"237014","433-BY","2018/11/27 18:09:27","新北市三峽區國光街63巷8號","121.373895","24.93798","6500900","三峽區"
"237006","5529-G3","2018/11/27 18:09:31","新北市三峽區介壽路二段167號","121.394725","24.9359066666667","6500900","三峽區"
"237011","KEA-2596","2018/11/27 18:09:26","新北市三峽區大同路2-1號","121.378483333333","24.9300983333333","6500900","三峽區"
"237016","649-BX","2018/11/27 18:09:28","新北市三峽區紫新路48號","121.42209","24.922055","6500900","三峽區"
"237010","706-TV","2018/11/27 18:09:29","新北市三峽區民族街67號","121.369591666667","24.92952","6500900","三峽區"
"237005","AKY-6261","2018/11/27 18:09:14","新北市三峽區忠孝街17號","121.370936666667","24.9342933333333","6500900","三峽區"
"236070","105-UM","2018/11/27 18:09:25","新北市土城區青雲路386號","121.458735","24.97309","6501300","土城區"
"236042","KED-0685","2018/11/27 18:09:28","新北市土城區城林路6巷80號","121.438541666667","24.9797816666667","6501300","土城區"
"236079","166-UM","2018/11/27 18:09:22","新北市土城區永安街15號","121.433821666667","24.9648366666667","6501300","土城區"
"236030","253-BX","2018/11/27 18:09:21","新北市土城區城林路6巷80號","121.438666666667","24.9796066666667","6501300","土城區"
"236026","269-VK","2018/11/27 18:09:24","新北市土城區承天路67號","121.439528333333","24.9635966666667","6501300","土城區"
"236014","270-VK","2018/11/27 18:09:17","新北市土城區員福街6號","121.441798333333","24.978485","6501300","土城區"
"236038","271-VK","2018/11/27 18:09:27","新北市土城區金城路二段20號","121.449673333333","24.9775933333333","6501300","土城區"
"236021","752-BX","2018/11/27 18:09:33","新北市土城區中華路二段2號","121.439346666667","24.9796566666667","6501300","土城區"
"236059","912-UM","2018/11/27 18:09:27","新北市土城區中央路四段196-1號","121.416278333333","24.9576883333333","6501300","土城區"
"236049","913-UM","2018/11/27 18:09:29","新北市土城區金城路二段14號","121.449378333333","24.9773616666667","6501300","土城區"
"236063","915-UM","2018/11/27 18:08:53","新北市土城區金城路二段2巷5號","121.447348333333","24.975895","6501300","土城區"
"236055","970-R7","2018/11/27 18:09:12","新北市土城區城林路6巷80號","121.438171666667","24.9794666666667","6501300","土城區"
"242037","AAC-296","2018/11/27 18:09:18","新北市新莊區後港一路49巷5弄2號","121.425586666667","25.0271983333333","6500500","新莊區"
"242058","986-R7","2018/11/27 18:09:28","新北市新莊區壽山路49-2號","121.414263333333","25.0308033333333","6500500","新莊區"
"242056","751-BX","2018/11/27 18:09:26","新北市新莊區泰豐街11巷9號","121.448","25.0312733333333","6500500","新莊區"
"242025","705-TV","2018/11/27 18:09:32","新北市新莊區五權一路112號","121.459978333333","25.0678983333333","6500500","新莊區"
"242027","615-BX","2018/11/27 18:09:35","新北市新莊區幸福路567號","121.454188333333","25.04923","6500500","新莊區"
"242029","612-BX","2018/11/27 18:09:26","新北市新莊區中平路192號","121.444868333333","25.04818","6500500","新莊區"
"242044","566-BX","2018/11/27 18:09:33","新北市新莊區雙鳳路135號","121.412865","25.027355","6500500","新莊區"
"242048","497-BY","2018/11/27 18:09:23","新北市新莊區民安路98巷5號","121.423633333333","25.02562","6500500","新莊區"
"242054","441-UM","2018/11/27 18:09:15","新北市新莊區民安西路325號","121.427685","25.0111433333333","6500500","新莊區"
"242002","440-UM","2018/11/27 18:09:32","新北市新莊區新莊路126號","121.455791666667","25.0358483333333","6500500","新莊區"
"242039","415-TV","2018/11/27 18:09:22","新北市新莊區民安西路40號","121.427228333333","25.020945","6500500","新莊區"
"242009","413-TV","2018/11/27 18:09:24","新北市新莊區昌平街71巷14號","121.453863333333","25.0538066666667","6500500","新莊區"
"242046","400-BY","2018/11/27 18:09:22","新北市新莊區福營路301號","121.426801666667","25.0289766666667","6500500","新莊區"
"242061","353-BY","2018/11/27 18:09:23","新北市新莊區新樹路341號","121.433051666667","25.0186066666667","6500500","新莊區"
"242011","132-UY","2018/11/27 18:09:18","新北市新莊區中榮街47號","121.449425","25.052675","6500500","新莊區"
"242034","135-UY","2018/11/27 18:09:18","新北市新莊區福海街24巷7號","121.445816666667","25.0340933333333","6500500","新莊區"
"242051","172-VK","2018/11/27 18:09:23","新北市新莊區民本街11巷22號","121.428786666667","25.0202616666667","6500500","新莊區"
"242007","176-VK","2018/11/27 18:09:28","新北市新莊區自強街37巷14弄2號","121.45423","25.04683","6500500","新莊區"
"242032","348-TH","2018/11/27 18:09:20","新北市新莊區新泰路277巷11號","121.445221666667","25.0401516666667","6500500","新莊區"
"242005","349-TH","2018/11/27 18:09:19","新北市新莊區自立街80號","121.454495","25.04529","6500500","新莊區"
"242021","350-TH","2018/11/27 18:09:19","新北市新莊區新興街39號","121.450698333333","25.0384416666667","6500500","新莊區"
"242015","351-TH","2018/11/27 18:09:27","新北市新莊區中平路152巷46號","121.446681666667","25.047365","6500500","新莊區"
"238015","755-BX","2018/11/27 18:09:30","新北市樹林區文德街10號","121.418783333333","24.991765","6500700","樹林區"
"238023","601-UM","2018/11/27 18:09:28","新北市樹林區三寶街7號","121.406713333333","25.0155783333333","6500700","樹林區"
"238019","599-UM","2018/11/27 18:09:32","新北市樹林區水源街32巷48號","121.425255","24.9807233333333","6500700","樹林區"
"238018","571-TV","2018/11/27 18:09:23","新北市樹林區博愛一街29巷2號","121.425813333333","24.9909583333333","6500700","樹林區"
"238022","KEA-2213","2018/11/27 18:09:30","新北市樹林區太平路225巷2號","121.418536666667","24.9769916666667","6500700","樹林區"
"238021","KEA-2539","2018/11/27 18:09:25","新北市樹林區柑園街二段121號","121.384805","24.9548733333333","6500700","樹林區"
"238025","303-VK","2018/11/27 18:09:31","新北市樹林區保安街一段291號","121.418325","24.9976333333333","6500700","樹林區"
"238017","283-BY","2018/11/27 18:09:28","新北市樹林區中正路666號","121.409596666667","25.0167966666667","6500700","樹林區"
"238014","282-BY","2018/11/27 18:09:29","新北市樹林區潭興街107巷21弄18號","121.423845","24.9987933333333","6500700","樹林區"
"238020","268-VK","2018/11/27 18:09:22","新北市樹林區俊興街286號","121.418681666667","25.0170433333333","6500700","樹林區"
"238026","172-UY","2018/11/27 18:09:25","新北市樹林區佳園路一段46號","121.392903333333","24.97095","6500700","樹林區"
"238016","169-UY","2018/11/27 18:09:27","新北市樹林區育英街146號","121.419165","24.9894816666667","6500700","樹林區"
"239007","AAC-297","2018/11/27 18:09:24","新北市鶯歌區育英街69號","121.347315","24.9519983333333","6500800","鶯歌區"
"239006","891-R6","2018/11/27 18:09:28","新北市鶯歌區鶯桃路451-1號","121.33206","24.9656","6500800","鶯歌區"
"239008","527-UM","2018/11/27 18:09:19","新北市鶯歌區國際一路179號","121.336263333333","24.9765283333333","6500800","鶯歌區"
"239005","526-UM","2018/11/27 18:07:56","新北市鶯歌區鶯桃路668巷74-15號","121.33044","24.9711883333333","6500800","鶯歌區"
"239001","417-VK","2018/11/27 18:09:32","新北市鶯歌區國中街60巷10號","121.34101","24.9426966666667","6500800","鶯歌區"
"239003","360-BY","2018/11/27 18:09:27","新北市鶯歌區福安街38號","121.334536666667","24.964315","6500800","鶯歌區"
"239002","359-BY","2018/11/27 18:09:14","新北市鶯歌區中山路145號","121.349153333333","24.9568866666667","6500800","鶯歌區"
"239004","193-VK","2018/11/27 18:09:13","新北市鶯歌區尖山路207號","121.34355","24.9468216666667","6500800","鶯歌區"
"221008","489-VK","2018/11/27 18:09:20","新北市汐止區康寧街379號","121.62897","25.067765","6501100","汐止區"
"221036","130-UY","2018/11/27 18:09:19","新北市汐止區大同路三段199號","121.671383333333","25.07721","6501100","汐止區"
"221015","131-UY","2018/11/27 18:09:15","新北市汐止區鄉長路二段40巷1號","121.667391666667","25.083815","6501100","汐止區"
"221010","269-BY","2018/11/27 18:09:14","新北市汐止區汐萬路二段258號","121.645863333333","25.0892366666667","6501100","汐止區"
"221012","278-VK","2018/11/27 18:09:25","新北市汐止區保一街67號","121.67427","25.0798983333333","6501100","汐止區"
"221023","279-VK","2018/11/27 18:09:23","新北市汐止區明峰街190號","121.628151666667","25.0697316666667","6501100","汐止區"
"221032","280-BY","2018/11/27 18:09:33","新北市汐止區力行街32號","121.616718333333","25.0502866666667","6501100","汐止區"
"221027","281-BY","2018/11/27 18:09:25","新北市汐止區大同路二段585號","121.663623333333","25.0701583333333","6501100","汐止區"
"221029","298-VK","2018/11/27 18:09:21","新北市汐止區樟樹二路134號","121.639911666667","25.0656383333333","6501100","汐止區"
"221021","299-VK","2018/11/27 18:09:22","新北市汐止區復興路24號","121.655856666667","25.0637916666667","6501100","汐止區"
"221031","353-TW","2018/11/27 18:09:22","新北市汐止區中興路152-3號","121.632336666667","25.0648733333333","6501100","汐止區"
"221035","622-UM","2018/11/27 18:09:17","新北市汐止區汐萬路一段37號","121.655591666667","25.06818","6501100","汐止區"
"221025","623-UM","2018/11/27 18:09:33","新北市汐止區秀峰路160號","121.660355","25.0621933333333","6501100","汐止區"
"221038","646-BX","2018/11/27 18:09:13","新北市汐止區南興路83巷1號","121.65292","25.05915","6501100","汐止區"
"221033","647-BX","2018/11/27 18:09:28","新北市汐止區宜興街40巷22弄2號","121.622533333333","25.0410733333333","6501100","汐止區"
"221002","707-TV","2018/11/27 18:09:29","新北市汐止區福德一路207號","121.635146666667","25.0654983333333","6501100","汐止區"
"221018","753-BX","2018/11/27 18:09:31","新北市汐止區忠孝東路400號","121.665756666667","25.070645","6501100","汐止區"
"224002","257-TC","2018/11/27 18:09:34","新北市瑞芳區三爪子坑路149巷22-4號","121.811381666667","25.1063033333333","6501200","瑞芳區"
"242042","281-VK","2018/11/27 18:09:29","新北市新莊區天祥街33號","121.417165","25.0284583333333","6500500","新莊區"
"235068","KEA-2873","2018/11/27 18:09:14","新北市中和區員山路36巷16-3號","121.48507","24.991175","6500300","中和區"
"235061","KEA-2875","2018/11/27 18:09:31","新北市土城區延壽路109巷2號","121.469051666667","24.9933666666667","6500300","中和區"
"235064","KEA-2876","2018/11/27 18:09:11","新北市中和區中正路271-1號","121.495786666667","24.99361","6500300","中和區"
