"lineid","car","time","location","longitude","latitude","cityid","cityname"
"234046","148-BY","2018/11/27 18:29:14","新北市永和區福和路1號","121.525811666667","25.00952","6500400","永和區"
"234007","207-UY","2018/11/27 18:29:15","新北市永和區環河西路二段229巷1號","121.501395","25.0100266666667","6500400","永和區"
"234081","298-R6","2018/11/27 18:29:27","新北市永和區福和路7巷15弄20號","121.526138333333","25.007405","6500400","永和區"
"234086","748-BX","2018/11/27 18:29:28","新北市永和區福和路227號","121.51872","25.0074266666667","6500400","永和區"
"234042","862-TW","2018/11/27 18:29:15","新北市永和區福和路327號","121.515681666667","25.00717","6500400","永和區"
"234026","9371-KE","2018/11/27 18:29:26","新北市永和區中正路623號","121.515955","25.0099266666667","6500400","永和區"
"234011","9373-KE","2018/11/27 18:29:22","新北市永和區保福路二段158巷1號","121.509083333333","25.0150416666667","6500400","永和區"
"249005","172-UM","2018/11/27 18:29:28","新北市八里區長坑口47-8號","121.390076666667","25.1342266666667","6502300","八里區"
"249001","173-UM","2018/11/27 18:29:33","新北市八里區龍米路一段162號","121.4527","25.1260383333333","6502300","八里區"
"249004","303-UY","2018/11/27 18:29:29","新北市八里區忠孝路29號","121.42875","25.1600816666667","6502300","八里區"
"249002","305-UY","2018/11/27 18:29:29","新北市八里區龍形三街26號","121.447945","25.1316333333333","6502300","八里區"
"248016","026-BX","2018/11/27 18:29:21","新北市五股區凌雲路一段83巷8號","121.450466666667","25.10103","6501500","五股區"
"248006","077-UY","2018/11/27 18:29:33","新北市五股區四維路38號","121.467331666667","25.071545","6501500","五股區"
"248008","095-VK","2018/11/27 18:29:15","新北市五股區四維路185巷42弄1號","121.463648333333","25.0768383333333","6501500","五股區"
"248020","225-UY","2018/11/27 18:29:15","新北市五股區孝義路64號","121.453945","25.1122666666667","6501500","五股區"
"248012","247-BX","2018/11/27 18:29:35","新北市五股區御成路8號","121.442018333333","25.0910433333333","6501500","五股區"
"248014","261-SL","2018/11/27 18:29:12","新北市五股區自強路150巷12號","121.431555","25.0706483333333","6501500","五股區"
"248010","272-BY","2018/11/27 18:29:17","新北市五股區水碓路16巷9號","121.433923333333","25.072935","6501500","五股區"
"248004","677-BX","2018/11/27 18:29:30","新北市五股區工商路148號","121.43392","25.0870716666667","6501500","五股區"
"248002","678-BX","2018/11/27 18:29:24","新北市五股區西雲路116-6號","121.444663333333","25.09367","6501500","五股區"
"234077","969-R7","2018/11/27 18:29:32","新北市永和區福和路1號","121.526396666667","25.0098483333333","6500400","永和區"
"244023","069-UM","2018/11/27 18:29:31","新北市林口區仁愛路二段62巷14號","121.384021666667","25.0761433333333","6501700","林口區"
"244007","080-UY","2018/11/27 18:29:17","新北市林口區後湖3號","121.38925","25.0978783333333","6501700","林口區"
"244013","KEA-2802","2018/11/27 18:29:17","新北市林口區文化一路二段186號","121.382598333333","25.0799833333333","6501700","林口區"
"244019","410-SL","2018/11/27 18:29:27","新北市林口區忠孝路696號","121.37947","25.0685283333333","6501700","林口區"
"244017","485-VK","2018/11/27 18:29:20","新北市林口區八德路78號","121.365653333333","25.0655016666667","6501700","林口區"
"244009","656-BX","2018/11/27 18:29:24","新北市林口區寶林路123號","121.382941666667","25.08542","6501700","林口區"
"244011","701-TV","2018/11/27 18:29:21","新北市林口區中山路146-1號","121.391306666667","25.0786966666667","6501700","林口區"
"244025","837-TS","2018/11/27 18:29:22","新北市林口區南勢四街196巷17號","121.356913333333","25.0729816666667","6501700","林口區"
"244021","838-TS","2018/11/27 18:29:30","新北市林口區工六路8號","121.397865","25.0791633333333","6501700","林口區"
"243013","AAD-798","2018/11/27 18:27:45","新北市泰山區明志路三段206巷3號","121.423273333333","25.0379283333333","6501600","泰山區"
"243016","KEA-2801","2018/11/27 18:27:26","新北市泰山區犁頭窠3-1號","121.422101666667","25.0605766666667","6501600","泰山區"
"243012","646-TV","2018/11/27 18:29:24","新北市泰山區泰林路二段408號","121.42757","25.0642516666667","6501600","泰山區"
"222003","436-BY","2018/11/27 18:29:17","新北市深坑區北深路一段288號","121.628155","25.00765","6501800","深坑區"
"222002","659-BX","2018/11/27 18:29:18","新北市深坑區雲鄉路167號","121.621806666667","24.9979933333333","6501800","深坑區"
"231041","002-UM","2018/11/27 18:29:29","新北市新店區安華路28-1號","121.519708333333","24.960865","6500600","新店區"
"231059","046-UY","2018/11/27 18:29:28","新北市新店區安華路28-1號","121.519581666667","24.9606716666667","6500600","新店區"
"231040","047-UY","2018/11/27 18:29:26","新北市新店區安華路28-1號","121.51919","24.9609283333333","6500600","新店區"
"231044","106-UY","2018/11/27 18:29:32","新北市新店區安華路28-1號","121.519621666667","24.960785","6500600","新店區"
"231046","107-UY","2018/11/27 18:29:33","新北市新店區直潭七街60號","121.532263333333","24.939845","6500600","新店區"
"231053","108-UY","2018/11/27 18:29:19","新北市新店區新烏路一段50-23號","121.545735","24.94949","6500600","新店區"
"231048","187-VK","2018/11/27 18:29:07","新北市新店區安一路一段1-1號","121.519621666667","24.9612316666667","6500600","新店區"
"231051","188-VK","2018/11/27 18:29:20","新北市新店區安一路一段1-1號","121.519676666667","24.9611066666667","6500600","新店區"
"231054","KEA-2219","2018/11/27 18:29:30","新北市新店區安一路一段1-1號","121.51993","24.9611783333333","6500600","新店區"
"231057","256-BX","2018/11/27 18:29:30","新北市新店區北新路一段89號","121.53862","24.9616166666667","6500600","新店區"
"231042","268-BY","2018/11/27 18:29:36","新北市新店區安華路1-1號","121.519413333333","24.9604316666667","6500600","新店區"
"231050","AAD-862","2018/11/27 18:29:22","新北市新店區安一路一段1-1號","121.51995","24.9611","6500600","新店區"
"231058","3713-VJ","2018/11/27 18:29:31","新北市新店區環河路19巷13-1號","121.537681666667","24.9603683333333","6500600","新店區"
"231066","4716-K9","2018/11/27 18:29:31","新北市新店區安一路一段1-1號","121.519251666667","24.9612366666667","6500600","新店區"
"231056","4715-K9","2018/11/27 18:29:28","新北市新店區自立街41號","121.53731","24.9797433333333","6500600","新店區"
"231067","4772-VM","2018/11/27 18:29:20","新北市新店區安華路28-1號","121.519188333333","24.960585","6500600","新店區"
"231065","512-UM","2018/11/27 18:29:35","新北市新店區安一路一段1-1號","121.519233333333","24.961245","6500600","新店區"
"231049","513-UM","2018/11/27 18:29:23","新北市新店區安一路一段1-1號","121.519655","24.96118","6500600","新店區"
"231063","616-UM","2018/11/27 18:29:31","新北市新店區安華路1-1號","121.519446666667","24.9604066666667","6500600","新店區"
"231061","619-UM","2018/11/27 18:29:17","新北市新店區安華路28-1號","121.519661666667","24.9607483333333","6500600","新店區"
"231064","719-UM","2018/11/27 18:27:04","新北市新店區安一路一段1-1號","121.519441666667","24.96123","6500600","新店區"
"231062","720-UM","2018/11/27 18:29:18","新北市新店區安一路一段1-1號","121.519256666667","24.96117","6500600","新店區"
"231060","897-TW","2018/11/27 18:29:28","新北市新店區安華路28-1號","121.519668333333","24.96077","6500600","新店區"
"231045","898-TW","2018/11/27 18:29:25","新北市新店區安華路28-1號","121.519311666667","24.9608516666667","6500600","新店區"
"231043","899-TW","2018/11/27 18:29:14","新北市新店區安華路28-1號","121.519236666667","24.96083","6500600","新店區"
"231055","AKT-0513","2018/11/27 18:29:17","新北市新店區中正路228號","121.540023333333","24.97275","6500600","新店區"
"235066","003-UY","2018/11/27 18:29:24","新北市中和區中山路二段119號","121.50282","25.0036416666667","6500300","中和區"
"235063","006-UY","2018/11/27 18:29:31","新北市中和區連城路401號","121.486221666667","24.9962116666667","6500300","中和區"
"235056","096-UM","2018/11/27 18:29:16","新北市中和區員山路611巷5弄1號","121.477901666667","25.0111566666667","6500300","中和區"
"235039","097-UM","2018/11/27 18:29:26","新北市中和區安平路192號","121.51324","24.9992483333333","6500300","中和區"
"235065","098-UM","2018/11/27 18:29:17","新北市中和區中山路二段64巷12號","121.503575","25.0052116666667","6500300","中和區"
"235040","150-BY","2018/11/27 18:29:14","新北市中和區安平路59號","121.509553333333","24.9951883333333","6500300","中和區"
"235058","151-BY","2018/11/27 18:29:28","新北市中和區圓通路369巷30弄48號","121.48879","24.984405","6500300","中和區"
"235055","183-VK","2018/11/27 18:29:34","新北市中和區莒光路3巷1號","121.47189","25.0061033333333","6500300","中和區"
"235038","185-VK","2018/11/27 18:29:35","新北市中和區自立路26號","121.522476666667","24.9930166666667","6500300","中和區"
"235049","186-VK","2018/11/27 18:29:32","新北市中和區景安路128號","121.505178333333","24.9945516666667","6500300","中和區"
"235067","255-BX","2018/11/27 18:29:19","新北市中和區新生街163號","121.483598333333","25.001225","6500300","中和區"
"235044","293-VK","2018/11/27 18:29:19","新北市中和區復興路301巷2弄1號","121.501508333333","24.98987","6500300","中和區"
"235072","301-VK","2018/11/27 18:29:23","新北市中和區連城路133-1號","121.49587","24.9990283333333","6500300","中和區"
"235043","352-BY","2018/11/27 18:29:34","新北市中和區景平路428號","121.507251666667","24.993205","6500300","中和區"
"235042","KEA-2878","2018/11/27 18:29:30","新北市中和區秀朗路三段179號","121.524291666667","24.9908533333333","6500300","中和區"
"247012","KEA-2869","2018/11/27 18:29:33","新北市八里區商港路120號","121.392946666667","25.1498516666667","6501400","蘆洲區"
"235050","4979-A6","2018/11/27 18:29:12","新北市中和區興南路一段1號","121.511545","24.99125","6500300","中和區"
"235069","4980-A6","2018/11/27 18:29:22","新北市中和區連城路127巷48號","121.497291666667","24.9971933333333","6500300","中和區"
"235070","558-UM","2018/11/27 18:29:26","新北市中和區景新街133號","121.505995","24.9972283333333","6500300","中和區"
"235045","565-BX","2018/11/27 18:29:18","新北市中和區南山路236巷36弄5號","121.504131666667","24.988315","6500300","中和區"
"235054","640-BX","2018/11/27 18:29:13","新北市中和區民享街87號","121.474396666667","25.001595","6500300","中和區"
"235060","647-TV","2018/11/27 18:29:34","新北市中和區中山路三段1號","121.480026666667","25.0058766666667","6500300","中和區"
"235047","732-UM","2018/11/27 18:29:21","新北市中和區南山路250巷2號","121.50768","24.9889866666667","6500300","中和區"
"235046","733-UM","2018/11/27 18:29:20","新北市中和區南山路273號","121.504006666667","24.9923466666667","6500300","中和區"
"235062","800-TS","2018/11/27 18:29:28","新北市中和區景平路744號","121.496586666667","25.00425","6500300","中和區"
"235057","801-TS","2018/11/27 18:29:15","新北市中和區民安街42巷2號","121.479958333333","25.0005816666667","6500300","中和區"
"235041","802-TS","2018/11/27 18:29:35","新北市中和區景安路40號","121.507078333333","24.99824","6500300","中和區"
"235052","805-TS","2018/11/27 18:29:33","新北市中和區興南路二段100號","121.504865","24.9840216666667","6500300","中和區"
"235048","896-TW","2018/11/27 18:29:29","新北市中和區中正路79號","121.500791666667","24.9933116666667","6500300","中和區"
"235053","900-TW","2018/11/27 18:29:25","新北市中和區民享街457號","121.470381666667","24.993175","6500300","中和區"
"235051","157-BY","2018/11/27 18:29:29","新北市中和區興南路二段128巷7弄6號","121.503046666667","24.9839066666667","6500300","中和區"
"235037","AAC-213","2018/11/27 18:29:21","新北市中和區景德街95-2號","121.51548","24.99111","6500300","中和區"
"220065","072-UY","2018/11/27 18:29:23","新北市板橋區館前東路112號","121.463445","25.0075483333333","6500100","板橋區"
"220086","073-UY","2018/11/27 18:29:28","新北市板橋區南雅西路一段5巷5號","121.454713333333","25.0040283333333","6500100","板橋區"
"220069","AAD-861","2018/11/27 18:29:24","新北市板橋區華東街1-10號","121.448406666667","24.9950816666667","6500100","板橋區"
"226004","312-R5","2018/11/27 18:29:33","新北市平溪區靜安路二段274巷6號","121.72726","25.02184","6502400","平溪區"
"228001","212-TW","2018/11/27 18:29:24","新北市貢寮區仁理村仁和路60號","121.923066666667","25.0498","6502600","貢寮區"
"228002","663-BX","2018/11/27 18:29:30","新北市貢寮區福連里香蘭街16-2號","121.98309","25.021725","6502600","貢寮區"
"228003","828-UM","2018/11/27 18:29:31","新北市貢寮區和美里和美街43-1號","121.91429","25.0912766666667","6502600","貢寮區"
"224010","AGQ-8101","2018/11/27 18:29:26","新北市瑞芳區崙頂路51號","121.844388333333","25.1074133333333","6501200","瑞芳區"
"224006","676-BX","2018/11/27 18:29:32","新北市瑞芳區明燈路三段30號","121.808255","25.1076366666667","6501200","瑞芳區"
"224008","285-BY","2018/11/27 18:29:30","新北市瑞芳區岳王路1巷29號","121.80593","25.1104583333333","6501200","瑞芳區"
"224007","275-VK","2018/11/27 18:29:22","新北市瑞芳區大埔路吉慶公園城17號","121.765088333333","25.0999733333333","6501200","瑞芳區"
"224009","273-VK","2018/11/27 18:29:19","新北市瑞芳區五號路12號","121.855051666667","25.1100933333333","6501200","瑞芳區"
"224005","271-BY","2018/11/27 18:29:32","新北市瑞芳區瑞濱路159號","121.81834","25.1182416666667","6501200","瑞芳區"
"227009","642-TC","2018/11/27 18:29:33","新北市雙溪區牡丹里牡丹143號","121.851331666667","25.0589883333333","6502500","雙溪區"
"227003","400-TW","2018/11/27 18:29:32","新北市雙溪區魚行里坤溪35號","121.870496666667","25.0303916666667","6502500","雙溪區"
"253006","032-BX","2018/11/27 18:29:35","新北市石門區公地47號","121.545408333333","25.2900216666667","6502200","石門區"
"253005","295-VK","2018/11/27 18:29:30","新北市石門區老崩山10-5號","121.552688333333","25.291015","6502200","石門區"
"222001","KEA-2212","2018/11/27 18:29:27","新北市深坑區北深路一段201巷1號","121.63037","25.0089","6501800","深坑區"
"208002","KEA-2872","2018/11/27 18:29:21","新北市金山區民生路31號","121.643273333333","25.2217333333333","6502700","金山區"
"208003","665-BX","2018/11/27 18:29:30","新北市金山區中山路173號","121.638665","25.2207166666667","6502700","金山區"
"208001","761-BX","2018/11/27 18:29:21","新北市金山區文化一路4號","121.637316666667","25.22374","6502700","金山區"
"251005","010-UM","2018/11/27 18:29:34","新北市淡水區中正東路35巷9號","121.446395","25.1686233333333","6501000","淡水區"
"251002","012-UM","2018/11/27 18:29:16","新北市淡水區竿蓁二街19巷7弄2號","121.453035","25.16364","6501000","淡水區"
"251013","KEA-2871","2018/11/27 18:29:31","新北市淡水區椿子林19-1號","121.48037","25.2039683333333","6501000","淡水區"
"251016","179-VK","2018/11/27 18:29:23","新北市淡水區下圭柔山102號","121.440983333333","25.2086916666667","6501000","淡水區"
"251014","180-VK","2018/11/27 18:29:16","新北市淡水區南平26-2號","121.493413333333","25.2148133333333","6501000","淡水區"
"251008","181-VK","2018/11/27 18:29:30","新北市淡水區北投子86-5號","121.469116666667","25.1824383333333","6501000","淡水區"
"251015","182-VK","2018/11/27 18:29:23","新北市淡水區興福寮88巷216號","121.485978333333","25.1665783333333","6501000","淡水區"
"251010","413-VK","2018/11/27 18:29:36","新北市淡水區沙崙路181巷1號","121.424178333333","25.184185","6501000","淡水區"
"251012","441-VK","2018/11/27 18:29:22","新北市淡水區北新路一段128號","121.458463333333","25.1822766666667","6501000","淡水區"
"251004","443-VK","2018/11/27 18:19:07","新北市淡水區民族路136號","121.462895","25.1344733333333","6501000","淡水區"
"251001","559-UM","2018/11/27 18:29:16","新北市淡水區自強路122-9號","121.464616666667","25.13328","6501000","淡水區"
"251006","561-UM","2018/11/27 18:29:32","新北市淡水區新生街51巷32號","121.440741666667","25.1758966666667","6501000","淡水區"
"251007","577-R6","2018/11/27 18:29:31","新北市淡水區中正東路二段143巷2弄1號","121.460548333333","25.1472916666667","6501000","淡水區"
"251011","650-BX","2018/11/27 18:29:15","新北市淡水區中正東路8號","121.447938333333","25.16658","6501000","淡水區"
"251003","766-UM","2018/11/27 18:29:26","新北市淡水區北新路169巷16號","121.44982","25.180045","6501000","淡水區"
"207003","550-UM","2018/11/27 18:29:16","新北市萬里區野柳里港東路153號","121.689451666667","25.2050183333333","6502800","萬里區"
"207004","225-TW","2018/11/27 18:29:25","新北市萬里區萬里里瑪鋉路25號","121.687481666667","25.1754533333333","6502800","萬里區"
"252002","178-VK","2018/11/27 18:29:32","新北市三芝區中山路二段38號","121.503","25.2551083333333","6502100","三芝區"
"252003","249-BX","2018/11/27 18:29:24","新北市三芝區後厝里北勢子45-25號","121.468811666667","25.2505766666667","6502100","三芝區"
"252001","292-VK","2018/11/27 18:29:34","新北市三芝區中興街二段14號","121.498595","25.2562616666667","6502100","三芝區"
"237004","KEA-2597","2018/11/27 18:29:25","新北市三峽區插角42號","121.40486","24.8722566666667","6500900","三峽區"
"237007","153-BY","2018/11/27 18:29:17","新北市三峽區中正路三段170巷34號","121.352655","24.9045783333333","6500900","三峽區"
"237009","210-TH","2018/11/27 18:29:19","新北市三峽區大同路289號","121.365471666667","24.9252616666667","6500900","三峽區"
"237013","252-BX","2018/11/27 18:29:31","新北市三峽區光明路69巷25號","121.376663333333","24.929195","6500900","三峽區"
"237012","275-BY","2018/11/27 18:29:14","新北市三峽區三樹路168巷30號","121.3796","24.94044","6500900","三峽區"
"237014","433-BY","2018/11/27 18:29:27","新北市三峽區文化路73號","121.371696666667","24.9360966666667","6500900","三峽區"
"237006","5529-G3","2018/11/27 18:29:31","新北市三峽區溪東路473巷14號","121.414196666667","24.9286483333333","6500900","三峽區"
"237011","KEA-2596","2018/11/27 18:29:26","新北市三峽區溪東路350號","121.410988333333","24.9298466666667","6500900","三峽區"
"237016","649-BX","2018/11/27 18:29:29","新北市三峽區紫微南路5號","121.425656666667","24.9195533333333","6500900","三峽區"
"237010","706-TV","2018/11/27 18:29:29","新北市三峽區復興路489號","121.361258333333","24.9384166666667","6500900","三峽區"
"237005","AKY-6261","2018/11/27 18:29:14","新北市三峽區民生街151巷6號","121.373285","24.9347466666667","6500900","三峽區"
"236070","105-UM","2018/11/27 18:29:28","新北市土城區永豐路255巷27弄21號","121.476141666667","24.97305","6501300","土城區"
"236042","KED-0685","2018/11/27 18:29:28","新北市土城區裕民路67巷4弄2號","121.449811666667","24.98791","6501300","土城區"
"236079","166-UM","2018/11/27 18:29:22","新北市土城區大暖路61-2號","121.422068333333","24.9582416666667","6501300","土城區"
"236030","253-BX","2018/11/27 18:29:21","新北市土城區福仁街30巷10號","121.439443333333","24.9758733333333","6501300","土城區"
"236026","269-VK","2018/11/27 18:29:24","新北市土城區南天母路135巷20號","121.448683333333","24.9547016666667","6501300","土城區"
"236014","270-VK","2018/11/27 18:29:17","新北市土城區立清街69號","121.460301666667","24.9873083333333","6501300","土城區"
"236038","271-VK","2018/11/27 18:29:27","新北市土城區青雲路449號","121.4588","24.9752883333333","6501300","土城區"
"236021","752-BX","2018/11/27 18:29:33","新北市土城區永豐路202巷14號","121.466326666667","24.983335","6501300","土城區"
"236059","912-UM","2018/11/27 18:29:26","新北市土城區中央路四段105號","121.416671666667","24.9578333333333","6501300","土城區"
"236049","913-UM","2018/11/27 18:29:29","新北市土城區青雲路374-1號","121.458631666667","24.97336","6501300","土城區"
"236063","915-UM","2018/11/27 18:29:33","新北市中和區民享街466號","121.469328333333","24.9925816666667","6501300","土城區"
"236055","970-R7","2018/11/27 18:29:32","新北市土城區中華路二段51號","121.43942","24.978135","6501300","土城區"
"242058","986-R7","2018/11/27 18:29:24","新北市新莊區中正路891-3號","121.413516666667","25.02268","6500500","新莊區"
"242044","566-BX","2018/11/27 18:29:32","新北市新莊區新北大道七段852號","121.41389","25.0234716666667","6500500","新莊區"
"242054","441-UM","2018/11/27 18:29:22","新北市樹林區樹新路120巷18號","121.430626666667","24.9969283333333","6500500","新莊區"
"242009","413-TV","2018/11/27 18:29:23","新北市新莊區新泰路357巷2號","121.442423333333","25.0413916666667","6500500","新莊區"
"242046","400-BY","2018/11/27 18:29:22","新北市新莊區中正路803巷41號","121.422041666667","25.0277066666667","6500500","新莊區"
"242061","353-BY","2018/11/27 18:29:17","新北市新莊區後港一路122號","121.429056666667","25.027175","6500500","新莊區"
"242011","132-UY","2018/11/27 18:29:18","新北市新莊區立信一街60號","121.443093333333","25.0499483333333","6500500","新莊區"
"242007","176-VK","2018/11/27 18:29:18","新北市新莊區瓊林南路77-39號","121.437741666667","25.0135616666667","6500500","新莊區"
"238015","755-BX","2018/11/27 18:29:30","新北市樹林區大安路519號","121.414068333333","24.9861583333333","6500700","樹林區"
"238023","601-UM","2018/11/27 18:29:28","新北市樹林區三福街114號","121.406468333333","25.01632","6500700","樹林區"
"238019","599-UM","2018/11/27 18:29:32","新北市樹林區中華路190-16號","121.411786666667","24.9806116666667","6500700","樹林區"
"238018","571-TV","2018/11/27 18:29:16","新北市樹林區樹新路86號","121.429408333333","24.99748","6500700","樹林區"
"238024","5061-A6","2018/11/27 18:29:32","新北市樹林區中山路一段151號","121.422046666667","24.98913","6500700","樹林區"
"238025","303-VK","2018/11/27 18:29:31","新北市樹林區中山路三段22號","121.395593333333","24.9729116666667","6500700","樹林區"
"238017","283-BY","2018/11/27 18:29:27","新北市樹林區光榮街79號","121.412066666667","25.00295","6500700","樹林區"
"238014","282-BY","2018/11/27 18:29:29","新北市樹林區大安路111巷25號","121.423111666667","24.997545","6500700","樹林區"
"238020","268-VK","2018/11/27 18:29:22","新北市樹林區三龍街14巷2號","121.410266666667","25.01804","6500700","樹林區"
"238026","172-UY","2018/11/27 18:29:25","新北市樹林區佳園路一段75巷102號","121.396555","24.9704233333333","6500700","樹林區"
"238016","169-UY","2018/11/27 18:29:27","新北市樹林區中山路二段10號","121.417598333333","24.985035","6500700","樹林區"
"239007","AAC-297","2018/11/27 18:29:24","新北市鶯歌區中正一路478號","121.366951666667","24.9570133333333","6500800","鶯歌區"
"239006","891-R6","2018/11/27 18:29:28","新北市鶯歌區鶯桃路248號","121.336093333333","24.9596016666667","6500800","鶯歌區"
"239008","527-UM","2018/11/27 18:29:19","新北市鶯歌區國際一路179號","121.336273333333","24.9765533333333","6500800","鶯歌區"
"239005","526-UM","2018/11/27 18:28:16","新北市鶯歌區鳳吉二街108號","121.327576666667","24.9742733333333","6500800","鶯歌區"
"239001","417-VK","2018/11/27 18:29:32","新北市鶯歌區高職南街2號","121.337215","24.9394733333333","6500800","鶯歌區"
"239003","360-BY","2018/11/27 18:29:27","新北市鶯歌區永和街116號","121.33453","24.96907","6500800","鶯歌區"
"239002","359-BY","2018/11/27 18:29:34","新北市鶯歌區中正一路478號","121.365775","24.9567466666667","6500800","鶯歌區"
"239004","193-VK","2018/11/27 18:29:33","新北市鶯歌區中正三路194巷38-1號","121.330971666667","24.94134","6500800","鶯歌區"
"221008","489-VK","2018/11/27 18:29:20","新北市汐止區康寧街901號","121.65141","25.07499","6501100","汐止區"
"221036","130-UY","2018/11/27 18:29:18","新北市汐止區大同路三段61號","121.667311666667","25.0769516666667","6501100","汐止區"
"221015","131-UY","2018/11/27 18:29:15","新北市汐止區鄉友街48號","121.669151666667","25.08175","6501100","汐止區"
"221010","269-BY","2018/11/27 18:29:33","新北市汐止區汐萬路三段197號","121.642206666667","25.097115","6501100","汐止區"
"221012","278-VK","2018/11/27 18:29:25","新北市汐止區保長路53號","121.673493333333","25.0788583333333","6501100","汐止區"
"221023","279-VK","2018/11/27 18:29:18","新北市汐止區康寧街474巷7-2號","121.632263333333","25.067915","6501100","汐止區"
"221032","280-BY","2018/11/27 18:29:12","新北市汐止區福山街60巷2號","121.617725","25.0465533333333","6501100","汐止區"
"221027","281-BY","2018/11/27 18:29:25","新北市汐止區和平街67號","121.661546666667","25.07068","6501100","汐止區"
"221029","298-VK","2018/11/27 18:29:21","新北市汐止區樟樹二路330巷72-1號","121.643116666667","25.069885","6501100","汐止區"
"221021","299-VK","2018/11/27 18:29:22","新北市汐止區連興街122號","121.653631666667","25.062195","6501100","汐止區"
"221031","353-TW","2018/11/27 18:29:22","新北市汐止區新台五路一段35號","121.6366","25.0557333333333","6501100","汐止區"
"221035","622-UM","2018/11/27 18:29:17","新北市汐止區大同路二段163號","121.651176666667","25.0645766666667","6501100","汐止區"
"221025","623-UM","2018/11/27 18:29:13","新北市汐止區仁愛路122巷9號","121.663288333333","25.063425","6501100","汐止區"
"221038","646-BX","2018/11/27 18:29:33","新北市汐止區秀峰路57號","121.659955","25.06521","6501100","汐止區"
"221033","647-BX","2018/11/27 18:29:28","新北市汐止區宜興街1號","121.620806666667","25.041175","6501100","汐止區"
"221002","707-TV","2018/11/27 18:29:20","新北市汐止區福德一路149號","121.636576666667","25.0667416666667","6501100","汐止區"
"221018","753-BX","2018/11/27 18:29:28","新北市汐止區茄苳路250巷7號","121.671273333333","25.0680116666667","6501100","汐止區"
"220080","200-UY","2018/11/27 18:29:20","新北市板橋區華東街1-9號","121.448156666667","24.9949","6500100","板橋區"
"224002","257-TC","2018/11/27 18:29:26","新北市瑞芳區三爪子坑路31號","121.813435","25.1075083333333","6501200","瑞芳區"
"220064","282-UM","2018/11/27 18:29:16","新北市板橋區大觀路二段266號","121.448916666667","24.9963083333333","6500100","板橋區"
"220071","283-VK","2018/11/27 18:29:25","新北市板橋區華東街1-9號","121.448093333333","24.9948683333333","6500100","板橋區"
"220084","296-UM","2018/11/27 18:29:21","新北市板橋區華東街1-9號","121.448181666667","24.9949183333333","6500100","板橋區"
"242042","281-VK","2018/11/27 18:29:29","新北市新莊區天祥街81巷17號","121.415153333333","25.0285733333333","6500500","新莊區"
"220062","305-R5","2018/11/27 18:29:21","新北市板橋區民生路二段120號","121.470465","25.0197583333333","6500100","板橋區"
"220035","560-BX","2018/11/27 18:29:23","新北市板橋區南雅西路一段19巷6號","121.45393","25.00386","6500100","板橋區"
"220077","687-BX","2018/11/27 18:29:18","新北市板橋區華東街1-10號","121.44836","24.9948966666667","6500100","板橋區"
"220054","741-BX","2018/11/27 18:29:26","新北市板橋區華東街1-9號","121.448096666667","24.9948866666667","6500100","板橋區"
"220073","985-R7","2018/11/27 18:29:24","新北市板橋區華東街1-10號","121.448306666667","24.99494","6500100","板橋區"
"235068","KEA-2873","2018/11/27 18:29:14","新北市中和區圓通路284號","121.491483333333","24.99057","6500300","中和區"
"235061","KEA-2875","2018/11/27 18:29:31","新北市中和區民享街111號","121.474788333333","24.9993866666667","6500300","中和區"
"235064","KEA-2876","2018/11/27 18:29:11","新北市中和區圓通路140號","121.498306666667","24.9957283333333","6500300","中和區"
