"lineid","car","time","location","longitude","latitude","cityid","cityname"
"234046","148-BY","2018/11/27 18:59:14","新北市永和區永元路52巷50號","121.52443","25.000755","6500400","永和區"
"234007","207-UY","2018/11/27 18:59:15","新北市永和區中山路一段47號","121.513166666667","25.01052","6500400","永和區"
"234081","298-R6","2018/11/27 18:59:27","新北市永和區永亨路83號","121.522023333333","25.005755","6500400","永和區"
"234038","336-UY","2018/11/27 18:59:14","新北市永和區成功路二段207號","121.52661","24.9959333333333","6500400","永和區"
"234064","337-UY","2018/11/27 18:59:20","新北市永和區秀朗路一段146號","121.518243333333","25.0033483333333","6500400","永和區"
"234070","552-UM","2018/11/27 18:59:21","新北市永和區中興街68巷5弄1號","121.517706666667","25.0114633333333","6500400","永和區"
"234017","745-BX","2018/11/27 18:59:29","新北市永和區永和路二段297號","121.51607","25.01607","6500400","永和區"
"234030","746-BX","2018/11/27 18:59:16","新北市永和區秀朗路二段291號","121.526153333333","24.9979533333333","6500400","永和區"
"234054","KEA-2590","2018/11/27 18:59:27","新北市永和區竹林路66巷2號","121.51826","25.0134016666667","6500400","永和區"
"234013","KEA-2591","2018/11/27 18:59:28","新北市永和區信義路17巷9弄1號","121.513858333333","25.011595","6500400","永和區"
"234061","AAD-866","2018/11/27 18:59:25","新北市永和區福和路303號","121.516375","25.0071466666667","6500400","永和區"
"234086","748-BX","2018/11/27 18:59:36","新北市永和區永寧街133巷2號","121.51813","25.004815","6500400","永和區"
"234042","862-TW","2018/11/27 18:59:15","新北市永和區永貞路308號","121.511875","25.0048816666667","6500400","永和區"
"234050","863-TW","2018/11/27 18:59:30","新北市永和區文化路210號","121.510216666667","25.0167316666667","6500400","永和區"
"234023","9372-KE","2018/11/27 18:59:30","新北市永和區竹林路75巷33弄3號","121.520473333333","25.014285","6500400","永和區"
"234026","9371-KE","2018/11/27 18:59:26","新北市永和區安樂路449號","121.514295","25.0049233333333","6500400","永和區"
"234011","9373-KE","2018/11/27 18:59:22","新北市永和區文化路111號","121.512751666667","25.0151833333333","6500400","永和區"
"249005","172-UM","2018/11/27 18:59:28","新北市八里區長道坑6號","121.397241666667","25.1236216666667","6502300","八里區"
"249001","173-UM","2018/11/27 18:59:33","新北市八里區龍米路二段228-1號","121.432765","25.1584216666667","6502300","八里區"
"248016","026-BX","2018/11/27 18:59:21","新北市五股區成泰路三段543巷1號","121.450935","25.1021733333333","6501500","五股區"
"248006","077-UY","2018/11/27 18:59:31","新北市五股區中興路一段68號","121.467351666667","25.0729466666667","6501500","五股區"
"248008","095-VK","2018/11/27 18:59:35","新北市五股區中興路一段118巷6弄9號","121.466275","25.0746166666667","6501500","五股區"
"248020","225-UY","2018/11/27 18:59:15","新北市五股區凌雲路三段57號","121.425285","25.1250066666667","6501500","五股區"
"248012","247-BX","2018/11/27 18:59:35","新北市五股區中興路四段48巷16號","121.43863","25.0834066666667","6501500","五股區"
"248010","272-BY","2018/11/27 18:59:17","新北市五股區水碓一路23號","121.430608333333","25.0713316666667","6501500","五股區"
"248004","677-BX","2018/11/27 18:59:30","新北市五股區民義路三段1號","121.402501666667","25.114615","6501500","五股區"
"248002","678-BX","2018/11/27 18:59:30","新北市五股區凌雲路一段92號","121.450543333333","25.1015266666667","6501500","五股區"
"234077","969-R7","2018/11/27 18:59:31","新北市永和區智光街20號","121.517886666667","24.9993633333333","6500400","永和區"
"234067","AAC-212","2018/11/27 18:59:32","新北市永和區自由街58號","121.51376","25.005795","6500400","永和區"
"234003","AAC-295","2018/11/27 18:59:22","新北市永和區和平街27號","121.513235","25.0098683333333","6500400","永和區"
"244023","069-UM","2018/11/27 18:59:32","新北市林口區文化三路二段211巷83號","121.37496","25.0840866666667","6501700","林口區"
"244013","KEA-2802","2018/11/27 18:59:17","新北市林口區麗園二街1巷7-3號","121.378231666667","25.0703666666667","6501700","林口區"
"244019","410-SL","2018/11/27 18:59:26","新北市林口區麗園二街1巷2-2號","121.377028333333","25.0699416666667","6501700","林口區"
"244017","485-VK","2018/11/27 18:59:20","新北市林口區文化二路一段20巷27號","121.36519","25.067065","6501700","林口區"
"244011","701-TV","2018/11/27 18:59:21","新北市林口區仁愛路一段266號","121.393993333333","25.0759933333333","6501700","林口區"
"244025","837-TS","2018/11/27 18:59:22","新北市林口區文化北路一段386-1號","121.363028333333","25.074905","6501700","林口區"
"243013","AAD-798","2018/11/27 18:59:32","新北市泰山區明志路三段249號","121.423396666667","25.0374833333333","6501600","泰山區"
"243009","297-R6","2018/11/27 18:59:28","新北市泰山區泰林路二段347號","121.428866666667","25.063515","6501600","泰山區"
"243016","KEA-2801","2018/11/27 18:59:26","新北市泰山區明志路二段137號","121.427623333333","25.0506633333333","6501600","泰山區"
"243015","421-VK","2018/11/27 18:59:31","新北市泰山區泰林路二段328號","121.430116666667","25.063165","6501600","泰山區"
"243011","KEA-2215","2018/11/27 18:59:24","新北市泰山區明志路二段246-1號","121.427021666667","25.0481583333333","6501600","泰山區"
"243010","KEA-2216","2018/11/27 18:59:32","新北市泰山區辭修路28號","121.42904","25.0583033333333","6501600","泰山區"
"243012","646-TV","2018/11/27 18:59:24","新北市泰山區福興三街170號","121.432296666667","25.0570033333333","6501600","泰山區"
"243014","680-BX","2018/11/27 18:59:21","新北市泰山區黎明路17號","121.420875","25.0629133333333","6501600","泰山區"
"222003","436-BY","2018/11/27 18:59:17","新北市深坑區深南路51-1號","121.621466666667","25.0101283333333","6501800","深坑區"
"222002","659-BX","2018/11/27 18:59:27","新北市深坑區文山路一段33號","121.629516666667","25.0038","6501800","深坑區"
"231041","002-UM","2018/11/27 18:59:29","新北市新店區環河路64號","121.537095","24.9627066666667","6500600","新店區"
"231059","046-UY","2018/11/27 18:59:27","新北市新店區安華路28-1號","121.519561666667","24.9608116666667","6500600","新店區"
"231040","047-UY","2018/11/27 18:59:26","新北市新店區中央路7號","121.533425","24.9785966666667","6500600","新店區"
"231044","106-UY","2018/11/27 18:59:32","新北市新店區寶中路72號","121.547925","24.980665","6500600","新店區"
"231046","107-UY","2018/11/27 18:59:13","新北市新店區直潭五街19號","121.53429","24.9410716666667","6500600","新店區"
"231053","108-UY","2018/11/27 18:59:19","新北市新店區屈尺路12號","121.548926666667","24.92259","6500600","新店區"
"231048","187-VK","2018/11/27 18:59:27","新北市新店區德正街23巷12號","121.544543333333","24.9721133333333","6500600","新店區"
"231051","188-VK","2018/11/27 18:59:26","新北市新店區三民路185號","121.535331666667","24.9754483333333","6500600","新店區"
"231054","KEA-2219","2018/11/27 18:59:31","新北市新店區新店路13號","121.540318333333","24.9528533333333","6500600","新店區"
"231042","268-BY","2018/11/27 18:59:36","新北市新店區中正路28號","121.54517","24.96964","6500600","新店區"
"231050","AAD-862","2018/11/27 18:59:22","新北市新店區北宜路二段30巷5弄20號","121.54864","24.9507266666667","6500600","新店區"
"231058","3713-VJ","2018/11/27 18:59:31","新北市新店區中正路1巷2號","121.545681666667","24.9689633333333","6500600","新店區"
"231066","4716-K9","2018/11/27 18:59:30","新北市新店區安豐路49號","121.500165","24.9540733333333","6500600","新店區"
"231056","4715-K9","2018/11/27 18:59:28","新北市新店區二十張路46巷37弄25號","121.536135","24.9814916666667","6500600","新店區"
"231067","4772-VM","2018/11/27 18:59:19","新北市新店區安康路一段76巷20號","121.528428333333","24.9629916666667","6500600","新店區"
"231065","512-UM","2018/11/27 18:59:15","新北市新店區安祥路201號","121.47587","24.95468","6500600","新店區"
"231049","513-UM","2018/11/27 18:59:23","新北市新店區中正路450號","121.53438","24.9789866666667","6500600","新店區"
"231063","616-UM","2018/11/27 18:59:31","新北市新店區安華路1-1號","121.519513333333","24.9601566666667","6500600","新店區"
"231061","619-UM","2018/11/27 18:59:17","新北市新店區安華路28-1號","121.519646666667","24.96066","6500600","新店區"
"231064","719-UM","2018/11/27 18:59:24","新北市新店區安一路一段1-1號","121.51944","24.9611616666667","6500600","新店區"
"231062","720-UM","2018/11/27 18:59:17","新北市新店區車子路10-4號","121.504853333333","24.9545566666667","6500600","新店區"
"231060","897-TW","2018/11/27 18:59:28","新北市新店區安華路28-1號","121.519505","24.9607083333333","6500600","新店區"
"231045","898-TW","2018/11/27 18:59:25","新北市新店區北新路一段2-18號","121.538566666667","24.9600883333333","6500600","新店區"
"231043","899-TW","2018/11/27 18:59:34","新北市新店區北新路一段140號","121.542458333333","24.9704533333333","6500600","新店區"
"231055","AKT-0513","2018/11/27 18:59:17","新北市新店區環河路118號","121.536646666667","24.9679683333333","6500600","新店區"
"241035","462-BY","2018/11/27 18:59:25","新北市三重區重新路四段121號","121.484718333333","25.0520266666667","6500200","三重區"
"235066","003-UY","2018/11/27 18:59:24","新北市中和區中山路二段131巷5弄2號","121.502875","25.0028033333333","6500300","中和區"
"235063","006-UY","2018/11/27 18:59:31","新北市中和區中正路578號","121.486168333333","24.9946966666667","6500300","中和區"
"235056","096-UM","2018/11/27 18:59:16","新北市中和區新民街94巷17號","121.481306666667","25.0090633333333","6500300","中和區"
"235039","097-UM","2018/11/27 18:59:26","新北市永和區民有街25巷2號","121.517303333333","24.9959983333333","6500300","中和區"
"235065","098-UM","2018/11/27 18:59:17","新北市中和區勝利路35巷3弄2號","121.499158333333","25.00706","6500300","中和區"
"235040","150-BY","2018/11/27 18:59:34","新北市中和區安樂路87號","121.512906666667","24.9946766666667","6500300","中和區"
"235058","151-BY","2018/11/27 18:59:28","新北市中和區連城路378號","121.480841666667","24.99518","6500300","中和區"
"235055","183-VK","2018/11/27 18:59:14","新北市中和區民德路25巷10號","121.469415","25.0027866666667","6500300","中和區"
"235038","185-VK","2018/11/27 18:59:35","新北市中和區立人街24-4號","121.518926666667","24.9941966666667","6500300","中和區"
"235049","186-VK","2018/11/27 18:59:32","新北市中和區景安路167巷9號","121.505931666667","24.9947233333333","6500300","中和區"
"235067","255-BX","2018/11/27 18:59:19","新北市中和區新生街203號","121.483826666667","24.9999416666667","6500300","中和區"
"235044","293-VK","2018/11/27 18:59:19","新北市中和區中興街202巷8號","121.498985","24.990485","6500300","中和區"
"235072","301-VK","2018/11/27 18:59:23","新北市中和區中山路二段248號","121.497685","25.00246","6500300","中和區"
"235043","352-BY","2018/11/27 18:59:34","新北市中和區成功路41巷1號","121.526163333333","24.9932833333333","6500300","中和區"
"235042","KEA-2878","2018/11/27 18:59:30","新北市永和區成功路二段199-2號","121.526556666667","24.9960233333333","6500300","中和區"
"247012","KEA-2869","2018/11/27 18:59:13","新北市五股區新五路二段372巷20號","121.44769","25.0850916666667","6501400","蘆洲區"
"235050","4979-A6","2018/11/27 18:59:32","新北市中和區忠孝街56號","121.51152","24.9836383333333","6500300","中和區"
"235069","4980-A6","2018/11/27 18:59:22","新北市中和區景平路469號","121.500458333333","24.9967383333333","6500300","中和區"
"235070","558-UM","2018/11/27 18:59:26","新北市中和區安和路217號","121.505985","24.9994716666667","6500300","中和區"
"235045","565-BX","2018/11/27 18:59:18","新北市中和區景新街467巷20弄128號","121.514966666667","24.9872183333333","6500300","中和區"
"235054","640-BX","2018/11/27 18:59:33","新北市中和區國光街34號","121.471271666667","25.000195","6500300","中和區"
"235060","647-TV","2018/11/27 18:59:34","新北市中和區民治街23巷2號","121.475423333333","25.0020966666667","6500300","中和區"
"235047","732-UM","2018/11/27 18:59:21","新北市中和區興南路二段32巷5號","121.507096666667","24.9854233333333","6500300","中和區"
"235046","733-UM","2018/11/27 18:59:20","新北市中和區興南路二段11號","121.508205","24.986135","6500300","中和區"
"235062","800-TS","2018/11/27 18:59:28","新北市中和區中山路二段346號","121.49317","25.0024066666667","6500300","中和區"
"235057","801-TS","2018/11/27 18:59:15","新北市中和區民利街97號","121.477745","24.9978","6500300","中和區"
"235041","802-TS","2018/11/27 18:59:15","新北市中和區宜安路96號","121.510666666667","24.9977183333333","6500300","中和區"
"235052","805-TS","2018/11/27 18:59:22","新北市中和區興南路二段150號","121.503963333333","24.9829766666667","6500300","中和區"
"235048","896-TW","2018/11/27 18:59:29","新北市中和區華新街111號","121.508495","24.9814266666667","6500300","中和區"
"235053","900-TW","2018/11/27 18:59:25","新北市中和區壽德街26號","121.466691666667","24.994395","6500300","中和區"
"235051","157-BY","2018/11/27 18:59:28","新北市中和區忠孝街21號","121.510251666667","24.9829133333333","6500300","中和區"
"235037","AAC-213","2018/11/27 18:59:21","新北市中和區自立路99巷1號","121.52208","24.9949133333333","6500300","中和區"
"235059","AAC-215","2018/11/27 18:59:36","新北市中和區圓通路367巷20弄7號","121.491848333333","24.9883933333333","6500300","中和區"
"220065","072-UY","2018/11/27 18:59:23","新北市板橋區民族路287巷12號","121.471298333333","25.0072","6500100","板橋區"
"220086","073-UY","2018/11/27 18:59:28","新北市板橋區中正路250巷20號","121.456236666667","25.019385","6500100","板橋區"
"220106","075-UY","2018/11/27 18:59:19","新北市板橋區文化路二段124巷28-2號","121.471198333333","25.0256333333333","6500100","板橋區"
"220069","AAD-861","2018/11/27 18:59:24","新北市板橋區華興街73-1號","121.456988333333","25.0050483333333","6500100","板橋區"
"226004","312-R5","2018/11/27 18:59:33","新北市平溪區平溪里平溪街32號","121.738755","25.025735","6502400","平溪區"
"228001","212-TW","2018/11/27 18:59:24","新北市貢寮區仁理村研海街12-1號","121.923765","25.0516483333333","6502600","貢寮區"
"228002","663-BX","2018/11/27 18:59:30","新北市貢寮區福隆里東興街106巷21弄2號","121.94606","25.0179233333333","6502600","貢寮區"
"228003","828-UM","2018/11/27 18:59:31","新北市貢寮區和美里龍洞街60號","121.913861666667","25.1158883333333","6502600","貢寮區"
"224006","676-BX","2018/11/27 18:59:27","新北市瑞芳區東和路21號","121.80485","25.1060683333333","6501200","瑞芳區"
"224008","285-BY","2018/11/27 18:59:31","新北市瑞芳區瑞芳街86號","121.802381666667","25.1101766666667","6501200","瑞芳區"
"224007","275-VK","2018/11/27 18:59:22","新北市瑞芳區中央路48巷124號","121.757936666667","25.1038483333333","6501200","瑞芳區"
"224009","273-VK","2018/11/27 18:59:19","新北市瑞芳區洞頂路85號","121.862691666667","25.1186916666667","6501200","瑞芳區"
"224005","271-BY","2018/11/27 18:59:32","新北市瑞芳區瑞濱路32-6號","121.823205","25.1209466666667","6501200","瑞芳區"
"227009","642-TC","2018/11/27 18:59:33","新北市雙溪區牡丹里中正路58巷23號","121.866465","25.0415766666667","6502500","雙溪區"
"227003","400-TW","2018/11/27 18:59:23","新北市雙溪區平林里康福家園10號","121.858831666667","25.0373133333333","6502500","雙溪區"
"253006","032-BX","2018/11/27 18:59:15","新北市石門區八甲11-3號","121.522286666667","25.2810416666667","6502200","石門區"
"253005","295-VK","2018/11/27 18:59:30","新北市石門區尖子鹿76號","121.57253","25.2969783333333","6502200","石門區"
"222001","KEA-2212","2018/11/27 18:59:27","新北市深坑區北深路一段264號","121.629386666667","25.0086983333333","6501800","深坑區"
"208002","KEA-2872","2018/11/27 18:59:21","新北市金山區仁愛路69號","121.634843333333","25.2210033333333","6502700","金山區"
"208003","665-BX","2018/11/27 18:59:23","新北市金山區中正路53號","121.634608333333","25.2219816666667","6502700","金山區"
"208001","761-BX","2018/11/27 18:59:21","新北市金山區中山路16號","121.641803333333","25.2183533333333","6502700","金山區"
"251002","012-UM","2018/11/27 18:59:16","新北市淡水區中正東路55-8號","121.446845","25.1678133333333","6501000","淡水區"
"251013","KEA-2871","2018/11/27 18:59:31","新北市淡水區安子內3號","121.487453333333","25.215675","6501000","淡水區"
"251016","179-VK","2018/11/27 18:59:32","新北市淡水區淡金路三段325號","121.448991666667","25.2060566666667","6501000","淡水區"
"251014","180-VK","2018/11/27 18:59:16","新北市淡水區小中寮22號","121.489461666667","25.2296","6501000","淡水區"
"251015","182-VK","2018/11/27 18:59:23","新北市淡水區糞箕湖57號","121.485185","25.1719766666667","6501000","淡水區"
"251010","413-VK","2018/11/27 18:59:16","新北市淡水區沙崙路97號","121.422123333333","25.1824666666667","6501000","淡水區"
"251001","559-UM","2018/11/27 18:59:35","新北市淡水區自強路58號","121.463233333333","25.1275416666667","6501000","淡水區"
"251009","575-R6","2018/11/27 18:59:31","新北市淡水區重建街38號","121.43986","25.1713083333333","6501000","淡水區"
"251007","577-R6","2018/11/27 18:59:31","新北市淡水區民生路47-7號","121.462431666667","25.13826","6501000","淡水區"
"251003","766-UM","2018/11/27 18:59:26","新北市淡水區中山北路一段149巷24號","121.442918333333","25.177935","6501000","淡水區"
"207003","550-UM","2018/11/27 18:59:16","新北市萬里區大鵬里頂社24-5號","121.657851666667","25.2101533333333","6502800","萬里區"
"207004","225-TW","2018/11/27 18:59:25","新北市萬里區萬里里獅頭路23號","121.69327","25.178255","6502800","萬里區"
"252002","178-VK","2018/11/27 18:59:32","新北市三芝區中正路一段56號","121.503578333333","25.2579766666667","6502100","三芝區"
"252003","249-BX","2018/11/27 18:59:24","新北市三芝區後厝里北勢子20號","121.47415","25.2543866666667","6502100","三芝區"
"252001","292-VK","2018/11/27 18:59:34","新北市三芝區中興街二段260號","121.501765","25.2530433333333","6502100","三芝區"
"237004","KEA-2597","2018/11/27 18:59:25","新北市三峽區有木205-1號","121.439018333333","24.8515516666667","6500900","三峽區"
"237007","153-BY","2018/11/27 18:59:17","新北市三峽區大埔路77號","121.366293333333","24.9082916666667","6500900","三峽區"
"237013","252-BX","2018/11/27 18:59:31","新北市三峽區光明路69巷24號","121.376675","24.9290933333333","6500900","三峽區"
"237012","275-BY","2018/11/27 18:59:14","新北市三峽區三樹路222巷236弄8-1號","121.391256666667","24.9426366666667","6500900","三峽區"
"237014","433-BY","2018/11/27 18:59:27","新北市三峽區隆恩街174號","121.362581666667","24.9427483333333","6500900","三峽區"
"237006","5529-G3","2018/11/27 18:59:31","新北市三峽區溪東路233巷3號","121.406748333333","24.9330816666667","6500900","三峽區"
"237011","KEA-2596","2018/11/27 18:59:26","新北市三峽區介壽路三段233-5號","121.406558333333","24.9475283333333","6500900","三峽區"
"237016","649-BX","2018/11/27 18:59:28","新北市三峽區安坑39號","121.452485","24.9308316666667","6500900","三峽區"
"237010","706-TV","2018/11/27 18:59:29","新北市三峽區國光街364巷5號","121.371053333333","24.93999","6500900","三峽區"
"237005","AKY-6261","2018/11/27 18:59:34","新北市三峽區中山路459巷163-3號","121.34866","24.9329333333333","6500900","三峽區"
"236070","105-UM","2018/11/27 18:59:25","新北市土城區金城路二段188號","121.454096666667","24.9814133333333","6501300","土城區"
"236042","KED-0685","2018/11/27 18:59:31","新北市土城區學府路一段209巷10號","121.452068333333","24.9839783333333","6501300","土城區"
"236079","166-UM","2018/11/27 18:59:22","新北市土城區中央路四段208號","121.415968333333","24.9574833333333","6501300","土城區"
"236030","253-BX","2018/11/27 18:59:21","新北市土城區中央路二段223-9號","121.440608333333","24.9731983333333","6501300","土城區"
"236026","269-VK","2018/11/27 18:59:24","新北市土城區光明街11號","121.442001666667","24.9747","6501300","土城區"
"236014","270-VK","2018/11/27 18:59:17","新北市土城區延和路13巷14號","121.46362","24.9884833333333","6501300","土城區"
"236038","271-VK","2018/11/27 18:59:27","新北市土城區青仁路23號","121.460233333333","24.9787116666667","6501300","土城區"
"236021","752-BX","2018/11/27 18:59:33","新北市土城區明峰街48號","121.46781","24.9863616666667","6501300","土城區"
"236059","912-UM","2018/11/27 18:59:26","新北市土城區金城路二段266號","121.458148333333","24.9840683333333","6501300","土城區"
"236049","913-UM","2018/11/27 18:59:29","新北市土城區青雲路322巷2弄2號","121.458605","24.97713","6501300","土城區"
"236063","915-UM","2018/11/27 18:59:33","新北市土城區延和路41巷6弄2號","121.466","24.98995","6501300","土城區"
"236055","970-R7","2018/11/27 18:59:32","新北市土城區學成路164號","121.448016666667","24.989105","6501300","土城區"
"242054","441-UM","2018/11/27 18:59:15","新北市樹林區八德街372號","121.407456666667","24.9694683333333","6500500","新莊區"
"242007","176-VK","2018/11/27 18:59:18","新北市樹林區環河路10號","121.427028333333","24.97805","6500500","新莊區"
"238023","601-UM","2018/11/27 18:59:28","新北市樹林區大慶街53號","121.396235","25.0139483333333","6500700","樹林區"
"238019","599-UM","2018/11/27 18:59:32","新北市樹林區鎮前街425巷2弄2號","121.413841666667","24.9826133333333","6500700","樹林區"
"238022","KEA-2213","2018/11/27 18:59:30","新北市樹林區東興街8-2號","121.409848333333","24.9788916666667","6500700","樹林區"
"238025","303-VK","2018/11/27 18:59:31","新北市樹林區中山路三段349號","121.390033333333","24.9706716666667","6500700","樹林區"
"238017","283-BY","2018/11/27 18:59:27","新北市樹林區光興街50號","121.409876666667","25.0026966666667","6500700","樹林區"
"238014","282-BY","2018/11/27 18:59:29","新北市樹林區潭興街127巷3弄4號","121.425366666667","24.9992983333333","6500700","樹林區"
"238020","268-VK","2018/11/27 18:59:22","新北市樹林區中正路286-1號","121.415863333333","25.008685","6500700","樹林區"
"238026","172-UY","2018/11/27 18:59:25","新北市樹林區中和街11號","121.392043333333","24.97291","6500700","樹林區"
"238016","169-UY","2018/11/27 18:59:27","新北市樹林區文化街19號","121.419331666667","24.9873883333333","6500700","樹林區"
"239007","AAC-297","2018/11/27 18:59:24","新北市鶯歌區中山路138巷36號","121.351248333333","24.95949","6500800","鶯歌區"
"239006","891-R6","2018/11/27 18:59:28","新北市鶯歌區鶯桃路296巷74號","121.336623333333","24.9616433333333","6500800","鶯歌區"
"239008","527-UM","2018/11/27 18:59:19","新北市鶯歌區國際二路16巷19號","121.337945","24.9752","6500800","鶯歌區"
"239005","526-UM","2018/11/27 18:57:36","新北市鶯歌區中湖街118號","121.349043333333","24.972975","6500800","鶯歌區"
"239001","417-VK","2018/11/27 18:59:32","新北市鶯歌區永安街45號","121.337988333333","24.956245","6500800","鶯歌區"
"239003","360-BY","2018/11/27 18:59:27","新北市鶯歌區鶯桃路379號","121.333666666667","24.9635183333333","6500800","鶯歌區"
"239002","359-BY","2018/11/27 18:59:34","新北市鶯歌區西湖街289巷5號","121.339635","24.9687766666667","6500800","鶯歌區"
"239004","193-VK","2018/11/27 18:59:33","新北市鶯歌區二甲路106巷2號","121.33389","24.9313166666667","6500800","鶯歌區"
"221008","489-VK","2018/11/27 18:59:20","新北市汐止區康寧街753巷2弄16號","121.639735","25.0742733333333","6501100","汐止區"
"221036","130-UY","2018/11/27 18:59:18","新北市汐止區連興街120號","121.653805","25.0623816666667","6501100","汐止區"
"221015","131-UY","2018/11/27 18:59:35","新北市汐止區汐萬路一段37號","121.655428333333","25.068595","6501100","汐止區"
"221010","269-BY","2018/11/27 18:59:13","新北市汐止區康寧街901號","121.651403333333","25.0750183333333","6501100","汐止區"
"221012","278-VK","2018/11/27 18:59:25","新北市汐止區康寧街901號","121.65081","25.07522","6501100","汐止區"
"221023","279-VK","2018/11/27 18:59:18","新北市汐止區康寧街901號","121.651746666667","25.0749216666667","6501100","汐止區"
"221032","280-BY","2018/11/27 18:59:12","新北市汐止區橫科路407巷25弄15號","121.626173333333","25.0488116666667","6501100","汐止區"
"221027","281-BY","2018/11/27 18:59:21","新北市汐止區康寧街901號","121.651428333333","25.0749616666667","6501100","汐止區"
"221029","298-VK","2018/11/27 18:59:21","新北市汐止區樟樹一路232號","121.642273333333","25.06676","6501100","汐止區"
"221021","299-VK","2018/11/27 18:59:22","新北市汐止區汐萬路一段256巷3號","121.652491666667","25.0745433333333","6501100","汐止區"
"221031","353-TW","2018/11/27 18:59:22","新北市汐止區中興路181巷1號","121.630193333333","25.0667783333333","6501100","汐止區"
"221035","622-UM","2018/11/27 18:59:17","新北市汐止區汐萬路一段242號","121.65157","25.0731416666667","6501100","汐止區"
"221025","623-UM","2018/11/27 18:59:13","新北市汐止區汐萬路一段256巷3號","121.6525","25.0745233333333","6501100","汐止區"
"221038","646-BX","2018/11/27 18:41:13","新北市汐止區汐萬路一段312號","121.650663333333","25.07532","6501100","汐止區"
"221002","707-TV","2018/11/27 18:59:20","台北市南港區南港路一段10巷6-1號","121.620036666667","25.055315","6501100","汐止區"
"221018","753-BX","2018/11/27 18:59:28","新北市汐止區汐萬路一段266號","121.650973333333","25.0739883333333","6501100","汐止區"
"220079","145-BY","2018/11/27 18:59:22","新北市板橋區民權路202巷10弄1號","121.460436666667","25.0153466666667","6500100","板橋區"
"220080","200-UY","2018/11/27 18:59:20","新北市板橋區大觀路二段265巷3弄13號","121.443473333333","24.9983666666667","6500100","板橋區"
"220082","610-BX","2018/11/27 18:59:34","新北市板橋區滿平街139號","121.428945","24.9881633333333","6500100","板橋區"
"220101","245-BX","2018/11/27 18:59:35","新北市板橋區文化路二段182巷7弄1號","121.471913333333","25.0269466666667","6500100","板橋區"
"224002","257-TC","2018/11/27 18:59:26","新北市平溪區新寮里五分寮10-2號","121.799635","25.074415","6501200","瑞芳區"
"220056","276-BY","2018/11/27 18:59:29","新北市板橋區信義路117號","121.457758333333","24.9933783333333","6500100","板橋區"
"220072","277-BY","2018/11/27 18:59:34","新北市板橋區溪北路160號","121.430623333333","24.9881666666667","6500100","板橋區"
"220064","282-UM","2018/11/27 18:59:16","新北市板橋區縣民大道二段106號","121.466953333333","25.0151166666667","6500100","板橋區"
"220071","283-VK","2018/11/27 18:59:25","新北市板橋區忠孝路154巷9號","121.46411","25.0019433333333","6500100","板橋區"
"220094","285-UM","2018/11/27 18:59:16","新北市板橋區文化路二段76號","121.469428333333","25.024985","6500100","板橋區"
"220053","285-VK","2018/11/27 18:59:18","新北市板橋區中山路二段157號","121.47568","25.016735","6500100","板橋區"
"220083","286-VK","2018/11/27 18:59:25","新北市板橋區大觀路一段38巷156弄70號","121.442945","25.0065066666667","6500100","板橋區"
"220081","287-VK","2018/11/27 18:59:15","新北市板橋區南雅西路二段102號","121.452411666667","25.0117716666667","6500100","板橋區"
"220090","288-VK","2018/11/27 18:59:31","新北市板橋區四維路233號","121.463286666667","25.0272016666667","6500100","板橋區"
"220061","295-UM","2018/11/27 18:59:16","新北市板橋區富山街109巷67號","121.475326666667","25.02113","6500100","板橋區"
"220084","296-UM","2018/11/27 18:59:21","新北市板橋區龍興街8號","121.442765","24.9996316666667","6500100","板橋區"
"220067","299-UM","2018/11/27 18:59:20","新北市板橋區中山路二段90巷47弄4號","121.476748333333","25.0147166666667","6500100","板橋區"
"220075","303-R5","2018/11/27 18:59:33","新北市板橋區茶館街25號","121.4564","25.010585","6500100","板橋區"
"220062","305-R5","2018/11/27 18:59:26","新北市板橋區民享街115-2號","121.477765","25.0161666666667","6500100","板橋區"
"220092","307-R5","2018/11/27 18:59:26","新北市板橋區文化路一段186號","121.466151666667","25.0195316666667","6500100","板橋區"
"220098","317-R6","2018/11/27 18:59:33","新北市板橋區民有街46號","121.465781666667","25.0258816666667","6500100","板橋區"
"220089","487-VK","2018/11/27 18:59:22","新北市板橋區仁化街2號","121.474176666667","25.0315366666667","6500100","板橋區"
"220035","560-BX","2018/11/27 18:59:28","新北市板橋區中正路325巷27號","121.454003333333","25.0196583333333","6500100","板橋區"
"220103","561-BX","2018/11/27 18:59:16","新北市板橋區介壽街119號","121.470553333333","25.01861","6500100","板橋區"
"220063","609-BX","2018/11/27 18:59:31","新北市板橋區中山路二段138號","121.476401666667","25.0169666666667","6500100","板橋區"
"220091","637-BX","2018/11/27 18:59:17","新北市板橋區莒光路165巷42-1號","121.474345","25.025025","6500100","板橋區"
"220057","686-BX","2018/11/27 18:59:33","新北市板橋區重慶路101號","121.462185","25.0054683333333","6500100","板橋區"
"220077","687-BX","2018/11/27 18:59:24","新北市板橋區大觀路二段142-6號","121.442285","24.998845","6500100","板橋區"
"220093","689-BX","2018/11/27 18:59:26","新北市板橋區民生路三段64號","121.467033333333","25.0255866666667","6500100","板橋區"
"220054","741-BX","2018/11/27 18:59:26","新北市板橋區重慶路127巷10號","121.463178333333","25.0048616666667","6500100","板橋區"
"220102","KEA-2699","2018/11/27 18:59:32","新北市板橋區田單街2巷24號","121.481445","25.0278266666667","6500100","板橋區"
"220055","827-TW","2018/11/27 18:59:27","新北市板橋區中山路一段158巷15號","121.46633","25.0114316666667","6500100","板橋區"
"220068","830-TW","2018/11/27 18:59:21","新北市板橋區三民路一段31巷42號","121.481106666667","25.0229133333333","6500100","板橋區"
"220096","831-TW","2018/11/27 18:59:20","新北市板橋區莒光路123號","121.472713333333","25.023955","6500100","板橋區"
"220088","833-TW","2018/11/27 18:59:30","新北市板橋區民生路二段210-1號","121.469431666667","25.02151","6500100","板橋區"
"220074","895-R6","2018/11/27 18:59:16","新北市板橋區西門街59號","121.454486666667","25.0091433333333","6500100","板橋區"
"220073","985-R7","2018/11/27 18:59:24","新北市板橋區民權路258-1號","121.458058333333","25.0150233333333","6500100","板橋區"
"220097","AAC-210","2018/11/27 18:59:25","新北市板橋區國光路210號","121.462126666667","25.0185166666667","6500100","板橋區"
"220070","AAC-253","2018/11/27 18:59:17","新北市板橋區四川路一段253號","121.45978","25.00255","6500100","板橋區"
"235068","KEA-2873","2018/11/27 18:59:14","新北市中和區圓通路265巷30號","121.495723333333","24.992565","6500300","中和區"
"235061","KEA-2875","2018/11/27 18:59:31","新北市中和區民享街89巷9弄6號","121.474986666667","25.002035","6500300","中和區"
"235064","KEA-2876","2018/11/27 18:59:11","新北市中和區泰和街36號","121.499381666667","25.0001583333333","6500300","中和區"
