"lineid","car","time","location","longitude","latitude","cityid","cityname"
"234046","148-BY","2018/11/27 19:19:24","新北市永和區得和路375號","121.52468","24.99946","6500400","永和區"
"234007","207-UY","2018/11/27 19:19:15","新北市永和區中山路一段230號","121.507995","25.0081716666667","6500400","永和區"
"234081","298-R6","2018/11/27 19:19:27","新北市永和區福和路5-7號","121.525123333333","25.00824","6500400","永和區"
"234038","336-UY","2018/11/27 19:19:34","新北市永和區民樂街60巷1號","121.527466666667","24.999","6500400","永和區"
"234064","337-UY","2018/11/27 19:19:20","新北市永和區永元路17巷1弄2號","121.52152","25.0004266666667","6500400","永和區"
"234070","552-UM","2018/11/27 19:19:22","新北市永和區中正路605號","121.51642","25.0096316666667","6500400","永和區"
"234017","745-BX","2018/11/27 19:19:29","新北市永和區文化路144巷31弄1號","121.512395","25.016685","6500400","永和區"
"234030","746-BX","2018/11/27 19:19:22","新北市永和區厚德街84號","121.52372","24.9988783333333","6500400","永和區"
"234054","KEA-2590","2018/11/27 19:19:27","新北市永和區中興街32號","121.516303333333","25.01175","6500400","永和區"
"234013","KEA-2591","2018/11/27 19:19:28","新北市永和區信義路15號","121.514373333333","25.0119866666667","6500400","永和區"
"234061","AAD-866","2018/11/27 19:19:25","新北市永和區秀朗路一段175號","121.517065","25.0036533333333","6500400","永和區"
"234086","748-BX","2018/11/27 19:19:28","新北市永和區永利路146號","121.522301666667","25.00277","6500400","永和區"
"234042","862-TW","2018/11/27 19:19:15","新北市永和區保平路151巷2弄1號","121.510111666667","25.0055516666667","6500400","永和區"
"234050","863-TW","2018/11/27 19:19:28","新北市永和區保福路二段78號","121.510461666667","25.0133733333333","6500400","永和區"
"234023","9372-KE","2018/11/27 19:19:34","新北市永和區竹林路109巷2-1號","121.520098333333","25.0118516666667","6500400","永和區"
"234026","9371-KE","2018/11/27 19:19:06","新北市永和區得和路42巷23號","121.51532","24.9996033333333","6500400","永和區"
"234011","9373-KE","2018/11/27 19:19:22","新北市永和區保福路二段9巷9號","121.510531666667","25.0108366666667","6500400","永和區"
"249001","173-UM","2018/11/27 19:19:33","新北市八里區中華路二段145號","121.409078333333","25.152465","6502300","八里區"
"249003","593-UM","2018/11/27 19:19:22","新北市八里區中山路二段466巷3號","121.398793333333","25.1474133333333","6502300","八里區"
"248016","026-BX","2018/11/27 19:19:21","新北市五股區成泰路三段543巷50號","121.450128333333","25.1027266666667","6501500","五股區"
"248008","095-VK","2018/11/27 19:19:15","新北市五股區中興路二段57-6號","121.46046","25.0754266666667","6501500","五股區"
"248020","225-UY","2018/11/27 19:19:15","新北市五股區凌雲路三段57號","121.425303333333","25.125015","6501500","五股區"
"248012","247-BX","2018/11/27 19:19:35","新北市五股區中興路四段48巷16號","121.438615","25.0834283333333","6501500","五股區"
"248010","272-BY","2018/11/27 19:19:17","新北市五股區水碓一路23號","121.430451666667","25.071465","6501500","五股區"
"248004","677-BX","2018/11/27 19:19:30","新北市五股區五福路43號","121.433241666667","25.0895666666667","6501500","五股區"
"248002","678-BX","2018/11/27 19:19:24","新北市五股區凌雲路一段158巷6號","121.44781","25.1029633333333","6501500","五股區"
"234077","969-R7","2018/11/27 19:19:31","新北市永和區民治街74號","121.51775","24.9982233333333","6500400","永和區"
"234074","AAC-211","2018/11/27 19:19:22","新北市永和區竹林路108號","121.519745","25.011855","6500400","永和區"
"234067","AAC-212","2018/11/27 19:19:32","新北市永和區保平路95號","121.511471666667","25.0069583333333","6500400","永和區"
"234003","AAC-295","2018/11/27 19:19:22","新北市永和區永平路159號","121.510911666667","25.0087233333333","6500400","永和區"
"244023","069-UM","2018/11/27 19:19:31","新北市林口區仁愛路二段377號","121.370348333333","25.07997","6501700","林口區"
"244017","485-VK","2018/11/27 19:19:20","新北市林口區文化二路一段287-3號","121.36838","25.0723766666667","6501700","林口區"
"244011","701-TV","2018/11/27 19:19:21","新北市林口區中山路97巷9號","121.389543333333","25.0782066666667","6501700","林口區"
"244025","837-TS","2018/11/27 19:19:22","新北市林口區文化三路一段555巷40號","121.369878333333","25.0769483333333","6501700","林口區"
"243013","AAD-798","2018/11/27 19:19:25","新北市泰山區明志路三段145巷2弄4號","121.425246666667","25.0398433333333","6501600","泰山區"
"243009","297-R6","2018/11/27 19:19:28","新北市泰山區和平街9-2號","121.434095","25.0646033333333","6501600","泰山區"
"243016","KEA-2801","2018/11/27 19:19:26","新北市泰山區明志路三段151-1號","121.424871666667","25.0399983333333","6501600","泰山區"
"243015","421-VK","2018/11/27 19:19:31","新北市泰山區公園路27巷2號","121.428878333333","25.054315","6501600","泰山區"
"243011","KEA-2215","2018/11/27 19:19:24","新北市泰山區中央路11巷2號","121.426298333333","25.0427133333333","6501600","泰山區"
"243010","KEA-2216","2018/11/27 19:19:21","新北市泰山區明志路二段31號","121.429666666667","25.0532166666667","6501600","泰山區"
"243012","646-TV","2018/11/27 19:19:24","新北市泰山區仁愛路100巷31號","121.433693333333","25.0548833333333","6501600","泰山區"
"243014","680-BX","2018/11/27 19:19:21","新北市泰山區泰林路二段251號","121.431786666667","25.062175","6501600","泰山區"
"222003","436-BY","2018/11/27 19:19:37","新北市深坑區深南路204號","121.626668333333","25.0160316666667","6501800","深坑區"
"222002","659-BX","2018/11/27 19:19:18","新北市深坑區北深路一段177號","121.632593333333","25.010895","6501800","深坑區"
"231041","002-UM","2018/11/27 19:19:29","新北市新店區溪園路247號","121.525416666667","24.983285","6500600","新店區"
"231059","046-UY","2018/11/27 19:19:27","新北市新店區安和路二段166-3號","121.51939","24.97384","6500600","新店區"
"231040","047-UY","2018/11/27 19:19:26","新北市新店區三民路69號","121.53625","24.97136","6500600","新店區"
"231044","106-UY","2018/11/27 19:19:32","新北市新店區中興路三段327號","121.541853333333","24.9864333333333","6500600","新店區"
"231046","107-UY","2018/11/27 19:19:33","新北市新店區華城路5-3號","121.529281666667","24.9579116666667","6500600","新店區"
"231053","108-UY","2018/11/27 19:19:19","新北市新店區屈尺路22號","121.548568333333","24.9226133333333","6500600","新店區"
"231048","187-VK","2018/11/27 19:19:27","新北市新店區中興路二段57巷3號","121.546166666667","24.9705083333333","6500600","新店區"
"231051","188-VK","2018/11/27 19:19:20","新北市新店區中央路63號","121.532675","24.9771416666667","6500600","新店區"
"231054","KEA-2219","2018/11/27 19:19:30","新北市新店區國校路55號","121.5382","24.95439","6500600","新店區"
"231042","268-BY","2018/11/27 19:19:16","新北市新店區中興路一段115號","121.54149","24.9627766666667","6500600","新店區"
"231050","AAD-862","2018/11/27 19:19:22","新北市新店區竹林路30巷1號","121.552261666667","24.9513033333333","6500600","新店區"
"231058","3713-VJ","2018/11/27 19:19:31","新北市新店區光明街224巷20弄1號","121.54078","24.96254","6500600","新店區"
"231066","4716-K9","2018/11/27 19:19:30","新北市新店區安康路二段458號","121.4941","24.9539766666667","6500600","新店區"
"231065","512-UM","2018/11/27 19:19:15","新北市新店區安祥路108巷35號","121.474896666667","24.9570933333333","6500600","新店區"
"231049","513-UM","2018/11/27 19:19:23","新北市新店區明德路64號","121.54156","24.9794083333333","6500600","新店區"
"231063","616-UM","2018/11/27 19:19:31","新北市新店區達觀路8巷2號","121.504","24.94276","6500600","新店區"
"231061","619-UM","2018/11/27 19:19:28","新北市新店區安康路一段75-1號","121.530075","24.96107","6500600","新店區"
"231064","719-UM","2018/11/27 19:16:24","新北市新店區安忠路205巷8號","121.509448333333","24.9545516666667","6500600","新店區"
"231062","720-UM","2018/11/27 19:19:17","新北市新店區安康路一段267號","121.524128333333","24.963395","6500600","新店區"
"231060","897-TW","2018/11/27 19:19:28","新北市新店區安康路二段156號","121.51229","24.9608433333333","6500600","新店區"
"231045","898-TW","2018/11/27 19:19:25","新北市新店區北宜路一段260號","121.545686666667","24.9527766666667","6500600","新店區"
"231043","899-TW","2018/11/27 19:19:35","新北市新店區北新路二段108號","121.543045","24.9742483333333","6500600","新店區"
"241022","060-VK","2018/11/27 19:19:20","新北市三重區重陽路二段50號","121.487166666667","25.0634083333333","6500200","三重區"
"241031","061-VK","2018/11/27 19:19:22","新北市三重區重新路四段97號","121.4859","25.0549566666667","6500200","三重區"
"241017","063-VK","2018/11/27 19:19:17","新北市三重區大同北路217號","121.491573333333","25.066015","6500200","三重區"
"241026","066-VK","2018/11/27 19:19:29","新北市三重區光興街61號","121.498768333333","25.0603316666667","6500200","三重區"
"241025","271-UM","2018/11/27 19:19:28","新北市三重區中正北路406號","121.475371666667","25.07048","6500200","三重區"
"241007","398-BY","2018/11/27 19:19:31","新北市三重區慈愛街61號","121.48659","25.0792483333333","6500200","三重區"
"241035","462-BY","2018/11/27 19:19:25","新北市三重區信義西街138號","121.49564","25.0643483333333","6500200","三重區"
"241030","480-VK","2018/11/27 19:19:32","新北市三重區新興路42號","121.491438333333","25.053355","6500200","三重區"
"241006","AAD-863","2018/11/27 19:19:25","新北市三重區車路頭街182號","121.483648333333","25.0772316666667","6500200","三重區"
"241020","743-BX","2018/11/27 19:09:55","新北市三重區自強路三段17號","121.487165","25.0722483333333","6500200","三重區"
"241009","887-TS","2018/11/27 19:19:20","新北市三重區溪尾街230巷57號","121.486453333333","25.08125","6500200","三重區"
"241029","942-UM","2018/11/27 19:19:33","新北市三重區重安街28號","121.490555","25.057905","6500200","三重區"
"235066","003-UY","2018/11/27 19:19:24","新北市中和區景新街2號","121.502546666667","24.999745","6500300","中和區"
"235063","006-UY","2018/11/27 19:19:31","新北市中和區中正路262號","121.495381666667","24.9944","6500300","中和區"
"235056","096-UM","2018/11/27 19:19:16","新北市中和區員山路529號","121.479715","25.00696","6500300","中和區"
"235039","097-UM","2018/11/27 19:19:26","新北市中和區秀峰街121號","121.51997","24.9906433333333","6500300","中和區"
"235065","098-UM","2018/11/27 19:19:17","新北市中和區中山路二段2巷3弄1號","121.504898333333","25.006055","6500300","中和區"
"235040","150-BY","2018/11/27 19:19:34","新北市中和區保健路50巷44號","121.50967","24.9959883333333","6500300","中和區"
"235058","151-BY","2018/11/27 19:19:28","新北市中和區連城路469巷70弄2號","121.48342","24.993965","6500300","中和區"
"235055","183-VK","2018/11/27 19:19:34","新北市中和區德光路19號","121.470973333333","25.0043316666667","6500300","中和區"
"235038","185-VK","2018/11/27 19:19:35","新北市中和區大仁街10巷52號","121.520511666667","24.992635","6500300","中和區"
"235049","186-VK","2018/11/27 19:19:32","新北市中和區景新街239號","121.508145","24.9944566666667","6500300","中和區"
"235067","255-BX","2018/11/27 19:19:19","新北市中和區中正路723號","121.48494","24.9989016666667","6500300","中和區"
"235044","293-VK","2018/11/27 19:19:19","新北市中和區景安路218號","121.503858333333","24.9905483333333","6500300","中和區"
"235072","301-VK","2018/11/27 19:19:23","新北市中和區連城路220號","121.491403333333","24.996485","6500300","中和區"
"235043","352-BY","2018/11/27 19:19:33","新北市中和區景平路426號","121.507435","24.9933083333333","6500300","中和區"
"235042","KEA-2878","2018/11/27 19:19:30","新北市中和區安樂路143巷2弄8號","121.514328333333","24.9973933333333","6500300","中和區"
"235050","4979-A6","2018/11/27 19:19:32","新北市中和區景安路208巷13號","121.503288333333","24.991265","6500300","中和區"
"235069","4980-A6","2018/11/27 19:19:22","新北市中和區福祥路83號","121.499168333333","25.00562","6500300","中和區"
"235070","558-UM","2018/11/27 19:19:26","新北市中和區中和路2號","121.499426666667","25.0025066666667","6500300","中和區"
"235045","565-BX","2018/11/27 19:19:18","新北市中和區景新街423巷33弄16號","121.513651666667","24.9903916666667","6500300","中和區"
"235054","640-BX","2018/11/27 19:19:33","新北市中和區國光街112巷13弄1號","121.469678333333","25.0018966666667","6500300","中和區"
"235060","647-TV","2018/11/27 19:17:34","新北市中和區員山路268巷5弄8號","121.48198","25.00234","6500300","中和區"
"235047","732-UM","2018/11/27 19:19:21","新北市中和區和平街54巷8弄1號","121.508963333333","24.9913733333333","6500300","中和區"
"235046","733-UM","2018/11/27 19:19:20","新北市中和區華新街137號","121.50662","24.9817366666667","6500300","中和區"
"235071","783-BX","2018/11/27 19:19:32","新北市中和區中正路637巷52弄1號","121.485511666667","24.99405","6500300","中和區"
"235057","801-TS","2018/11/27 19:19:34","新北市中和區員山路423巷14弄1-1號","121.48027","25.0028416666667","6500300","中和區"
"235041","802-TS","2018/11/27 19:19:35","新北市永和區中和路373號","121.508435","24.9998066666667","6500300","中和區"
"235052","805-TS","2018/11/27 19:19:22","新北市中和區華新街143巷19號","121.50664","24.9809583333333","6500300","中和區"
"235048","896-TW","2018/11/27 19:19:29","新北市中和區忠孝街122-2號","121.512111666667","24.98593","6500300","中和區"
"235053","900-TW","2018/11/27 19:19:25","新北市中和區民德路240號","121.468073333333","24.9974083333333","6500300","中和區"
"235051","157-BY","2018/11/27 19:19:28","新北市中和區景平路239巷33弄33號","121.509575","24.9914666666667","6500300","中和區"
"235037","AAC-213","2018/11/27 19:19:21","新北市中和區秀朗路三段10巷37弄15號","121.524116666667","24.9955866666667","6500300","中和區"
"235059","AAC-215","2018/11/27 19:19:16","新北市中和區圓通路286巷10號","121.491513333333","24.9911983333333","6500300","中和區"
"220065","072-UY","2018/11/27 19:19:36","新北市板橋區國泰街76巷3號","121.467268333333","25.0067416666667","6500100","板橋區"
"220086","073-UY","2018/11/27 19:19:28","新北市板橋區中正路216巷22號","121.456681666667","25.01853","6500100","板橋區"
"220106","075-UY","2018/11/27 19:19:19","新北市板橋區雙十路三段10巷1號","121.471971666667","25.0307433333333","6500100","板橋區"
"220069","AAD-861","2018/11/27 19:19:24","新北市板橋區貴興路41號","121.457601666667","25.0036183333333","6500100","板橋區"
"226004","312-R5","2018/11/27 19:19:33","新北市平溪區南山里南山坪23號","121.771273333333","25.03634","6502400","平溪區"
"228001","212-TW","2018/11/27 19:19:30","新北市貢寮區真理里新港街26巷6-3號","121.925651666667","25.05457","6502600","貢寮區"
"228002","663-BX","2018/11/27 19:19:30","新北市貢寮區雙玉里田寮洋街21號","121.926378333333","25.0246566666667","6502600","貢寮區"
"228003","828-UM","2018/11/27 19:19:31","新北市貢寮區和美里和美街19-2號","121.912775","25.0826133333333","6502600","貢寮區"
"224010","AGQ-8101","2018/11/27 19:19:26","新北市瑞芳區基山街121號","121.844233333333","25.108595","6501200","瑞芳區"
"224008","285-BY","2018/11/27 19:19:30","新北市瑞芳區一坑路173-3號","121.801741666667","25.1079866666667","6501200","瑞芳區"
"224007","275-VK","2018/11/27 19:19:22","新北市瑞芳區大寮路356-1號","121.784653333333","25.10325","6501200","瑞芳區"
"227009","642-TC","2018/11/27 19:19:33","新北市雙溪區新基里新基北街40號","121.86856","25.03805","6502500","雙溪區"
"227003","400-TW","2018/11/27 19:19:23","新北市雙溪區平林里梅竹蹊66-1號","121.860163333333","25.0358083333333","6502500","雙溪區"
"253006","032-BX","2018/11/27 19:19:35","新北市石門區楓林17-6號","121.536815","25.292585","6502200","石門區"
"253005","295-VK","2018/11/27 19:19:30","新北市石門區小坑9號","121.597206666667","25.28908","6502200","石門區"
"222001","KEA-2212","2018/11/27 19:19:27","新北市深坑區北深路二段84號","121.617513333333","25.0035433333333","6501800","深坑區"
"208002","KEA-2872","2018/11/27 19:19:21","新北市金山區中正路136號","121.631701666667","25.22168","6502700","金山區"
"208003","665-BX","2018/11/27 19:19:23","新北市金山區忠孝一路56號","121.637526666667","25.2204333333333","6502700","金山區"
"208001","761-BX","2018/11/27 19:19:21","新北市金山區民生路69號","121.640145","25.2196833333333","6502700","金山區"
"251005","010-UM","2018/11/27 19:19:13","新北市淡水區水源街一段26號","121.44312","25.1722333333333","6501000","淡水區"
"251013","KEA-2871","2018/11/27 19:19:31","新北市淡水區安子內12-1號","121.481523333333","25.21911","6501000","淡水區"
"251016","179-VK","2018/11/27 19:19:23","新北市淡水區下圭柔山119-51號","121.450728333333","25.20847","6501000","淡水區"
"251014","180-VK","2018/11/27 19:19:16","新北市淡水區小中寮19-7號","121.48477","25.2295866666667","6501000","淡水區"
"251015","182-VK","2018/11/27 19:19:03","新北市淡水區山子邊3-1號","121.483653333333","25.1843033333333","6501000","淡水區"
"251010","413-VK","2018/11/27 19:19:16","新北市淡水區沙崙路28號","121.421471666667","25.1814083333333","6501000","淡水區"
"251001","559-UM","2018/11/27 19:19:15","新北市淡水區民權路92巷35-1號","121.462058333333","25.12677","6501000","淡水區"
"251006","561-UM","2018/11/27 19:19:32","新北市淡水區大信街33號","121.442025","25.1773283333333","6501000","淡水區"
"251009","575-R6","2018/11/27 19:19:31","新北市淡水區中山路141號","121.44074","25.171795","6501000","淡水區"
"251007","577-R6","2018/11/27 19:19:31","新北市淡水區民生路117巷42-1號","121.464923333333","25.139795","6501000","淡水區"
"251003","766-UM","2018/11/27 19:19:26","新北市淡水區中山北路一段168號","121.444396666667","25.1786483333333","6501000","淡水區"
"207003","550-UM","2018/11/27 19:19:36","新北市萬里區大鵬里萬里加投79-3號","121.647316666667","25.212335","6502800","萬里區"
"207004","225-TW","2018/11/27 19:19:25","新北市萬里區萬里里成功新村44號","121.687673333333","25.1746066666667","6502800","萬里區"
"252002","178-VK","2018/11/27 19:19:32","新北市三芝區淡金路二段18-1號","121.502675","25.259515","6502100","三芝區"
"252001","292-VK","2018/11/27 19:19:34","新北市三芝區長勤街37巷18號","121.501123333333","25.2551383333333","6502100","三芝區"
"237004","KEA-2597","2018/11/27 19:19:05","新北市三峽區有木205-1號","121.439071666667","24.8515733333333","6500900","三峽區"
"237007","153-BY","2018/11/27 19:19:17","新北市三峽區二鬮路166號","121.359473333333","24.90706","6500900","三峽區"
"237009","210-TH","2018/11/27 19:19:19","新北市三峽區信義街20號","121.370845","24.935595","6500900","三峽區"
"237013","252-BX","2018/11/27 19:19:31","新北市三峽區大同路39巷22弄1號","121.377246666667","24.9274583333333","6500900","三峽區"
"237012","275-BY","2018/11/27 19:19:34","新北市三峽區三樹路98巷189號","121.385036666667","24.9414733333333","6500900","三峽區"
"237014","433-BY","2018/11/27 19:19:27","新北市三峽區中山路299巷17號","121.361131666667","24.93664","6500900","三峽區"
"237006","5529-G3","2018/11/27 19:19:31","新北市三峽區大同路100號","121.374645","24.9270616666667","6500900","三峽區"
"237011","KEA-2596","2018/11/27 19:19:26","新北市三峽區介壽路三段107號","121.395496666667","24.9392866666667","6500900","三峽區"
"237016","649-BX","2018/11/27 19:19:28","新北市三峽區安坑51-2號","121.463896666667","24.9313183333333","6500900","三峽區"
"237010","706-TV","2018/11/27 19:19:29","新北市三峽區復興路90號","121.37298","24.9374583333333","6500900","三峽區"
"237005","AKY-6261","2018/11/27 19:18:54","新北市三峽區中山路459巷52-1號","121.35653","24.93692","6500900","三峽區"
"236070","105-UM","2018/11/27 19:19:25","新北市土城區學成路70巷7號","121.451955","24.9884383333333","6501300","土城區"
"236079","166-UM","2018/11/27 19:19:22","新北市土城區中州路3巷43號","121.413478333333","24.9562316666667","6501300","土城區"
"236026","269-VK","2018/11/27 19:19:24","新北市土城區中正路67巷26號","121.444405","24.976525","6501300","土城區"
"236014","270-VK","2018/11/27 19:19:17","新北市土城區學府路一段23巷25弄34號","121.457968333333","24.9865533333333","6501300","土城區"
"236021","752-BX","2018/11/27 19:19:33","新北市土城區明峰街83號","121.468991666667","24.98736","6501300","土城區"
"236059","912-UM","2018/11/27 19:19:26","新北市土城區中央路二段99號","121.442091666667","24.9778583333333","6501300","土城區"
"236049","913-UM","2018/11/27 19:19:29","新北市土城區明德路一段365-1號","121.453656666667","24.979095","6501300","土城區"
"242054","441-UM","2018/11/27 19:19:35","新北市新莊區民安西路415巷3號","121.430753333333","25.0089433333333","6500500","新莊區"
"242013","173-VK","2018/11/27 19:19:17","新北市新莊區三和路12-21號","121.441958333333","25.0387166666667","6500500","新莊區"
"242007","176-VK","2018/11/27 19:19:17","新北市新莊區中信街178號","121.447506666667","25.0578616666667","6500500","新莊區"
"238015","755-BX","2018/11/27 19:19:19","新北市樹林區備內街1巷21號","121.413113333333","24.98663","6500700","樹林區"
"238023","601-UM","2018/11/27 19:19:28","新北市樹林區三福街13號","121.408841666667","25.01675","6500700","樹林區"
"238019","599-UM","2018/11/27 19:19:32","新北市樹林區鎮前街347巷1弄24號","121.417225","24.983965","6500700","樹林區"
"238018","571-TV","2018/11/27 19:19:29","新北市樹林區太元街2巷7號","121.417133333333","24.9809783333333","6500700","樹林區"
"238024","5061-A6","2018/11/27 19:19:32","新北市樹林區福德街48-7號","121.399086666667","24.9746083333333","6500700","樹林區"
"238022","KEA-2213","2018/11/27 19:19:30","新北市樹林區東興街3號","121.409686666667","24.9804083333333","6500700","樹林區"
"238025","303-VK","2018/11/27 19:19:31","新北市樹林區中山路二段209號","121.40352","24.976885","6500700","樹林區"
"238017","283-BY","2018/11/27 19:19:27","新北市樹林區光興街376巷2號","121.4063","25.005675","6500700","樹林區"
"238014","282-BY","2018/11/27 19:19:29","新北市樹林區中正路22-1號","121.427765","24.999435","6500700","樹林區"
"238020","268-VK","2018/11/27 19:19:22","新北市樹林區俊英街123巷37號","121.423526666667","25.0104416666667","6500700","樹林區"
"238026","172-UY","2018/11/27 19:19:25","新北市樹林區佳園路二段3-1號","121.39443","24.96538","6500700","樹林區"
"238016","169-UY","2018/11/27 19:19:27","新北市樹林區中山路二段4號","121.41776","24.9853383333333","6500700","樹林區"
"239007","AAC-297","2018/11/27 19:19:24","新北市鶯歌區大湖路185巷9弄7號","121.344021666667","24.968985","6500800","鶯歌區"
"239006","891-R6","2018/11/27 19:19:08","新北市鶯歌區鶯桃路91巷40弄2號","121.337576666667","24.9524483333333","6500800","鶯歌區"
"239008","527-UM","2018/11/27 19:19:19","新北市鶯歌區大湖路460巷2弄2號","121.33996","24.9724233333333","6500800","鶯歌區"
"239001","417-VK","2018/11/27 19:19:32","新北市鶯歌區建國路367巷1號","121.339073333333","24.9495983333333","6500800","鶯歌區"
"239003","360-BY","2018/11/27 19:19:27","新北市鶯歌區中正一路53號","121.352276666667","24.9540116666667","6500800","鶯歌區"
"239002","359-BY","2018/11/27 19:19:14","新北市鶯歌區大湖路185巷18號","121.343001666667","24.9707033333333","6500800","鶯歌區"
"239004","193-VK","2018/11/27 19:19:13","新北市鶯歌區二甲路47-1號","121.336221666667","24.933985","6500800","鶯歌區"
"221008","489-VK","2018/11/27 19:19:20","新北市汐止區康寧街277號","121.625961666667","25.067055","6501100","汐止區"
"221036","130-UY","2018/11/27 19:19:18","新北市汐止區康寧街901號","121.651616666667","25.074895","6501100","汐止區"
"221015","131-UY","2018/11/27 19:19:15","新北市汐止區康寧街901號","121.651551666667","25.0749616666667","6501100","汐止區"
"221010","269-BY","2018/11/27 19:19:33","新北市汐止區康寧街901號","121.651371666667","25.0750483333333","6501100","汐止區"
"221012","278-VK","2018/11/27 19:19:25","新北市汐止區汐萬路一段310號","121.65033","25.074685","6501100","汐止區"
"221023","279-VK","2018/11/27 19:19:18","新北市汐止區汐萬路一段256巷1號","121.651738333333","25.07489","6501100","汐止區"
"221027","281-BY","2018/11/27 19:19:21","新北市汐止區汐萬路一段312號","121.650468333333","25.0753183333333","6501100","汐止區"
"221029","298-VK","2018/11/27 19:19:21","新北市汐止區汐萬路一段256巷1號","121.651728333333","25.0748666666667","6501100","汐止區"
"221021","299-VK","2018/11/27 19:19:22","新北市汐止區康寧街901號","121.651485","25.0750083333333","6501100","汐止區"
"221031","353-TW","2018/11/27 19:19:22","新北市汐止區康寧街901號","121.650828333333","25.0752866666667","6501100","汐止區"
"221025","623-UM","2018/11/27 19:19:33","新北市汐止區康寧街901號","121.651623333333","25.0749583333333","6501100","汐止區"
"221038","646-BX","2018/11/27 19:19:27","新北市汐止區康寧街901號","121.650736666667","25.0753316666667","6501100","汐止區"
"221002","707-TV","2018/11/27 19:19:20","新北市汐止區大同路一段341號","121.638658333333","25.0595033333333","6501100","汐止區"
"220079","145-BY","2018/11/27 19:19:29","新北市板橋區民權路202巷17弄49-1號","121.458983333333","25.01653","6500100","板橋區"
"220080","200-UY","2018/11/27 19:17:20","新北市板橋區大觀路二段19巷90號","121.449205","25.002835","6500100","板橋區"
"220082","610-BX","2018/11/27 19:19:14","新北市板橋區滿平街84巷102號","121.426711666667","24.9866316666667","6500100","板橋區"
"220101","245-BX","2018/11/27 19:19:35","新北市板橋區雙十路二段47巷37號","121.474968333333","25.0253766666667","6500100","板橋區"
"220056","276-BY","2018/11/27 19:19:29","新北市板橋區信義路152號","121.459033333333","24.99172","6500100","板橋區"
"220072","277-BY","2018/11/27 19:19:34","新北市板橋區篤行路二段153號","121.429676666667","24.988","6500100","板橋區"
"220064","282-UM","2018/11/27 19:19:16","新北市板橋區縣民大道二段82號","121.465413333333","25.01466","6500100","板橋區"
"220071","283-VK","2018/11/27 19:19:25","新北市板橋區忠孝路48巷9弄28號","121.461975","25.0001066666667","6500100","板橋區"
"220094","285-UM","2018/11/27 19:19:36","新北市板橋區吳鳳路82號","121.466928333333","25.0313116666667","6500100","板橋區"
"220053","285-VK","2018/11/27 19:19:32","新北市板橋區永豐街156號","121.478383333333","25.0211733333333","6500100","板橋區"
"220083","286-VK","2018/11/27 19:19:26","新北市板橋區大觀路二段174巷184號","121.442256666667","25.0036633333333","6500100","板橋區"
"220081","287-VK","2018/11/27 19:19:35","新北市板橋區南雅東路89號","121.453118333333","25.0084816666667","6500100","板橋區"
"220090","288-VK","2018/11/27 19:19:35","新北市板橋區長江路一段106巷13弄11號","121.460465","25.029305","6500100","板橋區"
"220061","295-UM","2018/11/27 19:19:16","新北市板橋區中山路二段318巷20弄28號","121.48106","25.0187783333333","6500100","板橋區"
"220084","296-UM","2018/11/27 19:19:29","新北市板橋區滿平街136巷8弄12號","121.427426666667","24.987635","6500100","板橋區"
"220067","299-UM","2018/11/27 19:19:20","新北市板橋區長安街178巷12號","121.47419","25.0109833333333","6500100","板橋區"
"220075","303-R5","2018/11/27 19:19:33","新北市板橋區僑中一街124巷72-3號","121.449461666667","25.0175783333333","6500100","板橋區"
"220062","305-R5","2018/11/27 19:19:20","新北市板橋區三民路二段153巷30弄35號","121.481121666667","25.01462","6500100","板橋區"
"220092","307-R5","2018/11/27 19:19:26","新北市板橋區光武街36巷27號","121.468416666667","25.0264033333333","6500100","板橋區"
"220098","317-R6","2018/11/27 19:19:28","新北市板橋區民有街89巷8弄1-1號","121.46426","25.0273683333333","6500100","板橋區"
"220089","487-VK","2018/11/27 19:19:22","新北市板橋區文化路一段413號","121.467551666667","25.0222683333333","6500100","板橋區"
"220035","560-BX","2018/11/27 19:19:28","新北市板橋區中正路332-11號","121.454291666667","25.0232733333333","6500100","板橋區"
"220103","561-BX","2018/11/27 19:19:36","新北市板橋區介壽街42號","121.468576666667","25.0197866666667","6500100","板橋區"
"220063","609-BX","2018/11/27 19:19:30","新北市板橋區三民路一段131號","121.479345","25.020535","6500100","板橋區"
"220091","637-BX","2018/11/27 19:19:17","新北市板橋區萬板路476號","121.479915","25.0259833333333","6500100","板橋區"
"220057","686-BX","2018/11/27 19:19:34","新北市板橋區和平路174巷1弄7號","121.464291666667","24.9952533333333","6500100","板橋區"
"220077","687-BX","2018/11/27 19:19:18","新北市板橋區大觀路一段28巷28號","121.449958333333","25.0093566666667","6500100","板橋區"
"220093","689-BX","2018/11/27 19:19:24","新北市板橋區文化路一段301號","121.465006666667","25.0189383333333","6500100","板橋區"
"220054","741-BX","2018/11/27 19:19:26","新北市板橋區重慶路155巷19號","121.462988333333","25.004075","6500100","板橋區"
"220102","KEA-2699","2018/11/27 19:19:32","新北市板橋區文聖街205巷4號","121.480113333333","25.0264666666667","6500100","板橋區"
"220055","827-TW","2018/11/27 19:19:26","新北市板橋區館前東路156巷21號","121.464256666667","25.006845","6500100","板橋區"
"220068","830-TW","2018/11/27 19:19:21","新北市板橋區翠華街6巷71-1號","121.481118333333","25.0249816666667","6500100","板橋區"
"220096","831-TW","2018/11/27 19:19:20","新北市板橋區大同街26巷35號","121.478596666667","25.0263366666667","6500100","板橋區"
"220088","833-TW","2018/11/27 19:19:20","新北市板橋區雙十路一段22號","121.477945","25.024345","6500100","板橋區"
"220074","895-R6","2018/11/27 19:19:16","新北市板橋區中正路1巷18-1號","121.45517","25.0116133333333","6500100","板橋區"
"220073","985-R7","2018/11/27 19:19:30","新北市板橋區新生街66號","121.457776666667","25.021015","6500100","板橋區"
"220097","AAC-210","2018/11/27 19:19:32","新北市板橋區幸福路32巷3弄12號","121.460841666667","25.020685","6500100","板橋區"
"220070","AAC-253","2018/11/27 19:19:17","新北市板橋區忠孝路162號","121.464195","25.0024633333333","6500100","板橋區"
"235068","KEA-2873","2018/11/27 19:19:14","新北市中和區連勝街17號","121.498738333333","24.99822","6500300","中和區"
"235061","KEA-2875","2018/11/27 19:19:31","新北市中和區員山路314巷12號","121.482131666667","25.00273","6500300","中和區"
"235064","KEA-2876","2018/11/27 19:19:11","新北市中和區中和路30號","121.499891666667","25.0017183333333","6500300","中和區"
