"lineid","car","time","location","longitude","latitude","cityid","cityname"
"234046","148-BY","2018/11/27 20:09:34","新北市永和區得和路342號","121.523666666667","24.99933","6500400","永和區"
"234007","207-UY","2018/11/27 20:09:35","新北市永和區保順路37巷14號","121.503015","25.0104133333333","6500400","永和區"
"234081","298-R6","2018/11/27 20:09:27","新北市永和區國中路101號","121.52419","25.006185","6500400","永和區"
"234038","336-UY","2018/11/27 20:09:34","新北市永和區成功路一段47巷21弄2號","121.528023333333","25.0040183333333","6500400","永和區"
"234064","337-UY","2018/11/27 20:09:20","新北市永和區永利路152號","121.52249","25.0027083333333","6500400","永和區"
"234070","552-UM","2018/11/27 20:09:21","新北市永和區福和路183巷1號","121.519985","25.007355","6500400","永和區"
"234017","745-BX","2018/11/27 20:09:29","新北市永和區文化路86號","121.51395","25.01517","6500400","永和區"
"234030","746-BX","2018/11/27 20:09:27","新北市永和區民權路49巷39號","121.522085","24.99766","6500400","永和區"
"234054","KEA-2590","2018/11/27 20:09:27","新北市永和區博愛街21巷1號","121.517673333333","25.01584","6500400","永和區"
"234013","KEA-2591","2018/11/27 20:09:28","新北市永和區永貞路387號","121.507946666667","25.0087183333333","6500400","永和區"
"234061","AAD-866","2018/11/27 20:09:29","新北市永和區中正路151巷8弄2號","121.516016666667","24.9986016666667","6500400","永和區"
"234086","748-BX","2018/11/27 20:09:28","新北市永和區中正路593號","121.516633333333","25.009325","6500400","永和區"
"234042","862-TW","2018/11/27 20:09:34","新北市永和區雙和街26號","121.508913333333","25.0024566666667","6500400","永和區"
"234050","863-TW","2018/11/27 20:09:28","新北市永和區新生路271巷5號","121.505411666667","25.0129983333333","6500400","永和區"
"234023","9372-KE","2018/11/27 20:09:29","新北市永和區復興街16巷8號","121.51563","25.01248","6500400","永和區"
"234011","9373-KE","2018/11/27 20:09:22","新北市永和區仁愛路352巷122弄15號","121.500805","25.008895","6500400","永和區"
"249005","172-UM","2018/11/27 20:09:35","新北市八里區下罟子58-8號","121.387598333333","25.1378716666667","6502300","八里區"
"249001","173-UM","2018/11/27 20:09:35","新北市八里區中華路二段326號","121.403353333333","25.1479033333333","6502300","八里區"
"249004","303-UY","2018/11/27 20:09:15","新北市八里區中山路一段418-3號","121.411103333333","25.1580283333333","6502300","八里區"
"249002","305-UY","2018/11/27 20:09:29","新北市八里區龍米路一段30巷10號","121.457071666667","25.1168583333333","6502300","八里區"
"249003","593-UM","2018/11/27 20:09:18","新北市八里區中山路二段540巷9弄9號","121.396741666667","25.1467233333333","6502300","八里區"
"248016","026-BX","2018/11/27 20:09:21","新北市五股區凌雲路一段158巷39弄12號","121.446518333333","25.1040783333333","6501500","五股區"
"248008","095-VK","2018/11/27 20:09:35","新北市五股區中興路一段1巷12弄24-1號","121.469331666667","25.0705566666667","6501500","五股區"
"248020","225-UY","2018/11/27 20:09:34","新北市五股區凌雲路二段6號","121.446548333333","25.1026416666667","6501500","五股區"
"248012","247-BX","2018/11/27 20:09:35","新北市五股區六合街94號","121.431205","25.090985","6501500","五股區"
"248014","261-SL","2018/11/27 20:09:22","新北市五股區新五路三段153號","121.447486666667","25.0916916666667","6501500","五股區"
"248010","272-BY","2018/11/27 20:09:17","新北市五股區成泰路一段7巷5號","121.433351666667","25.0667033333333","6501500","五股區"
"248004","677-BX","2018/11/27 20:09:30","新北市五股區成泰路一段129號","121.435576666667","25.0725916666667","6501500","五股區"
"248002","678-BX","2018/11/27 20:09:25","新北市五股區成泰路三段251號","121.446716666667","25.0936466666667","6501500","五股區"
"234077","969-R7","2018/11/27 20:09:31","新北市永和區智光街115號","121.515635","24.9961083333333","6500400","永和區"
"234074","AAC-211","2018/11/27 20:09:22","新北市永和區豫溪街155號","121.521325","25.0104116666667","6500400","永和區"
"234067","AAC-212","2018/11/27 20:09:32","新北市永和區保平路236巷12弄4號","121.508746666667","25.006535","6500400","永和區"
"234003","AAC-295","2018/11/27 20:09:22","新北市永和區中正路694號","121.516551666667","25.0096383333333","6500400","永和區"
"243013","AAD-798","2018/11/27 20:09:34","新北市泰山區明志路三段74巷16號","121.42432","25.041765","6501600","泰山區"
"243009","297-R6","2018/11/27 20:09:28","新北市泰山區泰林路二段121號","121.434326666667","25.0595966666667","6501600","泰山區"
"243016","KEA-2801","2018/11/27 20:09:26","新北市泰山區明志路三段405號","121.421205","25.034015","6501600","泰山區"
"243015","421-VK","2018/11/27 20:09:31","新北市泰山區明志路一段332號","121.43121","25.05879","6501600","泰山區"
"243011","KEA-2215","2018/11/27 20:09:24","新北市新莊區丹鳳街40號","121.42159","25.0296066666667","6501600","泰山區"
"243010","KEA-2216","2018/11/27 20:09:21","新北市泰山區明志路二段214巷16弄35號","121.426623333333","25.0501166666667","6501600","泰山區"
"243012","646-TV","2018/11/27 20:09:24","新北市泰山區楓江路86巷2-3號","121.43703","25.0631233333333","6501600","泰山區"
"243014","680-BX","2018/11/27 20:09:21","新北市泰山區明志路一段185號","121.432981666667","25.062025","6501600","泰山區"
"222003","436-BY","2018/11/27 20:09:33","新北市深坑區埔新街60號","121.620225","25.0025033333333","6501800","深坑區"
"222002","659-BX","2018/11/27 20:09:18","新北市深坑區北深路三段20號","121.609473333333","25.00112","6501800","深坑區"
"231041","002-UM","2018/11/27 20:09:29","新北市新店區中正路460號","121.533985","24.9793766666667","6500600","新店區"
"231059","046-UY","2018/11/27 20:09:27","新北市新店區安成街24號","121.510245","24.960885","6500600","新店區"
"231040","047-UY","2018/11/27 20:09:26","新北市新店區中正路108號","121.543118333333","24.9706766666667","6500600","新店區"
"231044","106-UY","2018/11/27 20:09:32","新北市新店區寶慶街66號","121.541995","24.9867716666667","6500600","新店區"
"231053","108-UY","2018/11/27 20:09:19","新北市新店區新烏路三段141號","121.551191666667","24.9019366666667","6500600","新店區"
"231048","187-VK","2018/11/27 20:09:27","新北市新店區寶橋路59-1號","121.545115","24.975065","6500600","新店區"
"231051","188-VK","2018/11/27 20:09:20","新北市新店區中央六街3號","121.530403333333","24.9744116666667","6500600","新店區"
"231054","KEA-2219","2018/11/27 20:09:30","新北市新店區檳榔路7-1號","121.54103","24.964845","6500600","新店區"
"231057","256-BX","2018/11/27 20:09:25","新北市新店區百齡一路12號","121.553135","24.932415","6500600","新店區"
"231042","268-BY","2018/11/27 20:09:35","新北市新店區中興路二段89號","121.547063333333","24.971405","6500600","新店區"
"231050","AAD-862","2018/11/27 20:09:22","新北市新店區北新路一段90號","121.541963333333","24.9686966666667","6500600","新店區"
"231066","4716-K9","2018/11/27 20:09:30","新北市新店區安德街60巷19-1號","121.510428333333","24.9632416666667","6500600","新店區"
"231056","4715-K9","2018/11/27 20:09:28","新北市新店區中正路275巷21號","121.537095","24.97335","6500600","新店區"
"231067","4772-VM","2018/11/27 20:09:19","新北市新店區溪洲路6巷40號","121.533683333333","24.9629066666667","6500600","新店區"
"231065","512-UM","2018/11/27 20:09:35","新北市新店區安祥路106巷106號","121.474078333333","24.9591716666667","6500600","新店區"
"231049","513-UM","2018/11/27 20:09:23","新北市新店區北新路二段139巷9-1號","121.542183333333","24.975535","6500600","新店區"
"231063","616-UM","2018/11/27 20:09:31","新北市新店區黎明路53巷2號","121.502348333333","24.9485816666667","6500600","新店區"
"231061","619-UM","2018/11/27 20:09:17","新北市新店區安民街389號","121.515863333333","24.9767916666667","6500600","新店區"
"231068","718-UY","2018/11/27 20:09:28","新北市新店區寶中路45號","121.545281666667","24.9789416666667","6500600","新店區"
"231064","719-UM","2018/11/27 19:58:04","新北市新店區安民街21號","121.515595","24.964835","6500600","新店區"
"231062","720-UM","2018/11/27 20:09:17","新北市新店區安康路一段166號","121.525856666667","24.96306","6500600","新店區"
"231060","897-TW","2018/11/27 20:09:27","新北市新店區安康路三段404號","121.485875","24.9517266666667","6500600","新店區"
"231045","898-TW","2018/11/27 20:09:29","新北市新店區北宜路一段170號","121.540731666667","24.9530633333333","6500600","新店區"
"231043","899-TW","2018/11/27 20:09:34","新北市新店區民族路184號","121.536905","24.9761666666667","6500600","新店區"
"231055","AKT-0513","2018/11/27 20:09:17","新北市新店區中華路42巷10號","121.540405","24.9685683333333","6500600","新店區"
"241011","013-R5","2018/11/27 20:09:35","新北市三重區龍濱路287號","121.500798333333","25.0735183333333","6500200","三重區"
"241028","022-UY","2018/11/27 20:09:32","新北市三重區仁化街123號","121.494655","25.0575916666667","6500200","三重區"
"241008","059-VK","2018/11/27 20:09:17","新北市三重區永福街197巷15-1號","121.479016666667","25.07439","6500200","三重區"
"241022","060-VK","2018/11/27 20:09:30","新北市三重區重陽路二段7號","121.486915","25.0619833333333","6500200","三重區"
"241031","061-VK","2018/11/27 20:09:22","新北市三重區過圳街19號","121.48874","25.06021","6500200","三重區"
"241015","062-VK","2018/11/27 20:09:27","新北市三重區福德北路41號","121.50234","25.0648283333333","6500200","三重區"
"241017","063-VK","2018/11/27 20:09:17","新北市三重區大智街108-6號","121.492783333333","25.066605","6500200","三重區"
"241024","065-VK","2018/11/27 20:09:20","新北市三重區中正北路165巷35號","121.479763333333","25.07044","6500200","三重區"
"241026","066-VK","2018/11/27 20:09:29","新北市三重區福德南路65巷2號","121.502391666667","25.0605083333333","6500200","三重區"
"241002","090-VK","2018/11/27 20:09:24","新北市三重區仁義街210號","121.4963","25.0822416666667","6500200","三重區"
"241003","091-VK","2018/11/27 20:09:31","新北市三重區富華街18號","121.489605","25.0824616666667","6500200","三重區"
"241005","262-UM","2018/11/27 20:09:30","新北市三重區五華街180巷30號","121.48805","25.08539","6500200","三重區"
"241016","265-UM","2018/11/27 20:09:21","新北市三重區正德街61號","121.495783333333","25.0633416666667","6500200","三重區"
"241018","268-UM","2018/11/27 20:09:29","新北市三重區正義北路256巷137號","121.493103333333","25.0677733333333","6500200","三重區"
"241013","270-UM","2018/11/27 20:09:34","新北市三重區三和路三段151巷48號","121.49363","25.07431","6500200","三重區"
"241025","271-UM","2018/11/27 20:09:28","新北市三重區中正北路169號","121.478461666667","25.0693116666667","6500200","三重區"
"241007","398-BY","2018/11/27 20:09:31","新北市三重區三和路四段111-8號","121.48634","25.07758","6500200","三重區"
"241035","462-BY","2018/11/27 20:09:25","新北市三重區文化北路25號","121.49957","25.0637266666667","6500200","三重區"
"241004","475-VK","2018/11/27 20:09:27","新北市三重區自強路四段84號","121.490875","25.07923","6500200","三重區"
"241030","480-VK","2018/11/27 20:09:32","新北市三重區成功路145巷35號","121.48778","25.053215","6500200","三重區"
"241014","543-UM","2018/11/27 20:09:32","新北市三重區長樂街100號","121.501443333333","25.069585","6500200","三重區"
"241023","545-UM","2018/11/27 20:09:29","新北市三重區頂崁街216號","121.476926666667","25.067855","6500200","三重區"
"241001","547-UM","2018/11/27 20:09:30","新北市三重區三和路四段87號","121.489735","25.0758183333333","6500200","三重區"
"241033","557-UM","2018/11/27 20:08:16","新北市三重區光復路一段70號","121.471816666667","25.0493183333333","6500200","三重區"
"241019","KEA-2593","2018/11/27 20:09:20","新北市三重區自強路二段67巷45號","121.489821666667","25.0698933333333","6500200","三重區"
"241006","AAD-863","2018/11/27 20:09:25","新北市三重區車路頭街139巷14號","121.484315","25.0761533333333","6500200","三重區"
"241020","743-BX","2018/11/27 20:09:38","新北市三重區三和路三段121號","121.492833333333","25.07311","6500200","三重區"
"241009","887-TS","2018/11/27 20:09:20","新北市三重區永福街28號","121.482468333333","25.0780683333333","6500200","三重區"
"241012","941-UM","2018/11/27 20:09:21","新北市三重區仁興街70號","121.498595","25.07639","6500200","三重區"
"241029","942-UM","2018/11/27 20:09:33","新北市三重區光明路32巷28號","121.491975","25.05873","6500200","三重區"
"235066","003-UY","2018/11/27 20:09:24","新北市中和區水源路154巷2號","121.50813","25.0033183333333","6500300","中和區"
"235039","097-UM","2018/11/27 20:09:37","新北市中和區大勇街27巷2號","121.517291666667","24.9935816666667","6500300","中和區"
"235065","098-UM","2018/11/27 20:09:17","新北市中和區永和路90巷2弄14號","121.497806666667","25.0054966666667","6500300","中和區"
"235040","150-BY","2018/11/27 20:09:34","新北市中和區保健路49號","121.509245","24.9974516666667","6500300","中和區"
"235042","KEA-2878","2018/11/27 20:09:30","新北市新店區薏仁坑路自強巷1號","121.497608333333","24.957565","6500300","中和區"
"247012","KEA-2869","2018/11/27 20:09:21","新北市蘆洲區民族路252號","121.479096666667","25.088745","6501400","蘆洲區"
"235050","4979-A6","2018/11/27 20:09:32","新北市中和區安樂路66號","121.512121666667","24.9932666666667","6500300","中和區"
"235069","4980-A6","2018/11/27 20:09:22","新北市中和區景新街64巷11弄12號","121.504428333333","24.9980833333333","6500300","中和區"
"235070","558-UM","2018/11/27 20:09:26","新北市中和區建一路183-2號","121.488076666667","24.99815","6500300","中和區"
"235054","640-BX","2018/11/27 20:09:33","新北市五股區天乙路102-18號","121.447281666667","25.1071333333333","6500300","中和區"
"235051","157-BY","2018/11/27 20:09:28","新北市中和區復興路73-1號","121.503836666667","24.9902183333333","6500300","中和區"
"235037","AAC-213","2018/11/27 20:09:21","新北市中和區立人街1號","121.52193","24.9939833333333","6500300","中和區"
"235059","AAC-215","2018/11/27 20:09:16","新北市中和區圓通路335巷37弄6號","121.493828333333","24.9890733333333","6500300","中和區"
"220086","073-UY","2018/11/27 20:09:28","新北市八里區中山路三段409號","121.36864","25.135565","6500100","板橋區"
"220106","075-UY","2018/11/27 20:09:25","新北市板橋區文化路二段548巷8弄15號","121.476201666667","25.0331616666667","6500100","板橋區"
"247002","893-R6","2018/11/27 20:09:31","新北市蘆洲區長榮路269巷32號","121.459348333333","25.0860716666667","6501400","蘆洲區"
"247024","500-BY","2018/11/27 20:09:34","新北市蘆洲區光明路134號","121.464056666667","25.08841","6501400","蘆洲區"
"247014","339-TH","2018/11/27 20:09:28","新北市蘆洲區中山二路243號","121.470095","25.0799016666667","6501400","蘆洲區"
"247006","337-TH","2018/11/27 20:09:33","新北市蘆洲區中山二路288號","121.46877","25.077575","6501400","蘆洲區"
"247020","057-VK","2018/11/27 20:09:37","新北市蘆洲區民義街68巷30號","121.47416","25.0892","6501400","蘆洲區"
"247010","056-VK","2018/11/27 20:09:17","新北市蘆洲區集賢路406號","121.480141666667","25.081805","6501400","蘆洲區"
"247018","007-UY","2018/11/27 20:09:22","新北市蘆洲區民族路237號","121.477266666667","25.090115","6501400","蘆洲區"
"247004","002-UY","2018/11/27 20:09:36","新北市蘆洲區永安南路二段328巷17弄16號","121.455913333333","25.083895","6501400","蘆洲區"
"247022","001-UY","2018/11/27 20:09:16","新北市蘆洲區三民路171巷19號","121.47055","25.0869733333333","6501400","蘆洲區"
"226004","312-R5","2018/11/27 20:09:33","新北市平溪區十分里十分街311號","121.77518","25.0434983333333","6502400","平溪區"
"222001","KEA-2212","2018/11/27 20:09:27","新北市深坑區北深路三段212號","121.601103333333","25.003775","6501800","深坑區"
"208003","665-BX","2018/11/27 20:09:23","新北市金山區海興路35-2號","121.629486666667","25.2366716666667","6502700","金山區"
"251005","010-UM","2018/11/27 20:09:33","新北市淡水區學府路7號","121.447463333333","25.16804","6501000","淡水區"
"251013","KEA-2871","2018/11/27 20:09:31","新北市淡水區奎柔山路299號","121.460305","25.205115","6501000","淡水區"
"251016","179-VK","2018/11/27 20:09:27","新北市淡水區番子田18號","121.457226666667","25.2291683333333","6501000","淡水區"
"251014","180-VK","2018/11/27 20:09:36","新北市淡水區石頭厝1號","121.458723333333","25.2355166666667","6501000","淡水區"
"251008","181-VK","2018/11/27 20:09:30","新北市淡水區沙崙路131巷5號","121.422625","25.1829","6501000","淡水區"
"251015","182-VK","2018/11/27 20:09:23","新北市淡水區埤島3-23號","121.44773","25.189685","6501000","淡水區"
"251010","413-VK","2018/11/27 20:09:36","新北市淡水區中正路二段397號","121.425148333333","25.1911716666667","6501000","淡水區"
"251012","441-VK","2018/11/27 20:09:22","新北市淡水區淡金路三段266號","121.448918333333","25.2066966666667","6501000","淡水區"
"251004","443-VK","2018/11/27 20:09:33","新北市淡水區民族路31巷21-1號","121.46182","25.1365533333333","6501000","淡水區"
"251001","559-UM","2018/11/27 20:09:15","新北市淡水區新市二路四段265號","121.445693333333","25.1924566666667","6501000","淡水區"
"251006","561-UM","2018/11/27 20:09:32","新北市淡水區北新路141巷29號","121.44809","25.179635","6501000","淡水區"
"251009","575-R6","2018/11/27 20:09:31","新北市淡水區清水街9-3號","121.444828333333","25.1703333333333","6501000","淡水區"
"251003","766-UM","2018/11/27 20:09:26","新北市淡水區新市一路二段255號","121.443621666667","25.1830733333333","6501000","淡水區"
"207003","550-UM","2018/11/27 20:09:16","新北市萬里區大鵬里萬里加投186號","121.642818333333","25.2156233333333","6502800","萬里區"
"207004","225-TW","2018/11/27 20:09:25","新北市萬里區北基里愛二街2號","121.682421666667","25.1767383333333","6502800","萬里區"
"252002","178-VK","2018/11/27 20:09:34","新北市三芝區中正路一段70號","121.50404","25.2578783333333","6502100","三芝區"
"252001","292-VK","2018/11/27 20:09:34","新北市三芝區公正街9號","121.499683333333","25.25764","6502100","三芝區"
"237006","5529-G3","2018/11/27 20:09:30","新北市三峽區嘉添109-11號","121.369356666667","24.9096383333333","6500900","三峽區"
"237016","649-BX","2018/11/27 20:09:28","新北市三峽區介壽路二段138巷1弄166-2號","121.40323","24.9276733333333","6500900","三峽區"
"236070","105-UM","2018/11/27 20:09:25","新北市土城區中央路三段183號","121.431246666667","24.9652133333333","6501300","土城區"
"236042","KED-0685","2018/11/27 20:09:28","新北市土城區學成路4號","121.453555","24.986375","6501300","土城區"
"236079","166-UM","2018/11/27 20:09:22","新北市土城區民族街68號","121.41814","24.9642433333333","6501300","土城區"
"236030","253-BX","2018/11/27 20:09:35","新北市土城區中央路一段145號","121.446726666667","24.9879466666667","6501300","土城區"
"236026","269-VK","2018/11/27 20:09:29","新北市土城區中央路一段222號","121.444903333333","24.9852866666667","6501300","土城區"
"236014","270-VK","2018/11/27 20:09:37","新北市土城區廣興街19號","121.455976666667","24.9915983333333","6501300","土城區"
"236038","271-VK","2018/11/27 20:09:27","新北市土城區延吉街312號","121.463906666667","24.984015","6501300","土城區"
"236021","752-BX","2018/11/27 20:09:34","新北市土城區延吉街57巷7號","121.472665","24.9874016666667","6501300","土城區"
"236059","912-UM","2018/11/27 20:09:26","新北市土城區中央路二段257號","121.439948333333","24.9713633333333","6501300","土城區"
"236049","913-UM","2018/11/27 20:09:08","新北市土城區清水路119號","121.457775","24.9816666666667","6501300","土城區"
"236055","970-R7","2018/11/27 20:09:32","新北市土城區中華路一段166號","121.44152","24.9831766666667","6501300","土城區"
"242037","AAC-296","2018/11/27 20:09:25","新北市新莊區建安街9巷1號","121.42889","25.0266133333333","6500500","新莊區"
"242058","986-R7","2018/11/27 20:09:28","新北市新莊區八德街129號","121.424008333333","25.0204633333333","6500500","新莊區"
"242056","751-BX","2018/11/27 20:09:26","新北市新莊區新莊路649巷15弄1號","121.445001666667","25.0315083333333","6500500","新莊區"
"242025","705-TV","2018/11/27 20:09:31","新北市新莊區五工路68巷9號","121.458438333333","25.063915","6500500","新莊區"
"242027","615-BX","2018/11/27 20:09:21","新北市新莊區幸福路706號","121.449893333333","25.0491933333333","6500500","新莊區"
"242029","612-BX","2018/11/27 20:09:22","新北市新莊區中原路486號","121.44717","25.0546183333333","6500500","新莊區"
"242044","566-BX","2018/11/27 20:09:21","桃園市龜山區萬壽路一段21巷12號","121.410615","25.02021","6500500","新莊區"
"242048","497-BY","2018/11/27 20:09:28","新北市新莊區四維路152巷47號","121.421853333333","25.0220133333333","6500500","新莊區"
"242054","441-UM","2018/11/27 20:09:30","新北市新莊區民安西路285號","121.42645","25.0120383333333","6500500","新莊區"
"242002","440-UM","2018/11/27 20:09:26","新北市新莊區中正路55-4號","121.461885","25.03968","6500500","新莊區"
"242039","415-TV","2018/11/27 20:09:26","新北市新莊區龍安路479號","121.425353333333","25.0182833333333","6500500","新莊區"
"242009","413-TV","2018/11/27 20:09:26","新北市新莊區昌平街4號","121.454816666667","25.052435","6500500","新莊區"
"242046","400-BY","2018/11/27 20:09:22","新北市新莊區裕民街103巷16號","121.419013333333","25.02287","6500500","新莊區"
"242023","362-BY","2018/11/27 20:09:24","新北市新莊區化成路694號","121.46581","25.05649","6500500","新莊區"
"242061","353-BY","2018/11/27 20:09:17","新北市新莊區瓊林路瓊英巷9號","121.443395","25.0275316666667","6500500","新莊區"
"242011","132-UY","2018/11/27 20:09:18","新北市新莊區中信街61號","121.44923","25.0508283333333","6500500","新莊區"
"242034","135-UY","2018/11/27 20:09:31","新北市新莊區華興街6號","121.446188333333","25.0351766666667","6500500","新莊區"
"242051","172-VK","2018/11/27 20:09:17","新北市新莊區民安西路172巷1弄1號","121.425808333333","25.015895","6500500","新莊區"
"242013","173-VK","2018/11/27 20:09:37","新北市新莊區幸福路710巷6弄2號","121.450078333333","25.04961","6500500","新莊區"
"242019","175-VK","2018/11/27 20:09:27","新北市新莊區博愛路6巷2號","121.456366666667","25.0432666666667","6500500","新莊區"
"242007","176-VK","2018/11/27 20:09:17","新北市新莊區福壽街124巷41弄14號","121.459275","25.0517266666667","6500500","新莊區"
"242017","346-TH","2018/11/27 20:09:18","新北市新莊區中港一街7號","121.45168","25.0456383333333","6500500","新莊區"
"242005","349-TH","2018/11/27 20:09:19","新北市新莊區頭興街52號","121.463853333333","25.0536466666667","6500500","新莊區"
"242021","350-TH","2018/11/27 19:56:46","新北市新莊區明中街50巷6號","121.457026666667","25.0399916666667","6500500","新莊區"
"242015","351-TH","2018/11/27 20:09:27","新北市新莊區中平路26巷41號","121.446756666667","25.04333","6500500","新莊區"
"238015","755-BX","2018/11/27 20:09:19","新北市樹林區八德街1008號","121.39146","24.9684466666667","6500700","樹林區"
"221008","489-VK","2018/11/27 20:09:20","台北市內湖區康樂街141-1號","121.619698333333","25.0743216666667","6501100","汐止區"
"221036","130-UY","2018/11/27 20:09:18","新北市汐止區新台五路二段82號","121.66236","25.0659766666667","6501100","汐止區"
"221015","131-UY","2018/11/27 20:09:15","新北市汐止區建成路52號","121.663668333333","25.0728416666667","6501100","汐止區"
"221010","269-BY","2018/11/27 20:09:33","新北市汐止區八連路一段253號","121.640443333333","25.0837466666667","6501100","汐止區"
"221012","278-VK","2018/11/27 20:09:25","新北市汐止區汐平路二段9-1號","121.695736666667","25.0644633333333","6501100","汐止區"
"221023","279-VK","2018/11/27 20:09:18","新北市汐止區明峰街298巷3弄2號","121.625066666667","25.0682833333333","6501100","汐止區"
"221032","280-BY","2018/11/27 20:09:32","新北市汐止區弘道街8巷5弄1號","121.617161666667","25.047885","6501100","汐止區"
"221027","281-BY","2018/11/27 20:09:21","新北市汐止區光明街28號","121.66023","25.0685883333333","6501100","汐止區"
"221029","298-VK","2018/11/27 20:09:37","新北市汐止區樟樹一路129巷17號","121.641286666667","25.0648983333333","6501100","汐止區"
"221021","299-VK","2018/11/27 20:09:21","新北市汐止區連興街147號","121.654133333333","25.0613883333333","6501100","汐止區"
"221031","353-TW","2018/11/27 20:09:22","新北市汐止區原興路76巷2號","121.632","25.066375","6501100","汐止區"
"221035","622-UM","2018/11/27 20:09:17","新北市汐止區長江街85號","121.657466666667","25.07244","6501100","汐止區"
"221025","623-UM","2018/11/27 20:09:33","新北市汐止區水源路一段235號","121.654253333333","25.0602383333333","6501100","汐止區"
"221038","646-BX","2018/11/27 20:09:27","新北市汐止區忠孝東路521號","121.666948333333","25.0758766666667","6501100","汐止區"
"221033","647-BX","2018/11/27 20:09:28","新北市汐止區東勢街201巷104號","121.633486666667","25.0428583333333","6501100","汐止區"
"221002","707-TV","2018/11/27 20:09:20","新北市汐止區工建路202號","121.63633","25.0630166666667","6501100","汐止區"
"221018","753-BX","2018/11/27 20:09:28","新北市汐止區茄苳路319號","121.673713333333","25.06656","6501100","汐止區"
"220080","200-UY","2018/11/27 20:09:32","新北市板橋區大觀路二段187巷23號","121.445948333333","24.999315","6500100","板橋區"
"220082","610-BX","2018/11/27 20:09:34","新北市板橋區大觀路三段100號","121.432668333333","24.99453","6500100","板橋區"
"220101","245-BX","2018/11/27 20:09:35","新北市板橋區雙十路二段69巷10號","121.474821666667","25.0264133333333","6500100","板橋區"
"224002","257-TC","2018/11/27 20:09:26","新北市瑞芳區中山路316號","121.796901666667","25.11","6501200","瑞芳區"
"220064","282-UM","2018/11/27 20:09:23","新北市板橋區中山路一段206巷131號","121.472736666667","25.0131583333333","6500100","板橋區"
"220083","286-VK","2018/11/27 20:09:25","新北市板橋區大觀路一段38巷156弄168號","121.444306666667","25.00942","6500100","板橋區"
"220081","287-VK","2018/11/27 20:09:35","新北市板橋區僑中一街124巷20弄18-2號","121.446903333333","25.013945","6500100","板橋區"
"220061","295-UM","2018/11/27 20:09:36","新北市板橋區中山路一段143號","121.46427","25.0116066666667","6500100","板橋區"
"220067","299-UM","2018/11/27 20:09:19","新北市板橋區中山路一段206巷89號","121.471978333333","25.013205","6500100","板橋區"
"242042","281-VK","2018/11/27 20:09:36","新北市新莊區青山路一段63號","121.4073","25.027885","6500500","新莊區"
"220092","307-R5","2018/11/27 20:09:26","新北市板橋區公館街110號","121.460863333333","25.0168083333333","6500100","板橋區"
"220098","317-R6","2018/11/27 20:09:28","新北市板橋區新海路72巷5弄15號","121.46179","25.0225833333333","6500100","板橋區"
"220089","487-VK","2018/11/27 20:09:24","新北市板橋區互助街22號","121.46262","25.027455","6500100","板橋區"
"220103","561-BX","2018/11/27 20:09:28","新北市板橋區自由路26巷2號","121.465825","25.022665","6500100","板橋區"
"220093","689-BX","2018/11/27 20:09:25","新北市板橋區長江路一段158號","121.461171666667","25.0303483333333","6500100","板橋區"
"220102","KEA-2699","2018/11/27 20:09:32","新北市板橋區懷德街78巷21號","121.477836666667","25.0312033333333","6500100","板橋區"
"220055","827-TW","2018/11/27 20:09:26","新北市板橋區仁愛路86巷8號","121.460998333333","24.999245","6500100","板橋區"
"220068","830-TW","2018/11/27 20:09:21","新北市板橋區中山路二段364號","121.481671666667","25.0202166666667","6500100","板橋區"
"220096","831-TW","2018/11/27 20:09:20","新北市板橋區莒光路79巷4號","121.471961666667","25.0244116666667","6500100","板橋區"
"220088","833-TW","2018/11/27 20:09:20","新北市板橋區民治街52巷1號","121.479558333333","25.03316","6500100","板橋區"
"220074","895-R6","2018/11/27 20:09:16","新北市板橋區南雅南路一段1巷1弄11號","121.457268333333","25.0060766666667","6500100","板橋區"
"220073","985-R7","2018/11/27 20:09:24","新北市板橋區大觀路一段22號","121.450248333333","25.00853","6500100","板橋區"
"220097","AAC-210","2018/11/27 20:09:27","新北市板橋區光正街18巷3號","121.462596666667","25.0173566666667","6500100","板橋區"
"220070","AAC-253","2018/11/27 20:09:17","新北市板橋區德興街33號","121.453535","24.9938766666667","6500100","板橋區"
"235068","KEA-2873","2018/11/27 20:09:14","新北市中和區福祥路85巷2弄6號","121.498718333333","25.0058733333333","6500300","中和區"
