"lineid","car","time","location","longitude","latitude","cityid","cityname"
"234023","9372-KE","2018/11/27 20:49:30","新北市永和區保安路288號","121.50541","25.011965","6500400","永和區"
"249004","303-UY","2018/11/27 20:49:35","新北市八里區中山路一段63號","121.418333333333","25.15947","6502300","八里區"
"248014","261-SL","2018/11/27 20:49:21","新北市五股區中興路三段163號","121.448748333333","25.0805733333333","6501500","五股區"
"234074","AAC-211","2018/11/27 20:49:22","新北市永和區環河東路二段30號","121.522541666667","25.012705","6500400","永和區"
"244018","402-UM","2018/11/27 20:49:28","新北市林口區粉寮69號","121.40497","25.0908433333333","6501700","林口區"
"222003","436-BY","2018/11/27 20:49:33","新北市深坑區文山路三段48-1號","121.609928333333","24.9985366666667","6501800","深坑區"
"222002","659-BX","2018/11/27 20:49:25","新北市深坑區北深路三段93巷29號","121.605013333333","25.0003166666667","6501800","深坑區"
"231059","046-UY","2018/11/27 20:49:27","新北市新店區僑愛三路2號","121.49994","24.9447166666667","6500600","新店區"
"231040","047-UY","2018/11/27 20:49:26","新北市新店區中正路268號","121.539115","24.9737166666667","6500600","新店區"
"231044","106-UY","2018/11/27 20:49:32","新北市新店區中正路407號","121.534355","24.9776083333333","6500600","新店區"
"231053","108-UY","2018/11/27 20:49:19","新北市新店區光明街22號","121.538056666667","24.958855","6500600","新店區"
"231048","187-VK","2018/11/27 20:49:27","新北市新店區寶元路一段109號","121.545688333333","24.9831533333333","6500600","新店區"
"231051","188-VK","2018/11/27 20:49:20","新北市新店區民生路156巷117號","121.526841666667","24.9826333333333","6500600","新店區"
"231054","KEA-2219","2018/11/27 20:49:30","新北市新店區北新路一段96巷23號","121.543001666667","24.9688133333333","6500600","新店區"
"231057","256-BX","2018/11/27 20:49:25","新北市新店區新烏路一段8號","121.547275","24.9518016666667","6500600","新店區"
"231042","268-BY","2018/11/27 20:49:35","新北市新店區寶高路120巷1號","121.554578333333","24.976065","6500600","新店區"
"231050","AAD-862","2018/11/27 20:49:22","新北市新店區三民路117巷2弄1號","121.534616666667","24.971825","6500600","新店區"
"231058","3713-VJ","2018/11/27 20:49:31","新北市新店區平等街89號","121.53539","24.9724316666667","6500600","新店區"
"231066","4716-K9","2018/11/27 20:49:30","新北市新店區安興路112號","121.514668333333","24.9774783333333","6500600","新店區"
"231056","4715-K9","2018/11/27 20:49:28","新北市新店區薏仁坑路自強巷1號","121.497476666667","24.9577416666667","6500600","新店區"
"231067","4772-VM","2018/11/27 20:49:19","新北市新店區安一路一段1-1號","121.519718333333","24.961255","6500600","新店區"
"231065","512-UM","2018/11/27 20:49:35","新北市新店區安祥路69巷15號","121.48199","24.9614033333333","6500600","新店區"
"231049","513-UM","2018/11/27 20:49:23","新北市新店區秀山路66號","121.530631666667","24.9608283333333","6500600","新店區"
"231063","616-UM","2018/11/27 20:49:31","新北市新店區如意街8號","121.49478","24.948205","6500600","新店區"
"231061","619-UM","2018/11/27 20:49:37","新北市新店區新和街93巷2號","121.521073333333","24.9864866666667","6500600","新店區"
"231068","718-UY","2018/11/27 20:49:28","新北市新店區寶元路一段105號","121.545496666667","24.9829666666667","6500600","新店區"
"231064","719-UM","2018/11/27 20:49:24","新北市新店區安民街365巷3號","121.516278333333","24.9756716666667","6500600","新店區"
"231062","720-UM","2018/11/27 20:49:17","新北市新店區裕合街25號","121.489211666667","24.9499566666667","6500600","新店區"
"231060","897-TW","2018/11/27 20:49:27","新北市新店區安康路三段539-1號","121.479851666667","24.94707","6500600","新店區"
"231045","898-TW","2018/11/27 20:49:25","新北市新店區北新路一段99號","121.53908","24.9620633333333","6500600","新店區"
"231043","899-TW","2018/11/27 20:49:34","新北市新店區建國路103號","121.540175","24.977485","6500600","新店區"
"241011","013-R5","2018/11/27 20:49:15","新北市三重區龍濱路207號","121.501905","25.071675","6500200","三重區"
"241028","022-UY","2018/11/27 20:49:32","新北市三重區中正南路50號","121.493925","25.0599016666667","6500200","三重區"
"241008","059-VK","2018/11/27 20:49:17","新北市三重區永福街72巷11號","121.479405","25.07683","6500200","三重區"
"241022","060-VK","2018/11/27 20:49:24","新北市三重區過圳街27-5號","121.488041666667","25.0624016666667","6500200","三重區"
"241031","061-VK","2018/11/27 20:49:22","新北市三重區重陽路一段113巷1弄1號","121.487485","25.0598","6500200","三重區"
"241015","062-VK","2018/11/27 20:49:27","新北市三重區三和路二段105號","121.499381666667","25.06862","6500200","三重區"
"241017","063-VK","2018/11/27 20:49:17","新北市三重區民生街28號","121.491801666667","25.0671716666667","6500200","三重區"
"241024","065-VK","2018/11/27 20:49:21","新北市三重區中正北路193巷37號","121.476045","25.0708316666667","6500200","三重區"
"241026","066-VK","2018/11/27 20:49:29","新北市三重區文化南路7號","121.500038333333","25.0623733333333","6500200","三重區"
"241002","090-VK","2018/11/27 20:49:24","新北市三重區仁義街167巷55號","121.498946666667","25.082365","6500200","三重區"
"241003","091-VK","2018/11/27 20:49:31","新北市三重區五華街141巷58號","121.493548333333","25.086735","6500200","三重區"
"241005","262-UM","2018/11/27 20:49:30","新北市三重區五華街141巷58號","121.493478333333","25.0866283333333","6500200","三重區"
"241016","265-UM","2018/11/27 20:49:21","新北市三重區自強路一段101號","121.495723333333","25.0664133333333","6500200","三重區"
"241018","268-UM","2018/11/27 20:49:24","新北市三重區正義北路332號","121.494628333333","25.0708216666667","6500200","三重區"
"241032","269-UM","2018/11/27 20:49:27","新北市三重區重陽路一段120巷35號","121.485165","25.0602716666667","6500200","三重區"
"241013","270-UM","2018/11/27 20:49:34","新北市三重區仁賢街12-1號","121.495658333333","25.07491","6500200","三重區"
"241025","271-UM","2018/11/27 20:49:28","新北市三重區貴陽街14號","121.484235","25.0618633333333","6500200","三重區"
"241007","398-BY","2018/11/27 20:49:31","新北市三重區慈愛街8號","121.48447","25.0784433333333","6500200","三重區"
"241035","462-BY","2018/11/27 20:49:25","新北市三重區文化北路103號","121.497938333333","25.0684266666667","6500200","三重區"
"241004","475-VK","2018/11/27 20:49:27","新北市三重區分子尾街19號","121.489555","25.0810433333333","6500200","三重區"
"241030","480-VK","2018/11/27 20:49:32","新北市三重區環河南路221巷10號","121.49191","25.0522683333333","6500200","三重區"
"241014","543-UM","2018/11/27 20:49:32","新北市三重區長壽街120巷60號","121.501801666667","25.0703516666667","6500200","三重區"
"241023","545-UM","2018/11/27 20:49:29","新北市三重區忠孝路三段84巷1號","121.480258333333","25.0645433333333","6500200","三重區"
"241001","547-UM","2018/11/27 20:49:30","新北市三重區三和路四段118巷2號","121.488926666667","25.0748516666667","6500200","三重區"
"241033","557-UM","2018/11/27 20:47:36","新北市三重區光復路二段2號","121.472076666667","25.0532166666667","6500200","三重區"
"241019","KEA-2593","2018/11/27 20:49:20","新北市三重區自強路二段74巷19號","121.488035","25.0699183333333","6500200","三重區"
"241006","AAD-863","2018/11/27 20:49:25","新北市三重區車路頭街139巷14號","121.484311666667","25.0761666666667","6500200","三重區"
"241020","743-BX","2018/11/27 20:33:29","新北市三重區忠孝路一段87號","121.490011666667","25.0720833333333","6500200","三重區"
"241009","887-TS","2018/11/27 20:49:20","新北市三重區三和路四段197號","121.482141666667","25.07917","6500200","三重區"
"241012","941-UM","2018/11/27 20:49:20","新北市三重區仁信街29號","121.50124","25.0755533333333","6500200","三重區"
"241029","942-UM","2018/11/27 20:49:33","新北市三重區重安街14號","121.490328333333","25.0581816666667","6500200","三重區"
"235039","097-UM","2018/11/27 20:49:26","新北市新店區安豐路54-1號","121.49974","24.9541716666667","6500300","中和區"
"247012","KEA-2869","2018/11/27 20:49:21","新北市蘆洲區集賢路222巷30號","121.482103333333","25.0872966666667","6501400","蘆洲區"
"235069","4980-A6","2018/11/27 20:49:22","新北市中和區員山路375號","121.480988333333","25.0023333333333","6500300","中和區"
"247002","893-R6","2018/11/27 20:49:31","新北市蘆洲區長安街240號","121.457653333333","25.0859133333333","6501400","蘆洲區"
"247016","546-UM","2018/11/27 20:49:30","新北市蘆洲區中正路71號","121.470486666667","25.0827566666667","6501400","蘆洲區"
"247024","500-BY","2018/11/27 20:49:34","新北市蘆洲區長樂路136號","121.462118333333","25.09008","6501400","蘆洲區"
"247014","339-TH","2018/11/27 20:49:28","新北市蘆洲區三民路95號","121.473986666667","25.0848216666667","6501400","蘆洲區"
"247006","337-TH","2018/11/27 20:49:33","新北市蘆洲區永安南路二段54號","121.465726666667","25.077785","6501400","蘆洲區"
"247020","057-VK","2018/11/27 20:49:37","新北市蘆洲區仁愛街60號","121.471585","25.0937916666667","6501400","蘆洲區"
"247010","056-VK","2018/11/27 20:49:17","新北市蘆洲區民族路42號","121.476631666667","25.08439","6501400","蘆洲區"
"247004","002-UY","2018/11/27 20:49:16","新北市蘆洲區長安街100號","121.461553333333","25.0809766666667","6501400","蘆洲區"
"247022","001-UY","2018/11/27 20:49:16","新北市蘆洲區民權路131巷10號","121.471303333333","25.0899466666667","6501400","蘆洲區"
"222001","KEA-2212","2018/11/27 20:49:27","新北市深坑區北深路三段129號","121.604033333333","25.00251","6501800","深坑區"
"251005","010-UM","2018/11/27 20:49:33","新北市淡水區中正東路一段3巷2號","121.450573333333","25.1648116666667","6501000","淡水區"
"251002","012-UM","2018/11/27 20:49:36","新北市淡水區中正東路6號","121.447018333333","25.1670516666667","6501000","淡水區"
"251013","KEA-2871","2018/11/27 20:49:31","新北市淡水區行忠路161號","121.456681666667","25.2002866666667","6501000","淡水區"
"251016","179-VK","2018/11/27 20:49:27","新北市淡水區興仁路160號","121.451505","25.22042","6501000","淡水區"
"251014","180-VK","2018/11/27 20:49:36","新北市淡水區公埔子32-8號","121.461636666667","25.23237","6501000","淡水區"
"251015","182-VK","2018/11/27 20:49:23","新北市淡水區淡金路四段542巷17號","121.452746666667","25.2271066666667","6501000","淡水區"
"251010","413-VK","2018/11/27 20:49:35","新北市淡水區沙崙路126號","121.423591666667","25.1830283333333","6501000","淡水區"
"251012","441-VK","2018/11/27 20:49:22","新北市淡水區淡金路四段514號","121.452041666667","25.2256616666667","6501000","淡水區"
"251001","559-UM","2018/11/27 20:49:35","新北市淡水區淡金路218號","121.460526666667","25.1671716666667","6501000","淡水區"
"251007","577-R6","2018/11/27 20:49:31","新北市淡水區鄧公路29巷9號","121.451896666667","25.1701483333333","6501000","淡水區"
"251011","650-BX","2018/11/27 20:49:22","新北市淡水區新民街一段13-1號","121.43304","25.1846366666667","6501000","淡水區"
"251003","766-UM","2018/11/27 20:49:26","新北市淡水區中山北路一段247巷118號","121.441548333333","25.1795033333333","6501000","淡水區"
"242037","AAC-296","2018/11/27 20:49:38","新北市新莊區中正路449號","121.443061666667","25.034115","6500500","新莊區"
"242025","705-TV","2018/11/27 20:49:31","新北市八里區中山路三段112號","121.387053333333","25.1460966666667","6500500","新莊區"
"242029","612-BX","2018/11/27 20:49:22","新北市新莊區幸福路26號","121.458723333333","25.0495166666667","6500500","新莊區"
"242054","441-UM","2018/11/27 20:49:30","新北市新莊區西盛街330號","121.428005","25.0145833333333","6500500","新莊區"
"242002","440-UM","2018/11/27 20:49:26","新北市新莊區中港路五守新村1巷5號","121.455356666667","25.03819","6500500","新莊區"
"242009","413-TV","2018/11/27 20:49:26","新北市新莊區思源路59號","121.459923333333","25.0403533333333","6500500","新莊區"
"242023","362-BY","2018/11/27 20:49:24","新北市三重區光復路二段170號","121.47221","25.0613066666667","6500500","新莊區"
"242061","353-BY","2018/11/27 20:49:37","新北市新莊區新樹路115號","121.43732","25.0265633333333","6500500","新莊區"
"242011","132-UY","2018/11/27 20:49:38","新北市五股區成泰路一段8巷9-9號","121.437773333333","25.06787","6500500","新莊區"
"242051","172-VK","2018/11/27 20:49:17","新北市新莊區西盛街319號","121.428226666667","25.0149166666667","6500500","新莊區"
"242005","349-TH","2018/11/27 20:49:18","新北市五股區新城三路61號","121.449118333333","25.09378","6500500","新莊區"
"221036","130-UY","2018/11/27 20:49:18","新北市汐止區新台五路一段154號","121.653993333333","25.0623483333333","6501100","汐止區"
"221027","281-BY","2018/11/27 20:49:21","新北市汐止區汐萬路一段37號","121.65562","25.06817","6501100","汐止區"
"221029","298-VK","2018/11/27 20:49:01","新北市汐止區樟樹二路339巷16-1號","121.641868333333","25.07109","6501100","汐止區"
"221035","622-UM","2018/11/27 20:49:37","新北市汐止區汐萬路一段256巷1號","121.651903333333","25.07479","6501100","汐止區"
"221033","647-BX","2018/11/27 20:49:27","新北市汐止區合順街18巷8弄5號","121.620356666667","25.0419383333333","6501100","汐止區"
"221002","707-TV","2018/11/27 20:49:20","新北市汐止區福德二路160號","121.630118333333","25.065055","6501100","汐止區"
"221018","753-BX","2018/11/27 20:49:28","新北市汐止區大同路二段373號","121.657358333333","25.0673316666667","6501100","汐止區"
"220101","245-BX","2018/11/27 20:49:35","新北市八里區中山路三段409號","121.36873","25.1346383333333","6500100","板橋區"
"242042","281-VK","2018/11/27 20:49:28","新北市新莊區天祥街15巷12號","121.416423333333","25.027645","6500500","新莊區"
"220070","AAC-253","2018/11/27 20:49:37","新北市土城區中山路2-2號","121.410616666667","24.9600766666667","6500100","板橋區"
