"lineid","car","time","location","longitude","latitude","cityid","cityname"
"247012","KEA-2869","2018/11/27 22:19:21","新北市五股區中興路三段2巷10號","121.448166666667","25.082135","6501400","蘆洲區"
"251008","181-VK","2018/11/27 22:19:21","新北市淡水區學府路104號","121.449851666667","25.17176","6501000","淡水區"
"251010","413-VK","2018/11/27 22:19:35","新北市淡水區沙崙路200號","121.424685","25.1839433333333","6501000","淡水區"
"251004","443-VK","2018/11/27 22:06:12","新北市淡水區民族路33號","121.462288333333","25.13587","6501000","淡水區"
"251007","577-R6","2018/11/27 22:19:31","新北市淡水區北新路137號","121.449386666667","25.1789283333333","6501000","淡水區"
"251011","650-BX","2018/11/27 22:19:22","新北市淡水區水碓街7號","121.44325","25.17713","6501000","淡水區"
