"lineid","car","time","location","longitude","latitude","cityid","cityname"
"248005","653-BX","2018/10/25 07:59:08","新北市五股區明德路12巷1號","121.433256666667","25.0717033333333","6501500","五股區"
"232001","290-BY","2018/10/25 07:59:07","新北市坪林區下坑子口6-15號","121.711561666667","24.94349","6502000","坪林區"
"232014","291-BY","2018/10/25 07:59:11","新北市坪林區金瓜寮24-3號","121.680368333333","24.9093016666667","6502000","坪林區"
"232010","375-UM","2018/10/25 07:58:59","新北市坪林區厚德岡坑8-5號","121.733156666667","24.9409766666667","6502000","坪林區"
"232007","758-BX","2018/10/25 07:59:00","新北市坪林區九芎林19-5號","121.707555","24.9269516666667","6502000","坪林區"
"244022","069-UM","2018/10/25 07:58:57","新北市林口區粉寮62號","121.407263333333","25.0894433333333","6501700","林口區"
"244006","080-UY","2018/10/25 07:59:03","新北市林口區粉寮路二段88巷100-12號","121.40949","25.0900983333333","6501700","林口區"
"244003","248-BX","2018/10/25 07:59:13","新北市林口區頂福里5鄰34號","121.351976666667","25.0999833333333","6501700","林口區"
"244012","KEA-2802","2018/10/25 07:59:00","新北市林口區粉寮路二段88巷100-12號","121.409638333333","25.090165","6501700","林口區"
"244016","485-VK","2018/10/25 07:58:57","新北市林口區粉寮路二段88巷100-12號","121.409751666667","25.090205","6501700","林口區"
"244010","701-TV","2018/10/25 07:59:08","新北市林口區粉寮62號","121.407268333333","25.0893133333333","6501700","林口區"
"244024","837-TS","2018/10/25 07:58:57","新北市林口區粉寮路二段88巷100-12號","121.409648333333","25.0902266666667","6501700","林口區"
"222006","289-BY","2018/10/25 07:58:57","新北市深坑區文化街45號","121.616953333333","25.0017083333333","6501800","深坑區"
"231069","189-VK","2018/10/25 07:59:15","新北市新店區安康路一段65號","121.530383333333","24.9610616666667","6500600","新店區"
"235001","611-BX","2018/10/25 07:59:15","新北市中和區圓通路367巷4號","121.491345","24.9892433333333","6500300","中和區"
"226005","5620-A6","2018/10/25 07:59:02","新北市平溪區石底里公園街18-3號","121.733765","25.0252883333333","6502400","平溪區"
"226007","7418-A5","2018/10/25 07:59:03","新北市平溪區十分里十分街214-6號","121.779248333333","25.04389","6502400","平溪區"
"226003","8452-VL","2018/10/25 07:45:23","新北市平溪區嶺腳里嶺腳寮83-2號","121.750045","25.0351816666667","6502400","平溪區"
"223006","022-BY","2018/10/25 07:57:38","新北市石碇區靜安路一段292巷10號","121.691878333333","25.0058516666667","6501900","石碇區"
"223002","KEA-2673","2018/10/25 07:59:12","新北市石碇區北宜路五段潭腰巷15-3號","121.63697","24.9355416666667","6501900","石碇區"
"223003","205-TH","2018/10/25 07:54:41","新北市石碇區樟空子10-2號","121.666905","24.9618566666667","6501900","石碇區"
"223004","437-BY","2018/10/25 07:59:00","新北市石碇區石崁1號","121.651696666667","25.0002666666667","6501900","石碇區"
"223001","592-UM","2018/10/25 07:55:49","新北市石碇區樟空子1號","121.666673333333","24.95957","6501900","石碇區"
"223007","661-BX","2018/10/25 07:58:52","新北市石碇區靜安路一段337號","121.699361666667","25.01465","6501900","石碇區"
"223005","677-TV","2018/10/25 07:58:59","新北市石碇區外按11-5號","121.651571666667","24.9989883333333","6501900","石碇區"
"227007","282-VK","2018/10/25 07:59:00","新北市雙溪區平林里梅竹蹊16號","121.862071666667","25.0360183333333","6502500","雙溪區"
"252004","249-BX","2018/10/25 07:59:13","新北市三芝區店子里菜公坑81-3號","121.511113333333","25.2020066666667","6502100","三芝區"
"252007","AAC-283","2018/10/25 07:59:10","新北市三芝區海景一街48號","121.475131666667","25.2472516666667","6502100","三芝區"
"237001","159-UY","2018/10/25 07:59:10","新北市三峽區大學路86號","121.375985","24.9421","6500900","三峽區"
"242035","AAC-296","2018/10/25 07:58:57","新北市新莊區後港一路203號","121.434483333333","25.0285066666667","6500500","新莊區"
"242057","986-R7","2018/10/25 07:59:10","新北市新莊區中正路685號","121.426026666667","25.0300083333333","6500500","新莊區"
"242055","751-BX","2018/10/25 07:59:10","新北市新莊區新泰路33號","121.449561666667","25.033035","6500500","新莊區"
"242026","705-TV","2018/10/25 07:58:57","新北市新莊區思源路55號","121.460043333333","25.0402233333333","6500500","新莊區"
"242028","612-BX","2018/10/25 07:59:07","新北市新莊區復興路二段182號","121.458915","25.0444083333333","6500500","新莊區"
"242043","566-BX","2018/10/25 07:59:15","新北市新莊區富國路76號","121.419971666667","25.0259383333333","6500500","新莊區"
"242047","497-BY","2018/10/25 07:58:58","新北市新莊區四維路212巷11號","121.421026666667","25.0202183333333","6500500","新莊區"
"242010","442-UM","2018/10/25 07:58:55","新北市新莊區中港路469號","121.452271666667","25.04904","6500500","新莊區"
"242052","441-UM","2018/10/25 07:59:08","新北市新莊區瓊林南路305巷35號","121.435823333333","25.00506","6500500","新莊區"
"242038","415-TV","2018/10/25 07:58:58","新北市新莊區民安路274號","121.427641666667","25.0213916666667","6500500","新莊區"
"242008","413-TV","2018/10/25 07:59:16","新北市新莊區中原路183號","121.453306666667","25.05432","6500500","新莊區"
"242045","400-BY","2018/10/25 07:59:04","新北市新莊區新樹路39號","121.440281666667","25.0322233333333","6500500","新莊區"
"242022","362-BY","2018/10/25 07:59:06","新北市新莊區公園路152號","121.453195","25.0400766666667","6500500","新莊區"
"242059","353-BY","2018/10/25 07:59:09","新北市新莊區瓊林南路42巷1-2號","121.435993333333","25.01801","6500500","新莊區"
"242040","133-UY","2018/10/25 07:59:08","新北市新莊區新樹路113巷18號","121.437953333333","25.0266416666667","6500500","新莊區"
"242033","135-UY","2018/10/25 07:59:04","新北市新莊區景德路208號","121.449186666667","25.03378","6500500","新莊區"
"242049","172-VK","2018/10/25 07:59:00","新北市新莊區新樹路445號","121.432916666667","25.0135283333333","6500500","新莊區"
"242012","173-VK","2018/10/25 07:58:57","新北市新莊區中誠街181號","121.447608333333","25.0472583333333","6500500","新莊區"
"242018","175-VK","2018/10/25 07:59:05","新北市新莊區中港路101號","121.455355","25.0395183333333","6500500","新莊區"
"242006","176-VK","2018/10/25 07:59:07","新北市新莊區福樂街118巷2號","121.457321666667","25.0479616666667","6500500","新莊區"
"242001","233-RS","2018/10/25 07:59:04","新北市新莊區中港路301號","121.452953333333","25.0445066666667","6500500","新莊區"
"242016","346-TH","2018/10/25 07:59:08","新北市新莊區復興路一段213號","121.452551666667","25.04371","6500500","新莊區"
"242014","347-TH","2018/10/25 07:59:04","新北市新莊區新泰路154號","121.447616666667","25.0373516666667","6500500","新莊區"
"242030","348-TH","2018/10/25 07:58:59","新北市新莊區新泰路381巷38號","121.442428333333","25.0436566666667","6500500","新莊區"
"242003","349-TH","2018/10/25 07:59:10","新北市新莊區中港路287號","121.452725","25.04404","6500500","新莊區"
"242020","350-TH","2018/10/25 07:59:06","新北市新莊區中華路一段31號","121.451968333333","25.0373866666667","6500500","新莊區"
"242001","281-VK","2018/10/25 07:59:02","新北市新莊區利濟街18號","121.45311","25.0335283333333","6500500","新莊區"
