"lineid","car","time","location","longitude","latitude","cityid","cityname"
"248005","653-BX","2018/10/25 09:09:08","新北市五股區水碓路16巷32號","121.433958333333","25.0728333333333","6501500","五股區"
"244022","069-UM","2018/10/25 09:09:17","新北市林口區東湖路105巷60號","121.384511666667","25.0714866666667","6501700","林口區"
"244006","080-UY","2018/10/25 09:09:23","新北市林口區台電新村48號","121.386498333333","25.086805","6501700","林口區"
"244003","248-BX","2018/10/25 09:09:13","新北市林口區嘉溪雅坑20號","121.33985","25.1080066666667","6501700","林口區"
"244018","403-UM","2018/10/25 09:09:23","新北市林口區忠孝路531巷18號","121.373018333333","25.070015","6501700","林口區"
"244012","KEA-2802","2018/10/25 09:09:20","新北市林口區仁愛路二段201-1號","121.378","25.0745666666667","6501700","林口區"
"244016","485-VK","2018/10/25 09:09:17","新北市林口區八德路78號","121.365585","25.06567","6501700","林口區"
"244008","656-BX","2018/10/25 09:09:13","新北市林口區文林一街11巷31號","121.376548333333","25.0863266666667","6501700","林口區"
"244001","658-BX","2018/10/25 09:09:17","新北市林口區湖子35號","121.385501666667","25.0939583333333","6501700","林口區"
"244010","701-TV","2018/10/25 09:09:08","新北市林口區新寮1-84號","121.392825","25.0768033333333","6501700","林口區"
"244024","837-TS","2018/10/25 09:09:21","新北市林口區忠孝一路182號","121.358955","25.0743366666667","6501700","林口區"
"222006","289-BY","2018/10/25 09:09:17","新北市深坑區土庫尖路27-1號","121.636996666667","25.0167816666667","6501800","深坑區"
"231069","189-VK","2018/10/25 08:55:15","新北市新店區新潭路三段236號","121.501581666667","24.9028616666667","6500600","新店區"
"231008","192-VK","2018/10/25 09:09:20","新北市新店區廣興路110號","121.53632","24.9116733333333","6500600","新店區"
"235001","611-BX","2018/10/25 09:09:15","新北市中和區莒光路222-8號","121.469075","24.9948666666667","6500300","中和區"
"226007","7418-A5","2018/10/25 09:09:22","新北市平溪區東勢里芊蓁坑4號","121.741591666667","25.0001083333333","6502400","平溪區"
"226003","8452-VL","2018/10/25 09:09:23","新北市平溪區望古里望古坑26號","121.763298333333","25.034375","6502400","平溪區"
"223006","022-BY","2018/10/25 09:09:22","新北市深坑區昇高坑路15號","121.624425","25.000895","6501900","石碇區"
"223002","KEA-2673","2018/10/25 09:09:12","新北市石碇區烏塗窟51號","121.657533333333","24.9709066666667","6501900","石碇區"
"223003","205-TH","2018/10/25 09:09:20","新北市石碇區北宜路五段6號","121.630311666667","24.9567766666667","6501900","石碇區"
"223008","406-TH","2018/10/25 09:08:59","新北市石碇區光明路17-2號","121.685971666667","25.0321383333333","6501900","石碇區"
"223004","437-BY","2018/10/25 09:09:20","新北市石碇區大崙16-5號","121.691375","24.977845","6501900","石碇區"
"223001","592-UM","2018/10/25 09:09:09","新北市石碇區北宜路五段32號","121.631098333333","24.9544583333333","6501900","石碇區"
"223007","661-BX","2018/10/25 09:08:43","新北市石碇區光明路17-2號","121.685396666667","25.03191","6501900","石碇區"
"223005","677-TV","2018/10/25 09:09:22","新北市石碇區磨石坑7-2號","121.69033","24.9761083333333","6501900","石碇區"
"252004","249-BX","2018/10/25 09:09:13","新北市三芝區興華里車埕68號","121.493358333333","25.1934766666667","6502100","三芝區"
"252007","AAC-283","2018/10/25 09:09:10","新北市三芝區古庄里四棧橋18-3號","121.490076666667","25.2607216666667","6502100","三芝區"
"237001","159-UY","2018/10/25 09:09:19","新北市樹林區中山路三段210-2號","121.380761666667","24.967495","6500900","三峽區"
"242035","AAC-296","2018/10/25 09:09:17","新北市新莊區建安街71巷6號","121.427618333333","25.0245016666667","6500500","新莊區"
"242057","986-R7","2018/10/25 09:09:10","新北市新莊區八德街131號","121.423848333333","25.0203966666667","6500500","新莊區"
"242055","751-BX","2018/10/25 09:09:10","新北市新莊區新豐街49號","121.447475","25.033835","6500500","新莊區"
"242026","705-TV","2018/10/25 09:09:16","新北市新莊區中華路二段89號","121.452651666667","25.0492583333333","6500500","新莊區"
"242024","613-BX","2018/10/25 09:09:15","新北市新莊區五工二路70巷9號","121.460548333333","25.0662583333333","6500500","新莊區"
"242028","612-BX","2018/10/25 09:09:21","新北市新莊區昌隆街3巷1弄2號","121.453938333333","25.0513733333333","6500500","新莊區"
"242043","566-BX","2018/10/25 09:09:15","新北市新莊區中正路929巷21號","121.411121666667","25.020275","6500500","新莊區"
"242047","497-BY","2018/10/25 09:09:18","新北市新莊區龍安路252號","121.421105","25.019625","6500500","新莊區"
"242010","442-UM","2018/10/25 09:09:15","新北市新莊區中信街37巷4弄9號","121.449795","25.0501733333333","6500500","新莊區"
"242052","441-UM","2018/10/25 09:09:13","新北市新莊區西盛街390號","121.427606666667","25.0128866666667","6500500","新莊區"
"242038","415-TV","2018/10/25 09:09:18","新北市新莊區成功街12號","121.42537","25.0213116666667","6500500","新莊區"
"242008","413-TV","2018/10/25 09:09:15","新北市新莊區思源路245號","121.459923333333","25.047025","6500500","新莊區"
"242045","400-BY","2018/10/25 09:09:13","新北市新莊區裕民街85巷20號","121.41958","25.0232083333333","6500500","新莊區"
"242022","362-BY","2018/10/25 09:09:21","新北市新莊區化成路287號","121.466101666667","25.054905","6500500","新莊區"
"242059","353-BY","2018/10/25 09:09:09","新北市新莊區瓊泰路37號","121.443831666667","25.0285833333333","6500500","新莊區"
"242040","133-UY","2018/10/25 09:09:08","新北市新莊區青山路一段22巷1弄6號","121.410828333333","25.02795","6500500","新莊區"
"242033","135-UY","2018/10/25 09:09:04","新北市新莊區建中街116巷3弄17號","121.445136666667","25.0370516666667","6500500","新莊區"
"242049","172-VK","2018/10/25 09:09:22","新北市新莊區民安西路160號","121.426096666667","25.0162233333333","6500500","新莊區"
"242012","173-VK","2018/10/25 09:09:17","新北市新莊區中和街175巷19號","121.44715","25.0504116666667","6500500","新莊區"
"242018","175-VK","2018/10/25 09:09:09","新北市新莊區銘德街95號","121.455971666667","25.0433516666667","6500500","新莊區"
"242006","176-VK","2018/10/25 09:09:13","新北市新莊區思源路289號","121.459618333333","25.0483633333333","6500500","新莊區"
"242001","233-RS","2018/10/25 09:09:03","新北市新莊區環河路636-7號","121.437426666667","25.011615","6500500","新莊區"
"242014","347-TH","2018/10/25 09:09:24","新北市新莊區中平路36巷20號","121.44562","25.043565","6500500","新莊區"
"242030","348-TH","2018/10/25 09:09:19","新北市新莊區公園一路37號","121.44327","25.0355433333333","6500500","新莊區"
"242003","349-TH","2018/10/25 09:09:10","新北市新莊區頭興街23-1號","121.463506666667","25.05254","6500500","新莊區"
"242020","350-TH","2018/10/25 09:09:17","新北市新莊區和興街1號","121.447721666667","25.0389833333333","6500500","新莊區"
"242001","281-VK","2018/10/25 09:09:22","新北市新莊區化成路74號","121.465088333333","25.043625","6500500","新莊區"
