"lineid","car","time","location","longitude","latitude","cityid","cityname"
"234044","148-BY","2018/10/25 12:39:17","新北市永和區永元路68號","121.522565","25.001555","6500400","永和區"
"234005","207-UY","2018/10/25 12:39:14","新北市永和區豫溪街217巷19號","121.524846666667","25.01023","6500400","永和區"
"234078","298-R6","2018/10/25 12:39:15","新北市永和區林森路81號","121.523938333333","25.0038066666667","6500400","永和區"
"234036","336-UY","2018/10/25 12:39:15","新北市永和區福和路1號","121.526396666667","25.0101833333333","6500400","永和區"
"234062","337-UY","2018/10/25 12:39:14","新北市永和區福和路1號","121.526325","25.0101516666667","6500400","永和區"
"234084","338-UY","2018/10/25 12:39:20","新北市永和區中和路373號","121.508478333333","24.9997833333333","6500400","永和區"
"234068","552-UM","2018/10/25 12:39:12","新北市永和區福和路1號","121.525535","25.0093116666667","6500400","永和區"
"234015","745-BX","2018/10/25 12:39:13","新北市永和區福和路1號","121.52639","25.0096333333333","6500400","永和區"
"234028","746-BX","2018/10/25 12:39:18","新北市永和區得和路321號","121.523383333333","24.9995616666667","6500400","永和區"
"234052","KEA-2590","2018/10/25 12:39:15","新北市永和區福和路1號","121.526203333333","25.0095383333333","6500400","永和區"
"234012","KEA-2591","2018/10/25 12:39:29","新北市永和區仁愛路86號","121.512621666667","25.0133466666667","6500400","永和區"
"234060","AAD-866","2018/10/25 12:39:12","新北市永和區福和路1號","121.52614","25.0095783333333","6500400","永和區"
"234010","9373-KE","2018/10/25 12:39:30","新北市永和區福和路1號","121.525571666667","25.0093783333333","6500400","永和區"
"248015","026-BX","2018/10/25 12:29:53","新北市五股區中興路二段83巷26-6號","121.460058333333","25.075145","6501500","五股區"
"248005","077-UY","2018/10/25 12:39:30","新北市五股區中興路二段83巷26-6號","121.459968333333","25.0751366666667","6501500","五股區"
"234076","969-R7","2018/10/25 12:39:28","新北市中和區安樂路101-3號","121.513491666667","24.9950433333333","6500400","永和區"
"234066","AAC-212","2018/10/25 12:39:21","新北市永和區環河東路二段90號","121.5244","25.01066","6500400","永和區"
"234001","AAC-295","2018/10/25 12:39:21","新北市永和區福和路1號","121.526463333333","25.009975","6500400","永和區"
"244003","248-BX","2018/10/25 12:39:21","新北市林口區粉寮路二段160巷40號","121.405471666667","25.091145","6501700","林口區"
"243008","KEA-2801","2018/10/25 12:14:56","新北市泰山區黎明路31號","121.421465","25.0606916666667","6501600","泰山區"
"231001","047-UY","2018/10/25 12:39:29","新北市新店區安華路28-1號","121.51917","24.9609616666667","6500600","新店區"
"231003","268-BY","2018/10/25 12:39:13","新北市新店區安一路一段1-1號","121.519743333333","24.96109","6500600","新店區"
"231017","AAD-862","2018/10/25 12:39:23","新北市新店區安一路一段1-1號","121.52018","24.9612383333333","6500600","新店區"
"231036","512-UM","2018/10/25 12:39:17","新北市新店區安一路一段1-1號","121.51932","24.9610733333333","6500600","新店區"
"231035","719-UM","2018/10/25 12:39:13","新北市新店區安一路一段1-1號","121.519438333333","24.9613533333333","6500600","新店區"
"231029","897-TW","2018/10/25 12:39:27","新北市新店區安華路28-1號","121.519798333333","24.960855","6500600","新店區"
"235029","098-UM","2018/10/25 12:39:19","新北市中和區員山路36巷16-2號","121.485308333333","24.99135","6500300","中和區"
"235031","255-BX","2018/10/25 12:39:15","新北市中和區新生街163號","121.483613333333","25.0012316666667","6500300","中和區"
"235035","783-BX","2018/10/25 12:39:25","新北市中和區員山路36巷16-3號","121.484975","24.991615","6500300","中和區"
"235016","805-TS","2018/10/25 12:39:10","新北市中和區員山路36巷16號","121.484465","24.9917783333333","6500300","中和區"
"228005","097-TW","2018/10/25 12:39:27","新北市貢寮區福連里蓬萊街15號","121.993183333333","25.0006333333333","6502600","貢寮區"
"228004","212-TW","2018/10/25 12:39:25","新北市貢寮區吉林里枋腳街6-2號","121.887678333333","25.006125","6502600","貢寮區"
"207002","749-BX","2018/10/25 12:39:16","新北市萬里區雙興里太和路7-2號","121.658578333333","25.1739916666667","6502800","萬里區"
"221010","269-BY","2018/10/25 12:39:11","新北市汐止區汐萬路一段256巷3號","121.652126666667","25.074975","6501100","汐止區"
"221035","622-UM","2018/10/25 12:39:22","新北市汐止區汐萬路一段312號","121.650305","25.0749733333333","6501100","汐止區"
"235025","KEA-2875","2018/10/25 12:24:31","新北市中和區員山路36巷16-4號","121.485255","24.991925","6500300","中和區"
