"lineid","car","time","location","longitude","latitude","cityid","cityname"
"234044","148-BY","2018/10/25 13:29:12","新北市永和區秀朗路二段115巷2弄8號","121.52436","25.0018983333333","6500400","永和區"
"234005","207-UY","2018/10/25 13:29:31","新北市永和區中山路一段326號","121.506246666667","25.0065466666667","6500400","永和區"
"234078","298-R6","2018/10/25 13:29:24","新北市永和區環河東路三段60號","121.526998333333","25.00594","6500400","永和區"
"234036","336-UY","2018/10/25 13:29:15","新北市永和區成功路二段1巷9號","121.527266666667","25.0015766666667","6500400","永和區"
"234062","337-UY","2018/10/25 13:29:14","新北市永和區中正路368巷1弄73號","121.520333333333","25.00082","6500400","永和區"
"234084","338-UY","2018/10/25 13:29:20","新北市永和區永利路116號","121.521496666667","25.0032183333333","6500400","永和區"
"234068","552-UM","2018/10/25 13:29:22","新北市永和區警光街2號","121.520173333333","25.00977","6500400","永和區"
"234015","745-BX","2018/10/25 13:29:13","新北市永和區環河西路一段51巷1號","121.51418","25.0182266666667","6500400","永和區"
"234028","746-BX","2018/10/25 13:29:18","新北市永和區民生路79號","121.522645","24.99692","6500400","永和區"
"234052","KEA-2590","2018/10/25 13:29:15","新北市永和區復興街19巷6號","121.516145","25.013195","6500400","永和區"
"234012","KEA-2591","2018/10/25 13:29:29","新北市永和區永和路二段70號","121.514878333333","25.0110083333333","6500400","永和區"
"234060","AAD-866","2018/10/25 13:29:29","新北市永和區中正路556號","121.517205","25.005645","6500400","永和區"
"234040","862-TW","2018/10/25 13:29:15","新北市永和區中和路547巷3弄1號","121.511565","25.0034033333333","6500400","永和區"
"234048","863-TW","2018/10/25 13:29:15","新北市永和區仁愛路148號","121.510636666667","25.0132666666667","6500400","永和區"
"234025","9371-KE","2018/10/25 13:29:22","新北市永和區豫溪街52巷17號","121.515735","25.0091833333333","6500400","永和區"
"234010","9373-KE","2018/10/25 13:29:10","新北市永和區仁愛路141巷30弄1號","121.511721666667","25.011685","6500400","永和區"
"248015","026-BX","2018/10/25 13:29:22","新北市五股區凌雲路一段83巷22弄2號","121.450091666667","25.1006566666667","6501500","五股區"
"248005","077-UY","2018/10/25 13:29:30","新北市五股區四維路52號","121.467385","25.07205","6501500","五股區"
"248007","095-VK","2018/10/25 13:29:27","新北市五股區四維路185巷42弄1號","121.463661666667","25.0768683333333","6501500","五股區"
"248017","225-UY","2018/10/25 13:28:45","新北市五股區御史路277-1號","121.420718333333","25.106095","6501500","五股區"
"248011","247-BX","2018/10/25 13:29:18","新北市五股區御史路52巷2號","121.442","25.09359","6501500","五股區"
"248013","261-SL","2018/10/25 13:29:28","新北市五股區明德路7巷40號","121.43419","25.0708566666667","6501500","五股區"
"248009","272-BY","2018/10/25 13:29:26","新北市五股區明德路8號","121.433303333333","25.0713833333333","6501500","五股區"
"248003","677-BX","2018/10/25 13:29:20","新北市五股區六合街3號","121.431933333333","25.088575","6501500","五股區"
"248001","678-BX","2018/10/25 13:29:15","新北市五股區西雲路163號","121.446096666667","25.09445","6501500","五股區"
"234022","9380-KE","2018/10/25 13:29:26","新北市永和區環河東路二段6號","121.522071666667","25.01355","6500400","永和區"
"234076","969-R7","2018/10/25 13:29:28","新北市永和區民治街82號","121.517488333333","24.9984716666667","6500400","永和區"
"234072","AAC-211","2018/10/25 13:29:27","新北市永和區永和路二段121號","121.514825","25.0121716666667","6500400","永和區"
"234066","AAC-212","2018/10/25 13:29:28","新北市永和區永貞路404號","121.509225","25.00762","6500400","永和區"
"234001","AAC-295","2018/10/25 13:29:21","新北市永和區永和路一段118號","121.513955","25.0078816666667","6500400","永和區"
"244003","248-BX","2018/10/25 13:29:21","新北市林口區瑞樹坑49-5號","121.354225","25.116815","6501700","林口區"
"243005","AAD-798","2018/10/25 13:24:33","新北市泰山區明志路三段206巷3號","121.423321666667","25.0379316666667","6501600","泰山區"
"243008","KEA-2801","2018/10/25 13:29:15","新北市泰山區犁頭窠3-1號","121.422233333333","25.0603316666667","6501600","泰山區"
"231002","002-UM","2018/10/25 13:29:32","新北市新店區環河路64號","121.537145","24.9627266666667","6500600","新店區"
"231027","0293-UT","2018/10/25 13:29:20","新北市新店區環河路19巷15號","121.537588333333","24.9601133333333","6500600","新店區"
"231028","046-UY","2018/10/25 13:29:10","新北市新店區安華路28-1號","121.519596666667","24.9609","6500600","新店區"
"231001","047-UY","2018/10/25 13:29:29","新北市新店區環河路29巷1號","121.536851666667","24.9613916666667","6500600","新店區"
"231010","107-UY","2018/10/25 13:29:23","新北市新店區中央路11號","121.53337","24.9784933333333","6500600","新店區"
"231021","108-UY","2018/10/25 13:29:20","新北市新店區永興路41號","121.543656666667","24.9378583333333","6500600","新店區"
"231011","187-VK","2018/10/25 13:29:15","新北市新店區安康路一段3-1號","121.535093333333","24.9608766666667","6500600","新店區"
"231031","188-VK","2018/10/25 13:29:16","新北市新店區安豐路60-1號","121.497823333333","24.9536533333333","6500600","新店區"
"231023","KEA-2219","2018/10/25 13:29:32","新北市新店區新店路15號","121.540293333333","24.9527816666667","6500600","新店區"
"231026","256-BX","2018/10/25 13:29:26","新北市新店區安康路一段35號","121.531653333333","24.96078","6500600","新店區"
"231003","268-BY","2018/10/25 13:29:15","新北市新店區北新路一段72號","121.541328333333","24.96689","6500600","新店區"
"231018","278-BY","2018/10/25 13:29:23","新北市新店區中央路145號","121.530153333333","24.9734316666667","6500600","新店區"
"231017","AAD-862","2018/10/25 13:29:23","新北市新店區北宜路二段52-1號","121.54917","24.9514133333333","6500600","新店區"
"231038","3712-VJ","2018/10/25 13:29:25","新北市新店區安華路3號","121.519143333333","24.9603983333333","6500600","新店區"
"231037","4716-K9","2018/10/25 13:29:17","新北市新店區安豐路54-1號","121.499765","24.9541466666667","6500600","新店區"
"231025","4715-K9","2018/10/25 13:29:14","新北市新店區中央六街55號","121.528","24.975865","6500600","新店區"
"231036","512-UM","2018/10/25 13:29:17","新北市新店區建業路47-1號","121.4787","24.95526","6500600","新店區"
"231013","513-UM","2018/10/25 13:29:17","新北市新店區中央路208號","121.530183333333","24.9738866666667","6500600","新店區"
"231006","617-UM","2018/10/25 13:29:25","新北市新店區安康路一段222-3號","121.52251","24.9637416666667","6500600","新店區"
"231005","618-UM","2018/10/25 13:29:25","新北市新店區環河路1-1號","121.53778","24.9615433333333","6500600","新店區"
"231030","619-UM","2018/10/25 13:29:12","新北市新店區安華路1-1號","121.519711666667","24.9599666666667","6500600","新店區"
"231034","641-BX","2018/10/25 13:28:37","新北市新店區安華路30巷12-1號","121.517856666667","24.9581333333333","6500600","新店區"
"231035","719-UM","2018/10/25 13:29:13","新北市新店區安一路一段1-1號","121.519456666667","24.9612316666667","6500600","新店區"
"231029","897-TW","2018/10/25 13:29:27","新北市新店區安華路16號","121.515576666667","24.9580566666667","6500600","新店區"
"231004","899-TW","2018/10/25 13:29:28","新北市新店區安康路一段144號","121.526508333333","24.9630983333333","6500600","新店區"
"231024","AKT-0513","2018/10/25 13:29:21","新北市新店區中正路128巷11號","121.542496666667","24.9720266666667","6500600","新店區"
"235030","003-UY","2018/10/25 13:29:27","新北市中和區中山路二段120號","121.502645","25.0037666666667","6500300","中和區"
"235028","005-UY","2018/10/25 13:29:20","新北市中和區連城路139巷31號","121.496435","24.9979233333333","6500300","中和區"
"235027","006-UY","2018/10/25 13:29:29","新北市中和區連城路347巷2弄3-3號","121.488006666667","24.9958383333333","6500300","中和區"
"235020","096-UM","2018/10/25 13:29:24","新北市中和區中正路839巷29號","121.483563333333","25.0022766666667","6500300","中和區"
"235003","097-UM","2018/10/25 13:29:22","新北市中和區大勇街32號","121.51725","24.9932116666667","6500300","中和區"
"235029","098-UM","2018/10/25 13:29:19","新北市中和區莊敬路49巷20弄32號","121.50318","25.0050783333333","6500300","中和區"
"235004","150-BY","2018/10/25 13:28:18","新北市中和區安平路59號","121.509446666667","24.9950083333333","6500300","中和區"
"235022","151-BY","2018/10/25 13:29:25","新北市中和區圓通路369巷72號","121.490191666667","24.9822283333333","6500300","中和區"
"235019","183-VK","2018/10/25 13:29:17","新北市中和區莒光路111號","121.472431666667","25.0025483333333","6500300","中和區"
"235002","185-VK","2018/10/25 13:29:16","新北市中和區自立路147號","121.522496666667","24.9931883333333","6500300","中和區"
"235013","186-VK","2018/10/25 13:29:22","新北市中和區景安路125號","121.505695","24.9960866666667","6500300","中和區"
"235031","255-BX","2018/10/25 13:29:15","新北市中和區員山路148巷45號","121.482635","24.9971683333333","6500300","中和區"
"235036","301-VK","2018/10/25 13:29:23","新北市中和區連城路263號","121.491811666667","24.996525","6500300","中和區"
"235007","352-BY","2018/10/25 13:29:19","新北市中和區景平路329巷2弄8號","121.505548333333","24.9931033333333","6500300","中和區"
"235014","4979-A6","2018/10/25 13:29:29","新北市中和區景新街362巷8號","121.511963333333","24.9902216666667","6500300","中和區"
"235033","4980-A6","2018/10/25 13:29:26","新北市中和區連城路127巷32號","121.496886666667","24.9979116666667","6500300","中和區"
"235006","551-UM","2018/10/25 13:29:27","新北市中和區秀朗路三段177號","121.524276666667","24.9909316666667","6500300","中和區"
"235034","558-UM","2018/10/25 13:29:20","新北市中和區南華路39號","121.50319","24.9964383333333","6500300","中和區"
"235009","565-BX","2018/10/25 13:29:29","新北市中和區南山路236巷24弄30號","121.504825","24.98891","6500300","中和區"
"235018","640-BX","2018/10/25 13:29:31","新北市中和區民享街90巷1號","121.47482","25.0001816666667","6500300","中和區"
"235024","647-TV","2018/10/25 13:29:20","新北市中和區員山路437-3號","121.480781666667","25.0039283333333","6500300","中和區"
"235011","732-UM","2018/10/25 13:29:25","新北市中和區南山路479號","121.508046666667","24.9884933333333","6500300","中和區"
"235035","783-BX","2018/10/25 13:29:25","新北市板橋區光環路二段30號","121.482255","25.01365","6500300","中和區"
"235026","800-TS","2018/10/25 13:29:24","新北市中和區景平路754號","121.496453333333","25.0045366666667","6500300","中和區"
"235021","801-TS","2018/10/25 13:29:29","新北市中和區民安街38號","121.480003333333","25.0005683333333","6500300","中和區"
"235005","802-TS","2018/10/25 13:29:24","新北市中和區中和路324巷10號","121.509936666667","25.00062","6500300","中和區"
"235016","805-TS","2018/10/25 13:29:17","新北市中和區興南路二段133號","121.505216666667","24.9841816666667","6500300","中和區"
"235012","896-TW","2018/10/25 13:29:18","新北市中和區中正路637巷52弄1號","121.48541","24.993455","6500300","中和區"
"235017","900-TW","2018/10/25 13:29:12","新北市中和區民享街463號","121.469963333333","24.992745","6500300","中和區"
"235015","157-BY","2018/10/25 13:29:16","新北市中和區興南路二段142巷25弄4號","121.503021666667","24.9838933333333","6500300","中和區"
"235001","AAC-213","2018/10/25 13:29:19","新北市中和區景德街88號","121.516231666667","24.9914916666667","6500300","中和區"
"235023","AAC-215","2018/10/25 13:29:14","新北市中和區員山路36巷16-3號","121.485006666667","24.991235","6500300","中和區"
"220104","015-TV","2018/10/25 13:29:16","新北市板橋區華東街1-9號","121.448165","24.9949466666667","6500100","板橋區"
"220013","072-UY","2018/10/25 13:29:20","新北市板橋區南雅南路二段18號","121.454675","25.00361","6500100","板橋區"
"220034","073-UY","2018/10/25 13:29:18","新北市板橋區華東街1-10號","121.448245","24.9950566666667","6500100","板橋區"
"220017","AAD-861","2018/10/25 13:29:23","新北市板橋區華東街1-10號","121.44865","24.9950216666667","6500100","板橋區"
"247007","336-TH","2018/10/25 13:29:20","新北市五股區中興路三段190-2號","121.443445","25.0814833333333","6501400","蘆洲區"
"247009","056-VK","2018/10/25 13:29:28","新北市五股區中興路三段2巷10號","121.449116666667","25.0810066666667","6501400","蘆洲區"
"247021","001-UY","2018/10/25 13:29:17","新北市五股區中興路三段2巷10號","121.449241666667","25.0808583333333","6501400","蘆洲區"
"228005","097-TW","2018/10/25 13:29:27","新北市貢寮區美豐里文秀坑8號","121.902596666667","25.0504516666667","6502600","貢寮區"
"228004","212-TW","2018/10/25 13:29:25","新北市貢寮區龍崗里石壁坑街17-1號","121.911761666667","24.992265","6502600","貢寮區"
"253003","6232-TK","2018/10/25 13:29:10","新北市石門區內石門85號","121.568686666667","25.264905","6502200","石門區"
"253004","6251-TK","2018/10/25 13:26:08","新北市石門區竹子湖11號","121.618233333333","25.257375","6502200","石門區"
"253002","637-UY","2018/10/25 13:27:44","新北市石門區九芎林5-3號","121.559633333333","25.268485","6502200","石門區"
"253001","KEC-0718","2018/10/25 13:29:16","新北市三芝區新庄里新庄子71-3號","121.512511666667","25.2767033333333","6502200","石門區"
"207002","749-BX","2018/10/25 13:29:16","新北市萬里區崁腳里崁腳路166號","121.64486","25.1559266666667","6502800","萬里區"
"252005","073-UM","2018/10/25 13:29:20","新北市三芝區圓山里八連溪頭2-3號","121.524393333333","25.222975","6502100","三芝區"
"207001","662-BX","2018/10/25 13:27:59","新北市萬里區龜吼里石角路43號","121.684418333333","25.1924116666667","6502800","萬里區"
"242001","233-RS","2018/10/25 13:29:25","新北市新莊區自立街81號","121.454491666667","25.045455","6500500","新莊區"
"239004","292-BY","2018/10/25 13:29:15","新北市鶯歌區大湖路351號","121.338856666667","24.9711683333333","6500800","鶯歌區"
"221010","269-BY","2018/10/25 13:29:31","台北市內湖區康樂街12號","121.617806666667","25.0679816666667","6501100","汐止區"
"221032","280-BY","2018/10/25 13:29:19","新北市汐止區新興路3號","121.656648333333","25.065365","6501100","汐止區"
"221035","622-UM","2018/10/25 13:29:21","台北市文山區新光路二段100號","121.594528333333","25.0009166666667","6501100","汐止區"
"221033","647-BX","2018/10/25 13:29:27","新北市汐止區民權街二段93號","121.618935","25.047595","6501100","汐止區"
"220027","145-BY","2018/10/25 13:29:19","新北市板橋區華東街1-9號","121.447753333333","24.9953383333333","6500100","板橋區"
"220028","200-UY","2018/10/25 13:29:14","新北市板橋區華東街1-9號","121.448165","24.9949533333333","6500100","板橋區"
"220030","610-BX","2018/10/25 13:29:23","新北市板橋區華東街1-10號","121.44821","24.9950133333333","6500100","板橋區"
"220019","283-VK","2018/10/25 13:29:14","新北市板橋區華東街1-9號","121.448068333333","24.99496","6500100","板橋區"
"220029","287-VK","2018/10/25 13:29:18","新北市板橋區華東街1-10號","121.44824","24.995015","6500100","板橋區"
"220010","295-UM","2018/10/25 13:28:01","新北市板橋區民生路二段161巷1號","121.470163333333","25.0201233333333","6500100","板橋區"
"220032","296-UM","2018/10/25 13:29:28","新北市板橋區華東街1-9號","121.448143333333","24.994985","6500100","板橋區"
"220023","303-R5","2018/10/25 13:29:10","新北市板橋區華東街1-9號","121.448188333333","24.9950116666667","6500100","板橋區"
"220012","486-VK","2018/10/25 13:29:15","新北市板橋區館前西路53號","121.457705","25.00655","6500100","板橋區"
"220054","568-UM","2018/10/25 13:29:20","新北市板橋區華東街1-8號","121.447771666667","24.9948083333333","6500100","板橋區"
"220005","686-BX","2018/10/25 13:29:31","新北市板橋區華東街1-9號","121.448198333333","24.99492","6500100","板橋區"
"220025","687-BX","2018/10/25 13:29:20","新北市板橋區篤行路一段30號","121.431893333333","24.9939983333333","6500100","板橋區"
"220002","741-BX","2018/10/25 13:29:14","新北市板橋區華東街1-9號","121.44807","24.9949366666667","6500100","板橋區"
"220014","829-TW","2018/10/25 13:29:13","新北市板橋區民生路二段161巷1號","121.470111666667","25.0200383333333","6500100","板橋區"
"220022","895-R6","2018/10/25 13:29:28","新北市板橋區華東街1-9號","121.448173333333","24.9950233333333","6500100","板橋區"
"220021","985-R7","2018/10/25 13:29:27","新北市板橋區華東街1-10號","121.4483","24.9949166666667","6500100","板橋區"
"235032","KEA-2873","2018/10/25 13:29:16","新北市中和區圓通路284號","121.491528333333","24.99064","6500300","中和區"
"235025","KEA-2875","2018/10/25 13:29:03","新北市中和區民享街88巷8號","121.47411","25.0005866666667","6500300","中和區"
