"lineid","car","time","location","longitude","latitude","cityid","cityname"
"234044","148-BY","2018/10/25 13:59:12","新北市永和區林森路67號","121.524165","25.0039683333333","6500400","永和區"
"234005","207-UY","2018/10/25 13:59:14","新北市中和區中和路464號","121.512256666667","25.0039866666667","6500400","永和區"
"234078","298-R6","2018/10/25 13:59:31","新北市永和區林森路112巷12弄8號","121.522538333333","25.0044366666667","6500400","永和區"
"234036","336-UY","2018/10/25 13:59:15","新北市永和區成功路二段152-2號","121.526548333333","24.9965666666667","6500400","永和區"
"234062","337-UY","2018/10/25 13:59:14","新北市永和區中正路372號","121.5178","25.0010233333333","6500400","永和區"
"234084","338-UY","2018/10/25 13:59:20","新北市永和區福和路266號","121.518066666667","25.0075483333333","6500400","永和區"
"234068","552-UM","2018/10/25 13:59:32","新北市永和區國光路14號","121.519048333333","25.0083733333333","6500400","永和區"
"234015","745-BX","2018/10/25 13:59:13","新北市永和區文化路78號","121.514078333333","25.0151883333333","6500400","永和區"
"234028","746-BX","2018/10/25 13:59:22","新北市永和區民生路67巷21號","121.523881666667","24.9973483333333","6500400","永和區"
"234052","KEA-2590","2018/10/25 13:59:15","新北市永和區竹林路66巷2-3號","121.51801","25.0136366666667","6500400","永和區"
"234012","KEA-2591","2018/10/25 13:59:09","新北市永和區保生路55號","121.504738333333","25.0106266666667","6500400","永和區"
"234060","AAD-866","2018/10/25 13:59:32","新北市永和區中正路283巷74號","121.515665","24.9990883333333","6500400","永和區"
"234040","862-TW","2018/10/25 13:59:27","新北市永和區中和路389巷3號","121.508333333333","25.0004","6500400","永和區"
"234048","863-TW","2018/10/25 13:59:17","新北市永和區保安路254號","121.506093333333","25.01273","6500400","永和區"
"234010","9373-KE","2018/10/25 13:59:10","新北市永和區仁愛路352巷112弄15號","121.501106666667","25.00859","6500400","永和區"
"248015","026-BX","2018/10/25 13:59:32","新北市五股區成泰路三段543巷18號","121.45095","25.1023183333333","6501500","五股區"
"248007","095-VK","2018/10/25 13:59:27","新北市五股區中興路一段118巷6弄4號","121.466263333333","25.07414","6501500","五股區"
"248017","225-UY","2018/10/25 13:59:25","新北市五股區民義路二段22巷2號","121.42031","25.096735","6501500","五股區"
"248011","247-BX","2018/10/25 13:59:18","新北市五股區成泰路二段195巷1號","121.440341666667","25.0873833333333","6501500","五股區"
"248009","272-BY","2018/10/25 13:59:26","新北市五股區水碓一路23號","121.43061","25.0713733333333","6501500","五股區"
"248003","677-BX","2018/10/25 13:59:20","新北市五股區民義路二段70號","121.405506666667","25.10833","6501500","五股區"
"248001","678-BX","2018/10/25 13:59:16","新北市五股區凌雲路一段156巷1號","121.448926666667","25.102635","6501500","五股區"
"234022","9380-KE","2018/10/25 13:59:26","新北市永和區永和路二段233號","121.515583333333","25.014155","6500400","永和區"
"234076","969-R7","2018/10/25 13:59:28","新北市永和區民權路58巷1弄10號","121.519695","24.9978033333333","6500400","永和區"
"234072","AAC-211","2018/10/25 13:59:07","新北市永和區豫溪街165號","121.521813333333","25.0104716666667","6500400","永和區"
"234066","AAC-212","2018/10/25 13:59:21","新北市永和區永貞路358號","121.510223333333","25.0065883333333","6500400","永和區"
"234001","AAC-295","2018/10/25 13:59:24","新北市永和區福和路316-1號","121.516035","25.007295","6500400","永和區"
"244001","658-BX","2018/10/25 13:59:14","新北市林口區文化北路一段472號","121.365415","25.0776766666667","6501700","林口區"
"243005","AAD-798","2018/10/25 13:59:26","新北市泰山區明志路三段269號","121.423138333333","25.0371233333333","6501600","泰山區"
"243008","KEA-2801","2018/10/25 13:59:15","新北市泰山區明志路二段137號","121.427653333333","25.0507","6501600","泰山區"
"243007","421-VK","2018/10/25 13:59:11","新北市泰山區泰林路二段256號","121.431838333333","25.0622966666667","6501600","泰山區"
"243003","KEA-2215","2018/10/25 13:59:12","新北市泰山區明志路二段246-1號","121.426915","25.04814","6501600","泰山區"
"243002","KEA-2216","2018/10/25 13:59:16","新北市泰山區辭修路34巷1號","121.428896666667","25.0580883333333","6501600","泰山區"
"243004","646-TV","2018/10/25 13:59:13","新北市泰山區仁德路106號","121.432528333333","25.056805","6501600","泰山區"
"243006","680-BX","2018/10/25 13:59:25","新北市泰山區黎明路23號","121.42094","25.0626183333333","6501600","泰山區"
"231002","002-UM","2018/10/25 13:59:28","新北市新店區中正路698號","121.534035","24.9907383333333","6500600","新店區"
"231027","0293-UT","2018/10/25 13:59:20","新北市新店區中興路一段24號","121.538701666667","24.9583816666667","6500600","新店區"
"231028","046-UY","2018/10/25 13:59:29","新北市新店區安和路三段7號","121.518005","24.9806066666667","6500600","新店區"
"231001","047-UY","2018/10/25 13:59:29","新北市新店區三民路24號","121.537091666667","24.9710033333333","6500600","新店區"
"231010","107-UY","2018/10/25 13:59:23","新北市新店區中央路151號","121.529246666667","24.97227","6500600","新店區"
"231021","108-UY","2018/10/25 13:59:20","新北市新店區湖子內路1號","121.542965","24.93001","6500600","新店區"
"231011","187-VK","2018/10/25 13:59:28","新北市新店區中興路二段61號","121.546603333333","24.97057","6500600","新店區"
"231031","188-VK","2018/10/25 13:59:16","新北市新店區莒光路44巷21弄11-3號","121.518448333333","24.952205","6500600","新店區"
"231023","KEA-2219","2018/10/25 13:59:12","新北市新店區文中路45號","121.5396","24.9567283333333","6500600","新店區"
"231026","256-BX","2018/10/25 13:59:26","新北市新店區環河路182-3號","121.533658333333","24.9701116666667","6500600","新店區"
"231003","268-BY","2018/10/25 13:59:32","新北市新店區光明街138巷22號","121.540283333333","24.960905","6500600","新店區"
"231018","278-BY","2018/10/25 13:59:23","新北市新店區中央路133巷10號","121.530701666667","24.9736633333333","6500600","新店區"
"231017","AAD-862","2018/10/25 13:59:23","新北市新店區郵政路1巷6號","121.55735","24.9521033333333","6500600","新店區"
"231038","3712-VJ","2018/10/25 13:59:25","新北市新店區安華路30巷3號","121.519651666667","24.9592183333333","6500600","新店區"
"231037","4716-K9","2018/10/25 13:59:17","新北市新店區安康路三段355巷13號","121.484835","24.9504966666667","6500600","新店區"
"231025","4715-K9","2018/10/25 13:59:14","新北市新店區中正路328巷40號","121.538213333333","24.9763316666667","6500600","新店區"
"231036","512-UM","2018/10/25 13:59:17","新北市新店區安祥路110巷27號","121.473625","24.9564333333333","6500600","新店區"
"231013","513-UM","2018/10/25 13:59:17","新北市新店區明德路64號","121.54157","24.9793733333333","6500600","新店區"
"231006","617-UM","2018/10/25 13:59:25","新北市新店區北宜路二段209號","121.553131666667","24.9534616666667","6500600","新店區"
"231005","618-UM","2018/10/25 13:59:25","新北市新店區中興路三段186號","121.544056666667","24.98151","6500600","新店區"
"231030","619-UM","2018/10/25 13:59:32","新北市新店區安康路一段230-3號","121.522408333333","24.963765","6500600","新店區"
"231034","641-BX","2018/10/25 13:59:18","新北市新店區達觀路8巷2號","121.504151666667","24.9425283333333","6500600","新店區"
"231035","719-UM","2018/10/25 13:58:13","新北市新店區安康路二段85巷44號","121.514398333333","24.9613283333333","6500600","新店區"
"231029","897-TW","2018/10/25 13:59:27","新北市新店區安和路一段1號","121.516505","24.9638233333333","6500600","新店區"
"231004","899-TW","2018/10/25 13:59:28","新北市新店區寶橋路6巷4號","121.543225","24.973545","6500600","新店區"
"231024","AKT-0513","2018/10/25 13:59:21","新北市新店區北新路一段271巷27號","121.540153333333","24.967105","6500600","新店區"
"235030","003-UY","2018/10/25 13:59:27","新北市中和區水源路6巷6號","121.503476666667","25.003435","6500300","中和區"
"235028","005-UY","2018/10/25 13:59:21","新北市中和區泰和街38巷7號","121.499095","25.0002666666667","6500300","中和區"
"235027","006-UY","2018/10/25 13:59:29","新北市中和區中正路552號","121.486966666667","24.9945366666667","6500300","中和區"
"235020","096-UM","2018/10/25 13:59:24","新北市中和區中正路1204號","121.480081666667","25.0105083333333","6500300","中和區"
"235003","097-UM","2018/10/25 13:59:22","新北市中和區秀朗路三段177號","121.524391666667","24.990955","6500300","中和區"
"235029","098-UM","2018/10/25 13:59:19","新北市中和區勝利路7號","121.499836666667","25.0080616666667","6500300","中和區"
"235004","150-BY","2018/10/25 13:57:58","新北市中和區保健路48巷62號","121.509105","24.9957383333333","6500300","中和區"
"235022","151-BY","2018/10/25 13:59:20","新北市中和區員山路75號","121.480716666667","24.9940783333333","6500300","中和區"
"235019","183-VK","2018/10/25 13:59:26","新北市中和區德光路20號","121.471013333333","25.0045333333333","6500300","中和區"
"235002","185-VK","2018/10/25 13:59:16","新北市中和區立人街24-5號","121.518821666667","24.9941733333333","6500300","中和區"
"235013","186-VK","2018/10/25 13:59:13","新北市中和區景安路167巷19號","121.50637","24.99498","6500300","中和區"
"235031","255-BX","2018/10/25 13:59:14","新北市中和區新生街266號","121.48349","24.997265","6500300","中和區"
"235008","293-VK","2018/10/25 13:59:21","新北市中和區中興街161巷10弄2號","121.501211666667","24.990895","6500300","中和區"
"235036","301-VK","2018/10/25 13:59:23","新北市中和區中山路二段11號","121.505146666667","25.0056083333333","6500300","中和區"
"235007","352-BY","2018/10/25 13:59:19","新北市中和區成功路1巷4號","121.526473333333","24.9943516666667","6500300","中和區"
"247011","KEA-2869","2018/10/25 13:59:25","新北市蘆洲區民族路123號","121.47978","25.0870516666667","6501400","蘆洲區"
"235014","4979-A6","2018/10/25 13:59:29","新北市中和區忠孝街1巷2-1號","121.509213333333","24.9830466666667","6500300","中和區"
"235033","4980-A6","2018/10/25 13:59:26","新北市中和區景平路463號","121.500641666667","24.9966083333333","6500300","中和區"
"235006","551-UM","2018/10/25 13:59:27","新北市中和區秀朗路三段78巷1弄3號","121.525663333333","24.9939133333333","6500300","中和區"
"235034","558-UM","2018/10/25 13:59:20","新北市中和區安和路159號","121.506236666667","24.9974483333333","6500300","中和區"
"235009","565-BX","2018/10/25 13:59:20","新北市中和區景新街467巷20弄142號","121.515183333333","24.987345","6500300","中和區"
"235018","640-BX","2018/10/25 13:59:31","新北市中和區民享街27巷1號","121.474048333333","25.0047566666667","6500300","中和區"
"235024","647-TV","2018/10/25 13:59:20","新北市中和區民治街5巷2號","121.475048333333","25.00498","6500300","中和區"
"235011","732-UM","2018/10/25 13:59:25","新北市中和區興南路二段54巷11弄12號","121.505476666667","24.9852633333333","6500300","中和區"
"235010","733-UM","2018/10/25 13:59:25","新北市中和區興南路一段135巷22弄6號","121.509093333333","24.9868466666667","6500300","中和區"
"235035","783-BX","2018/10/25 13:59:25","新北市中和區立德街13-9號","121.489671666667","25.006715","6500300","中和區"
"235026","800-TS","2018/10/25 13:59:24","新北市中和區中山路二段366巷20號","121.491833333333","25.0044366666667","6500300","中和區"
"235021","801-TS","2018/10/25 13:59:29","新北市中和區民利街89號","121.478073333333","24.9979616666667","6500300","中和區"
"235005","802-TS","2018/10/25 13:59:24","新北市中和區中安街16號","121.513498333333","25.003185","6500300","中和區"
"235016","805-TS","2018/10/25 13:59:17","新北市中和區興南路二段188號","121.503473333333","24.9822766666667","6500300","中和區"
"235012","896-TW","2018/10/25 13:59:18","新北市中和區華新街65號","121.50808","24.9841016666667","6500300","中和區"
"235017","900-TW","2018/10/25 13:59:13","新北市中和區壽德街26-1號","121.466535","24.9944116666667","6500300","中和區"
"235015","157-BY","2018/10/25 13:59:16","新北市中和區忠孝街19巷8號","121.510126666667","24.9831883333333","6500300","中和區"
"235001","AAC-213","2018/10/25 13:59:19","新北市中和區秀朗路三段10巷14弄108號","121.522988333333","24.9967516666667","6500300","中和區"
"235023","AAC-215","2018/10/25 13:59:14","新北市中和區圓通路367巷40號","121.491996666667","24.988485","6500300","中和區"
"220104","015-TV","2018/10/25 13:59:16","新北市板橋區中正路341巷22號","121.454111666667","25.0202983333333","6500100","板橋區"
"220013","072-UY","2018/10/25 13:59:20","新北市板橋區漢生東路319號","121.471856666667","25.007925","6500100","板橋區"
"220034","073-UY","2018/10/25 13:59:18","新北市板橋區中正路236巷47號","121.457895","25.0194616666667","6500100","板橋區"
"220105","075-UY","2018/10/25 13:59:31","新北市板橋區莒光路48-1號","121.470595","25.0244233333333","6500100","板橋區"
"220017","AAD-861","2018/10/25 13:59:23","新北市板橋區華興街32-5號","121.458886666667","25.0047566666667","6500100","板橋區"
"247001","893-R6","2018/10/25 13:59:27","新北市蘆洲區永平街32巷67號","121.460105","25.0932216666667","6501400","蘆洲區"
"247015","546-UM","2018/10/25 13:59:23","新北市蘆洲區光華路28號","121.469403333333","25.0832766666667","6501400","蘆洲區"
"247013","339-TH","2018/10/25 13:59:20","新北市蘆洲區中正路107號","121.469828333333","25.0842433333333","6501400","蘆洲區"
"247005","337-TH","2018/10/25 13:59:23","新北市蘆洲區九芎街71巷33號","121.4662","25.0775383333333","6501400","蘆洲區"
"247007","336-TH","2018/10/25 13:59:19","新北市三重區永安北路二段42-6號","121.481905","25.081555","6501400","蘆洲區"
"247019","057-VK","2018/10/25 13:59:26","新北市蘆洲區民族路422巷46號","121.473881666667","25.09294","6501400","蘆洲區"
"247009","056-VK","2018/10/25 13:59:28","新北市蘆洲區集賢路224巷27號","121.48173","25.0869983333333","6501400","蘆洲區"
"247017","007-UY","2018/10/25 13:59:22","新北市蘆洲區民族路255巷20號","121.475941666667","25.0893933333333","6501400","蘆洲區"
"247003","002-UY","2018/10/25 13:59:16","新北市蘆洲區中華街6號","121.463545","25.0816933333333","6501400","蘆洲區"
"247021","001-UY","2018/10/25 13:59:17","新北市蘆洲區中正路263巷2號","121.46731","25.0874033333333","6501400","蘆洲區"
"228005","097-TW","2018/10/25 13:53:27","新北市貢寮區美豐里土地公嶺24號","121.890806666667","25.0648566666667","6502600","貢寮區"
"228004","212-TW","2018/10/25 13:59:05","新北市貢寮區龍崗里嵩陽街37號","121.9063","25.016105","6502600","貢寮區"
"253003","6232-TK","2018/10/25 13:59:30","新北市石門區尖子鹿53-1號","121.58265","25.2731766666667","6502200","石門區"
"253004","6251-TK","2018/10/25 13:59:22","新北市石門區小坑40號","121.598865","25.265755","6502200","石門區"
"253002","637-UY","2018/10/25 13:59:24","新北市石門區七股43號","121.552606666667","25.2604333333333","6502200","石門區"
"253001","KEC-0718","2018/10/25 13:59:21","新北市石門區下員坑58-1號","121.525003333333","25.2654233333333","6502200","石門區"
"207002","749-BX","2018/10/25 13:59:16","新北市萬里區溪底里烏塗炭9號","121.636836666667","25.1513683333333","6502800","萬里區"
"252005","073-UM","2018/10/25 13:59:20","新北市三芝區橫山里大坑60號","121.535233333333","25.2483216666667","6502100","三芝區"
"207001","662-BX","2018/10/25 13:59:19","新北市萬里區磺潭里清水13號","121.636946666667","25.2017983333333","6502800","萬里區"
"236068","105-UM","2018/10/25 13:59:27","新北市土城區金城路一段72號","121.44392","24.9725183333333","6501300","土城區"
"236074","166-UM","2018/10/25 13:59:18","新北市土城區永寧路32巷10弄3號","121.428851666667","24.96104","6501300","土城區"
"236029","253-BX","2018/10/25 13:59:20","新北市土城區城林路6巷80號","121.438518333333","24.9797716666667","6501300","土城區"
"236024","269-VK","2018/10/25 13:59:28","新北市土城區中央路三段46號","121.437245","24.9675866666667","6501300","土城區"
"236012","270-VK","2018/10/25 13:59:22","新北市土城區城林路6巷80號","121.438593333333","24.9797483333333","6501300","土城區"
"236032","271-VK","2018/10/25 13:59:11","新北市土城區城林路6巷80號","121.438575","24.97987","6501300","土城區"
"236017","401-BY","2018/10/25 13:59:20","新北市土城區城林路6巷80號","121.438435","24.9797933333333","6501300","土城區"
"236040","752-BX","2018/10/25 13:59:13","新北市土城區慶安街42巷5號","121.4412","24.97349","6501300","土城區"
"236057","912-UM","2018/10/25 13:59:28","新北市土城區中央路三段270號","121.426916666667","24.963885","6501300","土城區"
"236045","913-UM","2018/10/25 13:59:19","新北市土城區城林路6巷80號","121.438416666667","24.9798416666667","6501300","土城區"
"236054","AAC-216","2018/10/25 13:59:21","新北市土城區城林路6巷80號","121.438441666667","24.9799033333333","6501300","土城區"
"242001","233-RS","2018/10/25 13:59:25","新北市新莊區自強街37巷12號","121.45416","25.0466116666667","6500500","新莊區"
"239004","292-BY","2018/10/25 13:59:15","桃園市龜山區宏德司法新村180號","121.33423","24.9807066666667","6500800","鶯歌區"
"221010","269-BY","2018/10/25 13:59:31","新北市汐止區八連路二段610巷4號","121.627676666667","25.10887","6501100","汐止區"
"221035","622-UM","2018/10/25 13:59:21","新北市新店區安康路二段350-3號","121.503168333333","24.9576816666667","6501100","汐止區"
"221033","647-BX","2018/10/25 13:59:27","新北市汐止區樟樹二路251巷46號","121.640443333333","25.06701","6501100","汐止區"
"220027","145-BY","2018/10/25 13:59:27","新北市板橋區民權路202巷7弄40號","121.458536666667","25.01508","6500100","板橋區"
"220028","200-UY","2018/10/25 13:59:14","新北市板橋區大觀路二段265巷3弄1號","121.442928333333","24.998435","6500100","板橋區"
"220030","610-BX","2018/10/25 13:59:30","新北市板橋區滿平街72號","121.42744","24.989305","6500100","板橋區"
"220004","276-BY","2018/10/25 13:59:24","新北市板橋區信義路127號","121.457778333333","24.993225","6500100","板橋區"
"220020","277-BY","2018/10/25 13:59:27","新北市板橋區溪北路152號","121.430435","24.9883483333333","6500100","板橋區"
"220050","280-UM","2018/10/25 13:59:30","新北市板橋區莊敬路117號","121.472046666667","25.0256733333333","6500100","板橋區"
"220043","283-UM","2018/10/25 13:59:32","新北市板橋區文化路二段76號","121.469223333333","25.0251233333333","6500100","板橋區"
"220019","283-VK","2018/10/25 13:59:13","新北市板橋區重慶路245巷54號","121.465176666667","25.00081","6500100","板橋區"
"220001","285-VK","2018/10/25 13:59:32","新北市板橋區中山路二段89巷48號","121.473731666667","25.0172366666667","6500100","板橋區"
"220031","286-VK","2018/10/25 13:59:23","新北市板橋區大觀路二段20巷22號","121.444693333333","25.0040116666667","6500100","板橋區"
"220029","287-VK","2018/10/25 13:59:18","新北市板橋區光華街28巷1號","121.453858333333","25.0124716666667","6500100","板橋區"
"220039","288-VK","2018/10/25 13:59:25","新北市板橋區四維路177巷4弄22號","121.463371666667","25.0267366666667","6500100","板橋區"
"220009","293-UM","2018/10/25 13:59:16","新北市板橋區富山街87號","121.476711666667","25.0218216666667","6500100","板橋區"
"220010","295-UM","2018/10/25 13:59:21","新北市板橋區三民路二段245巷53號","121.480695","25.0126266666667","6500100","板橋區"
"220032","296-UM","2018/10/25 13:59:28","新北市板橋區龍興街38號","121.443128333333","25.0006116666667","6500100","板橋區"
"220023","303-R5","2018/10/25 13:59:30","新北市板橋區南雅西路二段206號","121.451875","25.0149666666667","6500100","板橋區"
"220041","307-R5","2018/10/25 13:59:14","新北市板橋區文化路一段104巷1弄11號","121.465415","25.0181166666667","6500100","板橋區"
"220047","317-R6","2018/10/25 13:59:17","新北市板橋區民有街45-1號","121.465745","25.0258516666667","6500100","板橋區"
"220012","486-VK","2018/10/25 13:59:15","新北市板橋區漢生東路168號","121.466986666667","25.0146716666667","6500100","板橋區"
"220038","487-VK","2018/10/25 13:59:23","新北市板橋區文化路二段315號","121.472035","25.0297616666667","6500100","板橋區"
"220037","491-VK","2018/10/25 13:59:23","新北市板橋區民生路二段208號","121.469553333333","25.02118","6500100","板橋區"
"220052","561-BX","2018/10/25 13:59:27","新北市板橋區民生路二段121號","121.470661666667","25.0182583333333","6500100","板橋區"
"220011","609-BX","2018/10/25 13:59:26","新北市板橋區中山路二段88號","121.475126666667","25.0162816666667","6500100","板橋區"
"220040","637-BX","2018/10/25 13:59:28","新北市板橋區大同街55號","121.478648333333","25.027585","6500100","板橋區"
"220005","686-BX","2018/10/25 13:59:11","新北市板橋區重慶路141號","121.462288333333","25.0043666666667","6500100","板橋區"
"220025","687-BX","2018/10/25 13:59:26","新北市板橋區龍興街71巷52號","121.441655","25.0028966666667","6500100","板橋區"
"220042","689-BX","2018/10/25 13:59:34","新北市板橋區民生路三段136號","121.466246666667","25.0268583333333","6500100","板橋區"
"220002","741-BX","2018/10/25 13:59:14","新北市板橋區實踐路92號","121.46405","25.0049683333333","6500100","板橋區"
"220051","KEA-2699","2018/10/25 13:59:25","新北市板橋區田單街2巷32號","121.48145","25.027605","6500100","板橋區"
"220003","827-TW","2018/10/25 13:59:16","新北市板橋區區運路67號","121.466898333333","25.0108266666667","6500100","板橋區"
"220014","829-TW","2018/10/25 13:59:13","新北市板橋區三民路二段正隆巷43號","121.476846666667","25.0135983333333","6500100","板橋區"
"220045","831-TW","2018/10/25 13:59:19","新北市板橋區莒光路93號","121.472271666667","25.0241633333333","6500100","板橋區"
"220022","895-R6","2018/10/25 13:59:28","新北市板橋區南雅南路一段121號","121.455265","25.0046933333333","6500100","板橋區"
"220021","985-R7","2018/10/25 13:59:27","新北市板橋區北門街53號","121.455898333333","25.0116266666667","6500100","板橋區"
"220046","AAC-210","2018/10/25 13:59:11","新北市板橋區國光路197巷2號","121.46189","25.0188466666667","6500100","板橋區"
"220018","AAC-253","2018/10/25 13:59:27","新北市板橋區四川路一段373號","121.458281666667","24.999525","6500100","板橋區"
"235032","KEA-2873","2018/10/25 13:59:16","新北市中和區圓通路183號","121.497486666667","24.9947733333333","6500300","中和區"
"235025","KEA-2875","2018/10/25 13:59:03","新北市中和區中山路三段63巷13弄23號","121.476961666667","25.0036566666667","6500300","中和區"
