"lineid","car","time","location","longitude","latitude","cityid","cityname"
"234030","746-BX","2018/10/25 15:53:34","新北市永和區福和路1號","121.526275","25.0096933333333","6500400","永和區"
"234040","862-TW","2018/10/25 16:09:35","新北市永和區福和路1號","121.526358333333","25.0097366666667","6500400","永和區"
"248007","095-VK","2018/10/25 16:09:26","新北市八里區中山路三段409號","121.368321666667","25.1347883333333","6501500","五股區"
"234067","AAC-212","2018/10/25 16:09:21","新北市永和區福和路1號","121.526343333333","25.0096733333333","6500400","永和區"
"244003","248-BX","2018/10/25 16:06:34","新北市林口區粉寮路二段88巷100-10號","121.40898","25.0902916666667","6501700","林口區"
"243014","680-BX","2018/10/25 15:41:24","新北市泰山區黎明路31號","121.421621666667","25.0607616666667","6501600","泰山區"
"231046","107-UY","2018/10/25 16:09:28","新北市新店區華潭街20號","121.529213333333","24.9525366666667","6500600","新店區"
"231011","187-VK","2018/10/25 16:09:35","新北市新店區安德街60巷5號","121.509846666667","24.9628166666667","6500600","新店區"
"231026","256-BX","2018/10/25 16:09:12","新北市新店區民生路17號","121.532891666667","24.9866183333333","6500600","新店區"
"231018","278-BY","2018/10/25 16:09:23","新北市新店區中正路694巷15號","121.535383333333","24.990855","6500600","新店區"
"231035","719-UM","2018/10/25 16:08:52","新北市新店區薏仁坑路2-2號","121.500956666667","24.9583916666667","6500600","新店區"
"241011","013-R5","2018/10/25 16:09:21","新北市三重區正義北路374號","121.493526666667","25.0715416666667","6500200","三重區"
"241008","059-VK","2018/10/25 16:09:20","新北市三重區忠孝路二段102號","121.483408333333","25.0692016666667","6500200","三重區"
"241022","060-VK","2018/10/25 16:09:17","新北市三重區新北大道一段7號","121.489518333333","25.0611983333333","6500200","三重區"
"241031","061-VK","2018/10/25 16:09:22","新北市三重區重新路四段121號","121.484666666667","25.0521183333333","6500200","三重區"
"241015","062-VK","2018/10/25 16:09:30","新北市三重區環河南路118號","121.498188333333","25.0555466666667","6500200","三重區"
"241017","063-VK","2018/10/25 16:09:24","新北市三重區大仁街48巷18號","121.491053333333","25.0643116666667","6500200","三重區"
"241024","065-VK","2018/10/25 16:09:25","新北市三重區中正北路145巷7弄14號","121.485163333333","25.0676283333333","6500200","三重區"
"241026","066-VK","2018/10/25 16:09:31","新北市三重區正義南路38號","121.498186666667","25.06098","6500200","三重區"
"241002","090-VK","2018/10/25 16:09:14","新北市三重區仁義街91號","121.499753333333","25.0795133333333","6500200","三重區"
"241003","091-VK","2018/10/25 16:09:15","新北市三重區仁義街220巷14號","121.494951666667","25.0838183333333","6500200","三重區"
"241005","262-UM","2018/10/25 16:09:24","新北市三重區溪尾街305號","121.487506666667","25.0838566666667","6500200","三重區"
"241009","265-UM","2018/10/25 16:09:26","新北市三重區力行路二段138-1號","121.482411666667","25.075655","6500200","三重區"
"241016","266-UM","2018/10/25 16:09:29","新北市三重區重新路三段145號","121.490596666667","25.0592316666667","6500200","三重區"
"241018","268-UM","2018/10/25 16:09:34","新北市三重區明志街44號","121.491185","25.0637416666667","6500200","三重區"
"241032","269-UM","2018/10/25 16:09:17","新北市三重區三陽路100巷3弄13號","121.482988333333","25.0579833333333","6500200","三重區"
"241013","270-UM","2018/10/25 16:09:26","新北市三重區安樂街12號","121.496876666667","25.069755","6500200","三重區"
"241025","271-UM","2018/10/25 16:09:28","新北市三重區忠孝路三段40巷6弄7號","121.481981666667","25.06674","6500200","三重區"
"241007","398-BY","2018/10/25 16:09:24","新北市三重區三和路四段155巷7號","121.484366666667","25.0785816666667","6500200","三重區"
"241020","478-VK","2018/10/25 16:09:28","新北市三重區車路頭街29號","121.483838333333","25.0707316666667","6500200","三重區"
"241030","480-VK","2018/10/25 16:09:32","新北市三重區重新路四段121號","121.485063333333","25.05241","6500200","三重區"
"241014","543-UM","2018/10/25 16:09:29","新北市三重區正義南路183號","121.499123333333","25.0563316666667","6500200","三重區"
"241023","545-UM","2018/10/25 16:09:18","新北市三重區力行路一段58巷1號","121.484385","25.0689433333333","6500200","三重區"
"241001","547-UM","2018/10/25 16:09:15","新北市三重區自強路四段53號","121.490028333333","25.0781133333333","6500200","三重區"
"241019","KEA-2593","2018/10/25 16:09:34","新北市三重區中正北路193巷39號","121.47578","25.07094","6500200","三重區"
"241006","AAD-863","2018/10/25 16:09:22","新北市三重區車路頭街135-1號","121.48431","25.0761483333333","6500200","三重區"
"241004","743-BX","2018/10/25 16:05:50","新北市三重區河邊北街56號","121.504661666667","25.0677016666667","6500200","三重區"
"241028","887-TS","2018/10/25 16:09:23","新北市三重區正義南路111號","121.498258333333","25.0585133333333","6500200","三重區"
"241012","941-UM","2018/10/25 16:09:19","新北市三重區自強路一段68號","121.496965","25.0664616666667","6500200","三重區"
"241029","942-UM","2018/10/25 16:09:22","新北市三重區同安街28巷1弄1號","121.4961","25.05668","6500200","三重區"
"241033","AAC-255","2018/10/25 16:09:19","新北市三重區五谷王南街50-1號","121.473755","25.0445816666667","6500200","三重區"
"235026","800-TS","2018/10/25 16:09:19","新北市中和區永和路191巷10號","121.491248333333","25.00685","6500300","中和區"
"224007","275-VK","2018/10/25 16:09:25","新北市瑞芳區粗坑口路5號","121.761821666667","25.0976483333333","6501200","瑞芳區"
"227004","642-TC","2018/10/25 16:09:18","新北市雙溪區上林里內平林47號","121.833328333333","25.0304233333333","6502500","雙溪區"
"227010","400-TW","2018/10/25 16:09:22","新北市雙溪區三港里雙澳路73號","121.882401666667","25.0545833333333","6502500","雙溪區"
"251008","181-VK","2018/10/25 16:09:31","新北市淡水區中正路一段22巷6號","121.427701666667","25.1757483333333","6501000","淡水區"
"236057","912-UM","2018/10/25 16:09:28","新北市土城區中央路二段193號","121.442038333333","24.97525","6501300","土城區"
"236045","913-UM","2018/10/25 16:09:19","新北市土城區永平街72號","121.42734","24.9591433333333","6501300","土城區"
"242001","233-RS","2018/10/25 15:54:46","新北市新莊區環河路636-7號","121.437621666667","25.0116716666667","6500500","新莊區"
"238015","755-BX","2018/10/25 16:09:30","新北市樹林區大安路323巷10弄20號","121.417043333333","24.990965","6500700","樹林區"
"238010","601-UM","2018/10/25 16:09:26","新北市樹林區三福街67巷3號","121.407873333333","25.01593","6500700","樹林區"
"238006","599-UM","2018/10/25 16:09:32","新北市樹林區中華路190-16號","121.411786666667","24.980605","6500700","樹林區"
"238011","5061-A6","2018/10/25 16:09:28","新北市樹林區育德街78-1號","121.38735","24.968135","6500700","樹林區"
"238012","303-VK","2018/10/25 16:09:15","新北市樹林區中正路22-1號","121.427856666667","24.999415","6500700","樹林區"
"238004","283-BY","2018/10/25 16:09:35","新北市樹林區中正路433-2號","121.414795","25.0084316666667","6500700","樹林區"
"238001","282-BY","2018/10/25 16:09:32","新北市樹林區中正路23號","121.427486666667","24.9991983333333","6500700","樹林區"
"238007","268-VK","2018/10/25 16:09:16","新北市樹林區三龍街142號","121.416816666667","25.0183166666667","6500700","樹林區"
"238013","172-UY","2018/10/25 16:09:19","新北市樹林區佳園路一段75巷14弄10號","121.395213333333","24.9698983333333","6500700","樹林區"
"238003","169-UY","2018/10/25 16:09:25","新北市樹林區復興路335巷9號","121.418551666667","24.9875833333333","6500700","樹林區"
"220031","286-VK","2018/10/25 16:09:23","新北市八里區中山路三段409號","121.368465","25.1349533333333","6500100","板橋區"
