"lineid","car","time","location","longitude","latitude","cityid","cityname"
"234030","746-BX","2018/10/25 15:53:34","新北市永和區福和路1號","121.526275","25.0096933333333","6500400","永和區"
"234040","862-TW","2018/10/25 16:19:15","新北市永和區福和路1號","121.526358333333","25.0097","6500400","永和區"
"248007","095-VK","2018/10/25 16:19:06","新北市八里區下罟子23號","121.376943333333","25.1387233333333","6501500","五股區"
"234067","AAC-212","2018/10/25 16:19:21","新北市永和區福和路1號","121.526388333333","25.00968","6500400","永和區"
"244003","248-BX","2018/10/25 16:06:34","新北市林口區粉寮路二段88巷100-10號","121.40898","25.0902916666667","6501700","林口區"
"231046","107-UY","2018/10/25 16:19:28","新北市新店區灣潭路3-3號","121.538206666667","24.9507966666667","6500600","新店區"
"231018","278-BY","2018/10/25 16:19:23","台北市文山區景文街146巷32號","121.532326666667","24.9911666666667","6500600","新店區"
"241011","013-R5","2018/10/25 16:19:21","新北市三重區龍濱路190號","121.501111666667","25.0732833333333","6500200","三重區"
"241008","059-VK","2018/10/25 16:19:19","新北市三重區力行路二段136巷45弄12號","121.479141666667","25.0753666666667","6500200","三重區"
"241022","060-VK","2018/10/25 16:19:17","新北市三重區過圳街31巷2號","121.489246666667","25.060615","6500200","三重區"
"241031","061-VK","2018/10/25 16:19:22","新北市三重區捷運路11-2號","121.486238333333","25.0564216666667","6500200","三重區"
"241015","062-VK","2018/10/25 16:19:30","新北市三重區福德北路79號","121.50191","25.06586","6500200","三重區"
"241017","063-VK","2018/10/25 16:19:24","新北市三重區大同北路91號","121.494753333333","25.0636533333333","6500200","三重區"
"241024","065-VK","2018/10/25 16:19:25","新北市三重區中正北路145巷1弄12號","121.483585","25.0671983333333","6500200","三重區"
"241026","066-VK","2018/10/25 16:19:31","新北市三重區正義南路103號","121.498206666667","25.0591433333333","6500200","三重區"
"241002","090-VK","2018/10/25 16:19:34","新北市三重區仁義街91號","121.499753333333","25.0794383333333","6500200","三重區"
"241003","091-VK","2018/10/25 16:19:15","新北市三重區五華街59號","121.4929","25.0825466666667","6500200","三重區"
"241005","262-UM","2018/10/25 16:19:24","新北市三重區溪尾街305號","121.487601666667","25.083835","6500200","三重區"
"241009","265-UM","2018/10/25 16:19:26","新北市三重區溪尾街198號","121.48813","25.0809283333333","6500200","三重區"
"241016","266-UM","2018/10/25 16:19:29","新北市三重區大仁街39號","121.493061666667","25.0653483333333","6500200","三重區"
"241018","268-UM","2018/10/25 16:19:14","新北市三重區重陽路三段39號","121.489463333333","25.0669883333333","6500200","三重區"
"241032","269-UM","2018/10/25 16:19:17","新北市三重區三陽路100巷3弄13號","121.483013333333","25.0580583333333","6500200","三重區"
"241013","270-UM","2018/10/25 16:19:26","新北市三重區龍門路66號","121.496723333333","25.072765","6500200","三重區"
"241025","271-UM","2018/10/25 16:19:16","新北市三重區中正北路560巷100弄2號","121.47261","25.068205","6500200","三重區"
"241007","398-BY","2018/10/25 16:19:24","新北市三重區三和路四段163巷64號","121.486615","25.07962","6500200","三重區"
"241020","478-VK","2018/10/25 16:19:28","新北市三重區後竹圍街247號","121.483913333333","25.0712883333333","6500200","三重區"
"241030","480-VK","2018/10/25 16:19:32","新北市三重區重新路四段121號","121.485065","25.052405","6500200","三重區"
"241014","543-UM","2018/10/25 16:19:29","新北市三重區河邊北街96-1號","121.504065","25.0699233333333","6500200","三重區"
"241023","545-UM","2018/10/25 16:19:18","新北市三重區中正北路145巷4弄18號","121.482731666667","25.0680883333333","6500200","三重區"
"241001","547-UM","2018/10/25 16:19:15","新北市三重區自強路四段107-1號","121.491795","25.0799833333333","6500200","三重區"
"241019","KEA-2593","2018/10/25 16:19:34","新北市三重區自強路二段76號","121.488156666667","25.070225","6500200","三重區"
"241006","AAD-863","2018/10/25 16:19:22","新北市三重區永福街46巷41弄13號","121.481813333333","25.0771066666667","6500200","三重區"
"241004","743-BX","2018/10/25 16:19:30","新北市三重區自強路五段41-1號","121.493993333333","25.081345","6500200","三重區"
"241028","887-TS","2018/10/25 16:19:23","新北市三重區正義南路181巷1號","121.498946666667","25.05707","6500200","三重區"
"241012","941-UM","2018/10/25 16:19:19","新北市三重區龍門路292號","121.50224","25.07428","6500200","三重區"
"241029","942-UM","2018/10/25 16:19:22","新北市三重區泉州街80-1號","121.49473","25.0545133333333","6500200","三重區"
"241033","AAC-255","2018/10/25 16:19:33","新北市三重區五谷王南街11巷15弄1號","121.47279","25.0446266666667","6500200","三重區"
"235026","800-TS","2018/10/25 16:19:19","新北市中和區橋和路128號","121.493321666667","25.0061616666667","6500300","中和區"
"224007","275-VK","2018/10/25 16:19:25","新北市瑞芳區大埔路110-2號","121.76228","25.1017783333333","6501200","瑞芳區"
"224005","271-BY","2018/10/25 16:19:22","新北市瑞芳區中正路2號","121.809338333333","25.10711","6501200","瑞芳區"
"227004","642-TC","2018/10/25 16:19:18","新北市雙溪區上林里內平林80號","121.828271666667","25.02792","6502500","雙溪區"
"227010","400-TW","2018/10/25 16:19:22","新北市雙溪區三港里雙澳路80號","121.883811666667","25.05388","6502500","雙溪區"
"251008","181-VK","2018/10/25 16:19:31","新北市淡水區中正東路一段135-5號","121.456726666667","25.1588016666667","6501000","淡水區"
"236057","912-UM","2018/10/25 16:19:28","新北市土城區中央路三段62號","121.436705","24.967385","6501300","土城區"
"236045","913-UM","2018/10/25 16:19:19","新北市土城區永平街51號","121.427718333333","24.95914","6501300","土城區"
"242001","233-RS","2018/10/25 16:18:05","新北市新莊區環河路636-7號","121.43759","25.01163","6500500","新莊區"
"238015","755-BX","2018/10/25 16:19:30","新北市樹林區八德街598巷18號","121.397846666667","24.971385","6500700","樹林區"
"238006","599-UM","2018/10/25 16:19:32","新北市樹林區東榮街147巷27弄1號","121.41469","24.9807416666667","6500700","樹林區"
"238012","303-VK","2018/10/25 16:19:15","新北市樹林區中正路22-1號","121.427868333333","24.9994383333333","6500700","樹林區"
"238004","283-BY","2018/10/25 16:19:15","新北市樹林區中正路433-2號","121.414751666667","25.00842","6500700","樹林區"
"238001","282-BY","2018/10/25 16:19:32","新北市樹林區中正路22-1號","121.427773333333","24.999445","6500700","樹林區"
"238007","268-VK","2018/10/25 16:19:36","新北市樹林區三俊街65巷19號","121.413361666667","25.0167433333333","6500700","樹林區"
"238013","172-UY","2018/10/25 16:19:34","新北市樹林區佳園路一段39-1號","121.393398333333","24.9708716666667","6500700","樹林區"
"220031","286-VK","2018/10/25 16:19:23","新北市八里區中山路三段371號","121.373073333333","25.1378","6500100","板橋區"
