"lineid","car","time","location","longitude","latitude","cityid","cityname"
"234030","746-BX","2018/10/25 16:26:21","新北市永和區福和路1號","121.526371666667","25.009585","6500400","永和區"
"249005","172-UM","2018/10/25 16:39:24","新北市八里區博物館路23號","121.414623333333","25.163165","6502300","八里區"
"234067","AAC-212","2018/10/25 16:24:03","新北市永和區福和路1號","121.526375","25.0097116666667","6500400","永和區"
"231046","107-UY","2018/10/25 16:39:28","新北市新店區灣潭路15-2號","121.542245","24.94334","6500600","新店區"
"241011","013-R5","2018/10/25 16:39:21","新北市三重區秀江街231號","121.497018333333","25.07173","6500200","三重區"
"241008","059-VK","2018/10/25 16:39:20","新北市三重區永安北路一段27巷13號","121.477003333333","25.0755366666667","6500200","三重區"
"241022","060-VK","2018/10/25 16:39:17","新北市三重區三民街34號","121.485761666667","25.061865","6500200","三重區"
"241031","061-VK","2018/10/25 16:39:22","新北市三重區重新路四段41巷16號","121.487481666667","25.0580383333333","6500200","三重區"
"241015","062-VK","2018/10/25 16:39:30","新北市三重區文化北路37號","121.49898","25.0650033333333","6500200","三重區"
"241017","063-VK","2018/10/25 16:39:24","新北市三重區中正北路25巷2號","121.49326","25.0627033333333","6500200","三重區"
"241024","065-VK","2018/10/25 16:39:25","新北市三重區中正北路315巷6弄12號","121.47559","25.0720666666667","6500200","三重區"
"241026","066-VK","2018/10/25 16:39:31","新北市三重區和平街22號","121.500981666667","25.0625766666667","6500200","三重區"
"241002","090-VK","2018/10/25 16:39:34","新北市三重區仁義街239號","121.49638","25.0826633333333","6500200","三重區"
"241003","091-VK","2018/10/25 16:39:15","新北市三重區五華街65號","121.492786666667","25.0827166666667","6500200","三重區"
"251014","742-BX","2018/10/25 16:39:20","新北市淡水區中山北路三段79號","121.444056666667","25.1923633333333","6501000","淡水區"
"241005","262-UM","2018/10/25 16:39:24","新北市三重區仁華街118巷17號","121.486075","25.0833583333333","6500200","三重區"
"241009","265-UM","2018/10/25 16:39:26","新北市三重區三和路四段203巷54號","121.483248333333","25.0797783333333","6500200","三重區"
"241016","266-UM","2018/10/25 16:39:29","新北市三重區大智街24號","121.494736666667","25.064865","6500200","三重區"
"241018","268-UM","2018/10/25 16:39:34","新北市三重區正義北路338巷50號","121.493108333333","25.0703483333333","6500200","三重區"
"241032","269-UM","2018/10/25 16:39:17","新北市三重區新北大道一段168號","121.483593333333","25.061415","6500200","三重區"
"241013","270-UM","2018/10/25 16:39:26","新北市三重區仁愛街75號","121.496245","25.0729933333333","6500200","三重區"
"241025","271-UM","2018/10/25 16:39:16","新北市三重區中正北路426號","121.474615","25.07088","6500200","三重區"
"241007","398-BY","2018/10/25 16:39:24","新北市三重區三和路四段167巷47號","121.485246666667","25.079455","6500200","三重區"
"241020","478-VK","2018/10/25 16:39:27","新北市三重區忠孝路二段35號","121.48592","25.07107","6500200","三重區"
"241030","480-VK","2018/10/25 16:39:32","新北市三重區成功路42巷42-1號","121.488465","25.0493766666667","6500200","三重區"
"241014","543-UM","2018/10/25 16:39:29","新北市三重區龍濱路2-3號","121.503085","25.067015","6500200","三重區"
"241023","545-UM","2018/10/25 16:39:18","新北市三重區忠孝路三段50巷45號","121.482916666667","25.0643183333333","6500200","三重區"
"241001","547-UM","2018/10/25 16:39:35","新北市三重區仁政街89號","121.492576666667","25.0778116666667","6500200","三重區"
"241019","KEA-2593","2018/10/25 16:39:15","新北市三重區力行路一段59號","121.487491666667","25.0673633333333","6500200","三重區"
"241006","AAD-863","2018/10/25 16:39:22","新北市三重區力行路二段136巷1弄15號","121.482175","25.07658","6500200","三重區"
"241004","743-BX","2018/10/25 16:39:30","新北市三重區五福街20號","121.492741666667","25.0813283333333","6500200","三重區"
"241028","887-TS","2018/10/25 16:39:23","新北市三重區重新路三段90號","121.493065","25.0608483333333","6500200","三重區"
"241012","941-UM","2018/10/25 16:39:18","新北市三重區河邊北街355號","121.50204","25.075755","6500200","三重區"
"241029","942-UM","2018/10/25 16:39:22","新北市三重區集美街112巷15號","121.489503333333","25.0541366666667","6500200","三重區"
"241033","AAC-255","2018/10/25 16:39:19","新北市三重區光復路一段138-1號","121.472116666667","25.0527","6500200","三重區"
"235026","800-TS","2018/10/25 16:39:19","新北市中和區連城路222巷8弄2號","121.490706666667","24.998065","6500300","中和區"
"247008","336-TH","2018/10/25 16:39:30","新北市五股區中興路三段5號","121.449196666667","25.0796766666667","6501400","蘆洲區"
"247010","056-VK","2018/10/25 16:39:22","新北市五股區中興路三段2巷10號","121.448491666667","25.082805","6501400","蘆洲區"
"224007","275-VK","2018/10/25 16:39:25","新北市瑞芳區瑞竹路159號","121.760331666667","25.10429","6501200","瑞芳區"
"224009","273-VK","2018/10/25 16:39:15","新北市瑞芳區大寮路356-1號","121.784621666667","25.103405","6501200","瑞芳區"
"224005","271-BY","2018/10/25 16:39:22","新北市瑞芳區籠山路214-1號","121.851193333333","25.1255866666667","6501200","瑞芳區"
"227004","642-TC","2018/10/25 16:39:21","新北市雙溪區外柑里外柑腳51號","121.808278333333","25.017935","6502500","雙溪區"
"227010","400-TW","2018/10/25 16:39:22","新北市雙溪區牡丹里中正路89號","121.862135","25.0468466666667","6502500","雙溪區"
"251013","KEA-2871","2018/10/25 16:39:20","新北市淡水區楓樹湖12-6號","121.498045","25.1883433333333","6501000","淡水區"
"251016","179-VK","2018/10/25 16:39:16","新北市淡水區中山北路一段261號","121.444331666667","25.1809316666667","6501000","淡水區"
"251008","181-VK","2018/10/25 16:39:31","新北市淡水區民生路169號","121.470431666667","25.1426783333333","6501000","淡水區"
"252002","178-VK","2018/10/25 16:39:33","新北市三芝區芝柏五街2號","121.511063333333","25.2567766666667","6502100","三芝區"
"236057","912-UM","2018/10/25 16:39:28","新北市土城區永平街50-1號","121.426875","24.9590433333333","6501300","土城區"
"242001","233-RS","2018/10/25 16:18:05","新北市新莊區環河路636-7號","121.43759","25.01163","6500500","新莊區"
"238012","303-VK","2018/10/25 16:39:35","新北市樹林區中正路22-1號","121.427931666667","24.99946","6500700","樹林區"
"238004","283-BY","2018/10/25 16:39:15","新北市樹林區中正路433-2號","121.414685","25.008425","6500700","樹林區"
"238001","282-BY","2018/10/25 16:39:32","新北市樹林區中正路22-1號","121.42771","24.9994583333333","6500700","樹林區"
"239007","AAC-297","2018/10/25 16:39:28","新北市鶯歌區二甲路13-16號","121.345143333333","24.93498","6500800","鶯歌區"
"220031","286-VK","2018/10/25 16:39:23","新北市五股區新五路二段119-10號","121.438313333333","25.07866","6500100","板橋區"
