"lineid","car","time","location","longitude","latitude","cityid","cityname"
"249005","172-UM","2018/10/25 16:59:03","新北市八里區渡船頭3-7號","121.434413333333","25.1533266666667","6502300","八里區"
"249001","173-UM","2018/10/25 16:58:59","新北市八里區中山路三段106號","121.391471666667","25.14252","6502300","八里區"
"249004","303-UY","2018/10/25 16:58:52","新北市八里區仁愛路10號","121.413278333333","25.1623483333333","6502300","八里區"
"249002","305-UY","2018/10/25 16:57:18","新北市八里區牛寮埔19-1號","121.431683333333","25.1428533333333","6502300","八里區"
"244023","069-UM","2018/10/25 16:59:05","新北市林口區粉寮路二段46-1號","121.403558333333","25.08706","6501700","林口區"
"244007","080-UY","2018/10/25 16:58:47","新北市林口區竹林路546號","121.387125","25.0849566666667","6501700","林口區"
"244019","403-UM","2018/10/25 16:58:59","新北市林口區中山路135號","121.388503333333","25.0790016666667","6501700","林口區"
"244013","KEA-2802","2018/10/25 16:58:53","新北市林口區粉寮路二段88巷100-12號","121.409585","25.0902183333333","6501700","林口區"
"244017","485-VK","2018/10/25 16:59:02","新北市林口區粉寮路二段88巷100-12號","121.409753333333","25.0901866666667","6501700","林口區"
"244025","837-TS","2018/10/25 16:59:03","新北市林口區粉寮路二段88巷100-12號","121.409515","25.0902333333333","6501700","林口區"
"231046","107-UY","2018/10/25 16:58:48","新北市新店區新潭路一段22巷2號","121.523038333333","24.9429883333333","6500600","新店區"
"241011","013-R5","2018/10/25 16:59:01","新北市三重區仁愛街55巷39號","121.499085","25.0728083333333","6500200","三重區"
"241008","059-VK","2018/10/25 16:58:59","新北市三重區永福街179巷42號","121.47738","25.0747166666667","6500200","三重區"
"241022","060-VK","2018/10/25 16:58:57","新北市三重區中華路79號","121.483641666667","25.06266","6500200","三重區"
"241031","061-VK","2018/10/25 16:59:02","新北市三重區重新路三段115巷10號","121.490421666667","25.060275","6500200","三重區"
"241015","062-VK","2018/10/25 16:58:50","新北市三重區三和路二段2號","121.501496666667","25.0663733333333","6500200","三重區"
"241017","063-VK","2018/10/25 16:59:04","新北市三重區國隆路14號","121.492975","25.0637883333333","6500200","三重區"
"241024","065-VK","2018/10/25 16:58:48","新北市三重區力行路二段7號","121.48204","25.0720933333333","6500200","三重區"
"241026","066-VK","2018/10/25 16:58:51","新北市三重區光興街1號","121.500293333333","25.06025","6500200","三重區"
"241002","090-VK","2018/10/25 16:54:34","新北市三重區仁義街143巷114號","121.499136666667","25.08179","6500200","三重區"
"241003","091-VK","2018/10/25 16:58:55","新北市三重區五華街141巷60號","121.493461666667","25.0867166666667","6500200","三重區"
"251014","742-BX","2018/10/25 16:58:59","新北市淡水區淡金路四段476號","121.452418333333","25.2239","6501000","淡水區"
"241005","262-UM","2018/10/25 16:59:04","新北市三重區仁華街82號","121.48518","25.0831683333333","6500200","三重區"
"241009","265-UM","2018/10/25 16:58:46","新北市三重區溪尾街218巷41號","121.486308333333","25.0809533333333","6500200","三重區"
"241016","266-UM","2018/10/25 16:58:49","新北市三重區大同北路103號","121.494241666667","25.0641316666667","6500200","三重區"
"241018","268-UM","2018/10/25 16:58:54","新北市三重區民生東街6號","121.492591666667","25.068495","6500200","三重區"
"241032","269-UM","2018/10/25 16:58:57","新北市三重區三民街5號","121.485735","25.0606216666667","6500200","三重區"
"241013","270-UM","2018/10/25 16:58:46","新北市三重區仁和街85號","121.497738333333","25.0740883333333","6500200","三重區"
"241025","271-UM","2018/10/25 16:58:56","新北市三重區中正北路510號","121.4726","25.0715666666667","6500200","三重區"
"241007","398-BY","2018/10/25 16:58:44","新北市三重區三和路四段181巷246號","121.487866666667","25.08056","6500200","三重區"
"241024","KEA-2210","2018/10/25 16:58:50","新北市三重區重新路四段121號","121.484641666667","25.0520333333333","6500200","三重區"
"241020","478-VK","2018/10/25 16:58:47","新北市三重區後竹圍街175巷20號","121.48558","25.0726966666667","6500200","三重區"
"241030","480-VK","2018/10/25 16:58:52","新北市三重區昌隆街62號","121.49117","25.0511316666667","6500200","三重區"
"241014","543-UM","2018/10/25 16:58:49","新北市三重區介壽路39巷100號","121.500826666667","25.0705833333333","6500200","三重區"
"241023","545-UM","2018/10/25 16:58:58","新北市三重區新北大道一段252號","121.48046","25.0616233333333","6500200","三重區"
"241001","547-UM","2018/10/25 16:58:55","新北市三重區仁愛街172巷4號","121.493875","25.0765683333333","6500200","三重區"
"241019","KEA-2593","2018/10/25 16:58:54","新北市三重區自強路二段74巷19號","121.487978333333","25.069905","6500200","三重區"
"241006","AAD-863","2018/10/25 16:59:02","新北市三重區車路頭街116號","121.484135","25.07508","6500200","三重區"
"241004","743-BX","2018/10/25 16:58:50","新北市三重區五華街92巷13號","121.491928333333","25.0818183333333","6500200","三重區"
"241028","887-TS","2018/10/25 16:59:03","新北市三重區中正南路48號","121.493931666667","25.0599416666667","6500200","三重區"
"241012","941-UM","2018/10/25 16:58:58","新北市三重區龍門路274巷19號","121.501603333333","25.0747066666667","6500200","三重區"
"241029","942-UM","2018/10/25 16:59:02","新北市三重區中正南路181號","121.493403333333","25.0552616666667","6500200","三重區"
"241033","AAC-255","2018/10/25 16:58:59","新北市三重區中興北街271號","121.469073333333","25.06062","6500200","三重區"
"235046","733-UM","2018/10/25 16:48:30","新北市中和區員山路36巷13號","121.484158333333","24.9908266666667","6500300","中和區"
"247016","546-UM","2018/10/25 16:59:00","新北市蘆洲區正和街28號","121.469875","25.0821866666667","6501400","蘆洲區"
"247024","500-BY","2018/10/25 16:59:07","新北市蘆洲區長興路202號","121.460558333333","25.0875066666667","6501400","蘆洲區"
"247014","339-TH","2018/10/25 16:59:06","新北市蘆洲區得勝街67-1號","121.47394","25.0837433333333","6501400","蘆洲區"
"247006","337-TH","2018/10/25 16:58:59","新北市蘆洲區永安南路二段232號","121.460638333333","25.0795466666667","6501400","蘆洲區"
"247008","336-TH","2018/10/25 16:58:50","新北市蘆洲區信義路58號","121.475625","25.079625","6501400","蘆洲區"
"247020","057-VK","2018/10/25 16:58:46","新北市蘆洲區民族路422巷35-1號","121.473498333333","25.093655","6501400","蘆洲區"
"247010","056-VK","2018/10/25 16:59:02","新北市蘆洲區信義路166號","121.479395","25.0837433333333","6501400","蘆洲區"
"247018","007-UY","2018/10/25 16:58:57","新北市蘆洲區民族路227巷12-1號","121.477148333333","25.0894816666667","6501400","蘆洲區"
"247004","002-UY","2018/10/25 16:58:54","新北市蘆洲區中原路21巷1號","121.460778333333","25.08255","6501400","蘆洲區"
"247022","001-UY","2018/10/25 16:58:52","新北市蘆洲區三民路128巷166-1號","121.468428333333","25.092495","6501400","蘆洲區"
"228003","097-TW","2018/10/25 16:58:55","新北市貢寮區福隆里虎子山街21號","121.939311666667","25.0183166666667","6502600","貢寮區"
"228001","212-TW","2018/10/25 16:58:55","新北市貢寮區貢寮里朝陽街1-2號","121.912186666667","25.0212816666667","6502600","貢寮區"
"228002","585-TW","2018/10/25 16:58:55","新北市貢寮區貢寮里朝陽街142號","121.904751666667","25.02355","6502600","貢寮區"
"224006","676-BX","2018/10/25 16:59:06","新北市瑞芳區大寮路2號","121.785438333333","25.1005666666667","6501200","瑞芳區"
"224007","275-VK","2018/10/25 16:59:05","新北市瑞芳區大埔路17-1號","121.766366666667","25.1032916666667","6501200","瑞芳區"
"224009","273-VK","2018/10/25 16:58:55","新北市瑞芳區明燈路一段1號","121.830393333333","25.1120533333333","6501200","瑞芳區"
"224008","272-VK","2018/10/25 16:58:51","新北市瑞芳區明燈路一段229號","121.817975","25.1081466666667","6501200","瑞芳區"
"224005","271-BY","2018/10/25 16:59:02","新北市瑞芳區明里路4號","121.868743333333","25.12092","6501200","瑞芳區"
"227004","642-TC","2018/10/25 16:58:58","新北市雙溪區長源里柑腳41號","121.802975","25.0130233333333","6502500","雙溪區"
"227010","400-TW","2018/10/25 16:59:02","新北市雙溪區牡丹里聖南21號","121.8585","25.0533133333333","6502500","雙溪區"
"251009","008-UM","2018/10/25 16:59:02","新北市淡水區中正路二段31號","121.41941","25.1823","6501000","淡水區"
"251005","010-UM","2018/10/25 16:59:01","新北市淡水區中正路437號","121.43217","25.17474","6501000","淡水區"
"251013","KEA-2871","2018/10/25 16:59:00","新北市淡水區泉洲厝32號","121.489315","25.1925583333333","6501000","淡水區"
"251016","179-VK","2018/10/25 16:58:56","新北市淡水區瓦坑5-5號","121.478065","25.1818516666667","6501000","淡水區"
"251015","180-VK","2018/10/25 16:58:52","新北市淡水區忠愛街14號","121.458101666667","25.1747083333333","6501000","淡水區"
"251008","181-VK","2018/10/25 16:58:51","新北市淡水區樹梅坑9號","121.472751666667","25.14266","6501000","淡水區"
"251010","413-VK","2018/10/25 16:58:58","新北市淡水區中正路二段31號","121.419525","25.1814766666667","6501000","淡水區"
"251012","441-VK","2018/10/25 16:59:02","新北市淡水區新民街一段81-1號","121.430971666667","25.1839866666667","6501000","淡水區"
"251007","442-VK","2018/10/25 16:58:52","新北市淡水區中正東路40-2號","121.449786666667","25.1653816666667","6501000","淡水區"
"251004","443-VK","2018/10/25 16:56:07","新北市淡水區中正東路36-1號","121.448881666667","25.1657083333333","6501000","淡水區"
"251006","561-UM","2018/10/25 16:58:45","新北市淡水區中正路一段122號","121.422895","25.1785616666667","6501000","淡水區"
"251011","650-BX","2018/10/25 16:55:56","新北市淡水區中正東路36-1號","121.448831666667","25.1656466666667","6501000","淡水區"
"252002","178-VK","2018/10/25 16:58:53","新北市三芝區忠孝街168號","121.506218333333","25.2590283333333","6502100","三芝區"
"252001","292-VK","2018/10/25 16:58:57","新北市三芝區淡金路二段89號","121.50398","25.2607083333333","6502100","三芝區"
"242056","751-BX","2018/10/25 16:58:54","新北市新莊區新泰路255巷83號","121.442153333333","25.038915","6500500","新莊區"
"242029","612-BX","2018/10/25 16:58:47","新北市新莊區新泰路357巷3弄57號","121.442226666667","25.0392016666667","6500500","新莊區"
"242044","566-BX","2018/10/25 16:58:52","新北市新莊區三和路12-21號","121.442265","25.0385166666667","6500500","新莊區"
"242053","441-UM","2018/10/25 16:59:02","新北市新莊區中環路一段299號","121.442021666667","25.0323383333333","6500500","新莊區"
"242039","415-TV","2018/10/25 16:59:02","新北市新莊區新泰路255巷83號","121.442168333333","25.03878","6500500","新莊區"
"242009","413-TV","2018/10/25 16:58:52","新北市新莊區新泰路357巷3弄57號","121.441901666667","25.0394466666667","6500500","新莊區"
"242023","362-BY","2018/10/25 16:58:45","新北市新莊區新泰路357巷3弄57號","121.441995","25.0393616666667","6500500","新莊區"
"242019","175-VK","2018/10/25 16:58:54","新北市新莊區三和路12-21號","121.442045","25.0386733333333","6500500","新莊區"
"242007","176-VK","2018/10/25 16:59:06","新北市新莊區三和路12-21號","121.44193","25.0387933333333","6500500","新莊區"
"242017","346-TH","2018/10/25 16:58:51","新北市新莊區三和路12-21號","121.442223333333","25.03821","6500500","新莊區"
"242004","349-TH","2018/10/25 16:58:49","新北市新莊區三和路12-21號","121.442226666667","25.0382016666667","6500500","新莊區"
"238005","571-TV","2018/10/25 16:58:07","新北市樹林區育德街78-1號","121.388081666667","24.9681216666667","6500700","樹林區"
"238022","KEA-2213","2018/10/25 16:58:53","新北市樹林區八德街263-1號","121.419266666667","24.9738316666667","6500700","樹林區"
"238012","303-VK","2018/10/25 16:58:55","新北市樹林區中正路22-1號","121.42792","24.999395","6500700","樹林區"
"238004","283-BY","2018/10/25 16:58:55","新北市樹林區中正路433-2號","121.414918333333","25.00833","6500700","樹林區"
"238001","282-BY","2018/10/25 16:58:52","新北市樹林區中正路22-1號","121.42764","24.9994466666667","6500700","樹林區"
"239007","AAC-297","2018/10/25 16:58:48","新北市鶯歌區二甲路13-16號","121.34511","24.93495","6500800","鶯歌區"
"239001","417-VK","2018/10/25 16:58:47","新北市鶯歌區二甲路12-2號","121.345615","24.9351633333333","6500800","鶯歌區"
"242031","280-VK","2018/10/25 16:58:53","新北市新莊區三和路12-21號","121.441965","25.0383683333333","6500500","新莊區"
