"lineid","car","time","location","longitude","latitude","cityid","cityname"
"234001","149-BY","2018/10/25 17:01:01","新北市永和區福和路1號","121.526383333333","25.0099083333333","6500400","永和區"
"249005","172-UM","2018/10/25 17:09:03","新北市八里區華富山6-3號","121.420935","25.1424683333333","6502300","八里區"
"249001","173-UM","2018/10/25 17:08:59","新北市八里區荖阡坑路5-22號","121.399478333333","25.14518","6502300","八里區"
"249004","303-UY","2018/10/25 17:08:52","新北市八里區忠孝路181號","121.423035","25.160835","6502300","八里區"
"249002","305-UY","2018/10/25 17:08:58","新北市八里區米倉18號","121.440461666667","25.149875","6502300","八里區"
"244023","069-UM","2018/10/25 17:09:05","新北市林口區仁愛路一段647號","121.388468333333","25.076645","6501700","林口區"
"244007","080-UY","2018/10/25 17:09:07","新北市林口區菁埔37-11號","121.376403333333","25.097215","6501700","林口區"
"244019","403-UM","2018/10/25 17:08:59","新北市林口區四維路156號","121.380528333333","25.0755266666667","6501700","林口區"
"244013","KEA-2802","2018/10/25 17:08:53","新北市林口區粉寮路二段88巷100-12號","121.409575","25.0902033333333","6501700","林口區"
"244017","485-VK","2018/10/25 17:09:02","新北市林口區粉寮路二段88巷100-12號","121.409766666667","25.090205","6501700","林口區"
"244009","656-BX","2018/10/25 17:08:46","新北市林口區民享路419號","121.383985","25.0892066666667","6501700","林口區"
"244025","837-TS","2018/10/25 17:09:03","新北市林口區中山路23-1號","121.396015","25.07834","6501700","林口區"
"244021","838-TS","2018/10/25 17:08:48","新北市林口區宏昌街15號","121.40391","25.085105","6501700","林口區"
"243014","680-BX","2018/10/25 17:04:33","新北市泰山區犁頭窠3-1號","121.422041666667","25.0604916666667","6501600","泰山區"
"231046","107-UY","2018/10/25 17:08:48","新北市新店區直潭路100號","121.530845","24.9369483333333","6500600","新店區"
"241011","013-R5","2018/10/25 17:09:01","新北市三重區龍濱路190號","121.501088333333","25.073305","6500200","三重區"
"241008","059-VK","2018/10/25 17:09:00","新北市三重區力行路二段136巷19號","121.481555","25.07561","6500200","三重區"
"241022","060-VK","2018/10/25 17:08:57","新北市三重區重陽路二段20號","121.486628333333","25.0623966666667","6500200","三重區"
"241031","061-VK","2018/10/25 17:09:02","新北市三重區重陽路一段113巷2弄2號","121.487493333333","25.059905","6500200","三重區"
"241015","062-VK","2018/10/25 17:08:49","新北市三重區長生街14號","121.499256666667","25.0664166666667","6500200","三重區"
"241017","063-VK","2018/10/25 17:09:04","新北市三重區中正北路25巷25弄4號","121.493348333333","25.0626633333333","6500200","三重區"
"241024","065-VK","2018/10/25 17:09:05","新北市三重區大勇街82巷22號","121.479515","25.07204","6500200","三重區"
"241026","066-VK","2018/10/25 17:08:51","新北市三重區重新路一段51-2號","121.501891666667","25.06367","6500200","三重區"
"241002","090-VK","2018/10/25 17:08:54","新北市三重區五華街35巷30號","121.495241666667","25.08133","6500200","三重區"
"241003","091-VK","2018/10/25 17:08:54","新北市三重區富福街107號","121.493411666667","25.0855516666667","6500200","三重區"
"251014","742-BX","2018/10/25 17:08:59","新北市淡水區八里堆8號","121.462693333333","25.2241","6501000","淡水區"
"241005","262-UM","2018/10/25 17:09:04","新北市三重區碧華街50號","121.483493333333","25.0812566666667","6500200","三重區"
"241009","265-UM","2018/10/25 17:08:46","新北市三重區三和路四段215巷40號","121.48313","25.08017","6500200","三重區"
"241016","266-UM","2018/10/25 17:08:49","新北市三重區大仁街23號","121.49204","25.0645233333333","6500200","三重區"
"241018","268-UM","2018/10/25 17:08:54","新北市三重區大智街172-1號","121.491661666667","25.0693016666667","6500200","三重區"
"241032","269-UM","2018/10/25 17:08:57","新北市三重區重陽路一段134號","121.486701666667","25.0605783333333","6500200","三重區"
"241013","270-UM","2018/10/25 17:09:06","新北市三重區仁愛街88號","121.495485","25.0738533333333","6500200","三重區"
"241025","271-UM","2018/10/25 17:08:56","新北市三重區中正北路560巷79號","121.470901666667","25.06882","6500200","三重區"
"241007","398-BY","2018/10/25 17:09:04","新北市三重區三和路四段135巷29號","121.486695","25.0786866666667","6500200","三重區"
"241024","KEA-2210","2018/10/25 17:08:50","新北市三重區忠孝路三段113-1號","121.479991666667","25.0637833333333","6500200","三重區"
"241020","478-VK","2018/10/25 17:09:07","新北市三重區後竹圍街145號","121.48652","25.072055","6500200","三重區"
"241030","480-VK","2018/10/25 17:08:52","新北市三重區集成路16號","121.488588333333","25.0521233333333","6500200","三重區"
"241014","543-UM","2018/10/25 17:08:49","新北市三重區龍濱路128號","121.50172","25.0715766666667","6500200","三重區"
"241023","545-UM","2018/10/25 17:08:58","新北市三重區忠孝路三段84巷1號","121.48024","25.0646183333333","6500200","三重區"
"241001","547-UM","2018/10/25 17:08:55","新北市三重區仁愛街255巷64號","121.494381666667","25.0790316666667","6500200","三重區"
"241019","KEA-2593","2018/10/25 17:08:54","新北市三重區力行路一段153巷24號","121.48592","25.0690666666667","6500200","三重區"
"241006","AAD-863","2018/10/25 17:09:02","新北市三重區三和路四段262號","121.485683333333","25.077095","6500200","三重區"
"241004","743-BX","2018/10/25 17:08:51","新北市三重區五華街92巷15號","121.491858333333","25.08184","6500200","三重區"
"241028","887-TS","2018/10/25 17:09:03","新北市三重區重新路三段108號","121.49223","25.06056","6500200","三重區"
"241012","941-UM","2018/10/25 17:08:58","新北市三重區仁和街161號","121.499625","25.0745916666667","6500200","三重區"
"241029","942-UM","2018/10/25 17:09:02","新北市三重區重新路三段150號","121.490855","25.0592616666667","6500200","三重區"
"241033","AAC-255","2018/10/25 17:08:59","新北市三重區中興北街271號","121.469091666667","25.0606066666667","6500200","三重區"
"247012","KEA-2869","2018/10/25 17:08:57","新北市蘆洲區信義路292巷7號","121.478053333333","25.08775","6501400","蘆洲區"
"235046","733-UM","2018/10/25 16:48:30","新北市中和區員山路36巷13號","121.484158333333","24.9908266666667","6500300","中和區"
"247002","893-R6","2018/10/25 17:09:00","新北市蘆洲區永樂街75號","121.456191666667","25.0886266666667","6501400","蘆洲區"
"247016","546-UM","2018/10/25 17:09:00","新北市蘆洲區光華路73巷17號","121.468423333333","25.0823483333333","6501400","蘆洲區"
"247024","500-BY","2018/10/25 17:09:07","新北市蘆洲區長興路52-1號","121.463441666667","25.0836783333333","6501400","蘆洲區"
"247014","339-TH","2018/10/25 17:09:06","新北市蘆洲區中央路8號","121.47355","25.08253","6501400","蘆洲區"
"247006","337-TH","2018/10/25 17:08:59","新北市蘆洲區長安街102巷67號","121.462621666667","25.0823616666667","6501400","蘆洲區"
"247008","336-TH","2018/10/25 17:08:50","新北市蘆洲區信義路30巷99號","121.475033333333","25.0772866666667","6501400","蘆洲區"
"247020","057-VK","2018/10/25 17:08:46","新北市蘆洲區仁愛街62巷6號","121.471785","25.09404","6501400","蘆洲區"
"247010","056-VK","2018/10/25 17:09:02","新北市蘆洲區民族路32號","121.476363333333","25.0843083333333","6501400","蘆洲區"
"247018","007-UY","2018/10/25 17:08:57","新北市蘆洲區復興路113號","121.477236666667","25.08813","6501400","蘆洲區"
"247004","002-UY","2018/10/25 17:08:54","新北市蘆洲區長安街193巷22號","121.459608333333","25.0814516666667","6501400","蘆洲區"
"247022","001-UY","2018/10/25 17:08:52","新北市蘆洲區民族路532號","121.46875","25.0897733333333","6501400","蘆洲區"
"228003","097-TW","2018/10/25 17:08:55","新北市貢寮區福隆里東興街11號","121.950335","25.018225","6502600","貢寮區"
"228001","212-TW","2018/10/25 17:08:55","新北市貢寮區仁理村研海街45號","121.926623333333","25.040265","6502600","貢寮區"
"228002","585-TW","2018/10/25 17:08:55","新北市貢寮區龍崗里泮宮路19號","121.907811666667","25.0177466666667","6502600","貢寮區"
"224006","676-BX","2018/10/25 17:09:06","新北市瑞芳區大寮路101-2號","121.778236666667","25.09933","6501200","瑞芳區"
"224007","275-VK","2018/10/25 17:09:05","新北市瑞芳區大埔路吉慶公園城39號","121.764803333333","25.098395","6501200","瑞芳區"
"224009","273-VK","2018/10/25 17:08:55","新北市瑞芳區輕便路128號","121.844501666667","25.1120916666667","6501200","瑞芳區"
"224008","272-VK","2018/10/25 17:08:51","新北市瑞芳區侯硐路115-1號","121.831156666667","25.0898533333333","6501200","瑞芳區"
"224005","271-BY","2018/10/25 17:09:03","新北市瑞芳區鼻頭路233-1號","121.913705","25.123995","6501200","瑞芳區"
"227004","642-TC","2018/10/25 17:08:58","新北市雙溪區外柑里田寮3號","121.806451666667","25.0169066666667","6502500","雙溪區"
"227010","400-TW","2018/10/25 17:09:02","新北市雙溪區牡丹里下坑11號","121.850981666667","25.05627","6502500","雙溪區"
"251009","008-UM","2018/10/25 17:09:02","新北市淡水區三民街22號","121.439053333333","25.1717916666667","6501000","淡水區"
"251005","010-UM","2018/10/25 17:09:01","新北市淡水區鄧公路19-1號","121.450288333333","25.1699416666667","6501000","淡水區"
"251013","KEA-2871","2018/10/25 17:09:00","新北市淡水區大埤頭5-1號","121.485816666667","25.1958733333333","6501000","淡水區"
"251016","179-VK","2018/10/25 17:08:57","新北市淡水區社厝坑3-7號","121.475373333333","25.1890083333333","6501000","淡水區"
"251015","180-VK","2018/10/25 17:09:02","新北市淡水區樹林口42-7號","121.46937","25.1687766666667","6501000","淡水區"
"251008","181-VK","2018/10/25 17:08:51","新北市淡水區民生路169號","121.469695","25.1420516666667","6501000","淡水區"
"251010","413-VK","2018/10/25 17:08:58","新北市淡水區中正路二段31號","121.41948","25.1814566666667","6501000","淡水區"
"251012","441-VK","2018/10/25 17:09:02","新北市淡水區中山北路一段158號","121.44431","25.1778816666667","6501000","淡水區"
"251007","442-VK","2018/10/25 17:08:52","新北市淡水區民權路22號","121.459898333333","25.137745","6501000","淡水區"
"251004","443-VK","2018/10/25 17:06:44","新北市淡水區中正東路二段88巷15號","121.459055","25.1504666666667","6501000","淡水區"
"251006","561-UM","2018/10/25 17:09:05","新北市淡水區真理街6號","121.438415","25.1744833333333","6501000","淡水區"
"251011","650-BX","2018/10/25 17:09:01","新北市淡水區坪頂路50號","121.457875","25.1625516666667","6501000","淡水區"
"252002","178-VK","2018/10/25 17:08:53","新北市三芝區忠孝街1-17號","121.505608333333","25.2537633333333","6502100","三芝區"
"252001","292-VK","2018/10/25 17:08:57","新北市三芝區淡金路一段2號","121.497536666667","25.25987","6502100","三芝區"
"242058","986-R7","2018/10/25 17:08:54","新北市新莊區新泰路255巷83號","121.442283333333","25.0391566666667","6500500","新莊區"
"242056","751-BX","2018/10/25 17:08:54","新北市新莊區三和路12-21號","121.442248333333","25.038545","6500500","新莊區"
"242027","705-TV","2018/10/25 17:08:55","新北市新莊區新泰路357巷3弄57號","121.442178333333","25.03934","6500500","新莊區"
"242029","612-BX","2018/10/25 17:08:47","新北市新莊區新泰路357巷3弄57號","121.44223","25.0392616666667","6500500","新莊區"
"242044","566-BX","2018/10/25 17:08:52","新北市新莊區新泰路255巷83號","121.442291666667","25.03873","6500500","新莊區"
"242048","497-BY","2018/10/25 17:08:54","新北市新莊區中正路400號","121.441501666667","25.033845","6500500","新莊區"
"242011","442-UM","2018/10/25 17:08:57","新北市新莊區新泰路357巷3弄57號","121.441963333333","25.0390366666667","6500500","新莊區"
"242053","441-UM","2018/10/25 17:09:02","新北市新莊區環河路636-7號","121.437231666667","25.0107983333333","6500500","新莊區"
"242039","415-TV","2018/10/25 17:09:02","新北市新莊區新泰路361巷23號","121.442408333333","25.0425416666667","6500500","新莊區"
"242009","413-TV","2018/10/25 17:08:52","新北市新莊區新泰路357巷3弄57號","121.441895","25.039515","6500500","新莊區"
"242046","400-BY","2018/10/25 17:09:03","新北市新莊區新泰路357巷3弄57號","121.442195","25.0396616666667","6500500","新莊區"
"242023","362-BY","2018/10/25 17:09:05","新北市新莊區新泰路255巷83號","121.44208","25.038905","6500500","新莊區"
"242061","353-BY","2018/10/25 17:08:48","新北市新莊區新泰路357巷3弄57號","121.442005","25.039165","6500500","新莊區"
"242034","135-UY","2018/10/25 17:08:58","新北市新莊區新泰路255巷83號","121.442175","25.03884","6500500","新莊區"
"242051","172-VK","2018/10/25 17:09:02","新北市新莊區中環路一段287號","121.441925","25.0319716666667","6500500","新莊區"
"242013","173-VK","2018/10/25 17:09:02","新北市新莊區三和路12-21號","121.441981666667","25.0387183333333","6500500","新莊區"
"242019","175-VK","2018/10/25 17:08:54","新北市新莊區三和路12-21號","121.442026666667","25.0387583333333","6500500","新莊區"
"242007","176-VK","2018/10/25 17:09:06","新北市新莊區三和路12-21號","121.441971666667","25.038855","6500500","新莊區"
"242017","346-TH","2018/10/25 17:08:51","新北市新莊區三和路12-21號","121.442213333333","25.0381433333333","6500500","新莊區"
"242015","347-TH","2018/10/25 17:09:04","新北市新莊區三和路12-21號","121.442243333333","25.0382283333333","6500500","新莊區"
"242004","349-TH","2018/10/25 17:08:49","新北市新莊區三和路12-21號","121.442138333333","25.0384733333333","6500500","新莊區"
"238015","755-BX","2018/10/25 17:08:44","新北市樹林區育德街78-1號","121.387988333333","24.967985","6500700","樹林區"
"238019","599-UM","2018/10/25 17:08:52","新北市樹林區八德街495-3號","121.401841666667","24.96928","6500700","樹林區"
"238018","571-TV","2018/10/25 17:08:48","新北市樹林區仁愛街101號","121.424968333333","24.983415","6500700","樹林區"
"238022","KEA-2213","2018/10/25 17:08:53","新北市樹林區忠孝街59號","121.424213333333","24.981295","6500700","樹林區"
"238021","KEA-2539","2018/10/25 17:09:01","新北市樹林區西圳街一段165巷12號","121.395593333333","24.9617116666667","6500700","樹林區"
"238025","303-VK","2018/10/25 17:08:55","新北市樹林區中正路22-1號","121.42793","24.99942","6500700","樹林區"
"238017","283-BY","2018/10/25 17:08:55","新北市樹林區光武街7-3號","121.415673333333","25.00527","6500700","樹林區"
"238014","282-BY","2018/10/25 17:08:52","新北市樹林區中正路22-1號","121.427628333333","24.9994233333333","6500700","樹林區"
"238020","268-VK","2018/10/25 17:08:56","新北市樹林區大安路295號","121.418085","24.9926166666667","6500700","樹林區"
"238016","169-UY","2018/10/25 17:09:05","新北市樹林區八德街1號","121.417526666667","24.9849116666667","6500700","樹林區"
"239007","AAC-297","2018/10/25 17:08:48","新北市鶯歌區中正一路47號","121.352418333333","24.9536916666667","6500800","鶯歌區"
"239006","891-R6","2018/10/25 17:08:53","新北市鶯歌區八德路2巷37弄4號","121.336903333333","24.94651","6500800","鶯歌區"
"239008","527-UM","2018/10/25 17:09:03","新北市鶯歌區尖山路57-1號","121.350046666667","24.949775","6500800","鶯歌區"
"239005","526-UM","2018/10/25 17:08:51","新北市鶯歌區八德路10號","121.332981666667","24.954515","6500800","鶯歌區"
"239001","417-VK","2018/10/25 17:08:47","新北市鶯歌區尖山路140巷8號","121.346425","24.94912","6500800","鶯歌區"
"239002","359-BY","2018/10/25 17:09:02","新北市鶯歌區建國路170號","121.350186666667","24.953475","6500800","鶯歌區"
"239004","193-VK","2018/10/25 17:08:50","新北市鶯歌區文化路324巷8弄1衖4號","121.349896666667","24.9449483333333","6500800","鶯歌區"
"242002","281-VK","2018/10/25 17:08:53","新北市新莊區三和路12-21號","121.442346666667","25.0383416666667","6500500","新莊區"
"242031","280-VK","2018/10/25 17:08:53","新北市新莊區三和路12-21號","121.442068333333","25.0381383333333","6500500","新莊區"
