"lineid","car","time","location","longitude","latitude","cityid","cityname"
"234046","148-BY","2018/10/25 18:49:02","新北市永和區秀朗路二段128號","121.52484","25.0014583333333","6500400","永和區"
"234007","207-UY","2018/10/25 18:48:50","新北市永和區文化路170號","121.512035","25.0154466666667","6500400","永和區"
"234081","298-R6","2018/10/25 18:49:03","新北市永和區永利路87-1號","121.521511666667","25.0032766666667","6500400","永和區"
"234038","336-UY","2018/10/25 18:48:58","新北市永和區成功路一段4號","121.527111666667","25.00548","6500400","永和區"
"234064","337-UY","2018/10/25 18:48:55","新北市永和區福和路1號","121.526433333333","25.0099083333333","6500400","永和區"
"234086","338-UY","2018/10/25 18:48:52","新北市永和區中正路3-1號","121.51387","24.9955033333333","6500400","永和區"
"234070","552-UM","2018/10/25 18:48:56","新北市永和區福和路1號","121.526048333333","25.00967","6500400","永和區"
"234017","745-BX","2018/10/25 18:49:08","新北市永和區忠孝街26巷27弄2號","121.515215","25.01714","6500400","永和區"
"234030","746-BX","2018/10/25 18:48:50","新北市永和區得和路321號","121.52336","24.9995716666667","6500400","永和區"
"234054","KEA-2590","2018/10/25 18:48:51","新北市永和區竹林路86號","121.51939","25.0127166666667","6500400","永和區"
"234013","KEA-2591","2018/10/25 18:48:53","新北市永和區保福路二段133巷37號","121.509005","25.0133016666667","6500400","永和區"
"234061","AAD-866","2018/10/25 18:48:59","新北市永和區福和路219號","121.518968333333","25.0073883333333","6500400","永和區"
"234050","863-TW","2018/10/25 18:48:51","新北市永和區福和路1號","121.526378333333","25.0100216666667","6500400","永和區"
"234026","9371-KE","2018/10/25 18:49:01","新北市永和區自由街50號","121.513778333333","25.00613","6500400","永和區"
"234011","9373-KE","2018/10/25 18:48:58","新北市永和區文化路113巷46號","121.513058333333","25.0136466666667","6500400","永和區"
"249005","172-UM","2018/10/25 18:49:03","新北市八里區長道坑17號","121.396406666667","25.1155316666667","6502300","八里區"
"249001","173-UM","2018/10/25 18:48:59","新北市八里區龍米路二段58-1號","121.448153333333","25.14085","6502300","八里區"
"249004","303-UY","2018/10/25 18:49:04","新北市八里區中山路一段150巷80號","121.415981666667","25.16031","6502300","八里區"
"248016","026-BX","2018/10/25 18:48:46","新北市五股區凌雲路一段149巷13-1號","121.44861","25.10087","6501500","五股區"
"248006","077-UY","2018/10/25 18:49:03","新北市五股區四維路4號","121.467173333333","25.0708416666667","6501500","五股區"
"248008","095-VK","2018/10/25 18:49:03","新北市五股區中興路一段126號","121.465598333333","25.073705","6501500","五股區"
"248017","225-UY","2018/10/25 18:48:52","新北市五股區凌雲路三段41-1號","121.430911666667","25.1182016666667","6501500","五股區"
"248012","247-BX","2018/10/25 18:49:04","新北市五股區成泰路二段147巷26號","121.438455","25.0868916666667","6501500","五股區"
"248014","261-SL","2018/10/25 18:48:55","新北市五股區民義路一段107巷32號","121.431978333333","25.0849","6501500","五股區"
"248010","272-BY","2018/10/25 18:48:52","新北市五股區水碓九路35號","121.428808333333","25.072005","6501500","五股區"
"248004","677-BX","2018/10/25 18:49:06","新北市五股區民義路二段22巷1號","121.419938333333","25.0969933333333","6501500","五股區"
"248002","678-BX","2018/10/25 18:48:50","新北市五股區成泰路三段435巷7號","121.449551666667","25.0978733333333","6501500","五股區"
"234023","9380-KE","2018/10/25 18:48:58","新北市永和區竹林路119巷45號","121.521885","25.0118183333333","6500400","永和區"
"234077","969-R7","2018/10/25 18:48:49","新北市永和區中正路2巷29弄11號","121.513811666667","24.9939983333333","6500400","永和區"
"234067","AAC-212","2018/10/25 18:48:51","新北市中和區永貞路244號","121.514368333333","25.0038483333333","6500400","永和區"
"234003","AAC-295","2018/10/25 18:49:06","新北市永和區豫溪街33號","121.516365","25.0097816666667","6500400","永和區"
"232011","375-UM","2018/10/25 18:49:05","新北市坪林區坪林街55號","121.71146","24.9375166666667","6502000","坪林區"
"244023","069-UM","2018/10/25 18:49:05","新北市林口區文化二路二段112號","121.379235","25.081835","6501700","林口區"
"244007","080-UY","2018/10/25 18:49:07","新北市林口區太平里8-1號","121.380421666667","25.1139983333333","6501700","林口區"
"244019","403-UM","2018/10/25 18:48:59","新北市林口區麗園二街15號","121.379255","25.0695466666667","6501700","林口區"
"244013","KEA-2802","2018/10/25 18:48:53","新北市林口區文化一路一段122號","121.374608333333","25.07229","6501700","林口區"
"244017","485-VK","2018/10/25 18:49:02","新北市林口區文化二路一段68巷12-1號","121.366126666667","25.0680216666667","6501700","林口區"
"244009","656-BX","2018/10/25 18:48:46","新北市林口區竹林路446號","121.388318333333","25.0853483333333","6501700","林口區"
"244011","701-TV","2018/10/25 18:48:53","新北市林口區中正路57巷7弄4號","121.395416666667","25.076645","6501700","林口區"
"244025","837-TS","2018/10/25 18:49:03","新北市林口區忠孝一路148號","121.360418333333","25.0743083333333","6501700","林口區"
"244021","838-TS","2018/10/25 18:48:48","新北市林口區工八路1-1號","121.4017","25.0787066666667","6501700","林口區"
"243013","AAD-798","2018/10/25 18:27:06","新北市泰山區明志路三段206巷3號","121.423303333333","25.0379516666667","6501600","泰山區"
"243016","KEA-2801","2018/10/25 18:49:00","新北市泰山區明志路二段103號","121.428236666667","25.0518116666667","6501600","泰山區"
"243015","421-VK","2018/10/25 18:49:01","新北市泰山區美寧街57巷37弄2號","121.429151666667","25.0651516666667","6501600","泰山區"
"243010","KEA-2216","2018/10/25 18:48:51","新北市泰山區公園路4號","121.429926666667","25.053945","6501600","泰山區"
"243012","646-TV","2018/10/25 18:48:50","新北市泰山區福興三街11號","121.434508333333","25.05781","6501600","泰山區"
"243014","680-BX","2018/10/25 18:49:03","新北市泰山區黎明路35-1號","121.421676666667","25.0602033333333","6501600","泰山區"
"222003","436-BY","2018/10/25 18:48:53","新北市深坑區北深路一段300號","121.622555","25.0066083333333","6501800","深坑區"
"222002","659-BX","2018/10/25 18:48:57","新北市深坑區文山路一段79號","121.626926666667","25.0018666666667","6501800","深坑區"
"231041","002-UM","2018/10/25 18:48:54","新北市新店區安華路28-1號","121.519536666667","24.9607516666667","6500600","新店區"
"231059","046-UY","2018/10/25 18:48:47","新北市新店區安華路28-1號","121.51964","24.9609783333333","6500600","新店區"
"231040","047-UY","2018/10/25 18:49:03","新北市新店區安康路一段77號","121.530033333333","24.9611566666667","6500600","新店區"
"231046","107-UY","2018/10/25 18:48:59","新北市新店區直潭路29號","121.534285","24.9428183333333","6500600","新店區"
"231052","108-UY","2018/10/25 18:48:59","新北市新店區新烏路一段193號","121.547918333333","24.9313","6500600","新店區"
"231047","187-VK","2018/10/25 18:49:02","新北市新店區環河路1-2號","121.538118333333","24.96157","6500600","新店區"
"231062","188-VK","2018/10/25 18:48:54","新北市新店區安一路一段1-1號","121.519158333333","24.9612716666667","6500600","新店區"
"231054","KEA-2219","2018/10/25 18:48:53","新北市新店區環河路6號","121.53832","24.9617283333333","6500600","新店區"
"231057","256-BX","2018/10/25 18:48:47","新北市新店區金興路40號","121.552606666667","24.9318916666667","6500600","新店區"
"231042","268-BY","2018/10/25 18:49:05","新北市新店區安康路一段79巷1號","121.529845","24.9612166666667","6500600","新店區"
"231051","278-BY","2018/10/25 18:48:52","新北市新店區中央路69號","121.532311666667","24.9769083333333","6500600","新店區"
"231050","AAD-862","2018/10/25 18:48:59","新北市新店區安康路一段3-1號","121.535265","24.96091","6500600","新店區"
"231058","3713-VJ","2018/10/25 18:48:53","新北市新店區能仁街12-1號","121.540691666667","24.9555133333333","6500600","新店區"
"231066","4716-K9","2018/10/25 18:49:00","新北市新店區安一路一段1-1號","121.519355","24.9612766666667","6500600","新店區"
"231056","4715-K9","2018/10/25 18:49:04","新北市新店區大同街33號","121.538491666667","24.98094","6500600","新店區"
"231067","4772-VM","2018/10/25 18:48:58","新北市新店區安華路28-1號","121.519111666667","24.9606016666667","6500600","新店區"
"231065","512-UM","2018/10/25 18:48:54","新北市新店區安忠路57巷26弄62號","121.511805","24.9568","6500600","新店區"
"231049","513-UM","2018/10/25 18:48:56","新北市新店區百忍街90號","121.532636666667","24.977295","6500600","新店區"
"231045","617-UM","2018/10/25 18:48:55","新北市新店區安華路8號","121.519815","24.9625133333333","6500600","新店區"
"231044","618-UM","2018/10/25 18:48:51","新北市新店區中興路二段202-2號","121.548331666667","24.97438","6500600","新店區"
"231061","619-UM","2018/10/25 18:49:01","新北市新店區安華路28-1號","121.519295","24.96058","6500600","新店區"
"231063","641-BX","2018/10/25 18:49:00","新北市新店區安華路28-1號","121.519581666667","24.9606666666667","6500600","新店區"
"231064","719-UM","2018/10/25 18:48:54","新北市新店區安一路一段1-1號","121.519493333333","24.9611016666667","6500600","新店區"
"231060","897-TW","2018/10/25 18:49:05","新北市新店區安華路28-1號","121.519438333333","24.9607416666667","6500600","新店區"
"231043","899-TW","2018/10/25 18:48:51","新北市新店區安康路一段355-10號","121.52033","24.9638","6500600","新店區"
"231055","AKT-0513","2018/10/25 18:49:04","新北市新店區新生街55號","121.53879","24.9669183333333","6500600","新店區"
"251014","742-BX","2018/10/25 18:49:00","新北市淡水區崙頂2-2號","121.491613333333","25.2239033333333","6501000","淡水區"
"235066","003-UY","2018/10/25 18:49:02","新北市中和區中山路二段131巷33號","121.503831666667","25.002785","6500300","中和區"
"235064","005-UY","2018/10/25 18:49:02","新北市中和區連城路75巷3號","121.497773333333","24.9995866666667","6500300","中和區"
"235063","006-UY","2018/10/25 18:48:50","新北市中和區連城路319巷3弄1號","121.489221666667","24.995675","6500300","中和區"
"235056","096-UM","2018/10/25 18:48:56","新北市中和區員山路611巷5弄1號","121.477951666667","25.0112516666667","6500300","中和區"
"235039","097-UM","2018/10/25 18:49:06","新北市中和區安樂路217巷56號","121.513085","24.9976466666667","6500300","中和區"
"235065","098-UM","2018/10/25 18:48:58","新北市中和區中山路二段2巷17號","121.50388","25.0069183333333","6500300","中和區"
"235040","150-BY","2018/10/25 18:48:59","新北市中和區安平路36巷13號","121.510448333333","24.9950316666667","6500300","中和區"
"235058","151-BY","2018/10/25 18:49:03","新北市中和區連城路532巷34弄18號","121.475196666667","24.9927816666667","6500300","中和區"
"235055","183-VK","2018/10/25 18:49:03","新北市中和區民生街71號","121.469268333333","25.005015","6500300","中和區"
"235038","185-VK","2018/10/25 18:48:55","新北市中和區大勇街31巷1號","121.517433333333","24.994145","6500300","中和區"
"235049","186-VK","2018/10/25 18:48:49","新北市中和區明義街11巷12弄2號","121.503718333333","24.9946166666667","6500300","中和區"
"235067","255-BX","2018/10/25 18:49:02","新北市中和區中山路二段449巷1弄13號","121.483906666667","25.0038716666667","6500300","中和區"
"235044","293-VK","2018/10/25 18:48:53","新北市中和區中興街141號","121.499986666667","24.9912666666667","6500300","中和區"
"235072","301-VK","2018/10/25 18:48:54","新北市永和區保生路2號","121.506825","25.0071833333333","6500300","中和區"
"235043","352-BY","2018/10/25 18:49:06","新北市中和區成功路129號","121.526035","24.9906316666667","6500300","中和區"
"247012","KEA-2869","2018/10/25 18:48:57","新北市八里區中華路三段7巷5號","121.397783333333","25.1433866666667","6501400","蘆洲區"
"235050","4979-A6","2018/10/25 18:48:59","新北市中和區忠孝街62巷22號","121.512683333333","24.983525","6500300","中和區"
"235069","4980-A6","2018/10/25 18:48:53","新北市中和區連城路67-1號","121.497641666667","25.0011966666667","6500300","中和區"
"235042","551-UM","2018/10/25 18:48:58","新北市中和區秀朗路三段135巷7弄7號","121.52569","24.9919466666667","6500300","中和區"
"235070","558-UM","2018/10/25 18:48:51","新北市中和區中和路104號","121.502821666667","24.9997483333333","6500300","中和區"
"235045","565-BX","2018/10/25 18:48:49","新北市中和區捷運路8-7號","121.509438333333","24.9895716666667","6500300","中和區"
"235054","640-BX","2018/10/25 18:48:50","新北市中和區民享街62號","121.474118333333","25.00216","6500300","中和區"
"235060","647-TV","2018/10/25 18:49:02","新北市中和區民治街1巷1號","121.474908333333","25.0057066666667","6500300","中和區"
"235047","732-UM","2018/10/25 18:49:08","新北市中和區興南路二段34巷56弄2號","121.504843333333","24.9853583333333","6500300","中和區"
"235046","733-UM","2018/10/25 18:48:56","新北市中和區仁愛街36巷44號","121.511323333333","24.9862933333333","6500300","中和區"
"235071","783-BX","2018/10/25 18:48:55","新北市中和區員山路36巷16-2號","121.485343333333","24.991175","6500300","中和區"
"235062","800-TS","2018/10/25 18:48:57","新北市中和區中山路二段312巷41號","121.495138333333","25.0040966666667","6500300","中和區"
"235057","801-TS","2018/10/25 18:48:49","新北市中和區民安街25巷13號","121.480568333333","25.0002133333333","6500300","中和區"
"235041","802-TS","2018/10/25 18:48:50","新北市中和區中安街192號","121.511316666667","24.999185","6500300","中和區"
"235052","805-TS","2018/10/25 18:49:03","新北市中和區興南路二段399巷38號","121.499228333333","24.97885","6500300","中和區"
"235048","896-TW","2018/10/25 18:48:51","新北市中和區興南路二段47號","121.507303333333","24.9855283333333","6500300","中和區"
"235053","900-TW","2018/10/25 18:49:07","新北市中和區華福街44號","121.466496666667","24.9965616666667","6500300","中和區"
"235051","157-BY","2018/10/25 18:48:57","新北市中和區華新街109巷11弄2-1號","121.508431666667","24.9796283333333","6500300","中和區"
"235037","AAC-213","2018/10/25 18:48:58","新北市中和區秀朗路三段175巷4號","121.524765","24.99133","6500300","中和區"
"235059","AAC-215","2018/10/25 18:49:01","新北市中和區圓通路393巷6號","121.489696666667","24.988705","6500300","中和區"
"220035","015-TV","2018/10/25 18:48:56","新北市板橋區中正路275巷79弄18號","121.451973333333","25.017525","6500100","板橋區"
"220065","072-UY","2018/10/25 18:49:04","新北市板橋區民族路151巷52號","121.470093333333","25.008465","6500100","板橋區"
"220086","073-UY","2018/10/25 18:48:58","新北市板橋區大智街46號","121.454723333333","25.015305","6500100","板橋區"
"220106","075-UY","2018/10/25 18:48:58","新北市板橋區民生路二段161巷3號","121.470281666667","25.0198416666667","6500100","板橋區"
"220069","AAD-861","2018/10/25 18:48:54","新北市板橋區四川路一段10巷23號","121.458845","25.0062966666667","6500100","板橋區"
"226004","312-R5","2018/10/25 18:48:58","新北市平溪區平溪里三坑路50號","121.734763333333","25.02967","6502400","平溪區"
"228001","212-TW","2018/10/25 18:49:06","新北市貢寮區仁理村研海街12-1號","121.92376","25.051635","6502600","貢寮區"
"228002","585-TW","2018/10/25 18:48:55","新北市貢寮區福隆里東興街6-11號","121.950708333333","25.0210533333333","6502600","貢寮區"
"228003","828-UM","2018/10/25 18:48:55","新北市貢寮區和美里龍洞街63-7號","121.917396666667","25.1184416666667","6502600","貢寮區"
"224010","AGQ-8101","2018/10/25 18:44:21","新北市瑞芳區崙頂路3號","121.846605","25.10666","6501200","瑞芳區"
"224006","676-BX","2018/10/25 18:49:01","新北市瑞芳區民生街18號","121.80585","25.1075666666667","6501200","瑞芳區"
"224002","639-TC","2018/10/25 18:48:47","新北市瑞芳區靜安路四段63-1號","121.793301666667","25.1080983333333","6501200","瑞芳區"
"224007","275-VK","2018/10/25 18:49:05","新北市瑞芳區大埔路148號","121.761908333333","25.1009916666667","6501200","瑞芳區"
"224009","273-VK","2018/10/25 18:48:55","新北市瑞芳區祈堂路2號","121.859761666667","25.111695","6501200","瑞芳區"
"224008","272-VK","2018/10/25 18:49:00","新北市瑞芳區瑞芳街139號","121.805048333333","25.1098666666667","6501200","瑞芳區"
"224005","271-BY","2018/10/25 18:49:02","新北市瑞芳區瑞濱路30號","121.826448333333","25.12166","6501200","瑞芳區"
"227004","642-TC","2018/10/25 18:48:58","新北市雙溪區平林里梅竹蹊28號","121.861611666667","25.0360216666667","6502500","雙溪區"
"227010","400-TW","2018/10/25 18:49:01","新北市雙溪區牡丹里聖南31號","121.853958333333","25.0556433333333","6502500","雙溪區"
"253006","032-BX","2018/10/25 18:48:49","新北市石門區下員坑15號","121.51177","25.2846516666667","6502200","石門區"
"253005","295-VK","2018/10/25 18:48:49","新北市石門區中山路28-3號","121.565798333333","25.2898716666667","6502200","石門區"
"222001","KEA-2212","2018/10/25 18:49:04","新北市深坑區松柏街36號","121.638701666667","25.0114183333333","6501800","深坑區"
"208002","KEA-2872","2018/10/25 18:48:53","新北市金山區信義路62號","121.635728333333","25.2189666666667","6502700","金山區"
"208003","665-BX","2018/10/25 18:48:53","新北市金山區中山路393號","121.633386666667","25.2252466666667","6502700","金山區"
"208001","761-BX","2018/10/25 18:49:08","新北市金山區文化三路66巷1號","121.634126666667","25.2256716666667","6502700","金山區"
"251009","008-UM","2018/10/25 18:49:02","新北市淡水區重建街192號","121.44098","25.1743383333333","6501000","淡水區"
"251001","011-UM","2018/10/25 18:49:07","新北市淡水區自強路86號","121.46276","25.1282466666667","6501000","淡水區"
"251013","KEA-2871","2018/10/25 18:49:00","新北市淡水區小坑子頭1號","121.480538333333","25.2143116666667","6501000","淡水區"
"251016","179-VK","2018/10/25 18:48:56","新北市淡水區下圭柔山71-3號","121.447075","25.2062616666667","6501000","淡水區"
"251015","180-VK","2018/10/25 18:48:52","新北市淡水區興福寮1-7號","121.48731","25.1649783333333","6501000","淡水區"
"251010","413-VK","2018/10/25 18:48:57","新北市淡水區沙崙路24號","121.421278333333","25.1813083333333","6501000","淡水區"
"251012","441-VK","2018/10/25 18:49:02","新北市淡水區新興街21號","121.442846666667","25.1802816666667","6501000","淡水區"
"251007","442-VK","2018/10/25 18:48:52","新北市淡水區中正東路二段143巷2弄1號","121.46072","25.1472783333333","6501000","淡水區"
"251011","650-BX","2018/10/25 18:49:01","新北市淡水區學府路12號","121.44754","25.167925","6501000","淡水區"
"251002","672-BX","2018/10/25 18:49:08","新北市淡水區鄧公路15-1號","121.448225","25.1691466666667","6501000","淡水區"
"251003","766-UM","2018/10/25 18:48:48","新北市淡水區中山北路一段212巷38號","121.446075","25.179065","6501000","淡水區"
"207003","550-UM","2018/10/25 18:48:58","新北市萬里區大鵬里頂社24-5號","121.65833","25.2088166666667","6502800","萬里區"
"207004","225-TW","2018/10/25 18:48:55","新北市萬里區萬里里獅頭路23號","121.693278333333","25.1782583333333","6502800","萬里區"
"252002","178-VK","2018/10/25 18:48:53","新北市三芝區中正路一段101-1號","121.504808333333","25.2563666666667","6502100","三芝區"
"252003","249-BX","2018/10/25 18:49:01","新北市三芝區後厝里大片頭108號","121.458501666667","25.2428216666667","6502100","三芝區"
"252001","292-VK","2018/10/25 18:48:56","新北市三芝區中正路三段9號","121.502928333333","25.2539433333333","6502100","三芝區"
"237004","KEA-2597","2018/10/25 18:49:03","新北市三峽區插角225號","121.415055","24.867945","6500900","三峽區"
"237007","153-BY","2018/10/25 18:48:57","新北市三峽區柑樹路2巷3號","121.362333333333","24.9057166666667","6500900","三峽區"
"237013","252-BX","2018/10/25 18:49:02","新北市三峽區光明路69巷24號","121.376625","24.9291183333333","6500900","三峽區"
"237012","275-BY","2018/10/25 18:48:54","新北市三峽區三樹路362號","121.383668333333","24.9435233333333","6500900","三峽區"
"237008","302-VK","2018/10/25 18:48:50","新北市三峽區白雞67-1號","121.398388333333","24.9115016666667","6500900","三峽區"
"237014","433-BY","2018/10/25 18:48:55","新北市三峽區復興路480巷28號","121.359168333333","24.939905","6500900","三峽區"
"237006","5529-G3","2018/10/25 18:49:06","新北市三峽區溪東路211巷31弄10號","121.405453333333","24.9343283333333","6500900","三峽區"
"237011","KEA-2596","2018/10/25 18:49:00","新北市三峽區溪東路5號","121.399315","24.9351866666667","6500900","三峽區"
"237016","649-BX","2018/10/25 18:48:52","新北市三峽區安坑12-2號","121.442493333333","24.92631","6500900","三峽區"
"237010","706-TV","2018/10/25 18:49:00","新北市三峽區復興路489號","121.36126","24.9384266666667","6500900","三峽區"
"237005","AKY-6261","2018/10/25 18:49:05","新北市三峽區文化路41-1號","121.37259","24.9360366666667","6500900","三峽區"
"236070","105-UM","2018/10/25 18:48:58","新北市土城區延和路21巷45號","121.463503333333","24.9893733333333","6501300","土城區"
"236078","166-UM","2018/10/25 18:48:51","新北市土城區中央路四段67巷32號","121.41779","24.9571816666667","6501300","土城區"
"236030","253-BX","2018/10/25 18:48:53","新北市土城區千歲路3巷8號","121.441005","24.9702433333333","6501300","土城區"
"236026","269-VK","2018/10/25 18:49:04","新北市土城區興城路48號","121.441368333333","24.9726166666667","6501300","土城區"
"236014","270-VK","2018/10/25 18:48:54","新北市土城區金城路二段354巷20號","121.46077","24.9841183333333","6501300","土城區"
"236038","271-VK","2018/10/25 18:48:57","新北市土城區明德路一段195巷2弄17號","121.463458333333","24.9782366666667","6501300","土城區"
"236021","401-BY","2018/10/25 18:49:06","新北市土城區延吉街253巷1號","121.467725","24.9847133333333","6501300","土城區"
"236042","752-BX","2018/10/25 18:45:54","新北市土城區裕民路92巷23弄1號","121.449855","24.9862816666667","6501300","土城區"
"236059","912-UM","2018/10/25 18:49:02","新北市土城區中央路三段93號","121.437301666667","24.96755","6501300","土城區"
"236049","913-UM","2018/10/25 18:49:04","新北市土城區青雲路2號","121.460348333333","24.9898833333333","6501300","土城區"
"236063","915-UM","2018/10/25 18:48:59","新北市土城區金城路三段207巷6弄13號","121.470718333333","24.9902433333333","6501300","土城區"
"236055","AAC-216","2018/10/25 18:48:47","新北市土城區裕民路224號","121.453711666667","24.9840616666667","6501300","土城區"
"238023","601-UM","2018/10/25 18:48:58","新北市樹林區工興街14巷2號","121.398981666667","25.0136066666667","6500700","樹林區"
"238019","599-UM","2018/10/25 18:48:52","新北市樹林區東榮街169號","121.413975","24.98143","6500700","樹林區"
"238024","5061-A6","2018/10/25 18:49:02","新北市樹林區八德街435號","121.40622","24.9700066666667","6500700","樹林區"
"238022","KEA-2213","2018/10/25 18:48:53","新北市樹林區東大街32號","121.413175","24.9765366666667","6500700","樹林區"
"238021","KEA-2539","2018/10/25 18:49:03","新北市樹林區西圳街二段29號","121.388631666667","24.9617233333333","6500700","樹林區"
"238025","303-VK","2018/10/25 18:48:55","新北市樹林區中山路三段22號","121.395618333333","24.9729266666667","6500700","樹林區"
"238017","283-BY","2018/10/25 18:48:55","新北市樹林區八德街648號","121.39651","24.9691633333333","6500700","樹林區"
"238020","268-VK","2018/10/25 18:48:56","新北市樹林區俊英街79號","121.426075","25.0075783333333","6500700","樹林區"
"238026","172-UY","2018/10/25 18:48:59","新北市樹林區信和街140號","121.386631666667","24.9749083333333","6500700","樹林區"
"238016","169-UY","2018/10/25 18:49:05","新北市樹林區文化街28號","121.419268333333","24.9877016666667","6500700","樹林區"
"239007","AAC-297","2018/10/25 18:49:08","新北市鶯歌區中正一路建德巷38號","121.364491666667","24.9578183333333","6500800","鶯歌區"
"239008","527-UM","2018/10/25 18:49:03","新北市鶯歌區國際一路179號","121.336181666667","24.9764983333333","6500800","鶯歌區"
"239005","526-UM","2018/10/25 18:48:51","新北市鶯歌區鳳吉三街23號","121.326855","24.9737783333333","6500800","鶯歌區"
"239001","417-VK","2018/10/25 18:49:07","新北市鶯歌區尖山埔路二段23號","121.342478333333","24.9489766666667","6500800","鶯歌區"
"239003","360-BY","2018/10/25 18:48:48","新北市鶯歌區鶯桃路658巷125號","121.332583333333","24.971265","6500800","鶯歌區"
"239004","193-VK","2018/10/25 18:48:50","新北市鶯歌區中正三路156巷31號","121.333501666667","24.939785","6500800","鶯歌區"
"221036","130-UY","2018/10/25 18:49:08","新北市汐止區水碓街8號","121.664058333333","25.0698383333333","6501100","汐止區"
"221015","131-UY","2018/10/25 18:48:50","新北市汐止區吉祥街12巷23號","121.668756666667","25.0807366666667","6501100","汐止區"
"221010","269-BY","2018/10/25 18:49:06","新北市汐止區康寧街901號","121.651535","25.07499","6501100","汐止區"
"221012","278-VK","2018/10/25 18:49:06","新北市汐止區汐萬路一段256巷3號","121.653088333333","25.0743683333333","6501100","汐止區"
"221023","279-VK","2018/10/25 18:49:01","新北市汐止區康寧街706-1號","121.638198333333","25.0728516666667","6501100","汐止區"
"221032","280-BY","2018/10/25 18:49:02","新北市汐止區民權街二段79號","121.619195","25.0480066666667","6501100","汐止區"
"221029","298-VK","2018/10/25 18:49:06","新北市汐止區工建路42號","121.641416666667","25.0630566666667","6501100","汐止區"
"221021","299-VK","2018/10/25 18:49:02","新北市汐止區汐萬路一段158號","121.652718333333","25.0713383333333","6501100","汐止區"
"221031","353-TW","2018/10/25 18:48:53","新北市汐止區福德一路294號","121.631586666667","25.0633333333333","6501100","汐止區"
"221035","622-UM","2018/10/25 18:48:58","新北市汐止區大同路二段342號","121.656691666667","25.0670583333333","6501100","汐止區"
"221025","623-UM","2018/10/25 18:48:53","新北市汐止區仁愛路111號","121.662371666667","25.0634616666667","6501100","汐止區"
"221038","646-BX","2018/10/25 18:49:07","新北市汐止區汐萬路一段312號","121.650663333333","25.0752833333333","6501100","汐止區"
"221002","707-TV","2018/10/25 18:49:05","新北市汐止區大同路一段215-1號","121.633738333333","25.0574033333333","6501100","汐止區"
"221018","753-BX","2018/10/25 18:49:08","新北市汐止區茄苳路66號","121.666568333333","25.0706283333333","6501100","汐止區"
"220079","145-BY","2018/10/25 18:49:03","新北市板橋區民權路202巷7弄21號","121.459221666667","25.0149433333333","6500100","板橋區"
"220080","200-UY","2018/10/25 18:48:53","新北市板橋區大觀路二段265巷18弄18號","121.441786666667","24.9982316666667","6500100","板橋區"
"220082","610-BX","2018/10/25 18:49:01","新北市板橋區篤行路三段99號","121.426193333333","24.9846783333333","6500100","板橋區"
"220056","276-BY","2018/10/25 18:48:55","新北市板橋區四川路二段23-3號","121.454736666667","24.9957283333333","6500100","板橋區"
"220072","277-BY","2018/10/25 18:48:50","新北市板橋區大觀路三段36巷84號","121.434525","24.9974566666667","6500100","板橋區"
"220101","280-UM","2018/10/25 18:48:56","新北市板橋區民生路二段120號","121.47032","25.0198533333333","6500100","板橋區"
"220094","283-UM","2018/10/25 18:49:00","新北市板橋區民生路二段161巷1號","121.47006","25.01992","6500100","板橋區"
"220071","283-VK","2018/10/25 18:48:53","新北市板橋區忠孝路196巷43號","121.465601666667","25.001705","6500100","板橋區"
"220053","285-VK","2018/10/25 18:48:51","新北市板橋區民生路二段123號","121.470745","25.0186666666667","6500100","板橋區"
"220083","286-VK","2018/10/25 18:48:57","新北市板橋區大觀路二段22巷35號","121.444901666667","25.0035816666667","6500100","板橋區"
"220081","287-VK","2018/10/25 18:48:59","新北市板橋區光華街15巷18號","121.453501666667","25.011725","6500100","板橋區"
"220090","288-VK","2018/10/25 18:48:52","新北市板橋區民生路二段120號","121.47055","25.0194433333333","6500100","板橋區"
"220061","293-UM","2018/10/25 18:48:50","新北市板橋區民生路二段56-6號","121.470731666667","25.0187216666667","6500100","板橋區"
"220062","295-UM","2018/10/25 18:49:03","新北市板橋區中山路二段23號","121.472396666667","25.015275","6500100","板橋區"
"220084","296-UM","2018/10/25 18:48:59","新北市板橋區大觀路二段150巷64號","121.441513333333","25.0007166666667","6500100","板橋區"
"220075","303-R5","2018/10/25 18:49:01","新北市板橋區館前西路156號","121.45509","25.0084983333333","6500100","板橋區"
"220064","486-VK","2018/10/25 18:48:54","新北市板橋區民生路二段36-1號","121.472151666667","25.0167266666667","6500100","板橋區"
"220088","491-VK","2018/10/25 18:49:00","新北市板橋區民生路二段161巷1號","121.469803333333","25.0200116666667","6500100","板橋區"
"220103","561-BX","2018/10/25 18:48:54","新北市板橋區民生路二段123號","121.470618333333","25.0187233333333","6500100","板橋區"
"220063","609-BX","2018/10/25 18:48:52","新北市板橋區民生路二段121號","121.470836666667","25.0185383333333","6500100","板橋區"
"220057","686-BX","2018/10/25 18:49:03","新北市板橋區館前西路49號","121.457855","25.0066633333333","6500100","板橋區"
"220077","687-BX","2018/10/25 18:48:53","新北市板橋區龍興街101巷2號","121.44445","25.0032433333333","6500100","板橋區"
"220054","741-BX","2018/10/25 18:49:02","新北市板橋區後埔街12號","121.46036","25.0067533333333","6500100","板橋區"
"220055","827-TW","2018/10/25 18:49:06","新北市板橋區縣民大道一段312號","121.461538333333","25.010885","6500100","板橋區"
"220067","829-TW","2018/10/25 18:49:04","新北市板橋區三民路二段正隆巷50號","121.476841666667","25.0139933333333","6500100","板橋區"
"220074","895-R6","2018/10/25 18:48:51","新北市板橋區府中路23號","121.459135","25.009245","6500100","板橋區"
"220073","985-R7","2018/10/25 18:49:07","新北市板橋區林園街56號","121.453941666667","25.0107616666667","6500100","板橋區"
"220097","AAC-210","2018/10/25 18:47:18","新北市板橋區民生路二段161巷5號","121.470283333333","25.0197283333333","6500100","板橋區"
"220070","AAC-253","2018/10/25 18:49:03","新北市板橋區四川路一段30號","121.459491666667","25.006215","6500100","板橋區"
"235068","KEA-2873","2018/10/25 18:48:58","新北市中和區中正路211巷13弄2號","121.49725","24.9929316666667","6500300","中和區"
"235061","KEA-2875","2018/10/25 18:48:56","新北市中和區民享街44巷2號","121.473788333333","25.002795","6500300","中和區"
