"lineid","car","time","location","longitude","latitude","cityid","cityname"
"234046","148-BY","2018/10/25 18:59:02","新北市永和區得和路373巷31弄4號","121.524891666667","25.0005566666667","6500400","永和區"
"234007","207-UY","2018/10/25 18:58:50","新北市永和區中山路一段9號","121.514095","25.0103016666667","6500400","永和區"
"234081","298-R6","2018/10/25 18:59:09","新北市永和區國中路200號","121.522295","25.0061516666667","6500400","永和區"
"234038","336-UY","2018/10/25 18:58:58","新北市永和區成功路二段207號","121.52654","24.9959433333333","6500400","永和區"
"234064","337-UY","2018/10/25 18:58:55","新北市永和區秀朗路一段134號","121.517816666667","25.0034133333333","6500400","永和區"
"234086","338-UY","2018/10/25 18:58:52","新北市永和區中正路397號","121.517226666667","25.0041666666667","6500400","永和區"
"234070","552-UM","2018/10/25 18:58:56","新北市永和區中興街84巷6號","121.51852","25.0118566666667","6500400","永和區"
"234017","745-BX","2018/10/25 18:59:08","新北市永和區永和路二段299號","121.515995","25.0161166666667","6500400","永和區"
"234030","746-BX","2018/10/25 18:59:10","新北市永和區四維街71號","121.525418333333","24.99801","6500400","永和區"
"234054","KEA-2590","2018/10/25 18:58:51","新北市永和區竹林路64號","121.5183","25.0134816666667","6500400","永和區"
"234013","KEA-2591","2018/10/25 18:58:53","新北市永和區中山路一段60巷2號","121.512993333333","25.0108866666667","6500400","永和區"
"234061","AAD-866","2018/10/25 18:58:59","新北市永和區福和路309巷1號","121.516306666667","25.007075","6500400","永和區"
"234042","862-TW","2018/10/25 18:58:55","新北市永和區永貞路267號","121.511785","25.00476","6500400","永和區"
"234050","863-TW","2018/10/25 18:58:51","新北市永和區文化路161號","121.51025","25.016425","6500400","永和區"
"234026","9371-KE","2018/10/25 18:59:07","新北市永和區安樂路306號","121.514416666667","25.0054716666667","6500400","永和區"
"234011","9373-KE","2018/10/25 18:58:58","新北市永和區忠孝街26巷13弄12號","121.514643333333","25.016425","6500400","永和區"
"249005","172-UM","2018/10/25 18:59:03","新北市八里區長道坑6號","121.397781666667","25.1234333333333","6502300","八里區"
"249001","173-UM","2018/10/25 18:58:59","新北市八里區龍米路二段228-1號","121.43271","25.1584533333333","6502300","八里區"
"248016","026-BX","2018/10/25 18:59:06","新北市五股區成泰路三段543巷18號","121.450873333333","25.1022566666667","6501500","五股區"
"248006","077-UY","2018/10/25 18:58:51","新北市五股區中興路一段56號","121.467893333333","25.0726","6501500","五股區"
"248008","095-VK","2018/10/25 18:59:08","新北市五股區中興路一段118巷6弄9號","121.466278333333","25.0745916666667","6501500","五股區"
"248017","225-UY","2018/10/25 18:57:35","新北市五股區凌雲路三段57號","121.425296666667","25.1250183333333","6501500","五股區"
"248012","247-BX","2018/10/25 18:59:04","新北市五股區中興路四段48巷11號","121.438545","25.0835316666667","6501500","五股區"
"248010","272-BY","2018/10/25 18:58:52","新北市五股區水碓一路23號","121.430578333333","25.0713333333333","6501500","五股區"
"248004","677-BX","2018/10/25 18:58:56","新北市五股區民義路三段1號","121.403183333333","25.113705","6501500","五股區"
"248002","678-BX","2018/10/25 18:58:50","新北市五股區成泰路三段454號","121.451478333333","25.1003916666667","6501500","五股區"
"234023","9380-KE","2018/10/25 18:59:01","新北市永和區竹林路75巷33弄47號","121.5211","25.0146116666667","6500400","永和區"
"234077","969-R7","2018/10/25 18:58:49","新北市永和區智光街22號","121.51792","24.99931","6500400","永和區"
"234074","AAC-211","2018/10/25 18:58:53","新北市永和區福和路1號","121.525565","25.0094583333333","6500400","永和區"
"234067","AAC-212","2018/10/25 18:58:51","新北市永和區自由街71號","121.513473333333","25.0052433333333","6500400","永和區"
"234003","AAC-295","2018/10/25 18:59:06","新北市永和區和平街34號","121.513188333333","25.0099333333333","6500400","永和區"
"232011","375-UM","2018/10/25 18:59:05","新北市坪林區水聳淒坑20-2號","121.711373333333","24.93401","6502000","坪林區"
"244023","069-UM","2018/10/25 18:59:05","新北市林口區文化三路二段77巷39號","121.37309","25.08026","6501700","林口區"
"244007","080-UY","2018/10/25 18:59:07","新北市林口區太平里28號","121.376743333333","25.1184283333333","6501700","林口區"
"244019","403-UM","2018/10/25 18:58:59","新北市林口區忠孝路603號","121.378275","25.0684566666667","6501700","林口區"
"244013","KEA-2802","2018/10/25 18:58:53","新北市林口區麗園二街1巷2-2號","121.377011666667","25.06987","6501700","林口區"
"244017","485-VK","2018/10/25 18:59:01","新北市林口區文化二路一段68巷11號","121.366433333333","25.068845","6501700","林口區"
"244011","701-TV","2018/10/25 18:58:53","新北市林口區仁愛路一段356號","121.390403333333","25.0765816666667","6501700","林口區"
"244025","837-TS","2018/10/25 18:59:03","新北市林口區文化北路一段370號","121.36202","25.074855","6501700","林口區"
"243013","AAD-798","2018/10/25 18:58:54","新北市泰山區明志路三段206巷17號","121.422921666667","25.0377283333333","6501600","泰山區"
"243009","297-R6","2018/10/25 18:58:59","新北市泰山區泰林路二段353號","121.428293333333","25.0636433333333","6501600","泰山區"
"243016","KEA-2801","2018/10/25 18:59:00","新北市泰山區明志路二段137號","121.427705","25.05068","6501600","泰山區"
"243015","421-VK","2018/10/25 18:59:01","新北市泰山區泰林路二段256號","121.431926666667","25.06223","6501600","泰山區"
"243011","KEA-2215","2018/10/25 18:58:59","新北市泰山區明志路二段246-1號","121.426826666667","25.0482383333333","6501600","泰山區"
"243010","KEA-2216","2018/10/25 18:58:51","新北市泰山區辭修路24號","121.42902","25.058135","6501600","泰山區"
"243012","646-TV","2018/10/25 18:59:05","新北市泰山區福興三街156號","121.433078333333","25.0571816666667","6501600","泰山區"
"243014","680-BX","2018/10/25 18:59:03","新北市泰山區黎明路3號","121.421195","25.063285","6501600","泰山區"
"222003","436-BY","2018/10/25 18:58:53","新北市深坑區深南路51-1號","121.621435","25.01022","6501800","深坑區"
"222002","659-BX","2018/10/25 18:58:57","新北市深坑區文山路一段33號","121.629481666667","25.0038783333333","6501800","深坑區"
"231041","002-UM","2018/10/25 18:58:54","新北市新店區環河路66號","121.537003333333","24.9628183333333","6500600","新店區"
"231059","046-UY","2018/10/25 18:59:07","新北市新店區安華路28-1號","121.51981","24.960955","6500600","新店區"
"231040","047-UY","2018/10/25 18:59:03","新北市新店區中央路13號","121.533311666667","24.97845","6500600","新店區"
"231046","107-UY","2018/10/25 18:58:59","新北市新店區直潭四街46號","121.533223333333","24.941445","6500600","新店區"
"231052","108-UY","2018/10/25 18:58:59","新北市新店區屈尺路60號","121.547323333333","24.9227766666667","6500600","新店區"
"231047","187-VK","2018/10/25 18:59:02","新北市新店區德正街23巷6號","121.54436","24.971995","6500600","新店區"
"231062","188-VK","2018/10/25 18:58:54","新北市新店區安豐路22巷18號","121.502563333333","24.9544466666667","6500600","新店區"
"231054","KEA-2219","2018/10/25 18:58:53","新北市新店區新店路13號","121.540341666667","24.9528333333333","6500600","新店區"
"231057","256-BX","2018/10/25 18:59:07","新北市新店區花園一路一段2號","121.553096666667","24.9324333333333","6500600","新店區"
"231042","268-BY","2018/10/25 18:59:05","新北市新店區北新路一段126巷25號","121.543195","24.9698666666667","6500600","新店區"
"231051","278-BY","2018/10/25 18:58:52","新北市新店區百忍街22號","121.534236666667","24.9757416666667","6500600","新店區"
"231050","AAD-862","2018/10/25 18:58:59","新北市新店區北宜路二段56巷3弄1號","121.549191666667","24.950845","6500600","新店區"
"231058","3713-VJ","2018/10/25 18:58:53","新北市新店區中正路1巷2號","121.545656666667","24.9689316666667","6500600","新店區"
"231066","4716-K9","2018/10/25 18:59:00","新北市新店區安豐路48號","121.50055","24.9541916666667","6500600","新店區"
"231056","4715-K9","2018/10/25 18:59:04","新北市新店區建國路218號","121.537788333333","24.9810933333333","6500600","新店區"
"231067","4772-VM","2018/10/25 18:58:58","新北市新店區安康路一段293號","121.522593333333","24.963695","6500600","新店區"
"231065","512-UM","2018/10/25 18:58:54","新北市新店區安祥路160號","121.477186666667","24.9561333333333","6500600","新店區"
"231049","513-UM","2018/10/25 18:58:56","新北市新店區中正路454-5號","121.53444","24.9790416666667","6500600","新店區"
"231045","617-UM","2018/10/25 18:58:55","新北市新店區北新路一段2-16號","121.538401666667","24.960035","6500600","新店區"
"231044","618-UM","2018/10/25 18:58:51","新北市新店區寶中路72號","121.547821666667","24.9805816666667","6500600","新店區"
"231061","619-UM","2018/10/25 18:59:01","新北市新店區安華路28-1號","121.519481666667","24.96088","6500600","新店區"
"231063","641-BX","2018/10/25 18:59:00","新北市新店區安華路30巷1號","121.519421666667","24.9595616666667","6500600","新店區"
"231064","719-UM","2018/10/25 18:58:54","新北市新店區安一路一段1-1號","121.519403333333","24.961365","6500600","新店區"
"231060","897-TW","2018/10/25 18:59:05","新北市新店區安忠路57巷11弄6號","121.514381666667","24.95757","6500600","新店區"
"231043","899-TW","2018/10/25 18:58:51","新北市新店區北新路一段341號","121.541986666667","24.968855","6500600","新店區"
"231055","AKT-0513","2018/10/25 18:59:04","新北市新店區北新路一段271巷8號","121.540515","24.9667983333333","6500600","新店區"
"241026","066-VK","2018/10/25 18:58:51","新北市三重區泉州街106號","121.49488","25.053715","6500200","三重區"
"251014","742-BX","2018/10/25 18:58:59","新北市淡水區小中寮21號","121.488788333333","25.2288983333333","6501000","淡水區"
"241035","462-BY","2018/10/25 18:58:51","新北市三重區捷運路36號","121.483511666667","25.0538583333333","6500200","三重區"
"235066","003-UY","2018/10/25 18:59:02","新北市中和區中山路二段131巷5弄14號","121.503268333333","25.0031266666667","6500300","中和區"
"235064","005-UY","2018/10/25 18:59:02","新北市中和區泰和街27號","121.499338333333","24.99996","6500300","中和區"
"235063","006-UY","2018/10/25 18:58:50","新北市中和區中正路517號","121.488113333333","24.9943416666667","6500300","中和區"
"235056","096-UM","2018/10/25 18:58:56","新北市中和區員山路466巷23號","121.481126666667","25.0065033333333","6500300","中和區"
"235039","097-UM","2018/10/25 18:59:06","新北市中和區自強路38巷7號","121.519808333333","24.9954433333333","6500300","中和區"
"235065","098-UM","2018/10/25 18:58:58","新北市中和區中山路二段2巷93號","121.500541666667","25.0077766666667","6500300","中和區"
"235040","150-BY","2018/10/25 18:58:59","新北市中和區宜安路1巷30弄12號","121.511981666667","24.9941083333333","6500300","中和區"
"235058","151-BY","2018/10/25 18:59:03","新北市中和區員山路86號","121.480908333333","24.9942516666667","6500300","中和區"
"235055","183-VK","2018/10/25 18:59:02","新北市中和區民德路23號","121.46897","25.0026833333333","6500300","中和區"
"235038","185-VK","2018/10/25 18:58:55","新北市中和區立人街24-5號","121.518846666667","24.9941616666667","6500300","中和區"
"235049","186-VK","2018/10/25 18:58:59","新北市中和區景安路177巷36號","121.507045","24.9944416666667","6500300","中和區"
"235067","255-BX","2018/10/25 18:59:02","新北市中和區民樂路78號","121.484513333333","25.0011566666667","6500300","中和區"
"235044","293-VK","2018/10/25 18:58:53","新北市中和區中興街161巷6弄2號","121.50073","24.9908633333333","6500300","中和區"
"235072","301-VK","2018/10/25 18:58:54","新北市中和區中山路二段258號","121.497628333333","25.0025483333333","6500300","中和區"
"235043","352-BY","2018/10/25 18:59:06","新北市中和區成功路41巷1號","121.526138333333","24.9933333333333","6500300","中和區"
"247012","KEA-2869","2018/10/25 18:58:57","新北市五股區新五路二段279號","121.44288","25.0860583333333","6501400","蘆洲區"
"235050","4979-A6","2018/10/25 18:58:59","新北市中和區忠孝街58巷7號","121.512056666667","24.9833566666667","6500300","中和區"
"235069","4980-A6","2018/10/25 18:58:53","新北市中和區景平路620號","121.500598333333","24.99708","6500300","中和區"
"235042","551-UM","2018/10/25 18:58:58","新北市中和區秀朗路三段78巷1弄9號","121.525561666667","24.9937266666667","6500300","中和區"
"235070","558-UM","2018/10/25 18:58:51","新北市中和區安和路159號","121.50616","24.99741","6500300","中和區"
"235045","565-BX","2018/10/25 18:58:49","新北市中和區景新街467巷20弄92號","121.514371666667","24.9877983333333","6500300","中和區"
"235054","640-BX","2018/10/25 18:58:50","新北市中和區民享街2巷2號","121.473778333333","25.00589","6500300","中和區"
"235060","647-TV","2018/10/25 18:59:02","新北市中和區民治街140號","121.47538","25.0019466666667","6500300","中和區"
"235047","732-UM","2018/10/25 18:58:48","新北市中和區興南路二段54巷9弄2號","121.505988333333","24.98556","6500300","中和區"
"235046","733-UM","2018/10/25 18:58:56","新北市中和區興南路一段156號","121.508326666667","24.986725","6500300","中和區"
"235071","783-BX","2018/10/25 18:58:55","新北市中和區員山路36巷16-2號","121.485295","24.9911833333333","6500300","中和區"
"235062","800-TS","2018/10/25 18:58:57","新北市中和區橋安街1號","121.49278","25.003045","6500300","中和區"
"235057","801-TS","2018/10/25 18:58:49","新北市中和區民利街60號","121.479023333333","24.9987066666667","6500300","中和區"
"235041","802-TS","2018/10/25 18:58:50","新北市中和區宜安路66號","121.511555","24.997105","6500300","中和區"
"235052","805-TS","2018/10/25 18:59:03","新北市中和區興南路二段256號","121.502938333333","24.98173","6500300","中和區"
"235048","896-TW","2018/10/25 18:58:51","新北市中和區華新街95號","121.508613333333","24.983075","6500300","中和區"
"235053","900-TW","2018/10/25 18:59:07","新北市中和區壽德街25號","121.466368333333","24.994895","6500300","中和區"
"235051","157-BY","2018/10/25 18:58:57","新北市中和區忠孝街11巷1號","121.50987","24.9831683333333","6500300","中和區"
"235037","AAC-213","2018/10/25 18:58:58","新北市中和區自立路41號","121.522048333333","24.9952233333333","6500300","中和區"
"235059","AAC-215","2018/10/25 18:59:01","新北市中和區圓通路367巷18-5號","121.491906666667","24.9885716666667","6500300","中和區"
"220035","015-TV","2018/10/25 18:58:56","新北市板橋區中正路341巷35號","121.454196666667","25.0197166666667","6500100","板橋區"
"220065","072-UY","2018/10/25 18:59:04","新北市板橋區漢生東路340巷10號","121.47147","25.0073483333333","6500100","板橋區"
"220086","073-UY","2018/10/25 18:58:51","新北市板橋區中正路218號","121.455843333333","25.0184216666667","6500100","板橋區"
"220106","075-UY","2018/10/25 18:59:04","新北市板橋區文化路二段124巷24號","121.471146666667","25.02571","6500100","板橋區"
"220069","AAD-861","2018/10/25 18:58:54","新北市板橋區縣民大道一段108號","121.457041666667","25.0057083333333","6500100","板橋區"
"226004","312-R5","2018/10/25 18:58:58","新北市平溪區平溪里平溪街22號","121.738823333333","25.0253266666667","6502400","平溪區"
"228001","212-TW","2018/10/25 18:59:06","新北市貢寮區仁理村研海街12-1號","121.923755","25.0516483333333","6502600","貢寮區"
"228002","585-TW","2018/10/25 18:58:55","新北市貢寮區福隆里東興街106巷25弄1號","121.94643","25.0183316666667","6502600","貢寮區"
"228003","828-UM","2018/10/25 18:59:05","新北市貢寮區和美里龍洞街52-1號","121.911775","25.1133033333333","6502600","貢寮區"
"224010","AGQ-8101","2018/10/25 18:59:01","新北市瑞芳區基山街79-1號","121.844961666667","25.1083466666667","6501200","瑞芳區"
"224006","676-BX","2018/10/25 18:59:06","新北市瑞芳區中正路4號","121.808858333333","25.10704","6501200","瑞芳區"
"224002","639-TC","2018/10/25 18:59:07","新北市瑞芳區靜安路四段10號","121.795971666667","25.0866116666667","6501200","瑞芳區"
"224007","275-VK","2018/10/25 18:59:05","新北市瑞芳區中央路48巷180號","121.758136666667","25.1033233333333","6501200","瑞芳區"
"224009","273-VK","2018/10/25 18:58:55","新北市瑞芳區洞頂路160號","121.861466666667","25.1177033333333","6501200","瑞芳區"
"224008","272-VK","2018/10/25 18:59:01","新北市瑞芳區逢甲路402號","121.797615","25.113445","6501200","瑞芳區"
"224005","271-BY","2018/10/25 18:59:01","新北市瑞芳區海濱路77-10號","121.831171666667","25.12341","6501200","瑞芳區"
"227004","642-TC","2018/10/25 18:58:58","新北市雙溪區平林里康福家園10號","121.85871","25.037285","6502500","雙溪區"
"227010","400-TW","2018/10/25 18:59:02","新北市雙溪區牡丹里中正路58巷23號","121.866468333333","25.04162","6502500","雙溪區"
"253006","032-BX","2018/10/25 18:58:49","新北市石門區八甲4-3號","121.520955","25.2830083333333","6502200","石門區"
"253005","295-VK","2018/10/25 18:59:03","新北市石門區中央路32號","121.567961666667","25.2924216666667","6502200","石門區"
"222001","KEA-2212","2018/10/25 18:59:04","新北市深坑區北深路一段232號","121.630315","25.0089933333333","6501800","深坑區"
"208002","KEA-2872","2018/10/25 18:58:53","新北市金山區仁愛路37-23號","121.63563","25.2204216666667","6502700","金山區"
"208003","665-BX","2018/10/25 18:58:53","新北市金山區中正路27號","121.635355","25.222115","6502700","金山區"
"208001","761-BX","2018/10/25 18:58:48","新北市金山區中山路16號","121.641531666667","25.2176116666667","6502700","金山區"
"251009","008-UM","2018/10/25 18:59:02","新北市淡水區建設街1巷1-1號","121.439193333333","25.1727766666667","6501000","淡水區"
"251001","011-UM","2018/10/25 18:59:07","新北市淡水區自強路60號","121.463123333333","25.1275716666667","6501000","淡水區"
"251013","KEA-2871","2018/10/25 18:58:59","新北市淡水區安子內12-1號","121.481528333333","25.2191066666667","6501000","淡水區"
"251016","179-VK","2018/10/25 18:58:56","新北市淡水區淡金路三段331巷10號","121.448435","25.2059533333333","6501000","淡水區"
"251015","180-VK","2018/10/25 18:58:52","新北市淡水區糞箕湖60號","121.48521","25.1722816666667","6501000","淡水區"
"251010","413-VK","2018/10/25 18:58:58","新北市淡水區中正路二段22巷22號","121.42087","25.1819733333333","6501000","淡水區"
"251007","442-VK","2018/10/25 18:58:52","新北市淡水區民生路113巷1弄40號","121.463098333333","25.1386683333333","6501000","淡水區"
"251002","672-BX","2018/10/25 18:59:06","新北市淡水區學府路6號","121.447458333333","25.1678216666667","6501000","淡水區"
"251003","766-UM","2018/10/25 18:59:08","新北市淡水區中山北路一段149巷31號","121.443015","25.1779216666667","6501000","淡水區"
"207003","550-UM","2018/10/25 18:59:02","新北市萬里區大鵬里頂社40號","121.656085","25.211325","6502800","萬里區"
"207004","225-TW","2018/10/25 18:58:55","新北市萬里區萬里里獅頭路23號","121.693285","25.178275","6502800","萬里區"
"252002","178-VK","2018/10/25 18:58:53","新北市三芝區中正路一段68號","121.503765","25.2577283333333","6502100","三芝區"
"252003","249-BX","2018/10/25 18:59:01","新北市三芝區後厝里北勢子42-11號","121.471621666667","25.2520483333333","6502100","三芝區"
"252001","292-VK","2018/10/25 18:58:56","新北市三芝區中興街二段260號","121.501711666667","25.25304","6502100","三芝區"
"237004","KEA-2597","2018/10/25 18:59:03","新北市三峽區有木189號","121.449728333333","24.8424716666667","6500900","三峽區"
"237007","153-BY","2018/10/25 18:58:57","新北市三峽區大埔路161號","121.366646666667","24.905595","6500900","三峽區"
"237013","252-BX","2018/10/25 18:59:02","新北市三峽區光明路69巷25號","121.376553333333","24.9291616666667","6500900","三峽區"
"237012","275-BY","2018/10/25 18:58:54","新北市三峽區三樹路222巷192-9號","121.388226666667","24.9418333333333","6500900","三峽區"
"237008","302-VK","2018/10/25 18:58:50","新北市三峽區白雞33-60號","121.370891666667","24.91314","6500900","三峽區"
"237014","433-BY","2018/10/25 18:58:55","新北市三峽區隆恩街158巷68號","121.364765","24.9449133333333","6500900","三峽區"
"237006","5529-G3","2018/10/25 18:59:06","新北市三峽區溪東路233巷47弄2號","121.411215","24.9350116666667","6500900","三峽區"
"237011","KEA-2596","2018/10/25 18:59:00","新北市三峽區介壽路三段146號","121.401026666667","24.943145","6500900","三峽區"
"237016","649-BX","2018/10/25 18:58:52","新北市三峽區建安80-2號","121.451413333333","24.923235","6500900","三峽區"
"237010","706-TV","2018/10/25 18:59:00","新北市三峽區復興路449號","121.362601666667","24.9385083333333","6500900","三峽區"
"237005","AKY-6261","2018/10/25 18:59:05","新北市三峽區中山路459巷137號","121.350143333333","24.9338433333333","6500900","三峽區"
"236070","105-UM","2018/10/25 18:58:58","新北市土城區清水路99巷13號","121.456825","24.9824116666667","6501300","土城區"
"236078","166-UM","2018/10/25 18:58:51","新北市土城區中央路四段281-13號","121.41177","24.95297","6501300","土城區"
"236030","253-BX","2018/10/25 18:58:53","新北市土城區慶利街37號","121.439011666667","24.9744066666667","6501300","土城區"
"236026","269-VK","2018/10/25 18:59:04","新北市土城區中央路二段252號","121.44191","24.9747216666667","6501300","土城區"
"236014","270-VK","2018/10/25 18:59:10","新北市土城區延和路13巷1號","121.46354","24.9884333333333","6501300","土城區"
"236038","271-VK","2018/10/25 18:58:55","新北市土城區青仁路60號","121.4615","24.9793566666667","6501300","土城區"
"236021","401-BY","2018/10/25 18:59:06","新北市土城區德峰街41巷6號","121.46792","24.9860566666667","6501300","土城區"
"236042","752-BX","2018/10/25 18:57:01","新北市土城區學府路一段223號","121.451291666667","24.98427","6501300","土城區"
"236059","912-UM","2018/10/25 18:58:48","新北市土城區明德路一段385-1號","121.452871666667","24.98021","6501300","土城區"
"236049","913-UM","2018/10/25 18:59:03","新北市土城區青雲路318號","121.458903333333","24.977225","6501300","土城區"
"236063","915-UM","2018/10/25 18:58:56","新北市土城區延和路41巷6弄16號","121.46666","24.9902416666667","6501300","土城區"
"236055","AAC-216","2018/10/25 18:59:04","新北市土城區學成路147號","121.4487","24.9895083333333","6501300","土城區"
"238023","601-UM","2018/10/25 18:58:58","新北市樹林區大慶街102號","121.395928333333","25.01353","6500700","樹林區"
"238019","599-UM","2018/10/25 18:58:52","新北市樹林區東華街33號","121.415121666667","24.9818116666667","6500700","樹林區"
"238022","KEA-2213","2018/10/25 18:58:53","新北市樹林區東興街14-2號","121.410045","24.97847","6500700","樹林區"
"238021","KEA-2539","2018/10/25 18:59:03","新北市樹林區柑園街二段276巷38號","121.371903333333","24.95355","6500700","樹林區"
"238025","303-VK","2018/10/25 18:58:55","新北市樹林區中山路三段72號","121.393678333333","24.9723633333333","6500700","樹林區"
"238017","283-BY","2018/10/25 18:58:55","新北市樹林區大安路405號","121.415573333333","24.98908","6500700","樹林區"
"238014","282-BY","2018/10/25 18:59:02","新北市樹林區潭興街143巷15號","121.425266666667","24.9999083333333","6500700","樹林區"
"238020","268-VK","2018/10/25 18:58:56","新北市樹林區俊英街79號","121.42606","25.0075633333333","6500700","樹林區"
"238026","172-UY","2018/10/25 18:58:59","新北市樹林區中和街6號","121.391805","24.9729016666667","6500700","樹林區"
"238016","169-UY","2018/10/25 18:58:05","新北市樹林區文化街22號","121.419553333333","24.9877516666667","6500700","樹林區"
"239007","AAC-297","2018/10/25 18:59:08","新北市鶯歌區成功街40號","121.358133333333","24.9577333333333","6500800","鶯歌區"
"239008","527-UM","2018/10/25 18:59:03","新北市鶯歌區國際二路28號","121.33605","24.9752083333333","6500800","鶯歌區"
"239005","526-UM","2018/10/25 18:58:51","新北市鶯歌區鳳吉一街124號","121.327798333333","24.97478","6500800","鶯歌區"
"239001","417-VK","2018/10/25 18:59:07","新北市鶯歌區永明街60巷9號","121.34068","24.9553633333333","6500800","鶯歌區"
"239003","360-BY","2018/10/25 18:58:48","新北市鶯歌區鶯桃路389號","121.333413333333","24.9637516666667","6500800","鶯歌區"
"239004","193-VK","2018/10/25 18:58:50","新北市鶯歌區中正三路271-7號","121.333026666667","24.9377716666667","6500800","鶯歌區"
"221036","130-UY","2018/10/25 18:59:09","新北市汐止區新台五路二段55號","121.663608333333","25.0665533333333","6501100","汐止區"
"221015","131-UY","2018/10/25 18:58:50","新北市汐止區鄉長路一段55巷9號","121.665383333333","25.0760966666667","6501100","汐止區"
"221010","269-BY","2018/10/25 18:59:06","新北市汐止區康寧街901號","121.651438333333","25.0750333333333","6501100","汐止區"
"221012","278-VK","2018/10/25 18:59:06","新北市汐止區康寧街901號","121.650781666667","25.0752733333333","6501100","汐止區"
"221023","279-VK","2018/10/25 18:59:01","新北市汐止區汐萬路一段256巷3號","121.653371666667","25.0746833333333","6501100","汐止區"
"221032","280-BY","2018/10/25 18:59:02","新北市汐止區橫科路403巷18號","121.625601666667","25.047245","6501100","汐止區"
"221029","298-VK","2018/10/25 18:59:06","新北市汐止區樟樹一路236號","121.642281666667","25.066805","6501100","汐止區"
"221021","299-VK","2018/10/25 18:59:02","新北市汐止區康寧街901號","121.651486666667","25.07503","6501100","汐止區"
"221031","353-TW","2018/10/25 18:58:53","新北市汐止區福德二路156巷27號","121.62996","25.0655433333333","6501100","汐止區"
"221035","622-UM","2018/10/25 18:58:58","新北市汐止區汐萬路一段242號","121.651508333333","25.0731316666667","6501100","汐止區"
"221025","623-UM","2018/10/25 18:58:53","新北市汐止區汐萬路一段212號","121.65197","25.0724716666667","6501100","汐止區"
"221038","646-BX","2018/10/25 18:58:47","新北市汐止區汐萬路一段312號","121.650611666667","25.0752983333333","6501100","汐止區"
"221002","707-TV","2018/10/25 18:59:05","新北市汐止區大同路一段2號","121.62103","25.0550916666667","6501100","汐止區"
"221018","753-BX","2018/10/25 18:58:48","新北市汐止區汐萬路一段21號","121.655866666667","25.0675716666667","6501100","汐止區"
"220079","145-BY","2018/10/25 18:59:04","新北市板橋區民權路202巷13弄1號","121.460591666667","25.0159116666667","6500100","板橋區"
"220080","200-UY","2018/10/25 18:58:53","新北市板橋區大觀路二段265巷60弄2號","121.44288","24.9980333333333","6500100","板橋區"
"220082","610-BX","2018/10/25 18:59:01","新北市板橋區溪崑二街89號","121.42717","24.98942","6500100","板橋區"
"220056","276-BY","2018/10/25 18:58:49","新北市板橋區信義路92號","121.457985","24.9929383333333","6500100","板橋區"
"220072","277-BY","2018/10/25 18:58:57","新北市板橋區溪北路142號","121.430131666667","24.9884666666667","6500100","板橋區"
"220101","280-UM","2018/10/25 18:58:56","新北市板橋區文化路二段182巷5弄2號","121.471675","25.0269666666667","6500100","板橋區"
"220094","283-UM","2018/10/25 18:59:00","新北市板橋區文化路二段76號","121.46947","25.0249233333333","6500100","板橋區"
"220071","283-VK","2018/10/25 18:59:05","新北市板橋區忠孝路146號","121.463853333333","25.0024366666667","6500100","板橋區"
"220053","285-VK","2018/10/25 18:58:51","新北市板橋區中山路二段157號","121.475613333333","25.0167483333333","6500100","板橋區"
"220083","286-VK","2018/10/25 18:58:56","新北市板橋區大觀路一段38巷156弄124-2號","121.443281666667","25.0076483333333","6500100","板橋區"
"220081","287-VK","2018/10/25 18:59:02","新北市板橋區光華街36號","121.453813333333","25.0127316666667","6500100","板橋區"
"220090","288-VK","2018/10/25 18:58:52","新北市板橋區四維路139號","121.465046666667","25.0254683333333","6500100","板橋區"
"220061","293-UM","2018/10/25 18:58:50","新北市板橋區富山街109巷87號","121.474913333333","25.0209783333333","6500100","板橋區"
"220062","295-UM","2018/10/25 18:59:03","新北市板橋區中山路二段110號","121.475923333333","25.0166833333333","6500100","板橋區"
"220084","296-UM","2018/10/25 18:58:59","新北市板橋區龍興街63巷2號","121.442998333333","25.0012983333333","6500100","板橋區"
"220075","303-R5","2018/10/25 18:59:01","新北市板橋區後菜園街49號","121.455988333333","25.0099966666667","6500100","板橋區"
"220092","307-R5","2018/10/25 18:58:54","新北市板橋區文化路一段90號","121.464268333333","25.0174766666667","6500100","板橋區"
"220098","317-R6","2018/10/25 18:59:02","新北市板橋區民有街13號","121.466298333333","25.0247483333333","6500100","板橋區"
"220064","486-VK","2018/10/25 18:58:54","新北市板橋區板新路185號","121.469146666667","25.0159183333333","6500100","板橋區"
"220089","487-VK","2018/10/25 18:59:04","新北市板橋區文化路二段362號","121.473051666667","25.030705","6500100","板橋區"
"220088","491-VK","2018/10/25 18:59:06","新北市板橋區民生路二段198號","121.469726666667","25.0208916666667","6500100","板橋區"
"220103","561-BX","2018/10/25 18:58:54","新北市板橋區縣民大道二段279號","121.469926666667","25.0178566666667","6500100","板橋區"
"220063","609-BX","2018/10/25 18:59:09","新北市板橋區中山路二段104號","121.475795","25.0166483333333","6500100","板橋區"
"220091","637-BX","2018/10/25 18:58:58","新北市板橋區莒光路165巷4-4號","121.474006666667","25.0240216666667","6500100","板橋區"
"220057","686-BX","2018/10/25 18:59:03","新北市板橋區重慶路104號","121.462026666667","25.0056216666667","6500100","板橋區"
"220077","687-BX","2018/10/25 18:58:53","新北市板橋區大觀路二段142-1號","121.442671666667","24.999155","6500100","板橋區"
"220093","689-BX","2018/10/25 18:59:00","新北市板橋區民生路三段64號","121.466983333333","25.02556","6500100","板橋區"
"220054","741-BX","2018/10/25 18:59:02","新北市板橋區成都街89號","121.46294","25.0052383333333","6500100","板橋區"
"220102","KEA-2699","2018/10/25 18:59:03","新北市板橋區萬板路710號","121.481988333333","25.0271566666667","6500100","板橋區"
"220055","827-TW","2018/10/25 18:59:06","新北市板橋區民安街30號","121.4669","25.0111666666667","6500100","板橋區"
"220067","829-TW","2018/10/25 18:59:04","新北市板橋區三民路二段正隆巷31號","121.477286666667","25.0133783333333","6500100","板橋區"
"220068","830-TW","2018/10/25 18:59:01","新北市板橋區中山路二段465巷80號","121.481225","25.02243","6500100","板橋區"
"220096","831-TW","2018/10/25 18:59:05","新北市板橋區莒光路95號","121.472363333333","25.0240616666667","6500100","板橋區"
"220074","895-R6","2018/10/25 18:58:51","新北市板橋區林園街59號","121.453616666667","25.0103333333333","6500100","板橋區"
"220073","985-R7","2018/10/25 18:58:47","新北市板橋區民權路216號","121.45882","25.0141083333333","6500100","板橋區"
"220097","AAC-210","2018/10/25 18:58:58","新北市板橋區漢生東路7號","121.464591666667","25.0173883333333","6500100","板橋區"
"220070","AAC-253","2018/10/25 18:59:05","新北市板橋區四川路一段288號","121.458731666667","25.0007116666667","6500100","板橋區"
"235068","KEA-2873","2018/10/25 18:58:58","新北市中和區圓通路291巷3號","121.495368333333","24.9925116666667","6500300","中和區"
"235061","KEA-2875","2018/10/25 18:58:55","新北市中和區民治街136號","121.47531","25.0020966666667","6500300","中和區"
