"lineid","car","time","location","longitude","latitude","cityid","cityname"
"234046","148-BY","2018/10/25 19:29:08","新北市永和區秀朗路二段231號","121.52646","25.0002266666667","6500400","永和區"
"234007","207-UY","2018/10/25 19:29:10","新北市永和區永和路二段6號","121.51452","25.0100583333333","6500400","永和區"
"234081","298-R6","2018/10/25 19:29:09","新北市永和區環河東路三段54號","121.526853333333","25.0062416666667","6500400","永和區"
"234038","336-UY","2018/10/25 19:29:10","新北市永和區民樂街35巷2號","121.527581666667","25.0008983333333","6500400","永和區"
"234064","337-UY","2018/10/25 19:29:15","新北市永和區得和路243巷32號","121.52097","25.0015366666667","6500400","永和區"
"234086","338-UY","2018/10/25 19:29:12","新北市永和區國中路2號","121.524175","25.0042083333333","6500400","永和區"
"234070","552-UM","2018/10/25 19:29:16","新北市永和區警光街5-1號","121.51971","25.00948","6500400","永和區"
"234017","745-BX","2018/10/25 19:29:10","新北市永和區環河西路一段59號","121.513556666667","25.01819","6500400","永和區"
"234030","746-BX","2018/10/25 19:29:10","新北市永和區民生路43號","121.522766666667","24.9980183333333","6500400","永和區"
"234054","KEA-2590","2018/10/25 19:29:11","新北市永和區復興街21號","121.516178333333","25.0130233333333","6500400","永和區"
"234013","KEA-2591","2018/10/25 19:29:13","新北市永和區永和路二段119號","121.514818333333","25.0120266666667","6500400","永和區"
"234061","AAD-866","2018/10/25 19:29:12","新北市永和區中正路514號","121.517326666667","25.0047283333333","6500400","永和區"
"234042","862-TW","2018/10/25 19:28:55","新北市永和區水源街39巷22號","121.510586666667","25.00341","6500400","永和區"
"234050","863-TW","2018/10/25 19:29:11","新北市永和區仁愛路135號","121.511626666667","25.0130066666667","6500400","永和區"
"234026","9371-KE","2018/10/25 19:29:00","新北市永和區中正路3-1號","121.513791666667","24.9955083333333","6500400","永和區"
"234011","9373-KE","2018/10/25 19:28:58","新北市永和區保福路二段9巷9號","121.510511666667","25.0108716666667","6500400","永和區"
"249003","593-UM","2018/10/25 19:29:06","新北市八里區商港六路25號","121.396585","25.148595","6502300","八里區"
"248016","026-BX","2018/10/25 19:29:06","新北市五股區成泰路三段476號","121.451813333333","25.1014333333333","6501500","五股區"
"248008","095-VK","2018/10/25 19:29:05","新北市五股區中興路一段95巷15號","121.466636666667","25.0722466666667","6501500","五股區"
"248017","225-UY","2018/10/25 19:29:05","新北市五股區凌雲路三段59-6號","121.425223333333","25.1249266666667","6501500","五股區"
"248012","247-BX","2018/10/25 19:29:07","新北市五股區成泰路二段97號","121.438013333333","25.0842633333333","6501500","五股區"
"248014","261-SL","2018/10/25 19:29:01","新北市五股區民義路一段157-22號","121.431088333333","25.0867533333333","6501500","五股區"
"248010","272-BY","2018/10/25 19:29:11","新北市五股區水碓一路23號","121.430616666667","25.0713016666667","6501500","五股區"
"248004","677-BX","2018/10/25 19:28:56","新北市五股區五福路39號","121.433366666667","25.0895566666667","6501500","五股區"
"248002","678-BX","2018/10/25 19:29:10","新北市五股區凌雲路一段158巷1號","121.447748333333","25.102995","6501500","五股區"
"234023","9380-KE","2018/10/25 19:28:58","新北市永和區竹林路91巷43弄2號","121.521288333333","25.01283","6500400","永和區"
"234077","969-R7","2018/10/25 19:29:09","新北市永和區民權路58巷3號","121.519535","24.998275","6500400","永和區"
"234074","AAC-211","2018/10/25 19:29:12","新北市永和區竹林路16號","121.51659","25.01488","6500400","永和區"
"234067","AAC-212","2018/10/25 19:29:13","新北市永和區永貞路349號","121.509265","25.0074416666667","6500400","永和區"
"234003","AAC-295","2018/10/25 19:29:06","新北市永和區永和路一段125號","121.51393","25.0083516666667","6500400","永和區"
"244023","069-UM","2018/10/25 19:29:05","新北市林口區民有街30號","121.372118333333","25.07665","6501700","林口區"
"244019","403-UM","2018/10/25 19:28:39","新北市林口區嘉寶里69號","121.333518333333","25.1158966666667","6501700","林口區"
"243013","AAD-798","2018/10/25 19:29:14","新北市泰山區明志路三段145巷5弄32號","121.425766666667","25.04068","6501600","泰山區"
"243009","297-R6","2018/10/25 19:29:14","新北市五股區成泰路一段7巷4號","121.433378333333","25.066685","6501600","泰山區"
"243016","KEA-2801","2018/10/25 19:29:01","新北市泰山區明志路三段197號","121.424103333333","25.03863","6501600","泰山區"
"243015","421-VK","2018/10/25 19:29:01","新北市泰山區民權街15號","121.428345","25.0508533333333","6501600","泰山區"
"243011","KEA-2215","2018/10/25 19:28:59","新北市泰山區貴子路140號","121.428803333333","25.0403816666667","6501600","泰山區"
"243010","KEA-2216","2018/10/25 19:29:08","新北市泰山區民生路17巷11號","121.42991","25.0520933333333","6501600","泰山區"
"243012","646-TV","2018/10/25 19:29:10","新北市泰山區仁愛路64號","121.43221","25.0549533333333","6501600","泰山區"
"243014","680-BX","2018/10/25 19:29:03","新北市泰山區仁愛路6巷55號","121.431735","25.0535333333333","6501600","泰山區"
"222003","436-BY","2018/10/25 19:29:14","新北市深坑區深南路51-1號","121.62133","25.0097583333333","6501800","深坑區"
"222002","659-BX","2018/10/25 19:28:57","新北市深坑區北深路一段177號","121.632566666667","25.0108916666667","6501800","深坑區"
"231041","002-UM","2018/10/25 19:28:54","新北市新店區中正路603號","121.533818333333","24.9884366666667","6500600","新店區"
"231059","046-UY","2018/10/25 19:29:07","新北市新店區安和路三段11-1號","121.517948333333","24.980705","6500600","新店區"
"231040","047-UY","2018/10/25 19:29:07","新北市新店區北新路一段295號","121.540985","24.96741","6500600","新店區"
"231046","107-UY","2018/10/25 19:28:59","新北市新店區中央路177-1號","121.53502","24.969595","6500600","新店區"
"231052","108-UY","2018/10/25 19:28:59","新北市新店區新烏路二段321號","121.549953333333","24.9108133333333","6500600","新店區"
"231047","187-VK","2018/10/25 19:29:02","新北市新店區五峰路111號","121.545208333333","24.9667733333333","6500600","新店區"
"231062","188-VK","2018/10/25 19:29:14","新北市新店區莒光路38巷3號","121.522225","24.9588266666667","6500600","新店區"
"231054","KEA-2219","2018/10/25 19:28:53","新北市新店區文中路40號","121.539745","24.956505","6500600","新店區"
"231057","256-BX","2018/10/25 19:29:04","新北市新店區花園一路三段45號","121.550645","24.932815","6500600","新店區"
"231042","268-BY","2018/10/25 19:29:04","新北市新店區中興路一段56號","121.53917","24.9594916666667","6500600","新店區"
"231051","278-BY","2018/10/25 19:29:12","新北市新店區中央五街84號","121.52641","24.97607","6500600","新店區"
"231050","AAD-862","2018/10/25 19:28:59","新北市新店區竹林路94號","121.55379","24.9498933333333","6500600","新店區"
"231058","3713-VJ","2018/10/25 19:29:13","新北市新店區北新路二段228巷2號","121.543233333333","24.9772833333333","6500600","新店區"
"231066","4716-K9","2018/10/25 19:29:01","新北市新店區安康路三段355巷2號","121.484606666667","24.9505616666667","6500600","新店區"
"231067","4772-VM","2018/10/25 19:28:58","新北市新店區安康路二段414巷2號","121.495896666667","24.9577416666667","6500600","新店區"
"231065","512-UM","2018/10/25 19:29:13","新北市新店區安祥路109巷1弄95號","121.478891666667","24.9603","6500600","新店區"
"231049","513-UM","2018/10/25 19:29:16","新北市新店區北新路三段65巷34弄28號","121.540113333333","24.9819416666667","6500600","新店區"
"231045","617-UM","2018/10/25 19:29:15","新北市新店區北宜路二段213號","121.553218333333","24.9533266666667","6500600","新店區"
"231044","618-UM","2018/10/25 19:29:11","新北市新店區中興路三段136號","121.544556666667","24.979985","6500600","新店區"
"231061","619-UM","2018/10/25 19:29:01","新北市新店區安康路一段285號","121.52324","24.9636233333333","6500600","新店區"
"231063","641-BX","2018/10/25 19:29:00","新北市新店區達觀路16號","121.50331","24.94051","6500600","新店區"
"231064","719-UM","2018/10/25 19:28:54","新北市新店區安忠路57巷9弄2號","121.513513333333","24.9582666666667","6500600","新店區"
"231060","897-TW","2018/10/25 19:29:05","新北市新店區安康路二段51號","121.514291666667","24.9634316666667","6500600","新店區"
"231043","899-TW","2018/10/25 19:29:11","新北市新店區北新路二段226號","121.542826666667","24.9772966666667","6500600","新店區"
"241008","059-VK","2018/10/25 19:29:10","新北市三重區永福街135巷33號","121.477496666667","25.0772066666667","6500200","三重區"
"241022","060-VK","2018/10/25 19:28:57","新北市三重區三民街175巷1號","121.483688333333","25.065255","6500200","三重區"
"241031","061-VK","2018/10/25 19:29:13","新北市三重區集美街61號","121.48843","25.0544033333333","6500200","三重區"
"241017","063-VK","2018/10/25 19:29:04","新北市三重區大仁街23號","121.491965","25.06456","6500200","三重區"
"241026","066-VK","2018/10/25 19:29:11","新北市三重區文化南路47巷37號","121.49926","25.0611283333333","6500200","三重區"
"251014","742-BX","2018/10/25 19:28:59","新北市淡水區小中寮19-7號","121.484746666667","25.2295883333333","6501000","淡水區"
"241009","265-UM","2018/10/25 19:29:06","新北市三重區溪尾街242巷66號","121.486213333333","25.0814566666667","6500200","三重區"
"241032","269-UM","2018/10/25 19:29:08","新北市三重區三陽路115號","121.48363","25.0587883333333","6500200","三重區"
"241013","270-UM","2018/10/25 19:29:11","新北市三重區仁賢街12-1號","121.495645","25.0749066666667","6500200","三重區"
"241025","271-UM","2018/10/25 19:28:56","新北市三重區頂崁街210巷27號","121.475781666667","25.068135","6500200","三重區"
"241007","398-BY","2018/10/25 19:29:04","新北市三重區慈愛街141號","121.489115","25.0799983333333","6500200","三重區"
"241035","462-BY","2018/10/25 19:29:11","新北市三重區信義西街1巷1號","121.498025","25.0648833333333","6500200","三重區"
"241020","478-VK","2018/10/25 19:28:59","新北市三重區三和路四段20巷9號","121.490548333333","25.0739783333333","6500200","三重區"
"241030","480-VK","2018/10/25 19:29:12","新北市三重區成功路41巷13號","121.490346666667","25.0515433333333","6500200","三重區"
"241006","AAD-863","2018/10/25 19:29:01","新北市三重區三和路四段95號","121.487935","25.0759916666667","6500200","三重區"
"241028","887-TS","2018/10/25 19:29:02","新北市三重區中寮街90號","121.493221666667","25.0580183333333","6500200","三重區"
"241029","942-UM","2018/10/25 19:29:02","新北市三重區中正南路216號","121.493828333333","25.055105","6500200","三重區"
"235066","003-UY","2018/10/25 19:29:02","新北市中和區景新街48號","121.503748333333","24.9991966666667","6500300","中和區"
"235064","005-UY","2018/10/25 19:29:02","新北市中和區南山路81巷56號","121.503903333333","24.9981433333333","6500300","中和區"
"235063","006-UY","2018/10/25 19:29:10","新北市中和區連城路223號","121.494203333333","24.997595","6500300","中和區"
"235056","096-UM","2018/10/25 19:28:56","新北市中和區民富街11號","121.476495","25.00727","6500300","中和區"
"235039","097-UM","2018/10/25 19:29:06","新北市中和區秀峰街103巷6弄2號","121.520343333333","24.98981","6500300","中和區"
"235065","098-UM","2018/10/25 19:28:58","新北市中和區中山路二段64巷14弄20號","121.504121666667","25.005985","6500300","中和區"
"235040","150-BY","2018/10/25 19:29:12","新北市中和區宜安路116號","121.510358333333","24.997965","6500300","中和區"
"235058","151-BY","2018/10/25 19:29:03","新北市中和區連城路469巷7號","121.483593333333","24.9956466666667","6500300","中和區"
"235055","183-VK","2018/10/25 19:29:02","新北市中和區國光街38號","121.471103333333","25.00038","6500300","中和區"
"235038","185-VK","2018/10/25 19:29:00","新北市中和區立人街9號","121.521708333333","24.9940833333333","6500300","中和區"
"235049","186-VK","2018/10/25 19:29:09","新北市中和區景新街285巷16號","121.510506666667","24.9936166666667","6500300","中和區"
"235067","255-BX","2018/10/25 19:29:02","新北市中和區連城路340巷8弄1號","121.482711666667","24.9963183333333","6500300","中和區"
"235044","293-VK","2018/10/25 19:29:13","新北市中和區捷運路185號","121.505428333333","24.99145","6500300","中和區"
"235072","301-VK","2018/10/25 19:29:14","新北市中和區連城路265巷10弄1號","121.491691666667","24.9952316666667","6500300","中和區"
"235043","352-BY","2018/10/25 19:29:06","新北市中和區景新街133號","121.505895","24.9972616666667","6500300","中和區"
"235050","4979-A6","2018/10/25 19:28:59","新北市中和區中正路161巷6號","121.498686666667","24.99348","6500300","中和區"
"235042","551-UM","2018/10/25 19:28:58","新北市中和區中和路350巷15弄12號","121.510891666667","25.0011683333333","6500300","中和區"
"235070","558-UM","2018/10/25 19:29:11","新北市中和區圓通路53號","121.500766666667","24.997495","6500300","中和區"
"235045","565-BX","2018/10/25 19:29:09","新北市中和區景新街385-2號","121.512626666667","24.9903616666667","6500300","中和區"
"235054","640-BX","2018/10/25 19:29:10","新北市中和區國光街112巷24弄2號","121.470646666667","25.0024033333333","6500300","中和區"
"235060","647-TV","2018/10/25 19:29:02","新北市中和區中山路二段523巷41號","121.482201666667","25.00322","6500300","中和區"
"235047","732-UM","2018/10/25 19:29:08","新北市中和區景平路241巷44號","121.508348333333","24.9923783333333","6500300","中和區"
"235046","733-UM","2018/10/25 19:29:16","新北市中和區忠孝街37巷67號","121.510643333333","24.9846433333333","6500300","中和區"
"235071","783-BX","2018/10/25 19:28:55","新北市中和區連城路469巷6號","121.48355","24.9954866666667","6500300","中和區"
"235057","801-TS","2018/10/25 19:29:09","新北市中和區員山路424號","121.48022","25.00525","6500300","中和區"
"235041","802-TS","2018/10/25 19:29:10","新北市中和區中安街98-1號","121.511696666667","25.0011833333333","6500300","中和區"
"235052","805-TS","2018/10/25 19:29:11","新北市中和區華新街143巷65弄2號","121.506683333333","24.9789616666667","6500300","中和區"
"235048","896-TW","2018/10/25 19:29:11","新北市中和區忠孝街113巷2號","121.512591666667","24.9875683333333","6500300","中和區"
"235053","900-TW","2018/10/25 19:29:07","新北市中和區華順街57號","121.466486666667","24.9985166666667","6500300","中和區"
"235051","157-BY","2018/10/25 19:29:01","新北市中和區景新街132巷1號","121.505128333333","24.9979066666667","6500300","中和區"
"235037","AAC-213","2018/10/25 19:28:58","新北市中和區秀朗路三段10巷14弄44號","121.524426666667","24.99646","6500300","中和區"
"235059","AAC-215","2018/10/25 19:29:01","新北市中和區圓通路252巷6號","121.493111666667","24.991715","6500300","中和區"
"220035","015-TV","2018/10/25 19:28:56","新北市板橋區中正路399巷26號","121.453196666667","25.0226466666667","6500100","板橋區"
"220065","072-UY","2018/10/25 19:29:04","新北市板橋區國泰街111巷17號","121.466151666667","25.0059133333333","6500100","板橋區"
"220086","073-UY","2018/10/25 19:29:11","新北市板橋區中正路236巷118號","121.459443333333","25.0196666666667","6500100","板橋區"
"220106","075-UY","2018/10/25 19:29:05","新北市板橋區長江路三段78號","121.474168333333","25.0338366666667","6500100","板橋區"
"220069","AAD-861","2018/10/25 19:29:14","新北市板橋區稚暉街46巷1號","121.45631","25.0043033333333","6500100","板橋區"
"247004","002-UY","2018/10/25 19:28:54","新北市蘆洲區長安街247號","121.459071666667","25.0832716666667","6501400","蘆洲區"
"226004","312-R5","2018/10/25 19:28:58","新北市平溪區十分里十分街157號","121.777736666667","25.0433566666667","6502400","平溪區"
"228001","212-TW","2018/10/25 19:29:06","新北市貢寮區真理里延平街68-2號","121.925391666667","25.057465","6502600","貢寮區"
"228002","585-TW","2018/10/25 19:28:55","新北市貢寮區龍門里龍門街51-4號","121.932371666667","25.0261116666667","6502600","貢寮區"
"228003","828-UM","2018/10/25 19:29:05","新北市貢寮區和美里和美街19-2號","121.9128","25.082605","6502600","貢寮區"
"224010","AGQ-8101","2018/10/25 19:29:00","新北市瑞芳區基山街136號","121.84376","25.1081766666667","6501200","瑞芳區"
"224008","272-VK","2018/10/25 19:29:10","新北市瑞芳區一坑路173-3號","121.801703333333","25.107985","6501200","瑞芳區"
"227004","642-TC","2018/10/25 19:29:00","新北市雙溪區雙溪里光復街10號","121.864985","25.0352716666667","6502500","雙溪區"
"227010","400-TW","2018/10/25 19:29:01","新北市雙溪區新基里新基北街43號","121.868058333333","25.0396716666667","6502500","雙溪區"
"253006","032-BX","2018/10/25 19:29:09","新北市石門區老崩山7號","121.553498333333","25.2914983333333","6502200","石門區"
"253005","295-VK","2018/10/25 19:29:09","新北市石門區小坑9號","121.594385","25.28837","6502200","石門區"
"222001","KEA-2212","2018/10/25 19:29:04","新北市深坑區北深路二段121號","121.6167","25.0031016666667","6501800","深坑區"
"208002","KEA-2872","2018/10/25 19:29:13","新北市金山區仁愛路87巷1號","121.63453","25.22155","6502700","金山區"
"208003","665-BX","2018/10/25 19:29:12","新北市金山區中山路263巷14號","121.636373333333","25.221575","6502700","金山區"
"208001","761-BX","2018/10/25 19:29:08","新北市金山區中正路6號","121.636531666667","25.2223916666667","6502700","金山區"
"251009","008-UM","2018/10/25 19:29:02","新北市淡水區中山路141號","121.440748333333","25.171915","6501000","淡水區"
"251005","010-UM","2018/10/25 19:29:01","新北市淡水區水源街一段71巷11號","121.44443","25.1728883333333","6501000","淡水區"
"251001","011-UM","2018/10/25 19:29:07","新北市淡水區民權路177號","121.459773333333","25.1353116666667","6501000","淡水區"
"251013","KEA-2871","2018/10/25 19:28:59","新北市淡水區安子內18號","121.47272","25.218905","6501000","淡水區"
"251016","179-VK","2018/10/25 19:29:16","新北市淡水區下圭柔山119-51號","121.45065","25.2085316666667","6501000","淡水區"
"251015","180-VK","2018/10/25 19:29:11","新北市淡水區山子頂24-1號","121.491385","25.1872066666667","6501000","淡水區"
"251008","181-VK","2018/10/25 19:29:11","新北市淡水區中正路一段55號","121.424268333333","25.1775133333333","6501000","淡水區"
"251010","413-VK","2018/10/25 19:28:58","新北市淡水區淡海路242號","121.420148333333","25.18683","6501000","淡水區"
"251007","442-VK","2018/10/25 19:29:12","新北市淡水區民生路117巷46號","121.464908333333","25.14003","6501000","淡水區"
"251006","561-UM","2018/10/25 19:29:13","新北市淡水區大義街48號","121.44184","25.17836","6501000","淡水區"
"251011","650-BX","2018/10/25 19:29:07","新北市淡水區中正東路二段143巷2弄1號","121.460715","25.1473033333333","6501000","淡水區"
"207003","550-UM","2018/10/25 19:29:04","新北市萬里區大鵬里萬里加投191-12號","121.644633333333","25.2143383333333","6502800","萬里區"
"207004","225-TW","2018/10/25 19:29:15","新北市萬里區萬里里瑪鋉路127-8號","121.68889","25.1777283333333","6502800","萬里區"
"252002","178-VK","2018/10/25 19:29:13","新北市三芝區淡金路二段18-1號","121.502676666667","25.2595433333333","6502100","三芝區"
"252001","292-VK","2018/10/25 19:29:16","新北市三芝區長勤街63-1號","121.50005","25.256085","6502100","三芝區"
"237004","KEA-2597","2018/10/25 19:29:03","新北市三峽區有木205-1號","121.439055","24.8514833333333","6500900","三峽區"
"237007","153-BY","2018/10/25 19:28:57","新北市三峽區二鬮路136巷2弄37號","121.359548333333","24.909115","6500900","三峽區"
"237009","210-TH","2018/10/25 19:29:09","新北市三峽區民權街28號","121.369978333333","24.93425","6500900","三峽區"
"237013","252-BX","2018/10/25 19:29:02","新北市三峽區介壽路一段237號","121.379503333333","24.9301866666667","6500900","三峽區"
"237012","275-BY","2018/10/25 19:28:54","新北市三峽區三樹路7號","121.37698","24.93721","6500900","三峽區"
"237008","302-VK","2018/10/25 19:29:10","新北市三峽區光明路106巷53號","121.375326666667","24.926775","6500900","三峽區"
"237014","433-BY","2018/10/25 19:29:15","新北市三峽區中山路299巷3-5號","121.361278333333","24.937225","6500900","三峽區"
"237006","5529-G3","2018/10/25 19:29:06","新北市三峽區中正路一段336巷15弄2號","121.369966666667","24.9249366666667","6500900","三峽區"
"237011","KEA-2596","2018/10/25 19:29:00","新北市三峽區介壽路三段107號","121.395455","24.9392866666667","6500900","三峽區"
"237016","649-BX","2018/10/25 19:29:12","新北市三峽區安坑50號","121.462658333333","24.93198","6500900","三峽區"
"237010","706-TV","2018/10/25 19:29:00","新北市三峽區國光街20號","121.375353333333","24.93729","6500900","三峽區"
"237005","AKY-6261","2018/10/25 19:29:05","新北市三峽區復興路367巷1弄14號","121.364118333333","24.937665","6500900","三峽區"
"236070","105-UM","2018/10/25 19:28:58","新北市土城區學府路一段157號","121.45326","24.98582","6501300","土城區"
"236078","166-UM","2018/10/25 19:29:11","新北市土城區中州路24巷2-1號","121.414703333333","24.9575016666667","6501300","土城區"
"236026","269-VK","2018/10/25 19:29:04","新北市土城區中央路二段61巷26號","121.443345","24.97872","6501300","土城區"
"236021","401-BY","2018/10/25 19:29:06","新北市土城區峰廷街3號","121.469048333333","24.9872966666667","6501300","土城區"
"236059","912-UM","2018/10/25 19:29:08","新北市土城區中央路二段219號","121.441036666667","24.9739683333333","6501300","土城區"
"236049","913-UM","2018/10/25 19:28:49","新北市土城區清水路172號","121.459966666667","24.9816266666667","6501300","土城區"
"242048","497-BY","2018/10/25 19:29:03","新北市新莊區後港一路3號","121.424138333333","25.0263333333333","6500500","新莊區"
"242023","362-BY","2018/10/25 19:29:09","新北市新莊區新泰路488號","121.442548333333","25.04593","6500500","新莊區"
"242013","173-VK","2018/10/25 19:29:02","新北市新莊區三和路12-11號","121.442136666667","25.036875","6500500","新莊區"
"238015","755-BX","2018/10/25 19:28:57","新北市樹林區大安路502號","121.41401","24.9863183333333","6500700","樹林區"
"238023","601-UM","2018/10/25 19:28:58","新北市樹林區三福街46號","121.40754","25.016395","6500700","樹林區"
"238019","599-UM","2018/10/25 19:29:12","新北市樹林區鎮前街327-3號","121.416965","24.984465","6500700","樹林區"
"238018","571-TV","2018/10/25 19:28:57","新北市樹林區中華路341-6號","121.415001666667","24.9802816666667","6500700","樹林區"
"238024","5061-A6","2018/10/25 19:29:02","新北市樹林區中山路三段26號","121.395471666667","24.97274","6500700","樹林區"
"238022","KEA-2213","2018/10/25 19:28:53","新北市樹林區名園街45號","121.419695","24.9786966666667","6500700","樹林區"
"238021","KEA-2539","2018/10/25 19:29:04","新北市樹林區學勤路514號","121.38225","24.9475883333333","6500700","樹林區"
"238025","303-VK","2018/10/25 19:28:55","新北市樹林區中山路二段222-2號","121.410178333333","24.9805216666667","6500700","樹林區"
"238017","283-BY","2018/10/25 19:29:01","新北市樹林區保安街二段195-2號","121.41402","25.0035466666667","6500700","樹林區"
"238014","282-BY","2018/10/25 19:29:12","新北市樹林區保安二街64巷25號","121.424386666667","24.9967166666667","6500700","樹林區"
"238020","268-VK","2018/10/25 19:28:56","新北市樹林區俊英街111巷1-16號","121.42381","25.009405","6500700","樹林區"
"238026","172-UY","2018/10/25 19:28:59","新北市樹林區佳園路二段86巷82號","121.390398333333","24.9588766666667","6500700","樹林區"
"238016","169-UY","2018/10/25 19:29:12","新北市樹林區復興路440號","121.413673333333","24.984245","6500700","樹林區"
"239007","AAC-297","2018/10/25 19:29:08","新北市鶯歌區大湖路93號","121.342521666667","24.9631666666667","6500800","鶯歌區"
"239006","891-R6","2018/10/25 19:29:13","新北市鶯歌區鶯桃路91巷42弄2號","121.336888333333","24.9520816666667","6500800","鶯歌區"
"239005","526-UM","2018/10/25 19:29:11","新北市鶯歌區中湖街268-1號","121.349391666667","24.9764566666667","6500800","鶯歌區"
"239001","417-VK","2018/10/25 19:29:07","新北市鶯歌區建國路588號","121.339928333333","24.9523883333333","6500800","鶯歌區"
"239003","360-BY","2018/10/25 19:29:08","新北市樹林區中山路三段210-2號","121.38051","24.967875","6500800","鶯歌區"
"239004","193-VK","2018/10/25 19:29:10","新北市鶯歌區中正三路291巷20弄2號","121.329795","24.9356833333333","6500800","鶯歌區"
"221036","130-UY","2018/10/25 19:29:08","新北市汐止區康寧街901號","121.651578333333","25.0749433333333","6501100","汐止區"
"221015","131-UY","2018/10/25 19:29:10","新北市汐止區康寧街901號","121.651526666667","25.07503","6501100","汐止區"
"221010","269-BY","2018/10/25 19:29:06","新北市汐止區康寧街901號","121.651415","25.0750133333333","6501100","汐止區"
"221012","278-VK","2018/10/25 19:29:06","新北市汐止區大同路三段271號","121.674045","25.0756066666667","6501100","汐止區"
"221023","279-VK","2018/10/25 19:29:01","新北市汐止區連峰街1巷2號","121.647145","25.0761283333333","6501100","汐止區"
"221027","281-BY","2018/10/25 19:29:10","新北市汐止區忠孝東路9號","121.658261666667","25.065945","6501100","汐止區"
"221029","298-VK","2018/10/25 19:29:06","新北市汐止區光復街8巷50-1號","121.6377","25.05578","6501100","汐止區"
"221021","299-VK","2018/10/25 19:29:01","新北市汐止區康寧街901號","121.651538333333","25.0750333333333","6501100","汐止區"
"221031","353-TW","2018/10/25 19:29:13","新北市汐止區康寧街901號","121.650861666667","25.0752633333333","6501100","汐止區"
"221035","622-UM","2018/10/25 19:28:58","新北市汐止區康寧街901號","121.651075","25.0751516666667","6501100","汐止區"
"221025","623-UM","2018/10/25 19:29:14","新北市汐止區秀峰路60號","121.659381666667","25.0655316666667","6501100","汐止區"
"221038","646-BX","2018/10/25 19:29:07","新北市汐止區大同路二段342號","121.656635","25.0670883333333","6501100","汐止區"
"221002","707-TV","2018/10/25 19:29:13","新北市汐止區大同路一段331號","121.638301666667","25.0593333333333","6501100","汐止區"
"220079","145-BY","2018/10/25 19:29:03","新北市板橋區民權路296號","121.457208333333","25.0160316666667","6500100","板橋區"
"220080","200-UY","2018/10/25 19:28:53","新北市板橋區大觀路二段37巷196號","121.449455","25.0015266666667","6500100","板橋區"
"220082","610-BX","2018/10/25 19:29:00","新北市板橋區金門街48號","121.43321","24.9931416666667","6500100","板橋區"
"220056","276-BY","2018/10/25 19:29:09","新北市板橋區和平路23號","121.459648333333","24.9952383333333","6500100","板橋區"
"220072","277-BY","2018/10/25 19:29:10","新北市板橋區金門街253巷17弄1號","121.433173333333","24.988675","6500100","板橋區"
"220101","280-UM","2018/10/25 19:29:16","新北市板橋區縣民大道三段127巷24號","121.476938333333","25.0237383333333","6500100","板橋區"
"220094","283-UM","2018/10/25 19:29:15","新北市板橋區吳鳳路50號","121.468075","25.0304266666667","6500100","板橋區"
"220071","283-VK","2018/10/25 19:29:09","新北市板橋區四川路一段283巷15號","121.459633333333","25.0008783333333","6500100","板橋區"
"220053","285-VK","2018/10/25 19:29:11","新北市板橋區永豐街122號","121.476526666667","25.0209466666667","6500100","板橋區"
"220083","286-VK","2018/10/25 19:29:02","新北市板橋區龍興街73巷2號","121.44396","25.0021966666667","6500100","板橋區"
"220081","287-VK","2018/10/25 19:29:03","新北市板橋區大觀路一段75巷45號","121.449168333333","25.00408","6500100","板橋區"
"220090","288-VK","2018/10/25 19:29:14","新北市板橋區裕民街55號","121.461041666667","25.0284166666667","6500100","板橋區"
"220061","293-UM","2018/10/25 19:29:09","新北市板橋區中山路二段265號","121.477636666667","25.01775","6500100","板橋區"
"220062","295-UM","2018/10/25 19:29:03","新北市板橋區三民路二段153巷7弄2號","121.480438333333","25.0150616666667","6500100","板橋區"
"220084","296-UM","2018/10/25 19:29:11","新北市板橋區篤行路三段玉平巷76弄2號","121.428028333333","24.985675","6500100","板橋區"
"220075","303-R5","2018/10/25 19:29:01","新北市板橋區中正路253巷72號","121.452676666667","25.0172383333333","6500100","板橋區"
"220092","307-R5","2018/10/25 19:29:14","新北市板橋區松江街10號","121.469276666667","25.0262583333333","6500100","板橋區"
"220098","317-R6","2018/10/25 19:29:02","新北市板橋區四維路266巷5弄17號","121.463568333333","25.0289633333333","6500100","板橋區"
"220064","486-VK","2018/10/25 19:28:54","新北市板橋區中山路一段50-9號","121.461248333333","25.009475","6500100","板橋區"
"220089","487-VK","2018/10/25 19:29:10","新北市板橋區文化路一段135號","121.462068333333","25.0152066666667","6500100","板橋區"
"220088","491-VK","2018/10/25 19:29:00","新北市板橋區雙十路二段151號","121.474625","25.028175","6500100","板橋區"
"220103","561-BX","2018/10/25 19:29:11","新北市板橋區文化路一段220號","121.466641666667","25.020515","6500100","板橋區"
"220063","609-BX","2018/10/25 19:29:12","新北市板橋區萬安街92號","121.483868333333","25.0239733333333","6500100","板橋區"
"220091","637-BX","2018/10/25 19:28:57","新北市板橋區文聖街135巷25號","121.479003333333","25.0289733333333","6500100","板橋區"
"220057","686-BX","2018/10/25 19:29:06","新北市板橋區國慶路182巷28-1號","121.463261666667","24.9954283333333","6500100","板橋區"
"220077","687-BX","2018/10/25 19:29:13","新北市板橋區僑中二街114巷2號","121.445705","25.0068466666667","6500100","板橋區"
"220093","689-BX","2018/10/25 19:29:00","新北市板橋區新海路135巷1號","121.460631666667","25.0234733333333","6500100","板橋區"
"220054","741-BX","2018/10/25 19:29:02","新北市板橋區忠孝路203號","121.465098333333","25.00267","6500100","板橋區"
"220102","KEA-2699","2018/10/25 19:29:03","新北市板橋區松柏街22巷9-2號","121.474671666667","25.0295533333333","6500100","板橋區"
"220055","827-TW","2018/10/25 19:29:06","新北市板橋區重慶路290巷22弄16號","121.462296666667","24.999535","6500100","板橋區"
"220067","829-TW","2018/10/25 19:29:11","新北市板橋區漢生東路313巷2弄68號","121.47286","25.008065","6500100","板橋區"
"220068","830-TW","2018/10/25 19:29:03","新北市板橋區翠華街10巷16號","121.481976666667","25.0246616666667","6500100","板橋區"
"220096","831-TW","2018/10/25 19:29:05","新北市板橋區大同街9號","121.477195","25.02692","6500100","板橋區"
"220074","895-R6","2018/10/25 19:29:11","新北市板橋區中正路1巷14號","121.455248333333","25.0116233333333","6500100","板橋區"
"220073","985-R7","2018/10/25 19:29:07","新北市板橋區中正路301號","121.455163333333","25.01956","6500100","板橋區"
"220097","AAC-210","2018/10/25 19:29:10","新北市板橋區陽明街29巷1弄42號","121.463091666667","25.0225366666667","6500100","板橋區"
"220070","AAC-253","2018/10/25 19:28:56","新北市板橋區四川路一段65號","121.459603333333","25.006005","6500100","板橋區"
"235068","KEA-2873","2018/10/25 19:28:58","新北市中和區連勝街57巷20號","121.498085","24.9963966666667","6500300","中和區"
"235061","KEA-2875","2018/10/25 19:29:07","新北市中和區民利街75號","121.478365","24.9981883333333","6500300","中和區"
