"lineid","car","time","location","longitude","latitude","cityid","cityname"
"234007","207-UY","2018/10/25 20:19:10","新北市永和區環河西路二段219號","121.501341666667","25.0100766666667","6500400","永和區"
"234081","298-R6","2018/10/25 20:19:09","新北市永和區福和路7巷10弄7號","121.524805","25.0075183333333","6500400","永和區"
"234038","336-UY","2018/10/25 20:18:58","新北市永和區成功路一段93巷2號","121.527195","25.0027116666667","6500400","永和區"
"234064","337-UY","2018/10/25 20:19:15","新北市永和區得和路124號","121.518756666667","25.000185","6500400","永和區"
"234086","338-UY","2018/10/25 20:19:12","新北市永和區永和路二段55號","121.514671666667","25.0108666666667","6500400","永和區"
"234070","552-UM","2018/10/25 20:18:56","新北市永和區福和路263巷15號","121.518036666667","25.0064916666667","6500400","永和區"
"234017","745-BX","2018/10/25 20:19:08","新北市永和區仁愛路69號","121.513381666667","25.0132483333333","6500400","永和區"
"234030","746-BX","2018/10/25 20:19:10","新北市永和區民有街75巷8號","121.518321666667","24.9961166666667","6500400","永和區"
"234054","KEA-2590","2018/10/25 20:19:10","新北市永和區光復街2巷24號","121.517595","25.01659","6500400","永和區"
"234013","KEA-2591","2018/10/25 20:19:13","新北市永和區保生路54號","121.505521666667","25.0086166666667","6500400","永和區"
"234061","AAD-866","2018/10/25 20:19:09","新北市永和區得和路45巷2號","121.516563333333","25.0001283333333","6500400","永和區"
"234042","862-TW","2018/10/25 20:19:15","新北市中和區中安街166號","121.510825","25.00008","6500400","永和區"
"234050","863-TW","2018/10/25 20:19:11","新北市永和區保安路18號","121.510541666667","25.01724","6500400","永和區"
"234011","9373-KE","2018/10/25 20:18:58","新北市永和區仁愛路352巷120號","121.500201666667","25.008425","6500400","永和區"
"249005","172-UM","2018/10/25 20:19:03","新北市八里區下罟子2-2號","121.38821","25.1418033333333","6502300","八里區"
"249001","173-UM","2018/10/25 20:19:11","新北市八里區中華路二段538號","121.399068333333","25.14504","6502300","八里區"
"249004","303-UY","2018/10/25 20:19:07","新北市八里區中山路一段129巷19-1號","121.4139","25.1586166666667","6502300","八里區"
"249002","305-UY","2018/10/25 20:18:58","新北市八里區龍米路一段100巷3號","121.453566666667","25.1250833333333","6502300","八里區"
"249003","593-UM","2018/10/25 20:19:00","新北市八里區訊埔路20號","121.397591666667","25.1453383333333","6502300","八里區"
"248012","247-BX","2018/10/25 20:19:04","新北市五股區民義路一段206號","121.430528333333","25.0891033333333","6501500","五股區"
"248010","272-BY","2018/10/25 20:19:11","新北市五股區新五路二段2巷26-1號","121.43988","25.06789","6501500","五股區"
"248004","677-BX","2018/10/25 20:19:16","新北市五股區成泰路二段102號","121.437596666667","25.0828666666667","6501500","五股區"
"248002","678-BX","2018/10/25 20:19:10","新北市五股區成泰路三段165號","121.445168333333","25.09183","6501500","五股區"
"234023","9380-KE","2018/10/25 20:18:59","新北市永和區永和路二段234號","121.515851666667","25.0145083333333","6500400","永和區"
"234077","969-R7","2018/10/25 20:19:09","新北市永和區中正路31號","121.514296666667","24.9958933333333","6500400","永和區"
"234074","AAC-211","2018/10/25 20:19:12","新北市永和區竹林路201巷22弄1號","121.522","25.0093616666667","6500400","永和區"
"234067","AAC-212","2018/10/25 20:19:11","新北市永和區保平路270號","121.50867","25.0050816666667","6500400","永和區"
"234003","AAC-295","2018/10/25 20:19:06","新北市永和區大新街16號","121.515028333333","25.0084716666667","6500400","永和區"
"243013","AAD-798","2018/10/25 20:19:14","新北市泰山區新民路14巷3號","121.426398333333","25.0445216666667","6501600","泰山區"
"243009","297-R6","2018/10/25 20:19:14","新北市泰山區福泰街35號","121.433216666667","25.0599983333333","6501600","泰山區"
"243016","KEA-2801","2018/10/25 20:19:06","新北市泰山區明志路三段8號","121.424725","25.0434416666667","6501600","泰山區"
"243015","421-VK","2018/10/25 20:18:41","新北市泰山區仁德路125號","121.43267","25.0561566666667","6501600","泰山區"
"243011","KEA-2215","2018/10/25 20:19:00","新北市泰山區德安街26-1號","121.418465","25.03133","6501600","泰山區"
"243010","KEA-2216","2018/10/25 20:19:11","新北市泰山區明志路二段273巷12號","121.427375","25.047115","6501600","泰山區"
"243012","646-TV","2018/10/25 20:19:10","新北市泰山區楓江路121號","121.439073333333","25.0645633333333","6501600","泰山區"
"243014","680-BX","2018/10/25 20:19:08","新北市泰山區泰林路二段451號","121.425773333333","25.0638466666667","6501600","泰山區"
"222003","436-BY","2018/10/25 20:19:00","新北市深坑區文化街43號","121.617678333333","25.00186","6501800","深坑區"
"222002","659-BX","2018/10/25 20:18:57","新北市深坑區萬福路75巷46號","121.598316666667","25.0098783333333","6501800","深坑區"
"231041","002-UM","2018/10/25 20:19:14","新北市新店區民權路42-1號","121.540355","24.98292","6500600","新店區"
"231059","046-UY","2018/10/25 20:19:07","新北市新店區安德街62號","121.510681666667","24.962035","6500600","新店區"
"231040","047-UY","2018/10/25 20:19:03","新北市新店區中正路152號","121.541628333333","24.9716983333333","6500600","新店區"
"231052","108-UY","2018/10/25 20:19:17","新北市新店區新烏路二段300號","121.548756666667","24.9127783333333","6500600","新店區"
"231047","187-VK","2018/10/25 20:19:02","新北市新店區寶橋路132號","121.547436666667","24.9760216666667","6500600","新店區"
"231062","188-VK","2018/10/25 20:19:14","新北市新店區安康路一段61號","121.530603333333","24.9607433333333","6500600","新店區"
"231054","KEA-2219","2018/10/25 20:19:13","新北市新店區檳榔路174號","121.544188333333","24.9619716666667","6500600","新店區"
"231057","256-BX","2018/10/25 20:19:04","新北市新店區花園五路一段24號","121.552343333333","24.9340583333333","6500600","新店區"
"231042","268-BY","2018/10/25 20:19:04","新北市新店區寶興路42巷37號","121.547698333333","24.9718083333333","6500600","新店區"
"231051","278-BY","2018/10/25 20:19:12","新北市新店區中央六街93號","121.526235","24.9768916666667","6500600","新店區"
"231050","AAD-862","2018/10/25 20:18:54","新北市新店區博愛街6巷1號","121.54108","24.9731983333333","6500600","新店區"
"231058","3713-VJ","2018/10/25 20:19:13","新北市新店區安和路三段4巷1-3號","121.51839","24.98047","6500600","新店區"
"231066","4716-K9","2018/10/25 20:18:59","新北市新店區安興路96-1號","121.514835","24.9764216666667","6500600","新店區"
"231056","4715-K9","2018/10/25 20:19:04","新北市新店區建安街33巷30號","121.53824","24.9753466666667","6500600","新店區"
"231067","4772-VM","2018/10/25 20:18:58","新北市新店區安康路一段72號","121.528323333333","24.9618783333333","6500600","新店區"
"231065","512-UM","2018/10/25 20:19:14","新北市新店區安祥路104-6號","121.479796666667","24.9621833333333","6500600","新店區"
"231049","513-UM","2018/10/25 20:19:16","新北市新店區北新路二段35號","121.542833333333","24.9724433333333","6500600","新店區"
"231045","617-UM","2018/10/25 20:19:03","新北市新店區新坡一街82號","121.547721666667","24.96234","6500600","新店區"
"231044","618-UM","2018/10/25 20:19:11","新北市新店區北新路三段111號","121.541413333333","24.982295","6500600","新店區"
"231061","619-UM","2018/10/25 20:19:01","新北市新店區安興路33-1號","121.515835","24.970435","6500600","新店區"
"231063","641-BX","2018/10/25 20:19:00","新北市新店區車子路1-1號","121.504716666667","24.957685","6500600","新店區"
"231068","718-UY","2018/10/25 20:19:04","新北市新店區寶安街30-1號","121.542136666667","24.9823166666667","6500600","新店區"
"231064","719-UM","2018/10/25 20:19:15","新北市新店區安業街33號","121.517776666667","24.977","6500600","新店區"
"231060","897-TW","2018/10/25 20:19:05","新北市新店區錦秀路11巷92弄1號","121.48024","24.9426466666667","6500600","新店區"
"231043","899-TW","2018/10/25 20:19:11","新北市新店區建國路133號","121.53933","24.9781483333333","6500600","新店區"
"231055","AKT-0513","2018/10/25 20:19:04","新北市新店區光明街169號","121.539501666667","24.9626816666667","6500600","新店區"
"241011","013-R5","2018/10/25 20:19:01","新北市三重區龍濱路196號","121.501055","25.0732733333333","6500200","三重區"
"241008","059-VK","2018/10/25 20:19:10","新北市三重區永福街211巷4號","121.479766666667","25.0740483333333","6500200","三重區"
"241022","060-VK","2018/10/25 20:18:57","新北市三重區新北大道一段32號","121.488285","25.06141","6500200","三重區"
"241031","061-VK","2018/10/25 20:19:01","新北市三重區三寧街22號","121.489515","25.0598733333333","6500200","三重區"
"241015","062-VK","2018/10/25 20:19:09","新北市三重區重新路一段122號","121.500395","25.06292","6500200","三重區"
"241017","063-VK","2018/10/25 20:19:03","新北市三重區雙園街109號","121.493538333333","25.0672916666667","6500200","三重區"
"241024","065-VK","2018/10/25 20:19:05","新北市三重區中正北路262號","121.481243333333","25.0682733333333","6500200","三重區"
"241026","066-VK","2018/10/25 20:19:11","新北市三重區福德南路15號","121.502586666667","25.0632783333333","6500200","三重區"
"241002","090-VK","2018/10/25 20:19:14","新北市三重區仁義街101巷40號","121.49912","25.0807783333333","6500200","三重區"
"241003","091-VK","2018/10/25 20:19:12","新北市三重區富華街31號","121.490563333333","25.0830816666667","6500200","三重區"
"251014","742-BX","2018/10/25 20:18:59","新北市淡水區石頭厝1號","121.458721666667","25.2354983333333","6501000","淡水區"
"241005","262-UM","2018/10/25 20:19:04","新北市三重區碧華街241號","121.48919","25.0829316666667","6500200","三重區"
"241009","265-UM","2018/10/25 20:19:06","新北市三重區三和路四段382巷62號","121.480653333333","25.0782716666667","6500200","三重區"
"241016","266-UM","2018/10/25 20:19:08","新北市三重區大同北路97-3號","121.494366666667","25.0635866666667","6500200","三重區"
"241018","268-UM","2018/10/25 20:19:01","新北市三重區自強路一段155-1號","121.493611666667","25.0671216666667","6500200","三重區"
"241032","269-UM","2018/10/25 20:19:08","新北市三重區捷運路19巷6弄11號","121.48463","25.056905","6500200","三重區"
"241013","270-UM","2018/10/25 20:19:11","新北市三重區三和路三段167巷1號","121.492013333333","25.07406","6500200","三重區"
"241025","271-UM","2018/10/25 20:18:56","新北市三重區頂崁街196號","121.477441666667","25.0667216666667","6500200","三重區"
"241007","398-BY","2018/10/25 20:19:04","新北市三重區三和路四段117巷33號","121.486585","25.0778833333333","6500200","三重區"
"241035","462-BY","2018/10/25 20:19:10","新北市三重區正義北路33巷55號","121.499116666667","25.0638916666667","6500200","三重區"
"241020","478-VK","2018/10/25 20:19:17","新北市三重區三和路三段172-1號","121.492386666667","25.0730483333333","6500200","三重區"
"241030","480-VK","2018/10/25 20:19:12","新北市三重區集美街89巷31號","121.48816","25.0525016666667","6500200","三重區"
"241014","543-UM","2018/10/25 20:19:09","新北市三重區河邊北街96-1號","121.503968333333","25.0698033333333","6500200","三重區"
"241023","545-UM","2018/10/25 20:18:58","新北市三重區忠孝路三段84巷5號","121.480205","25.0643366666667","6500200","三重區"
"241001","547-UM","2018/10/25 20:19:14","新北市三重區自強路四段3巷29號","121.4899","25.076385","6500200","三重區"
"241019","KEA-2593","2018/10/25 20:19:04","新北市三重區大智街188號","121.489541666667","25.0705016666667","6500200","三重區"
"241006","AAD-863","2018/10/25 20:19:01","新北市三重區車路頭街139巷14號","121.484273333333","25.0761783333333","6500200","三重區"
"241004","743-BX","2018/10/25 20:19:11","新北市三重區自強路四段98號","121.491161666667","25.079585","6500200","三重區"
"241028","887-TS","2018/10/25 20:19:02","新北市三重區大同南路162號","121.496598333333","25.057575","6500200","三重區"
"241012","941-UM","2018/10/25 20:18:58","新北市三重區河邊北街379-1號","121.501703333333","25.0764466666667","6500200","三重區"
"241029","942-UM","2018/10/25 20:19:02","新北市三重區重安街96號","121.492556666667","25.05631","6500200","三重區"
"241033","AAC-255","2018/10/25 20:19:14","新北市三重區五谷王北街50巷5號","121.47579","25.0514533333333","6500200","三重區"
"235066","003-UY","2018/10/25 20:19:02","新北市中和區光華街81號","121.507035","25.002785","6500300","中和區"
"235056","096-UM","2018/10/25 20:18:56","新北市三重區中華路48號","121.483296666667","25.061605","6500300","中和區"
"235039","097-UM","2018/10/25 20:19:06","新北市中和區大勇街27巷24號","121.516341666667","24.9941266666667","6500300","中和區"
"235065","098-UM","2018/10/25 20:18:58","新北市中和區永和路69-4號","121.496418333333","25.0059416666667","6500300","中和區"
"235040","150-BY","2018/10/25 20:18:59","新北市中和區安平路38號","121.509885","24.9949583333333","6500300","中和區"
"247012","KEA-2869","2018/10/25 20:19:03","新北市蘆洲區中興街13號","121.48051","25.087115","6501400","蘆洲區"
"235050","4979-A6","2018/10/25 20:19:03","新北市中和區景平路466號","121.505713333333","24.9937716666667","6500300","中和區"
"235069","4980-A6","2018/10/25 20:19:13","新北市中和區南山路75號","121.502015","24.9981183333333","6500300","中和區"
"235054","640-BX","2018/10/25 20:19:10","新北市三重區新北大道一段252號","121.480151666667","25.06171","6500300","中和區"
"235037","AAC-213","2018/10/25 20:18:58","新北市板橋區民生路一段113號","121.474116666667","25.0145833333333","6500300","中和區"
"235059","AAC-215","2018/10/25 20:19:01","新北市中和區圓通路367巷2號","121.491258333333","24.9893883333333","6500300","中和區"
"247002","893-R6","2018/10/25 20:19:07","新北市蘆洲區長安街313巷6弄12號","121.456846666667","25.0865583333333","6501400","蘆洲區"
"247016","546-UM","2018/10/25 20:19:12","新北市蘆洲區光華路132巷39號","121.46578","25.083805","6501400","蘆洲區"
"247024","500-BY","2018/10/25 20:19:14","新北市蘆洲區光榮路120巷8弄39號","121.464631666667","25.0879233333333","6501400","蘆洲區"
"247014","339-TH","2018/10/25 20:19:06","新北市蘆洲區中山二路137巷31號","121.47247","25.0807533333333","6501400","蘆洲區"
"247006","337-TH","2018/10/25 20:19:00","新北市蘆洲區九芎街136號","121.46515","25.0790483333333","6501400","蘆洲區"
"247008","336-TH","2018/10/25 20:19:09","新北市蘆洲區集賢路233號","121.481971666667","25.0855383333333","6501400","蘆洲區"
"247020","057-VK","2018/10/25 20:18:56","新北市蘆洲區仁愛街48號","121.471835","25.0935533333333","6501400","蘆洲區"
"247010","056-VK","2018/10/25 20:19:15","新北市蘆洲區信義路243號","121.479108333333","25.0843216666667","6501400","蘆洲區"
"247004","002-UY","2018/10/25 20:19:14","新北市蘆洲區長安街297號","121.458056666667","25.0849233333333","6501400","蘆洲區"
"247022","001-UY","2018/10/25 20:19:03","新北市蘆洲區三民路263號","121.468186666667","25.0893433333333","6501400","蘆洲區"
"222001","KEA-2212","2018/10/25 20:19:04","新北市深坑區北深路三段217號","121.600298333333","25.00384","6501800","深坑區"
"251009","008-UM","2018/10/25 20:19:15","新北市淡水區中山北路一段192號","121.44452","25.179295","6501000","淡水區"
"251001","011-UM","2018/10/25 20:19:07","新北市淡水區淡金路二段599號","121.445973333333","25.1924533333333","6501000","淡水區"
"251013","KEA-2871","2018/10/25 20:18:59","新北市淡水區相公山4號","121.47525","25.2061716666667","6501000","淡水區"
"251016","179-VK","2018/10/25 20:18:56","新北市淡水區淡金路五段14-8號","121.453473333333","25.2322233333333","6501000","淡水區"
"251015","180-VK","2018/10/25 20:19:11","新北市淡水區興仁路161號","121.450475","25.2197266666667","6501000","淡水區"
"251008","181-VK","2018/10/25 20:19:11","新北市淡水區淡海路150巷21號","121.42197","25.18452","6501000","淡水區"
"251010","413-VK","2018/10/25 20:18:57","新北市淡水區新民街一段136號","121.427663333333","25.1890766666667","6501000","淡水區"
"251012","441-VK","2018/10/25 20:19:14","新北市淡水區下圭柔山431-1號","121.45025","25.2108916666667","6501000","淡水區"
"251007","442-VK","2018/10/25 20:19:12","新北市淡水區淡金路39號","121.456265","25.16077","6501000","淡水區"
"251006","561-UM","2018/10/25 20:19:04","新北市淡水區北新路169巷8號","121.449983333333","25.1798933333333","6501000","淡水區"
"251002","672-BX","2018/10/25 20:19:05","新北市淡水區中正路232號","121.438951666667","25.1708233333333","6501000","淡水區"
"251003","766-UM","2018/10/25 20:19:08","新北市淡水區中山北路一段229號","121.444496666667","25.1794966666667","6501000","淡水區"
"207004","291-VK","2018/10/25 20:19:06","新北市萬里區北基里大仁路5號","121.682101666667","25.17532","6502800","萬里區"
"252002","178-VK","2018/10/25 20:19:13","新北市三芝區中正路一段30號","121.503196666667","25.2584933333333","6502100","三芝區"
"252001","292-VK","2018/10/25 20:18:56","新北市三芝區中山路一段14號","121.500653333333","25.2580816666667","6502100","三芝區"
"237006","5529-G3","2018/10/25 20:19:05","新北市三峽區中正路二段269號","121.366113333333","24.91162","6500900","三峽區"
"237016","649-BX","2018/10/25 20:19:12","新北市三峽區介壽路二段138巷45-2號","121.395225","24.9330983333333","6500900","三峽區"
"237005","AKY-6261","2018/10/25 20:19:05","新北市鶯歌區三鶯路29巷25號","121.354331666667","24.9399216666667","6500900","三峽區"
"236070","105-UM","2018/10/25 20:18:58","新北市土城區中山路75-1號","121.428275","24.9665916666667","6501300","土城區"
"236030","253-BX","2018/10/25 20:19:13","新北市土城區學成路128巷13弄2號","121.449561666667","24.99016","6501300","土城區"
"236026","269-VK","2018/10/25 20:19:04","新北市土城區裕生路86巷3號","121.446813333333","24.9852183333333","6501300","土城區"
"236014","270-VK","2018/10/25 20:18:54","新北市土城區廣明街90巷18號","121.455403333333","24.99448","6501300","土城區"
"236059","912-UM","2018/10/25 20:19:08","新北市土城區大安路101-5號","121.433458333333","24.96853","6501300","土城區"
"242036","AAC-296","2018/10/25 20:17:24","新北市新莊區建安街62巷3弄8號","121.426268333333","25.024975","6500500","新莊區"
"242058","986-R7","2018/10/25 20:19:17","新北市新莊區龍安路329號","121.422175","25.0193333333333","6500500","新莊區"
"242056","751-BX","2018/10/25 20:19:14","新北市新莊區新莊路649巷11-2號","121.445051666667","25.03207","6500500","新莊區"
"242027","705-TV","2018/10/25 20:19:16","新北市新莊區幸福路554號","121.454868333333","25.0493433333333","6500500","新莊區"
"242025","613-BX","2018/10/25 20:19:15","新北市新莊區五工一路80巷23號","121.461256666667","25.066705","6500500","新莊區"
"242029","612-BX","2018/10/25 20:19:04","新北市新莊區中華路二段201號","121.452315","25.052725","6500500","新莊區"
"242044","566-BX","2018/10/25 20:18:53","新北市新莊區中正路893巷40號","121.413668333333","25.0207","6500500","新莊區"
"242048","497-BY","2018/10/25 20:19:03","新北市新莊區龍安路252號","121.421163333333","25.0196516666667","6500500","新莊區"
"242011","442-UM","2018/10/25 20:18:57","新北市新莊區幸福路670巷14弄1號","121.451035","25.0504133333333","6500500","新莊區"
"242053","441-UM","2018/10/25 20:19:02","新北市新莊區西盛街390號","121.427581666667","25.0129083333333","6500500","新莊區"
"242039","415-TV","2018/10/25 20:19:02","新北市新莊區龍安路437號","121.424168333333","25.0186366666667","6500500","新莊區"
"242009","413-TV","2018/10/25 20:19:08","新北市新莊區昌隆街58巷1弄2號","121.45495","25.05064","6500500","新莊區"
"242046","400-BY","2018/10/25 20:19:03","新北市新莊區中正路新生巷33號","121.41714","25.023415","6500500","新莊區"
"242023","362-BY","2018/10/25 20:19:11","新北市新莊區化成路776號","121.465151666667","25.058955","6500500","新莊區"
"242061","353-BY","2018/10/25 20:19:03","新北市新莊區新樹路172-13號","121.434618333333","25.0217233333333","6500500","新莊區"
"242042","133-UY","2018/10/25 20:19:09","新北市新莊區壽山路69號","121.410168333333","25.0326683333333","6500500","新莊區"
"242034","135-UY","2018/10/25 20:19:02","新北市新莊區建中街90巷10號","121.446815","25.0374483333333","6500500","新莊區"
"242051","172-VK","2018/10/25 20:19:02","新北市新莊區民安西路212巷16弄1號","121.42488","25.015035","6500500","新莊區"
"242013","173-VK","2018/10/25 20:19:02","新北市新莊區中和街155巷24弄16號","121.446675","25.0503383333333","6500500","新莊區"
"242019","175-VK","2018/10/25 20:19:06","新北市新莊區復興路二段196巷1號","121.459391666667","25.0440483333333","6500500","新莊區"
"242007","176-VK","2018/10/25 20:19:05","新北市新莊區福壽街94巷17號","121.459275","25.0501333333333","6500500","新莊區"
"242017","346-TH","2018/10/25 20:19:07","新北市新莊區中港一街93號","121.449295","25.04523","6500500","新莊區"
"242015","347-TH","2018/10/25 20:19:04","新北市新莊區中和街31巷22號","121.447185","25.0438666666667","6500500","新莊區"
"242004","349-TH","2018/10/25 20:19:06","新北市新莊區化成路746巷37號","121.4669","25.058055","6500500","新莊區"
"242021","350-TH","2018/10/25 20:19:16","新北市新莊區和興街49號","121.446528333333","25.0406016666667","6500500","新莊區"
"238015","755-BX","2018/10/25 20:18:57","新北市樹林區育德街78號","121.38771","24.96831","6500700","樹林區"
"221036","130-UY","2018/10/25 20:19:08","新北市汐止區仁愛路152巷31號","121.664933333333","25.0638066666667","6501100","汐止區"
"221015","131-UY","2018/10/25 20:19:10","新北市汐止區建成路142巷19弄7號","121.662118333333","25.0738633333333","6501100","汐止區"
"221010","269-BY","2018/10/25 20:19:06","新北市汐止區八連路二段490號","121.628731666667","25.1056083333333","6501100","汐止區"
"221012","278-VK","2018/10/25 20:19:05","新北市汐止區保新街283號","121.692736666667","25.068325","6501100","汐止區"
"221023","279-VK","2018/10/25 20:19:01","新北市汐止區明峰街324號","121.624968333333","25.06734","6501100","汐止區"
"221032","280-BY","2018/10/25 20:19:02","新北市汐止區民權街二段30號","121.619405","25.0498316666667","6501100","汐止區"
"221027","281-BY","2018/10/25 20:19:16","新北市汐止區大同路二段423號","121.658626666667","25.0672266666667","6501100","汐止區"
"221029","298-VK","2018/10/25 20:19:06","新北市汐止區樟樹一路99巷2弄15號","121.640861666667","25.0639183333333","6501100","汐止區"
"221021","299-VK","2018/10/25 20:18:59","新北市汐止區水源路一段238巷1號","121.65416","25.0604233333333","6501100","汐止區"
"221031","353-TW","2018/10/25 20:19:13","新北市汐止區原興路51號","121.632831666667","25.0649883333333","6501100","汐止區"
"221035","622-UM","2018/10/25 20:18:58","新北市汐止區長江街101-5號","121.658661666667","25.073105","6501100","汐止區"
"221025","623-UM","2018/10/25 20:19:14","新北市汐止區水源路二段34號","121.654936666667","25.0571516666667","6501100","汐止區"
"221038","646-BX","2018/10/25 20:19:07","新北市汐止區忠孝東路428-1號","121.666116666667","25.072025","6501100","汐止區"
"221033","647-BX","2018/10/25 20:19:00","新北市汐止區東勢街201巷92號","121.633983333333","25.0431833333333","6501100","汐止區"
"221002","707-TV","2018/10/25 20:19:05","新北市汐止區福德一路86巷25號","121.63766","25.0688533333333","6501100","汐止區"
"221018","753-BX","2018/10/25 20:19:08","新北市汐止區茄安路43號","121.673903333333","25.0685083333333","6501100","汐止區"
"220101","280-UM","2018/10/25 20:18:56","新北市板橋區莊敬路45號","121.473196666667","25.026985","6500100","板橋區"
"220083","286-VK","2018/10/25 20:19:05","新北市板橋區僑中二街90巷15號","121.445556666667","25.0091816666667","6500100","板橋區"
"220081","287-VK","2018/10/25 20:18:59","新北市板橋區僑中一街82號","121.447391666667","25.011585","6500100","板橋區"
"220061","293-UM","2018/10/25 20:19:09","新北市板橋區中山路一段161號","121.465695","25.0120233333333","6500100","板橋區"
"242002","281-VK","2018/10/25 20:19:03","新北市新莊區化成路5-12號","121.464688333333","25.042525","6500500","新莊區"
"220089","487-VK","2018/10/25 20:19:04","新北市板橋區四維路137巷17號","121.464273333333","25.024895","6500100","板橋區"
"242031","280-VK","2018/10/25 20:19:13","新北市新莊區中正路418號","121.440956666667","25.0337733333333","6500500","新莊區"
"220103","561-BX","2018/10/25 20:18:54","新北市板橋區陽明街60號","121.46498","25.0223416666667","6500100","板橋區"
"220102","KEA-2699","2018/10/25 20:19:03","新北市板橋區文化路一段90號","121.464275","25.0177683333333","6500100","板橋區"
"220055","827-TW","2018/10/25 20:19:06","新北市板橋區仁愛路25號","121.45897","24.9994383333333","6500100","板橋區"
"220074","895-R6","2018/10/25 20:19:11","新北市板橋區南雅南路一段7巷20號","121.456165","25.0050033333333","6500100","板橋區"
"220070","AAC-253","2018/10/25 20:19:16","新北市板橋區四川路二段245巷15號","121.451001666667","24.99315","6500100","板橋區"
"235068","KEA-2873","2018/10/25 20:18:58","新北市中和區勝利路35巷1弄17號","121.499588333333","25.00763","6500300","中和區"
