"lineid","car","time","location","longitude","latitude","cityid","cityname"
"249003","593-UM","2018/10/25 20:59:00","新北市八里區中山路三段409號","121.368496666667","25.1349216666667","6502300","八里區"
"231059","046-UY","2018/10/25 20:59:07","新北市新店區僑信路74巷5號","121.499251666667","24.9484533333333","6500600","新店區"
"231040","047-UY","2018/10/25 20:59:00","新北市新店區中正路162號","121.541358333333","24.9719016666667","6500600","新店區"
"231052","108-UY","2018/10/25 20:58:59","新北市新店區環河路16號","121.537578333333","24.9615383333333","6500600","新店區"
"231047","187-VK","2018/10/25 20:59:02","新北市新店區寶元路二段1巷2號","121.550731666667","24.98406","6500600","新店區"
"231062","188-VK","2018/10/25 20:59:14","新北市新店區裕合街143號","121.489151666667","24.949045","6500600","新店區"
"231054","KEA-2219","2018/10/25 20:59:13","新北市新店區大新街7巷1號","121.543121666667","24.968625","6500600","新店區"
"231057","256-BX","2018/10/25 20:59:04","新北市新店區環河路17號","121.537431666667","24.9614116666667","6500600","新店區"
"231042","268-BY","2018/10/25 20:59:04","新北市新店區寶高路102巷20號","121.552676666667","24.974035","6500600","新店區"
"231051","278-BY","2018/10/25 20:59:12","新北市新店區中正路663巷7弄15號","121.532888333333","24.99007","6500600","新店區"
"231050","AAD-862","2018/10/25 20:59:14","新北市新店區三民路75巷3弄1號","121.53575","24.9711533333333","6500600","新店區"
"231066","4716-K9","2018/10/25 20:59:09","新北市新店區吉安街21號","121.51614","24.9659066666667","6500600","新店區"
"231067","4772-VM","2018/10/25 20:58:58","新北市新店區安德街130巷16號","121.50811","24.9609833333333","6500600","新店區"
"231065","512-UM","2018/10/25 20:59:16","新北市新店區安祥路67巷28弄2號","121.484796666667","24.9595166666667","6500600","新店區"
"231061","619-UM","2018/10/25 20:59:04","新北市新店區永安街76號","121.519963333333","24.9863716666667","6500600","新店區"
"231063","641-BX","2018/10/25 20:59:00","新北市新店區如意街3巷11-1號","121.496275","24.9492066666667","6500600","新店區"
"231068","718-UY","2018/10/25 20:59:04","新北市新店區寶中路69號","121.547443333333","24.9804716666667","6500600","新店區"
"231064","719-UM","2018/10/25 20:57:14","新北市新店區安民街303巷7號","121.51709","24.9737183333333","6500600","新店區"
"231060","897-TW","2018/10/25 20:59:05","新北市新店區安康路三段450號","121.484568333333","24.9513183333333","6500600","新店區"
"231043","899-TW","2018/10/25 20:59:11","新北市新店區中央路220號","121.529731666667","24.9730133333333","6500600","新店區"
"241011","013-R5","2018/10/25 20:59:01","新北市三重區秀江街119號","121.499691666667","25.0721516666667","6500200","三重區"
"241008","059-VK","2018/10/25 20:59:10","新北市三重區力行路二段160號","121.482746666667","25.0765283333333","6500200","三重區"
"241022","060-VK","2018/10/25 20:58:57","新北市三重區過圳街27-5號","121.487981666667","25.06242","6500200","三重區"
"241031","061-VK","2018/10/25 20:59:01","新北市三重區重陽路一段113巷2弄2號","121.487466666667","25.0598633333333","6500200","三重區"
"241015","062-VK","2018/10/25 20:59:09","新北市三重區福德北路46號","121.502061666667","25.0655133333333","6500200","三重區"
"241017","063-VK","2018/10/25 20:59:03","新北市三重區大仁街23號","121.492016666667","25.0644983333333","6500200","三重區"
"241024","065-VK","2018/10/25 20:59:05","新北市三重區大勇街82巷15弄30號","121.481278333333","25.071975","6500200","三重區"
"241026","066-VK","2018/10/25 20:59:11","新北市三重區文化南路32號","121.500271666667","25.06145","6500200","三重區"
"241002","090-VK","2018/10/25 20:59:14","新北市三重區仁義街155號","121.497073333333","25.0810266666667","6500200","三重區"
"241003","091-VK","2018/10/25 20:59:12","新北市三重區進安街198號","121.493906666667","25.0859883333333","6500200","三重區"
"251014","742-BX","2018/10/25 20:58:59","新北市淡水區溪口7-3號","121.455681666667","25.2365566666667","6501000","淡水區"
"241005","262-UM","2018/10/25 20:59:04","新北市三重區五華街141巷2號","121.490923333333","25.08482","6500200","三重區"
"241009","265-UM","2018/10/25 20:59:06","新北市三重區三和路四段360號","121.48327","25.078495","6500200","三重區"
"241016","266-UM","2018/10/25 20:59:08","新北市三重區自強路一段95號","121.49582","25.0665","6500200","三重區"
"241018","268-UM","2018/10/25 20:59:01","新北市三重區雙園街136號","121.493885","25.0672766666667","6500200","三重區"
"241032","269-UM","2018/10/25 20:59:08","新北市三重區三陽路118號","121.483006666667","25.0586833333333","6500200","三重區"
"241013","270-UM","2018/10/25 20:59:11","新北市三重區仁賢街6號","121.495668333333","25.0748083333333","6500200","三重區"
"241025","271-UM","2018/10/25 20:59:16","新北市三重區貴陽街16號","121.48397","25.0617383333333","6500200","三重區"
"241007","398-BY","2018/10/25 20:59:04","新北市三重區慈愛街10號","121.484528333333","25.07843","6500200","三重區"
"241028","KEA-2210","2018/10/25 20:58:58","新北市三重區正義南路54號","121.498275","25.060765","6500200","三重區"
"241020","478-VK","2018/10/25 20:59:17","新北市三重區忠孝路二段34號","121.485708333333","25.07098","6500200","三重區"
"241030","480-VK","2018/10/25 20:59:12","新北市三重區環河南路220-8號","121.493386666667","25.0526866666667","6500200","三重區"
"241014","543-UM","2018/10/25 20:59:09","新北市三重區長榮路75號","121.502556666667","25.0691333333333","6500200","三重區"
"241023","545-UM","2018/10/25 20:58:58","新北市三重區洛陽街45巷20號","121.482373333333","25.0639133333333","6500200","三重區"
"241001","547-UM","2018/10/25 20:59:14","新北市三重區自強路三段79號","121.487296666667","25.07459","6500200","三重區"
"241019","KEA-2593","2018/10/25 20:59:04","新北市三重區自強路二段74巷23-1號","121.487878333333","25.0698433333333","6500200","三重區"
"241006","AAD-863","2018/10/25 20:59:01","新北市三重區永福街46-4號","121.481826666667","25.0780683333333","6500200","三重區"
"241004","743-BX","2018/10/25 20:57:51","新北市三重區溪尾街227巷1弄1號","121.48858","25.0812883333333","6500200","三重區"
"241012","941-UM","2018/10/25 20:58:58","新北市三重區仁信街27號","121.501253333333","25.0755116666667","6500200","三重區"
"241029","942-UM","2018/10/25 20:59:02","新北市三重區大同南路128號","121.49645","25.0583133333333","6500200","三重區"
"241033","AAC-255","2018/10/25 20:59:14","新北市三重區光復路二段1號","121.472233333333","25.0532783333333","6500200","三重區"
"235066","003-UY","2018/10/25 20:59:09","新北市新店區安豐路54號","121.499616666667","24.9544116666667","6500300","中和區"
"247012","KEA-2869","2018/10/25 20:59:03","新北市蘆洲區民權路8-1號","121.476551666667","25.0859933333333","6501400","蘆洲區"
"235069","4980-A6","2018/10/25 20:59:13","新北市中和區連城路469巷44弄18號","121.4828","24.9940166666667","6500300","中和區"
"247002","893-R6","2018/10/25 20:59:07","新北市蘆洲區永樂街35號","121.458003333333","25.0882633333333","6501400","蘆洲區"
"247016","546-UM","2018/10/25 20:59:12","新北市蘆洲區正和街83號","121.468163333333","25.080695","6501400","蘆洲區"
"247024","500-BY","2018/10/25 20:59:14","新北市蘆洲區長興路213號","121.461201666667","25.086345","6501400","蘆洲區"
"247014","339-TH","2018/10/25 20:59:06","新北市蘆洲區中山二路36巷42-1號","121.473951666667","25.0836466666667","6501400","蘆洲區"
"247006","337-TH","2018/10/25 20:59:00","新北市蘆洲區永安南路二段16巷10-1號","121.467978333333","25.0773633333333","6501400","蘆洲區"
"247008","336-TH","2018/10/25 20:59:09","新北市蘆洲區民生街74號","121.47291","25.07904","6501400","蘆洲區"
"247020","057-VK","2018/10/25 20:58:56","新北市蘆洲區民族路371號","121.471331666667","25.09118","6501400","蘆洲區"
"247010","056-VK","2018/10/25 20:59:15","新北市蘆洲區鷺江街76號","121.476948333333","25.08386","6501400","蘆洲區"
"247018","007-UY","2018/10/25 20:58:56","新北市蘆洲區民權路75號","121.473428333333","25.0885166666667","6501400","蘆洲區"
"247004","002-UY","2018/10/25 20:59:14","新北市蘆洲區永安南路二段268號","121.458713333333","25.0807133333333","6501400","蘆洲區"
"247022","001-UY","2018/10/25 20:59:03","新北市蘆洲區中正路198號","121.466811666667","25.0882883333333","6501400","蘆洲區"
"251005","010-UM","2018/10/25 20:59:01","新北市淡水區學府路51巷2弄16號","121.447958333333","25.1700583333333","6501000","淡水區"
"251001","011-UM","2018/10/25 20:59:07","新北市淡水區淡金路二段147號","121.449578333333","25.1829","6501000","淡水區"
"251013","KEA-2871","2018/10/25 20:58:59","新北市淡水區番子厝11號","121.461845","25.201865","6501000","淡水區"
"251016","179-VK","2018/10/25 20:58:56","新北市淡水區牛埔子11-1號","121.450205","25.2184466666667","6501000","淡水區"
"251015","180-VK","2018/10/25 20:59:11","新北市淡水區淡金路四段542巷17號","121.452723333333","25.227065","6501000","淡水區"
"251010","413-VK","2018/10/25 20:58:57","新北市淡水區中正路一段118-3號","121.42383","25.1789066666667","6501000","淡水區"
"251012","441-VK","2018/10/25 20:59:14","新北市淡水區淡金路五段116-1號","121.456561666667","25.236905","6501000","淡水區"
"251007","442-VK","2018/10/25 20:59:12","新北市淡水區仁愛街2巷38號","121.446811666667","25.1716116666667","6501000","淡水區"
"251011","650-BX","2018/10/25 20:59:06","新北市淡水區新民街322巷1號","121.435256666667","25.183785","6501000","淡水區"
"251002","672-BX","2018/10/25 20:59:05","新北市淡水區英專路69號","121.445651666667","25.1712716666667","6501000","淡水區"
"251003","766-UM","2018/10/25 20:59:08","新北市淡水區新春街125巷18號","121.441566666667","25.18245","6501000","淡水區"
"242011","442-UM","2018/10/25 20:58:16","新北市五股區中直路13-7號","121.424398333333","25.1106233333333","6500500","新莊區"
"242004","349-TH","2018/10/25 20:59:06","新北市林口區太平里180號","121.36705","25.1349616666667","6500500","新莊區"
"221029","298-VK","2018/10/25 20:59:06","新北市汐止區汐萬路一段256巷3號","121.65346","25.0746816666667","6501100","汐止區"
"221018","753-BX","2018/10/25 20:59:08","新北市汐止區汐萬路一段256巷3號","121.652775","25.0744616666667","6501100","汐止區"
"220101","280-UM","2018/10/25 20:59:15","新北市八里區中山路三段409號","121.368638333333","25.1343016666667","6500100","板橋區"
"220070","AAC-253","2018/10/25 20:59:16","新北市林口區汕頭32號","121.366431666667","25.1349866666667","6500100","板橋區"
