"lineid","car","time","location","longitude","latitude","cityid","cityname"
"251014","742-BX","2018/10/25 21:47:59","新北市淡水區崁頂69號","121.439611666667","25.2016566666667","6501000","淡水區"
"247012","KEA-2869","2018/10/25 21:48:03","新北市八里區中山路三段415號","121.370965","25.1373166666667","6501400","蘆洲區"
"235010","733-UM","2018/10/25 21:39:23","新北市中和區員山路36巷13號","121.484173333333","24.9907466666667","6500300","中和區"
"251009","008-UM","2018/10/25 21:48:02","新北市淡水區民族路29巷1弄23號","121.46359","25.1374616666667","6501000","淡水區"
"251005","010-UM","2018/10/25 21:48:01","新北市淡水區鄧公路30巷1弄1號","121.452576666667","25.169775","6501000","淡水區"
"251001","011-UM","2018/10/25 21:48:07","新北市淡水區新市二路三段152號","121.43533","25.1941466666667","6501000","淡水區"
"251008","181-VK","2018/10/25 21:48:11","新北市淡水區水源街二段38號","121.450245","25.17368","6501000","淡水區"
"251010","413-VK","2018/10/25 21:48:17","新北市淡水區中正路二段211號","121.42614","25.1889783333333","6501000","淡水區"
"251012","441-VK","2018/10/25 21:48:14","新北市淡水區淡金路三段260號","121.44894","25.2064666666667","6501000","淡水區"
"251007","442-VK","2018/10/25 21:48:12","新北市淡水區淡金路一段553號","121.453265","25.1803766666667","6501000","淡水區"
"251004","443-VK","2018/10/25 21:48:03","新北市淡水區自強路201巷39號","121.462148333333","25.1268583333333","6501000","淡水區"
"251006","561-UM","2018/10/25 21:48:04","新北市淡水區中正路11巷3號","121.437821666667","25.170755","6501000","淡水區"
"251011","650-BX","2018/10/25 21:48:06","新北市淡水區新民街322巷9號","121.436385","25.182865","6501000","淡水區"
"251002","672-BX","2018/10/25 21:48:05","新北市淡水區學府路176號","121.446473333333","25.175615","6501000","淡水區"
"251003","766-UM","2018/10/25 21:48:07","新北市淡水區新春街81號","121.438785","25.18238","6501000","淡水區"
"220070","AAC-253","2018/10/25 21:48:16","新北市板橋區板城路327號","121.449251666667","24.9976","6500100","板橋區"
