"lineid","car","time","location","longitude","latitude","cityid","cityname"
"235010","733-UM","2018/10/25 21:39:23","新北市中和區員山路36巷13號","121.484173333333","24.9907466666667","6500300","中和區"
"251009","008-UM","2018/10/25 21:58:02","新北市淡水區民族路35巷16號","121.465055","25.1371766666667","6501000","淡水區"
"251005","010-UM","2018/10/25 21:58:01","新北市淡水區鄧公路30-8號","121.452451666667","25.1697083333333","6501000","淡水區"
"251008","181-VK","2018/10/25 21:58:11","新北市淡水區學府路104號","121.449851666667","25.171785","6501000","淡水區"
"251010","413-VK","2018/10/25 21:57:57","新北市淡水區中正路二段211號","121.426146666667","25.1889633333333","6501000","淡水區"
"251007","442-VK","2018/10/25 21:58:12","新北市淡水區水源街二段177巷80號","121.452478333333","25.1774316666667","6501000","淡水區"
"251004","443-VK","2018/10/25 21:58:03","新北市淡水區自強路201巷43號","121.462093333333","25.1268633333333","6501000","淡水區"
"251006","561-UM","2018/10/25 21:58:04","新北市淡水區中正路11巷3號","121.437831666667","25.1707566666667","6501000","淡水區"
"251011","650-BX","2018/10/25 21:58:06","新北市淡水區水碓街7號","121.443165","25.1771","6501000","淡水區"
"251003","766-UM","2018/10/25 21:58:07","新北市淡水區新春街83號","121.438718333333","25.1824783333333","6501000","淡水區"
"220070","AAC-253","2018/10/25 21:57:56","新北市板橋區華東街1-9號","121.448261666667","24.994865","6500100","板橋區"
