"lineid","car","time","location","longitude","latitude","cityid","cityname"
"251008","181-VK","2018/10/25 22:18:11","新北市淡水區學府路104號","121.449873333333","25.1717916666667","6501000","淡水區"
"251010","413-VK","2018/10/25 22:17:57","新北市淡水區沙崙路200號","121.42469","25.1838816666667","6501000","淡水區"
"251007","442-VK","2018/10/25 22:18:12","新北市淡水區北新路186-3號","121.449555","25.1787183333333","6501000","淡水區"
"251004","443-VK","2018/10/25 22:18:03","新北市淡水區民族路33號","121.462308333333","25.1358166666667","6501000","淡水區"
"251011","650-BX","2018/10/25 22:18:06","新北市淡水區水碓街7號","121.443208333333","25.1770933333333","6501000","淡水區"
"220070","AAC-253","2018/10/25 22:00:19","新北市板橋區華東街1-9號","121.448261666667","24.9948616666667","6500100","板橋區"
