"lineid","car","time","location","longitude","latitude","cityid","cityname"
"248005","653-BX","2018/04/05 08:19:41","新北市五股區明德路12巷6號","121.433421666667","25.0719","6501500","五股區"
"232001","290-BY","2018/04/05 08:19:41","新北市坪林區坪雙路一段115號","121.7282","24.94823","6502000","坪林區"
"232014","291-BY","2018/04/05 08:19:47","新北市坪林區黃舉皮寮21號","121.687985","24.9331866666667","6502000","坪林區"
"244012","069-UM","2018/04/05 08:19:50","新北市林口區中正路494號","121.382403333333","25.0773233333333","6501700","林口區"
"244006","080-UY","2018/04/05 08:19:40","新北市林口區菁埔26-5號","121.376751666667","25.09563","6501700","林口區"
"244003","248-BX","2018/04/05 08:19:47","新北市林口區頂福里9鄰94-2號","121.320653333333","25.1079166666667","6501700","林口區"
"244024","742-UY","2018/04/05 08:19:55","新北市林口區忠孝路256巷17號","121.365133333333","25.07387","6501700","林口區"
"244008","410-SL","2018/04/05 08:19:34","新北市林口區中北三街202號","121.382783333333","25.0819783333333","6501700","林口區"
"244022","483-VK","2018/04/05 08:19:37","新北市林口區隆林街48-1號","121.387493333333","25.0753783333333","6501700","林口區"
"244016","485-VK","2018/04/05 08:19:55","新北市林口區文化二路一段260巷9-1號","121.371145","25.0729333333333","6501700","林口區"
"244018","657-BX","2018/04/05 08:19:44","新北市林口區公園路225號","121.373836666667","25.074295","6501700","林口區"
"244010","701-TV","2018/04/05 08:19:50","新北市林口區中正路419-1號","121.386123333333","25.077715","6501700","林口區"
"244020","838-TS","2018/04/05 08:19:44","新北市林口區東林街29號","121.395605","25.0792016666667","6501700","林口區"
"243008","680-BX","2018/04/05 08:19:52","新北市泰山區泰林路二段21-3號","121.43686","25.0552466666667","6501600","泰山區"
"222006","289-BY","2018/04/05 08:19:43","新北市深坑區深南路88巷1號","121.621441666667","25.0106766666667","6501800","深坑區"
"231069","189-VK","2018/04/05 08:19:52","新北市新店區華潭街1巷49號","121.525901666667","24.9466183333333","6500600","新店區"
"231008","192-VK","2018/04/05 08:19:41","新北市新店區北宜路一段206號","121.543605","24.9531133333333","6500600","新店區"
"235001","611-BX","2018/04/05 08:19:46","新北市中和區中正路466號","121.490056666667","24.9943333333333","6500300","中和區"
"226005","5620-A6","2018/04/05 08:19:49","新北市平溪區南山里六分1號","121.7916","25.046965","6502400","平溪區"
"226002","7418-A5","2018/04/05 08:19:38","新北市平溪區望古里望古坑2號","121.75246","25.0268083333333","6502400","平溪區"
"226003","AGD-0702","2018/04/05 08:19:37","新北市平溪區十分里十分街54號","121.775236666667","25.0414283333333","6502400","平溪區"
"223006","022-BY","2018/04/05 08:19:53","新北市深坑區昇高坑路51-1號","121.630318333333","24.9939","6501900","石碇區"
"223002","KEA-2673","2018/04/05 08:19:41","新北市石碇區碇格路二段16-5號","121.641428333333","24.9542266666667","6501900","石碇區"
"223001","205-TH","2018/04/05 08:19:45","新北市石碇區北宜路六段塗潭巷9號","121.646443333333","24.9325216666667","6501900","石碇區"
"223008","406-TH","2018/04/05 08:19:42","新北市石碇區番子坑103號","121.674451666667","25.0100733333333","6501900","石碇區"
"223001","592-UM","2018/04/05 08:19:37","新北市石碇區北宜路六段塗潭巷9號","121.646545","24.9325016666667","6501900","石碇區"
"223004","660-BX","2018/04/05 08:19:44","新北市石碇區碇坪路一段39號","121.65823","24.9914116666667","6501900","石碇區"
"223005","677-TV","2018/04/05 08:19:46","新北市石碇區碇坪路一段39號","121.658125","24.9913916666667","6501900","石碇區"
"252004","249-BX","2018/04/05 08:19:45","新北市三芝區興華里車埕59號","121.498686666667","25.1969266666667","6502100","三芝區"
"252007","AAC-283","2018/04/05 08:19:33","新北市三芝區後厝里大片頭101-3號","121.462716666667","25.24012","6502100","三芝區"
"237001","159-UY","2018/04/05 08:19:44","新北市三峽區學成路269號","121.37575","24.9430866666667","6500900","三峽區"
"236009","165-UM","2018/04/05 08:19:54","新北市土城區石門路95號","121.468603333333","24.95981","6501300","土城區"
"236003","339-SR","2018/04/05 08:19:52","新北市土城區中央路四段464號","121.409745","24.95024","6501300","土城區"
"236005","498-BY","2018/04/05 08:19:53","新北市土城區大暖路18號","121.423583333333","24.9601166666667","6501300","土城區"
"242033","AAC-296","2018/04/05 08:19:44","新北市新莊區景德路540號","121.443601666667","25.0332816666667","6500500","新莊區"
"242057","986-R7","2018/04/05 08:19:42","新北市新莊區新北大道七段492號","121.412961666667","25.0297566666667","6500500","新莊區"
"242052","751-BX","2018/04/05 08:19:40","新北市新莊區新樹路653號","121.432705","25.0031466666667","6500500","新莊區"
"242028","705-TV","2018/04/05 08:19:49","新北市新莊區中平路79號","121.444726666667","25.0451316666667","6500500","新莊區"
"242026","615-BX","2018/04/05 08:19:55","新北市新莊區中原路1號","121.459536666667","25.0544233333333","6500500","新莊區"
"242024","613-BX","2018/04/05 08:19:43","新北市新莊區五工路42號","121.45936","25.0625616666667","6500500","新莊區"
"242040","566-BX","2018/04/05 08:19:48","新北市泰山區明志路三段531巷7號","121.42096","25.0298716666667","6500500","新莊區"
"242045","497-BY","2018/04/05 08:19:39","新北市新莊區福營路143號","121.432523333333","25.0316633333333","6500500","新莊區"
"242003","442-UM","2018/04/05 08:19:41","新北市新莊區福樂街56巷17號","121.45886","25.0462183333333","6500500","新莊區"
"242049","441-UM","2018/04/05 08:19:40","新北市新莊區西盛街153巷6號","121.42859","25.0180816666667","6500500","新莊區"
"242055","440-UM","2018/04/05 08:19:42","新北市新莊區瓊林路40巷6號","121.447815","25.0302716666667","6500500","新莊區"
"242035","415-TV","2018/04/05 08:19:40","新北市新莊區建福路46號","121.426621666667","25.02769","6500500","新莊區"
"242006","413-TV","2018/04/05 08:19:52","新北市新莊區自信街2號","121.453178333333","25.0481616666667","6500500","新莊區"
"242043","400-BY","2018/04/05 08:19:49","新北市新莊區雙鳳路102-1號","121.414373333333","25.0281816666667","6500500","新莊區"
"242022","362-BY","2018/04/05 08:19:42","新北市新莊區福壽街7號","121.457785","25.047765","6500500","新莊區"
"242059","353-BY","2018/04/05 08:19:53","新北市新莊區新樹路255-4號","121.434658333333","25.021655","6500500","新莊區"
"242038","133-UY","2018/04/05 08:19:34","新北市新莊區民安路142號","121.424401666667","25.0251683333333","6500500","新莊區"
"242030","135-UY","2018/04/05 08:19:45","新北市新莊區新泰路289巷11號","121.444991666667","25.040555","6500500","新莊區"
"242047","172-VK","2018/04/05 08:19:51","新北市新莊區萬安街146巷16號","121.42001","25.0217866666667","6500500","新莊區"
"242010","173-VK","2018/04/05 08:19:46","新北市新莊區中原路201-3號","121.451251666667","25.05409","6500500","新莊區"
"242016","175-VK","2018/04/05 08:19:38","新北市新莊區中港路339巷22號","121.451203333333","25.045185","6500500","新莊區"
"242014","346-TH","2018/04/05 08:19:37","新北市新莊區中平路87巷3號","121.444328333333","25.0457783333333","6500500","新莊區"
"242020","348-TH","2018/04/05 08:19:47","新北市新莊區中正路217號","121.451081666667","25.0357833333333","6500500","新莊區"
"242001","349-TH","2018/04/05 08:19:39","新北市新莊區大觀街39巷1號","121.453536666667","25.03556","6500500","新莊區"
"242018","350-TH","2018/04/05 08:19:44","新北市新莊區明中街43巷4號","121.45756","25.0389566666667","6500500","新莊區"
"242012","351-TH","2018/04/05 08:19:51","新北市新莊區中和街82巷7號","121.448253333333","25.046505","6500500","新莊區"
"220077","282-UM","2018/04/05 08:13:05","新北市樹林區中山路三段210-2號","121.380865","24.9671616666667","6500100","板橋區"
"242008","281-VK","2018/04/05 08:19:50","新北市新莊區昌明街70號","121.45536","25.0521333333333","6500500","新莊區"
