"lineid","car","time","location","longitude","latitude","cityid","cityname"
"248005","653-BX","2018/04/05 10:19:23","新北市五股區中興路二段83巷26-6號","121.45997","25.0751883333333","6501500","五股區"
"222006","289-BY","2018/04/05 10:19:23","新北市深坑區王軍寮9號","121.616296666667","24.98227","6501800","深坑區"
"231069","189-VK","2018/04/05 10:18:11","新北市新店區新潭路三段215巷25號","121.50812","24.9041083333333","6500600","新店區"
"231008","192-VK","2018/04/05 10:18:20","新北市新店區小坑一路35巷1號","121.530321666667","24.910225","6500600","新店區"
"223001","205-TH","2018/04/05 10:19:05","新北市石碇區碇格路二段17號","121.639188333333","24.955335","6501900","石碇區"
"252007","AAC-283","2018/04/05 10:19:13","新北市三芝區古庄里古庄99-7號","121.493775","25.2709533333333","6502100","三芝區"
"237001","159-UY","2018/04/05 10:19:24","新北市三峽區國際一街39號","121.373071666667","24.9420333333333","6500900","三峽區"
"220002","741-BX","2018/04/05 10:19:28","新北市板橋區大觀路二段443-2號","121.438825","24.9950216666667","6500100","板橋區"
