"lineid","car","time","location","longitude","latitude","cityid","cityname"
"234068","149-BY","2018/04/05 12:29:11","新北市永和區福和路1號","121.525566666667","25.00938","6500400","永和區"
"234078","298-R6","2018/04/05 12:29:20","新北市永和區林森路77號","121.523936666667","25.00396","6500400","永和區"
"234084","338-UY","2018/04/05 12:29:22","新北市永和區福和路1號","121.526258333333","25.0097966666667","6500400","永和區"
"234015","745-BX","2018/04/05 12:29:10","新北市永和區福和路1號","121.526228333333","25.009535","6500400","永和區"
"234012","KEA-2591","2018/04/05 12:29:27","新北市永和區環河東路二段36號","121.522765","25.0125833333333","6500400","永和區"
"234040","862-TW","2018/04/05 12:29:14","新北市永和區福和路184號","121.520355","25.0077866666667","6500400","永和區"
"234048","863-TW","2018/04/05 12:29:16","新北市永和區福和路1號","121.526556666667","25.0100716666667","6500400","永和區"
"234010","9373-KE","2018/04/05 12:29:17","新北市永和區福和路1號","121.525596666667","25.0093716666667","6500400","永和區"
"234076","969-R7","2018/04/05 12:29:08","新北市永和區福和路1號","121.526366666667","25.0097766666667","6500400","永和區"
"234072","AAC-211","2018/04/05 12:29:27","新北市永和區福和路1號","121.52621","25.0096433333333","6500400","永和區"
"235031","255-BX","2018/04/05 12:21:26","新北市中和區和城路一段271巷1號","121.48567","24.9915783333333","6500300","中和區"
"235025","378-QA","2018/04/05 12:27:26","新北市中和區員山路36巷16-4號","121.485211666667","24.9919583333333","6500300","中和區"
"228005","097-TW","2018/04/05 12:29:11","新北市貢寮區福連里蓬萊街16號","121.98566","24.9966333333333","6502600","貢寮區"
"228004","212-TW","2018/04/05 12:28:40","新北市貢寮區龍崗里嵩陽街33號","121.904368333333","25.0184283333333","6502600","貢寮區"
"207001","662-BX","2018/04/05 12:29:26","新北市萬里區萬里里獅頭路15-1號","121.697718333333","25.1802766666667","6502800","萬里區"
"221021","299-VK","2018/04/05 12:29:13","新北市汐止區汐萬路一段256巷3號","121.652053333333","25.0749466666667","6501100","汐止區"
