"lineid","car","time","location","longitude","latitude","cityid","cityname"
"234044","148-BY","2018/04/05 13:27:21","新北市永和區秀朗路二段84號","121.523196666667","25.0016333333333","6500400","永和區"
"234068","149-BY","2018/04/05 13:27:37","新北市永和區警光街20號","121.519348333333","25.0094433333333","6500400","永和區"
"234005","207-UY","2018/04/05 13:27:35","新北市永和區中山路一段322-1號","121.506533333333","25.0067966666667","6500400","永和區"
"234078","298-R6","2018/04/05 13:27:22","新北市永和區環河東路三段60號","121.526973333333","25.00592","6500400","永和區"
"234036","336-UY","2018/04/05 13:27:25","新北市永和區民樂街36號","121.527508333333","25.000775","6500400","永和區"
"234062","337-UY","2018/04/05 13:27:35","新北市永和區得和路243巷21號","121.520483333333","25.0009766666667","6500400","永和區"
"234084","338-UY","2018/04/05 13:27:37","新北市永和區林森路80號","121.523386666667","25.00376","6500400","永和區"
"234015","745-BX","2018/04/05 13:27:30","新北市永和區環河西路一段95巷9號","121.511821666667","25.0174033333333","6500400","永和區"
"234028","746-BX","2018/04/05 13:27:28","新北市永和區民生路53號","121.52267","24.9976816666667","6500400","永和區"
"234052","KEA-2590","2018/04/05 13:27:23","新北市永和區復興街19巷2號","121.516138333333","25.0131533333333","6500400","永和區"
"234012","KEA-2591","2018/04/05 13:27:27","新北市永和區信義路77號","121.512425","25.013295","6500400","永和區"
"234060","AAD-866","2018/04/05 13:27:34","新北市永和區中正路568號","121.517135","25.0061483333333","6500400","永和區"
"234040","862-TW","2018/04/05 13:27:34","新北市永和區永貞路304號","121.512","25.004725","6500400","永和區"
"234048","863-TW","2018/04/05 13:27:36","新北市永和區信義路122號","121.512425","25.0147666666667","6500400","永和區"
"234025","9371-KE","2018/04/05 13:27:38","新北市永和區豫溪街42巷16號","121.515371666667","25.0091666666667","6500400","永和區"
"234010","9373-KE","2018/04/05 13:27:37","新北市永和區仁愛路141巷3弄11號","121.512031666667","25.0125166666667","6500400","永和區"
"248013","025-BX","2018/04/05 13:27:23","新北市五股區成泰路一段133號","121.435551666667","25.072765","6501500","五股區"
"248015","026-BX","2018/04/05 13:27:38","新北市五股區凌雲路一段109巷24號","121.449711666667","25.1010183333333","6501500","五股區"
"248005","077-UY","2018/04/05 13:27:38","新北市五股區四維路44號","121.467323333333","25.0719883333333","6501500","五股區"
"248007","095-VK","2018/04/05 13:27:40","新北市五股區更洲路32巷8弄13號","121.459501666667","25.07955","6501500","五股區"
"248019","225-UY","2018/04/05 13:27:36","新北市五股區御史路300號","121.416975","25.109025","6501500","五股區"
"248011","247-BX","2018/04/05 13:27:35","新北市五股區御史路83號","121.440616666667","25.0944466666667","6501500","五股區"
"248003","677-BX","2018/04/05 13:27:30","新北市五股區民義路一段152號","121.43316","25.0874433333333","6501500","五股區"
"248001","678-BX","2018/04/05 13:27:28","新北市五股區西雲路116-6號","121.444611666667","25.093835","6501500","五股區"
"248009","682-TV","2018/04/05 13:27:37","新北市五股區自強路89號","121.432521666667","25.0717933333333","6501500","五股區"
"234022","9380-KE","2018/04/05 13:27:20","新北市永和區竹林路91巷21弄9號","121.52089","25.0125516666667","6500400","永和區"
"234076","969-R7","2018/04/05 13:27:28","新北市永和區智光街44號","121.51714","24.9980516666667","6500400","永和區"
"234072","AAC-211","2018/04/05 13:27:27","新北市永和區永和路二段103號","121.514883333333","25.0117766666667","6500400","永和區"
"234066","AAC-212","2018/04/05 13:27:35","新北市永和區保平路174巷1號","121.510406666667","25.0070733333333","6500400","永和區"
"234001","AAC-295","2018/04/05 13:27:38","新北市永和區保福路一段47巷27號","121.511603333333","25.0089966666667","6500400","永和區"
"244003","248-BX","2018/04/05 13:27:31","新北市林口區寶斗厝坑39號","121.336221666667","25.1193366666667","6501700","林口區"
"243005","646-TV","2018/04/05 13:27:21","新北市泰山區明志路三段206巷3號","121.423243333333","25.03798","6501600","泰山區"
"231002","002-UM","2018/04/05 13:27:30","新北市新店區環河路29巷1號","121.535951666667","24.9611166666667","6500600","新店區"
"231027","0293-UT","2018/04/05 13:27:29","新北市新店區北新路一段41號","121.538033333333","24.9593683333333","6500600","新店區"
"231028","046-UY","2018/04/05 13:27:37","新北市新店區安華路28-1號","121.519563333333","24.9609933333333","6500600","新店區"
"231001","047-UY","2018/04/05 13:27:24","新北市新店區中央路167-1號","121.533315","24.9704633333333","6500600","新店區"
"231005","106-UY","2018/04/05 13:27:32","新北市新店區安康路一段3-1號","121.53454","24.96076","6500600","新店區"
"231021","108-UY","2018/04/05 13:27:38","新北市新店區永興路41號","121.54358","24.9382733333333","6500600","新店區"
"231017","110-UY","2018/04/05 13:27:29","新北市新店區新烏路一段11巷1弄2號","121.54737","24.9513666666667","6500600","新店區"
"231011","187-VK","2018/04/05 13:27:27","新北市新店區北新路一段128-3號","121.542268333333","24.969825","6500600","新店區"
"231010","188-VK","2018/04/05 13:27:35","新北市新店區中央路153號","121.529868333333","24.9730933333333","6500600","新店區"
"231023","KEA-2219","2018/04/05 13:27:36","新北市新店區光明街71號","121.538666666667","24.9606366666667","6500600","新店區"
"231026","256-BX","2018/04/05 13:27:36","新北市新店區秀山路14號","121.532673333333","24.9603483333333","6500600","新店區"
"231003","268-BY","2018/04/05 13:27:34","新北市新店區安康路一段230-3號","121.52236","24.963765","6500600","新店區"
"231018","278-BY","2018/04/05 13:27:36","新北市新店區環河路180-3號","121.534973333333","24.9694316666667","6500600","新店區"
"231038","3713-VJ","2018/04/05 13:27:26","新北市新店區安華路30巷1號","121.51953","24.9592566666667","6500600","新店區"
"231037","4716-K9","2018/04/05 13:27:31","新北市新店區薏仁坑路22號","121.498395","24.9592033333333","6500600","新店區"
"231025","4715-K9","2018/04/05 13:27:31","新北市新店區中央七街61巷24號","121.52916","24.9759283333333","6500600","新店區"
"231036","512-UM","2018/04/05 13:27:41","新北市新店區安祥路190巷27號","121.477988333333","24.9553966666667","6500600","新店區"
"231013","513-UM","2018/04/05 13:27:23","新北市新店區中正路454-5號","121.534401666667","24.9790866666667","6500600","新店區"
"231030","619-UM","2018/04/05 13:27:31","新北市新店區安華路28-1號","121.519585","24.960955","6500600","新店區"
"231034","641-BX","2018/04/05 13:27:32","新北市新店區安華路28-1號","121.51945","24.9605383333333","6500600","新店區"
"231035","719-UM","2018/04/05 13:27:23","新北市新店區安華路8號","121.519871666667","24.9624666666667","6500600","新店區"
"231031","720-UM","2018/04/05 13:27:36","新北市新店區安豐路58號","121.498836666667","24.9542466666667","6500600","新店區"
"231029","897-TW","2018/04/05 13:27:36","新北市新店區安華路30巷12-1號","121.51843","24.95801","6500600","新店區"
"231006","898-TW","2018/04/05 13:27:32","新北市新店區安康路一段222-1號","121.522808333333","24.96371","6500600","新店區"
"231004","899-TW","2018/04/05 13:27:40","新北市新店區安康路一段102號","121.527403333333","24.9624316666667","6500600","新店區"
"231024","AKT-0513","2018/04/05 13:27:30","新北市新店區中正路130號","121.54207","24.9713416666667","6500600","新店區"
"235030","003-UY","2018/04/05 13:27:31","新北市中和區中山路二段120號","121.502746666667","25.0037883333333","6500300","中和區"
"235028","005-UY","2018/04/05 13:27:31","新北市中和區圓通路141巷37弄1號","121.498996666667","24.9950283333333","6500300","中和區"
"235027","006-UY","2018/04/05 13:27:31","新北市中和區連城路347巷1弄2號","121.488275","24.99562","6500300","中和區"
"235020","096-UM","2018/04/05 13:27:26","新北市中和區新民街90號","121.481658333333","25.0076666666667","6500300","中和區"
"235029","098-UM","2018/04/05 13:27:24","新北市中和區莊敬路34號","121.501383333333","25.0052133333333","6500300","中和區"
"235004","150-BY","2018/04/05 13:27:25","新北市中和區保健路50巷66號","121.509185","24.99523","6500300","中和區"
"235022","151-BY","2018/04/05 13:27:33","新北市中和區圓通路369巷156弄39號","121.489461666667","24.98213","6500300","中和區"
"235019","183-VK","2018/04/05 13:27:20","新北市中和區民享街283號","121.471555","24.99617","6500300","中和區"
"235002","185-VK","2018/04/05 13:27:28","新北市中和區自強路6號","121.520065","24.9959883333333","6500300","中和區"
"235013","186-VK","2018/04/05 13:27:20","新北市中和區景平路357號","121.504683333333","24.9934033333333","6500300","中和區"
"235031","255-BX","2018/04/05 13:27:06","新北市中和區新生街220巷2號","121.483191666667","24.9985316666667","6500300","中和區"
"235036","301-VK","2018/04/05 13:27:21","新北市中和區連城路263巷1號","121.491963333333","24.9965","6500300","中和區"
"235007","352-BY","2018/04/05 13:27:39","新北市中和區景平路353號","121.504848333333","24.99348","6500300","中和區"
"235032","377-QA","2018/04/05 13:27:37","新北市中和區錦和路350-1號","121.490696666667","24.9935283333333","6500300","中和區"
"235025","378-QA","2018/04/05 13:27:08","新北市中和區民享街99號","121.474973333333","24.999825","6500300","中和區"
"235014","4979-A6","2018/04/05 13:27:40","新北市中和區景新街320號","121.51161","24.9912866666667","6500300","中和區"
"235033","4980-A6","2018/04/05 13:27:23","新北市中和區連城路127巷7號","121.496356666667","24.998855","6500300","中和區"
"235006","551-UM","2018/04/05 13:27:28","新北市中和區秀朗路三段150巷10號","121.523821666667","24.9910133333333","6500300","中和區"
"235034","558-UM","2018/04/05 13:27:32","新北市中和區景平路433號","121.501233333333","24.9956783333333","6500300","中和區"
"235009","565-BX","2018/04/05 13:27:27","新北市中和區復興路22號","121.505398333333","24.9899216666667","6500300","中和區"
"235018","640-BX","2018/04/05 13:27:40","新北市中和區民享街88巷1號","121.474585","25.00062","6500300","中和區"
"235011","732-UM","2018/04/05 13:27:40","新北市中和區南山路300號","121.507875","24.98714","6500300","中和區"
"235035","783-BX","2018/04/05 13:25:52","新北市中和區永和路446-30號","121.484825","25.0120466666667","6500300","中和區"
"235021","801-TS","2018/04/05 13:27:38","新北市中和區民安街67號","121.478436666667","24.9997733333333","6500300","中和區"
"235005","802-TS","2018/04/05 13:27:25","新北市中和區中和路326號","121.509776666667","25.0010533333333","6500300","中和區"
"235012","896-TW","2018/04/05 13:27:41","新北市中和區員山路36巷16-3號","121.484965","24.9919116666667","6500300","中和區"
"235017","900-TW","2018/04/05 13:27:22","新北市中和區連城路607號","121.47819","24.9931733333333","6500300","中和區"
"235024","911-UM","2018/04/05 13:27:25","新北市中和區員山路287號","121.481245","24.9997833333333","6500300","中和區"
"235015","157-BY","2018/04/05 13:27:36","新北市中和區興南路二段142巷18-9號","121.502665","24.9843716666667","6500300","中和區"
"235001","AAC-213","2018/04/05 13:27:37","新北市中和區景德街126號","121.514518333333","24.99106","6500300","中和區"
"220013","072-UY","2018/04/05 13:27:31","新北市板橋區華東街1-9號","121.448196666667","24.9949633333333","6500100","板橋區"
"220017","AAD-861","2018/04/05 13:27:28","新北市板橋區華東街1-10號","121.44872","24.9950183333333","6500100","板橋區"
"247007","056-VK","2018/04/05 13:27:27","新北市五股區中興路三段163號","121.44935","25.0808266666667","6501400","蘆洲區"
"247019","001-UY","2018/04/05 13:27:28","新北市五股區中興路三段163號","121.449121666667","25.0809783333333","6501400","蘆洲區"
"235003","251-BX","2018/04/05 13:27:23","新北市中和區景平路105號","121.516713333333","24.9920416666667","6500300","中和區"
"228005","097-TW","2018/04/05 13:27:31","新北市貢寮區美豐里文秀坑8號","121.902423333333","25.0503466666667","6502600","貢寮區"
"228004","212-TW","2018/04/05 13:27:20","新北市貢寮區龍崗里石壁坑街17號","121.910385","24.9895216666667","6502600","貢寮區"
"253003","6232-TK","2018/04/05 13:27:36","新北市石門區內石門81-9號","121.567288333333","25.2651","6502200","石門區"
"253001","6251-TK","2018/04/05 13:27:35","新北市石門區下員坑33-6號","121.51934","25.2831533333333","6502200","石門區"
"253002","637-UY","2018/04/05 13:27:24","新北市石門區九芎林6-3號","121.561106666667","25.2669816666667","6502200","石門區"
"253004","8270-PC","2018/04/05 13:27:12","新北市石門區竹子湖11號","121.618191666667","25.257345","6502200","石門區"
"207002","749-BX","2018/04/05 13:27:22","新北市萬里區崁腳里崁腳路166號","121.645068333333","25.1557783333333","6502800","萬里區"
"207001","662-BX","2018/04/05 13:25:46","新北市萬里區龜吼里石角路43號","121.684438333333","25.1923633333333","6502800","萬里區"
"252005","AAC-283","2018/04/05 13:27:35","新北市三芝區福德里土地公埔69號","121.519948333333","25.224665","6502100","三芝區"
"236005","498-BY","2018/04/05 13:27:36","新北市土城區慶祥街59巷1號","121.435806666667","24.9729533333333","6501300","土城區"
"242047","172-VK","2018/04/05 13:27:25","新北市新莊區大觀街49號","121.45363","25.03596","6500500","新莊區"
"221015","131-UY","2018/04/05 13:27:22","新北市汐止區汐萬路二段228巷31弄12號","121.64814","25.0912883333333","6501100","汐止區"
"221032","280-BY","2018/04/05 13:27:37","新北市汐止區龍安路30號","121.655","25.0642616666667","6501100","汐止區"
"221021","299-VK","2018/04/05 13:27:34","新北市汐止區大同路一段327號","121.638211666667","25.0592516666667","6501100","汐止區"
"220027","145-BY","2018/04/05 13:27:37","新北市板橋區華東街1-10號","121.44832","24.9949383333333","6500100","板橋區"
"220030","610-BX","2018/04/05 13:27:23","新北市板橋區華東街1-10號","121.448263333333","24.994955","6500100","板橋區"
"220025","282-UM","2018/04/05 13:27:36","新北市板橋區大觀路二段443-2號","121.438256666667","24.9953083333333","6500100","板橋區"
"220019","283-VK","2018/04/05 13:27:25","新北市板橋區華東街1-9號","121.448116666667","24.994925","6500100","板橋區"
"220031","286-VK","2018/04/05 13:27:30","新北市板橋區華東街1-10號","121.448435","24.995065","6500100","板橋區"
"220029","287-VK","2018/04/05 13:27:25","新北市板橋區華東街1-10號","121.448243333333","24.9950183333333","6500100","板橋區"
"220023","303-R5","2018/04/05 13:27:26","新北市板橋區華東街1-10號","121.448466666667","24.99483","6500100","板橋區"
"220104","560-BX","2018/04/05 13:27:31","新北市板橋區四川路二段130巷25弄10號","121.448943333333","24.9946983333333","6500100","板橋區"
"220004","568-UM","2018/04/05 13:27:22","新北市板橋區華東街1-9號","121.448185","24.9949716666667","6500100","板橋區"
"220011","609-BX","2018/04/05 13:27:23","新北市板橋區民生路二段171號","121.469951666667","25.0202233333333","6500100","板橋區"
"220005","686-BX","2018/04/05 13:27:26","新北市板橋區華東街1-10號","121.448295","24.99489","6500100","板橋區"
"220021","985-R7","2018/04/05 13:27:23","新北市板橋區華東街1-10號","121.44835","24.9950266666667","6500100","板橋區"
