"lineid","car","time","location","longitude","latitude","cityid","cityname"
"234015","745-BX","2018/04/05 14:49:30","新北市五股區凌雲路三段24巷21-26號","121.432875","25.1078733333333","6500400","永和區"
"234025","9371-KE","2018/04/05 14:49:19","新北市永和區中和路511號","121.51069","25.002555","6500400","永和區"
"234010","9373-KE","2018/04/05 14:49:17","新北市永和區保生路55號","121.504631666667","25.0107566666667","6500400","永和區"
"248013","025-BX","2018/04/05 14:49:34","新北市五股區五福路14巷20號","121.435236666667","25.0888383333333","6501500","五股區"
"248015","026-BX","2018/04/05 14:49:17","新北市五股區成泰路三段577巷80弄60號","121.449285","25.1050266666667","6501500","五股區"
"248007","095-VK","2018/04/05 14:49:20","新北市五股區四維路171巷6號","121.467533333333","25.0752633333333","6501500","五股區"
"248019","225-UY","2018/04/05 14:19:16","新北市五股區壟路16-1號","121.414921666667","25.085455","6501500","五股區"
"248011","247-BX","2018/04/05 14:49:35","新北市五股區民義路一段212號","121.430518333333","25.0895233333333","6501500","五股區"
"248003","677-BX","2018/04/05 14:49:30","新北市五股區成泰路一段126號","121.435268333333","25.07435","6501500","五股區"
"248001","678-BX","2018/04/05 14:49:28","新北市五股區成泰路三段173號","121.445378333333","25.0920316666667","6501500","五股區"
"248009","682-TV","2018/04/05 14:49:37","新北市五股區成泰路一段7巷42號","121.432551666667","25.0671416666667","6501500","五股區"
"243004","AAD-798","2018/04/05 14:49:21","新北市泰山區楓江路81號","121.436851666667","25.0634633333333","6501600","泰山區"
"243003","297-R6","2018/04/05 14:49:33","新北市泰山區工專路46號","121.423161666667","25.0400533333333","6501600","泰山區"
"243007","380-SR","2018/04/05 14:49:29","新北市泰山區明志路二段34號","121.429443333333","25.0533733333333","6501600","泰山區"
"243006","421-VK","2018/04/05 14:49:31","新北市泰山區明志路一段42號","121.43355","25.06519","6501600","泰山區"
"243002","KEA-2215","2018/04/05 14:49:20","新北市泰山區明志路二段246巷9號","121.426445","25.04771","6501600","泰山區"
"243001","KEA-2216","2018/04/05 14:49:28","新北市泰山區泰林路二段142巷5號","121.434713333333","25.0601216666667","6501600","泰山區"
"243005","646-TV","2018/04/05 14:49:18","新北市泰山區新民路8號","121.426316666667","25.0449033333333","6501600","泰山區"
"243008","680-BX","2018/04/05 14:49:27","新北市泰山區明志路三段123巷1弄7號","121.425041666667","25.0409","6501600","泰山區"
"231002","002-UM","2018/04/05 14:49:30","新北市新店區民權路69號","121.539045","24.9829033333333","6500600","新店區"
"231027","0293-UT","2018/04/05 14:49:29","新北市新店區中正路328巷1號","121.536925","24.9753516666667","6500600","新店區"
"231028","046-UY","2018/04/05 14:49:37","新北市新店區安德街134號","121.508523333333","24.9603016666667","6500600","新店區"
"231001","047-UY","2018/04/05 14:49:24","新北市新店區三民路42號","121.536163333333","24.971565","6500600","新店區"
"231005","106-UY","2018/04/05 14:49:32","新北市新店區復興路2號","121.532408333333","24.98832","6500600","新店區"
"231021","108-UY","2018/04/05 14:49:28","新北市新店區永福路38-1號","121.552893333333","24.9295216666667","6500600","新店區"
"231017","110-UY","2018/04/05 14:49:29","新北市新店區銀河路45巷1號","121.575408333333","24.9569433333333","6500600","新店區"
"231011","187-VK","2018/04/05 14:49:27","新北市新店區寶橋路78巷3號","121.54694","24.9750283333333","6500600","新店區"
"231023","KEA-2219","2018/04/05 14:49:36","新北市新店區檳榔路172號","121.544021666667","24.9617383333333","6500600","新店區"
"231026","256-BX","2018/04/05 14:49:29","新北市新店區安康路一段50-2號","121.529326666667","24.9615216666667","6500600","新店區"
"231003","268-BY","2018/04/05 14:49:33","新北市新店區寶興路42巷37號","121.547683333333","24.971995","6500600","新店區"
"231018","278-BY","2018/04/05 14:49:36","新北市新店區中央路137號","121.530308333333","24.9736933333333","6500600","新店區"
"231038","3713-VJ","2018/04/05 14:49:26","新北市新店區安康路一段164號","121.52608","24.9630483333333","6500600","新店區"
"231036","512-UM","2018/04/05 14:49:21","新北市新店區安祥路106巷104號","121.474055","24.9592866666667","6500600","新店區"
"231013","513-UM","2018/04/05 14:49:23","新北市新店區北新路二段53號","121.542586666667","24.9730983333333","6500600","新店區"
"231030","619-UM","2018/04/05 14:49:31","新北市新店區安民街341號","121.517101666667","24.9751083333333","6500600","新店區"
"231034","641-BX","2018/04/05 14:49:32","新北市新店區玫瑰路4-1號","121.493558333333","24.9514066666667","6500600","新店區"
"231039","718-UY","2018/04/05 14:49:28","新北市新店區安康路一段355號","121.519896666667","24.9637933333333","6500600","新店區"
"231035","719-UM","2018/04/05 14:49:23","新北市新店區安利街26號","121.519236666667","24.974595","6500600","新店區"
"231031","720-UM","2018/04/05 14:49:35","新北市新店區安康路三段66號","121.491976666667","24.952035","6500600","新店區"
"231029","897-TW","2018/04/05 14:49:36","新北市新店區錦秀路11巷94弄2號","121.480151666667","24.9424066666667","6500600","新店區"
"231006","898-TW","2018/04/05 14:49:32","新北市新店區北宜路一段121號","121.540318333333","24.9538766666667","6500600","新店區"
"231004","899-TW","2018/04/05 14:49:40","新北市新店區民族路87號","121.538803333333","24.9778133333333","6500600","新店區"
"231024","AKT-0513","2018/04/05 14:49:23","新北市新店區新生街5巷8號","121.539961666667","24.9658383333333","6500600","新店區"
"235030","003-UY","2018/04/05 14:49:31","新北市中和區中和路172號","121.504518333333","24.9995133333333","6500300","中和區"
"235020","096-UM","2018/04/05 14:49:32","新北市中和區中山路三段114巷14號","121.476005","25.0067583333333","6500300","中和區"
"235029","098-UM","2018/04/05 14:49:24","新北市中和區福美路232號","121.499026666667","25.00528","6500300","中和區"
"235004","150-BY","2018/04/05 14:49:25","新北市中和區景安路79巷19弄29號","121.507575","24.99768","6500300","中和區"
"235022","151-BY","2018/04/05 14:49:33","新北市中和區員山路142巷1號","121.481543333333","24.9966366666667","6500300","中和區"
"235002","185-VK","2018/04/05 14:49:28","新北市中和區自強路56號","121.52022","24.99465","6500300","中和區"
"235013","186-VK","2018/04/05 14:49:20","新北市中和區中正路60號","121.501538333333","24.9936283333333","6500300","中和區"
"235031","255-BX","2018/04/05 14:49:25","新北市中和區新生街186巷1弄15號","121.483515","24.9990833333333","6500300","中和區"
"235008","293-VK","2018/04/05 14:49:27","新北市中和區南山路231號","121.503488333333","24.9931766666667","6500300","中和區"
"235007","352-BY","2018/04/05 14:49:39","新北市中和區安和路15號","121.511263333333","24.9938616666667","6500300","中和區"
"235032","377-QA","2018/04/05 14:43:37","新北市中和區連城路7號","121.499286666667","25.0021033333333","6500300","中和區"
"235014","4979-A6","2018/04/05 14:49:20","新北市中和區景平路241巷82弄24號","121.50689","24.992235","6500300","中和區"
"235034","558-UM","2018/04/05 14:49:32","新北市中和區連勝街36號","121.49809","24.9976416666667","6500300","中和區"
"235018","640-BX","2018/04/05 14:49:20","新北市中和區民享街86巷31號","121.472858333333","25.0002916666667","6500300","中和區"
"235011","732-UM","2018/04/05 14:49:19","新北市中和區和平街134號","121.506505","24.9918083333333","6500300","中和區"
"235010","733-UM","2018/04/05 14:49:33","新北市中和區景新街496巷27弄1號","121.513395","24.98635","6500300","中和區"
"235026","800-TS","2018/04/05 14:49:36","新北市中和區永和路103巷2號","121.49512","25.0066366666667","6500300","中和區"
"235021","801-TS","2018/04/05 14:49:36","新北市中和區員山路130號","121.481271666667","24.9962133333333","6500300","中和區"
"235016","805-TS","2018/04/05 14:49:29","新北市中和區興南路二段60號","121.506331666667","24.9849433333333","6500300","中和區"
"235012","896-TW","2018/04/05 14:49:21","新北市中和區忠孝街178號","121.512901666667","24.98786","6500300","中和區"
"235017","900-TW","2018/04/05 14:49:22","新北市中和區國光街184巷2號","121.466986666667","25.0020583333333","6500300","中和區"
"235024","911-UM","2018/04/05 14:49:25","新北市中和區員山路388號","121.480751666667","25.0045083333333","6500300","中和區"
"235015","157-BY","2018/04/05 14:49:36","新北市中和區復興路268號","121.503046666667","24.9904783333333","6500300","中和區"
"235001","AAC-213","2018/04/05 14:49:37","新北市中和區自立路179號","121.523463333333","24.9919116666667","6500300","中和區"
"235023","AAC-215","2018/04/05 14:49:32","新北市中和區圓通路305巷48號","121.495455","24.9889483333333","6500300","中和區"
"220013","072-UY","2018/04/05 14:49:31","新北市板橋區民族路89-2號","121.466331666667","25.008395","6500100","板橋區"
"220034","073-UY","2018/04/05 14:49:37","新北市板橋區國光路161號","121.460025","25.0183916666667","6500100","板橋區"
"220014","075-UY","2018/04/05 14:49:22","新北市板橋區長安街255巷46號","121.472416666667","25.0113616666667","6500100","板橋區"
"220017","AAD-861","2018/04/05 14:49:28","新北市板橋區稚暉街2巷46號","121.455248333333","25.0029583333333","6500100","板橋區"
"247013","546-UM","2018/04/05 14:49:31","新北市蘆洲區得勝街50號","121.473261666667","25.0836166666667","6501400","蘆洲區"
"247021","500-BY","2018/04/05 14:49:29","新北市蘆洲區中正路476巷8號","121.462656666667","25.0955566666667","6501400","蘆洲區"
"247015","007-UY","2018/04/05 14:49:25","新北市蘆洲區光華路119巷9號","121.467176666667","25.0818566666667","6501400","蘆洲區"
"247001","002-UY","2018/04/05 14:49:18","新北市蘆洲區長安街246巷28弄8號","121.458688333333","25.0863466666667","6501400","蘆洲區"
"247019","001-UY","2018/04/05 14:49:28","新北市蘆洲區民義街71巷24號","121.472563333333","25.090785","6501400","蘆洲區"
"235003","251-BX","2018/04/05 14:49:23","新北市永和區安樂路92號","121.514273333333","24.9989016666667","6500300","中和區"
"228005","097-TW","2018/04/05 14:49:37","新北市貢寮區美豐里丹裡街65號","121.909496666667","25.058985","6502600","貢寮區"
"228004","212-TW","2018/04/05 14:49:20","新北市貢寮區福隆里裕隆街2號","121.946505","25.0153716666667","6502600","貢寮區"
"253003","6232-TK","2018/04/05 14:49:16","新北市石門區尖子鹿87號","121.578733333333","25.2919233333333","6502200","石門區"
"253001","6251-TK","2018/04/05 14:49:34","新北市石門區崁子腳84號","121.533668333333","25.2778","6502200","石門區"
"253002","637-UY","2018/04/05 14:49:24","新北市石門區楓林43號","121.541023333333","25.2829283333333","6502200","石門區"
"253004","8270-PC","2018/04/05 14:49:18","新北市石門區坪林28號","121.59566","25.267465","6502200","石門區"
"207002","749-BX","2018/04/05 14:49:22","新北市萬里區崁腳里崁腳路73號","121.647578333333","25.15961","6502800","萬里區"
"207001","662-BX","2018/04/05 14:49:26","新北市萬里區雙興里豐稟路39號","121.642578333333","25.1821033333333","6502800","萬里區"
"252005","AAC-283","2018/04/05 14:49:15","新北市三芝區埔坪里埔頭坑149號","121.510486666667","25.2497183333333","6502100","三芝區"
"236068","105-UM","2018/04/05 14:49:30","新北市土城區金城路二段229號","121.455535","24.9823783333333","6501300","土城區"
"236040","107-UM","2018/04/05 14:49:19","新北市土城區裕民路114巷27號","121.450361666667","24.9856716666667","6501300","土城區"
"236074","166-UM","2018/04/05 14:47:17","新北市土城區中央路四段165巷23號","121.416171666667","24.9558983333333","6501300","土城區"
"236029","253-BX","2018/04/05 14:49:34","新北市土城區忠義路26巷20號","121.439726666667","24.9698916666667","6501300","土城區"
"236024","269-VK","2018/04/05 14:49:33","新北市土城區慶安街79號","121.440645","24.9725166666667","6501300","土城區"
"236012","270-VK","2018/04/05 14:49:38","新北市土城區清水路235巷20號","121.460908333333","24.9838166666667","6501300","土城區"
"236032","271-VK","2018/04/05 14:49:26","新北市土城區明德路一段193號","121.46391","24.978835","6501300","土城區"
"236017","401-BY","2018/04/05 14:49:38","新北市土城區延吉街194號","121.46768","24.9850816666667","6501300","土城區"
"236057","912-UM","2018/04/05 14:49:32","新北市土城區金城路一段105號","121.444251666667","24.9729616666667","6501300","土城區"
"236045","913-UM","2018/04/05 14:49:29","新北市土城區青雲路113號","121.458945","24.9849016666667","6501300","土城區"
"236060","915-UM","2018/04/05 14:49:31","新北市土城區金城路三段207巷6弄14號","121.470776666667","24.990215","6501300","土城區"
"236054","AAC-216","2018/04/05 14:49:34","新北市土城區裕民路169-1號","121.45313","24.9850466666667","6501300","土城區"
"220027","145-BY","2018/04/05 14:49:37","新北市板橋區建國街97號","121.459766666667","25.0174016666667","6500100","板橋區"
"220028","200-UY","2018/04/05 14:49:36","新北市板橋區大觀路二段19巷78號","121.44874","25.00287","6500100","板橋區"
"220105","KEA-2550","2018/04/05 14:49:34","新北市板橋區民治街71巷33號","121.480603333333","25.0333366666667","6500100","板橋區"
"220030","610-BX","2018/04/05 14:49:28","新北市板橋區篤行路一段48號","121.43187","24.9935333333333","6500100","板橋區"
"220046","255-TC","2018/04/05 14:39:08","新北市板橋區幸福路30號","121.46166","25.0203566666667","6500100","板橋區"
"220020","277-BY","2018/04/05 14:49:23","新北市板橋區金門街204-4號","121.43245","24.99021","6500100","板橋區"
"220050","280-UM","2018/04/05 14:49:35","新北市板橋區縣民大道三段79巷7號","121.47518","25.02191","6500100","板橋區"
"220025","282-UM","2018/04/05 14:49:16","新北市板橋區僑中二街152號","121.44491","25.0044233333333","6500100","板橋區"
"220043","283-UM","2018/04/05 14:49:34","新北市板橋區長江路一段105巷1弄1號","121.459355","25.030035","6500100","板橋區"
"220019","283-VK","2018/04/05 14:49:25","新北市板橋區五權街32巷4號","121.464703333333","24.993135","6500100","板橋區"
"220001","285-VK","2018/04/05 14:49:20","新北市板橋區民享街6號","121.47578","25.0148316666667","6500100","板橋區"
"220031","286-VK","2018/04/05 14:49:30","新北市板橋區僑中二街8巷30號","121.44585","25.011395","6500100","板橋區"
"220029","287-VK","2018/04/05 14:49:25","新北市板橋區大觀路一段28巷2號","121.450048333333","25.008755","6500100","板橋區"
"220039","288-VK","2018/04/05 14:49:37","新北市板橋區龍泉街54巷8弄12號","121.457385","25.0269283333333","6500100","板橋區"
"220009","293-UM","2018/04/05 14:49:21","新北市板橋區觀光街3巷18號","121.47125","25.01555","6500100","板橋區"
"220032","296-UM","2018/04/05 14:49:31","新北市板橋區溪崑二街106巷22號","121.425825","24.98929","6500100","板橋區"
"220023","303-R5","2018/04/05 14:49:27","新北市板橋區中正路182號","121.45632","25.0176316666667","6500100","板橋區"
"220010","305-R5","2018/04/05 14:49:33","新北市板橋區三民路二段81巷27弄28號","121.481315","25.0177133333333","6500100","板橋區"
"220041","307-R5","2018/04/05 14:49:36","新北市板橋區陽明街164巷10弄16號","121.464028333333","25.024065","6500100","板橋區"
"220047","317-R6","2018/04/05 14:49:25","新北市板橋區四維路269巷94弄18號","121.459421666667","25.0270033333333","6500100","板橋區"
"220012","486-VK","2018/04/05 14:49:22","新北市板橋區實踐路92號","121.464073333333","25.0049916666667","6500100","板橋區"
"220037","491-VK","2018/04/05 14:49:31","新北市板橋區民治街5號","121.477341666667","25.0345216666667","6500100","板橋區"
"220104","560-BX","2018/04/05 14:49:31","新北市板橋區金華街100號","121.458456666667","25.0207733333333","6500100","板橋區"
"220052","561-BX","2018/04/05 14:49:27","新北市板橋區陽明街27巷3號","121.465626666667","25.021695","6500100","板橋區"
"220011","609-BX","2018/04/05 14:49:23","新北市板橋區林森街3巷1弄6號","121.48258","25.0236433333333","6500100","板橋區"
"220003","630-UY","2018/04/05 14:49:33","新北市板橋區仁愛路64號","121.45986","24.9994366666667","6500100","板橋區"
"220040","637-BX","2018/04/05 14:49:39","新北市板橋區懷德街127巷48號","121.480551666667","25.0316516666667","6500100","板橋區"
"220005","686-BX","2018/04/05 14:49:34","新北市板橋區廣和街110號","121.462513333333","24.9929316666667","6500100","板橋區"
"220042","689-BX","2018/04/05 14:49:19","新北市板橋區民生路三段321號","121.463001666667","25.0311233333333","6500100","板橋區"
"220002","741-BX","2018/04/05 14:49:34","新北市板橋區忠孝路忠義巷18弄1號","121.466385","25.0037816666667","6500100","板橋區"
"220051","KEA-2699","2018/04/05 14:49:26","新北市板橋區文化路二段410巷23號","121.474786666667","25.030805","6500100","板橋區"
"220016","830-TW","2018/04/05 14:49:26","新北市板橋區光復街172巷31弄3號","121.48601","25.0188333333333","6500100","板橋區"
"220045","831-TW","2018/04/05 14:49:22","新北市板橋區莊敬路148-1號","121.470421666667","25.02265","6500100","板橋區"
"220038","833-TW","2018/04/05 14:49:34","新北市板橋區龍泉街121號","121.45719","25.0241716666667","6500100","板橋區"
"220022","895-R6","2018/04/05 14:49:38","新北市板橋區文化路一段46巷23號","121.460375","25.0114516666667","6500100","板橋區"
"220021","985-R7","2018/04/05 14:49:23","新北市板橋區南雅西路二段208號","121.451963333333","25.0149666666667","6500100","板橋區"
"220018","AAC-253","2018/04/05 14:49:26","新北市板橋區民族路213號","121.469371666667","25.0073533333333","6500100","板橋區"
