"lineid","car","time","location","longitude","latitude","cityid","cityname"
"234015","745-BX","2018/04/05 14:59:09","新北市八里區中山路三段390號","121.368383333333","25.13592","6500400","永和區"
"234025","9371-KE","2018/04/05 14:59:38","新北市永和區雙和街52巷1號","121.50903","25.0032533333333","6500400","永和區"
"234010","9373-KE","2018/04/05 14:59:37","新北市永和區環河東路一段122號","121.52062","25.0156583333333","6500400","永和區"
"248013","025-BX","2018/04/05 14:59:34","新北市五股區成泰路三段155號","121.445","25.0915766666667","6501500","五股區"
"248015","026-BX","2018/04/05 14:59:17","新北市五股區凌雲路一段158巷39弄10號","121.446611666667","25.104025","6501500","五股區"
"248007","095-VK","2018/04/05 14:59:20","新北市三重區中正北路598巷5號","121.46962","25.0716216666667","6501500","五股區"
"248019","225-UY","2018/04/05 14:59:23","新北市五股區登林路114-3號","121.425966666667","25.0704616666667","6501500","五股區"
"248011","247-BX","2018/04/05 14:59:35","新北市五股區六合街100號","121.430986666667","25.0910566666667","6501500","五股區"
"248003","677-BX","2018/04/05 14:59:30","新北市五股區成泰路一段32巷56號","121.434853333333","25.0669783333333","6501500","五股區"
"248001","678-BX","2018/04/05 14:59:35","新北市五股區成泰路三段43-2號","121.44225","25.0889166666667","6501500","五股區"
"248009","682-TV","2018/04/05 14:59:37","新北市五股區成泰路一段153號","121.435248333333","25.0739933333333","6501500","五股區"
"244003","248-BX","2018/04/05 14:59:30","新北市林口區嘉寶里89-1號","121.333866666667","25.120375","6501700","林口區"
"243004","AAD-798","2018/04/05 14:59:21","新北市泰山區文化街29號","121.434915","25.06363","6501600","泰山區"
"243003","297-R6","2018/04/05 14:59:33","新北市泰山區壽山路156號","121.416805","25.030555","6501600","泰山區"
"243007","380-SR","2018/04/05 14:59:18","新北市泰山區仁德路50號","121.434253333333","25.0569333333333","6501600","泰山區"
"243006","421-VK","2018/04/05 14:59:31","新北市泰山區泰林路二段416號","121.427153333333","25.0644116666667","6501600","泰山區"
"243002","KEA-2215","2018/04/05 14:59:28","新北市泰山區明志路二段237巷21號","121.428041666667","25.0479983333333","6501600","泰山區"
"243001","KEA-2216","2018/04/05 14:59:28","新北市泰山區泰林路二段109-1號","121.434463333333","25.0592583333333","6501600","泰山區"
"243005","646-TV","2018/04/05 14:59:36","新北市泰山區明志路二段325號","121.425911666667","25.0450633333333","6501600","泰山區"
"243008","680-BX","2018/04/05 14:59:26","新北市泰山區明志路二段210-2號","121.42728","25.0491183333333","6501600","泰山區"
"231002","002-UM","2018/04/05 14:59:30","新北市新店區中正路522號","121.533725","24.9837733333333","6500600","新店區"
"231028","046-UY","2018/04/05 14:59:37","新北市新店區安豐路49號","121.499948333333","24.9548633333333","6500600","新店區"
"231001","047-UY","2018/04/05 14:59:24","新北市新店區中正路276號","121.538856666667","24.97369","6500600","新店區"
"231005","106-UY","2018/04/05 14:59:32","新北市新店區復興路51-8號","121.536513333333","24.9871766666667","6500600","新店區"
"231021","108-UY","2018/04/05 14:59:38","新北市新店區永福路61號","121.558168333333","24.9287883333333","6500600","新店區"
"231017","110-UY","2018/04/05 14:59:29","新北市新店區明山路5號","121.563293333333","24.955685","6500600","新店區"
"231011","187-VK","2018/04/05 14:59:27","新北市新店區寶橋路85巷19號","121.54569","24.9760483333333","6500600","新店區"
"231023","KEA-2219","2018/04/05 14:59:36","新北市新店區檳榔路150號","121.544161666667","24.9616833333333","6500600","新店區"
"231026","256-BX","2018/04/05 14:59:29","新北市新店區博愛街25巷2號","121.54145","24.9738916666667","6500600","新店區"
"231003","268-BY","2018/04/05 14:59:33","新北市新店區中興路二段197號","121.548015","24.9737416666667","6500600","新店區"
"231018","278-BY","2018/04/05 14:59:36","新北市新店區中央六街21號","121.529728333333","24.9749883333333","6500600","新店區"
"231038","3713-VJ","2018/04/05 14:59:26","新北市新店區安華路28-1號","121.519655","24.961035","6500600","新店區"
"231025","4715-K9","2018/04/05 14:59:31","新北市新店區大同街42號","121.53874","24.9807283333333","6500600","新店區"
"231036","512-UM","2018/04/05 14:59:21","新北市新店區安祥路102巷32號","121.484165","24.9640133333333","6500600","新店區"
"231034","641-BX","2018/04/05 14:59:32","新北市新店區玫瑰路4-1號","121.493605","24.951415","6500600","新店區"
"231039","718-UY","2018/04/05 14:59:32","新北市新店區民權路14號","121.542096666667","24.982935","6500600","新店區"
"231035","719-UM","2018/04/05 14:59:23","新北市新店區新和街33號","121.518605","24.9845683333333","6500600","新店區"
"231031","720-UM","2018/04/05 14:59:35","新北市新店區安泰路22-1號","121.485358333333","24.9483383333333","6500600","新店區"
"231029","897-TW","2018/04/05 14:59:36","新北市新店區錦秀路47號","121.479213333333","24.9435783333333","6500600","新店區"
"231006","898-TW","2018/04/05 14:59:32","新北市新店區新坡一街102號","121.547803333333","24.96397","6500600","新店區"
"231004","899-TW","2018/04/05 14:59:40","新北市新店區民族路48巷1號","121.540156666667","24.978695","6500600","新店區"
"231024","AKT-0513","2018/04/05 14:59:32","新北市新店區中華路52號","121.539628333333","24.968505","6500600","新店區"
"235030","003-UY","2018/04/05 14:59:31","新北市中和區光華街32號","121.504866666667","25.004055","6500300","中和區"
"235020","096-UM","2018/04/05 14:59:26","新北市中和區中山路三段170巷29號","121.472593333333","25.0072783333333","6500300","中和區"
"235029","098-UM","2018/04/05 14:59:33","新北市中和區永和路39巷20號","121.497238333333","25.00531","6500300","中和區"
"235004","150-BY","2018/04/05 14:59:25","新北市中和區保健路26巷15號","121.50852","24.9972516666667","6500300","中和區"
"235022","151-BY","2018/04/05 14:59:33","新北市中和區員山路150巷2弄15號","121.48187","24.99788","6500300","中和區"
"235013","186-VK","2018/04/05 14:59:20","新北市中和區南華路13號","121.502348333333","24.99559","6500300","中和區"
"235031","255-BX","2018/04/05 14:59:25","新北市中和區中正路998號","121.482531666667","25.0087316666667","6500300","中和區"
"235007","352-BY","2018/04/05 14:59:19","新北市中和區興南路二段159巷31號","121.505586666667","24.9826933333333","6500300","中和區"
"235032","377-QA","2018/04/05 14:50:37","新北市中和區連城路11號","121.499178333333","25.00213","6500300","中和區"
"235014","4979-A6","2018/04/05 14:59:20","新北市中和區景平路310號","121.512445","24.9927783333333","6500300","中和區"
"235033","4980-A6","2018/04/05 14:59:23","新北市中和區圓通路182號","121.496666666667","24.9943733333333","6500300","中和區"
"235034","558-UM","2018/04/05 14:59:32","新北市中和區圓通路138號","121.498353333333","24.99572","6500300","中和區"
"235018","640-BX","2018/04/05 14:59:19","新北市中和區莒光路65號","121.472305","25.0036183333333","6500300","中和區"
"235010","733-UM","2018/04/05 14:59:20","新北市中和區興南路一段61號","121.510388333333","24.9896683333333","6500300","中和區"
"235026","800-TS","2018/04/05 14:59:36","新北市中和區永和路171巷3弄1號","121.49233","25.00672","6500300","中和區"
"235016","805-TS","2018/04/05 14:59:25","新北市中和區華新街162號","121.507428333333","24.982305","6500300","中和區"
"235012","896-TW","2018/04/05 14:59:21","新北市中和區忠孝街2-8號","121.509225","24.9830266666667","6500300","中和區"
"235017","900-TW","2018/04/05 14:59:22","新北市中和區國光街170號","121.467775","25.0016983333333","6500300","中和區"
"235015","157-BY","2018/04/05 14:59:36","新北市中和區景安路220巷20號","121.502751666667","24.9914383333333","6500300","中和區"
"235001","AAC-213","2018/04/05 14:59:37","新北市中和區自立路99巷22弄27號","121.523296666667","24.99388","6500300","中和區"
"235023","AAC-215","2018/04/05 14:59:32","新北市中和區圓通路367巷6號","121.491745","24.989415","6500300","中和區"
"220013","072-UY","2018/04/05 14:59:31","新北市板橋區中山路一段154巷25號","121.465376666667","25.01048","6500100","板橋區"
"220034","073-UY","2018/04/05 14:59:31","新北市板橋區板城路271號","121.450161666667","24.9984616666667","6500100","板橋區"
"220014","075-UY","2018/04/05 14:59:30","新北市板橋區漢生東路193巷69弄1號","121.472336666667","25.012185","6500100","板橋區"
"220017","AAD-861","2018/04/05 14:59:28","新北市板橋區貴興路97號","121.456351666667","25.0026616666667","6500100","板橋區"
"247021","500-BY","2018/04/05 14:59:29","新北市蘆洲區環堤大道365號","121.455705","25.0975083333333","6501400","蘆洲區"
"235003","251-BX","2018/04/05 14:59:23","新北市中和區安樂路143巷7號","121.51403","24.99709","6500300","中和區"
"228004","212-TW","2018/04/05 14:59:25","新北市貢寮區雙玉里田寮洋街1號","121.928203333333","25.01819","6502600","貢寮區"
"253003","6232-TK","2018/04/05 14:59:36","新北市石門區尖子鹿103-1號","121.5796","25.2943033333333","6502200","石門區"
"253001","6251-TK","2018/04/05 14:59:34","新北市石門區崁子腳57-1號","121.536741666667","25.2754166666667","6502200","石門區"
"253002","637-UY","2018/04/05 14:59:24","新北市石門區老崩山10-7號","121.55247","25.2909783333333","6502200","石門區"
"253004","8270-PC","2018/04/05 14:59:38","新北市石門區坪林28號","121.595238333333","25.267675","6502200","石門區"
"207002","749-BX","2018/04/05 14:59:22","新北市萬里區崁腳里崁腳路73號","121.647503333333","25.159705","6502800","萬里區"
"207001","662-BX","2018/04/05 14:59:27","新北市萬里區雙興里豐稟路6-1號","121.649366666667","25.1852883333333","6502800","萬里區"
"236068","105-UM","2018/04/05 14:59:34","新北市土城區裕生路65號","121.44725","24.9851416666667","6501300","土城區"
"236040","107-UM","2018/04/05 14:59:39","新北市土城區學府路一段219巷8號","121.451695","24.9839","6501300","土城區"
"236074","166-UM","2018/04/05 14:59:17","新北市土城區大暖坑11-2號","121.41875","24.9535733333333","6501300","土城區"
"236029","253-BX","2018/04/05 14:59:20","新北市土城區慶利街17號","121.439183333333","24.9739633333333","6501300","土城區"
"236024","269-VK","2018/04/05 14:59:33","新北市土城區中正路56巷11號","121.444033333333","24.9747933333333","6501300","土城區"
"236012","270-VK","2018/04/05 14:59:38","新北市土城區永豐路29巷1號","121.462958333333","24.9882383333333","6501300","土城區"
"236032","271-VK","2018/04/05 14:59:26","新北市土城區仁愛路13巷1號","121.460305","24.980845","6501300","土城區"
"236017","401-BY","2018/04/05 14:59:38","新北市土城區延吉街168巷7號","121.468166666667","24.9857483333333","6501300","土城區"
"236057","912-UM","2018/04/05 14:59:32","新北市土城區清水路3號","121.453003333333","24.9803883333333","6501300","土城區"
"236045","913-UM","2018/04/05 14:59:29","新北市土城區明德路一段398-1號","121.453638333333","24.9791283333333","6501300","土城區"
"236060","915-UM","2018/04/05 14:59:31","新北市土城區延和路89號","121.466951666667","24.99002","6501300","土城區"
"236054","AAC-216","2018/04/05 14:59:34","新北市土城區學成路36號","121.452646666667","24.98738","6501300","土城區"
"238018","571-TV","2018/04/05 14:59:22","新北市樹林區育德街78-1號","121.38831","24.968265","6500700","樹林區"
"238008","KEA-2539","2018/04/05 14:59:29","新北市樹林區育德街78-1號","121.387898333333","24.9681316666667","6500700","樹林區"
"238001","282-BY","2018/04/05 14:59:18","新北市樹林區育德街78-1號","121.387576666667","24.968125","6500700","樹林區"
"238013","172-UY","2018/04/05 14:59:05","新北市樹林區育德街78號","121.387563333333","24.9683916666667","6500700","樹林區"
"221002","707-TV","2018/04/05 14:59:35","新北市汐止區新興路84巷7號","121.657785","25.0612283333333","6501100","汐止區"
"220027","145-BY","2018/04/05 14:59:37","新北市板橋區中正路183巷44號","121.455033333333","25.0160366666667","6500100","板橋區"
"220028","200-UY","2018/04/05 14:59:36","新北市板橋區大觀路二段153巷39弄1號","121.447001666667","25.0005483333333","6500100","板橋區"
"220105","KEA-2550","2018/04/05 14:59:34","新北市板橋區文聖街11巷14號","121.475826666667","25.0325866666667","6500100","板橋區"
"220030","610-BX","2018/04/05 14:59:25","新北市板橋區篤行路二段102號","121.431456666667","24.9913416666667","6500100","板橋區"
"220046","255-TC","2018/04/05 14:59:36","新北市板橋區幸福路30號","121.461673333333","25.020325","6500100","板橋區"
"220020","277-BY","2018/04/05 14:59:23","新北市板橋區篤行路二段129號","121.431281666667","24.9904833333333","6500100","板橋區"
"220050","280-UM","2018/04/05 14:59:35","新北市板橋區萬板路118號","121.4749","25.0233733333333","6500100","板橋區"
"220025","282-UM","2018/04/05 14:59:36","新北市板橋區僑中一街124巷7號","121.445918333333","25.0125383333333","6500100","板橋區"
"220043","283-UM","2018/04/05 14:59:34","新北市板橋區文德路38號","121.462128333333","25.024225","6500100","板橋區"
"220019","283-VK","2018/04/05 14:59:25","新北市板橋區和平路174巷1弄8號","121.464391666667","24.9952833333333","6500100","板橋區"
"220001","285-VK","2018/04/05 14:59:20","新北市板橋區民享街56號","121.476131666667","25.0151316666667","6500100","板橋區"
"220031","286-VK","2018/04/05 14:59:30","新北市板橋區僑中二街50號","121.446575","25.0104633333333","6500100","板橋區"
"220029","287-VK","2018/04/05 14:59:35","新北市板橋區僑中一街80巷5弄2-4號","121.4478","25.0125883333333","6500100","板橋區"
"220039","288-VK","2018/04/05 14:59:37","新北市板橋區龍泉街90巷3號","121.456198333333","25.0247416666667","6500100","板橋區"
"220009","293-UM","2018/04/05 14:59:25","新北市板橋區民生路二段15號","121.472405","25.0160233333333","6500100","板橋區"
"220023","303-R5","2018/04/05 14:59:27","新北市板橋區金華街10巷48弄64號","121.459531666667","25.0202716666667","6500100","板橋區"
"220010","305-R5","2018/04/05 14:59:33","新北市板橋區中山路二段416巷58號","121.482918333333","25.01895","6500100","板橋區"
"220041","307-R5","2018/04/05 14:59:36","新北市板橋區四維路259巷91號","121.45982","25.026265","6500100","板橋區"
"220047","317-R6","2018/04/05 14:59:30","新北市板橋區新海路72巷46弄5號","121.462326666667","25.0232216666667","6500100","板橋區"
"220012","486-VK","2018/04/05 14:59:36","新北市板橋區漢生東路193巷2號","121.471153333333","25.011945","6500100","板橋區"
"220037","491-VK","2018/04/05 14:59:31","新北市板橋區文聖街61號","121.476793333333","25.0310133333333","6500100","板橋區"
"220104","560-BX","2018/04/05 14:59:30","新北市板橋區新生街23巷3弄1號","121.45613","25.021565","6500100","板橋區"
"220052","561-BX","2018/04/05 14:59:27","新北市板橋區陽明街27巷4號","121.465366666667","25.0216866666667","6500100","板橋區"
"220011","609-BX","2018/04/05 14:59:39","新北市板橋區中山路二段467號","121.481946666667","25.02048","6500100","板橋區"
"220003","630-UY","2018/04/05 14:59:33","新北市板橋區忠孝路48巷11弄7號","121.461636666667","24.9998966666667","6500100","板橋區"
"220040","637-BX","2018/04/05 14:59:36","新北市板橋區懷德街174巷18弄4號","121.478825","25.0298083333333","6500100","板橋區"
"220005","686-BX","2018/04/05 14:59:26","新北市板橋區四川路二段99-5號","121.452381666667","24.9946266666667","6500100","板橋區"
"220042","689-BX","2018/04/05 14:59:35","新北市板橋區長江路三段5號","121.471945","25.0335433333333","6500100","板橋區"
"220002","741-BX","2018/04/05 14:59:34","新北市板橋區忠孝路201巷94號","121.46476","25.0047866666667","6500100","板橋區"
"220051","KEA-2699","2018/04/05 14:59:26","新北市板橋區仁化街42巷26號","121.47566","25.0308683333333","6500100","板橋區"
"220016","830-TW","2018/04/05 14:59:26","新北市板橋區中山路二段353號","121.479473333333","25.0190883333333","6500100","板橋區"
"220045","831-TW","2018/04/05 14:59:22","新北市板橋區莒光路15巷8號","121.47014","25.02521","6500100","板橋區"
"220038","833-TW","2018/04/05 14:59:34","新北市板橋區龍泉街108巷8號","121.456198333333","25.0245033333333","6500100","板橋區"
"220022","895-R6","2018/04/05 14:59:18","新北市板橋區文化路一段32巷23號","121.460115","25.0109466666667","6500100","板橋區"
"220021","985-R7","2018/04/05 14:59:23","新北市板橋區南雅西路二段2-1號","121.45318","25.0088083333333","6500100","板橋區"
"220018","AAC-253","2018/04/05 14:59:33","新北市板橋區成都街97號","121.463218333333","25.0053783333333","6500100","板橋區"
