"lineid","car","time","location","longitude","latitude","cityid","cityname"
"249004","303-UY","2018/04/05 16:49:44","新北市八里區博物館路202巷60號","121.408015","25.16215","6502300","八里區"
"249002","305-UY","2018/04/05 16:49:42","新北市八里區牛寮埔31號","121.429666666667","25.1457883333333","6502300","八里區"
"249003","593-UM","2018/04/05 16:49:37","新北市八里區博物館路133號","121.407931666667","25.158545","6502300","八里區"
"244019","657-BX","2018/04/05 16:49:39","新北市林口區粉寮69號","121.40512","25.0908466666667","6501700","林口區"
"231046","188-VK","2018/04/05 16:49:26","新北市新店區灣潭路15-8號","121.540938333333","24.9390666666667","6500600","新店區"
"241011","013-R5","2018/04/05 16:49:21","新北市三重區仁愛街53巷126號","121.499091666667","25.0725966666667","6500200","三重區"
"241028","022-UY","2018/04/05 16:49:31","新北市三重區光興街91號","121.497395","25.0599766666667","6500200","三重區"
"241008","059-VK","2018/04/05 16:49:26","新北市三重區永安北路一段17巷22-3號","121.477113333333","25.075145","6500200","三重區"
"241009","060-VK","2018/04/05 16:49:38","新北市三重區三和路四段203巷214號","121.486491666667","25.0807383333333","6500200","三重區"
"241031","061-VK","2018/04/05 16:49:40","新北市三重區過圳街42-1號","121.488258333333","25.059755","6500200","三重區"
"241015","062-VK","2018/04/05 16:49:38","新北市三重區文化北路41-5號","121.499058333333","25.0655016666667","6500200","三重區"
"241017","063-VK","2018/04/05 16:49:32","新北市三重區大同北路60巷12號","121.49386","25.0638033333333","6500200","三重區"
"241024","065-VK","2018/04/05 16:49:36","新北市三重區國道路一段139號","121.475506666667","25.0736316666667","6500200","三重區"
"241026","066-VK","2018/04/05 16:49:27","新北市三重區文化南路3號","121.500048333333","25.0623766666667","6500200","三重區"
"241002","090-VK","2018/04/05 16:49:27","新北市三重區仁義街237號","121.496338333333","25.0824766666667","6500200","三重區"
"241003","091-VK","2018/04/05 16:49:33","新北市三重區五華街71巷76號","121.493791666667","25.0839","6500200","三重區"
"241005","262-UM","2018/04/05 16:49:42","新北市三重區仁華街80巷13號","121.484633333333","25.08348","6500200","三重區"
"241016","265-UM","2018/04/05 16:49:31","新北市三重區大同北路135巷27號","121.493771666667","25.0647316666667","6500200","三重區"
"241022","267-UM","2018/04/05 16:49:23","新北市三重區中華路111巷18號","121.484263333333","25.0634933333333","6500200","三重區"
"241018","268-UM","2018/04/05 16:49:33","新北市三重區正義北路304號","121.495131666667","25.069845","6500200","三重區"
"241032","269-UM","2018/04/05 16:49:40","新北市三重區重陽路一段120巷35號","121.485146666667","25.0602616666667","6500200","三重區"
"241013","270-UM","2018/04/05 16:49:43","新北市三重區仁壽街48號","121.4976","25.0736466666667","6500200","三重區"
"241025","271-UM","2018/04/05 16:49:39","新北市三重區中正北路361-1號","121.472618333333","25.0717683333333","6500200","三重區"
"241007","398-BY","2018/04/05 16:49:21","新北市三重區三和路四段173號","121.482961666667","25.078835","6500200","三重區"
"241020","478-VK","2018/04/05 16:49:29","新北市三重區自強路三段8巷28號","121.486088333333","25.0715283333333","6500200","三重區"
"241030","480-VK","2018/04/05 16:49:31","新北市三重區中正南路263號","121.492831666667","25.0528616666667","6500200","三重區"
"241014","543-UM","2018/04/05 16:49:39","新北市三重區長榮路75號","121.502543333333","25.0691383333333","6500200","三重區"
"241023","545-UM","2018/04/05 16:49:28","新北市三重區中華路76巷37-1號","121.482003333333","25.0626433333333","6500200","三重區"
"241001","547-UM","2018/04/05 16:49:38","新北市三重區仁政街78號","121.492616666667","25.07743","6500200","三重區"
"241019","KEA-2593","2018/04/05 16:49:32","新北市三重區忠孝路二段38巷18號","121.485688333333","25.0700516666667","6500200","三重區"
"241006","AAD-863","2018/04/05 16:49:21","新北市三重區力行路二段182-3號","121.483353333333","25.0774683333333","6500200","三重區"
"241004","887-TS","2018/04/05 16:49:28","新北市三重區仁愛街397巷15號","121.49195","25.0813816666667","6500200","三重區"
"241012","941-UM","2018/04/05 16:49:27","新北市三重區仁興街11巷54號","121.501001666667","25.0745316666667","6500200","三重區"
"241029","942-UM","2018/04/05 16:49:22","新北市三重區新興路31巷8號","121.492323333333","25.0538333333333","6500200","三重區"
"241033","AAC-255","2018/04/05 16:49:42","新北市三重區中興北街275號","121.469168333333","25.0609133333333","6500200","三重區"
"235030","003-UY","2018/04/05 16:49:31","新北市中和區員山路36巷16-3號","121.485063333333","24.9913966666667","6500300","中和區"
"247006","336-TH","2018/04/05 16:49:40","新北市蘆洲區永安南路二段132-1號","121.462493333333","25.07857","6501400","蘆洲區"
"247008","056-VK","2018/04/05 16:49:30","新北市蘆洲區中山二路45巷30號","121.474253333333","25.0812733333333","6501400","蘆洲區"
"247020","001-UY","2018/04/05 16:49:23","新北市蘆洲區民族路422巷9弄2號","121.474063333333","25.0921416666667","6501400","蘆洲區"
"228003","097-TW","2018/04/05 16:49:30","新北市貢寮區貢寮里朝陽街1-2號","121.912318333333","25.0212816666667","6502600","貢寮區"
"228002","585-TW","2018/04/05 16:49:38","新北市貢寮區貢寮里朝陽街120巷1號","121.908046666667","25.022885","6502600","貢寮區"
"224006","676-BX","2018/04/05 16:49:37","新北市瑞芳區大寮路356-1號","121.784613333333","25.1030966666667","6501200","瑞芳區"
"224008","285-BY","2018/04/05 16:49:37","新北市瑞芳區明燈路二段66號","121.809358333333","25.10723","6501200","瑞芳區"
"224007","275-VK","2018/04/05 16:49:31","新北市瑞芳區中央路48巷吉祥園8號","121.759525","25.1036816666667","6501200","瑞芳區"
"224009","273-VK","2018/04/05 16:49:21","新北市瑞芳區三爪子坑路32巷40號","121.809328333333","25.1067766666667","6501200","瑞芳區"
"224005","271-BY","2018/04/05 16:49:31","新北市瑞芳區明里路4號","121.86879","25.1209416666667","6501200","瑞芳區"
"227004","642-TC","2018/04/05 16:49:33","新北市雙溪區外柑里外柑腳71號","121.807143333333","25.01763","6502500","雙溪區"
"227010","400-TW","2018/04/05 16:49:24","新北市雙溪區牡丹里五分2號","121.86668","25.0471983333333","6502500","雙溪區"
"251013","179-VK","2018/04/05 16:49:31","新北市淡水區泉洲厝32號","121.489325","25.192545","6501000","淡水區"
"251014","180-VK","2018/04/05 16:49:31","新北市淡水區淡金路三段55號","121.447433333333","25.19832","6501000","淡水區"
"251008","181-VK","2018/04/05 16:49:23","新北市淡水區樹梅坑39號","121.474575","25.1441266666667","6501000","淡水區"
"251015","182-VK","2018/04/05 16:49:26","新北市淡水區忠愛街4-1號","121.459171666667","25.1713933333333","6501000","淡水區"
"251010","413-VK","2018/04/05 16:49:25","新北市淡水區中正路二段31號","121.419453333333","25.1815183333333","6501000","淡水區"
"251012","441-VK","2018/04/05 16:49:40","新北市淡水區中正路二段31號","121.419663333333","25.1815033333333","6501000","淡水區"
"251005","443-VK","2018/04/05 16:49:25","新北市淡水區中正路二段31號","121.419255","25.18183","6501000","淡水區"
"251009","575-R6","2018/04/05 16:49:30","新北市淡水區中正路二段31號","121.41959","25.1815333333333","6501000","淡水區"
"251007","577-R6","2018/04/05 16:49:42","新北市淡水區中正路206號","121.439721666667","25.1701816666667","6501000","淡水區"
"251011","650-BX","2018/04/05 16:49:29","新北市淡水區淡金路51號","121.456036666667","25.1608466666667","6501000","淡水區"
"252002","178-VK","2018/04/05 16:49:25","新北市三芝區忠孝街37號","121.506118333333","25.2557683333333","6502100","三芝區"
"252001","292-VK","2018/04/05 16:49:27","新北市三芝區埔坪里埔頭坑107號","121.50469","25.2617283333333","6502100","三芝區"
"242029","705-TV","2018/04/05 16:49:39","新北市新莊區新泰路357巷3弄57號","121.442193333333","25.039225","6500500","新莊區"
"242042","566-BX","2018/04/05 16:49:40","新北市新莊區新泰路255巷83號","121.442113333333","25.03897","6500500","新莊區"
"242036","415-TV","2018/04/05 16:49:28","新北市新莊區新泰路357巷3弄57號","121.442105","25.0393933333333","6500500","新莊區"
"242015","346-TH","2018/04/05 16:49:30","新北市新莊區三和路12-17號","121.442018333333","25.0375466666667","6500500","新莊區"
"238012","303-VK","2018/04/05 16:49:35","新北市樹林區中正路22-1號","121.427881666667","24.9992566666667","6500700","樹林區"
"238017","283-BY","2018/04/05 16:49:39","新北市樹林區中正路433-2號","121.414773333333","25.008245","6500700","樹林區"
"238001","282-BY","2018/04/05 16:49:38","新北市樹林區大慶街99-1號","121.427776666667","24.9998533333333","6500700","樹林區"
"239001","417-VK","2018/04/05 16:34:17","新北市鶯歌區二甲路171-1號","121.343906666667","24.9355633333333","6500800","鶯歌區"
"239002","359-BY","2018/04/05 16:49:26","新北市鶯歌區環河路177-1號","121.34626","24.935385","6500800","鶯歌區"
