"lineid","car","time","location","longitude","latitude","cityid","cityname"
"249005","172-UM","2018/04/05 17:19:30","新北市五股區民義路二段129號","121.414425","25.122895","6502300","八里區"
"249001","173-UM","2018/04/05 17:19:23","新北市八里區中華路二段165巷3號","121.40768","25.1509116666667","6502300","八里區"
"249004","303-UY","2018/04/05 17:19:29","新北市八里區賢三街86號","121.417495","25.1579133333333","6502300","八里區"
"249002","305-UY","2018/04/05 17:19:22","新北市八里區龍米路二段117巷37號","121.443413333333","25.1418683333333","6502300","八里區"
"249003","593-UM","2018/04/05 17:19:37","新北市八里區中山路二段347號","121.399306666667","25.14713","6502300","八里區"
"232011","375-UM","2018/04/05 17:19:24","新北市坪林區鶯子瀨1-2號","121.709146666667","24.9182316666667","6502000","坪林區"
"244013","069-UM","2018/04/05 17:19:28","新北市林口區粉寮69號","121.404985","25.0908616666667","6501700","林口區"
"244006","080-UY","2018/04/05 17:19:18","新北市林口區菁埔26-68號","121.376603333333","25.09522","6501700","林口區"
"244025","742-UY","2018/04/05 17:19:26","新北市林口區文化三路一段482-100號","121.37035","25.0760083333333","6501700","林口區"
"244009","410-SL","2018/04/05 17:19:30","新北市林口區松柏路78號","121.379521666667","25.0906833333333","6501700","林口區"
"244023","483-VK","2018/04/05 17:19:21","新北市林口區隆林街26號","121.388485","25.0754516666667","6501700","林口區"
"244019","657-BX","2018/04/05 17:19:19","新北市林口區文化二路一段338號","121.372633333333","25.0750883333333","6501700","林口區"
"244011","701-TV","2018/04/05 17:19:24","新北市林口區粉寮路37-1號","121.401085","25.0849383333333","6501700","林口區"
"244021","838-TS","2018/04/05 17:19:16","新北市林口區粉寮路55號","121.405865","25.0878733333333","6501700","林口區"
"241011","013-R5","2018/04/05 17:19:20","新北市三重區河邊北街100巷5號","121.503673333333","25.07039","6500200","三重區"
"241028","022-UY","2018/04/05 17:19:31","新北市三重區仁化商場3號","121.493531666667","25.05953","6500200","三重區"
"241008","059-VK","2018/04/05 17:19:29","新北市三重區下竹圍街9號","121.48103","25.0758566666667","6500200","三重區"
"241009","060-VK","2018/04/05 17:19:18","新北市三重區仁愛街668號","121.482383333333","25.0803533333333","6500200","三重區"
"241031","061-VK","2018/04/05 17:19:20","新北市三重區新北大道一段96號","121.485681666667","25.06155","6500200","三重區"
"241015","062-VK","2018/04/05 17:19:18","新北市三重區長元街82-1號","121.501846666667","25.06632","6500200","三重區"
"241017","063-VK","2018/04/05 17:19:32","新北市三重區大同北路55號","121.49515","25.0632183333333","6500200","三重區"
"241024","065-VK","2018/04/05 17:19:16","新北市三重區大勇街82巷15弄3號","121.479841666667","25.07182","6500200","三重區"
"241026","066-VK","2018/04/05 17:19:27","新北市三重區福裕街3號","121.499855","25.0617516666667","6500200","三重區"
"241002","090-VK","2018/04/05 17:19:27","新北市三重區自強路五段21-1號","121.493105","25.08072","6500200","三重區"
"241003","091-VK","2018/04/05 17:19:33","新北市三重區富福街47號","121.491588333333","25.0842416666667","6500200","三重區"
"241005","262-UM","2018/04/05 17:19:22","新北市三重區永安北路二段25巷54號","121.483318333333","25.082055","6500200","三重區"
"241016","265-UM","2018/04/05 17:19:31","新北市三重區大同北路111號","121.49415","25.0642683333333","6500200","三重區"
"241022","267-UM","2018/04/05 17:19:23","新北市三重區重陽路二段34巷44號","121.485715","25.0638366666667","6500200","三重區"
"241018","268-UM","2018/04/05 17:19:33","新北市三重區正義北路332-1號","121.494303333333","25.0703783333333","6500200","三重區"
"241032","269-UM","2018/04/05 17:19:20","新北市三重區新北大道一段133巷12號","121.482385","25.0609333333333","6500200","三重區"
"241013","270-UM","2018/04/05 17:19:23","新北市三重區仁愛街112巷4號","121.494645","25.07441","6500200","三重區"
"241025","271-UM","2018/04/05 17:19:19","新北市三重區中正北路416號","121.475308333333","25.0707066666667","6500200","三重區"
"241007","398-BY","2018/04/05 17:19:21","新北市三重區三和路四段163巷21號","121.484003333333","25.078855","6500200","三重區"
"241024","KEA-2210","2018/04/05 17:19:28","新北市三重區力行路二段2號","121.481833333333","25.07181","6500200","三重區"
"241020","478-VK","2018/04/05 17:19:29","新北市三重區自強路三段47號","121.486868333333","25.0729716666667","6500200","三重區"
"241030","480-VK","2018/04/05 17:19:31","新北市三重區成功路73巷36號","121.489758333333","25.0523683333333","6500200","三重區"
"241014","543-UM","2018/04/05 17:19:19","新北市三重區三和路二段83號","121.500098333333","25.0684566666667","6500200","三重區"
"241023","545-UM","2018/04/05 17:19:28","新北市三重區三民街176號","121.482015","25.06566","6500200","三重區"
"241001","547-UM","2018/04/05 17:19:17","新北市三重區仁愛街269巷6-1號","121.49335","25.0789683333333","6500200","三重區"
"241019","KEA-2593","2018/04/05 17:19:32","新北市三重區自強路二段74巷7號","121.488288333333","25.0698366666667","6500200","三重區"
"241004","887-TS","2018/04/05 17:19:28","新北市三重區碧華街382號","121.491283333333","25.08458","6500200","三重區"
"241012","941-UM","2018/04/05 17:19:27","新北市三重區仁信街27號","121.501268333333","25.07556","6500200","三重區"
"241033","AAC-255","2018/04/05 17:19:22","新北市三重區中興北街136巷21號","121.468236666667","25.0560466666667","6500200","三重區"
"235030","003-UY","2018/04/05 17:10:46","新北市中和區員山路36巷16-3號","121.485048333333","24.9913483333333","6500300","中和區"
"235061","378-QA","2018/04/05 17:03:08","新北市中和區員山路36巷16-2號","121.485131666667","24.991795","6500300","中和區"
"247024","893-R6","2018/04/05 17:19:25","新北市蘆洲區長榮路262號","121.460396666667","25.0860416666667","6501400","蘆洲區"
"247014","546-UM","2018/04/05 17:19:28","新北市蘆洲區得勝街118號","121.470995","25.0828116666667","6501400","蘆洲區"
"247022","500-BY","2018/04/05 17:19:19","新北市蘆洲區三民路128巷35號","121.469935","25.0895533333333","6501400","蘆洲區"
"247010","341-TH","2018/04/05 17:19:15","新北市蘆洲區中山一路120巷7弄26號","121.477403333333","25.0818883333333","6501400","蘆洲區"
"247012","339-TH","2018/04/05 17:19:17","新北市蘆洲區信義路319巷12號","121.477695","25.08632","6501400","蘆洲區"
"247004","337-TH","2018/04/05 17:19:27","新北市蘆洲區中原路85號","121.457993333333","25.0816766666667","6501400","蘆洲區"
"247006","336-TH","2018/04/05 17:19:20","新北市蘆洲區永安南路二段156號","121.46171","25.0788166666667","6501400","蘆洲區"
"247018","057-VK","2018/04/05 17:19:16","新北市蘆洲區民權路68巷14號","121.47556","25.0878666666667","6501400","蘆洲區"
"247008","056-VK","2018/04/05 17:19:30","新北市蘆洲區永安北路一段72巷52號","121.476125","25.0769383333333","6501400","蘆洲區"
"247016","007-UY","2018/04/05 17:19:37","新北市蘆洲區正和街97號","121.467936666667","25.08057","6501400","蘆洲區"
"247002","002-UY","2018/04/05 17:19:34","新北市蘆洲區永樂街38巷33弄12號","121.457546666667","25.08964","6501400","蘆洲區"
"247020","001-UY","2018/04/05 17:19:23","新北市蘆洲區仁愛街19號","121.472481666667","25.0922916666667","6501400","蘆洲區"
"228003","097-TW","2018/04/05 17:19:30","新北市貢寮區福隆里興隆街24號","121.944578333333","25.016685","6502600","貢寮區"
"228001","212-TW","2018/04/05 17:19:18","新北市貢寮區仁理村尖山腳街18-3號","121.925496666667","25.048355","6502600","貢寮區"
"228002","585-TW","2018/04/05 17:19:18","新北市貢寮區雙玉里下雙溪街24號","121.92253","25.00982","6502600","貢寮區"
"224006","676-BX","2018/04/05 17:19:17","新北市瑞芳區傑魚坑路314號","121.786821666667","25.1054466666667","6501200","瑞芳區"
"224008","285-BY","2018/04/05 17:19:17","新北市瑞芳區侯硐路48號","121.825733333333","25.0829766666667","6501200","瑞芳區"
"224009","273-VK","2018/04/05 17:19:29","新北市瑞芳區汽車路94號","121.842491666667","25.1086016666667","6501200","瑞芳區"
"224005","271-BY","2018/04/05 17:19:31","新北市瑞芳區鼻頭路247號","121.910258333333","25.12229","6501200","瑞芳區"
"227004","642-TC","2018/04/05 17:19:33","新北市雙溪區上林里內平林90號","121.827578333333","25.027525","6502500","雙溪區"
"227010","400-TW","2018/04/05 17:19:24","新北市雙溪區三貂里十三層9-5號","121.853176666667","25.0774016666667","6502500","雙溪區"
"251004","009-UM","2018/04/05 17:19:30","新北市淡水區中正東路二段88巷15號","121.459195","25.1504766666667","6501000","淡水區"
"251013","179-VK","2018/04/05 17:19:31","新北市淡水區竹圍子8-5號","121.478215","25.1933616666667","6501000","淡水區"
"251014","180-VK","2018/04/05 17:19:31","新北市淡水區公埔子5-1號","121.464725","25.2267583333333","6501000","淡水區"
"251008","181-VK","2018/04/05 17:19:23","新北市淡水區大同路283號","121.467916666667","25.1424816666667","6501000","淡水區"
"251015","182-VK","2018/04/05 17:17:05","新北市淡水區樹林口11號","121.479126666667","25.168025","6501000","淡水區"
"251010","413-VK","2018/04/05 17:19:25","新北市淡水區中正路二段397號","121.425055","25.1913033333333","6501000","淡水區"
"251012","441-VK","2018/04/05 17:19:20","新北市淡水區中山北路一段156號","121.444255","25.1780266666667","6501000","淡水區"
"251016","442-VK","2018/04/05 17:19:32","新北市淡水區鄒厝崙12-1號","121.465225","25.19016","6501000","淡水區"
"251005","443-VK","2018/04/05 17:19:25","新北市淡水區鄧公路23巷1-5號","121.450256666667","25.1699666666667","6501000","淡水區"
"251001","559-UM","2018/04/05 17:19:27","新北市淡水區民權路92巷35-1號","121.46221","25.1267183333333","6501000","淡水區"
"251006","561-UM","2018/04/05 17:19:18","新北市淡水區大智街28號","121.442191666667","25.174395","6501000","淡水區"
"251009","575-R6","2018/04/05 17:19:30","新北市淡水區三民街19號","121.439015","25.1718683333333","6501000","淡水區"
"251007","577-R6","2018/04/05 17:19:22","新北市淡水區民生路56號","121.462045","25.1379066666667","6501000","淡水區"
"251011","650-BX","2018/04/05 17:19:29","新北市淡水區坪頂路150號","121.468078333333","25.1621916666667","6501000","淡水區"
"251002","672-BX","2018/04/05 17:19:23","新北市淡水區中正路二段31號","121.419346666667","25.1816283333333","6501000","淡水區"
"251003","766-UM","2018/04/05 17:19:18","新北市淡水區中正路二段31號","121.419258333333","25.18195","6501000","淡水區"
"207003","550-UM","2018/04/05 17:19:26","新北市萬里區萬里里瑪鋉路238號","121.689155","25.18041","6502800","萬里區"
"252002","178-VK","2018/04/05 17:19:25","新北市三芝區忠孝街1-14號","121.50551","25.25394","6502100","三芝區"
"252001","292-VK","2018/04/05 17:19:27","新北市三芝區長安街119號","121.49804","25.25971","6502100","三芝區"
"237012","275-BY","2018/04/05 17:19:32","新北市三峽區中山路459巷163-3號","121.348863333333","24.9331283333333","6500900","三峽區"
"242058","986-R7","2018/04/05 17:19:34","新北市新莊區新泰路357巷3弄37號","121.442055","25.0404016666667","6500500","新莊區"
"242053","751-BX","2018/04/05 17:19:29","新北市新莊區環河路636-1號","121.436668333333","25.0107666666667","6500500","新莊區"
"242029","705-TV","2018/04/05 17:19:19","新北市新莊區幸福路764號","121.447221666667","25.0492016666667","6500500","新莊區"
"242027","615-BX","2018/04/05 17:19:16","新北市新莊區中港路297號","121.452851666667","25.0443683333333","6500500","新莊區"
"242025","613-BX","2018/04/05 17:19:32","新北市新莊區中和街1號","121.448383333333","25.0429783333333","6500500","新莊區"
"242042","566-BX","2018/04/05 17:19:20","新北市新莊區中正路400號","121.441503333333","25.0339283333333","6500500","新莊區"
"242046","497-BY","2018/04/05 17:19:24","新北市新莊區新樹路65-5號","121.439416666667","25.0308466666667","6500500","新莊區"
"242004","442-UM","2018/04/05 17:19:28","新北市新莊區中平路82巷36-2號","121.446376666667","25.0449333333333","6500500","新莊區"
"242051","441-UM","2018/04/05 17:19:14","新北市新莊區瓊林南路46-2號","121.435868333333","25.017765","6500500","新莊區"
"242056","440-UM","2018/04/05 17:19:25","新北市新莊區中正路473-1號","121.442046666667","25.0330433333333","6500500","新莊區"
"242036","415-TV","2018/04/05 17:19:28","新北市新莊區中正路481號","121.44133","25.0338083333333","6500500","新莊區"
"242007","413-TV","2018/04/05 17:19:23","新北市新莊區中誠街128號","121.449088333333","25.0476416666667","6500500","新莊區"
"242044","400-BY","2018/04/05 17:19:14","新北市新莊區富國路101-1號","121.421286666667","25.025525","6500500","新莊區"
"242023","362-BY","2018/04/05 17:19:38","新北市新莊區中港一街142號","121.446515","25.044985","6500500","新莊區"
"242061","353-BY","2018/04/05 17:19:15","新北市新莊區新泰路401巷29-1號","121.442016666667","25.0436633333333","6500500","新莊區"
"242039","133-UY","2018/04/05 17:19:25","新北市新莊區民安路300號","121.428228333333","25.0218466666667","6500500","新莊區"
"242031","135-UY","2018/04/05 17:19:25","新北市新莊區新泰路255巷83號","121.442421666667","25.0387366666667","6500500","新莊區"
"242048","172-VK","2018/04/05 17:19:27","新北市新莊區龍安路116號","121.418926666667","25.0204166666667","6500500","新莊區"
"242017","175-VK","2018/04/05 17:19:33","新北市新莊區中平路107號","121.44459","25.0463133333333","6500500","新莊區"
"242015","346-TH","2018/04/05 17:19:30","新北市新莊區建中街137號","121.445116666667","25.0365083333333","6500500","新莊區"
"242021","348-TH","2018/04/05 17:19:29","新北市新莊區新中街20號","121.456658333333","25.039805","6500500","新莊區"
"242002","349-TH","2018/04/05 17:19:32","新北市新莊區新豐街2號","121.449205","25.034745","6500500","新莊區"
"242019","350-TH","2018/04/05 17:19:23","新北市新莊區新泰路488號","121.442396666667","25.04578","6500500","新莊區"
"242013","351-TH","2018/04/05 17:19:19","新北市新莊區三和路12-11號","121.44225","25.0369616666667","6500500","新莊區"
"238023","601-UM","2018/04/05 17:19:33","新北市樹林區中正路433號","121.414935","25.00851","6500700","樹林區"
"238019","599-UM","2018/04/05 17:19:16","新北市樹林區八德街96號","121.4208","24.9802083333333","6500700","樹林區"
"238018","571-TV","2018/04/05 17:19:17","新北市樹林區樹中街55號","121.421146666667","24.985445","6500700","樹林區"
"238024","5061-A6","2018/04/05 17:19:36","新北市樹林區保安街一段48巷28號","121.426568333333","24.9952783333333","6500700","樹林區"
"238022","KEA-2213","2018/04/05 17:19:32","新北市樹林區仁愛街73巷3號","121.423501666667","24.9828183333333","6500700","樹林區"
"238021","KEA-2539","2018/04/05 17:19:26","新北市樹林區西圳街一段140號","121.396876666667","24.9632366666667","6500700","樹林區"
"238025","303-VK","2018/04/05 17:19:34","新北市樹林區保安二街69號","121.424543333333","24.9950333333333","6500700","樹林區"
"238017","283-BY","2018/04/05 17:19:18","新北市樹林區光武街32巷2號","121.41616","25.0058","6500700","樹林區"
"238014","282-BY","2018/04/05 17:19:18","新北市樹林區長壽街70巷19-1號","121.421923333333","24.9948","6500700","樹林區"
"238026","172-UY","2018/04/05 17:19:38","新北市樹林區中山路二段235號","121.402318333333","24.9762516666667","6500700","樹林區"
"238016","169-UY","2018/04/05 17:19:28","新北市樹林區八德街1號","121.417613333333","24.9849583333333","6500700","樹林區"
"239007","AAC-297","2018/04/05 17:19:32","新北市鶯歌區光復街25號","121.351478333333","24.955555","6500800","鶯歌區"
"239006","891-R6","2018/04/05 17:19:25","新北市鶯歌區福昌街14號","121.333108333333","24.9608433333333","6500800","鶯歌區"
"239008","527-UM","2018/04/05 17:19:24","新北市鶯歌區西湖街279巷23號","121.340951666667","24.9677933333333","6500800","鶯歌區"
"239005","526-UM","2018/04/05 17:19:21","新北市鶯歌區福德三街13號","121.329768333333","24.9675066666667","6500800","鶯歌區"
"239001","417-VK","2018/04/05 17:19:37","新北市鶯歌區黃厝街35號","121.342751666667","24.9455283333333","6500800","鶯歌區"
"239003","360-BY","2018/04/05 17:19:22","新北市鶯歌區德昌二街3巷1-1號","121.33316","24.95952","6500800","鶯歌區"
"239002","359-BY","2018/04/05 17:18:46","新北市鶯歌區建國路232巷2號","121.348546666667","24.9537333333333","6500800","鶯歌區"
"239004","193-VK","2018/04/05 17:19:29","新北市鶯歌區文化路559號","121.352863333333","24.9472016666667","6500800","鶯歌區"
"242009","281-VK","2018/04/05 17:19:27","新北市新莊區中環路二段392-1號","121.442478333333","25.0454466666667","6500500","新莊區"
