"lineid","car","time","location","longitude","latitude","cityid","cityname"
"234007","207-UY","2018/04/05 18:19:14","新北市永和區環河西路二段217巷5號","121.501653333333","25.00992","6500400","永和區"
"234042","862-TW","2018/04/05 18:19:01","新北市永和區福和路1號","121.526318333333","25.009805","6500400","永和區"
"234026","9371-KE","2018/04/05 18:18:52","新北市永和區中正路629號","121.515558333333","25.0099166666667","6500400","永和區"
"234011","9373-KE","2018/04/05 18:18:57","新北市永和區福和路1號","121.525671666667","25.0093066666667","6500400","永和區"
"249005","172-UM","2018/04/05 18:19:10","新北市八里區荖阡坑路15號","121.401095","25.140145","6502300","八里區"
"249001","173-UM","2018/04/05 18:19:03","新北市八里區龍米路一段290號","121.451516666667","25.1296183333333","6502300","八里區"
"249004","303-UY","2018/04/05 18:19:09","新北市八里區文心街117號","121.425888333333","25.1612083333333","6502300","八里區"
"249002","305-UY","2018/04/05 18:19:02","新北市八里區龍形二街52號","121.450183333333","25.13302","6502300","八里區"
"248014","025-BX","2018/04/05 18:19:08","新北市五股區自強路52號","121.433323333333","25.0737816666667","6501500","五股區"
"248016","026-BX","2018/04/05 18:19:00","新北市五股區西雲路286巷2號","121.449678333333","25.0985566666667","6501500","五股區"
"248006","077-UY","2018/04/05 18:19:09","新北市五股區中興路一段152號","121.46451","25.0738966666667","6501500","五股區"
"248008","095-VK","2018/04/05 18:19:07","新北市五股區更洲路32巷8弄35-9號","121.459858333333","25.0794383333333","6501500","五股區"
"248018","225-UY","2018/04/05 18:19:13","新北市五股區孝義路47巷11號","121.453451666667","25.1100316666667","6501500","五股區"
"248012","247-BX","2018/04/05 18:18:57","新北市五股區御史路1巷101弄2號","121.440996666667","25.0912133333333","6501500","五股區"
"248004","677-BX","2018/04/05 18:19:04","新北市五股區成泰路二段222-2號","121.439156666667","25.085475","6501500","五股區"
"248002","678-BX","2018/04/05 18:19:14","新北市五股區西雲路68號","121.443655","25.091665","6501500","五股區"
"248010","682-TV","2018/04/05 18:19:06","新北市五股區成泰路一段126號","121.435251666667","25.0744583333333","6501500","五股區"
"234023","9380-KE","2018/04/05 18:18:57","新北市永和區福和路1號","121.526403333333","25.0097183333333","6500400","永和區"
"232011","375-UM","2018/04/05 18:19:04","新北市坪林區坪雙路一段56號","121.714003333333","24.9428066666667","6502000","坪林區"
"244013","069-UM","2018/04/05 18:19:08","新北市林口區中山路160巷15號","121.39158","25.0797266666667","6501700","林口區"
"244006","080-UY","2018/04/05 18:18:58","新北市林口區林口路113巷6弄1號","121.388696666667","25.0806166666667","6501700","林口區"
"244025","742-UY","2018/04/05 18:19:06","新北市林口區南勢二街20-2號","121.355016666667","25.0679033333333","6501700","林口區"
"244009","410-SL","2018/04/05 18:19:10","新北市林口區福林路52巷30號","121.379413333333","25.089325","6501700","林口區"
"244023","483-VK","2018/04/05 18:19:01","新北市林口區仁愛路二段50號","121.384921666667","25.0757383333333","6501700","林口區"
"244017","485-VK","2018/04/05 18:19:04","新北市林口區八德路20巷17號","121.367516666667","25.0678033333333","6501700","林口區"
"244019","657-BX","2018/04/05 18:18:59","新北市林口區忠孝路569巷11號","121.3739","25.0687783333333","6501700","林口區"
"244011","701-TV","2018/04/05 18:19:04","新北市林口區中正路74巷5弄4號","121.394505","25.0780216666667","6501700","林口區"
"244021","838-TS","2018/04/05 18:18:56","新北市林口區自強一街49號","121.399205","25.0776066666667","6501700","林口區"
"243013","646-TV","2018/04/05 18:19:07","新北市泰山區明志路三段170號","121.424315","25.03929","6501600","泰山區"
"222003","436-BY","2018/04/05 18:19:09","新北市深坑區旺耽路67號","121.626238333333","25.0029783333333","6501800","深坑區"
"222002","659-BX","2018/04/05 18:19:01","新北市深坑區文化街13號","121.620418333333","25.0012783333333","6501800","深坑區"
"231041","002-UM","2018/04/05 18:18:54","新北市新店區安華路28-1號","121.519691666667","24.96092","6500600","新店區"
"231059","046-UY","2018/04/05 18:18:59","新北市新店區安華路28-1號","121.519565","24.9607266666667","6500600","新店區"
"231040","047-UY","2018/04/05 18:19:02","新北市新店區安華路28-1號","121.51912","24.9609283333333","6500600","新店區"
"231044","106-UY","2018/04/05 18:19:00","新北市新店區安華路28-1號","121.519768333333","24.9608483333333","6500600","新店區"
"231052","108-UY","2018/04/05 18:19:10","新北市新店區安康路一段33-1號","121.532266666667","24.9605433333333","6500600","新店區"
"231050","110-UY","2018/04/05 18:18:59","新北市新店區安華路28-1號","121.520023333333","24.9610766666667","6500600","新店區"
"231046","188-VK","2018/04/05 18:19:07","新北市新店區直潭七街60號","121.532266666667","24.939765","6500600","新店區"
"231054","KEA-2219","2018/04/05 18:18:55","新北市新店區安華路28-1號","121.519835","24.96129","6500600","新店區"
"231057","256-BX","2018/04/05 18:18:56","新北市新店區安華路28-1號","121.519681666667","24.9611133333333","6500600","新店區"
"231042","268-BY","2018/04/05 18:19:00","新北市新店區安華路28-1號","121.519481666667","24.96073","6500600","新店區"
"231058","3713-VJ","2018/04/05 18:19:08","新北市新店區環河路1-6號","121.538276666667","24.9612366666667","6500600","新店區"
"231066","4716-K9","2018/04/05 18:19:03","新北市新店區安華路28-1號","121.519265","24.9611966666667","6500600","新店區"
"231056","4715-K9","2018/04/05 18:19:02","新北市新店區中央路179-1號","121.535463333333","24.969295","6500600","新店區"
"231065","512-UM","2018/04/05 18:18:57","新北市新店區安華路28-1號","121.519358333333","24.9611833333333","6500600","新店區"
"231049","513-UM","2018/04/05 18:19:03","新北市新店區安華路28-1號","121.519708333333","24.9611266666667","6500600","新店區"
"231061","619-UM","2018/04/05 18:18:53","新北市新店區安華路28-1號","121.519613333333","24.96081","6500600","新店區"
"231063","641-BX","2018/04/05 18:19:09","新北市新店區安華路28-1號","121.519621666667","24.96056","6500600","新店區"
"231064","719-UM","2018/04/05 18:18:59","新北市新店區安華路28-1號","121.51937","24.96107","6500600","新店區"
"231062","720-UM","2018/04/05 18:19:06","新北市新店區安華路28-1號","121.51912","24.9611516666667","6500600","新店區"
"231060","897-TW","2018/04/05 18:19:05","新北市新店區安華路28-1號","121.51967","24.96072","6500600","新店區"
"231045","898-TW","2018/04/05 18:12:07","新北市新店區安華路28-1號","121.519391666667","24.960945","6500600","新店區"
"231043","899-TW","2018/04/05 18:18:53","新北市新店區安華路28-1號","121.519088333333","24.9608566666667","6500600","新店區"
"231055","AKT-0513","2018/04/05 18:19:00","新北市新店區安康路一段65號","121.530396666667","24.9610666666667","6500600","新店區"
"235066","003-UY","2018/04/05 18:19:05","新北市中和區中山路二段123號","121.502705","25.0035833333333","6500300","中和區"
"235064","005-UY","2018/04/05 18:19:01","新北市中和區圓通路141巷48弄35號","121.497926666667","24.9945116666667","6500300","中和區"
"235063","006-UY","2018/04/05 18:19:03","新北市中和區中正路569號","121.486583333333","24.9942666666667","6500300","中和區"
"235056","096-UM","2018/04/05 18:18:58","新北市中和區中山路二段570號","121.483028333333","25.0051783333333","6500300","中和區"
"235065","098-UM","2018/04/05 18:19:00","新北市中和區莊敬路49巷27號","121.50158","25.006135","6500300","中和區"
"235040","150-BY","2018/04/05 18:18:56","新北市中和區景安路66號","121.505796666667","24.9967766666667","6500300","中和區"
"235055","183-VK","2018/04/05 18:18:56","新北市中和區連城路583巷17號","121.478836666667","24.9933266666667","6500300","中和區"
"235038","185-VK","2018/04/05 18:19:12","新北市中和區秀朗路三段128巷17弄6號","121.524235","24.99351","6500300","中和區"
"235049","186-VK","2018/04/05 18:19:08","新北市中和區員山路36巷16-8號","121.485425","24.9923966666667","6500300","中和區"
"235072","301-VK","2018/04/05 18:18:59","新北市中和區連城路263號","121.491781666667","24.9965","6500300","中和區"
"235043","352-BY","2018/04/05 18:18:59","新北市中和區景平路379號","121.504058333333","24.9933583333333","6500300","中和區"
"235061","378-QA","2018/04/05 18:19:02","新北市中和區民德路187號","121.468398333333","24.999295","6500300","中和區"
"235050","4979-A6","2018/04/05 18:19:06","新北市中和區捷運路61巷9號","121.50906","24.9893866666667","6500300","中和區"
"235069","4980-A6","2018/04/05 18:19:02","新北市中和區中正路573號","121.486603333333","24.9944333333333","6500300","中和區"
"235042","551-UM","2018/04/05 18:19:08","新北市中和區大仁街20巷25弄14號","121.519078333333","24.9935633333333","6500300","中和區"
"235070","558-UM","2018/04/05 18:19:00","新北市中和區圓通路177號","121.497521666667","24.9950483333333","6500300","中和區"
"235045","565-BX","2018/04/05 18:18:52","新北市中和區景安路200巷1弄2號","121.503765","24.9914766666667","6500300","中和區"
"235054","640-BX","2018/04/05 18:18:58","新北市中和區莒光路185號","121.472691666667","24.999","6500300","中和區"
"235047","732-UM","2018/04/05 18:18:58","新北市中和區復興路282號","121.502206666667","24.9903366666667","6500300","中和區"
"235046","733-UM","2018/04/05 18:18:55","新北市中和區中正路545巷1號","121.487453333333","24.99353","6500300","中和區"
"235062","800-TS","2018/04/05 18:19:11","新北市中和區景平路999巷2號","121.49537","25.00599","6500300","中和區"
"235057","801-TS","2018/04/05 18:19:07","新北市中和區員山路263號","121.481246666667","24.9992016666667","6500300","中和區"
"235041","802-TS","2018/04/05 18:19:14","新北市中和區錦和路350-1號","121.490456666667","24.9935216666667","6500300","中和區"
"235052","805-TS","2018/04/05 18:18:55","新北市中和區興南路二段94號","121.505236666667","24.9842566666667","6500300","中和區"
"235048","896-TW","2018/04/05 18:19:01","新北市中和區中正路501號","121.489108333333","24.9935583333333","6500300","中和區"
"235053","900-TW","2018/04/05 18:18:53","新北市中和區員山路36巷16-2號","121.485241666667","24.9914983333333","6500300","中和區"
"235060","911-UM","2018/04/05 18:18:54","新北市中和區連城路469-1號","121.48356","24.9957583333333","6500300","中和區"
"235051","157-BY","2018/04/05 18:19:03","新北市中和區信義街103號","121.511971666667","24.9870666666667","6500300","中和區"
"235037","AAC-213","2018/04/05 18:19:03","新北市中和區景德街65號","121.516996666667","24.9914816666667","6500300","中和區"
"235059","AAC-215","2018/04/05 18:18:56","新北市中和區員山路36巷16-3號","121.485153333333","24.9914016666667","6500300","中和區"
"226004","312-R5","2018/04/05 18:18:54","新北市平溪區薯榔里雙菁路95號","121.713673333333","25.0208183333333","6502400","平溪區"
"235039","251-BX","2018/04/05 18:18:52","新北市中和區景安路133號","121.505663333333","24.995895","6500300","中和區"
"228003","097-TW","2018/04/05 18:18:56","新北市貢寮區真理里美艷山街61-2號","121.922986666667","25.069945","6502600","貢寮區"
"228001","212-TW","2018/04/05 18:18:58","新北市貢寮區真理里新港街26巷55弄2-1號","121.927371666667","25.0528633333333","6502600","貢寮區"
"228002","585-TW","2018/04/05 18:18:58","新北市貢寮區福連里馬崗街1號","121.998601666667","25.0166283333333","6502600","貢寮區"
"224006","676-BX","2018/04/05 18:18:57","新北市瑞芳區民權街3-2號","121.808056666667","25.10744","6501200","瑞芳區"
"224002","639-TC","2018/04/05 18:19:07","新北市瑞芳區三爪子坑路86號","121.809838333333","25.1054916666667","6501200","瑞芳區"
"224009","273-VK","2018/04/05 18:19:01","新北市瑞芳區金光路256號","121.853886666667","25.1069383333333","6501200","瑞芳區"
"224005","271-BY","2018/04/05 18:19:10","新北市瑞芳區深澳路185號","121.8206","25.1336766666667","6501200","瑞芳區"
"227004","642-TC","2018/04/05 18:18:55","新北市雙溪區共和里中山路2號","121.86378","25.0337966666667","6502500","雙溪區"
"227010","400-TW","2018/04/05 18:19:04","新北市雙溪區牡丹里牡丹73號","121.85166","25.0594333333333","6502500","雙溪區"
"253005","032-BX","2018/04/05 18:19:09","新北市石門區中央路18號","121.567843333333","25.2924933333333","6502200","石門區"
"222001","KEA-2212","2018/04/05 18:18:54","新北市深坑區北深路二段51號","121.618981666667","25.00407","6501800","深坑區"
"208002","KEA-2872","2018/04/05 18:19:04","新北市金山區清泉里西勢2-1號","121.627643333333","25.2359383333333","6502700","金山區"
"208003","665-BX","2018/04/05 18:18:56","新北市金山區民生路124號","121.647591666667","25.2237466666667","6502700","金山區"
"208001","761-BX","2018/04/05 18:18:56","新北市金山區磺港里磺港路77號","121.647511666667","25.2265816666667","6502700","金山區"
"251004","009-UM","2018/04/05 18:18:50","新北市淡水區民族路31巷29號","121.46232","25.1364466666667","6501000","淡水區"
"251013","179-VK","2018/04/05 18:19:10","新北市淡水區行忠路657號","121.47001","25.1992083333333","6501000","淡水區"
"251014","180-VK","2018/04/05 18:18:59","新北市淡水區崙頂16-3號","121.487825","25.2219683333333","6501000","淡水區"
"251008","181-VK","2018/04/05 18:19:03","新北市淡水區淡金路12-2號","121.45812","25.1603533333333","6501000","淡水區"
"251015","182-VK","2018/04/05 18:19:05","新北市淡水區興福寮88巷1號","121.485636666667","25.1650883333333","6501000","淡水區"
"251010","413-VK","2018/04/05 18:19:05","新北市淡水區淡海路199號","121.420386666667","25.1846633333333","6501000","淡水區"
"251012","441-VK","2018/04/05 18:19:00","新北市淡水區北新路二段77-5號","121.480516666667","25.1855816666667","6501000","淡水區"
"251016","442-VK","2018/04/05 18:18:52","新北市淡水區淡金路三段170號","121.448775","25.2028333333333","6501000","淡水區"
"251005","443-VK","2018/04/05 18:19:05","新北市淡水區水源街一段122巷37號","121.447081666667","25.1705033333333","6501000","淡水區"
"251001","559-UM","2018/04/05 18:18:59","新北市淡水區自強路307巷1號","121.462185","25.1318","6501000","淡水區"
"251006","561-UM","2018/04/05 18:18:58","新北市淡水區新民街76巷26號","121.439161666667","25.1771116666667","6501000","淡水區"
"251011","650-BX","2018/04/05 18:19:09","新北市淡水區坪頂路47號","121.45764","25.1624466666667","6501000","淡水區"
"251002","672-BX","2018/04/05 18:19:03","新北市淡水區中正東路一段34號","121.452586666667","25.1624016666667","6501000","淡水區"
"251003","766-UM","2018/04/05 18:18:58","新北市淡水區北新路180號","121.4494","25.1788016666667","6501000","淡水區"
"207003","550-UM","2018/04/05 18:19:06","新北市萬里區野柳里港西路56-1號","121.686105","25.2033916666667","6502800","萬里區"
"207003","225-TW","2018/04/05 18:18:58","新北市萬里區中幅里中福路125號","121.675695","25.1659033333333","6502800","萬里區"
"252002","178-VK","2018/04/05 18:19:05","新北市三芝區中山路二段39號","121.50297","25.2551166666667","6502100","三芝區"
"252003","249-BX","2018/04/05 18:19:07","新北市三芝區錫板里南勢崗11號","121.478813333333","25.2614066666667","6502100","三芝區"
"252001","292-VK","2018/04/05 18:19:07","新北市三芝區中興街二段2號","121.498355","25.2566316666667","6502100","三芝區"
"237004","KEA-2597","2018/04/05 18:19:12","新北市三峽區圳頭38號","121.376058333333","24.885895","6500900","三峽區"
"237007","153-BY","2018/04/05 18:19:03","新北市三峽區中正路二段586號","121.35925","24.905975","6500900","三峽區"
"237009","210-TH","2018/04/05 18:19:07","新北市三峽區大勇路36巷21號","121.365693333333","24.9370216666667","6500900","三峽區"
"237013","252-BX","2018/04/05 18:19:07","新北市三峽區永安街77巷6號","121.375668333333","24.9292866666667","6500900","三峽區"
"237012","275-BY","2018/04/05 18:19:12","新北市三峽區民生街1巷3-2號","121.377778333333","24.936465","6500900","三峽區"
"237008","302-VK","2018/04/05 18:18:59","新北市三峽區白雞68-45號","121.391803333333","24.9093016666667","6500900","三峽區"
"237014","433-BY","2018/04/05 18:19:08","新北市三峽區復興路110巷2弄2號","121.372831666667","24.938085","6500900","三峽區"
"237006","5529-G3","2018/04/05 18:19:07","新北市三峽區溪東路178巷13弄13號","121.406045","24.9324366666667","6500900","三峽區"
"237010","706-TV","2018/04/05 18:19:04","新北市三峽區民權街147號","121.368873333333","24.9316333333333","6500900","三峽區"
"237005","AKY-6261","2018/04/05 18:18:54","新北市三峽區忠孝街25-5號","121.371195","24.9343266666667","6500900","三峽區"
"236070","105-UM","2018/04/05 18:18:58","新北市土城區永豐路141-1號","121.467071666667","24.9829716666667","6501300","土城區"
"236042","107-UM","2018/04/05 18:19:07","新北市土城區樂利街3巷30號","121.448611666667","24.9864733333333","6501300","土城區"
"236078","166-UM","2018/04/05 18:19:01","新北市土城區永安街86巷1號","121.431383333333","24.9638633333333","6501300","土城區"
"236030","253-BX","2018/04/05 18:19:05","新北市土城區順風路24號","121.440723333333","24.9767183333333","6501300","土城區"
"236026","269-VK","2018/04/05 18:19:12","新北市土城區承天路67號","121.439546666667","24.96359","6501300","土城區"
"236014","270-VK","2018/04/05 18:19:09","新北市土城區青雲路39巷7號","121.460365","24.9875583333333","6501300","土城區"
"236038","271-VK","2018/04/05 18:19:08","新北市土城區青雲路451巷8弄2號","121.45955","24.9744866666667","6501300","土城區"
"236021","401-BY","2018/04/05 18:18:58","新北市土城區明德路一段385-1號","121.452588333333","24.9796916666667","6501300","土城區"
"236059","912-UM","2018/04/05 18:19:04","新北市土城區中央路四段440號","121.410733333333","24.9515","6501300","土城區"
"236049","913-UM","2018/04/05 18:19:08","新北市土城區青雲路453號","121.45874","24.97468","6501300","土城區"
"236063","915-UM","2018/04/05 18:18:51","新北市土城區金城路三段202-3號","121.469425","24.9885733333333","6501300","土城區"
"236055","AAC-216","2018/04/05 18:19:07","新北市土城區中華路二段102號","121.43806","24.9743816666667","6501300","土城區"
"242058","986-R7","2018/04/05 18:18:54","新北市新莊區中正路897-10號","121.411566666667","25.02161","6500500","新莊區"
"242053","751-BX","2018/04/05 18:19:10","新北市新莊區保安街一段14巷61弄7號","121.430498333333","24.9964983333333","6500500","新莊區"
"242027","615-BX","2018/04/05 18:18:56","新北市新莊區幸福路822號","121.445283333333","25.0490716666667","6500500","新莊區"
"242025","613-BX","2018/04/05 18:19:11","新北市新莊區五工路93-1號","121.4582","25.06319","6500500","新莊區"
"242042","566-BX","2018/04/05 18:19:11","新北市新莊區天祥街71巷25號","121.415503333333","25.02845","6500500","新莊區"
"242046","497-BY","2018/04/05 18:19:03","新北市新莊區中正路833號","121.420675","25.0282933333333","6500500","新莊區"
"242004","442-UM","2018/04/05 18:19:08","新北市新莊區新泰路502巷40號","121.443633333333","25.0464383333333","6500500","新莊區"
"242051","441-UM","2018/04/05 18:18:54","新北市新莊區新樹路206巷3號","121.433485","25.020405","6500500","新莊區"
"242056","440-UM","2018/04/05 18:19:05","新北市新莊區豐年街豐2巷3號","121.446846666667","25.0308116666667","6500500","新莊區"
"242007","413-TV","2018/04/05 18:19:03","新北市新莊區自治街35號","121.45408","25.04797","6500500","新莊區"
"242044","400-BY","2018/04/05 18:18:55","新北市新莊區青山路一段6號","121.412021666667","25.027865","6500500","新莊區"
"242061","353-BY","2018/04/05 18:18:55","新北市新莊區富國路178號","121.424265","25.0244066666667","6500500","新莊區"
"242031","135-UY","2018/04/05 18:19:05","新北市新莊區新泰路277巷43弄4號","121.44394","25.039925","6500500","新莊區"
"242048","172-VK","2018/04/05 18:19:07","新北市樹林區俊興街277號","121.418553333333","25.0181333333333","6500500","新莊區"
"242011","173-VK","2018/04/05 18:18:57","新北市新莊區中港路591巷20號","121.450086666667","25.052435","6500500","新莊區"
"242021","348-TH","2018/04/05 18:19:09","新北市新莊區新興街27巷2號","121.450708333333","25.0374366666667","6500500","新莊區"
"242002","349-TH","2018/04/05 18:19:11","新北市新莊區碧江街27-7號","121.452715","25.0333683333333","6500500","新莊區"
"238015","755-BX","2018/04/05 18:18:56","新北市樹林區文化街79巷1號","121.416808333333","24.9890966666667","6500700","樹林區"
"238023","601-UM","2018/04/05 18:18:52","新北市樹林區忠義街25號","121.409616666667","25.0148766666667","6500700","樹林區"
"238019","599-UM","2018/04/05 18:18:56","新北市樹林區中華路190-16號","121.41179","24.9806316666667","6500700","樹林區"
"238018","571-TV","2018/04/05 18:18:57","新北市樹林區博愛一街6號","121.42523","24.9910016666667","6500700","樹林區"
"238024","5061-A6","2018/04/05 18:19:11","新北市樹林區育英街10-1號","121.42261","24.98908","6500700","樹林區"
"238025","303-VK","2018/04/05 18:18:55","新北市樹林區保安街一段98號","121.424118333333","24.99475","6500700","樹林區"
"238017","283-BY","2018/04/05 18:18:58","新北市樹林區光榮街3巷9弄1號","121.4128","25.003895","6500700","樹林區"
"238026","172-UY","2018/04/05 18:18:58","新北市樹林區八德街828-16號","121.392566666667","24.9690483333333","6500700","樹林區"
"238016","169-UY","2018/04/05 18:19:08","新北市樹林區文化街23號","121.4193","24.9876183333333","6500700","樹林區"
"239007","AAC-297","2018/04/05 18:19:11","新北市鶯歌區尖山埔路72號","121.348313333333","24.95104","6500800","鶯歌區"
"239008","527-UM","2018/04/05 18:19:04","新北市鶯歌區國際一路179號","121.336251666667","24.976545","6500800","鶯歌區"
"239005","526-UM","2018/04/05 18:19:00","新北市鶯歌區鶯桃路668巷73號","121.329908333333","24.97175","6500800","鶯歌區"
"239001","417-VK","2018/04/05 18:18:57","新北市鶯歌區國中街178號","121.338285","24.939225","6500800","鶯歌區"
"239003","360-BY","2018/04/05 18:18:55","新北市鶯歌區福安街58號","121.335593333333","24.9651866666667","6500800","鶯歌區"
"239002","359-BY","2018/04/05 18:19:06","新北市鶯歌區建國路154號","121.350708333333","24.953885","6500800","鶯歌區"
"239004","193-VK","2018/04/05 18:19:09","新北市鶯歌區尖山路166巷6-1號","121.345446666667","24.94837","6500800","鶯歌區"
"221008","489-VK","2018/04/05 18:19:12","新北市汐止區汐萬路一段312號","121.650543333333","25.0753833333333","6501100","汐止區"
"221036","130-UY","2018/04/05 18:19:12","新北市汐止區長興街一段20號","121.669645","25.0789866666667","6501100","汐止區"
"221015","131-UY","2018/04/05 18:18:55","新北市汐止區鄉長路二段23巷4號","121.667171666667","25.0828983333333","6501100","汐止區"
"221010","269-BY","2018/04/05 18:19:08","新北市汐止區祥雲街18巷23號","121.647375","25.0894133333333","6501100","汐止區"
"221012","278-VK","2018/04/05 18:19:01","新北市汐止區保長路35巷23號","121.673646666667","25.080505","6501100","汐止區"
"221032","280-BY","2018/04/05 18:19:08","新北市汐止區橫科路2巷11號","121.616463333333","25.0507833333333","6501100","汐止區"
"221027","281-BY","2018/04/05 18:19:09","新北市汐止區和平街6巷5弄2號","121.663595","25.0717483333333","6501100","汐止區"
"221029","298-VK","2018/04/05 18:18:37","新北市汐止區康寧街901號","121.651256666667","25.075135","6501100","汐止區"
"221021","299-VK","2018/04/05 18:19:03","新北市汐止區連興街120號","121.653716666667","25.062495","6501100","汐止區"
"221031","353-TW","2018/04/05 18:19:09","新北市汐止區光復街8巷21號","121.638258333333","25.0575133333333","6501100","汐止區"
"221035","622-UM","2018/04/05 18:19:06","新北市汐止區大同路二段103巷2號","121.649518333333","25.0637333333333","6501100","汐止區"
"221025","623-UM","2018/04/05 18:18:56","新北市汐止區勤進路12巷29號","121.659245","25.06244","6501100","汐止區"
"221038","646-BX","2018/04/05 18:19:04","新北市汐止區仁愛路319號","121.664471666667","25.0675833333333","6501100","汐止區"
"221033","647-BX","2018/04/05 18:19:00","新北市汐止區宜興街40巷1號","121.622053333333","25.042105","6501100","汐止區"
"221002","707-TV","2018/04/05 18:19:10","新北市汐止區福德一路201巷25號","121.635996666667","25.06466","6501100","汐止區"
"221018","753-BX","2018/04/05 18:19:10","新北市汐止區茄苳路125號","121.667318333333","25.0705","6501100","汐止區"
"242009","281-VK","2018/04/05 18:19:06","新北市新莊區昌盛街2巷1弄2號","121.453148333333","25.0495316666667","6500500","新莊區"
"220073","985-R7","2018/04/05 18:19:05","新北市板橋區華東街1-10號","121.448341666667","24.9949633333333","6500100","板橋區"
