"lineid","car","time","location","longitude","latitude","cityid","cityname"
"234046","148-BY","2018/04/05 18:39:46","新北市永和區永元路66號","121.52257","25.001375","6500400","永和區"
"234070","149-BY","2018/04/05 18:39:34","新北市永和區福和路1號","121.525656666667","25.0093066666667","6500400","永和區"
"234007","207-UY","2018/04/05 18:39:34","新北市永和區文化路170號","121.51176","25.0155216666667","6500400","永和區"
"234081","298-R6","2018/04/05 18:39:41","新北市永和區林森路81號","121.523858333333","25.0039","6500400","永和區"
"234064","337-UY","2018/04/05 18:39:28","新北市永和區福和路1號","121.526538333333","25.010055","6500400","永和區"
"234086","338-UY","2018/04/05 18:39:36","新北市中和區安平路102號","121.511553333333","24.9973116666667","6500400","永和區"
"234017","745-BX","2018/04/05 18:39:29","新北市永和區福和路1號","121.526403333333","25.0095866666667","6500400","永和區"
"234030","746-BX","2018/04/05 18:39:32","新北市永和區福和路1號","121.525051666667","25.0090666666667","6500400","永和區"
"234013","KEA-2591","2018/04/05 18:39:26","新北市永和區仁愛路86號","121.512633333333","25.01332","6500400","永和區"
"234042","862-TW","2018/04/05 18:39:41","新北市永和區永貞路306號","121.511896666667","25.0048433333333","6500400","永和區"
"234050","863-TW","2018/04/05 18:39:37","新北市永和區福和路1號","121.526471666667","25.00987","6500400","永和區"
"234026","9371-KE","2018/04/05 18:39:32","新北市永和區仁愛路265號","121.506265","25.010105","6500400","永和區"
"234011","9373-KE","2018/04/05 18:39:37","新北市永和區文化路9巷22弄36號","121.514383333333","25.0145866666667","6500400","永和區"
"249005","172-UM","2018/04/05 18:39:30","新北市八里區中華路三段212號","121.388943333333","25.1253083333333","6502300","八里區"
"249001","173-UM","2018/04/05 18:39:43","新北市八里區龍米路一段350號","121.451548333333","25.1310583333333","6502300","八里區"
"249004","303-UY","2018/04/05 18:39:39","新北市八里區中山路一段150巷80號","121.415986666667","25.160285","6502300","八里區"
"248014","025-BX","2018/04/05 18:31:48","新北市五股區成泰路一段198號","121.435855","25.0784883333333","6501500","五股區"
"248016","026-BX","2018/04/05 18:39:41","新北市五股區凌雲路一段149巷13-1號","121.448571666667","25.1008816666667","6501500","五股區"
"248008","095-VK","2018/04/05 18:39:33","新北市五股區中興路一段149號","121.465066666667","25.0734533333333","6501500","五股區"
"248018","225-UY","2018/04/05 18:39:33","新北市五股區孝義路98號","121.446263333333","25.1194016666667","6501500","五股區"
"248012","247-BX","2018/04/05 18:39:37","新北市五股區成泰路三段2巷1-20號","121.44122","25.0866183333333","6501500","五股區"
"248004","677-BX","2018/04/05 18:39:45","新北市五股區民義路一段310號","121.42456","25.093735","6501500","五股區"
"248002","678-BX","2018/04/05 18:39:41","新北市五股區西雲路223號","121.448866666667","25.097085","6501500","五股區"
"248010","682-TV","2018/04/05 18:39:46","新北市五股區水碓五路172號","121.431665","25.0739716666667","6501500","五股區"
"234023","9380-KE","2018/04/05 18:39:37","新北市永和區竹林路119巷22弄32號","121.52265","25.0111833333333","6500400","永和區"
"234077","969-R7","2018/04/05 18:39:38","新北市永和區中正路84號","121.513903333333","24.9952933333333","6500400","永和區"
"234074","AAC-211","2018/04/05 18:39:43","新北市永和區福和路1號","121.526311666667","25.0097733333333","6500400","永和區"
"234067","AAC-212","2018/04/05 18:39:40","新北市中和區永貞路260號","121.51392","25.0036166666667","6500400","永和區"
"244013","069-UM","2018/04/05 18:39:30","新北市林口區佳林路106號","121.385118333333","25.0790916666667","6501700","林口區"
"244006","080-UY","2018/04/05 18:39:38","新北市林口區後湖29-2號","121.387301666667","25.0994866666667","6501700","林口區"
"244025","742-UY","2018/04/05 18:39:46","新北市林口區南勢五街28號","121.356511666667","25.0754266666667","6501700","林口區"
"244009","410-SL","2018/04/05 18:39:30","新北市林口區竹林路278巷2號","121.390391666667","25.0817516666667","6501700","林口區"
"244023","483-VK","2018/04/05 18:39:41","新北市林口區文化三路二段238號","121.37629","25.0827433333333","6501700","林口區"
"244017","485-VK","2018/04/05 18:39:45","新北市林口區文化二路一段70號","121.365843333333","25.0691466666667","6501700","林口區"
"244019","657-BX","2018/04/05 18:39:39","新北市林口區麗園二街33巷2號","121.380276666667","25.0693116666667","6501700","林口區"
"244011","701-TV","2018/04/05 18:39:24","新北市林口區興林路15號","121.389816666667","25.0770716666667","6501700","林口區"
"244021","838-TS","2018/04/05 18:39:36","新北市林口區工六路14號","121.398036666667","25.0790433333333","6501700","林口區"
"243012","AAD-798","2018/04/05 18:39:39","新北市泰山區福興三街13號","121.434428333333","25.0577866666667","6501600","泰山區"
"243015","380-SR","2018/04/05 18:37:59","新北市泰山區犁頭窠3-1號","121.4227","25.0606833333333","6501600","泰山區"
"243010","KEA-2215","2018/04/05 18:39:30","新北市泰山區黎明路25號","121.421895","25.060715","6501600","泰山區"
"243013","646-TV","2018/04/05 18:39:27","新北市泰山區明志路三段206巷3號","121.423305","25.03796","6501600","泰山區"
"243016","680-BX","2018/04/05 18:39:39","新北市泰山區黎明路25號","121.421818333333","25.0610516666667","6501600","泰山區"
"222003","436-BY","2018/04/05 18:39:29","新北市深坑區翠谷街37巷1號","121.626541666667","25.009385","6501800","深坑區"
"222002","659-BX","2018/04/05 18:39:41","新北市深坑區雲鄉路27巷2號","121.622326666667","24.9997383333333","6501800","深坑區"
"231041","002-UM","2018/04/05 18:39:34","新北市新店區安華路28-1號","121.519836666667","24.96077","6500600","新店區"
"231059","046-UY","2018/04/05 18:39:39","新北市新店區安華路28-1號","121.519566666667","24.9606466666667","6500600","新店區"
"231040","047-UY","2018/04/05 18:39:41","新北市新店區安華路28-1號","121.5193","24.9609066666667","6500600","新店區"
"231044","106-UY","2018/04/05 18:39:40","新北市新店區北新路一段89號","121.538521666667","24.961685","6500600","新店區"
"231052","108-UY","2018/04/05 18:39:29","新北市新店區永興路34號","121.54356","24.93879","6500600","新店區"
"231050","110-UY","2018/04/05 18:39:39","新北市新店區安華路28-1號","121.519965","24.961005","6500600","新店區"
"231047","187-VK","2018/04/05 18:39:44","新北市新店區安康路一段257號","121.52453","24.9633433333333","6500600","新店區"
"231046","188-VK","2018/04/05 18:39:27","新北市新店區直潭二街1號","121.53555","24.9431833333333","6500600","新店區"
"231054","KEA-2219","2018/04/05 18:39:34","新北市新店區安華路28-1號","121.520025","24.9611766666667","6500600","新店區"
"231057","256-BX","2018/04/05 18:39:36","新北市新店區新烏路一段215號","121.548846666667","24.931805","6500600","新店區"
"231042","268-BY","2018/04/05 18:39:40","新北市新店區安華路28-1號","121.519461666667","24.9605933333333","6500600","新店區"
"231058","3713-VJ","2018/04/05 18:39:28","新北市新店區北宜路一段168號","121.540448333333","24.9529383333333","6500600","新店區"
"231066","4716-K9","2018/04/05 18:39:43","新北市新店區車子路20號","121.505281666667","24.9545916666667","6500600","新店區"
"231056","4715-K9","2018/04/05 18:39:42","新北市新店區大豐路86號","121.53812","24.978985","6500600","新店區"
"231067","4772-VM","2018/04/05 18:39:40","新北市新店區安康路一段85號","121.529373333333","24.9614483333333","6500600","新店區"
"231065","512-UM","2018/04/05 18:39:37","新北市新店區安華路28-1號","121.519298333333","24.961","6500600","新店區"
"231049","513-UM","2018/04/05 18:39:42","新北市新店區安康路一段98號","121.527491666667","24.9622816666667","6500600","新店區"
"231061","619-UM","2018/04/05 18:39:33","新北市新店區安華路28-1號","121.51955","24.9608816666667","6500600","新店區"
"231063","641-BX","2018/04/05 18:39:29","新北市新店區安華路1-1號","121.519588333333","24.9603966666667","6500600","新店區"
"231064","719-UM","2018/04/05 18:39:39","新北市新店區安華路28-1號","121.519473333333","24.96131","6500600","新店區"
"231062","720-UM","2018/04/05 18:39:46","新北市新店區安華路28-1號","121.519238333333","24.9610533333333","6500600","新店區"
"231060","897-TW","2018/04/05 18:39:25","新北市新店區安華路28-1號","121.519628333333","24.96054","6500600","新店區"
"231045","898-TW","2018/04/05 18:39:33","新北市新店區安華路28-1號","121.519343333333","24.96089","6500600","新店區"
"231043","899-TW","2018/04/05 18:39:33","新北市新店區安華路28-1號","121.518853333333","24.9609416666667","6500600","新店區"
"231055","AKT-0513","2018/04/05 18:39:40","新北市新店區中華路47巷3號","121.539806666667","24.9675383333333","6500600","新店區"
"235066","003-UY","2018/04/05 18:39:45","新北市中和區水源路34巷2號","121.504691666667","25.00353","6500300","中和區"
"235064","005-UY","2018/04/05 18:39:41","新北市中和區連城路89巷1號","121.496673333333","25.00007","6500300","中和區"
"235063","006-UY","2018/04/05 18:39:43","新北市中和區連城路305號","121.489625","24.99628","6500300","中和區"
"235056","096-UM","2018/04/05 18:39:38","新北市中和區員山路611巷1號","121.47784","25.0112866666667","6500300","中和區"
"235065","098-UM","2018/04/05 18:39:40","新北市中和區莊敬路49巷29弄5號","121.501166666667","25.006285","6500300","中和區"
"235040","150-BY","2018/04/05 18:39:36","新北市中和區宜安路47巷2號","121.511696666667","24.9964116666667","6500300","中和區"
"235058","151-BY","2018/04/05 18:39:40","新北市中和區圓通路369巷39號","121.489791666667","24.9859816666667","6500300","中和區"
"235055","183-VK","2018/04/05 18:39:36","新北市板橋區民族路308號","121.470676666667","25.0065783333333","6500300","中和區"
"235038","185-VK","2018/04/05 18:39:32","新北市中和區自強路66號","121.519875","24.9942283333333","6500300","中和區"
"235049","186-VK","2018/04/05 18:39:39","新北市中和區景平路508號","121.503826666667","24.993835","6500300","中和區"
"235067","255-BX","2018/04/05 18:39:37","新北市中和區新生街16巷6弄4號","121.482853333333","25.004585","6500300","中和區"
"235072","301-VK","2018/04/05 18:39:39","新北市永和區中山路一段287號","121.506793333333","25.007015","6500300","中和區"
"235043","352-BY","2018/04/05 18:39:39","新北市中和區景平路151號","121.513696666667","24.9921","6500300","中和區"
"235068","377-QA","2018/04/05 18:39:29","新北市中和區圓通路141巷48弄11號","121.49835","24.994245","6500300","中和區"
"235061","378-QA","2018/04/05 18:39:42","新北市中和區民享街40-2號","121.47399","25.0028366666667","6500300","中和區"
"235050","4979-A6","2018/04/05 18:39:46","新北市中和區景新街496巷30弄8號","121.513191666667","24.9855433333333","6500300","中和區"
"235069","4980-A6","2018/04/05 18:39:41","新北市中和區景平路597號","121.497006666667","25.0005566666667","6500300","中和區"
"235042","551-UM","2018/04/05 18:39:28","新北市中和區成功路127巷16號","121.527115","24.9909433333333","6500300","中和區"
"235070","558-UM","2018/04/05 18:39:40","新北市中和區南華路18號","121.50279","24.99572","6500300","中和區"
"235045","565-BX","2018/04/05 18:39:32","新北市中和區南山路236巷57號","121.50457","24.9881483333333","6500300","中和區"
"235054","640-BX","2018/04/05 18:39:38","新北市中和區民享街32巷15號","121.47285","25.00312","6500300","中和區"
"235047","732-UM","2018/04/05 18:39:38","新北市中和區南山路320巷3號","121.50772","24.9864516666667","6500300","中和區"
"235046","733-UM","2018/04/05 18:39:35","新北市中和區捷運路3號","121.509645","24.98941","6500300","中和區"
"235062","800-TS","2018/04/05 18:39:31","新北市中和區中山路二段312巷18號","121.495221666667","25.003915","6500300","中和區"
"235057","801-TS","2018/04/05 18:39:27","新北市中和區員山路327巷26號","121.480688333333","25.0015333333333","6500300","中和區"
"235041","802-TS","2018/04/05 18:39:34","新北市中和區宜安路150號","121.5094","24.9986533333333","6500300","中和區"
"235052","805-TS","2018/04/05 18:39:35","新北市中和區興南路三段70號","121.492518333333","24.9747483333333","6500300","中和區"
"235048","896-TW","2018/04/05 18:39:41","新北市中和區南山路238號","121.507073333333","24.9897166666667","6500300","中和區"
"235053","900-TW","2018/04/05 18:39:33","新北市中和區民德路266號","121.468091666667","24.9965783333333","6500300","中和區"
"235060","911-UM","2018/04/05 18:39:48","新北市中和區中山路三段24號","121.479193333333","25.006075","6500300","中和區"
"235051","157-BY","2018/04/05 18:39:43","新北市中和區華新街143巷106弄30號","121.506143333333","24.9786883333333","6500300","中和區"
"235037","AAC-213","2018/04/05 18:39:43","新北市中和區景德街36號","121.518015","24.9914616666667","6500300","中和區"
"235059","AAC-215","2018/04/05 18:39:36","新北市中和區錦和路350-1號","121.490526666667","24.9935266666667","6500300","中和區"
"220065","072-UY","2018/04/05 18:39:37","新北市板橋區民族路61號","121.464878333333","25.0086733333333","6500100","板橋區"
"220086","073-UY","2018/04/05 18:39:43","新北市板橋區南雅西路二段192巷3號","121.452065","25.01449","6500100","板橋區"
"220067","075-UY","2018/04/05 18:39:42","新北市板橋區民生路二段120號","121.470343333333","25.019835","6500100","板橋區"
"220069","AAD-861","2018/04/05 18:39:46","新北市板橋區華東街1-10號","121.448363333333","24.9950966666667","6500100","板橋區"
"226004","312-R5","2018/04/05 18:39:34","新北市平溪區平溪里三坑路32號","121.736681666667","25.0299666666667","6502400","平溪區"
"235039","251-BX","2018/04/05 18:39:32","新北市永和區中正路55號","121.51447","24.9965533333333","6500300","中和區"
"228003","097-TW","2018/04/05 18:39:36","新北市貢寮區和美里龍洞街40-2號","121.915238333333","25.11168","6502600","貢寮區"
"228001","212-TW","2018/04/05 18:39:38","新北市貢寮區仁理村研海街12-1號","121.923768333333","25.0516616666667","6502600","貢寮區"
"228002","585-TW","2018/04/05 18:39:38","新北市貢寮區福連里香蘭街2-1號","121.968588333333","25.0234783333333","6502600","貢寮區"
"224010","AGQ-8101","2018/04/05 18:39:37","新北市瑞芳區烏勢巷108號","121.846291666667","25.1087783333333","6501200","瑞芳區"
"224006","676-BX","2018/04/05 18:39:37","新北市瑞芳區明燈路三段142號","121.804168333333","25.1086083333333","6501200","瑞芳區"
"224002","639-TC","2018/04/05 18:39:28","新北市瑞芳區正貿新村1號","121.812666666667","25.106225","6501200","瑞芳區"
"224009","273-VK","2018/04/05 18:39:41","新北市瑞芳區五號路51號","121.855006666667","25.110825","6501200","瑞芳區"
"224008","272-VK","2018/04/05 18:39:25","新北市瑞芳區逢甲路15號","121.809795","25.10869","6501200","瑞芳區"
"224005","271-BY","2018/04/05 18:39:31","新北市瑞芳區台電新村115號","121.811788333333","25.1285833333333","6501200","瑞芳區"
"227004","642-TC","2018/04/05 18:39:35","新北市雙溪區魚行里坤溪3-5號","121.875771666667","25.02119","6502500","雙溪區"
"227010","400-TW","2018/04/05 18:39:24","新北市雙溪區牡丹里牡丹229號","121.850845","25.0572166666667","6502500","雙溪區"
"253005","032-BX","2018/04/05 18:39:29","新北市石門區中山路58號","121.566691666667","25.29045","6502200","石門區"
"253006","295-VK","2018/04/05 18:39:42","新北市石門區楓林28-1號","121.541848333333","25.2893066666667","6502200","石門區"
"222001","KEA-2212","2018/04/05 18:39:36","新北市深坑區北深路一段84號","121.636176666667","25.010655","6501800","深坑區"
"208002","KEA-2872","2018/04/05 18:39:44","新北市金山區龜子山路33號","121.63928","25.2174133333333","6502700","金山區"
"208003","665-BX","2018/04/05 18:39:36","新北市金山區中山路250號","121.635673333333","25.22388","6502700","金山區"
"208001","761-BX","2018/04/05 18:39:35","新北市金山區文化二路4號","121.636876666667","25.22464","6502700","金山區"
"251004","009-UM","2018/04/05 18:39:30","新北市淡水區中正東路二段161巷8弄13號","121.461701666667","25.1454633333333","6501000","淡水區"
"251013","179-VK","2018/04/05 18:39:31","新北市淡水區小坑子頭5-1號","121.482753333333","25.207255","6501000","淡水區"
"251014","180-VK","2018/04/05 18:39:31","新北市淡水區南平21-1號","121.49544","25.215895","6501000","淡水區"
"251008","181-VK","2018/04/05 18:39:43","新北市淡水區北投子19-3號","121.45389","25.184035","6501000","淡水區"
"251015","182-VK","2018/04/05 18:39:25","新北市淡水區樹林口52號","121.485211666667","25.1627616666667","6501000","淡水區"
"251010","413-VK","2018/04/05 18:39:44","新北市淡水區沙崙路122號","121.423328333333","25.1828266666667","6501000","淡水區"
"251012","441-VK","2018/04/05 18:39:40","新北市淡水區北新路117號","121.448916666667","25.1786533333333","6501000","淡水區"
"251016","442-VK","2018/04/05 18:39:32","新北市淡水區下圭柔山102號","121.441308333333","25.2084216666667","6501000","淡水區"
"251001","559-UM","2018/04/05 18:39:39","新北市淡水區自強路415巷2號","121.465475","25.134265","6501000","淡水區"
"251006","561-UM","2018/04/05 18:39:38","新北市淡水區崁頂36-7號","121.438826666667","25.1931216666667","6501000","淡水區"
"251011","650-BX","2018/04/05 18:39:29","新北市淡水區鄧公路278巷1號","121.461191666667","25.1688683333333","6501000","淡水區"
"251002","672-BX","2018/04/05 18:39:43","新北市淡水區中正東路一段3巷14弄1號","121.450915","25.1641616666667","6501000","淡水區"
"251003","766-UM","2018/04/05 18:39:38","新北市淡水區北新路69巷26號","121.446841666667","25.1800883333333","6501000","淡水區"
"207003","550-UM","2018/04/05 18:39:26","新北市萬里區野柳里港東路73號","121.688371666667","25.20506","6502800","萬里區"
"207003","225-TW","2018/04/05 18:39:37","新北市萬里區萬里里獅頭路10-1號","121.69209","25.17871","6502800","萬里區"
"252002","178-VK","2018/04/05 18:39:25","新北市三芝區民生街64巷10號","121.503656666667","25.2551616666667","6502100","三芝區"
"252003","249-BX","2018/04/05 18:39:47","新北市三芝區後厝里北勢子54-3號","121.46695","25.2499416666667","6502100","三芝區"
"252001","292-VK","2018/04/05 18:39:47","新北市三芝區中興街二段260號","121.501906666667","25.2528716666667","6502100","三芝區"
"237004","KEA-2597","2018/04/05 18:39:32","新北市三峽區金敏30-1號","121.389323333333","24.87394","6500900","三峽區"
"237007","153-BY","2018/04/05 18:39:43","新北市三峽區柑樹路6巷13號","121.362235","24.904665","6500900","三峽區"
"237009","210-TH","2018/04/05 18:39:47","新北市三峽區大同路286巷3號","121.36414","24.9252633333333","6500900","三峽區"
"237013","252-BX","2018/04/05 18:39:39","新北市三峽區光明路69巷25號","121.376751666667","24.9292183333333","6500900","三峽區"
"237012","275-BY","2018/04/05 18:39:12","新北市三峽區三樹路268號","121.379811666667","24.9435183333333","6500900","三峽區"
"237008","302-VK","2018/04/05 18:39:39","新北市三峽區白雞77-1號","121.400646666667","24.9106666666667","6500900","三峽區"
"237014","433-BY","2018/04/05 18:39:28","新北市三峽區復興路485號","121.361451666667","24.938645","6500900","三峽區"
"237006","5529-G3","2018/04/05 18:39:27","新北市三峽區溪東路315巷48弄2號","121.411783333333","24.930855","6500900","三峽區"
"237010","706-TV","2018/04/05 18:39:44","新北市三峽區復興路361號","121.363718333333","24.9386083333333","6500900","三峽區"
"237005","AKY-6261","2018/04/05 18:39:34","新北市三峽區文化路1-1號","121.373615","24.9349466666667","6500900","三峽區"
"236070","105-UM","2018/04/05 18:39:38","新北市土城區永豐路157巷29弄6-1號","121.468356666667","24.9814983333333","6501300","土城區"
"236042","107-UM","2018/04/05 18:39:27","新北市土城區裕民路55巷15號","121.44947","24.98883","6501300","土城區"
"236078","166-UM","2018/04/05 18:39:41","新北市土城區中央路四段52巷40弄5號","121.419143333333","24.9605683333333","6501300","土城區"
"236030","253-BX","2018/04/05 18:39:44","新北市土城區福仁街72號","121.439103333333","24.9742616666667","6501300","土城區"
"236026","269-VK","2018/04/05 18:39:33","新北市土城區忠義路49-1號","121.44053","24.9690416666667","6501300","土城區"
"236014","270-VK","2018/04/05 18:39:29","新北市土城區清水路207巷11號","121.459881666667","24.98239","6501300","土城區"
"236038","271-VK","2018/04/05 18:39:37","新北市土城區明德路一段291巷11弄20號","121.460911666667","24.9759566666667","6501300","土城區"
"236021","401-BY","2018/04/05 18:39:38","新北市土城區延吉街253巷1號","121.467571666667","24.9847366666667","6501300","土城區"
"236059","912-UM","2018/04/05 18:39:44","新北市土城區中央路三段217號","121.429558333333","24.9645033333333","6501300","土城區"
"236049","913-UM","2018/04/05 18:39:28","新北市土城區立清街1號","121.459823333333","24.9847183333333","6501300","土城區"
"236063","915-UM","2018/04/05 18:39:33","新北市中和區民享街498號","121.46948","24.991675","6501300","土城區"
"236055","AAC-216","2018/04/05 18:39:47","新北市土城區裕民路45-1號","121.448521666667","24.98817","6501300","土城區"
"242004","442-UM","2018/04/05 18:38:48","新北市新莊區三和路12-21號","121.441905","25.03848","6500500","新莊區"
"238023","601-UM","2018/04/05 18:39:32","新北市樹林區三福街114號","121.406455","25.0163083333333","6500700","樹林區"
"238019","599-UM","2018/04/05 18:39:35","新北市樹林區中華路190-16號","121.411676666667","24.980605","6500700","樹林區"
"238018","571-TV","2018/04/05 18:39:37","新北市樹林區樹新路81號","121.427678333333","24.9952466666667","6500700","樹林區"
"238024","5061-A6","2018/04/05 18:39:32","新北市樹林區太順街49巷5號","121.41812","24.97891","6500700","樹林區"
"238022","KEA-2213","2018/04/05 18:39:40","新北市樹林區中華路190-1號","121.411435","24.9805083333333","6500700","樹林區"
"238025","303-VK","2018/04/05 18:39:34","新北市樹林區中山路三段22號","121.395625","24.9729466666667","6500700","樹林區"
"238026","172-UY","2018/04/05 18:39:38","新北市樹林區信和街102號","121.388401666667","24.97333","6500700","樹林區"
"238016","169-UY","2018/04/05 18:39:28","新北市樹林區文化街23號","121.419438333333","24.9875616666667","6500700","樹林區"
"239007","AAC-297","2018/04/05 18:39:32","新北市鶯歌區中山路110號","121.350678333333","24.9570233333333","6500800","鶯歌區"
"239008","527-UM","2018/04/05 18:39:44","新北市鶯歌區晨曦街29號","121.33795","24.976905","6500800","鶯歌區"
"239005","526-UM","2018/04/05 18:39:45","新北市鶯歌區鳳吉一街153號","121.3288","24.97515","6500800","鶯歌區"
"239001","417-VK","2018/04/05 18:39:37","新北市鶯歌區中正二路185-5號","121.340805","24.9476683333333","6500800","鶯歌區"
"239003","360-BY","2018/04/05 18:39:35","新北市鶯歌區永和街249號","121.336895","24.97221","6500800","鶯歌區"
"239004","193-VK","2018/04/05 18:39:29","新北市鶯歌區尖山路302巷19號","121.34162","24.943375","6500800","鶯歌區"
"221008","489-VK","2018/04/05 18:39:32","新北市汐止區康寧街901號","121.651398333333","25.0750616666667","6501100","汐止區"
"221036","130-UY","2018/04/05 18:37:23","新北市汐止區忠孝東路339巷6號","121.664723333333","25.0700916666667","6501100","汐止區"
"221015","131-UY","2018/04/05 18:39:33","新北市汐止區鄉長路二段8號","121.6688","25.080745","6501100","汐止區"
"221010","269-BY","2018/04/05 18:39:28","新北市汐止區汐萬路三段276號","121.641228333333","25.1085816666667","6501100","汐止區"
"221012","278-VK","2018/04/05 18:39:41","新北市汐止區保長路102號","121.675241666667","25.0781616666667","6501100","汐止區"
"221032","280-BY","2018/04/05 18:39:28","新北市汐止區福山街56巷19號","121.618033333333","25.045635","6501100","汐止區"
"221027","281-BY","2018/04/05 18:39:29","新北市汐止區和平街3-1號","121.663541666667","25.0705366666667","6501100","汐止區"
"221029","298-VK","2018/04/05 18:39:37","新北市汐止區樟樹一路150號","121.642216666667","25.065105","6501100","汐止區"
"221021","299-VK","2018/04/05 18:39:43","新北市汐止區新興路57號","121.657303333333","25.0629616666667","6501100","汐止區"
"221031","353-TW","2018/04/05 18:39:29","新北市汐止區福德一路270號","121.632178333333","25.064025","6501100","汐止區"
"221035","622-UM","2018/04/05 18:39:46","新北市汐止區汐萬路一段10號","121.656108333333","25.06744","6501100","汐止區"
"221025","623-UM","2018/04/05 18:39:36","新北市汐止區仁愛路124號","121.662936666667","25.0638666666667","6501100","汐止區"
"221038","646-BX","2018/04/05 18:39:24","新北市汐止區汐萬路一段256巷3號","121.653421666667","25.0748133333333","6501100","汐止區"
"221033","647-BX","2018/04/05 18:39:40","新北市汐止區南勢街3號","121.627083333333","25.03741","6501100","汐止區"
"221002","707-TV","2018/04/05 18:39:30","新北市汐止區中興路25號","121.636921666667","25.0596216666667","6501100","汐止區"
"221018","753-BX","2018/04/05 18:39:31","新北市汐止區茄苳路250巷22號","121.671663333333","25.067735","6501100","汐止區"
"220079","145-BY","2018/04/05 18:39:32","新北市板橋區館前西路162號","121.452863333333","25.00859","6500100","板橋區"
"220080","200-UY","2018/04/05 18:39:38","新北市板橋區大觀路二段265巷76弄28號","121.441356666667","24.996765","6500100","板橋區"
"220082","610-BX","2018/04/05 18:39:42","新北市板橋區篤行路一段39號","121.431975","24.9942233333333","6500100","板橋區"
"220072","277-BY","2018/04/05 18:39:38","新北市板橋區大觀路三段59巷17弄6-1號","121.435463333333","24.995605","6500100","板橋區"
"220077","282-UM","2018/04/05 18:39:29","新北市板橋區大觀路二段174巷116弄2號","121.441086666667","25.0017516666667","6500100","板橋區"
"220071","283-VK","2018/04/05 18:39:44","新北市板橋區華東街1-9號","121.448063333333","24.9948616666667","6500100","板橋區"
"220094","285-UM","2018/04/05 18:39:37","新北市板橋區民生路二段161巷1號","121.470136666667","25.0199116666667","6500100","板橋區"
"220083","286-VK","2018/04/05 18:39:44","新北市板橋區華東街1-8號","121.447765","24.9947916666667","6500100","板橋區"
"220081","287-VK","2018/04/05 18:39:33","新北市板橋區大觀路二段11-12號","121.447978333333","24.9966466666667","6500100","板橋區"
"220061","293-UM","2018/04/05 18:39:44","新北市板橋區民生路二段120號","121.470318333333","25.0197683333333","6500100","板橋區"
"220084","296-UM","2018/04/05 18:39:27","新北市板橋區大觀路二段205號","121.445073333333","24.9992583333333","6500100","板橋區"
"220075","303-R5","2018/04/05 18:39:34","新北市板橋區華東街328號","121.452781666667","25.0033816666667","6500100","板橋區"
"220062","305-R5","2018/04/05 18:39:35","新北市板橋區民生路二段120號","121.470356666667","25.0197466666667","6500100","板橋區"
"220064","486-VK","2018/04/05 18:39:38","新北市板橋區縣民大道一段322號","121.461745","25.0110433333333","6500100","板橋區"
"220035","560-BX","2018/04/05 18:39:40","新北市板橋區南雅西路二段177號","121.45187","25.0125483333333","6500100","板橋區"
"220103","561-BX","2018/04/05 18:39:32","新北市板橋區民生路二段161巷5號","121.47024","25.0197433333333","6500100","板橋區"
"220056","568-UM","2018/04/05 18:39:43","新北市板橋區四川路二段橋頭6號","121.44832","24.9940383333333","6500100","板橋區"
"220055","630-UY","2018/04/05 18:39:36","新北市板橋區華東街1-9號","121.448155","24.99492","6500100","板橋區"
"220057","686-BX","2018/04/05 18:39:44","新北市板橋區華東街1-9號","121.44827","24.99489","6500100","板橋區"
"220054","741-BX","2018/04/05 18:39:35","新北市板橋區華東街1-10號","121.447925","24.9955183333333","6500100","板橋區"
"220074","895-R6","2018/04/05 18:39:41","新北市板橋區南雅南路二段136號","121.452066666667","24.996495","6500100","板橋區"
"220073","985-R7","2018/04/05 18:39:45","新北市板橋區南雅南路二段130號","121.452098333333","24.9967683333333","6500100","板橋區"
"220070","AAC-253","2018/04/05 18:39:41","新北市板橋區南雅南路二段144巷60號","121.450266666667","24.997415","6500100","板橋區"
