"lineid","car","time","location","longitude","latitude","cityid","cityname"
"234046","148-BY","2018/04/05 18:49:30","新北市永和區秀朗路二段124-3號","121.5248","25.001435","6500400","永和區"
"234070","149-BY","2018/04/05 18:49:34","新北市永和區中興街100號","121.519071666667","25.0120833333333","6500400","永和區"
"234007","207-UY","2018/04/05 18:49:34","新北市永和區文化路11號","121.515146666667","25.01502","6500400","永和區"
"234081","298-R6","2018/04/05 18:49:35","新北市永和區林森路112巷12弄8號","121.522635","25.0044733333333","6500400","永和區"
"234038","336-UY","2018/04/05 18:49:16","新北市永和區環河東路二段92號","121.524491666667","25.0106016666667","6500400","永和區"
"234064","337-UY","2018/04/05 18:49:08","新北市永和區福和路1號","121.525896666667","25.0094016666667","6500400","永和區"
"234086","338-UY","2018/04/05 18:49:17","新北市永和區中正路71號","121.514993333333","24.9967483333333","6500400","永和區"
"234017","745-BX","2018/04/05 18:49:29","新北市永和區忠孝街26巷8號","121.515383333333","25.0167383333333","6500400","永和區"
"234030","746-BX","2018/04/05 18:49:32","新北市永和區得和路321號","121.523398333333","24.99962","6500400","永和區"
"234054","KEA-2590","2018/04/05 18:49:15","新北市永和區竹林路39巷35號","121.520378333333","25.015415","6500400","永和區"
"234013","KEA-2591","2018/04/05 18:49:37","新北市永和區仁愛路202巷32號","121.508956666667","25.0131466666667","6500400","永和區"
"234061","AAD-866","2018/04/05 18:49:23","新北市永和區中正路610-1號","121.517133333333","25.0072833333333","6500400","永和區"
"234042","862-TW","2018/04/05 18:49:20","新北市永和區永貞路306號","121.511916666667","25.0048533333333","6500400","永和區"
"234050","863-TW","2018/04/05 18:49:37","新北市永和區環河東路二段20號","121.522435","25.0132533333333","6500400","永和區"
"234026","9371-KE","2018/04/05 18:49:32","新北市永和區中山路一段277號","121.507041666667","25.0071066666667","6500400","永和區"
"234011","9373-KE","2018/04/05 18:49:17","新北市永和區文化路124號","121.51308","25.0153066666667","6500400","永和區"
"249005","172-UM","2018/04/05 18:49:30","新北市八里區長道坑12號","121.39316","25.1209716666667","6502300","八里區"
"249001","173-UM","2018/04/05 18:49:23","新北市八里區龍米路二段16號","121.448966666667","25.1391083333333","6502300","八里區"
"248014","025-BX","2018/04/05 18:31:48","新北市五股區成泰路一段198號","121.435855","25.0784883333333","6501500","五股區"
"248016","026-BX","2018/04/05 18:49:21","新北市五股區凌雲路一段149巷13-1號","121.448601666667","25.1008733333333","6501500","五股區"
"248006","077-UY","2018/04/05 18:49:29","新北市五股區四維路1巷3-1號","121.466318333333","25.07023","6501500","五股區"
"248008","095-VK","2018/04/05 18:49:27","新北市五股區中興路一段151巷1弄1號","121.465146666667","25.0733533333333","6501500","五股區"
"248018","225-UY","2018/04/05 18:49:33","新北市五股區凌雲路三段82-1號","121.431758333333","25.1173033333333","6501500","五股區"
"248012","247-BX","2018/04/05 18:49:17","新北市五股區成泰路二段147巷12號","121.438955","25.0862766666667","6501500","五股區"
"248004","677-BX","2018/04/05 18:49:25","新北市五股區民義路二段73號","121.409013333333","25.105615","6501500","五股區"
"248002","678-BX","2018/04/05 18:49:34","新北市五股區成泰路三段454號","121.451405","25.1003716666667","6501500","五股區"
"248010","682-TV","2018/04/05 18:49:26","新北市五股區水碓九路11號","121.427835","25.0717416666667","6501500","五股區"
"234023","9380-KE","2018/04/05 18:49:17","新北市永和區竹林路91巷60弄12號","121.522018333333","25.0127166666667","6500400","永和區"
"234077","969-R7","2018/04/05 18:49:18","新北市永和區中正路2巷29弄2-2號","121.513843333333","24.993795","6500400","永和區"
"234074","AAC-211","2018/04/05 18:49:23","新北市永和區福和路1號","121.526311666667","25.0097933333333","6500400","永和區"
"234067","AAC-212","2018/04/05 18:49:20","新北市永和區中和路625號","121.51297","25.004845","6500400","永和區"
"234003","AAC-295","2018/04/05 18:49:21","新北市永和區中正路645號","121.515258333333","25.010145","6500400","永和區"
"232011","375-UM","2018/04/05 18:49:36","新北市坪林區坪碇路10號","121.711533333333","24.9410733333333","6502000","坪林區"
"244013","069-UM","2018/04/05 18:49:28","新北市林口區文化一路一段223號","121.378925","25.07564","6501700","林口區"
"244007","080-UY","2018/04/05 18:49:18","新北市林口區太平嶺2-3號","121.377796666667","25.1124883333333","6501700","林口區"
"244025","742-UY","2018/04/05 18:49:36","新北市林口區南勢里57-7號","121.360016666667","25.07755","6501700","林口區"
"244009","410-SL","2018/04/05 18:49:30","新北市林口區竹林路344號","121.391403333333","25.08369","6501700","林口區"
"244023","483-VK","2018/04/05 18:49:21","新北市林口區民權路81號","121.372195","25.0810716666667","6501700","林口區"
"244017","485-VK","2018/04/05 18:49:24","新北市林口區文化二路一段68巷18-2號","121.366125","25.0677566666667","6501700","林口區"
"244019","657-BX","2018/04/05 18:49:19","新北市林口區麗園二街76號","121.382043333333","25.0679416666667","6501700","林口區"
"244011","701-TV","2018/04/05 18:49:24","新北市林口區中正路57巷12弄14號","121.394908333333","25.0767083333333","6501700","林口區"
"243012","AAD-798","2018/04/05 18:49:19","新北市泰山區福興三街13號","121.43444","25.0577733333333","6501600","泰山區"
"243015","380-SR","2018/04/05 18:49:19","新北市泰山區泰林路二段385巷1號","121.42766","25.0641816666667","6501600","泰山區"
"243010","KEA-2215","2018/04/05 18:49:29","新北市泰山區泰林路二段345號","121.429078333333","25.0635116666667","6501600","泰山區"
"243013","646-TV","2018/04/05 18:49:27","新北市泰山區明志路三段206巷3號","121.423273333333","25.0379633333333","6501600","泰山區"
"243016","680-BX","2018/04/05 18:49:19","新北市泰山區明志路二段135號","121.427676666667","25.0507516666667","6501600","泰山區"
"222003","436-BY","2018/04/05 18:49:29","新北市深坑區翠谷街1號","121.626746666667","25.0074066666667","6501800","深坑區"
"222002","659-BX","2018/04/05 18:49:21","新北市深坑區文山路一段69號","121.627008333333","25.0018916666667","6501800","深坑區"
"231041","002-UM","2018/04/05 18:49:34","新北市新店區安華路28-1號","121.519915","24.96074","6500600","新店區"
"231059","046-UY","2018/04/05 18:49:19","新北市新店區安華路28-1號","121.519561666667","24.9606166666667","6500600","新店區"
"231040","047-UY","2018/04/05 18:49:22","新北市新店區環河路22號","121.537161666667","24.9618383333333","6500600","新店區"
"231044","106-UY","2018/04/05 18:49:20","新北市新店區寶中路72號","121.547858333333","24.9805983333333","6500600","新店區"
"231052","108-UY","2018/04/05 18:49:29","新北市新店區新烏路一段100-2號","121.546051666667","24.9371","6500600","新店區"
"231050","110-UY","2018/04/05 18:49:19","新北市新店區安康路一段105號","121.529055","24.9615566666667","6500600","新店區"
"231047","187-VK","2018/04/05 18:49:25","新北市新店區中正路111號","121.542503333333","24.9703466666667","6500600","新店區"
"231046","188-VK","2018/04/05 18:49:27","新北市新店區直潭三街88號","121.531628333333","24.9417933333333","6500600","新店區"
"231054","KEA-2219","2018/04/05 18:49:34","新北市新店區北新路一段77號","121.538558333333","24.9604566666667","6500600","新店區"
"231042","268-BY","2018/04/05 18:49:20","新北市新店區北新路一段91號","121.5387","24.9617616666667","6500600","新店區"
"231051","278-BY","2018/04/05 18:49:32","新北市新店區中央路57號","121.532808333333","24.977365","6500600","新店區"
"231058","3713-VJ","2018/04/05 18:49:28","新北市新店區中興路一段274號","121.545421666667","24.9682383333333","6500600","新店區"
"231066","4716-K9","2018/04/05 18:49:23","新北市新店區安豐路30-1號","121.50066","24.9569016666667","6500600","新店區"
"231056","4715-K9","2018/04/05 18:49:22","新北市新店區大豐路68巷8號","121.539061666667","24.97982","6500600","新店區"
"231067","4772-VM","2018/04/05 18:49:20","新北市新店區溪洲路6巷32-1號","121.533816666667","24.9627316666667","6500600","新店區"
"231065","512-UM","2018/04/05 18:49:17","新北市新店區安康路二段397巷2-1號","121.494471666667","24.9537633333333","6500600","新店區"
"231049","513-UM","2018/04/05 18:49:23","新北市新店區中正路454-5號","121.534423333333","24.97906","6500600","新店區"
"231061","619-UM","2018/04/05 18:49:33","新北市新店區安華路28-1號","121.519695","24.9605783333333","6500600","新店區"
"231063","641-BX","2018/04/05 18:49:29","新北市新店區安華路30巷3號","121.518785","24.9584266666667","6500600","新店區"
"231064","719-UM","2018/04/05 18:49:19","新北市新店區安華路28-1號","121.51947","24.9612916666667","6500600","新店區"
"231062","720-UM","2018/04/05 18:49:26","新北市新店區安華路28-1號","121.519171666667","24.96109","6500600","新店區"
"231060","897-TW","2018/04/05 18:49:25","新北市新店區安華路28-1號","121.519666666667","24.96051","6500600","新店區"
"231045","898-TW","2018/04/05 18:49:33","新北市新店區安康路一段61號","121.530526666667","24.9610333333333","6500600","新店區"
"231043","899-TW","2018/04/05 18:49:33","新北市新店區安康路一段102號","121.527383333333","24.9624066666667","6500600","新店區"
"231055","AKT-0513","2018/04/05 18:49:20","新北市新店區北新路一段271巷8號","121.540546666667","24.9667783333333","6500600","新店區"
"235066","003-UY","2018/04/05 18:49:25","新北市中和區水源路18巷2弄2號","121.50407","25.0032633333333","6500300","中和區"
"235064","005-UY","2018/04/05 18:49:25","新北市中和區泰和街29號","121.499298333333","24.99989","6500300","中和區"
"235063","006-UY","2018/04/05 18:49:22","新北市中和區中正路464號","121.490095","24.99426","6500300","中和區"
"235056","096-UM","2018/04/05 18:49:17","新北市中和區員山路611巷1號","121.477831666667","25.01129","6500300","中和區"
"235065","098-UM","2018/04/05 18:49:20","新北市中和區中山路二段2巷13弄2號","121.503601666667","25.006585","6500300","中和區"
"235040","150-BY","2018/04/05 18:49:16","新北市中和區保健路123號","121.512358333333","24.9959733333333","6500300","中和區"
"235058","151-BY","2018/04/05 18:49:20","新北市中和區連城路573-1號","121.479046666667","24.9943883333333","6500300","中和區"
"235055","183-VK","2018/04/05 18:49:36","新北市中和區民生街85巷5弄2號","121.469301666667","25.0040083333333","6500300","中和區"
"235038","185-VK","2018/04/05 18:49:32","新北市中和區立人街16號","121.51928","24.9942633333333","6500300","中和區"
"235049","186-VK","2018/04/05 18:49:28","新北市中和區明義街11巷12弄2號","121.503748333333","24.9946616666667","6500300","中和區"
"235067","255-BX","2018/04/05 18:49:31","新北市中和區中山路二段449巷1弄31號","121.484206666667","25.00388","6500300","中和區"
"235072","301-VK","2018/04/05 18:49:19","新北市中和區中山路二段253號","121.497641666667","25.0024233333333","6500300","中和區"
"235043","352-BY","2018/04/05 18:49:19","新北市中和區成功路139號","121.526078333333","24.990475","6500300","中和區"
"235068","377-QA","2018/04/05 18:49:29","新北市中和區中正路167巷24號","121.498243333333","24.9923033333333","6500300","中和區"
"235061","378-QA","2018/04/05 18:49:30","新北市中和區民治街128巷1號","121.475148333333","25.0028816666667","6500300","中和區"
"235050","4979-A6","2018/04/05 18:49:26","新北市中和區忠孝街62巷12號","121.51237","24.9836483333333","6500300","中和區"
"235069","4980-A6","2018/04/05 18:49:22","新北市中和區南山路15號","121.502146666667","24.99922","6500300","中和區"
"235042","551-UM","2018/04/05 18:49:28","新北市中和區成功路91號","121.526018333333","24.9918583333333","6500300","中和區"
"235070","558-UM","2018/04/05 18:49:20","新北市中和區南山路41號","121.502048333333","24.9985683333333","6500300","中和區"
"235045","565-BX","2018/04/05 18:49:32","新北市中和區景安路211號","121.504631666667","24.9917066666667","6500300","中和區"
"235054","640-BX","2018/04/05 18:49:18","新北市中和區民享街58-1號","121.474071666667","25.00224","6500300","中和區"
"235047","732-UM","2018/04/05 18:49:18","新北市中和區興南路二段34巷55弄1號","121.504865","24.9862566666667","6500300","中和區"
"235046","733-UM","2018/04/05 18:49:35","新北市中和區仁愛街36巷16號","121.51075","24.9875583333333","6500300","中和區"
"235071","783-BX","2018/04/05 18:49:27","新北市中和區員山路36巷16-3號","121.48517","24.9911083333333","6500300","中和區"
"235062","800-TS","2018/04/05 18:49:31","新北市中和區中山路二段328-3號","121.495171666667","25.00225","6500300","中和區"
"235057","801-TS","2018/04/05 18:49:27","新北市中和區民安街25巷23號","121.480605","24.9997816666667","6500300","中和區"
"235041","802-TS","2018/04/05 18:49:34","新北市中和區中安街216號","121.511888333333","24.9989233333333","6500300","中和區"
"235052","805-TS","2018/04/05 18:49:35","新北市中和區興南路二段399巷98弄48號","121.498765","24.9767866666667","6500300","中和區"
"235048","896-TW","2018/04/05 18:49:21","新北市中和區華新街47號","121.507783333333","24.9845566666667","6500300","中和區"
"235053","900-TW","2018/04/05 18:49:33","新北市中和區民德路290巷19號","121.466488333333","24.9959916666667","6500300","中和區"
"235060","911-UM","2018/04/05 18:49:34","新北市中和區中山路三段149號","121.473625","25.0062216666667","6500300","中和區"
"235051","157-BY","2018/04/05 18:49:23","新北市中和區忠孝街2號","121.508725","24.9828716666667","6500300","中和區"
"235037","AAC-213","2018/04/05 18:49:23","新北市中和區秀朗路三段128巷18號","121.524553333333","24.993275","6500300","中和區"
"235059","AAC-215","2018/04/05 18:49:16","新北市中和區圓通路395號","121.489626666667","24.989095","6500300","中和區"
"220065","072-UY","2018/04/05 18:49:37","新北市板橋區民族路247巷5弄42號","121.47029","25.00845","6500100","板橋區"
"220086","073-UY","2018/04/05 18:49:25","新北市板橋區大智街71巷7弄1號","121.453116666667","25.014655","6500100","板橋區"
"220067","075-UY","2018/04/05 18:49:22","新北市板橋區中山路二段90巷47弄4號","121.476733333333","25.014715","6500100","板橋區"
"220069","AAD-861","2018/04/05 18:49:26","新北市板橋區大華街9號","121.459063333333","25.006235","6500100","板橋區"
"226004","312-R5","2018/04/05 18:49:34","新北市平溪區靜安路二段402號","121.738905","25.024415","6502400","平溪區"
"235039","251-BX","2018/04/05 18:49:32","新北市中和區安樂路143巷32號","121.513056666667","24.9965066666667","6500300","中和區"
"228003","097-TW","2018/04/05 18:49:16","新北市貢寮區和美里龍洞街46號","121.913545","25.1124583333333","6502600","貢寮區"
"228001","212-TW","2018/04/05 18:49:18","新北市貢寮區仁理村保健街73號","121.923716666667","25.0516783333333","6502600","貢寮區"
"228002","585-TW","2018/04/05 18:49:18","新北市貢寮區福隆里東興街31-1號","121.954056666667","25.0210666666667","6502600","貢寮區"
"224006","676-BX","2018/04/05 18:49:37","新北市瑞芳區民生街18號","121.805786666667","25.1075633333333","6501200","瑞芳區"
"224002","639-TC","2018/04/05 18:49:27","新北市瑞芳區三爪子坑路25號","121.813481666667","25.1075566666667","6501200","瑞芳區"
"224009","273-VK","2018/04/05 18:49:21","新北市瑞芳區祈堂路68號","121.859053333333","25.1098166666667","6501200","瑞芳區"
"224008","272-VK","2018/04/05 18:48:45","新北市瑞芳區岳王路1巷25號","121.806013333333","25.11049","6501200","瑞芳區"
"224005","271-BY","2018/04/05 18:49:31","新北市瑞芳區永龍新村1號","121.8194","25.119695","6501200","瑞芳區"
"227004","642-TC","2018/04/05 18:49:35","新北市雙溪區平林里梅竹蹊28號","121.861633333333","25.0360166666667","6502500","雙溪區"
"227010","400-TW","2018/04/05 18:49:24","新北市雙溪區牡丹里聖南19號","121.8571","25.0527916666667","6502500","雙溪區"
"253005","032-BX","2018/04/05 18:49:29","新北市石門區中山路15號","121.565993333333","25.2903216666667","6502200","石門區"
"253006","295-VK","2018/04/05 18:49:22","新北市石門區下員坑30-2號","121.520045","25.2827533333333","6502200","石門區"
"222001","KEA-2212","2018/04/05 18:49:34","新北市深坑區松柏街54巷2號","121.638793333333","25.0119366666667","6501800","深坑區"
"208002","KEA-2872","2018/04/05 18:49:24","新北市金山區信義路61號","121.635995","25.2191166666667","6502700","金山區"
"208003","665-BX","2018/04/05 18:49:16","新北市金山區中山路393號","121.63342","25.225225","6502700","金山區"
"208001","761-BX","2018/04/05 18:49:15","新北市金山區文化三路66巷1號","121.634256666667","25.22566","6502700","金山區"
"251013","179-VK","2018/04/05 18:49:31","新北市淡水區安子內5-3號","121.483108333333","25.21443","6501000","淡水區"
"251014","180-VK","2018/04/05 18:49:31","新北市淡水區崙頂3號","121.490128333333","25.224065","6501000","淡水區"
"251015","182-VK","2018/04/05 18:49:25","新北市淡水區興福寮66巷18號","121.486686666667","25.162285","6501000","淡水區"
"251010","413-VK","2018/04/05 18:49:25","新北市淡水區沙崙路11號","121.421163333333","25.181245","6501000","淡水區"
"251012","441-VK","2018/04/05 18:49:25","新北市淡水區新興街8號","121.443895","25.1803583333333","6501000","淡水區"
"251016","442-VK","2018/04/05 18:49:32","新北市淡水區下圭柔山72號","121.445921666667","25.2047733333333","6501000","淡水區"
"251001","559-UM","2018/04/05 18:49:19","新北市淡水區自強路84號","121.462758333333","25.128205","6501000","淡水區"
"251009","575-R6","2018/04/05 18:49:29","新北市淡水區重建街172號","121.440745","25.17401","6501000","淡水區"
"251011","650-BX","2018/04/05 18:49:29","新北市淡水區學府路7號","121.44744","25.1680266666667","6501000","淡水區"
"251002","672-BX","2018/04/05 18:49:23","新北市淡水區學府路71號","121.448361666667","25.1698116666667","6501000","淡水區"
"251003","766-UM","2018/04/05 18:49:18","新北市淡水區北新路65號","121.446005","25.1782483333333","6501000","淡水區"
"207003","550-UM","2018/04/05 18:49:26","新北市萬里區野柳里八斗60號","121.66735","25.2041283333333","6502800","萬里區"
"207003","225-TW","2018/04/05 18:49:17","新北市萬里區萬里里獅頭路23號","121.69319","25.1782783333333","6502800","萬里區"
"252002","178-VK","2018/04/05 18:49:25","新北市三芝區中正路一段112號","121.504843333333","25.2563866666667","6502100","三芝區"
"252003","249-BX","2018/04/05 18:49:27","新北市三芝區後厝里大片頭85-9號","121.458711666667","25.24397","6502100","三芝區"
"252001","292-VK","2018/04/05 18:49:27","新北市三芝區中正路三段9號","121.502858333333","25.253975","6502100","三芝區"
"237004","KEA-2597","2018/04/05 18:49:32","新北市三峽區插角222號","121.414998333333","24.86769","6500900","三峽區"
"237007","153-BY","2018/04/05 18:49:23","新北市三峽區大埔路136號","121.367523333333","24.9041816666667","6500900","三峽區"
"237009","210-TH","2018/04/05 18:49:26","新北市三峽區仁愛街31號","121.36848","24.9333083333333","6500900","三峽區"
"237013","252-BX","2018/04/05 18:49:19","新北市三峽區光明路69巷27號","121.376835","24.9292383333333","6500900","三峽區"
"237012","275-BY","2018/04/05 18:49:31","新北市三峽區三樹路340號","121.38396","24.9433216666667","6500900","三峽區"
"237008","302-VK","2018/04/05 18:49:19","新北市三峽區白雞33-60號","121.370886666667","24.9131266666667","6500900","三峽區"
"237014","433-BY","2018/04/05 18:49:28","新北市三峽區復興路480巷7-2號","121.357623333333","24.9400783333333","6500900","三峽區"
"237006","5529-G3","2018/04/05 18:49:27","新北市三峽區溪東路233巷11弄6號","121.406698333333","24.9338383333333","6500900","三峽區"
"237010","706-TV","2018/04/05 18:49:24","新北市三峽區復興路174巷4號","121.370728333333","24.9389066666667","6500900","三峽區"
"237005","AKY-6261","2018/04/05 18:49:34","新北市三峽區文化路111號","121.370445","24.9360633333333","6500900","三峽區"
"236070","105-UM","2018/04/05 18:49:18","新北市土城區青雲路33號","121.460343333333","24.9883516666667","6501300","土城區"
"236042","107-UM","2018/04/05 18:49:27","新北市土城區裕民路114巷19號","121.450503333333","24.9857383333333","6501300","土城區"
"236078","166-UM","2018/04/05 18:49:21","新北市土城區中央路四段67巷60-13號","121.416905","24.9560166666667","6501300","土城區"
"236030","253-BX","2018/04/05 18:49:24","新北市土城區忠義路26巷10號","121.439875","24.9698783333333","6501300","土城區"
"236026","269-VK","2018/04/05 18:49:33","新北市土城區興城路76號","121.441043333333","24.9720666666667","6501300","土城區"
"236014","270-VK","2018/04/05 18:49:29","新北市土城區清水路235巷5弄2號","121.460806666667","24.98379","6501300","土城區"
"236038","271-VK","2018/04/05 18:49:28","新北市土城區明德路一段221巷9號","121.463745","24.978055","6501300","土城區"
"236021","401-BY","2018/04/05 18:49:18","新北市土城區延安街40號","121.467368333333","24.98575","6501300","土城區"
"236059","912-UM","2018/04/05 18:49:24","新北市土城區金城路二段37號","121.449943333333","24.9777816666667","6501300","土城區"
"236049","913-UM","2018/04/05 18:49:28","新北市土城區青雲路107-1號","121.45907","24.9855016666667","6501300","土城區"
"236063","915-UM","2018/04/05 18:49:31","新北市土城區延和路193號","121.469516666667","24.9903316666667","6501300","土城區"
"236055","AAC-216","2018/04/05 18:49:27","新北市土城區裕民路127號","121.451213333333","24.9865583333333","6501300","土城區"
"242004","442-UM","2018/04/05 18:49:28","新北市新莊區新泰路255巷83號","121.442015","25.0388833333333","6500500","新莊區"
"238023","601-UM","2018/04/05 18:49:32","桃園市龜山區萬壽路一段424號","121.399548333333","25.01642","6500700","樹林區"
"238019","599-UM","2018/04/05 18:49:35","新北市樹林區東榮街180號","121.414353333333","24.9819233333333","6500700","樹林區"
"238018","571-TV","2018/04/05 18:49:17","新北市樹林區鎮前街347巷1弄39號","121.41773","24.98433","6500700","樹林區"
"238024","5061-A6","2018/04/05 18:49:32","新北市樹林區八德街1146號","121.390903333333","24.9685166666667","6500700","樹林區"
"238022","KEA-2213","2018/04/05 18:49:20","新北市樹林區東興街43號","121.410643333333","24.977605","6500700","樹林區"
"238025","303-VK","2018/04/05 18:49:15","新北市樹林區中山路三段22號","121.395626666667","24.9729383333333","6500700","樹林區"
"238017","283-BY","2018/04/05 18:49:18","新北市樹林區中山路三段111號","121.399368333333","24.974425","6500700","樹林區"
"238014","282-BY","2018/04/05 18:49:18","新北市樹林區大安路109號","121.422526666667","24.9979283333333","6500700","樹林區"
"238026","172-UY","2018/04/05 18:49:18","新北市樹林區德和街46號","121.38983","24.97949","6500700","樹林區"
"238016","169-UY","2018/04/05 18:49:28","新北市樹林區文化街23號","121.419253333333","24.9875816666667","6500700","樹林區"
"239007","AAC-297","2018/04/05 18:49:32","新北市鶯歌區中正一路建德巷38號","121.364513333333","24.9578","6500800","鶯歌區"
"239008","527-UM","2018/04/05 18:49:24","新北市鶯歌區國際二路20巷27號","121.337343333333","24.9755066666667","6500800","鶯歌區"
"239005","526-UM","2018/04/05 18:49:21","新北市鶯歌區鶯桃路二段60號","121.325023333333","24.9732283333333","6500800","鶯歌區"
"239001","417-VK","2018/04/05 18:49:36","新北市鶯歌區永明街58號","121.3406","24.9558816666667","6500800","鶯歌區"
"239003","360-BY","2018/04/05 18:49:35","新北市鶯歌區鶯桃路660號","121.32917","24.9691666666667","6500800","鶯歌區"
"239004","193-VK","2018/04/05 18:49:29","新北市鶯歌區中正三路194巷46號","121.331223333333","24.9407733333333","6500800","鶯歌區"
"221008","489-VK","2018/04/05 18:49:32","新北市汐止區康寧街901號","121.651415","25.0750533333333","6501100","汐止區"
"221036","130-UY","2018/04/05 18:49:32","新北市汐止區水碓街1號","121.663946666667","25.0699066666667","6501100","汐止區"
"221015","131-UY","2018/04/05 18:49:33","新北市汐止區鄉長路一段55巷9號","121.665373333333","25.0761116666667","6501100","汐止區"
"221010","269-BY","2018/04/05 18:49:28","新北市汐止區汐萬路一段312號","121.650161666667","25.074925","6501100","汐止區"
"221012","278-VK","2018/04/05 18:49:21","新北市汐止區長江街63號","121.656668333333","25.0718383333333","6501100","汐止區"
"221032","280-BY","2018/04/05 18:49:28","新北市汐止區民權街二段79號","121.619193333333","25.0480083333333","6501100","汐止區"
"221027","281-BY","2018/04/05 18:49:29","新北市汐止區汐萬路一段256巷1號","121.651798333333","25.0748166666667","6501100","汐止區"
"221029","298-VK","2018/04/05 18:48:57","新北市汐止區工建路60號","121.640706666667","25.0629766666667","6501100","汐止區"
"221021","299-VK","2018/04/05 18:49:23","新北市汐止區汐萬路一段222號","121.65169","25.072915","6501100","汐止區"
"221031","353-TW","2018/04/05 18:49:29","新北市汐止區福德一路300巷23號","121.630655","25.06412","6501100","汐止區"
"221035","622-UM","2018/04/05 18:49:26","新北市汐止區汐萬路一段256巷3號","121.653291666667","25.0746133333333","6501100","汐止區"
"221025","623-UM","2018/04/05 18:49:16","新北市汐止區仁愛路113巷12號","121.662058333333","25.0638833333333","6501100","汐止區"
"221038","646-BX","2018/04/05 18:49:24","新北市汐止區康寧街901號","121.65095","25.075245","6501100","汐止區"
"221033","647-BX","2018/04/05 18:49:20","新北市汐止區南勢街3號","121.627123333333","25.037405","6501100","汐止區"
"221002","707-TV","2018/04/05 18:49:30","新北市汐止區大同路一段149號","121.63204","25.0560733333333","6501100","汐止區"
"221018","753-BX","2018/04/05 18:49:31","新北市汐止區茄福街1號","121.673293333333","25.06753","6501100","汐止區"
"220079","145-BY","2018/04/05 18:49:33","新北市板橋區民權路202巷7弄22號","121.459278333333","25.0149933333333","6500100","板橋區"
"220080","200-UY","2018/04/05 18:49:18","新北市板橋區大觀路二段365巷12號","121.441163333333","24.99795","6500100","板橋區"
"220106","KEA-2550","2018/04/05 18:49:33","新北市板橋區民生路二段161巷1號","121.470135","25.0200216666667","6500100","板橋區"
"220082","610-BX","2018/04/05 18:49:22","新北市板橋區篤行路三段99號","121.42625","24.9846983333333","6500100","板橋區"
"220072","277-BY","2018/04/05 18:49:18","新北市板橋區大觀路三段36巷76號","121.434536666667","24.99741","6500100","板橋區"
"220101","280-UM","2018/04/05 18:49:33","新北市板橋區民生路二段161巷3號","121.470143333333","25.019815","6500100","板橋區"
"220077","282-UM","2018/04/05 18:49:09","新北市板橋區龍興街101巷2號","121.444438333333","25.003255","6500100","板橋區"
"220071","283-VK","2018/04/05 18:49:24","新北市板橋區忠孝路176巷5弄2號","121.464723333333","25.001915","6500100","板橋區"
"220094","285-UM","2018/04/05 18:49:17","新北市板橋區民生路二段161巷3號","121.470058333333","25.0197","6500100","板橋區"
"220053","285-VK","2018/04/05 18:49:33","新北市板橋區民生路二段107號","121.471125","25.018025","6500100","板橋區"
"220083","286-VK","2018/04/05 18:49:24","新北市板橋區大觀路二段22巷38-2號","121.4447","25.0037633333333","6500100","板橋區"
"220081","287-VK","2018/04/05 18:49:20","新北市板橋區光華街13巷38號","121.452813333333","25.01123","6500100","板橋區"
"220090","288-VK","2018/04/05 18:49:23","新北市板橋區民生路二段120號","121.470348333333","25.0196733333333","6500100","板橋區"
"220061","293-UM","2018/04/05 18:49:24","新北市板橋區民生路二段89-6號","121.470536666667","25.018905","6500100","板橋區"
"220097","295-UM","2018/04/05 18:49:20","新北市板橋區民生路二段89-6號","121.470805","25.0193083333333","6500100","板橋區"
"220084","296-UM","2018/04/05 18:49:27","新北市板橋區大觀路二段150巷15號","121.441656666667","24.9993516666667","6500100","板橋區"
"220075","303-R5","2018/04/05 18:49:34","新北市板橋區南雅東路88號","121.453923333333","25.00762","6500100","板橋區"
"220062","305-R5","2018/04/05 18:49:35","新北市板橋區中山路二段25號","121.472515","25.015235","6500100","板橋區"
"220092","307-R5","2018/04/05 18:49:26","新北市板橋區民生路二段120號","121.470521666667","25.019735","6500100","板橋區"
"220098","317-R6","2018/04/05 18:49:16","新北市板橋區民生路二段120號","121.470351666667","25.0195883333333","6500100","板橋區"
"220064","486-VK","2018/04/05 18:49:36","新北市板橋區中山路二段37號","121.473075","25.01558","6500100","板橋區"
"220088","491-VK","2018/04/05 18:49:31","新北市板橋區民生路二段171號","121.469793333333","25.0201133333333","6500100","板橋區"
"220035","560-BX","2018/04/05 18:49:33","新北市板橋區中正路325巷3弄15號","121.453836666667","25.0187466666667","6500100","板橋區"
"220103","561-BX","2018/04/05 18:49:32","新北市板橋區民生路二段120號","121.470483333333","25.019605","6500100","板橋區"
"220056","568-UM","2018/04/05 18:49:24","新北市土城區四川路35號","121.454918333333","24.9957266666667","6500100","板橋區"
"220063","609-BX","2018/04/05 18:49:14","新北市板橋區民生路二段121號","121.47073","25.0184766666667","6500100","板橋區"
"220055","630-UY","2018/04/05 18:49:36","新北市板橋區縣民大道二段68-1號","121.463335","25.012785","6500100","板橋區"
"220091","637-BX","2018/04/05 18:49:28","新北市板橋區民生路二段161巷1號","121.470081666667","25.0201483333333","6500100","板橋區"
"220057","686-BX","2018/04/05 18:49:25","新北市板橋區南雅南路二段4巷4號","121.454105","25.0037633333333","6500100","板橋區"
"220054","741-BX","2018/04/05 18:49:35","新北市板橋區館前東路21號","121.460271666667","25.0072616666667","6500100","板橋區"
"220102","KEA-2699","2018/04/05 18:49:22","新北市板橋區民生路二段120號","121.470488333333","25.0197266666667","6500100","板橋區"
"220068","830-TW","2018/04/05 18:49:18","新北市板橋區民生路二段123號","121.470706666667","25.01869","6500100","板橋區"
"220074","895-R6","2018/04/05 18:49:21","新北市板橋區南門街2號","121.457568333333","25.0092683333333","6500100","板橋區"
"220073","985-R7","2018/04/05 18:49:25","新北市板橋區南雅東路120號","121.453406666667","25.0087466666667","6500100","板橋區"
"220070","AAC-253","2018/04/05 18:49:21","新北市板橋區四川路一段131號","121.459898333333","25.0046283333333","6500100","板橋區"
