"lineid","car","time","location","longitude","latitude","cityid","cityname"
"234046","148-BY","2018/04/05 19:09:10","新北市永和區永元路18巷37號","121.524078333333","25.0003083333333","6500400","永和區"
"234070","149-BY","2018/04/05 19:09:14","新北市永和區豫溪街137巷1弄23號","121.518541666667","25.0103833333333","6500400","永和區"
"234007","207-UY","2018/04/05 19:09:14","新北市永和區永貞路422號","121.508605","25.008345","6500400","永和區"
"234081","298-R6","2018/04/05 19:09:26","新北市永和區永貞路37號","121.521256666667","25.00647","6500400","永和區"
"234038","336-UY","2018/04/05 19:09:16","新北市永和區民樂街69巷4號","121.527478333333","24.9976916666667","6500400","永和區"
"234064","337-UY","2018/04/05 19:09:08","新北市永和區秀朗路二段33號","121.521265","25.0024166666667","6500400","永和區"
"234086","338-UY","2018/04/05 19:09:17","新北市永和區永貞路152號","121.517843333333","25.004465","6500400","永和區"
"234017","745-BX","2018/04/05 19:09:29","新北市永和區文化路90巷9弄2號","121.513828333333","25.0158333333333","6500400","永和區"
"234030","746-BX","2018/04/05 19:09:12","新北市永和區民生路23號","121.522881666667","24.9988083333333","6500400","永和區"
"234054","KEA-2590","2018/04/05 19:09:15","新北市永和區竹林路74號","121.51919","25.0128766666667","6500400","永和區"
"234013","KEA-2591","2018/04/05 19:09:06","新北市永和區保福路二段6號","121.510981666667","25.011015","6500400","永和區"
"234061","AAD-866","2018/04/05 19:09:23","新北市永和區安樂路461號","121.514346666667","25.0051383333333","6500400","永和區"
"234042","862-TW","2018/04/05 19:09:21","新北市永和區永貞路334號","121.511215","25.005525","6500400","永和區"
"234050","863-TW","2018/04/05 19:09:17","新北市永和區仁愛路104巷7弄62號","121.510856666667","25.0141533333333","6500400","永和區"
"234026","9371-KE","2018/04/05 19:09:12","新北市永和區安樂路272巷9弄7號","121.515136666667","25.00459","6500400","永和區"
"234011","9373-KE","2018/04/05 19:09:17","新北市永和區仁愛路141巷9號","121.511673333333","25.0118733333333","6500400","永和區"
"249005","172-UM","2018/04/05 19:08:50","新北市八里區中華路三段145巷5號","121.392","25.134135","6502300","八里區"
"249001","173-UM","2018/04/05 19:09:23","新北市八里區龍米路二段228-2號","121.432636666667","25.15843","6502300","八里區"
"248016","026-BX","2018/04/05 19:09:20","新北市五股區成泰路三段543巷50號","121.450118333333","25.102785","6501500","五股區"
"248008","095-VK","2018/04/05 19:09:26","新北市五股區中興路二段9巷1號","121.463173333333","25.0738733333333","6501500","五股區"
"248018","225-UY","2018/04/05 19:09:13","新北市五股區凌雲路三段57號","121.425281666667","25.125015","6501500","五股區"
"248012","247-BX","2018/04/05 19:09:17","新北市五股區中興路四段48巷16號","121.438636666667","25.08344","6501500","五股區"
"248004","677-BX","2018/04/05 19:09:25","新北市五股區六合街3號","121.431925","25.0885133333333","6501500","五股區"
"248002","678-BX","2018/04/05 19:09:14","新北市五股區凌雲路一段158巷14-1號","121.447853333333","25.1034666666667","6501500","五股區"
"248010","682-TV","2018/04/05 19:09:26","新北市五股區水碓一路23號","121.430596666667","25.0712816666667","6501500","五股區"
"234023","9380-KE","2018/04/05 19:09:17","新北市永和區竹林路124巷25號","121.518561666667","25.011175","6500400","永和區"
"234077","969-R7","2018/04/05 19:09:23","新北市永和區民族街39號","121.51862","24.9989966666667","6500400","永和區"
"234074","AAC-211","2018/04/05 19:09:28","新北市永和區竹林路199-1號","121.520616666667","25.0091216666667","6500400","永和區"
"234067","AAC-212","2018/04/05 19:09:20","新北市永和區保平路21號","121.512675","25.0074133333333","6500400","永和區"
"234003","AAC-295","2018/04/05 19:09:21","新北市永和區保福路一段79號","121.511911666667","25.0104416666667","6500400","永和區"
"244013","069-UM","2018/04/05 19:09:08","新北市林口區麗園一街11巷11號","121.378716666667","25.0705233333333","6501700","林口區"
"244007","080-UY","2018/04/05 19:09:18","新北市林口區後坑5號","121.36696","25.1254683333333","6501700","林口區"
"244009","410-SL","2018/04/05 19:09:10","新北市林口區竹林路325號","121.389746666667","25.0831183333333","6501700","林口區"
"244023","483-VK","2018/04/05 19:09:21","新北市林口區文化三路一段636-1號","121.371946666667","25.07702","6501700","林口區"
"244017","485-VK","2018/04/05 19:09:25","新北市林口區菁湖里70-1號","121.371926666667","25.0920566666667","6501700","林口區"
"244019","657-BX","2018/04/05 19:09:19","新北市林口區麗園一街15號","121.376986666667","25.069195","6501700","林口區"
"244011","701-TV","2018/04/05 19:09:24","新北市林口區竹林路55號","121.387418333333","25.0781366666667","6501700","林口區"
"243012","AAD-798","2018/04/05 19:09:19","新北市泰山區辭修路36巷8弄5號","121.427911666667","25.0586183333333","6501600","泰山區"
"243011","297-R6","2018/04/05 19:09:14","新北市泰山區明志路二段366號","121.425473333333","25.0449766666667","6501600","泰山區"
"243015","380-SR","2018/04/05 19:09:26","新北市泰山區明志路一段363號","121.430806666667","25.0580433333333","6501600","泰山區"
"243014","421-VK","2018/04/05 19:09:16","新北市泰山區泰林路二段396號","121.427703333333","25.0641683333333","6501600","泰山區"
"243010","KEA-2215","2018/04/05 19:09:10","新北市泰山區明志路一段481號","121.431038333333","25.0553966666667","6501600","泰山區"
"243009","KEA-2216","2018/04/05 19:09:19","新北市泰山區楓江路25巷9號","121.4344","25.063595","6501600","泰山區"
"243013","646-TV","2018/04/05 19:09:27","新北市泰山區台麗街6巷11號","121.424151666667","25.03767","6501600","泰山區"
"243016","680-BX","2018/04/05 19:09:19","新北市泰山區明志路三段1號","121.424898333333","25.0435066666667","6501600","泰山區"
"222003","436-BY","2018/04/05 19:09:21","新北市深坑區深南路162號","121.626106666667","25.01497","6501800","深坑區"
"222002","659-BX","2018/04/05 19:09:21","新北市深坑區北深路一段185號","121.631318333333","25.0100333333333","6501800","深坑區"
"231041","002-UM","2018/04/05 19:09:17","新北市新店區溪園路389-10號","121.52363","24.9790616666667","6500600","新店區"
"231059","046-UY","2018/04/05 19:09:19","新北市新店區安和路二段68-5號","121.518315","24.9682116666667","6500600","新店區"
"231040","047-UY","2018/04/05 19:09:22","新北市新店區三民路98-3號","121.533951666667","24.9734333333333","6500600","新店區"
"231044","106-UY","2018/04/05 19:09:20","新北市新店區中興路三段221-3號","121.543473333333","24.982495","6500600","新店區"
"231052","108-UY","2018/04/05 19:09:21","新北市新店區自強路23巷1號","121.546298333333","24.926845","6500600","新店區"
"231050","110-UY","2018/04/05 19:09:19","新北市新店區竹林路2巷33號","121.550526666667","24.9501783333333","6500600","新店區"
"231047","187-VK","2018/04/05 19:09:25","新北市新店區德正街27巷29弄68號","121.545806666667","24.9731233333333","6500600","新店區"
"231046","188-VK","2018/04/05 19:09:27","新北市新店區華潭街24號","121.529171666667","24.9529383333333","6500600","新店區"
"231054","KEA-2219","2018/04/05 19:09:14","新北市新店區新店路93號","121.537306666667","24.9536616666667","6500600","新店區"
"231042","268-BY","2018/04/05 19:09:20","新北市新店區中興路一段167號","121.54274","24.9643933333333","6500600","新店區"
"231051","278-BY","2018/04/05 19:09:12","新北市新店區中正路382巷16號","121.535326666667","24.9775383333333","6500600","新店區"
"231058","3713-VJ","2018/04/05 19:09:09","新北市新店區光明街168巷16號","121.540396666667","24.9617183333333","6500600","新店區"
"231066","4716-K9","2018/04/05 19:09:23","新北市新店區安康路三段359巷12弄2號","121.48456","24.9501133333333","6500600","新店區"
"231056","4715-K9","2018/04/05 19:09:22","新北市新店區民權路107-3號","121.536328333333","24.9822216666667","6500600","新店區"
"231067","4772-VM","2018/04/05 19:09:20","新北市新店區安康路一段247巷4弄4號","121.524211666667","24.9625916666667","6500600","新店區"
"231065","512-UM","2018/04/05 19:09:29","新北市新店區安祥路112號","121.474851666667","24.95675","6500600","新店區"
"231049","513-UM","2018/04/05 19:09:23","新北市新店區二十張路25巷18弄19號","121.539321666667","24.9814783333333","6500600","新店區"
"231061","619-UM","2018/04/05 19:09:13","新北市新店區安康路一段202號","121.524313333333","24.963515","6500600","新店區"
"231063","641-BX","2018/04/05 19:09:09","新北市新店區車子路151號","121.504451666667","24.9472233333333","6500600","新店區"
"231064","719-UM","2018/04/05 19:09:23","新北市新店區安忠路86-7號","121.511681666667","24.9582833333333","6500600","新店區"
"231062","720-UM","2018/04/05 19:09:26","新北市新店區安平路35巷4號","121.521226666667","24.967735","6500600","新店區"
"231060","897-TW","2018/04/05 19:09:25","新北市新店區安康路二段214號","121.509865","24.95938","6500600","新店區"
"231045","898-TW","2018/04/05 19:09:13","新北市新店區北宜路一段119號","121.540246666667","24.9541233333333","6500600","新店區"
"231043","899-TW","2018/04/05 19:09:13","新北市新店區寶橋路69-1號","121.545478333333","24.97504","6500600","新店區"
"241026","066-VK","2018/04/05 19:09:27","新北市三重區泉州街74號","121.494708333333","25.0547166666667","6500200","三重區"
"241020","478-VK","2018/04/05 19:09:28","新北市三重區後竹圍街135號","121.487331666667","25.0722866666667","6500200","三重區"
"241029","942-UM","2018/04/05 19:09:22","新北市三重區集美街263號","121.49251","25.0557433333333","6500200","三重區"
"235066","003-UY","2018/04/05 19:09:25","新北市中和區廣福路12-5號","121.505273333333","25.0027666666667","6500300","中和區"
"235064","005-UY","2018/04/05 19:09:20","新北市中和區泰和街2號","121.500091666667","25.001345","6500300","中和區"
"235063","006-UY","2018/04/05 19:09:22","新北市中和區連勝街121巷16號","121.494966666667","24.9944683333333","6500300","中和區"
"235056","096-UM","2018/04/05 19:09:17","新北市中和區員山路506巷2號","121.47926","25.0085183333333","6500300","中和區"
"235065","098-UM","2018/04/05 19:09:20","新北市中和區莊敬路39號","121.500878333333","25.0049833333333","6500300","中和區"
"235040","150-BY","2018/04/05 19:09:16","新北市中和區保健路48巷3號","121.510088333333","24.9968683333333","6500300","中和區"
"235058","151-BY","2018/04/05 19:09:20","新北市中和區員山路143巷32號","121.479863333333","24.9958116666667","6500300","中和區"
"235055","183-VK","2018/04/05 19:09:16","新北市中和區德光路119-1號","121.468036666667","25.0031283333333","6500300","中和區"
"235038","185-VK","2018/04/05 19:09:16","新北市中和區大仁街10巷29號","121.519181666667","24.9925816666667","6500300","中和區"
"235049","186-VK","2018/04/05 19:09:08","新北市中和區明禮街13號","121.504996666667","24.9958383333333","6500300","中和區"
"235067","255-BX","2018/04/05 19:09:17","新北市中和區新生街186巷18號","121.482693333333","24.999785","6500300","中和區"
"235044","293-VK","2018/04/05 19:09:13","新北市中和區復興路329號","121.500738333333","24.9902216666667","6500300","中和區"
"235072","301-VK","2018/04/05 19:09:19","新北市中和區連城路145號","121.495735","24.9987416666667","6500300","中和區"
"235043","352-BY","2018/04/05 19:09:19","新北市中和區景平路132號","121.51891","24.9917983333333","6500300","中和區"
"235068","377-QA","2018/04/05 19:09:29","新北市中和區圓通路162巷35號","121.496528333333","24.9955283333333","6500300","中和區"
"235061","378-QA","2018/04/05 19:09:22","新北市中和區員山路394巷10號","121.481181666667","25.0045933333333","6500300","中和區"
"235050","4979-A6","2018/04/05 19:09:06","新北市中和區復興路249巷11弄3號","121.50358","24.9897066666667","6500300","中和區"
"235069","4980-A6","2018/04/05 19:09:22","新北市中和區中和路165巷21號","121.503123333333","25.0005033333333","6500300","中和區"
"235042","551-UM","2018/04/05 19:09:28","新北市中和區自立路117巷1號","121.522293333333","24.9945383333333","6500300","中和區"
"235070","558-UM","2018/04/05 19:09:20","新北市中和區中和路133號","121.501818333333","24.9999666666667","6500300","中和區"
"235045","565-BX","2018/04/05 19:09:12","新北市中和區景新街467巷35弄7號","121.514378333333","24.9889983333333","6500300","中和區"
"235054","640-BX","2018/04/05 19:09:18","新北市中和區民德路153號","121.468668333333","25.0001583333333","6500300","中和區"
"235047","732-UM","2018/04/05 19:09:18","新北市中和區興南路一段106-1號","121.50938","24.9883866666667","6500300","中和區"
"235046","733-UM","2018/04/05 19:09:15","新北市中和區華新街152號","121.507721666667","24.9823583333333","6500300","中和區"
"235071","783-BX","2018/04/05 19:09:07","新北市中和區連城路469-1號","121.483526666667","24.9958333333333","6500300","中和區"
"235057","801-TS","2018/04/05 19:09:07","新北市中和區民利街87號","121.47819","24.9981316666667","6500300","中和區"
"235041","802-TS","2018/04/05 19:09:14","新北市永和區中和路323號","121.507178333333","24.9996483333333","6500300","中和區"
"235052","805-TS","2018/04/05 19:09:15","新北市中和區興南路二段142巷19弄58號","121.5024","24.983275","6500300","中和區"
"235048","896-TW","2018/04/05 19:09:21","新北市中和區忠孝街3號","121.509495","24.9830266666667","6500300","中和區"
"235053","900-TW","2018/04/05 19:09:13","新北市中和區華福街79號","121.467426666667","24.9964933333333","6500300","中和區"
"235060","911-UM","2018/04/05 19:09:18","新北市中和區民有街92號","121.476238333333","25.003655","6500300","中和區"
"235051","157-BY","2018/04/05 19:09:23","新北市中和區興南路一段106號","121.509856666667","24.9889216666667","6500300","中和區"
"235037","AAC-213","2018/04/05 19:09:23","新北市中和區秀朗路三段60巷7號","121.525853333333","24.9950333333333","6500300","中和區"
"235059","AAC-215","2018/04/05 19:09:16","新北市中和區圓通路294巷9號","121.488608333333","24.9900083333333","6500300","中和區"
"220065","072-UY","2018/04/05 19:09:23","新北市板橋區民族路219巷75號","121.468843333333","25.00902","6500100","板橋區"
"220086","073-UY","2018/04/05 19:09:25","新北市板橋區幸福路61號","121.460696666667","25.01986","6500100","板橋區"
"220067","075-UY","2018/04/05 19:09:21","新北市板橋區中山路二段90巷43弄2號","121.476448333333","25.0149066666667","6500100","板橋區"
"220069","AAD-861","2018/04/05 19:09:26","新北市板橋區四川路一段162號","121.459818333333","25.0032466666667","6500100","板橋區"
"226004","312-R5","2018/04/05 19:09:14","新北市平溪區十分里十分街96-2號","121.776661666667","25.04259","6502400","平溪區"
"235039","251-BX","2018/04/05 19:09:12","新北市中和區大智街57號","121.521111666667","24.9921683333333","6500300","中和區"
"228003","097-TW","2018/04/05 19:09:16","新北市貢寮區和美里和美街40號","121.912518333333","25.0899","6502600","貢寮區"
"228001","212-TW","2018/04/05 19:09:18","新北市貢寮區真理里新港街10號","121.925521666667","25.0543766666667","6502600","貢寮區"
"228002","585-TW","2018/04/05 19:09:18","新北市貢寮區福隆里福隆街28號","121.945108333333","25.0172416666667","6502600","貢寮區"
"224010","AGQ-8101","2018/04/05 19:09:07","新北市瑞芳區基山街75號","121.845048333333","25.10839","6501200","瑞芳區"
"224006","676-BX","2018/04/05 19:09:17","新北市瑞芳區三爪子坑路106巷11號","121.808896666667","25.1045233333333","6501200","瑞芳區"
"224009","273-VK","2018/04/05 19:09:21","新北市瑞芳區長仁路37號","121.865543333333","25.1176733333333","6501200","瑞芳區"
"224008","272-VK","2018/04/05 19:09:25","新北市瑞芳區逢甲路284號","121.80357","25.1115333333333","6501200","瑞芳區"
"224005","271-BY","2018/04/05 19:09:10","新北市瑞芳區瑞濱路55-3號","121.824993333333","25.1209016666667","6501200","瑞芳區"
"227004","642-TC","2018/04/05 19:09:15","新北市雙溪區平林里外平林8-4號","121.859193333333","25.0380866666667","6502500","雙溪區"
"227010","400-TW","2018/04/05 19:09:24","新北市雙溪區牡丹里自強路8巷17號","121.86494","25.0381383333333","6502500","雙溪區"
"253005","032-BX","2018/04/05 19:09:29","新北市石門區小坑14-3號","121.601348333333","25.28675","6502200","石門區"
"253006","295-VK","2018/04/05 19:09:22","新北市石門區下員坑46-6號","121.517356666667","25.2771833333333","6502200","石門區"
"222001","KEA-2212","2018/04/05 19:09:14","新北市深坑區北深路一段300號","121.624188333333","25.005725","6501800","深坑區"
"208002","KEA-2872","2018/04/05 19:09:24","新北市金山區仁愛路67巷4號","121.634555","25.220895","6502700","金山區"
"208003","665-BX","2018/04/05 19:09:16","新北市金山區中正路78號","121.633803333333","25.2218516666667","6502700","金山區"
"208001","761-BX","2018/04/05 19:09:27","新北市金山區金包里街14巷23弄5號","121.640356666667","25.2217783333333","6502700","金山區"
"251013","179-VK","2018/04/05 19:09:10","新北市淡水區安子內12號","121.481578333333","25.2190816666667","6501000","淡水區"
"251014","180-VK","2018/04/05 19:09:11","新北市淡水區北勢子9號","121.482756666667","25.2282583333333","6501000","淡水區"
"251015","182-VK","2018/04/05 19:09:25","新北市淡水區南勢埔22-1號","121.482978333333","25.17894","6501000","淡水區"
"251010","413-VK","2018/04/05 19:09:25","新北市淡水區中正路一段156巷3號","121.421178333333","25.1803333333333","6501000","淡水區"
"251016","442-VK","2018/04/05 19:09:12","新北市淡水區埤島27號","121.446413333333","25.1996216666667","6501000","淡水區"
"251001","559-UM","2018/04/05 19:09:19","新北市淡水區自強路201巷39號","121.462141666667","25.1268533333333","6501000","淡水區"
"251006","561-UM","2018/04/05 19:09:18","新北市淡水區中山北路三段131號","121.444905","25.1954083333333","6501000","淡水區"
"251009","575-R6","2018/04/05 19:09:09","新北市淡水區清水街224號","121.440278333333","25.171575","6501000","淡水區"
"251007","577-R6","2018/04/05 19:09:25","新北市淡水區民生路145巷58號","121.468138333333","25.1388816666667","6501000","淡水區"
"251002","672-BX","2018/04/05 19:09:23","新北市淡水區中山路77號","121.442723333333","25.1703766666667","6501000","淡水區"
"251003","766-UM","2018/04/05 19:09:02","新北市淡水區中山北路一段129號","121.442813333333","25.1768883333333","6501000","淡水區"
"207003","550-UM","2018/04/05 19:09:26","新北市萬里區大鵬里萬里加投21-3號","121.648258333333","25.2110516666667","6502800","萬里區"
"207003","225-TW","2018/04/05 19:09:17","新北市萬里區萬里里瑪鋉下街50號","121.691566666667","25.17944","6502800","萬里區"
"252002","178-VK","2018/04/05 19:09:25","新北市三芝區中正路一段83號","121.504388333333","25.2568083333333","6502100","三芝區"
"252003","249-BX","2018/04/05 19:09:20","新北市三芝區後厝里北勢子12號","121.475081666667","25.25543","6502100","三芝區"
"252001","292-VK","2018/04/05 19:09:27","新北市三芝區長勤街48號","121.50048","25.2554633333333","6502100","三芝區"
"237004","KEA-2597","2018/04/05 19:09:12","新北市三峽區有木153-1號","121.44649","24.8473016666667","6500900","三峽區"
"237007","153-BY","2018/04/05 19:09:23","新北市三峽區中正路二段42巷12-1號","121.364256666667","24.9205883333333","6500900","三峽區"
"237013","252-BX","2018/04/05 19:09:19","新北市三峽區光明路69巷25號","121.37673","24.929225","6500900","三峽區"
"237012","275-BY","2018/04/05 19:09:12","新北市三峽區三樹路222巷91號","121.384796666667","24.9424466666667","6500900","三峽區"
"237008","302-VK","2018/04/05 19:09:19","新北市三峽區大同路176號","121.37257","24.9270183333333","6500900","三峽區"
"237014","433-BY","2018/04/05 19:09:28","新北市三峽區中山路257巷20-1號","121.362075","24.9366233333333","6500900","三峽區"
"237006","5529-G3","2018/04/05 19:09:27","新北市三峽區溪東路233巷1-1號","121.406755","24.9330933333333","6500900","三峽區"
"237010","706-TV","2018/04/05 19:09:24","新北市三峽區民生街33號","121.37561","24.936375","6500900","三峽區"
"237005","AKY-6261","2018/04/05 19:09:14","新北市三峽區中山路459巷163-3號","121.348675","24.9329366666667","6500900","三峽區"
"236070","105-UM","2018/04/05 19:09:18","新北市土城區裕生路84巷16號","121.446636666667","24.9856516666667","6501300","土城區"
"236078","166-UM","2018/04/05 19:09:21","新北市土城區龍泉路14號","121.40978","24.948825","6501300","土城區"
"236026","269-VK","2018/04/05 19:09:13","新北市土城區中正路11巷6號","121.44296","24.9755483333333","6501300","土城區"
"236014","270-VK","2018/04/05 19:09:09","新北市土城區永豐路5號","121.460913333333","24.98942","6501300","土城區"
"236038","271-VK","2018/04/05 19:09:08","新北市土城區清水路143號","121.45837","24.9815716666667","6501300","土城區"
"236021","401-BY","2018/04/05 19:09:26","新北市土城區延峰街17號","121.46887","24.9861216666667","6501300","土城區"
"236059","912-UM","2018/04/05 19:09:24","新北市土城區金城路一段139號","121.445213333333","24.9741133333333","6501300","土城區"
"236049","913-UM","2018/04/05 19:09:28","新北市土城區明德路一段398-1號","121.453648333333","24.979085","6501300","土城區"
"242004","442-UM","2018/04/05 19:04:48","新北市新莊區三和路12-21號","121.441955","25.0386216666667","6500500","新莊區"
"238015","755-BX","2018/04/05 19:09:07","新北市樹林區備內街158巷56號","121.408288333333","24.9899133333333","6500700","樹林區"
"238023","601-UM","2018/04/05 19:08:52","新北市樹林區大慶街45號","121.39651","25.0139533333333","6500700","樹林區"
"238019","599-UM","2018/04/05 19:09:15","新北市樹林區東榮街34號","121.417496666667","24.9833616666667","6500700","樹林區"
"238018","571-TV","2018/04/05 19:09:21","新北市樹林區太元街1號","121.417635","24.9809983333333","6500700","樹林區"
"238024","5061-A6","2018/04/05 19:09:11","新北市樹林區味王街6號","121.402895","24.9762","6500700","樹林區"
"238022","KEA-2213","2018/04/05 19:09:20","新北市樹林區中山路二段151巷8弄6號","121.406401666667","24.97796","6500700","樹林區"
"238021","KEA-2539","2018/04/05 19:09:11","新北市樹林區柑園街二段328巷2弄2號","121.372916666667","24.9519233333333","6500700","樹林區"
"238025","303-VK","2018/04/05 19:09:19","新北市樹林區中山路三段161-1號","121.395333333333","24.97269","6500700","樹林區"
"238017","283-BY","2018/04/05 19:09:18","新北市樹林區光興街376巷2號","121.406321666667","25.00566","6500700","樹林區"
"238014","282-BY","2018/04/05 19:09:18","新北市樹林區千歲街92巷1號","121.426875","24.99768","6500700","樹林區"
"238026","172-UY","2018/04/05 19:09:18","新北市樹林區佳園路二段54號","121.391068333333","24.961045","6500700","樹林區"
"238016","169-UY","2018/04/05 19:09:08","新北市樹林區文化街11號","121.419951666667","24.9872666666667","6500700","樹林區"
"239007","AAC-297","2018/04/05 19:09:11","新北市鶯歌區中正一路221號","121.354098333333","24.9571083333333","6500800","鶯歌區"
"239006","891-R6","2018/04/05 19:09:25","新北市鶯歌區鶯桃路294-1號","121.334951666667","24.960255","6500800","鶯歌區"
"239008","527-UM","2018/04/05 19:09:28","新北市鶯歌區大湖路530巷2-1號","121.337471666667","24.9728483333333","6500800","鶯歌區"
"239005","526-UM","2018/04/05 19:09:20","新北市鶯歌區大湖路532號","121.337161666667","24.9723566666667","6500800","鶯歌區"
"239001","417-VK","2018/04/05 19:09:16","新北市鶯歌區永智街93號","121.336951666667","24.95306","6500800","鶯歌區"
"239003","360-BY","2018/04/05 19:09:26","新北市鶯歌區德昌街23號","121.333353333333","24.9599716666667","6500800","鶯歌區"
"239004","193-VK","2018/04/05 19:09:09","新北市鶯歌區中正三路282巷20號","121.326791666667","24.9368866666667","6500800","鶯歌區"
"221008","489-VK","2018/04/05 19:09:12","新北市汐止區康寧街426號","121.630756666667","25.0680616666667","6501100","汐止區"
"221036","130-UY","2018/04/05 19:09:12","新北市汐止區汐萬路一段256巷3號","121.65239","25.0746433333333","6501100","汐止區"
"221015","131-UY","2018/04/05 19:09:13","新北市汐止區汐萬路一段256巷3號","121.652298333333","25.0746383333333","6501100","汐止區"
"221010","269-BY","2018/04/05 19:09:08","新北市汐止區康寧街901號","121.651415","25.0750333333333","6501100","汐止區"
"221012","278-VK","2018/04/05 19:09:21","新北市汐止區康寧街901號","121.650866666667","25.0752933333333","6501100","汐止區"
"221032","280-BY","2018/04/05 19:09:08","新北市汐止區橫科路407巷81弄5號","121.628933333333","25.0479333333333","6501100","汐止區"
"221027","281-BY","2018/04/05 19:09:09","新北市汐止區康寧街901號","121.651463333333","25.0749616666667","6501100","汐止區"
"221029","298-VK","2018/04/05 19:09:17","新北市汐止區汐萬路一段256巷3號","121.65252","25.0745866666667","6501100","汐止區"
"221021","299-VK","2018/04/05 19:09:23","新北市汐止區康寧街901號","121.651503333333","25.0750033333333","6501100","汐止區"
"221031","353-TW","2018/04/05 19:09:29","新北市汐止區福德三路20號","121.637186666667","25.0694383333333","6501100","汐止區"
"221025","623-UM","2018/04/05 19:09:16","新北市汐止區汐萬路一段256巷3號","121.653288333333","25.0744933333333","6501100","汐止區"
"221038","646-BX","2018/04/05 19:09:24","新北市汐止區康寧街901號","121.651011666667","25.0753666666667","6501100","汐止區"
"221033","647-BX","2018/04/05 19:09:20","新北市汐止區南勢街3號","121.627128333333","25.037335","6501100","汐止區"
"221002","707-TV","2018/04/05 19:09:30","台北市南港區南港路一段18號","121.619273333333","25.0546683333333","6501100","汐止區"
"220079","145-BY","2018/04/05 19:09:23","新北市板橋區民權路302巷1弄1號","121.457366666667","25.016315","6500100","板橋區"
"220080","200-UY","2018/04/05 19:09:18","新北市板橋區大觀路二段7巷64號","121.449246666667","25.0031383333333","6500100","板橋區"
"220106","KEA-2550","2018/04/05 19:09:13","新北市板橋區文化路二段319號","121.472275","25.02988","6500100","板橋區"
"220082","610-BX","2018/04/05 19:09:22","新北市板橋區溪崑二街89號","121.427283333333","24.989495","6500100","板橋區"
"220072","277-BY","2018/04/05 19:09:18","新北市板橋區金門街260巷2號","121.429835","24.9870116666667","6500100","板橋區"
"220101","280-UM","2018/04/05 19:09:13","新北市板橋區民生路二段89-6號","121.470541666667","25.0189016666667","6500100","板橋區"
"220077","282-UM","2018/04/05 19:09:10","新北市板橋區大觀路二段29號","121.446775","25.0031533333333","6500100","板橋區"
"220071","283-VK","2018/04/05 19:09:24","新北市板橋區重慶路353巷7號","121.464845","24.9981216666667","6500100","板橋區"
"220094","285-UM","2018/04/05 19:09:17","新北市板橋區光武街127巷2號","121.465943333333","25.028795","6500100","板橋區"
"220053","285-VK","2018/04/05 19:09:13","新北市板橋區懷仁街35巷5號","121.476868333333","25.019675","6500100","板橋區"
"220083","286-VK","2018/04/05 19:09:24","新北市板橋區龍興街99巷11-2號","121.44378","25.00307","6500100","板橋區"
"220081","287-VK","2018/04/05 19:08:53","新北市板橋區南雅西路二段156巷17號","121.452301666667","25.0131866666667","6500100","板橋區"
"220090","288-VK","2018/04/05 19:09:26","新北市板橋區裕民街48號","121.461666666667","25.0287633333333","6500100","板橋區"
"220061","293-UM","2018/04/05 19:09:24","新北市板橋區三民路二段21巷8號","121.479905","25.0181383333333","6500100","板橋區"
"220097","295-UM","2018/04/05 19:09:20","新北市板橋區漢生西路89巷5弄1號","121.461033333333","25.0195083333333","6500100","板橋區"
"220084","296-UM","2018/04/05 19:09:27","新北市板橋區溪崑二街17號","121.428986666667","24.9915983333333","6500100","板橋區"
"220075","303-R5","2018/04/05 19:09:14","新北市板橋區南雅南路一段5巷8號","121.45604","25.005525","6500100","板橋區"
"220062","305-R5","2018/04/05 19:09:15","新北市板橋區三民路二段居仁巷1弄24號","121.479991666667","25.0135716666667","6500100","板橋區"
"220092","307-R5","2018/04/05 19:09:27","新北市板橋區文化路二段225巷60弄34號","121.469183333333","25.0292333333333","6500100","板橋區"
"220098","317-R6","2018/04/05 19:09:16","新北市板橋區四維路103巷27號","121.464551666667","25.0238866666667","6500100","板橋區"
"220064","486-VK","2018/04/05 19:09:18","新北市板橋區中山路二段18號","121.472293333333","25.014925","6500100","板橋區"
"220088","491-VK","2018/04/05 19:09:11","新北市板橋區文化路二段182巷1弄19號","121.47139","25.0280466666667","6500100","板橋區"
"220035","560-BX","2018/04/05 19:09:20","新北市板橋區中正路377-2號","121.454321666667","25.02148","6500100","板橋區"
"220103","561-BX","2018/04/05 19:09:12","新北市板橋區文化路一段188巷9弄21號","121.468471666667","25.0195","6500100","板橋區"
"220056","568-UM","2018/04/05 19:09:24","新北市板橋區信義路74巷1弄1號","121.457326666667","24.9931633333333","6500100","板橋區"
"220063","609-BX","2018/04/05 19:09:14","新北市板橋區三民路二段222號","121.478778333333","25.0116166666667","6500100","板橋區"
"220055","630-UY","2018/04/05 19:09:23","新北市板橋區新民街7巷16號","121.46368","25.0104533333333","6500100","板橋區"
"220091","637-BX","2018/04/05 19:09:12","新北市板橋區縣民大道247巷33號","121.482025","25.0266483333333","6500100","板橋區"
"220057","686-BX","2018/04/05 19:09:24","新北市板橋區重慶路290號","121.4636","24.99904","6500100","板橋區"
"220093","689-BX","2018/04/05 19:09:25","新北市板橋區民生路三段201號","121.465316666667","25.0278166666667","6500100","板橋區"
"220054","741-BX","2018/04/05 19:09:15","新北市板橋區重慶路69巷1號","121.462131666667","25.0070016666667","6500100","板橋區"
"220102","KEA-2699","2018/04/05 19:09:22","新北市板橋區田單街49巷2號","121.482616666667","25.0282333333333","6500100","板橋區"
"220068","830-TW","2018/04/05 19:09:18","新北市板橋區三民路一段31巷9-2號","121.479691666667","25.0231616666667","6500100","板橋區"
"220096","831-TW","2018/04/05 19:09:13","新北市板橋區雙十路二段33巷20號","121.475908333333","25.0254766666667","6500100","板橋區"
"220089","833-TW","2018/04/05 19:09:24","新北市板橋區文化路二段359號","121.472956666667","25.0308233333333","6500100","板橋區"
"220074","895-R6","2018/04/05 19:09:23","新北市板橋區中正路自強新村36號","121.456335","25.0135583333333","6500100","板橋區"
"220073","985-R7","2018/04/05 19:09:25","新北市板橋區中正路302號","121.454818333333","25.0205916666667","6500100","板橋區"
"220070","AAC-253","2018/04/05 19:09:21","新北市板橋區忠孝路93號","121.462316666667","25.0022116666667","6500100","板橋區"
