"lineid","car","time","location","longitude","latitude","cityid","cityname"
"234046","148-BY","2018/04/05 19:59:39","新北市永和區成功路一段103號","121.52691","25.0025283333333","6500400","永和區"
"234070","149-BY","2018/04/05 19:59:34","新北市永和區國光路39-1號","121.519116666667","25.0081916666667","6500400","永和區"
"234007","207-UY","2018/04/05 19:59:34","新北市永和區保生路22巷19弄2號","121.507091666667","25.0083283333333","6500400","永和區"
"234081","298-R6","2018/04/05 19:59:41","新北市永和區永亨路98號","121.522998333333","25.0047466666667","6500400","永和區"
"234038","336-UY","2018/04/05 19:59:36","新北市永和區成功路二段4號","121.526653333333","25.00109","6500400","永和區"
"234064","337-UY","2018/04/05 19:59:28","新北市永和區中正路412巷20弄15號","121.518815","25.0016666666667","6500400","永和區"
"234086","338-UY","2018/04/05 19:59:36","新北市永和區福和路41-1號","121.52341","25.0080016666667","6500400","永和區"
"234017","745-BX","2018/04/05 19:59:29","新北市永和區文化路69號","121.51393","25.015085","6500400","永和區"
"234030","746-BX","2018/04/05 19:59:32","新北市永和區民生路22巷36號","121.520905","24.9969733333333","6500400","永和區"
"234054","KEA-2590","2018/04/05 19:59:35","新北市永和區博愛街45巷2號","121.519248333333","25.0158366666667","6500400","永和區"
"234013","KEA-2591","2018/04/05 19:59:26","新北市永和區保生路55號","121.50472","25.01062","6500400","永和區"
"234061","AAD-866","2018/04/05 19:59:23","新北市永和區得和路76號","121.516486666667","25.0000433333333","6500400","永和區"
"234042","862-TW","2018/04/05 19:59:28","新北市永和區中和路335巷8號","121.50752","25.00008","6500400","永和區"
"234050","863-TW","2018/04/05 19:59:37","新北市永和區保安路244號","121.506618333333","25.0124783333333","6500400","永和區"
"234026","9371-KE","2018/04/05 19:59:28","新北市永和區水源街21巷14弄1號","121.511556666667","25.0037733333333","6500400","永和區"
"234011","9373-KE","2018/04/05 19:59:37","新北市永和區仁愛路352巷110號","121.500565","25.0082866666667","6500400","永和區"
"249005","172-UM","2018/04/05 19:59:36","新北市八里區楓林路3-1號","121.38276","25.130105","6502300","八里區"
"249001","173-UM","2018/04/05 19:59:26","新北市八里區中華路二段310號","121.403771666667","25.1484","6502300","八里區"
"249004","303-UY","2018/04/05 19:59:31","新北市八里區中山路一段418-2號","121.41107","25.1578066666667","6502300","八里區"
"249002","305-UY","2018/04/05 19:59:34","新北市八里區頂寮二街2號","121.451055","25.1239666666667","6502300","八里區"
"249003","593-UM","2018/04/05 19:59:26","新北市八里區中華路二段558號","121.398686666667","25.1451566666667","6502300","八里區"
"248014","025-BX","2018/04/05 19:59:34","新北市五股區五福路6巷21號","121.435488333333","25.0887016666667","6501500","五股區"
"248008","095-VK","2018/04/05 19:59:33","新北市五股區四維路30巷34弄2號","121.468301666667","25.0714966666667","6501500","五股區"
"248018","225-UY","2018/04/05 19:59:33","新北市五股區凌雲路三段24巷24號","121.435393333333","25.104285","6501500","五股區"
"248012","247-BX","2018/04/05 19:59:37","新北市五股區民義路一段98號","121.435753333333","25.085135","6501500","五股區"
"248004","677-BX","2018/04/05 19:59:25","新北市五股區成泰路一段8巷2-3號","121.43492","25.0669183333333","6501500","五股區"
"248002","678-BX","2018/04/05 19:59:34","新北市五股區成泰路三段487號","121.450761666667","25.0992816666667","6501500","五股區"
"248010","682-TV","2018/04/05 19:59:27","新北市五股區登林路86號","121.4291","25.069515","6501500","五股區"
"234023","9380-KE","2018/04/05 19:59:37","新北市永和區中正路658號","121.51698","25.0086666666667","6500400","永和區"
"234077","969-R7","2018/04/05 19:59:38","新北市永和區民有街9號","121.51623","24.996935","6500400","永和區"
"234074","AAC-211","2018/04/05 19:59:43","新北市永和區豫溪街207巷14號","121.523536666667","25.0099983333333","6500400","永和區"
"234067","AAC-212","2018/04/05 19:59:40","新北市永和區永貞路362號","121.51019","25.00666","6500400","永和區"
"234003","AAC-295","2018/04/05 19:59:26","新北市永和區永和路二段5號","121.51433","25.0102366666667","6500400","永和區"
"243012","AAD-798","2018/04/05 19:59:22","新北市泰山區全興路81號","121.432955","25.0579866666667","6501600","泰山區"
"243011","297-R6","2018/04/05 19:59:30","新北市泰山區明志路三段182巷42號","121.423173333333","25.039555","6501600","泰山區"
"243015","380-SR","2018/04/05 19:59:39","新北市泰山區明志路二段214巷11號","121.426676666667","25.0488283333333","6501600","泰山區"
"243014","421-VK","2018/04/05 19:59:36","新北市泰山區泰林路二段152-1號","121.434066666667","25.0600916666667","6501600","泰山區"
"243010","KEA-2215","2018/04/05 19:59:29","新北市泰山區中華街10巷1號","121.42794","25.05257","6501600","泰山區"
"243009","KEA-2216","2018/04/05 19:59:39","新北市泰山區泰林路二段164巷17號","121.434591666667","25.06086","6501600","泰山區"
"243013","646-TV","2018/04/05 19:59:33","新北市泰山區應化街13號","121.423898333333","25.0435716666667","6501600","泰山區"
"243016","680-BX","2018/04/05 19:58:59","新北市泰山區貴鳳街2號","121.421268333333","25.0312783333333","6501600","泰山區"
"222003","436-BY","2018/04/05 19:59:23","新北市深坑區埔新街14號","121.620748333333","25.0039466666667","6501800","深坑區"
"222002","659-BX","2018/04/05 19:59:41","新北市深坑區北深路二段81巷8弄3號","121.618288333333","25.002985","6501800","深坑區"
"231041","002-UM","2018/04/05 19:59:34","新北市新店區自由街2-1號","121.535661666667","24.9756183333333","6500600","新店區"
"231059","046-UY","2018/04/05 19:59:19","新北市新店區安康路二段147-2號","121.511378333333","24.959855","6500600","新店區"
"231040","047-UY","2018/04/05 19:59:41","新北市新店區中正路98號","121.543393333333","24.97045","6500600","新店區"
"231044","106-UY","2018/04/05 19:59:19","新北市新店區寶元路一段15巷11號","121.54202","24.9870283333333","6500600","新店區"
"231052","108-UY","2018/04/05 19:59:29","新北市新店區新烏路三段206號","121.550893333333","24.901555","6500600","新店區"
"231050","110-UY","2018/04/05 19:59:19","新北市新店區北宜路一段140巷15號","121.54005","24.9542866666667","6500600","新店區"
"231047","187-VK","2018/04/05 19:59:24","新北市新店區寶宏路34號","121.549468333333","24.9757016666667","6500600","新店區"
"231054","KEA-2219","2018/04/05 19:59:34","新北市新店區光明街171號","121.539773333333","24.9626183333333","6500600","新店區"
"231057","256-BX","2018/04/05 19:59:40","新北市新店區花園二路一段11號","121.55553","24.93246","6500600","新店區"
"231042","268-BY","2018/04/05 19:59:20","新北市新店區中興路一段292號","121.545941666667","24.9691683333333","6500600","新店區"
"231051","278-BY","2018/04/05 19:59:32","新北市新店區中央二街1號","121.52925","24.9729616666667","6500600","新店區"
"231066","4716-K9","2018/04/05 19:59:23","新北市新店區柴埕路59號","121.513665","24.9651066666667","6500600","新店區"
"231056","4715-K9","2018/04/05 19:59:22","新北市新店區北新路三段137號","121.541133333333","24.9828916666667","6500600","新店區"
"231065","512-UM","2018/04/05 19:59:37","新北市新店區安祥路106-3號","121.478255","24.9617933333333","6500600","新店區"
"231049","513-UM","2018/04/05 19:59:23","新北市新店區明德路42號","121.541498333333","24.9782316666667","6500600","新店區"
"231061","619-UM","2018/04/05 19:59:33","新北市新店區安民街375號","121.516396666667","24.9762516666667","6500600","新店區"
"231063","641-BX","2018/04/05 19:59:29","新北市新店區車子路11號","121.502998333333","24.9521283333333","6500600","新店區"
"231068","718-UY","2018/04/05 19:59:22","新北市新店區安華路28-1號","121.519433333333","24.9611766666667","6500600","新店區"
"231064","719-UM","2018/04/05 19:59:39","新北市新店區安和路二段73-1號","121.51841","24.9687216666667","6500600","新店區"
"231062","720-UM","2018/04/05 19:59:26","新北市新店區華城路36巷1-3號","121.527515","24.9554733333333","6500600","新店區"
"231060","897-TW","2018/04/05 19:59:25","新北市新店區安康路二段458號","121.494271666667","24.9540883333333","6500600","新店區"
"231045","898-TW","2018/04/05 19:59:33","新北市新店區北宜路二段82-13號","121.554718333333","24.9534033333333","6500600","新店區"
"231043","899-TW","2018/04/05 19:59:33","新北市新店區中正路265巷3號","121.538203333333","24.973725","6500600","新店區"
"231055","AKT-0513","2018/04/05 19:59:20","新北市新店區中華路83巷67號","121.538363333333","24.9672816666667","6500600","新店區"
"241011","013-R5","2018/04/05 19:59:23","新北市三重區三和路二段119號","121.49895","25.0690683333333","6500200","三重區"
"241028","022-UY","2018/04/05 19:59:22","新北市三重區中正南路5號","121.493493333333","25.060195","6500200","三重區"
"241008","059-VK","2018/04/05 19:59:39","新北市三重區永福街179巷26號","121.47816","25.0748616666667","6500200","三重區"
"241009","060-VK","2018/04/05 19:59:38","新北市三重區三和路四段388-2號","121.482035","25.0790283333333","6500200","三重區"
"241031","061-VK","2018/04/05 19:59:20","新北市三重區重新路四段144巷24號","121.487188333333","25.0552866666667","6500200","三重區"
"241015","062-VK","2018/04/05 19:59:29","新北市三重區三和路二段29號","121.500976666667","25.06705","6500200","三重區"
"241017","063-VK","2018/04/05 19:59:32","新北市三重區自強路一段193號","121.491855","25.0681233333333","6500200","三重區"
"241024","065-VK","2018/04/05 19:59:33","新北市三重區力行路一段178巷11號","121.481528333333","25.07144","6500200","三重區"
"241026","066-VK","2018/04/05 19:59:27","新北市三重區中央南路9號","121.501233333333","25.0628133333333","6500200","三重區"
"241005","262-UM","2018/04/05 19:59:22","新北市三重區溪尾街325巷40弄1號","121.488723333333","25.08327","6500200","三重區"
"241016","265-UM","2018/04/05 19:59:28","新北市三重區正義北路36巷12號","121.49663","25.0633633333333","6500200","三重區"
"241022","267-UM","2018/04/05 19:59:41","新北市三重區過圳街31巷2號","121.488955","25.0605916666667","6500200","三重區"
"241018","268-UM","2018/04/05 19:59:25","新北市三重區自強路一段167號","121.493018333333","25.06729","6500200","三重區"
"241032","269-UM","2018/04/05 19:59:34","新北市三重區朝陽街57巷9號","121.483663333333","25.0574916666667","6500200","三重區"
"241013","270-UM","2018/04/05 19:59:41","新北市三重區三和路三段125巷33號","121.493883333333","25.0736283333333","6500200","三重區"
"241025","271-UM","2018/04/05 19:59:37","新北市三重區頂崁街210巷16號","121.47655","25.0677383333333","6500200","三重區"
"241007","398-BY","2018/04/05 19:59:41","新北市三重區溪尾街138號","121.489261666667","25.079635","6500200","三重區"
"241035","462-BY","2018/04/05 19:59:28","新北市三重區大榮街13號","121.498293333333","25.0630933333333","6500200","三重區"
"241020","478-VK","2018/04/05 19:59:28","新北市三重區忠孝路一段101號","121.489521666667","25.0721466666667","6500200","三重區"
"241030","480-VK","2018/04/05 19:59:31","新北市三重區重新路四段244巷9號","121.486341666667","25.05339","6500200","三重區"
"241014","543-UM","2018/04/05 19:59:39","新北市三重區三和路二段156號","121.499406666667","25.0684683333333","6500200","三重區"
"241023","545-UM","2018/04/05 19:59:28","新北市三重區頂崁街172號","121.477601666667","25.0659233333333","6500200","三重區"
"241001","547-UM","2018/04/05 19:59:37","新北市三重區仁愛街283巷38號","121.494406666667","25.0799966666667","6500200","三重區"
"241019","KEA-2593","2018/04/05 19:59:31","新北市三重區大智街117號","121.491318333333","25.070095","6500200","三重區"
"241006","AAD-863","2018/04/05 19:59:06","新北市三重區力行路二段90號","121.481906666667","25.0745","6500200","三重區"
"241004","887-TS","2018/04/05 19:59:36","新北市三重區五華街74號","121.493231666667","25.082035","6500200","三重區"
"241012","941-UM","2018/04/05 19:59:27","新北市三重區仁厚街1-1號","121.499116666667","25.0760233333333","6500200","三重區"
"241029","942-UM","2018/04/05 19:59:22","新北市三重區重安街1號","121.489935","25.0583216666667","6500200","三重區"
"241033","AAC-255","2018/04/05 19:59:36","新北市三重區中興北街14號","121.469401666667","25.0472233333333","6500200","三重區"
"235066","003-UY","2018/04/05 19:59:25","新北市中和區光華街31巷1號","121.504998333333","25.0041333333333","6500300","中和區"
"235056","096-UM","2018/04/05 19:59:38","新北市中和區中山路三段170巷6弄23號","121.473215","25.00749","6500300","中和區"
"235065","098-UM","2018/04/05 19:59:23","新北市中和區永和路39巷2號","121.49801","25.0049883333333","6500300","中和區"
"235040","150-BY","2018/04/05 19:59:36","新北市中和區保健路2巷5號","121.507636666667","24.9979016666667","6500300","中和區"
"235058","151-BY","2018/04/05 19:59:40","新北市中和區員山路150巷2弄33號","121.481691666667","24.9976283333333","6500300","中和區"
"235049","186-VK","2018/04/05 19:59:28","新北市中和區南華路15號","121.502401666667","24.9956433333333","6500300","中和區"
"235067","255-BX","2018/04/05 19:56:37","新北市中和區中正路751巷3弄13號","121.484666666667","24.99914","6500300","中和區"
"235044","293-VK","2018/04/05 19:59:33","新北市中和區復興路56號","121.5039","24.990395","6500300","中和區"
"235043","352-BY","2018/04/05 19:59:39","新北市中和區興南路二段159巷7號","121.505325","24.9831333333333","6500300","中和區"
"235068","377-QA","2018/04/05 19:59:29","新北市中和區中山路二段250巷22號","121.497413333333","25.00327","6500300","中和區"
"235050","4979-A6","2018/04/05 19:59:26","新北市中和區景平路155巷24號","121.513535","24.991615","6500300","中和區"
"235069","4980-A6","2018/04/05 19:59:41","新北市中和區景平路493-5號","121.500121666667","24.9978983333333","6500300","中和區"
"235070","558-UM","2018/04/05 19:59:20","新北市中和區圓通路183號","121.497466666667","24.9947516666667","6500300","中和區"
"235046","733-UM","2018/04/05 19:59:35","新北市中和區興南路一段93巷73號","121.510465","24.9866316666667","6500300","中和區"
"235041","802-TS","2018/04/05 19:59:34","新北市中和區安平路16號","121.509266666667","24.9941433333333","6500300","中和區"
"235052","805-TS","2018/04/05 19:59:35","新北市中和區華新街30巷18號","121.506673333333","24.9840616666667","6500300","中和區"
"235048","896-TW","2018/04/05 19:59:41","新北市中和區景新街422號","121.513013333333","24.98895","6500300","中和區"
"235053","900-TW","2018/04/05 19:59:33","新北市中和區民德路274號","121.468118333333","24.9963916666667","6500300","中和區"
"235051","157-BY","2018/04/05 19:59:35","新北市中和區景安路245號","121.504208333333","24.9906533333333","6500300","中和區"
"235037","AAC-213","2018/04/05 19:59:23","新北市中和區自立路135號","121.522043333333","24.993825","6500300","中和區"
"235059","AAC-215","2018/04/05 19:59:38","新北市中和區圓通路367巷13弄27號","121.492971666667","24.9885283333333","6500300","中和區"
"220065","072-UY","2018/04/05 19:59:37","新北市板橋區忠孝路112號","121.462426666667","25.0021183333333","6500100","板橋區"
"220086","073-UY","2018/04/05 19:59:25","新北市板橋區南雅西路二段2-1號","121.453171666667","25.0087966666667","6500100","板橋區"
"220067","075-UY","2018/04/05 19:59:22","新北市板橋區漢生東路193巷66號","121.473131666667","25.0120083333333","6500100","板橋區"
"220069","AAD-861","2018/04/05 19:59:26","新北市板橋區大明街25巷2弄23號","121.457538333333","25.002545","6500100","板橋區"
"247024","893-R6","2018/04/05 19:59:36","新北市蘆洲區光榮路120巷8弄20號","121.464313333333","25.0877216666667","6501400","蘆洲區"
"247014","546-UM","2018/04/05 19:59:37","新北市蘆洲區成功路129號","121.472228333333","25.0822166666667","6501400","蘆洲區"
"247010","341-TH","2018/04/05 19:59:21","新北市三重區集賢路188號","121.483993333333","25.0880866666667","6501400","蘆洲區"
"247012","339-TH","2018/04/05 19:59:31","新北市蘆洲區民族路151號","121.479405","25.087915","6501400","蘆洲區"
"247004","337-TH","2018/04/05 19:59:32","新北市蘆洲區長安街303號","121.45803","25.0849783333333","6501400","蘆洲區"
"247006","336-TH","2018/04/05 19:59:35","新北市蘆洲區九芎街86號","121.465941666667","25.0797333333333","6501400","蘆洲區"
"247018","057-VK","2018/04/05 19:59:29","新北市蘆洲區民族路278號","121.478325","25.0894933333333","6501400","蘆洲區"
"247008","056-VK","2018/04/05 19:59:22","新北市蘆洲區中山一路61巷34號","121.477398333333","25.0808433333333","6501400","蘆洲區"
"247016","007-UY","2018/04/05 19:59:25","新北市蘆洲區光華路1號","121.46989","25.0835233333333","6501400","蘆洲區"
"247002","002-UY","2018/04/05 19:59:37","新北市蘆洲區永樂街31巷7-1號","121.458116666667","25.0872566666667","6501400","蘆洲區"
"247020","001-UY","2018/04/05 19:59:30","新北市蘆洲區民義街66號","121.472931666667","25.0897716666667","6501400","蘆洲區"
"226004","312-R5","2018/04/05 19:59:34","新北市平溪區嶺腳里中華街7-1號","121.74243","25.0254766666667","6502400","平溪區"
"235039","251-BX","2018/04/05 19:59:34","新北市中和區大勇街25巷29弄1號","121.515176666667","24.9937916666667","6500300","中和區"
"228003","097-TW","2018/04/05 19:59:35","新北市貢寮區仁理村仁和路268號","121.92426","25.0545366666667","6502600","貢寮區"
"224010","AGQ-8101","2018/04/05 19:59:37","新北市瑞芳區汽車路61號","121.844326666667","25.1093366666667","6501200","瑞芳區"
"224002","639-TC","2018/04/05 19:59:27","新北市瑞芳區三爪子坑路325號","121.81835","25.1045583333333","6501200","瑞芳區"
"227004","642-TC","2018/04/05 19:59:35","新北市雙溪區雙溪里長安街16號","121.864985","25.034755","6502500","雙溪區"
"227010","400-TW","2018/04/05 19:59:24","新北市雙溪區新基里新基南街25號","121.866246666667","25.038135","6502500","雙溪區"
"222001","KEA-2212","2018/04/05 19:59:34","新北市深坑區北深路三段165-1號","121.602188333333","25.0033066666667","6501800","深坑區"
"208002","KEA-2872","2018/04/05 19:59:24","新北市金山區中華路366-2號","121.633285","25.2245133333333","6502700","金山區"
"208003","665-BX","2018/04/05 19:59:36","新北市金山區海興路172-2號","121.632626666667","25.23976","6502700","金山區"
"208001","761-BX","2018/04/05 19:59:35","新北市金山區重和里六股林口32號","121.602911666667","25.21902","6502700","金山區"
"251004","009-UM","2018/04/05 19:59:11","新北市淡水區民權路177巷7號","121.460915","25.13556","6501000","淡水區"
"251013","179-VK","2018/04/05 19:59:30","新北市淡水區奎柔山路63號","121.451708333333","25.20616","6501000","淡水區"
"251014","180-VK","2018/04/05 19:59:30","新北市淡水區石頭厝12-1號","121.460825","25.2360733333333","6501000","淡水區"
"251015","182-VK","2018/04/05 19:59:25","新北市淡水區商工路307號","121.453916666667","25.18666","6501000","淡水區"
"251010","413-VK","2018/04/05 19:59:24","新北市淡水區崁頂111-1號","121.433106666667","25.204325","6501000","淡水區"
"251012","441-VK","2018/04/05 19:59:20","新北市淡水區下圭柔山109-1號","121.444115","25.211025","6501000","淡水區"
"251016","442-VK","2018/04/05 19:59:32","新北市淡水區淡金路四段496號","121.452066666667","25.2253533333333","6501000","淡水區"
"251005","443-VK","2018/04/05 19:59:25","新北市淡水區學府路136巷13號","121.451083333333","25.1728916666667","6501000","淡水區"
"251001","559-UM","2018/04/05 19:59:39","新北市淡水區淡金路二段38號","121.451355","25.1818483333333","6501000","淡水區"
"251006","561-UM","2018/04/05 19:59:38","新北市淡水區北新路12號","121.44458","25.1774433333333","6501000","淡水區"
"251009","575-R6","2018/04/05 19:59:29","新北市淡水區英專路28巷2弄5號","121.445903333333","25.1695933333333","6501000","淡水區"
"251011","650-BX","2018/04/05 19:59:35","新北市淡水區崁頂51-2號","121.442041666667","25.1974116666667","6501000","淡水區"
"251002","672-BX","2018/04/05 19:59:23","新北市淡水區沙崙路129號","121.422571666667","25.1823816666667","6501000","淡水區"
"207003","550-UM","2018/04/05 19:59:26","新北市萬里區大鵬里萬里加投40-2號","121.638155","25.2072033333333","6502800","萬里區"
"207003","225-TW","2018/04/05 19:59:37","新北市萬里區北基里忠一街1號","121.686791666667","25.17622","6502800","萬里區"
"252002","178-VK","2018/04/05 19:59:25","新北市三芝區忠孝街116-3號","121.505606666667","25.2575083333333","6502100","三芝區"
"252001","292-VK","2018/04/05 19:59:27","新北市三芝區公正街66號","121.499811666667","25.2574883333333","6502100","三芝區"
"237004","KEA-2597","2018/04/05 19:59:32","新北市三峽區添福29-2號","121.373028333333","24.9036683333333","6500900","三峽區"
"237007","153-BY","2018/04/05 19:59:23","新北市三峽區麻園9-10號","121.362573333333","24.9179716666667","6500900","三峽區"
"237009","210-TH","2018/04/05 19:59:26","新北市三峽區民族街78巷20號","121.368075","24.9296266666667","6500900","三峽區"
"237013","252-BX","2018/04/05 19:59:38","新北市三峽區介壽路二段165號","121.394156666667","24.935965","6500900","三峽區"
"237012","275-BY","2018/04/05 19:59:31","新北市三峽區中華路96-2號","121.371086666667","24.9281466666667","6500900","三峽區"
"237008","302-VK","2018/04/05 19:59:39","新北市三峽區大同路203號","121.370823333333","24.927035","6500900","三峽區"
"237014","433-BY","2018/04/05 19:59:28","新北市三峽區中正路一段109號","121.374165","24.929415","6500900","三峽區"
"237006","5529-G3","2018/04/05 19:59:27","新北市三峽區正義街27巷26-1號","121.3702","24.9185133333333","6500900","三峽區"
"237005","AKY-6261","2018/04/05 19:59:34","新北市三峽區民生街1巷20號","121.379561666667","24.9348133333333","6500900","三峽區"
"236070","105-UM","2018/04/05 19:59:18","新北市土城區忠義路92號","121.444331666667","24.962315","6501300","土城區"
"236042","107-UM","2018/04/05 19:59:27","新北市土城區學府路一段98巷15號","121.45569","24.988645","6501300","土城區"
"236078","166-UM","2018/04/05 19:59:21","新北市土城區中州路30巷5號","121.41349","24.95894","6501300","土城區"
"236030","253-BX","2018/04/05 19:59:24","新北市土城區中央路一段252-1號","121.444295","24.9845966666667","6501300","土城區"
"236026","269-VK","2018/04/05 19:59:33","新北市土城區中央路二段81號","121.442391666667","24.9783416666667","6501300","土城區"
"236014","270-VK","2018/04/05 19:59:29","新北市土城區廣福街123號","121.456216666667","24.9929183333333","6501300","土城區"
"236038","271-VK","2018/04/05 19:59:28","新北市土城區國際路62號","121.466565","24.97749","6501300","土城區"
"236021","401-BY","2018/04/05 19:59:38","新北市土城區延吉街111巷12弄15-3號","121.471653333333","24.9849933333333","6501300","土城區"
"236059","912-UM","2018/04/05 19:59:24","新北市土城區中央路一段281號","121.444625","24.9846183333333","6501300","土城區"
"236049","913-UM","2018/04/05 19:59:28","新北市土城區金城路三段167號","121.469128333333","24.9885883333333","6501300","土城區"
"236063","915-UM","2018/04/05 19:59:31","新北市土城區延和路62巷8弄2號","121.466136666667","24.9884933333333","6501300","土城區"
"236055","AAC-216","2018/04/05 19:59:27","新北市土城區學府路一段39號","121.457856666667","24.9883216666667","6501300","土城區"
"242034","AAC-296","2018/04/05 19:59:24","新北市新莊區建中街109號","121.446215","25.036505","6500500","新莊區"
"242053","751-BX","2018/04/05 19:59:29","新北市新莊區西盛街421號","121.42727","25.012215","6500500","新莊區"
"242029","705-TV","2018/04/05 19:59:38","新北市新莊區中榮街152巷18號","121.446005","25.0533783333333","6500500","新莊區"
"242025","613-BX","2018/04/05 19:59:25","新北市新莊區五工一路86號","121.461373333333","25.0674416666667","6500500","新莊區"
"242046","497-BY","2018/04/05 19:59:23","新北市新莊區裕民街19巷4號","121.419671666667","25.0251833333333","6500500","新莊區"
"242004","442-UM","2018/04/05 19:59:28","新北市新莊區頭前路92號","121.463955","25.0524966666667","6500500","新莊區"
"242056","440-UM","2018/04/05 19:59:41","新北市新莊區中正路347巷17弄4號","121.447348333333","25.0342583333333","6500500","新莊區"
"242036","415-TV","2018/04/05 19:59:28","新北市新莊區建安街41巷5號","121.429193333333","25.0251383333333","6500500","新莊區"
"242007","413-TV","2018/04/05 19:59:35","新北市新莊區富貴路53號","121.458066666667","25.0573383333333","6500500","新莊區"
"242044","400-BY","2018/04/05 19:59:32","新北市新莊區中正路746巷58-1號","121.412263333333","25.023975","6500500","新莊區"
"242023","362-BY","2018/04/05 19:59:30","新北市新莊區化成路424號","121.465993333333","25.0511033333333","6500500","新莊區"
"242061","353-BY","2018/04/05 19:59:20","新北市新莊區瓊林路66號","121.445251666667","25.028635","6500500","新莊區"
"242039","133-UY","2018/04/05 19:59:30","新北市新莊區民安路289-1號","121.4292","25.0224733333333","6500500","新莊區"
"242031","135-UY","2018/04/05 19:59:42","新北市新莊區忠孝街29巷20號","121.443628333333","25.0363683333333","6500500","新莊區"
"242048","172-VK","2018/04/05 19:59:27","新北市新莊區富國路109巷2號","121.423768333333","25.0251066666667","6500500","新莊區"
"242011","173-VK","2018/04/05 19:59:17","新北市新莊區中港路531巷10號","121.450776666667","25.0515316666667","6500500","新莊區"
"242017","175-VK","2018/04/05 19:59:33","新北市新莊區中安街27號","121.452731666667","25.0463266666667","6500500","新莊區"
"242015","346-TH","2018/04/05 19:59:40","新北市新莊區復興路一段33巷5號","121.446226666667","25.0422933333333","6500500","新莊區"
"242021","348-TH","2018/04/05 19:59:28","新北市新莊區建中街32巷20號","121.448705","25.038385","6500500","新莊區"
"242002","349-TH","2018/04/05 19:59:32","新北市新莊區中正路217號","121.451036666667","25.035805","6500500","新莊區"
"242019","350-TH","2018/04/05 19:59:20","新北市新莊區民樂街47號","121.457541666667","25.041755","6500500","新莊區"
"242013","351-TH","2018/04/05 19:59:31","新北市新莊區幸福路670巷2弄1號","121.450995","25.0494883333333","6500500","新莊區"
"238015","755-BX","2018/04/05 19:59:07","新北市樹林區中山路三段210-2號","121.380828333333","24.966875","6500700","樹林區"
"238021","KEA-2539","2018/04/05 19:59:31","新北市樹林區佳園路三段181巷97號","121.3918","24.9484216666667","6500700","樹林區"
"238025","303-VK","2018/04/05 19:59:34","新北市樹林區八德街1016號","121.39128","24.9685783333333","6500700","樹林區"
"239006","891-R6","2018/04/05 19:59:25","新北市鶯歌區文化路62號","121.356256666667","24.9545783333333","6500800","鶯歌區"
"221008","489-VK","2018/04/05 19:59:32","新北市汐止區忠一街9巷7號","121.620505","25.0732016666667","6501100","汐止區"
"221036","130-UY","2018/04/05 19:59:32","新北市汐止區忠孝東路258巷11弄8號","121.663768333333","25.0672083333333","6501100","汐止區"
"221015","131-UY","2018/04/05 19:59:33","新北市汐止區建成路13號","121.664533333333","25.0725416666667","6501100","汐止區"
"221010","269-BY","2018/04/05 19:59:28","新北市汐止區八連路一段111-1號","121.644223333333","25.0800933333333","6501100","汐止區"
"221012","278-VK","2018/04/05 19:59:41","新北市汐止區大同路三段457號","121.67899","25.071255","6501100","汐止區"
"221032","280-BY","2018/04/05 19:59:28","新北市汐止區南興路9號","121.652011666667","25.0625816666667","6501100","汐止區"
"221027","281-BY","2018/04/05 19:59:29","新北市汐止區信義路19號","121.661585","25.0694733333333","6501100","汐止區"
"221029","298-VK","2018/04/05 19:59:37","新北市汐止區樟樹一路137巷26號","121.641005","25.06602","6501100","汐止區"
"221021","299-VK","2018/04/05 19:59:23","新北市汐止區水源路一段143號","121.655981666667","25.0622566666667","6501100","汐止區"
"221031","353-TW","2018/04/05 19:59:29","新北市汐止區福德一路215號","121.6347","25.0653566666667","6501100","汐止區"
"221035","622-UM","2018/04/05 19:59:25","新北市汐止區長江街39巷1號","121.655511666667","25.0714566666667","6501100","汐止區"
"221025","623-UM","2018/04/05 19:59:36","新北市汐止區秀峰路109巷26弄5號","121.661153333333","25.0635483333333","6501100","汐止區"
"221038","646-BX","2018/04/05 19:59:24","新北市汐止區忠孝東路495號","121.666405","25.0744766666667","6501100","汐止區"
"221033","647-BX","2018/04/05 19:59:20","新北市汐止區東勢街201巷104號","121.633428333333","25.0429783333333","6501100","汐止區"
"221018","753-BX","2018/04/05 19:59:30","新北市汐止區忠孝東路397號","121.665763333333","25.0708083333333","6501100","汐止區"
"220079","145-BY","2018/04/05 19:59:31","新北市板橋區南雅西路二段217號","121.451045","25.0138283333333","6500100","板橋區"
"220080","200-UY","2018/04/05 19:59:38","新北市板橋區大觀路二段79巷2弄15號","121.447373333333","25.0016716666667","6500100","板橋區"
"220106","KEA-2550","2018/04/05 19:59:33","新北市板橋區民治街52巷20號","121.478821666667","25.032825","6500100","板橋區"
"220072","277-BY","2018/04/05 19:59:38","新北市板橋區金門街96-2號","121.433128333333","24.9924466666667","6500100","板橋區"
"220101","280-UM","2018/04/05 19:59:33","新北市板橋區莒光路213號","121.474231666667","25.0229566666667","6500100","板橋區"
"220071","283-VK","2018/04/05 19:59:24","新北市板橋區和平路174巷1弄7號","121.464358333333","24.9953833333333","6500100","板橋區"
"220094","285-UM","2018/04/05 19:59:37","新北市板橋區雨農路27巷6號","121.461453333333","25.0238166666667","6500100","板橋區"
"220053","285-VK","2018/04/05 19:59:33","新北市板橋區永豐街96-2號","121.475766666667","25.0204233333333","6500100","板橋區"
"220083","286-VK","2018/04/05 19:59:24","新北市板橋區僑中二街8巷8號","121.446821666667","25.011305","6500100","板橋區"
"220081","287-VK","2018/04/05 19:59:33","新北市板橋區僑中一街80巷10弄2號","121.447936666667","25.0128083333333","6500100","板橋區"
"220090","288-VK","2018/04/05 19:59:28","新北市板橋區幸福路32巷2弄22號","121.461083333333","25.0216483333333","6500100","板橋區"
"220061","293-UM","2018/04/05 19:59:24","新北市板橋區觀光街79巷2號","121.469353333333","25.0169383333333","6500100","板橋區"
"220097","295-UM","2018/04/05 19:59:40","新北市板橋區光正街16巷11號","121.463121666667","25.0175766666667","6500100","板橋區"
"220075","303-R5","2018/04/05 19:59:34","新北市板橋區金華街10巷84號","121.457948333333","25.0203216666667","6500100","板橋區"
"220062","305-R5","2018/04/05 19:59:35","新北市板橋區萬安街20巷10弄16號","121.484985","25.023525","6500100","板橋區"
"220092","307-R5","2018/04/05 19:59:26","新北市板橋區新海路135巷39號","121.459521666667","25.02262","6500100","板橋區"
"220098","317-R6","2018/04/05 19:59:37","新北市板橋區漢生西路159號","121.462966666667","25.0235133333333","6500100","板橋區"
"220064","486-VK","2018/04/05 19:59:38","新北市板橋區長安街331巷18-2號","121.474051666667","25.0124783333333","6500100","板橋區"
"220088","491-VK","2018/04/05 19:59:31","新北市板橋區大同街69號","121.4794","25.0279816666667","6500100","板橋區"
"220035","560-BX","2018/04/05 19:59:40","新北市板橋區新生街49號","121.457165","25.0210416666667","6500100","板橋區"
"220103","561-BX","2018/04/05 19:59:32","新北市板橋區陽明街27巷2號","121.465446666667","25.021885","6500100","板橋區"
"220055","630-UY","2018/04/05 19:59:36","新北市板橋區仁愛路76巷1弄2號","121.460598333333","24.9994166666667","6500100","板橋區"
"220091","637-BX","2018/04/05 19:59:28","新北市板橋區民治街119巷7號","121.47855","25.0306533333333","6500100","板橋區"
"220093","689-BX","2018/04/05 19:59:28","新北市板橋區長江路三段122號","121.47531","25.034395","6500100","板橋區"
"220054","741-BX","2018/04/05 19:59:42","新北市板橋區忠孝路忠義巷1號","121.465258333333","25.0035233333333","6500100","板橋區"
"220102","KEA-2699","2018/04/05 19:59:22","新北市板橋區仁化街56號","121.475696666667","25.0315816666667","6500100","板橋區"
"220068","830-TW","2018/04/05 19:59:39","新北市板橋區光復街153號","121.485643333333","25.0201716666667","6500100","板橋區"
"220096","831-TW","2018/04/05 19:59:33","新北市板橋區莒光路64號","121.47104","25.0240666666667","6500100","板橋區"
"220089","833-TW","2018/04/05 19:59:23","新北市板橋區龍泉街56-1號","121.457083333333","25.0259783333333","6500100","板橋區"
"220074","895-R6","2018/04/05 19:59:21","新北市板橋區民權路69號","121.461526666667","25.0115483333333","6500100","板橋區"
"220073","985-R7","2018/04/05 19:59:39","新北市板橋區南雅西路二段90號","121.452485","25.0111783333333","6500100","板橋區"
"220070","AAC-253","2018/04/05 19:59:28","新北市板橋區成都街12號","121.460453333333","25.00474","6500100","板橋區"
