"lineid","car","time","location","longitude","latitude","cityid","cityname"
"234070","149-BY","2018/04/05 20:19:34","新北市永和區福和路261號","121.517893333333","25.007295","6500400","永和區"
"234007","207-UY","2018/04/05 20:19:34","新北市永和區環河西路二段219號","121.501323333333","25.0103383333333","6500400","永和區"
"234081","298-R6","2018/04/05 20:19:41","新北市永和區國中路128號","121.523656666667","25.0069766666667","6500400","永和區"
"234038","336-UY","2018/04/05 20:19:36","新北市永和區成功路一段1號","121.527235","25.0054483333333","6500400","永和區"
"234064","337-UY","2018/04/05 20:19:28","新北市永和區得和路108號","121.518211666667","25.0000583333333","6500400","永和區"
"234086","338-UY","2018/04/05 20:19:36","新北市永和區永和路二段181號","121.515423333333","25.0133983333333","6500400","永和區"
"234017","745-BX","2018/04/05 20:19:30","新北市永和區仁愛路91號","121.51299","25.0130616666667","6500400","永和區"
"234030","746-BX","2018/04/05 20:19:32","新北市永和區民有街75巷10弄33號","121.519235","24.99602","6500400","永和區"
"234054","KEA-2590","2018/04/05 20:19:42","新北市永和區光復街31-1號","121.516671666667","25.01795","6500400","永和區"
"234013","KEA-2591","2018/04/05 20:19:26","新北市永和區仁愛路264號","121.504441666667","25.0086033333333","6500400","永和區"
"234061","AAD-866","2018/04/05 20:19:23","新北市永和區得和路29號","121.515896666667","25.000245","6500400","永和區"
"234042","862-TW","2018/04/05 20:19:41","新北市永和區雙和街1號","121.509833333333","25.0016216666667","6500400","永和區"
"234050","863-TW","2018/04/05 20:19:37","新北市永和區文化路230號","121.509763333333","25.0169316666667","6500400","永和區"
"234026","9371-KE","2018/04/05 20:19:32","新北市永和區保生路55-1號","121.504555","25.010895","6500400","永和區"
"249005","172-UM","2018/04/05 20:19:36","新北市八里區下罟子6-1號","121.386521666667","25.1413416666667","6502300","八里區"
"249001","173-UM","2018/04/05 20:19:26","新北市八里區中華路二段538號","121.399075","25.14503","6502300","八里區"
"249004","303-UY","2018/04/05 20:19:31","新北市八里區中山路一段129巷19-1號","121.414008333333","25.158655","6502300","八里區"
"249002","305-UY","2018/04/05 20:19:34","新北市八里區龍米路一段265號","121.449658333333","25.1374766666667","6502300","八里區"
"249003","593-UM","2018/04/05 20:19:26","新北市八里區訊塘路23號","121.397663333333","25.14526","6502300","八里區"
"248012","247-BX","2018/04/05 20:19:37","新北市五股區民義路一段212號","121.430595","25.0893716666667","6501500","五股區"
"248002","678-BX","2018/04/05 20:19:34","新北市五股區成泰路三段150號","121.444585","25.0907883333333","6501500","五股區"
"248010","682-TV","2018/04/05 20:19:28","新北市五股區新五路二段2巷6號","121.438421666667","25.0665733333333","6501500","五股區"
"234023","9380-KE","2018/04/05 20:19:43","新北市永和區復興街2巷4號","121.515773333333","25.0126816666667","6500400","永和區"
"234077","969-R7","2018/04/05 20:19:38","新北市中和區景新街407號","121.5127","24.98955","6500400","永和區"
"234074","AAC-211","2018/04/05 20:19:43","新北市永和區竹林路201巷24弄8號","121.522455","25.0095266666667","6500400","永和區"
"234067","AAC-212","2018/04/05 20:19:40","新北市永和區保平路268巷2號","121.508345","25.0055383333333","6500400","永和區"
"234003","AAC-295","2018/04/05 20:19:41","新北市永和區福和路366號","121.51453","25.0077866666667","6500400","永和區"
"243012","AAD-798","2018/04/05 20:19:39","新北市泰山區楓江路169號","121.440378333333","25.0664416666667","6501600","泰山區"
"243011","297-R6","2018/04/05 20:19:22","新北市泰山區貴陽街16巷5弄10號","121.422575","25.032005","6501600","泰山區"
"243015","380-SR","2018/04/05 20:19:39","新北市泰山區泰林路二段130號","121.434443333333","25.059535","6501600","泰山區"
"243014","421-VK","2018/04/05 20:19:36","新北市泰山區泰林路二段353號","121.428268333333","25.0638266666667","6501600","泰山區"
"243010","KEA-2215","2018/04/05 20:19:34","新北市泰山區明志路二段246巷9號","121.426436666667","25.04768","6501600","泰山區"
"243009","KEA-2216","2018/04/05 20:19:39","新北市泰山區泰林路二段306巷12號","121.431296666667","25.063565","6501600","泰山區"
"243013","646-TV","2018/04/05 20:19:46","新北市泰山區中央路1巷9號","121.427315","25.0439733333333","6501600","泰山區"
"243016","680-BX","2018/04/05 20:19:39","新北市泰山區明志路三段112號","121.424948333333","25.0406933333333","6501600","泰山區"
"222003","436-BY","2018/04/05 20:19:43","新北市深坑區文化街43號","121.617593333333","25.0019016666667","6501800","深坑區"
"222002","659-BX","2018/04/05 20:19:41","新北市深坑區萬福路47號","121.599705","25.0067016666667","6501800","深坑區"
"231041","002-UM","2018/04/05 20:19:34","新北市新店區民權路44-1號","121.54031","24.98302","6500600","新店區"
"231059","046-UY","2018/04/05 20:19:39","新北市新店區安德街120巷16號","121.508495","24.9610366666667","6500600","新店區"
"231040","047-UY","2018/04/05 20:19:34","新北市新店區中正路211號","121.53984","24.9726166666667","6500600","新店區"
"231044","106-UY","2018/04/05 20:19:40","新北市新店區民族路9號","121.54184","24.9788","6500600","新店區"
"231052","108-UY","2018/04/05 20:19:29","新北市新店區新烏路三段119號","121.552138333333","24.9027816666667","6500600","新店區"
"231050","110-UY","2018/04/05 20:19:39","新北市新店區中正路110號","121.542921666667","24.97071","6500600","新店區"
"231047","187-VK","2018/04/05 20:19:24","新北市新店區中興路三段218號","121.543641666667","24.9826216666667","6500600","新店區"
"231054","KEA-2219","2018/04/05 20:19:34","新北市新店區檳榔路150號","121.544285","24.9616033333333","6500600","新店區"
"231057","256-BX","2018/04/05 20:19:40","新北市新店區花園十二路1號","121.554786666667","24.93469","6500600","新店區"
"231042","268-BY","2018/04/05 20:19:40","新北市新店區中興路二段235號","121.547405","24.975135","6500600","新店區"
"231051","278-BY","2018/04/05 20:19:32","新北市新店區中央六街77號","121.527041666667","24.9763766666667","6500600","新店區"
"231058","3713-VJ","2018/04/05 20:19:28","新北市新店區中正路360號","121.535555","24.9759233333333","6500600","新店區"
"231066","4716-K9","2018/04/05 20:19:43","新北市新店區安民街341號","121.516955","24.975015","6500600","新店區"
"231056","4715-K9","2018/04/05 20:19:22","新北市新店區中正路271號","121.537706666667","24.974175","6500600","新店區"
"231067","4772-VM","2018/04/05 20:19:40","新北市新店區安華路28-1號","121.51972","24.9609366666667","6500600","新店區"
"231065","512-UM","2018/04/05 20:19:37","新北市新店區安祥路104巷6弄36號","121.483101666667","24.962945","6500600","新店區"
"231049","513-UM","2018/04/05 20:19:42","新北市新店區北新路一段319號","121.541626666667","24.9681316666667","6500600","新店區"
"231061","619-UM","2018/04/05 20:19:33","新北市新店區安興路137-1號","121.516171666667","24.9793366666667","6500600","新店區"
"231063","641-BX","2018/04/05 20:19:29","新北市新店區薏仁坑路自強巷6號","121.496778333333","24.9583883333333","6500600","新店區"
"231068","718-UY","2018/04/05 20:19:42","新北市新店區民權路9號","121.542475","24.982825","6500600","新店區"
"231064","719-UM","2018/04/05 20:19:39","新北市新店區安利街32號","121.519051666667","24.97482","6500600","新店區"
"231062","720-UM","2018/04/05 20:19:26","新北市新店區安泰路7巷16號","121.485681666667","24.950985","6500600","新店區"
"231060","897-TW","2018/04/05 20:19:45","新北市新店區錦秀路11巷96弄2號","121.480093333333","24.9420416666667","6500600","新店區"
"231045","898-TW","2018/04/05 20:19:33","新北市新店區新坡一街88號","121.548341666667","24.961975","6500600","新店區"
"231043","899-TW","2018/04/05 20:19:33","新北市新店區建國路131號","121.539415","24.9781316666667","6500600","新店區"
"231055","AKT-0513","2018/04/05 20:19:40","新北市新店區新明街16號","121.540968333333","24.96839","6500600","新店區"
"241011","013-R5","2018/04/05 20:19:44","新北市三重區龍濱路287號","121.501118333333","25.0736266666667","6500200","三重區"
"241028","022-UY","2018/04/05 20:19:42","新北市三重區大同南路136號","121.496445","25.0581266666667","6500200","三重區"
"241008","059-VK","2018/04/05 20:19:39","新北市三重區永福街156號","121.480271666667","25.074485","6500200","三重區"
"241009","060-VK","2018/04/05 20:19:38","新北市三重區永福街29號","121.481576666667","25.07834","6500200","三重區"
"241031","061-VK","2018/04/05 20:19:40","新北市三重區三寧街22號","121.489485","25.0598766666667","6500200","三重區"
"241015","062-VK","2018/04/05 20:19:29","新北市三重區重新路一段128號","121.500281666667","25.0628516666667","6500200","三重區"
"241017","063-VK","2018/04/05 20:19:32","新北市三重區自強路一段298號","121.491398333333","25.0683783333333","6500200","三重區"
"241024","065-VK","2018/04/05 20:19:33","新北市三重區忠孝路三段15巷14號","121.480978333333","25.0676033333333","6500200","三重區"
"241026","066-VK","2018/04/05 20:19:27","新北市三重區中央南路49號","121.501371666667","25.0617516666667","6500200","三重區"
"241002","090-VK","2018/04/05 20:19:27","新北市三重區仁義街126號","121.497441666667","25.0804283333333","6500200","三重區"
"241003","091-VK","2018/04/05 20:19:24","新北市三重區仁愛街472號","121.489653333333","25.082455","6500200","三重區"
"241005","262-UM","2018/04/05 20:19:42","新北市三重區碧華街294巷14號","121.489065","25.0842766666667","6500200","三重區"
"241016","265-UM","2018/04/05 20:19:28","新北市三重區大同北路54巷3號","121.494075","25.063455","6500200","三重區"
"241022","267-UM","2018/04/05 20:19:41","新北市三重區市前街14號","121.489158333333","25.06237","6500200","三重區"
"241018","268-UM","2018/04/05 20:19:25","新北市三重區正義北路256巷46號","121.494916666667","25.06821","6500200","三重區"
"241032","269-UM","2018/04/05 20:19:34","新北市三重區捷運路19巷6弄20號","121.484371666667","25.0567566666667","6500200","三重區"
"241013","270-UM","2018/04/05 20:19:41","新北市三重區三和路三段167巷2號","121.49202","25.0741133333333","6500200","三重區"
"241025","271-UM","2018/04/05 20:19:37","新北市三重區自由街17巷13號","121.480081666667","25.066955","6500200","三重區"
"241007","398-BY","2018/04/05 20:19:41","新北市三重區溪尾街108巷42-1號","121.487755","25.0782116666667","6500200","三重區"
"241035","462-BY","2018/04/05 20:19:28","新北市三重區大榮街54號","121.499138333333","25.0637416666667","6500200","三重區"
"241020","478-VK","2018/04/05 20:19:28","新北市三重區三和路四段12號","121.491271666667","25.0740216666667","6500200","三重區"
"241030","480-VK","2018/04/05 20:19:31","新北市三重區環河南路254巷55號","121.487981666667","25.05236","6500200","三重區"
"241014","543-UM","2018/04/05 20:19:39","新北市三重區長榮路129號","121.503808333333","25.069345","6500200","三重區"
"241023","545-UM","2018/04/05 20:19:28","新北市三重區忠孝路三段93巷2號","121.47948","25.0647483333333","6500200","三重區"
"241001","547-UM","2018/04/05 20:19:37","新北市三重區自強路四段3巷31號","121.490038333333","25.0764116666667","6500200","三重區"
"241019","KEA-2593","2018/04/05 20:19:31","新北市三重區忠孝路一段30巷58號","121.490463333333","25.0712916666667","6500200","三重區"
"241004","887-TS","2018/04/05 20:19:36","新北市三重區仁政街205號","121.490536666667","25.0805583333333","6500200","三重區"
"241012","941-UM","2018/04/05 20:19:27","新北市三重區河邊北街351號","121.502126666667","25.0755866666667","6500200","三重區"
"241029","942-UM","2018/04/05 20:19:42","新北市三重區光明路112號","121.492696666667","25.0562066666667","6500200","三重區"
"241033","AAC-255","2018/04/05 20:19:36","新北市三重區五谷王北街50巷8號","121.475743333333","25.0514083333333","6500200","三重區"
"235066","003-UY","2018/04/05 20:19:25","新北市中和區水源路118號","121.506925","25.0035033333333","6500300","中和區"
"235065","098-UM","2018/04/05 20:19:40","新北市中和區永和路128巷47號","121.497663333333","25.0068683333333","6500300","中和區"
"235068","377-QA","2018/04/05 20:19:29","新北市中和區福美路265號","121.498343333333","25.0048916666667","6500300","中和區"
"235050","4979-A6","2018/04/05 20:19:46","新北市中和區景安路82巷6弄2號","121.50522","24.996245","6500300","中和區"
"235069","4980-A6","2018/04/05 20:19:41","新北市中和區圓通路190號","121.496445","24.99445","6500300","中和區"
"235026","800-TS","2018/04/05 20:07:10","新北市中和區員山路36巷16-5號","121.484678333333","24.9920333333333","6500300","中和區"
"235059","AAC-215","2018/04/05 20:19:36","新北市中和區圓通路332號","121.484398333333","24.986435","6500300","中和區"
"220086","073-UY","2018/04/05 20:19:25","新北市樹林區環河路600-2號","121.403555","24.96934","6500100","板橋區"
"247024","893-R6","2018/04/05 20:19:36","新北市蘆洲區光明路112巷29弄13號","121.464263333333","25.0876983333333","6501400","蘆洲區"
"247014","546-UM","2018/04/05 20:19:37","新北市蘆洲區中山二路137巷8號","121.472025","25.081295","6501400","蘆洲區"
"247022","500-BY","2018/04/05 20:19:40","新北市蘆洲區民族路449號","121.467468333333","25.0887033333333","6501400","蘆洲區"
"247010","341-TH","2018/04/05 20:19:40","新北市蘆洲區信義路267號","121.47893","25.084875","6501400","蘆洲區"
"247012","339-TH","2018/04/05 20:19:40","新北市蘆洲區中興街38號","121.4813","25.0871616666667","6501400","蘆洲區"
"247004","337-TH","2018/04/05 20:19:32","新北市蘆洲區永康街30號","121.458561666667","25.0854333333333","6501400","蘆洲區"
"247006","336-TH","2018/04/05 20:19:41","新北市蘆洲區九芎街167巷6號","121.464993333333","25.0785466666667","6501400","蘆洲區"
"247018","057-VK","2018/04/05 20:19:29","新北市蘆洲區民族路408巷7號","121.474741666667","25.0918416666667","6501400","蘆洲區"
"247008","056-VK","2018/04/05 20:19:42","新北市蘆洲區集賢路223號","121.48256","25.0862516666667","6501400","蘆洲區"
"247016","007-UY","2018/04/05 20:19:25","新北市蘆洲區光華路132巷41號","121.465883333333","25.0838233333333","6501400","蘆洲區"
"247002","002-UY","2018/04/05 20:19:41","新北市蘆洲區長安街313巷46號","121.455466666667","25.0860366666667","6501400","蘆洲區"
"235039","251-BX","2018/04/05 20:19:32","新北市中和區立人街63號","121.520138333333","24.9943566666667","6500300","中和區"
"224010","AGQ-8101","2018/04/05 20:16:32","新北市瑞芳區輕便路270號","121.844651666667","25.1090633333333","6501200","瑞芳區"
"222001","KEA-2212","2018/04/05 20:19:34","新北市深坑區北深路三段217號","121.600241666667","25.0038666666667","6501800","深坑區"
"208002","KEA-2872","2018/04/05 20:19:24","新北市金山區中正路136號","121.631706666667","25.2217066666667","6502700","金山區"
"208003","665-BX","2018/04/05 20:19:36","新北市金山區海興路186號","121.633003333333","25.240475","6502700","金山區"
"251013","179-VK","2018/04/05 20:19:31","新北市淡水區水汴頭4-3號","121.475266666667","25.2044466666667","6501000","淡水區"
"251014","180-VK","2018/04/05 20:19:30","新北市淡水區石頭厝3號","121.458706666667","25.23556","6501000","淡水區"
"251015","182-VK","2018/04/05 20:19:25","新北市淡水區淡金路三段405-2號","121.449118333333","25.20855","6501000","淡水區"
"251010","413-VK","2018/04/05 20:19:44","新北市淡水區新民街一段132號","121.427803333333","25.1888566666667","6501000","淡水區"
"251012","441-VK","2018/04/05 20:19:40","新北市淡水區淡金路三段356號","121.449286666667","25.20926","6501000","淡水區"
"251016","442-VK","2018/04/05 20:19:32","新北市淡水區番子田19號","121.45747","25.2291483333333","6501000","淡水區"
"251006","561-UM","2018/04/05 20:19:38","新北市淡水區淡金路一段571號","121.45263","25.180525","6501000","淡水區"
"251002","672-BX","2018/04/05 20:19:43","新北市淡水區中正路176號","121.44037","25.1698333333333","6501000","淡水區"
"207003","225-TW","2018/04/05 20:19:37","新北市萬里區北基里大仁路1號","121.681608333333","25.175095","6502800","萬里區"
"252002","178-VK","2018/04/05 20:19:25","新北市三芝區中正路一段21號","121.502938333333","25.2586266666667","6502100","三芝區"
"252001","292-VK","2018/04/05 20:19:27","新北市三芝區中山路一段14號","121.500635","25.2580966666667","6502100","三芝區"
"237014","433-BY","2018/04/05 20:19:27","新北市樹林區中山路三段210-2號","121.380665","24.9665283333333","6500900","三峽區"
"237006","5529-G3","2018/04/05 20:19:27","新北市三峽區嘉添181-3號","121.370223333333","24.9113333333333","6500900","三峽區"
"237005","AKY-6261","2018/04/05 20:19:34","新北市三峽區三樹路98巷93號","121.381983333333","24.9399316666667","6500900","三峽區"
"236070","105-UM","2018/04/05 20:19:38","新北市土城區三民路43號","121.419975","24.9639283333333","6501300","土城區"
"236042","107-UM","2018/04/05 20:19:27","新北市土城區中華路一段301號","121.43976","24.979695","6501300","土城區"
"236078","166-UM","2018/04/05 20:19:41","新北市土城區德安街4巷1號","121.422156666667","24.9648116666667","6501300","土城區"
"236030","253-BX","2018/04/05 20:19:24","新北市土城區學成路128巷8弄1號","121.449551666667","24.9900416666667","6501300","土城區"
"236026","269-VK","2018/04/05 20:19:32","新北市土城區中央路一段249巷12號","121.445783333333","24.9855066666667","6501300","土城區"
"236014","270-VK","2018/04/05 20:19:29","新北市土城區廣明街90巷23號","121.455471666667","24.994555","6501300","土城區"
"236059","912-UM","2018/04/05 20:19:44","新北市土城區大安路2號","121.432841666667","24.9655416666667","6501300","土城區"
"236049","913-UM","2018/04/05 20:19:27","新北市土城區城林路6巷71號","121.43738","24.9786216666667","6501300","土城區"
"242034","AAC-296","2018/04/05 20:19:44","新北市新莊區建中街139號","121.445086666667","25.036405","6500500","新莊區"
"242058","986-R7","2018/04/05 20:19:44","新北市新莊區四維路177號","121.422205","25.021285","6500500","新莊區"
"242053","751-BX","2018/04/05 20:19:37","新北市新莊區西盛街388巷1號","121.427483333333","25.0127933333333","6500500","新莊區"
"242029","705-TV","2018/04/05 20:19:38","新北市新莊區中華路二段201號","121.45236","25.052675","6500500","新莊區"
"242027","615-BX","2018/04/05 20:19:44","新北市新莊區幸福路566號","121.454361666667","25.049335","6500500","新莊區"
"242025","613-BX","2018/04/05 20:19:45","新北市新莊區五工一路80巷4號","121.46153","25.0671566666667","6500500","新莊區"
"242042","566-BX","2018/04/05 20:19:39","新北市新莊區壽山路55-5號","121.412338333333","25.031595","6500500","新莊區"
"242046","497-BY","2018/04/05 20:19:43","新北市新莊區中正路新生巷33號","121.417155","25.02341","6500500","新莊區"
"242004","442-UM","2018/04/05 20:19:34","新北市新莊區化成路748號","121.465768333333","25.0577466666667","6500500","新莊區"
"242051","441-UM","2018/04/05 20:19:34","新北市新莊區民安西路254號","121.425858333333","25.01357","6500500","新莊區"
"242056","440-UM","2018/04/05 20:19:41","新北市新莊區豐年街28巷25號","121.445448333333","25.0322433333333","6500500","新莊區"
"242036","415-TV","2018/04/05 20:19:44","新北市新莊區建安街76巷1弄2號","121.426415","25.0245883333333","6500500","新莊區"
"242007","413-TV","2018/04/05 20:19:35","新北市新莊區福壽街94巷6號","121.458665","25.04999","6500500","新莊區"
"242044","400-BY","2018/04/05 20:19:41","新北市新莊區中正路新建巷28弄12號","121.413828333333","25.0216183333333","6500500","新莊區"
"242023","362-BY","2018/04/05 20:19:30","新北市新莊區化成路445號","121.464686666667","25.0609266666667","6500500","新莊區"
"242061","353-BY","2018/04/05 20:19:40","新北市新莊區瓊林路206-6號","121.435333333333","25.0222833333333","6500500","新莊區"
"242039","133-UY","2018/04/05 20:18:45","新北市新莊區龍安路438號","121.424465","25.0183983333333","6500500","新莊區"
"242031","135-UY","2018/04/05 20:19:33","新北市新莊區三和路17-16號","121.438991666667","25.037645","6500500","新莊區"
"242048","172-VK","2018/04/05 20:19:27","新北市新莊區龍安路218號","121.420143333333","25.019795","6500500","新莊區"
"242011","173-VK","2018/04/05 20:19:37","新北市新莊區幸福路670巷14弄9號","121.451295","25.0504716666667","6500500","新莊區"
"242017","175-VK","2018/04/05 20:19:41","新北市新莊區中港一街131號","121.448268333333","25.0450583333333","6500500","新莊區"
"242015","346-TH","2018/04/05 20:19:36","新北市新莊區中和街31巷22號","121.447165","25.043945","6500500","新莊區"
"242021","348-TH","2018/04/05 20:19:28","新北市新莊區復興路一段11號","121.445723333333","25.041655","6500500","新莊區"
"242002","349-TH","2018/04/05 20:19:38","新北市新莊區化成路31號","121.465095","25.04386","6500500","新莊區"
"242019","350-TH","2018/04/05 20:19:41","新北市新莊區銘德街49巷6弄2號","121.4573","25.0428766666667","6500500","新莊區"
"242013","351-TH","2018/04/05 20:19:31","新北市新莊區中和街155巷17號","121.446618333333","25.0497033333333","6500500","新莊區"
"221008","489-VK","2018/04/05 20:19:32","新北市汐止區康寧街451號","121.631243333333","25.0682916666667","6501100","汐止區"
"221036","130-UY","2018/04/05 20:19:39","新北市汐止區仁愛路152巷15號","121.664521666667","25.0642316666667","6501100","汐止區"
"221015","131-UY","2018/04/05 20:19:33","新北市汐止區建成路142巷19弄5號","121.662181666667","25.073655","6501100","汐止區"
"221010","269-BY","2018/04/05 20:19:28","新北市汐止區八連路二段610巷4號","121.62807","25.1086316666667","6501100","汐止區"
"221012","278-VK","2018/04/05 20:19:41","新北市汐止區汐平路一段172-1號","121.690151666667","25.06638","6501100","汐止區"
"221032","280-BY","2018/04/05 20:19:28","新北市汐止區弘道街9巷2弄2號","121.61702","25.0488783333333","6501100","汐止區"
"221027","281-BY","2018/04/05 20:19:29","新北市汐止區大同路二段353號","121.657053333333","25.067215","6501100","汐止區"
"221029","298-VK","2018/04/05 20:19:37","新北市汐止區工建路31號","121.63944","25.0635866666667","6501100","汐止區"
"221021","299-VK","2018/04/05 20:19:43","新北市汐止區水源路一段235號","121.654193333333","25.0602833333333","6501100","汐止區"
"221031","353-TW","2018/04/05 20:19:29","新北市汐止區中興路150巷13號","121.632981666667","25.0650416666667","6501100","汐止區"
"221035","622-UM","2018/04/05 20:19:40","新北市汐止區長江街101-5號","121.658715","25.07321","6501100","汐止區"
"221025","623-UM","2018/04/05 20:19:36","新北市汐止區水源路二段32號","121.654823333333","25.057295","6501100","汐止區"
"221038","646-BX","2018/04/05 20:19:44","新北市汐止區忠孝東路462巷23號","121.66637","25.07336","6501100","汐止區"
"221033","647-BX","2018/04/05 20:19:40","新北市汐止區東勢街215巷1弄13號","121.633958333333","25.042265","6501100","汐止區"
"221002","707-TV","2018/04/05 20:19:29","新北市汐止區福德二路21號","121.635371666667","25.06839","6501100","汐止區"
"221018","753-BX","2018/04/05 20:19:30","新北市汐止區茄安路168號","121.675686666667","25.06902","6501100","汐止區"
"220072","277-BY","2018/04/05 20:19:38","新北市板橋區金門街354號","121.427756666667","24.9843","6500100","板橋區"
"220083","286-VK","2018/04/05 20:19:27","新北市板橋區僑中二街102巷32號","121.444935","25.008585","6500100","板橋區"
"220081","287-VK","2018/04/05 20:19:33","新北市板橋區僑中一街80巷1弄1號","121.447541666667","25.011905","6500100","板橋區"
"220061","293-UM","2018/04/05 20:19:37","新北市板橋區文華街18號","121.45764","25.00051","6500100","板橋區"
"220097","295-UM","2018/04/05 20:19:40","新北市板橋區公館街29號","121.461336666667","25.0154366666667","6500100","板橋區"
"242009","281-VK","2018/04/05 20:19:33","新北市新莊區昌平街1號","121.454923333333","25.0512366666667","6500500","新莊區"
"220103","561-BX","2018/04/05 20:19:32","新北市板橋區陽明街277號","121.462163333333","25.0261016666667","6500100","板橋區"
"220102","KEA-2699","2018/04/05 20:19:42","新北市板橋區漢生東路15號","121.464795","25.017375","6500100","板橋區"
"220089","833-TW","2018/04/05 20:19:43","新北市板橋區四維路162號","121.464838333333","25.0259566666667","6500100","板橋區"
"220070","AAC-253","2018/04/05 20:19:41","新北市板橋區四川路二段245巷16-1號","121.450976666667","24.992995","6500100","板橋區"
