"lineid","car","time","location","longitude","latitude","cityid","cityname"
"234066","AAC-212","2018/04/05 21:39:40","新北市永和區福和路1號","121.526288333333","25.0096716666667","6500400","永和區"
"231050","110-UY","2018/04/05 21:39:39","新北市新店區薏仁坑路自強巷6號","121.496723333333","24.9584283333333","6500600","新店區"
"241005","262-UM","2018/04/05 21:39:42","新北市三重區仁華街6號","121.483388333333","25.08121","6500200","三重區"
"247012","339-TH","2018/04/05 21:39:51","新北市八里區荖阡坑路34號","121.402405","25.128905","6501400","蘆洲區"
"251014","180-VK","2018/04/05 21:39:50","新北市淡水區淡金路五段20號","121.453436666667","25.232675","6501000","淡水區"
"251008","181-VK","2018/04/05 21:39:43","新北市淡水區水源街二段22號","121.449801666667","25.1736783333333","6501000","淡水區"
"251010","413-VK","2018/04/05 21:39:44","新北市淡水區沙崙路216巷17號","121.426126666667","25.1841416666667","6501000","淡水區"
"251012","441-VK","2018/04/05 21:39:40","新北市淡水區淡金路四段493號","121.451916666667","25.2254","6501000","淡水區"
"251016","442-VK","2018/04/05 21:39:32","新北市淡水區淡金路三段70巷1號","121.448105","25.2002766666667","6501000","淡水區"
"251005","443-VK","2018/04/05 21:39:45","新北市淡水區水源街一段154號","121.448436666667","25.1714633333333","6501000","淡水區"
"251001","559-UM","2018/04/05 21:39:39","新北市淡水區新市二路三段152號","121.43536","25.1941683333333","6501000","淡水區"
"251006","561-UM","2018/04/05 21:39:38","新北市淡水區公明街52-3號","121.442828333333","25.1686233333333","6501000","淡水區"
"251009","575-R6","2018/04/05 21:39:49","新北市淡水區民族路29巷1弄10號","121.463185","25.13734","6501000","淡水區"
"251011","650-BX","2018/04/05 21:39:35","新北市淡水區新民街322巷4號","121.435841666667","25.183845","6501000","淡水區"
"251002","672-BX","2018/04/05 21:39:44","新北市淡水區學府路171號","121.446303333333","25.174245","6501000","淡水區"
"251004","757-BX","2018/04/05 21:39:40","新北市淡水區民生路6號","121.46063","25.1378416666667","6501000","淡水區"
"251003","766-UM","2018/04/05 21:39:38","新北市淡水區新春街65巷31號","121.437456666667","25.1829283333333","6501000","淡水區"
"220070","AAC-253","2018/04/05 21:39:41","新北市板橋區華東街1-9號","121.448248333333","24.9948933333333","6500100","板橋區"
