"lineid","car","time","location","longitude","latitude","cityid","cityname"
"251008","181-VK","2018/04/05 22:19:43","新北市淡水區學府路104號","121.44975","25.1717433333333","6501000","淡水區"
"251010","413-VK","2018/04/05 22:19:44","新北市淡水區沙崙路200號","121.424658333333","25.18388","6501000","淡水區"
"251007","577-R6","2018/04/05 22:19:32","新北市淡水區北新路145號","121.449576666667","25.1789933333333","6501000","淡水區"
"251011","650-BX","2018/04/05 22:19:35","新北市淡水區水碓街7號","121.443201666667","25.1771333333333","6501000","淡水區"
"251004","757-BX","2018/04/05 22:19:40","新北市淡水區民族路33號","121.462215","25.135765","6501000","淡水區"
