"lineid","car","time","location","longitude","latitude","cityid","cityname"
"232003","290-BY","2018/04/06 06:39:34","新北市坪林區北宜路八段558號","121.718036666667","24.909045","6502000","坪林區"
"232019","705-BZ","2018/04/06 06:39:31","新北市坪林區北宜路八段558號","121.717926666667","24.9093266666667","6502000","坪林區"
"232008","758-BX","2018/04/06 06:39:46","新北市坪林區北宜路八段558號","121.718001666667","24.9092583333333","6502000","坪林區"
"220035","015-TV","2018/04/06 06:39:39","新北市板橋區南雅西路二段175巷6號","121.451516666667","25.012645","6500100","板橋區"
"223006","022-BY","2018/04/06 06:39:44","新北市石碇區石崁1號","121.651993333333","25.0008016666667","6501900","石碇區"
"223002","KEA-2673","2018/04/06 06:39:42","新北市石碇區碇坪路一段130號","121.659375","24.9912783333333","6501900","石碇區"
"223001","205-TH","2018/04/06 06:39:48","新北市石碇區湳窟22-1號","121.661215","24.9908116666667","6501900","石碇區"
"223008","406-TH","2018/04/06 06:39:28","新北市石碇區小粗坑(潭邊里)14-2號","121.68136","24.9825616666667","6501900","石碇區"
"223007","661-BX","2018/04/06 06:39:43","新北市石碇區靜安路一段81號","121.651995","25.0069533333333","6501900","石碇區"
"227005","282-VK","2018/04/06 06:39:47","新北市雙溪區牡丹里聖南10-3號","121.861246666667","25.0486366666667","6502500","雙溪區"
"236010","165-UM","2018/04/06 06:39:46","新北市土城區永平街51號","121.427963333333","24.9591416666667","6501300","土城區"
