"lineid","car","time","location","longitude","latitude","cityid","cityname"
"244002","248-BX","2018/12/25 08:09:25","新北市林口區下福里34-11號","121.305606666667","25.1117133333333","6501700","林口區"
"243014","680-BX","2018/12/25 08:09:46","新北市泰山區明志路三段359號","121.421656666667","25.03475","6501600","泰山區"
"222004","289-BY","2018/12/25 08:09:38","新北市深坑區昇高坑路35號","121.62871","24.9983016666667","6501800","深坑區"
"231007","189-VK","2018/12/25 08:09:38","新北市新店區新潭路一段22巷10號","121.522651666667","24.9430333333333","6500600","新店區"
"231009","192-VK","2018/12/25 08:09:27","新北市新店區北宜路一段286號","121.546506666667","24.952655","6500600","新店區"
"235001","611-BX","2018/12/25 08:09:34","新北市中和區圓通路367巷33弄48號","121.496225","24.9854533333333","6500300","中和區"
"235001","157-BY","2018/12/25 08:09:27","新北市中和區板南路176號","121.501071666667","24.992685","6500300","中和區"
"226005","5620-A6","2018/12/25 08:09:36","新北市平溪區靜安路二段561號","121.75082","25.02459","6502400","平溪區"
"226002","7418-A5","2018/12/25 08:09:23","新北市平溪區望古里石灼坑6號","121.768251666667","25.035685","6502400","平溪區"
"226006","AGD-0702","2018/12/25 08:09:37","新北市平溪區新寮里石碣7號","121.78805","25.0582316666667","6502400","平溪區"
"223006","022-BY","2018/12/25 08:09:40","新北市坪林區九芎林19-5號","121.708336666667","24.9279383333333","6501900","石碇區"
"223002","KEA-2673","2018/12/25 08:00:04","新北市石碇區大格門3號","121.668728333333","24.9560033333333","6501900","石碇區"
"223003","205-TH","2018/12/25 08:09:40","新北市石碇區崩山35號","121.674268333333","24.9575316666667","6501900","石碇區"
"223008","406-TH","2018/12/25 08:09:32","新北市石碇區靜安路一段278號","121.684935","25.0096933333333","6501900","石碇區"
"223004","437-BY","2018/12/25 08:09:37","新北市石碇區外按11-5號","121.651611666667","24.9990166666667","6501900","石碇區"
"223005","677-TV","2018/12/25 08:09:27","新北市石碇區外按11-5號","121.651488333333","24.9990683333333","6501900","石碇區"
"227006","282-VK","2018/12/25 08:09:25","新北市雙溪區牡丹里中正路73號","121.863896666667","25.0447433333333","6502500","雙溪區"
"252004","249-BX","2018/12/25 08:09:35","新北市三芝區興華里車埕31-3號","121.503426666667","25.19467","6502100","三芝區"
"252007","AAC-283","2018/12/25 08:09:25","新北市三芝區後厝里大片頭99號","121.460426666667","25.2432883333333","6502100","三芝區"
"237001","361-BY","2018/12/25 08:09:39","新北市三峽區大學路51號","121.376698333333","24.9411466666667","6500900","三峽區"
