"lineid","car","time","location","longitude","latitude","cityid","cityname"
"244002","248-BX","2018/12/25 08:59:05","新北市林口區瑞平里66號","121.34607","25.1274816666667","6501700","林口區"
"243014","680-BX","2018/12/25 08:59:06","新北市泰山區明志路三段385號","121.42147","25.0345933333333","6501600","泰山區"
"222004","289-BY","2018/12/25 08:58:58","新北市深坑區大崙尾8號","121.613338333333","24.980235","6501800","深坑區"
"231007","189-VK","2018/12/25 08:59:07","新北市新店區新潭路二段161號","121.511491666667","24.9204683333333","6500600","新店區"
"231009","192-VK","2018/12/25 08:59:07","新北市新店區廣興路60巷35號","121.542463333333","24.9165966666667","6500600","新店區"
"235001","611-BX","2018/12/25 08:59:14","新北市中和區莒光路200號","121.472196666667","24.9984383333333","6500300","中和區"
"226002","7418-A5","2018/12/25 08:48:03","新北市平溪區東勢里東勢格40號","121.731626666667","24.9975133333333","6502400","平溪區"
"226006","AGD-0702","2018/12/25 08:58:57","新北市平溪區嶺腳里嶺腳寮111號","121.746586666667","25.033325","6502400","平溪區"
"223006","022-BY","2018/12/25 08:57:29","新北市石碇區溪邊寮2-2號","121.657658333333","24.9761016666667","6501900","石碇區"
"223003","205-TH","2018/12/25 08:58:59","新北市石碇區北宜路六段柑腳巷2號","121.659708333333","24.9382266666667","6501900","石碇區"
"223008","406-TH","2018/12/25 08:59:10","新北市石碇區光明路28號","121.69521","25.0238066666667","6501900","石碇區"
"223004","437-BY","2018/12/25 08:58:57","新北市石碇區磨石坑24號","121.689795","24.9725383333333","6501900","石碇區"
"223005","677-TV","2018/12/25 08:58:55","新北市石碇區磨石坑28-1號","121.69077","24.96904","6501900","石碇區"
"227006","282-VK","2018/12/25 08:59:05","新北市雙溪區上林里內平林112號","121.826018333333","25.0268383333333","6502500","雙溪區"
"227012","030-BX","2018/12/25 08:56:54","新北市雙溪區泰平里料角坑32號","121.79793","24.9734683333333","6502500","雙溪區"
"252004","249-BX","2018/12/25 08:58:55","新北市三芝區興華里田心子31號","121.488813333333","25.2004433333333","6502100","三芝區"
"252007","AAC-283","2018/12/25 08:59:05","新北市三芝區後厝里北勢子22號","121.473286666667","25.2534","6502100","三芝區"
