"lineid","car","time","location","longitude","latitude","cityid","cityname"
"244002","248-BX","2018/12/25 09:39:05","新北市林口區粉寮路二段160巷28號","121.405248333333","25.090825","6501700","林口區"
"222004","289-BY","2018/12/25 09:38:58","新北市深坑區公館後2-3號","121.60345","24.99359","6501800","深坑區"
"231007","189-VK","2018/12/25 09:39:07","新北市新店區新潭路三段215巷25號","121.508063333333","24.9041233333333","6500600","新店區"
"231009","192-VK","2018/12/25 09:38:47","新北市新店區平廣路一段216號","121.512208333333","24.8886116666667","6500600","新店區"
"235029","911-UM","2018/12/25 09:33:09","新北市中和區員山路36巷16-2號","121.485191666667","24.9917116666667","6500300","中和區"
"223006","022-BY","2018/12/25 09:39:17","新北市石碇區溪邊寮1-3號","121.65817","24.9777583333333","6501900","石碇區"
"223003","205-TH","2018/12/25 09:38:19","新北市石碇區二格路1-7號","121.630868333333","24.9681266666667","6501900","石碇區"
"227006","282-VK","2018/12/25 09:31:25","新北市雙溪區長源里柑腳58-1號","121.793923333333","25.0063916666667","6502500","雙溪區"
"227012","030-BX","2018/12/25 09:39:14","新北市雙溪區泰平里烏山路11號","121.796473333333","24.9497383333333","6502500","雙溪區"
"252004","249-BX","2018/12/25 09:38:55","新北市三芝區圓山里石曹子坑68號","121.523976666667","25.21687","6502100","三芝區"
"252007","AAC-283","2018/12/25 09:39:05","新北市三芝區陽明路2號","121.51842","25.2633033333333","6502100","三芝區"
"237001","159-UY","2018/12/25 09:38:58","新北市三峽區學勤路38號","121.374421666667","24.9457766666667","6500900","三峽區"
