"lineid","car","time","location","longitude","latitude","cityid","cityname"
"234068","552-UM","2018/12/25 12:19:09","新北市永和區福和路1號","121.525581666667","25.00961","6500400","永和區"
"234084","553-UM","2018/12/25 12:19:10","新北市永和區福和路1號","121.526498333333","25.0098083333333","6500400","永和區"
"234040","862-TW","2018/12/25 12:19:18","新北市永和區福和路1號","121.52566","25.0093483333333","6500400","永和區"
"235029","911-UM","2018/12/25 12:19:08","新北市中和區員山路36巷16-2號","121.485311666667","24.9917716666667","6500300","中和區"
"228004","212-TW","2018/12/25 12:19:12","新北市貢寮區貢寮里長泰路17-2號","121.89185","25.021175","6502600","貢寮區"
"228005","828-UM","2018/12/25 12:19:04","新北市貢寮區福連里福連街1號","121.988305","25.0165333333333","6502600","貢寮區"
"207002","749-BX","2018/12/25 12:19:11","新北市萬里區中幅里大湖路6號","121.660778333333","25.1711533333333","6502800","萬里區"
