"lineid","car","time","location","longitude","latitude","cityid","cityname"
"234044","148-BY","2018/12/25 13:29:20","新北市永和區秀朗路二段241號","121.526345","24.9998166666667","6500400","永和區"
"234078","298-R6","2018/12/25 13:29:09","新北市永和區福和路5號","121.525045","25.0087966666667","6500400","永和區"
"234036","336-UY","2018/12/25 13:29:02","新北市永和區成功路二段1巷9號","121.527305","25.0015533333333","6500400","永和區"
"234062","337-UY","2018/12/25 13:29:06","新北市永和區得和路243巷28弄1號","121.520771666667","25.001285","6500400","永和區"
"234068","552-UM","2018/12/25 13:29:09","新北市永和區竹林路182號","121.520421666667","25.00974","6500400","永和區"
"234084","553-UM","2018/12/25 13:29:10","新北市永和區成功路一段18巷15號","121.526256666667","25.0050233333333","6500400","永和區"
"234015","745-BX","2018/12/25 13:29:14","新北市永和區環河西路一段5號","121.51503","25.0180783333333","6500400","永和區"
"234028","746-BX","2018/12/25 13:29:16","新北市永和區民生路63號","121.522638333333","24.9973866666667","6500400","永和區"
"234052","KEA-2590","2018/12/25 13:29:16","新北市永和區永和路二段239-1號","121.515718333333","25.0145783333333","6500400","永和區"
"234005","839-RS","2018/12/25 13:29:22","新北市永和區中山路一段142號","121.509996666667","25.0096933333333","6500400","永和區"
"234012","KEA-2591","2018/12/25 13:29:14","新北市永和區中山路一段106號","121.511038333333","25.0105033333333","6500400","永和區"
"234060","AAD-866","2018/12/25 13:29:19","新北市永和區永貞路176號","121.516621666667","25.0043783333333","6500400","永和區"
"234040","862-TW","2018/12/25 13:29:18","新北市永和區水源街39巷28號","121.510681666667","25.0031166666667","6500400","永和區"
"234048","863-TW","2018/12/25 13:29:02","新北市永和區信義路79號","121.51245","25.0134266666667","6500400","永和區"
"234025","9371-KE","2018/12/25 13:29:19","新北市永和區中山路一段37號","121.513145","25.0102916666667","6500400","永和區"
"234010","9373-KE","2018/12/25 13:29:02","新北市永和區信義路25巷53號","121.512303333333","25.01155","6500400","永和區"
"248017","225-UY","2018/12/25 13:29:13","新北市五股區御史路300號","121.417963333333","25.107925","6501500","五股區"
"234022","9380-KE","2018/12/25 13:29:20","新北市永和區環河東路二段90號","121.524005","25.0105916666667","6500400","永和區"
"234076","969-R7","2018/12/25 13:29:13","新北市永和區智光街22號","121.518043333333","24.9992616666667","6500400","永和區"
"234072","AAC-211","2018/12/25 13:29:18","新北市永和區光復街40號","121.516601666667","25.0175633333333","6500400","永和區"
"234066","AAC-212","2018/12/25 13:29:19","新北市永和區永貞路412號","121.508925","25.00786","6500400","永和區"
"234001","AAC-295","2018/12/25 13:29:09","新北市永和區永和路一段107號","121.513765","25.0079933333333","6500400","永和區"
"244002","248-BX","2018/12/25 13:29:08","新北市林口區頂福23號","121.351176666667","25.0832366666667","6501700","林口區"
"231002","002-UM","2018/12/25 13:29:18","新北市新店區環河路62號","121.53701","24.9626633333333","6500600","新店區"
"231028","046-UY","2018/12/25 13:29:03","新北市新店區安華路28-1號","121.519513333333","24.9608316666667","6500600","新店區"
"231001","047-UY","2018/12/25 13:29:04","新北市新店區安康路一段52巷1號","121.529981666667","24.9612516666667","6500600","新店區"
"231005","106-UY","2018/12/25 13:29:11","新北市新店區安康路一段61號","121.5305","24.961005","6500600","新店區"
"231010","107-UY","2018/12/25 13:29:11","新北市新店區中央路25號","121.53315","24.9779966666667","6500600","新店區"
"231020","108-UY","2018/12/25 13:29:20","新北市新店區北新路一段43號","121.538128333333","24.9594016666667","6500600","新店區"
"231012","187-VK","2018/12/25 13:29:05","新北市新店區北新路一段91號","121.538765","24.961775","6500600","新店區"
"231023","KEA-2219","2018/12/25 13:29:16","新北市新店區北宜路一段158號","121.540395","24.9534916666667","6500600","新店區"
"231026","256-BX","2018/12/25 13:29:17","新北市新店區安康路一段44號","121.53075","24.9610733333333","6500600","新店區"
"231003","268-BY","2018/12/25 13:29:02","新北市新店區安康路一段77號","121.530021666667","24.9611633333333","6500600","新店區"
"231018","278-BY","2018/12/25 13:29:13","新北市新店區中央路216號","121.530016666667","24.9733966666667","6500600","新店區"
"231015","AAD-862","2018/12/25 13:29:04","新北市新店區北宜路二段52-1號","121.549138333333","24.951405","6500600","新店區"
"231038","3712-VJ","2018/12/25 13:29:10","新北市新店區安華路28-1號","121.519273333333","24.9607116666667","6500600","新店區"
"231027","3713-VJ","2018/12/25 13:29:10","新北市新店區北新路一段37號","121.537971666667","24.9592166666667","6500600","新店區"
"231037","4716-K9","2018/12/25 13:29:14","新北市新店區安豐路56-3號","121.499528333333","24.9545883333333","6500600","新店區"
"231025","4715-K9","2018/12/25 13:29:08","新北市新店區中央五街38號","121.528478333333","24.975","6500600","新店區"
"231036","512-UM","2018/12/25 13:29:16","新北市新店區建業路90號","121.479536666667","24.9554133333333","6500600","新店區"
"231013","513-UM","2018/12/25 13:29:17","新北市新店區安康路一段44號","121.530751666667","24.96103","6500600","新店區"
"231030","619-UM","2018/12/25 13:29:20","新北市新店區安華路3號","121.519448333333","24.9598983333333","6500600","新店區"
"231034","641-BX","2018/12/25 13:29:04","新北市新店區安華路28-1號","121.519595","24.9605366666667","6500600","新店區"
"231035","719-UM","2018/12/25 13:29:06","新北市新店區安一路一段1-1號","121.519635","24.9614666666667","6500600","新店區"
"231032","720-UM","2018/12/25 13:29:03","新北市新店區安豐路60號","121.49844","24.95402","6500600","新店區"
"231029","897-TW","2018/12/25 13:29:08","新北市新店區安華路30巷3號","121.518976666667","24.95899","6500600","新店區"
"231006","898-TW","2018/12/25 13:29:13","新北市新店區安一路一段1-1號","121.519716666667","24.9615166666667","6500600","新店區"
"231004","899-TW","2018/12/25 13:29:19","新北市新店區安康路一段355-3號","121.519791666667","24.962625","6500600","新店區"
"231024","AKT-0513","2018/12/25 13:29:17","新北市新店區中正路154巷10號","121.541891666667","24.9721133333333","6500600","新店區"
"235030","003-UY","2018/12/25 13:29:02","新北市中和區中山路二段116巷3弄3號","121.502493333333","25.003905","6500300","中和區"
"235028","005-UY","2018/12/25 13:29:17","新北市中和區連城路139巷66號","121.496803333333","24.99677","6500300","中和區"
"235027","006-UY","2018/12/25 13:29:09","新北市中和區連城路347巷19-3號","121.488533333333","24.9952683333333","6500300","中和區"
"235003","097-UM","2018/12/25 13:29:12","新北市中和區大勇街27巷1號","121.517296666667","24.99345","6500300","中和區"
"235004","150-BY","2018/12/25 13:29:17","新北市中和區保健路50巷66號","121.509243333333","24.9951733333333","6500300","中和區"
"235022","151-BY","2018/12/25 13:29:14","新北市中和區圓通路369巷152號","121.487958333333","24.9816066666667","6500300","中和區"
"235019","183-VK","2018/12/25 13:29:06","新北市中和區莒光路191-1號","121.471343333333","24.9975083333333","6500300","中和區"
"235002","185-VK","2018/12/25 13:29:15","新北市中和區自立路141巷3號","121.522391666667","24.99353","6500300","中和區"
"235013","186-VK","2018/12/25 13:29:10","新北市中和區景平路490號","121.504825","24.9938766666667","6500300","中和區"
"235031","255-BX","2018/12/25 13:29:04","新北市中和區員山路148巷41號","121.482558333333","24.9972083333333","6500300","中和區"
"235006","KEA-2878","2018/12/25 13:29:19","新北市中和區自立路193號","121.524298333333","24.9913616666667","6500300","中和區"
"235014","4979-A6","2018/12/25 13:29:22","新北市中和區景新街362巷3號","121.51207","24.9901066666667","6500300","中和區"
"235033","4980-A6","2018/12/25 13:29:13","新北市中和區連城路127巷36號","121.49694","24.9977633333333","6500300","中和區"
"235034","558-UM","2018/12/25 13:29:06","新北市中和區南華路65號","121.504533333333","24.997185","6500300","中和區"
"235009","565-BX","2018/12/25 13:29:17","新北市中和區南山路236巷36弄5號","121.504071666667","24.9883616666667","6500300","中和區"
"235018","640-BX","2018/12/25 13:29:17","新北市中和區民享街89巷4弄4號","121.47503","25.0016083333333","6500300","中和區"
"235024","647-TV","2018/12/25 13:29:07","新北市中和區員山路395號","121.481178333333","25.0029866666667","6500300","中和區"
"235035","783-BX","2018/12/25 13:29:15","新北市中和區光環路二段66號","121.484955","25.014205","6500300","中和區"
"235026","800-TS","2018/12/25 13:29:12","新北市中和區中山路二段298號","121.496128333333","25.0026783333333","6500300","中和區"
"235021","801-TS","2018/12/25 13:29:21","新北市中和區民享街97巷6號","121.47507","24.9994633333333","6500300","中和區"
"235005","802-TS","2018/12/25 13:29:12","新北市中和區中和路324巷3弄3號","121.51004","25.000945","6500300","中和區"
"235016","805-TS","2018/12/25 13:29:15","新北市中和區興南路二段94號","121.505233333333","24.9842333333333","6500300","中和區"
"235012","896-TW","2018/12/25 13:29:04","新北市中和區建八路1號","121.485728333333","24.9986366666667","6500300","中和區"
"235017","900-TW","2018/12/25 13:29:05","新北市土城區金城路三段259-1號","121.472021666667","24.99015","6500300","中和區"
"235029","911-UM","2018/12/25 13:29:17","新北市中和區中山路二段64巷12號","121.503611666667","25.005185","6500300","中和區"
"235015","157-BY","2018/12/25 13:29:06","新北市中和區興南路二段114巷10弄12號","121.503996666667","24.9849833333333","6500300","中和區"
"235001","AAC-213","2018/12/25 13:29:23","新北市中和區景德街95-1號","121.515591666667","24.9912433333333","6500300","中和區"
"235023","AAC-215","2018/12/25 13:29:20","新北市中和區員山路36巷16-3號","121.484926666667","24.9915316666667","6500300","中和區"
"220013","072-UY","2018/12/25 13:29:01","新北市板橋區南雅南路二段118號","121.45244","25.0001133333333","6500100","板橋區"
"220034","073-UY","2018/12/25 13:29:13","新北市板橋區華東街1-10號","121.44826","24.9950683333333","6500100","板橋區"
"220017","AAD-861","2018/12/25 13:29:18","新北市板橋區華東街1-10號","121.448291666667","24.9951466666667","6500100","板橋區"
"247009","336-TH","2018/12/25 13:29:06","新北市五股區中興路三段2巷10號","121.449171666667","25.081015","6501400","蘆洲區"
"247021","001-UY","2018/12/25 13:29:11","新北市五股區中興路三段2巷10號","121.449011666667","25.0808916666667","6501400","蘆洲區"
"228004","212-TW","2018/12/25 13:29:12","新北市貢寮區龍崗里石壁坑街17號","121.910533333333","24.9895966666667","6502600","貢寮區"
"228005","828-UM","2018/12/25 13:29:04","新北市貢寮區美豐里文秀坑8號","121.901941666667","25.0504333333333","6502600","貢寮區"
"207002","749-BX","2018/12/25 13:29:11","新北市萬里區崁腳里崁腳路166號","121.645075","25.1558483333333","6502800","萬里區"
"207001","662-BX","2018/12/25 13:27:54","新北市萬里區龜吼里石角路12號","121.683755","25.191375","6502800","萬里區"
"252005","AAC-283","2018/12/25 13:29:11","新北市三芝區圓山里石曹子坑38-1號","121.534945","25.2298283333333","6502100","三芝區"
"221010","269-BY","2018/12/25 13:29:21","台北市內湖區大湖山莊街219巷42號","121.599873333333","25.0894016666667","6501100","汐止區"
"221032","280-BY","2018/12/25 13:29:05","新北市汐止區水源路一段56號","121.657468333333","25.0657166666667","6501100","汐止區"
"221033","647-BX","2018/12/25 13:29:05","新北市汐止區林森街78號","121.624216666667","25.0409433333333","6501100","汐止區"
"220027","145-BY","2018/12/25 13:29:21","新北市板橋區南雅南路二段144巷46號","121.449993333333","24.997035","6500100","板橋區"
"220028","200-UY","2018/12/25 13:29:10","新北市板橋區華東街1-9號","121.448156666667","24.9949466666667","6500100","板橋區"
"220030","610-BX","2018/12/25 13:29:01","新北市板橋區華東街1-9號","121.44824","24.9949466666667","6500100","板橋區"
"220004","276-BY","2018/12/25 13:29:08","新北市板橋區華東街1-9號","121.448165","24.9949466666667","6500100","板橋區"
"220043","285-UM","2018/12/25 13:29:07","新北市板橋區民生路二段161巷1號","121.470143333333","25.0200116666667","6500100","板橋區"
"220023","303-R5","2018/12/25 13:29:14","新北市板橋區華東街1-10號","121.44821","24.9950166666667","6500100","板橋區"
"220104","560-BX","2018/12/25 13:29:09","新北市板橋區南雅南路二段1-1號","121.454686666667","25.0037883333333","6500100","板橋區"
"220052","561-BX","2018/12/25 13:29:21","新北市板橋區民生路二段120號","121.470603333333","25.0200466666667","6500100","板橋區"
"220003","630-UY","2018/12/25 13:29:21","新北市板橋區四川路二段140巷16弄28號","121.448768333333","24.9945783333333","6500100","板橋區"
"220025","687-BX","2018/12/25 13:29:01","新北市板橋區大觀路二段265巷7-7號","121.443953333333","24.9946383333333","6500100","板橋區"
"220002","741-BX","2018/12/25 13:29:16","新北市板橋區華東街1-9號","121.448098333333","24.9949466666667","6500100","板橋區"
"220022","895-R6","2018/12/25 13:29:06","新北市板橋區華東街1-10號","121.448216666667","24.995005","6500100","板橋區"
"220021","985-R7","2018/12/25 13:29:18","新北市板橋區四川路二段140巷16弄13號","121.448555","24.9935616666667","6500100","板橋區"
"220012","AAC-253","2018/12/25 13:29:17","新北市板橋區南雅南路一段1巷35號","121.457613333333","25.00644","6500100","板橋區"
"235032","KEA-2873","2018/12/25 13:29:22","新北市中和區圓通路222號","121.495388333333","24.9931233333333","6500300","中和區"
"235025","KEA-2875","2018/12/25 13:29:01","新北市中和區民治街29巷2弄6號","121.475531666667","25.0007066666667","6500300","中和區"
"235011","KEA-2876","2018/12/25 13:29:02","新北市中和區南山路282號","121.50787","24.987905","6500300","中和區"
