"lineid","car","time","location","longitude","latitude","cityid","cityname"
"234078","298-R6","2018/12/25 14:29:09","新北市永和區永貞路78號","121.52023","25.0050783333333","6500400","永和區"
"234036","336-UY","2018/12/25 14:29:02","新北市永和區環河東路四段40號","121.528715","24.9989183333333","6500400","永和區"
"234062","337-UY","2018/12/25 14:29:06","新北市永和區中正路417號","121.517043333333","25.0049116666667","6500400","永和區"
"234068","552-UM","2018/12/25 14:29:09","新北市永和區永亨路7號","121.519391666667","25.0056933333333","6500400","永和區"
"234084","553-UM","2018/12/25 14:29:10","新北市永和區光復街21號","121.516488333333","25.0174283333333","6500400","永和區"
"234028","746-BX","2018/12/25 14:29:16","新北市永和區中正路20號","121.512643333333","24.993935","6500400","永和區"
"234052","KEA-2590","2018/12/25 14:29:16","新北市永和區環河東路一段80號","121.519501666667","25.0163766666667","6500400","永和區"
"234060","AAD-866","2018/12/25 14:29:24","新北市永和區秀朗路一段175號","121.517026666667","25.0036566666667","6500400","永和區"
"234040","862-TW","2018/12/25 14:29:18","新北市永和區安樂路348號","121.5145","25.0064516666667","6500400","永和區"
"234048","863-TW","2018/12/25 14:29:22","新北市永和區保安路134號","121.508578333333","25.015445","6500400","永和區"
"234025","9371-KE","2018/12/25 14:29:19","新北市中和區中安街104-1號","121.511595","25.0010816666667","6500400","永和區"
"248017","225-UY","2018/12/25 14:29:13","新北市五股區外寮路1-8號","121.425176666667","25.0760933333333","6501500","五股區"
"234076","969-R7","2018/12/25 14:29:13","新北市永和區民族街81巷58號","121.52005","24.99659","6500400","永和區"
"234072","AAC-211","2018/12/25 14:29:18","新北市永和區環河東路一段124號","121.520685","25.0154183333333","6500400","永和區"
"234001","AAC-295","2018/12/25 14:29:09","新北市永和區大新街55號","121.515881666667","25.0084116666667","6500400","永和區"
"244002","248-BX","2018/12/25 14:14:23","新北市林口區林口路76號","121.389691666667","25.08069","6501700","林口區"
"231002","002-UM","2018/12/25 14:29:18","新北市新店區中央路31號","121.532916666667","24.9779016666667","6500600","新店區"
"231028","046-UY","2018/12/25 14:29:03","新北市新店區安康路二段101號","121.512803333333","24.9626383333333","6500600","新店區"
"231001","047-UY","2018/12/25 14:29:24","新北市新店區中正路75巷71號","121.543063333333","24.9688166666667","6500600","新店區"
"231005","106-UY","2018/12/25 14:29:22","新北市新店區北新路三段179號","121.54106","24.9842816666667","6500600","新店區"
"231020","108-UY","2018/12/25 14:29:20","新北市新店區桂山路81巷1號","121.567456666667","24.8992833333333","6500600","新店區"
"231012","187-VK","2018/12/25 14:29:13","新北市新店區中興路二段100巷2號","121.547495","24.9712216666667","6500600","新店區"
"231023","KEA-2219","2018/12/25 14:29:16","新北市新店區光明街96巷1號","121.539271666667","24.959985","6500600","新店區"
"231003","268-BY","2018/12/25 14:29:22","新北市新店區中興路一段263號","121.544728333333","24.9673166666667","6500600","新店區"
"231018","278-BY","2018/12/25 14:29:13","新北市新店區中央路149號","121.52995","24.9732266666667","6500600","新店區"
"231015","AAD-862","2018/12/25 14:29:04","新北市新店區北宜路三段221號","121.592395","24.95322","6500600","新店區"
"231038","3712-VJ","2018/12/25 14:29:10","新北市新店區溪洲路123號","121.53031","24.9634416666667","6500600","新店區"
"231027","3713-VJ","2018/12/25 14:29:09","新北市新店區北新路二段230-2號","121.543456666667","24.977735","6500600","新店區"
"231037","4716-K9","2018/12/25 14:29:17","新北市新店區車子路27號","121.504366666667","24.952255","6500600","新店區"
"231036","512-UM","2018/12/25 14:29:16","新北市新店區安祥路109巷104號","121.477553333333","24.9589816666667","6500600","新店區"
"231013","513-UM","2018/12/25 14:29:16","新北市新店區民權路90巷21號","121.536155","24.983545","6500600","新店區"
"231030","619-UM","2018/12/25 14:29:20","新北市新店區安民街65巷21-3號","121.515956666667","24.9673933333333","6500600","新店區"
"231034","641-BX","2018/12/25 14:29:04","新北市新店區車子路11號","121.502998333333","24.9520583333333","6500600","新店區"
"231035","719-UM","2018/12/25 14:28:06","新北市新店區安民街23號","121.51564","24.96488","6500600","新店區"
"231032","720-UM","2018/12/25 14:29:15","新北市新店區安業街157號","121.5215","24.9736183333333","6500600","新店區"
"231029","897-TW","2018/12/25 14:29:08","新北市新店區安康路二段382號","121.500381666667","24.95704","6500600","新店區"
"231006","898-TW","2018/12/25 14:29:13","新北市新店區北宜路二段503號","121.563445","24.9535883333333","6500600","新店區"
"231004","899-TW","2018/12/25 14:29:19","新北市新店區中正路263-2號","121.538446666667","24.9738","6500600","新店區"
"235030","003-UY","2018/12/25 14:29:21","新北市中和區中和路196巷21號","121.505068333333","24.9986633333333","6500300","中和區"
"235028","005-UY","2018/12/25 14:29:17","新北市中和區中和路90號","121.501245","25.0004566666667","6500300","中和區"
"235027","006-UY","2018/12/25 14:29:09","新北市中和區安邦街1號","121.495796666667","24.998435","6500300","中和區"
"235020","096-UM","2018/12/25 14:29:13","新北市中和區民富街94號","121.476913333333","25.0086783333333","6500300","中和區"
"235003","097-UM","2018/12/25 14:29:10","新北市中和區宜安路96號","121.510666666667","24.9977016666667","6500300","中和區"
"235004","150-BY","2018/12/25 14:16:37","新北市中和區保健路78號","121.51162","24.9962333333333","6500300","中和區"
"235022","151-BY","2018/12/25 14:29:14","新北市中和區連城路348號","121.482336666667","24.99551","6500300","中和區"
"235019","183-VK","2018/12/25 14:29:06","新北市中和區中山路三段181巷18弄37號","121.472648333333","25.004985","6500300","中和區"
"235002","185-VK","2018/12/25 14:29:15","新北市中和區自立路107號","121.521935","24.9947183333333","6500300","中和區"
"235013","186-VK","2018/12/25 14:29:10","新北市中和區景新街285巷17號","121.51037","24.99361","6500300","中和區"
"235031","255-BX","2018/12/25 14:29:24","新北市中和區新生街184號","121.48372","24.9996633333333","6500300","中和區"
"235008","293-VK","2018/12/25 14:29:11","新北市中和區景安路206號","121.504013333333","24.99091","6500300","中和區"
"235006","KEA-2878","2018/12/25 14:29:19","新北市中和區中和路350巷8弄16號","121.510206666667","25.00008","6500300","中和區"
"247011","KEA-2869","2018/12/25 14:29:09","新北市蘆洲區復興路252號","121.479865","25.0896283333333","6501400","蘆洲區"
"247005","KED-0682","2018/12/25 14:29:18","新北市蘆洲區長安街76號","121.462445","25.0802683333333","6501400","蘆洲區"
"235014","4979-A6","2018/12/25 14:29:02","新北市中和區中正路406號","121.492498333333","24.994225","6500300","中和區"
"235033","4980-A6","2018/12/25 14:29:11","新北市中和區連城路134巷18-1號","121.49523","25.00021","6500300","中和區"
"235034","558-UM","2018/12/25 14:29:06","新北市中和區泰和街46巷3號","121.49855","24.9997766666667","6500300","中和區"
"235009","565-BX","2018/12/25 14:29:17","新北市中和區景新街410巷2號","121.512748333333","24.989255","6500300","中和區"
"235018","640-BX","2018/12/25 14:29:17","新北市中和區莒光路2號","121.47183","25.0047133333333","6500300","中和區"
"235024","647-TV","2018/12/25 14:29:07","新北市中和區新生街114巷5號","121.48326","25.0023283333333","6500300","中和區"
"235010","733-UM","2018/12/25 14:29:11","新北市中和區忠孝街37巷52號","121.511086666667","24.9849433333333","6500300","中和區"
"235035","783-BX","2018/12/25 14:29:19","新北市中和區連城路467-5號","121.483526666667","24.9959766666667","6500300","中和區"
"235026","800-TS","2018/12/25 14:29:12","新北市中和區中山路二段526巷26號","121.485923333333","25.0057766666667","6500300","中和區"
"235021","801-TS","2018/12/25 14:29:21","新北市中和區中山路三段37巷1號","121.479106666667","25.0054016666667","6500300","中和區"
"235005","802-TS","2018/12/25 14:29:11","新北市永和區中和路331號","121.507536666667","24.999655","6500300","中和區"
"235016","805-TS","2018/12/25 14:29:15","新北市中和區華新街143巷68號","121.506278333333","24.9792766666667","6500300","中和區"
"235012","896-TW","2018/12/25 14:29:04","新北市中和區忠孝街60巷7號","121.511676666667","24.9838016666667","6500300","中和區"
"235017","900-TW","2018/12/25 14:29:05","新北市中和區民德路197號","121.468983333333","24.9982333333333","6500300","中和區"
"235029","911-UM","2018/12/25 14:29:17","新北市中和區永和路1-4號","121.4997","25.0030866666667","6500300","中和區"
"235015","157-BY","2018/12/25 14:29:17","新北市中和區中興街170號","121.499811666667","24.9912666666667","6500300","中和區"
"235001","AAC-213","2018/12/25 14:29:23","新北市中和區秀朗路三段10巷14弄1號","121.52513","24.99654","6500300","中和區"
"235023","AAC-215","2018/12/25 14:29:20","新北市中和區圓通路319-5號","121.492696666667","24.9907666666667","6500300","中和區"
"220013","072-UY","2018/12/25 14:29:21","新北市板橋區實踐路93巷41號","121.465781666667","25.0051283333333","6500100","板橋區"
"220034","073-UY","2018/12/25 14:29:13","新北市板橋區中正路216巷150弄2號","121.460616666667","25.019325","6500100","板橋區"
"220106","075-UY","2018/12/25 14:10:24","新北市板橋區溪城路90-2號","121.429093333333","24.9803816666667","6500100","板橋區"
"220017","AAD-861","2018/12/25 14:29:18","新北市板橋區南雅南路二段88號","121.453653333333","25.0014016666667","6500100","板橋區"
"247001","893-R6","2018/12/25 14:29:05","新北市蘆洲區永樂街38巷32號","121.458378333333","25.0896116666667","6501400","蘆洲區"
"247015","546-UM","2018/12/25 14:29:20","新北市蘆洲區中正路185巷78弄21號","121.465508333333","25.0851183333333","6501400","蘆洲區"
"247023","500-BY","2018/12/25 14:29:20","新北市蘆洲區中正路263巷2號","121.467215","25.0876383333333","6501400","蘆洲區"
"247009","336-TH","2018/12/25 14:29:06","新北市蘆洲區鷺江街1號","121.479428333333","25.0828166666667","6501400","蘆洲區"
"247019","057-VK","2018/12/25 14:29:20","新北市蘆洲區水湳街413號","121.470561666667","25.0940333333333","6501400","蘆洲區"
"247013","053-VK","2018/12/25 14:29:16","新北市蘆洲區忠孝路12-1號","121.47045","25.0841316666667","6501400","蘆洲區"
"247017","007-UY","2018/12/25 14:29:25","新北市蘆洲區復興路231號","121.480018333333","25.0898283333333","6501400","蘆洲區"
"247003","002-UY","2018/12/25 14:29:20","新北市蘆洲區長安街275號","121.458496666667","25.0842083333333","6501400","蘆洲區"
"235036","251-BX","2018/12/25 14:29:09","新北市中和區中山路二段187號","121.500381666667","25.0027983333333","6500300","中和區"
"228004","212-TW","2018/12/25 14:29:12","新北市貢寮區雙玉里田寮洋街33號","121.932265","25.0132016666667","6502600","貢寮區"
"228005","828-UM","2018/12/25 14:29:04","新北市貢寮區美豐里巫里岸9-1號","121.90194","25.0701216666667","6502600","貢寮區"
"207002","749-BX","2018/12/25 14:28:50","新北市萬里區溪底里富士坪路2-1號","121.629056666667","25.160595","6502800","萬里區"
"207001","662-BX","2018/12/25 14:29:14","新北市萬里區磺潭里清水9號","121.640346666667","25.19994","6502800","萬里區"
"252005","AAC-283","2018/12/25 14:29:11","新北市三芝區埔坪里埔頭坑147號","121.510338333333","25.2499133333333","6502100","三芝區"
"236065","105-UM","2018/12/25 14:29:06","新北市土城區永豐路211號","121.474673333333","24.9756883333333","6501300","土城區"
"236040","KED-0685","2018/12/25 14:29:11","新北市土城區學成路91巷1號","121.450668333333","24.9879333333333","6501300","土城區"
"236074","166-UM","2018/12/25 14:29:12","新北市土城區大暖路42號","121.423303333333","24.9594633333333","6501300","土城區"
"236029","253-BX","2018/12/25 14:29:11","新北市土城區水源街38-1號","121.440683333333","24.9757916666667","6501300","土城區"
"236024","269-VK","2018/12/25 14:29:11","新北市土城區承天路18號","121.439465","24.9635066666667","6501300","土城區"
"236013","270-VK","2018/12/25 14:29:01","新北市土城區青雲路39巷7號","121.460356666667","24.9875283333333","6501300","土城區"
"236032","271-VK","2018/12/25 14:29:12","新北市土城區明德路一段287巷12號","121.461015","24.9768766666667","6501300","土城區"
"247007","KED-0683","2018/12/25 14:29:21","新北市蘆洲區信義路30巷22號","121.474396666667","25.0786966666667","6501400","蘆洲區"
"236017","401-BY","2018/12/25 14:29:10","新北市土城區永豐路202巷14號","121.466541666667","24.9834183333333","6501300","土城區"
"236057","912-UM","2018/12/25 14:29:22","新北市土城區中央路四段146號","121.417376666667","24.9583716666667","6501300","土城區"
"236045","913-UM","2018/12/25 14:29:13","新北市土城區青雲路382號","121.45877","24.9732283333333","6501300","土城區"
"236060","915-UM","2018/12/25 14:29:07","新北市土城區延壽路111巷2-1號","121.469105","24.993725","6501300","土城區"
"236054","AAC-216","2018/12/25 14:29:12","新北市土城區中華路一段217號","121.442431666667","24.9842866666667","6501300","土城區"
"221010","269-BY","2018/12/25 14:29:21","新北市汐止區長青路210巷188號","121.616263333333","25.1133033333333","6501100","汐止區"
"221033","647-BX","2018/12/25 14:29:04","新北市汐止區橫科路407巷121號","121.631356666667","25.052565","6501100","汐止區"
"220027","145-BY","2018/12/25 14:29:19","新北市板橋區光正街45巷6弄19號","121.460883333333","25.0169716666667","6500100","板橋區"
"220028","200-UY","2018/12/25 14:29:19","新北市板橋區大觀路二段37巷228號","121.449451666667","25.00115","6500100","板橋區"
"220030","610-BX","2018/12/25 14:29:22","新北市板橋區金門街355號","121.428735","24.9851066666667","6500100","板橋區"
"220040","267-BY","2018/12/25 14:29:13","新北市板橋區文聖街149巷22號","121.479573333333","25.0285083333333","6500100","板橋區"
"220004","276-BY","2018/12/25 14:29:08","新北市板橋區信義路99號","121.457496666667","24.9937083333333","6500100","板橋區"
"220050","280-UM","2018/12/25 14:29:10","新北市板橋區莊敬路263巷17號","121.473085","25.0217666666667","6500100","板橋區"
"220019","283-VK","2018/12/25 14:29:24","新北市板橋區忠孝路24巷10號","121.460056666667","25.0013983333333","6500100","板橋區"
"220043","285-UM","2018/12/25 14:29:12","新北市板橋區銘傳街41號","121.468793333333","25.03123","6500100","板橋區"
"220001","285-VK","2018/12/25 14:29:13","新北市板橋區富山街53巷1弄54號","121.478006666667","25.0204933333333","6500100","板橋區"
"220031","286-VK","2018/12/25 14:29:11","新北市板橋區大觀路二段174巷193弄2號","121.442283333333","25.0039983333333","6500100","板橋區"
"220029","287-VK","2018/12/25 14:29:12","新北市板橋區大觀路一段75巷10號","121.44763","25.0043816666667","6500100","板橋區"
"220039","288-VK","2018/12/25 14:29:17","新北市板橋區龍泉街54巷8弄27號","121.457711666667","25.0269916666667","6500100","板橋區"
"220009","293-UM","2018/12/25 14:29:11","新北市板橋區漢生東路119號","121.46758","25.014695","6500100","板橋區"
"220032","296-UM","2018/12/25 14:29:15","新北市板橋區滿平街84巷110弄22號","121.425863333333","24.98585","6500100","板橋區"
"220023","303-R5","2018/12/25 14:29:14","新北市板橋區中正路293號","121.455253333333","25.019295","6500100","板橋區"
"220010","305-R5","2018/12/25 14:29:22","新北市板橋區三民路二段109巷24號","121.48054","25.015855","6500100","板橋區"
"220041","307-R5","2018/12/25 14:28:52","新北市板橋區陽明街164巷28號","121.464841666667","25.0246066666667","6500100","板橋區"
"220047","317-R6","2018/12/25 14:29:11","新北市板橋區四維路266巷2弄27號","121.46415","25.0281466666667","6500100","板橋區"
"220038","487-VK","2018/12/25 14:29:18","新北市板橋區龍泉街120號","121.457018333333","25.0242466666667","6500100","板橋區"
"220037","491-VK","2018/12/25 14:29:05","新北市板橋區雙十路二段44號","121.475786666667","25.0274883333333","6500100","板橋區"
"220104","560-BX","2018/12/25 14:29:09","新北市板橋區中正路379巷3弄42號","121.453436666667","25.0209433333333","6500100","板橋區"
"220052","561-BX","2018/12/25 14:29:21","新北市板橋區自由路37號","121.465581666667","25.0231316666667","6500100","板橋區"
"220011","609-BX","2018/12/25 14:29:10","新北市板橋區三民路一段1巷39號","121.480248333333","25.02478","6500100","板橋區"
"220003","630-UY","2018/12/25 14:29:09","新北市板橋區重慶路278巷7號","121.462591666667","24.9996133333333","6500100","板橋區"
"220005","686-BX","2018/12/25 14:29:14","新北市板橋區國慶路153號","121.461561666667","24.9960416666667","6500100","板橋區"
"220025","687-BX","2018/12/25 14:29:21","新北市板橋區大觀路一段51號","121.447583333333","25.006435","6500100","板橋區"
"220042","689-BX","2018/12/25 14:29:08","新北市板橋區長江路一段154號","121.461056666667","25.030305","6500100","板橋區"
"220002","741-BX","2018/12/25 14:25:57","新北市板橋區忠孝路215號","121.465465","25.0027183333333","6500100","板橋區"
"220051","KEA-2699","2018/12/25 14:29:18","新北市板橋區雙十路二段70巷33號","121.475968333333","25.0287183333333","6500100","板橋區"
"220014","829-TW","2018/12/25 14:29:06","新北市板橋區漢生東路279巷8號","121.471873333333","25.00898","6500100","板橋區"
"220016","830-TW","2018/12/25 14:29:12","新北市板橋區中山路二段597號","121.484978333333","25.0222466666667","6500100","板橋區"
"220105","831-TW","2018/12/25 14:29:13","新北市板橋區文化路二段451號","121.475438333333","25.0334216666667","6500100","板橋區"
"220022","895-R6","2018/12/25 14:29:06","新北市板橋區東門街1-2號","121.457956666667","25.0090466666667","6500100","板橋區"
"220021","985-R7","2018/12/25 14:29:20","新北市板橋區中正路370號","121.454501666667","25.0244133333333","6500100","板橋區"
"220046","AAC-210","2018/12/25 14:29:17","新北市板橋區文化路一段285巷1弄16號","121.46378","25.0190216666667","6500100","板橋區"
"220012","AAC-253","2018/12/25 14:29:17","新北市板橋區中山路一段137號","121.46261","25.0106233333333","6500100","板橋區"
"235032","KEA-2873","2018/12/25 14:29:22","新北市中和區福美路299號","121.497223333333","25.004725","6500300","中和區"
"235025","KEA-2875","2018/12/25 14:29:01","新北市中和區民安街2巷2號","121.480481666667","25.0013366666667","6500300","中和區"
"235011","KEA-2876","2018/12/25 14:29:02","新北市中和區景平路241巷64弄8號","121.507756666667","24.992645","6500300","中和區"
