"lineid","car","time","location","longitude","latitude","cityid","cityname"
"231002","002-UM","2018/12/25 15:29:18","新北市新店區環河路116號","121.536936666667","24.966535","6500600","新店區"
"231028","046-UY","2018/12/25 15:29:23","新北市新店區僑信路100號","121.500013333333","24.94736","6500600","新店區"
"231005","106-UY","2018/12/25 15:29:15","新北市新店區建國路297號","121.536963333333","24.9864116666667","6500600","新店區"
"231020","108-UY","2018/12/25 15:29:20","新北市新店區湖興路109號","121.560266666667","24.935545","6500600","新店區"
"231012","187-VK","2018/12/25 15:29:25","新北市新店區寶慶街5號","121.544023333333","24.98664","6500600","新店區"
"231023","KEA-2219","2018/12/25 15:29:16","新北市新店區北新路一段88巷1號","121.5417","24.9677166666667","6500600","新店區"
"231026","256-BX","2018/12/25 15:29:20","新北市新店區三民路77號","121.535991666667","24.9714533333333","6500600","新店區"
"231003","268-BY","2018/12/25 15:29:22","新北市新店區寶高路120巷1號","121.554583333333","24.9761833333333","6500600","新店區"
"231018","278-BY","2018/12/25 15:29:13","新北市新店區民生路156巷43號","121.528023333333","24.9814583333333","6500600","新店區"
"231015","AAD-862","2018/12/25 15:29:24","新北市新店區明山路25號","121.56404","24.9558433333333","6500600","新店區"
"231038","3712-VJ","2018/12/25 15:29:10","新北市新店區安一路一段1-1號","121.519791666667","24.9620916666667","6500600","新店區"
"231037","4716-K9","2018/12/25 15:29:14","新北市新店區安興路85-56號","121.513943333333","24.9755916666667","6500600","新店區"
"231025","4715-K9","2018/12/25 15:29:08","新北市新店區柴埕路34-1號","121.513468333333","24.9649966666667","6500600","新店區"
"231036","512-UM","2018/12/25 15:29:15","新北市新店區安祥路65號","121.483601666667","24.9601333333333","6500600","新店區"
"231030","619-UM","2018/12/25 15:29:20","新北市新店區安和路三段77號","121.517941666667","24.983475","6500600","新店區"
"231034","641-BX","2018/12/25 15:29:24","新北市新店區富貴街9巷2號","121.494071666667","24.9491216666667","6500600","新店區"
"231039","718-UY","2018/12/25 15:29:16","新北市新店區寶慶街35巷6號","121.543101666667","24.9863233333333","6500600","新店區"
"231035","719-UM","2018/12/25 15:29:06","新北市新店區安興路81號","121.515663333333","24.9752666666667","6500600","新店區"
"231032","720-UM","2018/12/25 15:29:23","新北市新店區和成街14巷23號","121.488903333333","24.94753","6500600","新店區"
"231029","897-TW","2018/12/25 15:29:08","新北市新店區安康路三段517號","121.48198","24.9484383333333","6500600","新店區"
"231006","898-TW","2018/12/25 15:29:13","新北市新店區安康路一段355號","121.51958","24.9631383333333","6500600","新店區"
"231004","899-TW","2018/12/25 15:29:19","新北市新店區民族路108號","121.538173333333","24.977355","6500600","新店區"
"241011","013-R5","2018/12/25 15:29:15","新北市三重區長元街105號","121.504558333333","25.0667866666667","6500200","三重區"
"241015","062-VK","2018/12/25 15:29:20","新北市三重區重新路四段121號","121.485151666667","25.0520216666667","6500200","三重區"
"241017","063-VK","2018/12/25 15:29:14","新北市三重區重新路四段121號","121.484903333333","25.05193","6500200","三重區"
"241013","270-UM","2018/12/25 15:29:22","新北市三重區重新路四段121號","121.484088333333","25.0527666666667","6500200","三重區"
"241007","398-BY","2018/12/25 15:29:07","新北市三重區重新路四段121號","121.484943333333","25.05193","6500200","三重區"
"241020","478-VK","2018/12/25 15:29:22","新北市三重區重新路四段121號","121.485161666667","25.052055","6500200","三重區"
"241012","941-UM","2018/12/25 15:29:17","新北市三重區成功路92號","121.487941666667","25.0513866666667","6500200","三重區"
"235014","4979-A6","2018/12/25 15:29:21","新北市中和區景平路385巷9弄43號","121.501958333333","24.99408","6500300","中和區"
"235033","4980-A6","2018/12/25 15:29:11","新北市中和區中正路568號","121.486546666667","24.994595","6500300","中和區"
"235046","733-UM","2018/12/25 15:25:59","新北市中和區員山路36巷13號","121.484183333333","24.99082","6500300","中和區"
"235023","AAC-215","2018/12/25 15:29:20","新北市中和區員山路28-8號","121.482695","24.9875533333333","6500300","中和區"
"236065","105-UM","2018/12/25 15:29:06","新北市土城區中央路二段280號","121.440818333333","24.97411","6501300","土城區"
"236040","KED-0685","2018/12/25 15:29:11","新北市土城區學府路一段164巷11號","121.453658333333","24.9871383333333","6501300","土城區"
"236074","166-UM","2018/12/25 15:29:05","新北市土城區龍泉路32號","121.411375","24.9471566666667","6501300","土城區"
"236029","253-BX","2018/12/25 15:29:11","新北市土城區中央路一段118巷1弄11號","121.445883333333","24.9878016666667","6501300","土城區"
"236024","269-VK","2018/12/25 15:29:18","新北市土城區明德路二段102巷14號","121.445666666667","24.9845816666667","6501300","土城區"
"236013","270-VK","2018/12/25 15:29:21","新北市土城區德興街133號","121.455028333333","24.991695","6501300","土城區"
"236032","271-VK","2018/12/25 15:29:12","新北市土城區延吉街335號","121.465058333333","24.984145","6501300","土城區"
"236017","401-BY","2018/12/25 15:29:23","新北市土城區延吉街119號","121.471083333333","24.9865166666667","6501300","土城區"
"236057","912-UM","2018/12/25 15:29:22","新北市土城區中央路一段343號","121.44326","24.9814133333333","6501300","土城區"
"236045","913-UM","2018/12/25 15:29:13","新北市土城區金城路二段390號","121.46364","24.9856816666667","6501300","土城區"
"236060","915-UM","2018/12/25 15:29:17","新北市土城區立德路135巷5弄9號","121.464576666667","24.987355","6501300","土城區"
"236054","AAC-216","2018/12/25 15:29:12","新北市土城區金城路三段14號","121.465061666667","24.9860833333333","6501300","土城區"
"220031","286-VK","2018/12/25 15:29:12","新北市板橋區僑中二街108巷12號","121.445343333333","25.0074166666667","6500100","板橋區"
"220029","287-VK","2018/12/25 15:29:12","新北市板橋區金門街215巷91弄7號","121.434695","24.9885116666667","6500100","板橋區"
