"lineid","car","time","location","longitude","latitude","cityid","cityname"
"231046","107-UY","2018/12/25 16:29:15","新北市新店區灣潭路3-2號","121.53831","24.9507966666667","6500600","新店區"
"241011","013-R5","2018/12/25 16:29:15","新北市三重區龍濱路168-1號","121.501173333333","25.0726283333333","6500200","三重區"
"241008","059-VK","2018/12/25 16:29:10","新北市三重區力行路二段136巷45弄10號","121.479176666667","25.0752833333333","6500200","三重區"
"241022","060-VK","2018/12/25 16:29:13","新北市三重區重陽路二段18巷6號","121.486475","25.062125","6500200","三重區"
"241031","061-VK","2018/12/25 16:29:21","新北市三重區重陽路一段49號","121.486763333333","25.0581933333333","6500200","三重區"
"241015","062-VK","2018/12/25 16:29:20","新北市三重區福德北路36號","121.501963333333","25.0652283333333","6500200","三重區"
"241017","063-VK","2018/12/25 16:29:14","新北市三重區大同北路61號","121.495171666667","25.0633366666667","6500200","三重區"
"241024","065-VK","2018/12/25 16:29:14","新北市三重區中正北路193巷27號","121.476215","25.0705633333333","6500200","三重區"
"241002","090-VK","2018/12/25 16:29:24","新北市三重區五華街9-1號","121.495113333333","25.0800983333333","6500200","三重區"
"241003","091-VK","2018/12/25 16:29:23","新北市三重區五華街71巷91號","121.494381666667","25.08392","6500200","三重區"
"241005","262-UM","2018/12/25 16:29:04","新北市三重區溪尾街300-2號","121.487398333333","25.08368","6500200","三重區"
"241016","266-UM","2018/12/25 16:29:05","新北市三重區大智街23號","121.494253333333","25.0658766666667","6500200","三重區"
"241009","267-UM","2018/12/25 16:29:18","新北市三重區三和路四段181巷114號","121.485008333333","25.0799416666667","6500200","三重區"
"241018","268-UM","2018/12/25 16:29:13","新北市三重區正義北路364巷33號","121.492833333333","25.07089","6500200","三重區"
"241032","269-UM","2018/12/25 16:29:10","新北市三重區三陽路100巷3弄13號","121.482948333333","25.0580916666667","6500200","三重區"
"241013","270-UM","2018/12/25 16:29:22","新北市三重區仁愛街52號","121.495991666667","25.0728033333333","6500200","三重區"
"241025","271-UM","2018/12/25 16:29:13","新北市三重區中正北路560巷100弄17號","121.472641666667","25.0686116666667","6500200","三重區"
"241007","398-BY","2018/12/25 16:29:07","新北市三重區三和路四段167巷123號","121.487575","25.0801516666667","6500200","三重區"
"241006","462-BY","2018/12/25 16:29:14","新北市三重區永福街46巷15弄8號","121.48186","25.07779","6500200","三重區"
"241004","475-VK","2018/12/25 16:29:21","新北市三重區仁愛街367-2號","121.49183","25.0804866666667","6500200","三重區"
"241020","478-VK","2018/12/25 16:29:21","新北市三重區後竹圍街205巷32號","121.484643333333","25.07261","6500200","三重區"
"241030","480-VK","2018/12/25 16:29:11","新北市三重區成功路96號","121.487703333333","25.0513966666667","6500200","三重區"
"241014","543-UM","2018/12/25 16:29:07","新北市三重區河邊北街72-6號","121.504278333333","25.06843","6500200","三重區"
"241001","547-UM","2018/12/25 16:29:23","新北市三重區福隆路34號","121.492215","25.0782733333333","6500200","三重區"
"241019","KEA-2593","2018/12/25 16:29:10","新北市三重區重陽路三段97號","121.490163333333","25.068","6500200","三重區"
"241026","743-BX","2018/12/25 16:29:18","新北市三重區文化南路42號","121.50047","25.06021","6500200","三重區"
"241023","887-TS","2018/12/25 16:29:16","新北市三重區忠孝路三段50巷45號","121.48296","25.06441","6500200","三重區"
"241012","941-UM","2018/12/25 16:29:17","新北市三重區河邊北街254號","121.501775","25.0761816666667","6500200","三重區"
"241029","942-UM","2018/12/25 16:29:15","新北市三重區集美街126巷36號","121.490356666667","25.05384","6500200","三重區"
"235065","911-UM","2018/12/25 16:29:17","新北市中和區員山路36巷16-2號","121.48525","24.9917733333333","6500300","中和區"
"224007","275-VK","2018/12/25 16:29:21","新北市瑞芳區瑞竹路91-1號","121.763975","25.1030116666667","6501200","瑞芳區"
"224005","271-BY","2018/12/25 16:29:06","新北市瑞芳區阿美家園27號","121.82147","25.1166383333333","6501200","瑞芳區"
"227003","642-TC","2018/12/25 16:29:21","新北市雙溪區上林里內平林111號","121.826123333333","25.0269516666667","6502500","雙溪區"
"227009","400-TW","2018/12/25 16:29:19","新北市雙溪區三港里雙澳路22號","121.869623333333","25.0498283333333","6502500","雙溪區"
"251014","180-VK","2018/12/25 16:29:24","新北市淡水區中山北路三段79號","121.444233333333","25.1923266666667","6501000","淡水區"
"251008","181-VK","2018/12/25 16:29:19","新北市淡水區大同路21號","121.46738","25.144635","6501000","淡水區"
"247008","KED-0683","2018/12/25 16:29:12","新北市五股區中興路三段163號","121.449258333333","25.0806716666667","6501400","蘆洲區"
