"lineid","car","time","location","longitude","latitude","cityid","cityname"
"234042","862-TW","2018/12/25 16:29:24","新北市永和區福和路1號","121.526253333333","25.0098583333333","6500400","永和區"
"249005","172-UM","2018/12/25 16:59:19","新北市八里區渡船頭3-19號","121.433953333333","25.1518083333333","6502300","八里區"
"249001","173-UM","2018/12/25 16:59:16","新北市八里區中山路三段106號","121.392216666667","25.1430333333333","6502300","八里區"
"249004","303-UY","2018/12/25 16:59:14","新北市八里區挖子尾街1-1號","121.41569","25.1653833333333","6502300","八里區"
"249002","305-UY","2018/12/25 16:57:47","新北市八里區牛寮埔22號","121.432613333333","25.1426266666667","6502300","八里區"
"249003","593-UM","2018/12/25 16:59:17","新北市八里區中山路二段315號","121.40059","25.14773","6502300","八里區"
"244025","837-TS","2018/12/25 16:59:25","新北市林口區粉寮69號","121.405076666667","25.0908266666667","6501700","林口區"
"231046","107-UY","2018/12/25 16:59:19","新北市新店區直潭路88-1號","121.531886666667","24.93815","6500600","新店區"
"241011","013-R5","2018/12/25 16:59:15","新北市三重區仁愛街55巷136號","121.499076666667","25.0728716666667","6500200","三重區"
"241028","022-UY","2018/12/25 16:59:05","新北市三重區中正南路41巷1號","121.49377","25.0599416666667","6500200","三重區"
"241008","059-VK","2018/12/25 16:59:26","新北市三重區永福街179巷38號","121.477603333333","25.0748033333333","6500200","三重區"
"241022","060-VK","2018/12/25 16:59:12","新北市三重區三民街151號","121.484198333333","25.06419","6500200","三重區"
"241031","061-VK","2018/12/25 16:59:21","新北市三重區重新路三段115巷12號","121.490336666667","25.0602883333333","6500200","三重區"
"241015","062-VK","2018/12/25 16:59:20","新北市三重區福德北路82號","121.501558333333","25.06631","6500200","三重區"
"241017","063-VK","2018/12/25 16:59:14","新北市三重區大仁街3巷41號","121.492765","25.064025","6500200","三重區"
"241024","065-VK","2018/12/25 16:58:54","新北市三重區國道路一段65號","121.480875","25.0728433333333","6500200","三重區"
"241002","090-VK","2018/12/25 16:59:24","新北市三重區仁義街225巷42號","121.497823333333","25.0830033333333","6500200","三重區"
"241003","091-VK","2018/12/25 16:59:23","新北市三重區五華街141巷58號","121.493506666667","25.0867216666667","6500200","三重區"
"241005","262-UM","2018/12/25 16:59:24","新北市三重區碧華街112巷15號","121.484338333333","25.0825583333333","6500200","三重區"
"241016","266-UM","2018/12/25 16:59:05","新北市三重區大智街12號","121.495276666667","25.06451","6500200","三重區"
"241009","267-UM","2018/12/25 16:59:18","新北市三重區溪尾街218巷50號","121.486126666667","25.0808733333333","6500200","三重區"
"241018","268-UM","2018/12/25 16:59:09","新北市三重區六張街126巷2弄26號","121.492636666667","25.0694833333333","6500200","三重區"
"241032","269-UM","2018/12/25 16:59:10","新北市三重區重陽路一段130巷11號","121.486041666667","25.0606633333333","6500200","三重區"
"241013","270-UM","2018/12/25 16:59:22","新北市三重區仁福街64巷1號","121.497901666667","25.0747066666667","6500200","三重區"
"241025","271-UM","2018/12/25 16:59:12","新北市三重區中正北路508巷9號","121.472713333333","25.071205","6500200","三重區"
"241007","398-BY","2018/12/25 16:59:21","新北市三重區溪尾街126巷55號","121.488183333333","25.0791266666667","6500200","三重區"
"241006","462-BY","2018/12/25 16:59:14","新北市三重區車路頭街117巷48號","121.48534","25.0756466666667","6500200","三重區"
"241004","475-VK","2018/12/25 16:59:22","新北市三重區五華街65號","121.492666666667","25.0825716666667","6500200","三重區"
"241020","478-VK","2018/12/25 16:59:21","新北市三重區後竹圍街175巷33號","121.485516666667","25.0731533333333","6500200","三重區"
"241030","480-VK","2018/12/25 16:59:11","新北市三重區昌隆街66號","121.491093333333","25.0509283333333","6500200","三重區"
"241014","543-UM","2018/12/25 16:59:27","新北市三重區三和路二段173巷149號","121.50128","25.0706716666667","6500200","三重區"
"241001","547-UM","2018/12/25 16:59:22","新北市三重區仁愛街245巷17號","121.494085","25.0782633333333","6500200","三重區"
"241019","KEA-2593","2018/12/25 16:59:10","新北市三重區自強路二段76號","121.48811","25.0703683333333","6500200","三重區"
"241026","743-BX","2018/12/25 16:59:18","新北市三重區文化南路42號","121.500361666667","25.0602533333333","6500200","三重區"
"241023","887-TS","2018/12/25 16:59:16","新北市三重區新北大道一段252號","121.479935","25.0616833333333","6500200","三重區"
"241012","941-UM","2018/12/25 16:59:17","新北市三重區仁和街159號","121.49952","25.0746133333333","6500200","三重區"
"241029","942-UM","2018/12/25 16:59:15","新北市三重區重安街99-2號","121.4937","25.0553033333333","6500200","三重區"
"247012","KEA-2869","2018/12/25 16:59:06","新北市蘆洲區復興路92號","121.475646666667","25.0867833333333","6501400","蘆洲區"
"247006","KED-0682","2018/12/25 16:59:22","新北市蘆洲區永安南路二段232號","121.460676666667","25.079625","6501400","蘆洲區"
"235065","911-UM","2018/12/25 16:59:17","新北市中和區員山路36巷16-2號","121.485133333333","24.991835","6500300","中和區"
"247016","546-UM","2018/12/25 16:59:24","新北市蘆洲區中正路69號","121.470373333333","25.0826783333333","6501400","蘆洲區"
"247024","500-BY","2018/12/25 16:59:14","新北市蘆洲區長興路202號","121.46062","25.0874666666667","6501400","蘆洲區"
"247010","336-TH","2018/12/25 16:59:21","新北市蘆洲區信義路213號","121.478983333333","25.083295","6501400","蘆洲區"
"247020","057-VK","2018/12/25 16:59:12","新北市蘆洲區民族路422巷35-1號","121.473565","25.0936766666667","6501400","蘆洲區"
"247014","053-VK","2018/12/25 16:59:15","新北市蘆洲區中山二路36巷29號","121.474045","25.0830883333333","6501400","蘆洲區"
"247018","007-UY","2018/12/25 16:59:06","新北市蘆洲區民族路227巷18號","121.476941666667","25.0892283333333","6501400","蘆洲區"
"247004","002-UY","2018/12/25 16:59:11","新北市蘆洲區中原路6號","121.46145","25.0835866666667","6501400","蘆洲區"
"247022","001-UY","2018/12/25 16:59:25","新北市蘆洲區三民路128巷166-1號","121.468463333333","25.09247","6501400","蘆洲區"
"228001","212-TW","2018/12/25 16:59:22","新北市貢寮區貢寮里朝陽街1-2號","121.912325","25.0212383333333","6502600","貢寮區"
"228002","663-BX","2018/12/25 16:59:04","新北市貢寮區貢寮里朝陽街106號","121.90837","25.0222366666667","6502600","貢寮區"
"228003","828-UM","2018/12/25 16:59:06","新北市貢寮區福隆里興隆街36號","121.940998333333","25.0173783333333","6502600","貢寮區"
"224006","676-BX","2018/12/25 16:59:19","新北市瑞芳區大寮路14號","121.783815","25.0993733333333","6501200","瑞芳區"
"224008","285-BY","2018/12/25 16:59:23","新北市瑞芳區明燈路一段197號","121.818703333333","25.1077833333333","6501200","瑞芳區"
"224007","275-VK","2018/12/25 16:59:10","新北市瑞芳區大埔路17-1號","121.766826666667","25.103805","6501200","瑞芳區"
"224009","273-VK","2018/12/25 16:59:18","新北市瑞芳區濱二路27-3號","121.836761666667","25.11359","6501200","瑞芳區"
"224005","271-BY","2018/12/25 16:59:06","新北市瑞芳區明里路54號","121.869055","25.1223383333333","6501200","瑞芳區"
"227003","642-TC","2018/12/25 16:59:11","新北市雙溪區長源里內柑腳45號","121.799796666667","25.01297","6502500","雙溪區"
"227009","400-TW","2018/12/25 16:59:19","新北市雙溪區牡丹里聖南31-1號","121.855266666667","25.0546483333333","6502500","雙溪區"
"251004","009-UM","2018/12/25 16:59:18","新北市淡水區中正路322-1號","121.436365","25.1728233333333","6501000","淡水區"
"251013","KEA-2871","2018/12/25 16:59:22","新北市淡水區泉洲厝32號","121.489311666667","25.1925683333333","6501000","淡水區"
"251016","179-VK","2018/12/25 16:59:28","新北市淡水區瓦坑3號","121.477568333333","25.1807633333333","6501000","淡水區"
"251014","180-VK","2018/12/25 16:59:24","新北市淡水區八里堆2號","121.453271666667","25.22396","6501000","淡水區"
"251008","181-VK","2018/12/25 16:59:19","新北市淡水區樹梅坑9號","121.472763333333","25.1426783333333","6501000","淡水區"
"251015","182-VK","2018/12/25 16:59:24","新北市淡水區忠愛街5-1號","121.460708333333","25.1716216666667","6501000","淡水區"
"251010","413-VK","2018/12/25 16:59:16","新北市淡水區中正路二段31號","121.419438333333","25.1814683333333","6501000","淡水區"
"251012","441-VK","2018/12/25 16:59:17","新北市淡水區沙崙路200號","121.424763333333","25.1840083333333","6501000","淡水區"
"251006","561-UM","2018/12/25 16:59:21","新北市淡水區中正路一段87巷1號","121.421716666667","25.1793333333333","6501000","淡水區"
"251009","575-R6","2018/12/25 16:59:19","新北市淡水區中正路一段66號","121.4253","25.1769966666667","6501000","淡水區"
"251007","577-R6","2018/12/25 16:59:09","新北市淡水區中正東路一段3巷2號","121.45043","25.1648333333333","6501000","淡水區"
"251011","650-BX","2018/12/25 16:59:12","新北市淡水區中山路42號","121.444248333333","25.1700033333333","6501000","淡水區"
"252002","178-VK","2018/12/25 16:59:10","新北市三芝區忠孝街177號","121.505285","25.2615916666667","6502100","三芝區"
"252001","292-VK","2018/12/25 16:59:11","新北市三芝區淡金路二段76號","121.503671666667","25.260885","6502100","三芝區"
"247008","KED-0683","2018/12/25 16:59:12","新北市蘆洲區中山一路135巷6弄29號","121.474628333333","25.0808266666667","6501400","蘆洲區"
"242056","751-BX","2018/12/25 16:59:15","新北市新莊區三和路12-21號","121.442225","25.03831","6500500","新莊區"
"242029","612-BX","2018/12/25 16:59:22","新北市新莊區新泰路357巷3弄57號","121.442133333333","25.0392733333333","6500500","新莊區"
"242044","566-BX","2018/12/25 16:59:27","新北市新莊區三和路12-21號","121.442361666667","25.038285","6500500","新莊區"
"242048","497-BY","2018/12/25 16:59:16","新北市新莊區三和路12-19號","121.442241666667","25.0376916666667","6500500","新莊區"
"242002","440-UM","2018/12/25 16:59:07","新北市新莊區三和路12-21號","121.441846666667","25.0387233333333","6500500","新莊區"
"242039","415-TV","2018/12/25 16:59:21","新北市新莊區新泰路255巷83號","121.442281666667","25.03892","6500500","新莊區"
"242017","KED-0687","2018/12/25 16:59:12","新北市新莊區三和路12-21號","121.442281666667","25.038025","6500500","新莊區"
"242032","348-TH","2018/12/25 16:59:25","新北市新莊區新泰路357巷3弄57號","121.442121666667","25.039385","6500500","新莊區"
"242015","351-TH","2018/12/25 16:59:10","新北市新莊區新泰路357巷3弄57號","121.442065","25.039445","6500500","新莊區"
"238015","755-BX","2018/12/25 16:59:06","新北市樹林區育德街78-1號","121.38809","24.9680366666667","6500700","樹林區"
"238023","601-UM","2018/12/25 16:59:12","新北市樹林區中山路三段125-11號","121.398678333333","24.9737783333333","6500700","樹林區"
"238019","599-UM","2018/12/25 16:59:06","新北市樹林區育德街78號","121.387568333333","24.968365","6500700","樹林區"
"238018","571-TV","2018/12/25 16:59:13","新北市樹林區八德街372號","121.40727","24.96947","6500700","樹林區"
"238022","KEA-2213","2018/12/25 16:59:17","新北市樹林區八德街624號","121.397591666667","24.9691983333333","6500700","樹林區"
"238017","283-BY","2018/12/25 16:59:18","新北市樹林區中洲街2號","121.398426666667","24.9729883333333","6500700","樹林區"
"238014","282-BY","2018/12/25 16:59:24","新北市樹林區育德街78-1號","121.387811666667","24.9681633333333","6500700","樹林區"
"239007","AAC-297","2018/12/25 16:59:23","新北市鶯歌區環河路177-2號","121.346018333333","24.93544","6500800","鶯歌區"
"239006","891-R6","2018/12/25 16:59:09","新北市鶯歌區二甲路12-2號","121.345715","24.93514","6500800","鶯歌區"
"239008","527-UM","2018/12/25 16:59:22","新北市鶯歌區二甲路13-16號","121.344488333333","24.9353333333333","6500800","鶯歌區"
"239001","417-VK","2018/12/25 16:59:07","新北市鶯歌區二甲路12-2號","121.345546666667","24.9351566666667","6500800","鶯歌區"
"239002","359-BY","2018/12/25 16:59:25","新北市鶯歌區環河路159號","121.346533333333","24.9380883333333","6500800","鶯歌區"
"239004","193-VK","2018/12/25 16:59:22","新北市鶯歌區環河路177-1號","121.346053333333","24.93571","6500800","鶯歌區"
"242019","280-VK","2018/12/25 16:59:11","新北市新莊區三和路12-21號","121.441975","25.0382066666667","6500500","新莊區"
