"lineid","car","time","location","longitude","latitude","cityid","cityname"
"249005","172-UM","2018/12/25 17:21:19","新北市五股區民義路二段130號","121.407363333333","25.1217283333333","6502300","八里區"
"249001","173-UM","2018/12/25 17:21:16","新北市八里區中華路二段165巷15號","121.408461666667","25.1515433333333","6502300","八里區"
"249004","303-UY","2018/12/25 17:21:14","新北市八里區賢三街102號","121.416776666667","25.1578","6502300","八里區"
"249002","305-UY","2018/12/25 17:19:47","新北市八里區龍米路二段71號","121.447883333333","25.1413116666667","6502300","八里區"
"249003","593-UM","2018/12/25 17:21:17","新北市八里區中山路二段315號","121.400615","25.147705","6502300","八里區"
"244007","080-UY","2018/12/25 17:21:18","新北市林口區湖子10-1號","121.387355","25.090435","6501700","林口區"
"244019","402-UM","2018/12/25 17:21:23","新北市林口區公園路165號","121.371131666667","25.0715266666667","6501700","林口區"
"244013","KEA-2802","2018/12/25 17:21:19","新北市林口區粉寮69號","121.404826666667","25.0907916666667","6501700","林口區"
"244023","483-VK","2018/12/25 17:21:13","新北市林口區隆林街96號","121.385706666667","25.075145","6501700","林口區"
"244017","485-VK","2018/12/25 17:21:10","新北市林口區中山路2號","121.396791666667","25.0784416666667","6501700","林口區"
"244009","656-BX","2018/12/25 17:21:23","新北市林口區松柏路70號","121.379585","25.091755","6501700","林口區"
"244025","837-TS","2018/12/25 17:21:25","新北市林口區民族路157號","121.367043333333","25.0764583333333","6501700","林口區"
"244021","838-TS","2018/12/25 17:21:22","新北市林口區粉寮路二段14號","121.40198","25.085585","6501700","林口區"
"231046","107-UY","2018/12/25 17:21:15","新北市新店區直潭路92號","121.53089","24.9376033333333","6500600","新店區"
"241011","013-R5","2018/12/25 17:21:15","新北市三重區河邊北街168號","121.50308","25.07321","6500200","三重區"
"241028","022-UY","2018/12/25 17:21:25","新北市三重區中正南路98號","121.494361666667","25.05867","6500200","三重區"
"241008","059-VK","2018/12/25 17:21:17","新北市三重區永福街72巷37-4號","121.480431666667","25.07633","6500200","三重區"
"241022","060-VK","2018/12/25 17:21:12","新北市三重區重陽路二段32號","121.486801666667","25.0630433333333","6500200","三重區"
"241015","062-VK","2018/12/25 17:21:20","新北市三重區福德北路89號","121.501876666667","25.06626","6500200","三重區"
"241017","063-VK","2018/12/25 17:21:14","新北市三重區大同北路52號","121.495028333333","25.0630716666667","6500200","三重區"
"241024","065-VK","2018/12/25 17:21:14","新北市三重區中正北路193巷11弄46號","121.478935","25.0706366666667","6500200","三重區"
"241002","090-VK","2018/12/25 17:21:24","新北市三重區集賢路87-1號","121.493703333333","25.08682","6500200","三重區"
"241003","091-VK","2018/12/25 17:21:23","新北市三重區富福街13號","121.49029","25.0832716666667","6500200","三重區"
"241005","262-UM","2018/12/25 17:21:24","新北市三重區永安北路二段43巷25號","121.483096666667","25.0826883333333","6500200","三重區"
"241016","266-UM","2018/12/25 17:21:25","新北市三重區大同北路97號","121.494563333333","25.06372","6500200","三重區"
"241009","267-UM","2018/12/25 17:21:18","新北市三重區仁愛街610號","121.483776666667","25.0806766666667","6500200","三重區"
"241018","268-UM","2018/12/25 17:21:09","新北市三重區大智街65號","121.492503333333","25.0680583333333","6500200","三重區"
"241032","269-UM","2018/12/25 17:21:10","新北市三重區中華路2巷7號","121.482898333333","25.0604133333333","6500200","三重區"
"241013","270-UM","2018/12/25 17:21:22","新北市三重區仁愛街82巷8號","121.495018333333","25.0734683333333","6500200","三重區"
"241025","271-UM","2018/12/25 17:21:12","新北市三重區中正北路189號","121.477365","25.0695233333333","6500200","三重區"
"241007","398-BY","2018/12/25 17:21:07","新北市三重區三和路四段145巷5號","121.484475","25.078325","6500200","三重區"
"241004","475-VK","2018/12/25 17:21:21","新北市三重區環河北路三段86號","121.496353333333","25.0858733333333","6500200","三重區"
"241020","478-VK","2018/12/25 17:21:21","新北市三重區忠孝路一段121號","121.488816666667","25.0719433333333","6500200","三重區"
"241030","480-VK","2018/12/25 17:21:11","新北市三重區集美街178號","121.490508333333","25.053225","6500200","三重區"
"241014","543-UM","2018/12/25 17:21:27","新北市三重區三和路二段89號","121.499873333333","25.06833","6500200","三重區"
"241019","KEA-2593","2018/12/25 17:21:10","新北市三重區忠孝路二段2號","121.48717","25.0714883333333","6500200","三重區"
"241023","887-TS","2018/12/25 17:21:16","新北市三重區忠孝路三段50巷54號","121.482353333333","25.0650433333333","6500200","三重區"
"241012","941-UM","2018/12/25 17:21:17","新北市三重區仁昌街74號","121.49877","25.07476","6500200","三重區"
"247012","KEA-2869","2018/12/25 17:21:26","新北市蘆洲區信義路319巷10弄3號","121.477511666667","25.0863916666667","6501400","蘆洲區"
"247006","KED-0682","2018/12/25 17:21:22","新北市蘆洲區長安街49巷7號","121.462951666667","25.079175","6501400","蘆洲區"
"235065","911-UM","2018/12/25 17:21:17","新北市中和區員山路36巷16-2號","121.485225","24.9918666666667","6500300","中和區"
"247002","893-R6","2018/12/25 17:21:07","新北市蘆洲區永樂街38巷45弄2號","121.458103333333","25.0899383333333","6501400","蘆洲區"
"247016","546-UM","2018/12/25 17:21:24","新北市蘆洲區正和街96巷43號","121.467358333333","25.0816583333333","6501400","蘆洲區"
"247024","500-BY","2018/12/25 17:21:14","新北市蘆洲區光榮路2號","121.460225","25.086375","6501400","蘆洲區"
"247010","336-TH","2018/12/25 17:21:21","新北市蘆洲區三民路26巷13號","121.476671666667","25.0828516666667","6501400","蘆洲區"
"247020","057-VK","2018/12/25 17:21:12","新北市蘆洲區仁愛街35巷15弄6號","121.471503333333","25.0925483333333","6501400","蘆洲區"
"247014","053-VK","2018/12/25 17:21:15","新北市蘆洲區忠孝路12-1號","121.470501666667","25.0840616666667","6501400","蘆洲區"
"247018","007-UY","2018/12/25 17:21:26","新北市蘆洲區民權路96巷1弄2號","121.474441666667","25.0882866666667","6501400","蘆洲區"
"247004","002-UY","2018/12/25 17:21:11","新北市蘆洲區中原路51號","121.459263333333","25.08223","6501400","蘆洲區"
"247022","001-UY","2018/12/25 17:21:25","新北市蘆洲區民義街8號","121.470996666667","25.0883116666667","6501400","蘆洲區"
"228001","212-TW","2018/12/25 17:21:22","新北市貢寮區仁理村尖山腳街18-3號","121.925535","25.04845","6502600","貢寮區"
"228002","663-BX","2018/12/25 17:21:24","新北市貢寮區雙玉里田寮洋街38-1號","121.926793333333","25.0143","6502600","貢寮區"
"228003","828-UM","2018/12/25 17:21:26","新北市貢寮區福隆里興隆街13-6號","121.944095","25.0166416666667","6502600","貢寮區"
"224010","AGQ-8101","2018/12/25 17:20:49","新北市瑞芳區逢甲路6號","121.811833333333","25.108185","6501200","瑞芳區"
"224006","676-BX","2018/12/25 17:21:18","新北市瑞芳區傑魚坑路245巷2號","121.78842","25.1063","6501200","瑞芳區"
"224008","285-BY","2018/12/25 17:21:23","新北市瑞芳區九芎橋路4-2號","121.83211","25.0907783333333","6501200","瑞芳區"
"224009","273-VK","2018/12/25 17:21:18","新北市瑞芳區汽車路50-2號","121.845781666667","25.1110566666667","6501200","瑞芳區"
"224005","271-BY","2018/12/25 17:21:26","新北市瑞芳區鼻頭路247號","121.912701666667","25.1239583333333","6501200","瑞芳區"
"227003","642-TC","2018/12/25 17:21:11","新北市雙溪區上林里內平林90號","121.827596666667","25.0274983333333","6502500","雙溪區"
"227009","400-TW","2018/12/25 17:21:19","新北市雙溪區三貂里十三層41號","121.855308333333","25.081425","6502500","雙溪區"
"251004","009-UM","2018/12/25 17:16:11","新北市淡水區中正東路二段88巷15號","121.459101666667","25.1505183333333","6501000","淡水區"
"251013","KEA-2871","2018/12/25 17:21:22","新北市淡水區大竹圍1號","121.46993","25.1952333333333","6501000","淡水區"
"251016","179-VK","2018/12/25 17:21:08","新北市淡水區社厝坑5-1號","121.470386666667","25.1895916666667","6501000","淡水區"
"251014","180-VK","2018/12/25 17:21:24","新北市淡水區八里堆16號","121.469331666667","25.224615","6501000","淡水區"
"251008","181-VK","2018/12/25 17:21:19","新北市淡水區大同路218號","121.4654","25.141475","6501000","淡水區"
"251015","182-VK","2018/12/25 17:21:24","新北市淡水區樹林口16號","121.477575","25.167275","6501000","淡水區"
"251010","413-VK","2018/12/25 17:21:16","新北市淡水區中正路二段211號","121.42622","25.1891466666667","6501000","淡水區"
"251012","441-VK","2018/12/25 17:21:17","新北市淡水區北新路53號","121.445748333333","25.17811","6501000","淡水區"
"251005","443-VK","2018/12/25 17:13:37","新北市淡水區中正東路38號","121.449726666667","25.1655166666667","6501000","淡水區"
"251006","561-UM","2018/12/25 17:21:21","新北市淡水區大智街17號","121.441938333333","25.1744683333333","6501000","淡水區"
"251009","575-R6","2018/12/25 17:21:24","新北市淡水區新生街78號","121.438986666667","25.17475","6501000","淡水區"
"251007","577-R6","2018/12/25 17:21:08","新北市淡水區民生路47-4號","121.462098333333","25.1379933333333","6501000","淡水區"
"251011","650-BX","2018/12/25 17:21:12","新北市淡水區坪頂路251號","121.469746666667","25.1620833333333","6501000","淡水區"
"251002","672-BX","2018/12/25 17:21:17","新北市淡水區中正路二段31號","121.419371666667","25.1817583333333","6501000","淡水區"
"251003","673-BX","2018/12/25 17:21:22","新北市淡水區中正路一段49號","121.424636666667","25.1773533333333","6501000","淡水區"
"207003","550-UM","2018/12/25 17:21:24","新北市萬里區萬里里獅頭路1號","121.691471666667","25.1780516666667","6502800","萬里區"
"252002","178-VK","2018/12/25 17:21:10","新北市三芝區忠孝街1-14號","121.50554","25.2539633333333","6502100","三芝區"
"252001","292-VK","2018/12/25 17:21:11","新北市三芝區淡金路一段3號","121.498093333333","25.2596283333333","6502100","三芝區"
"237016","649-BX","2018/12/25 17:21:08","新北市三峽區中山路459巷163-3號","121.348676666667","24.9327333333333","6500900","三峽區"
"247008","KED-0683","2018/12/25 17:21:12","新北市蘆洲區永安北路一段72巷40號","121.476315","25.0769916666667","6501400","蘆洲區"
"242037","AAC-296","2018/12/25 17:21:16","新北市新莊區新樹路40號","121.437861666667","25.0284033333333","6500500","新莊區"
"242058","986-R7","2018/12/25 17:21:21","新北市新莊區中正路400號","121.441925","25.0342716666667","6500500","新莊區"
"242056","751-BX","2018/12/25 17:21:15","新北市新莊區新莊路658號","121.442426666667","25.03289","6500500","新莊區"
"242027","615-BX","2018/12/25 17:21:20","新北市新莊區中港路316號","121.45234","25.04552","6500500","新莊區"
"242025","613-BX","2018/12/25 17:21:08","新北市新莊區中和街51號","121.447946666667","25.0445783333333","6500500","新莊區"
"242029","612-BX","2018/12/25 17:21:22","新北市新莊區幸福路612號","121.45166","25.0492433333333","6500500","新莊區"
"242044","566-BX","2018/12/25 17:21:27","新北市新莊區中正路585號","121.434378333333","25.032605","6500500","新莊區"
"242048","497-BY","2018/12/25 17:21:16","新北市新莊區龍安路255號","121.419736666667","25.0200216666667","6500500","新莊區"
"242021","442-UM","2018/12/25 17:21:11","新北市新莊區中港路50號","121.455456666667","25.0383966666667","6500500","新莊區"
"242054","441-UM","2018/12/25 17:21:21","新北市新莊區環河路508-1號","121.438326666667","25.01555","6500500","新莊區"
"242002","440-UM","2018/12/25 17:21:27","新北市新莊區瓊林路46-9號","121.447166666667","25.0290616666667","6500500","新莊區"
"242039","415-TV","2018/12/25 17:21:21","新北市新莊區民安路304號","121.428285","25.0218916666667","6500500","新莊區"
"242009","413-TV","2018/12/25 17:21:07","新北市新莊區中平路377巷28號","121.442491666667","25.0529033333333","6500500","新莊區"
"242046","400-BY","2018/12/25 17:21:10","新北市新莊區新泰路357巷3弄57號","121.442395","25.039695","6500500","新莊區"
"242023","362-BY","2018/12/25 17:21:25","新北市新莊區中港路306號","121.452566666667","25.0450333333333","6500500","新莊區"
"242061","353-BY","2018/12/25 17:21:17","新北市新莊區新樹路69-67號","121.442115","25.0294783333333","6500500","新莊區"
"242011","132-UY","2018/12/25 17:21:13","新北市新莊區中和街59巷28號","121.446228333333","25.0467933333333","6500500","新莊區"
"242034","135-UY","2018/12/25 17:21:14","新北市新莊區瓊林路100巷1號","121.44363","25.026475","6500500","新莊區"
"242051","172-VK","2018/12/25 17:21:11","新北市新莊區瓊林南路75-2號","121.434951666667","25.0142016666667","6500500","新莊區"
"242013","173-VK","2018/12/25 17:21:11","新北市新莊區三和路12-21號","121.442083333333","25.0385816666667","6500500","新莊區"
"242007","176-VK","2018/12/25 17:21:23","新北市新莊區中華路二段20-1號","121.453296666667","25.0446533333333","6500500","新莊區"
"242017","KED-0687","2018/12/25 17:21:12","新北市新莊區中平路82巷29號","121.446008333333","25.0449433333333","6500500","新莊區"
"242032","348-TH","2018/12/25 17:21:25","新北市新莊區新泰路357巷3弄57號","121.442355","25.0396233333333","6500500","新莊區"
"242005","349-TH","2018/12/25 17:21:16","新北市新莊區復興路一段147號","121.450336666667","25.0433133333333","6500500","新莊區"
"242015","351-TH","2018/12/25 17:21:10","新北市新莊區公園一路112-1號","121.444903333333","25.0375266666667","6500500","新莊區"
"238015","755-BX","2018/12/25 17:21:26","新北市樹林區大安路269號","121.419031666667","24.993655","6500700","樹林區"
"238023","601-UM","2018/12/25 17:21:12","新北市樹林區中正路439-1號","121.415086666667","25.0087866666667","6500700","樹林區"
"238019","599-UM","2018/12/25 17:21:25","新北市樹林區八德街251巷9號","121.422218333333","24.97865","6500700","樹林區"
"238018","571-TV","2018/12/25 17:21:26","新北市樹林區鎮前街281-4號","121.418338333333","24.9850083333333","6500700","樹林區"
"238024","5061-A6","2018/12/25 17:21:06","新北市樹林區樹新路38號","121.4273","24.9948333333333","6500700","樹林區"
"238022","KEA-2213","2018/12/25 17:21:17","新北市樹林區和平街43號","121.423225","24.9817483333333","6500700","樹林區"
"238021","KEA-2539","2018/12/25 17:21:12","新北市樹林區西圳街一段56號","121.40085","24.9621483333333","6500700","樹林區"
"238025","303-VK","2018/12/25 17:21:06","新北市樹林區保安二街125號","121.423075","24.9954966666667","6500700","樹林區"
"238017","283-BY","2018/12/25 17:21:18","新北市樹林區光武街35號","121.416591666667","25.00666","6500700","樹林區"
"238014","282-BY","2018/12/25 17:21:24","新北市樹林區長壽街70巷33弄1號","121.421288333333","24.99493","6500700","樹林區"
"238020","268-VK","2018/12/25 17:21:07","新北市樹林區千歲街184號","121.428825","25.0010433333333","6500700","樹林區"
"238026","172-UY","2018/12/25 17:20:52","新北市樹林區東順街97-1號","121.408801666667","24.9759866666667","6500700","樹林區"
"238016","169-UY","2018/12/25 17:21:27","新北市樹林區中山路一段241號","121.42062","24.9866966666667","6500700","樹林區"
"239007","AAC-297","2018/12/25 17:21:23","新北市鶯歌區建國路126號","121.351775","24.9540216666667","6500800","鶯歌區"
"239006","891-R6","2018/12/25 17:21:28","新北市鶯歌區福昌街30號","121.332751666667","24.961045","6500800","鶯歌區"
"239008","527-UM","2018/12/25 17:21:22","新北市鶯歌區大湖路530巷2-2號","121.337603333333","24.9722916666667","6500800","鶯歌區"
"239005","526-UM","2018/12/25 17:21:27","新北市鶯歌區福德三街11號","121.329798333333","24.967545","6500800","鶯歌區"
"239001","417-VK","2018/12/25 17:21:14","新北市鶯歌區黃厝街33號","121.342958333333","24.945585","6500800","鶯歌區"
"239003","360-BY","2018/12/25 17:21:08","新北市鶯歌區德昌街98號","121.332353333333","24.9602383333333","6500800","鶯歌區"
"239002","359-BY","2018/12/25 17:21:05","新北市鶯歌區南雅路16號","121.349408333333","24.9541516666667","6500800","鶯歌區"
"239004","193-VK","2018/12/25 17:21:22","新北市鶯歌區文化路256巷20號","121.352111666667","24.9477183333333","6500800","鶯歌區"
"242042","281-VK","2018/12/25 17:19:40","新北市新莊區新樹路52號","121.437226666667","25.0266616666667","6500500","新莊區"
"242019","280-VK","2018/12/25 17:21:11","新北市新莊區中平路84號","121.444878333333","25.0449133333333","6500500","新莊區"
