"lineid","car","time","location","longitude","latitude","cityid","cityname"
"234026","9371-KE","2018/12/25 17:31:18","新北市永和區豫溪街33號","121.516501666667","25.0099016666667","6500400","永和區"
"249005","172-UM","2018/12/25 17:31:19","新北市八里區荖阡坑路32-1號","121.404405","25.1280316666667","6502300","八里區"
"249001","173-UM","2018/12/25 17:31:16","新北市八里區大崁腳41-3號","121.42601","25.1593566666667","6502300","八里區"
"249004","303-UY","2018/12/25 17:31:14","新北市八里區民治街54號","121.414585","25.1577083333333","6502300","八里區"
"249002","305-UY","2018/12/25 17:29:47","新北市八里區石壁腳9-5號","121.445456666667","25.1343783333333","6502300","八里區"
"249003","593-UM","2018/12/25 17:31:17","新北市八里區中山路二段275號","121.402068333333","25.1488133333333","6502300","八里區"
"232011","375-UM","2018/12/25 17:31:08","新北市坪林區北宜路八段553號","121.717831666667","24.9101","6502000","坪林區"
"244007","080-UY","2018/12/25 17:31:18","新北市林口區中湖47號","121.38282","25.095285","6501700","林口區"
"244019","402-UM","2018/12/25 17:31:28","新北市林口區文化一路一段89-6號","121.371605","25.0706866666667","6501700","林口區"
"244013","KEA-2802","2018/12/25 17:31:19","新北市林口區中山路52號","121.39517","25.0784433333333","6501700","林口區"
"244023","483-VK","2018/12/25 17:31:13","新北市林口區興林一街107號","121.391708333333","25.0726133333333","6501700","林口區"
"244017","485-VK","2018/12/25 17:31:10","新北市林口區文化一路二段202號","121.383373333333","25.0806716666667","6501700","林口區"
"244009","656-BX","2018/12/25 17:31:13","新北市林口區中湖39-54號","121.38506","25.086125","6501700","林口區"
"244011","701-TV","2018/12/25 17:31:15","新北市林口區仁愛路一段384號","121.387626666667","25.0768966666667","6501700","林口區"
"244025","837-TS","2018/12/25 17:31:25","新北市林口區文化二路一段241巷28號","121.366161666667","25.07169","6501700","林口區"
"244021","838-TS","2018/12/25 17:31:22","新北市林口區東林街23號","121.395826666667","25.07906","6501700","林口區"
"231046","107-UY","2018/12/25 17:31:15","新北市新店區直潭路92號","121.530906666667","24.937605","6500600","新店區"
"241011","013-R5","2018/12/25 17:31:15","新北市三重區河邊北街122-1號","121.503635","25.0714116666667","6500200","三重區"
"241028","022-UY","2018/12/25 17:31:25","新北市三重區新北大道一段56號","121.487463333333","25.0614883333333","6500200","三重區"
"241015","062-VK","2018/12/25 17:31:20","新北市三重區三和路一段39巷11號","121.504095","25.065305","6500200","三重區"
"241017","063-VK","2018/12/25 17:31:24","新北市三重區大同北路34巷44號","121.4938","25.0621583333333","6500200","三重區"
"241024","065-VK","2018/12/25 17:31:14","新北市三重區大勇街82巷17號","121.479513333333","25.071865","6500200","三重區"
"241005","262-UM","2018/12/25 17:31:24","新北市三重區永安北路二段5巷20號","121.482378333333","25.0811983333333","6500200","三重區"
"241016","266-UM","2018/12/25 17:31:05","新北市三重區信義西街138號","121.495408333333","25.0642083333333","6500200","三重區"
"241007","398-BY","2018/12/25 17:31:27","新北市三重區三和路四段145巷223號","121.488881666667","25.0796183333333","6500200","三重區"
"241020","478-VK","2018/12/25 17:31:21","新北市三重區忠孝路三段84巷5號","121.480188333333","25.0644066666667","6500200","三重區"
"241030","480-VK","2018/12/25 17:30:51","新北市三重區中正南路269號","121.492936666667","25.05252","6500200","三重區"
"241014","543-UM","2018/12/25 17:31:07","新北市三重區長壽街79-1號","121.502066666667","25.068575","6500200","三重區"
"241019","KEA-2593","2018/12/25 17:31:10","新北市三重區自強路二段26巷27號","121.488643333333","25.0689766666667","6500200","三重區"
"241023","887-TS","2018/12/25 17:31:16","新北市三重區忠孝路三段84巷30號","121.481538333333","25.0641483333333","6500200","三重區"
"241012","941-UM","2018/12/25 17:31:17","新北市三重區仁興街39巷28號","121.500476666667","25.0763633333333","6500200","三重區"
"247012","KEA-2869","2018/12/25 17:31:06","新北市蘆洲區民族路31號","121.477476666667","25.0848816666667","6501400","蘆洲區"
"247006","KED-0682","2018/12/25 17:31:22","新北市蘆洲區光華路185-1號","121.465116666667","25.080905","6501400","蘆洲區"
"235065","911-UM","2018/12/25 17:31:17","新北市中和區員山路36巷16-2號","121.48525","24.991855","6500300","中和區"
"247002","893-R6","2018/12/25 17:31:07","新北市蘆洲區環堤大道204號","121.45719","25.0911283333333","6501400","蘆洲區"
"247016","546-UM","2018/12/25 17:31:24","新北市蘆洲區光華路22巷53號","121.468066666667","25.0849733333333","6501400","蘆洲區"
"247024","500-BY","2018/12/25 17:31:14","新北市蘆洲區長榮路478號","121.460248333333","25.0894083333333","6501400","蘆洲區"
"247010","336-TH","2018/12/25 17:31:21","新北市蘆洲區集賢路406號","121.479905","25.081875","6501400","蘆洲區"
"247020","057-VK","2018/12/25 17:31:16","新北市蘆洲區水湳街257號","121.469476666667","25.0923883333333","6501400","蘆洲區"
"247014","053-VK","2018/12/25 17:31:15","新北市蘆洲區三民路38-2號","121.475521666667","25.082975","6501400","蘆洲區"
"247018","007-UY","2018/12/25 17:31:26","新北市蘆洲區民義街26號","121.471546666667","25.0886383333333","6501400","蘆洲區"
"247004","002-UY","2018/12/25 17:31:11","新北市蘆洲區長安街233巷20號","121.458621666667","25.082555","6501400","蘆洲區"
"247022","001-UY","2018/12/25 17:31:25","新北市蘆洲區三民路289號","121.466953333333","25.0902716666667","6501400","蘆洲區"
"228001","212-TW","2018/12/25 17:31:22","新北市貢寮區仁理村仁愛路114號","121.92713","25.05468","6502600","貢寮區"
"228002","663-BX","2018/12/25 17:31:24","新北市貢寮區福隆里福隆街4號","121.944796666667","25.0159666666667","6502600","貢寮區"
"228003","828-UM","2018/12/25 17:31:26","新北市貢寮區仁理村仁和路2-2號","121.923233333333","25.0485466666667","6502600","貢寮區"
"224010","AGQ-8101","2018/12/25 17:31:07","新北市瑞芳區岳王路15號","121.807245","25.1108966666667","6501200","瑞芳區"
"224006","676-BX","2018/12/25 17:31:18","新北市瑞芳區靜安路四段63-1號","121.79329","25.1085883333333","6501200","瑞芳區"
"224008","285-BY","2018/12/25 17:31:22","新北市瑞芳區九芎橋路118號","121.833255","25.0939116666667","6501200","瑞芳區"
"224009","273-VK","2018/12/25 17:31:18","新北市瑞芳區崙頂路3號","121.846688333333","25.1066366666667","6501200","瑞芳區"
"224005","271-BY","2018/12/25 17:31:06","新北市瑞芳區洞頂路319號","121.85976","25.1236166666667","6501200","瑞芳區"
"227003","642-TC","2018/12/25 17:31:11","新北市雙溪區平林里梅竹蹊67號","121.842505","25.0306966666667","6502500","雙溪區"
"251004","009-UM","2018/12/25 17:16:11","新北市淡水區中正東路二段88巷15號","121.459101666667","25.1505183333333","6501000","淡水區"
"251013","KEA-2871","2018/12/25 17:31:02","新北市淡水區大竹圍5號","121.466575","25.1952233333333","6501000","淡水區"
"251016","179-VK","2018/12/25 17:31:08","新北市淡水區埤島75號","121.454313333333","25.1945433333333","6501000","淡水區"
"251014","180-VK","2018/12/25 17:31:24","新北市淡水區水碓7-1號","121.477205","25.2228566666667","6501000","淡水區"
"251008","181-VK","2018/12/25 17:31:19","新北市淡水區民富街121號","121.462268333333","25.1408233333333","6501000","淡水區"
"251015","182-VK","2018/12/25 17:31:24","新北市淡水區三空泉19號","121.474435","25.1660033333333","6501000","淡水區"
"251010","413-VK","2018/12/25 17:31:16","新北市淡水區中正路二段150-6號","121.423278333333","25.187875","6501000","淡水區"
"251012","441-VK","2018/12/25 17:31:17","新北市淡水區北新路135號","121.44936","25.1789033333333","6501000","淡水區"
"251005","443-VK","2018/12/25 17:13:37","新北市淡水區中正東路38號","121.449726666667","25.1655166666667","6501000","淡水區"
"251006","561-UM","2018/12/25 17:31:21","新北市淡水區大仁街19號","121.442438333333","25.175215","6501000","淡水區"
"251009","575-R6","2018/12/25 17:31:19","新北市淡水區真理街2號","121.438808333333","25.1730133333333","6501000","淡水區"
"251007","577-R6","2018/12/25 17:31:28","新北市淡水區民生路49號","121.46254","25.1381483333333","6501000","淡水區"
"251011","650-BX","2018/12/25 17:31:12","新北市淡水區坪頂路712號","121.4825","25.1584733333333","6501000","淡水區"
"251002","672-BX","2018/12/25 17:31:17","新北市淡水區中正路257號","121.433056666667","25.1745166666667","6501000","淡水區"
"251003","673-BX","2018/12/25 17:31:22","新北市淡水區中山路158號","121.440778333333","25.1728733333333","6501000","淡水區"
"207003","550-UM","2018/12/25 17:31:24","新北市萬里區龜吼里亭路11號","121.683358333333","25.1905816666667","6502800","萬里區"
"207004","225-TW","2018/12/25 17:31:14","新北市萬里區萬里里景美路3號","121.68361","25.17212","6502800","萬里區"
"252002","178-VK","2018/12/25 17:31:10","新北市三芝區忠孝街1-14號","121.505523333333","25.2539483333333","6502100","三芝區"
"252001","292-VK","2018/12/25 17:31:11","新北市三芝區淡金路一段3號","121.498083333333","25.259625","6502100","三芝區"
"237016","649-BX","2018/12/25 17:31:08","新北市三峽區民權街229號","121.367801666667","24.9279766666667","6500900","三峽區"
"247008","KED-0683","2018/12/25 17:31:13","新北市蘆洲區民生街51-1號","121.474881666667","25.0785833333333","6501400","蘆洲區"
"242037","AAC-296","2018/12/25 17:31:16","新北市新莊區建國一路288巷50號","121.434325","25.02589","6500500","新莊區"
"242058","986-R7","2018/12/25 17:31:24","新北市新莊區中正路466號","121.438965","25.0333816666667","6500500","新莊區"
"242056","751-BX","2018/12/25 17:31:15","新北市新莊區新泰路2-2號","121.449763333333","25.0325783333333","6500500","新莊區"
"242027","615-BX","2018/12/25 17:31:20","新北市新莊區思源路70號","121.460158333333","25.0447183333333","6500500","新莊區"
"242025","613-BX","2018/12/25 17:31:28","新北市新莊區復興路二段31號","121.454288333333","25.0440766666667","6500500","新莊區"
"242029","612-BX","2018/12/25 17:31:22","新北市新莊區復興路二段172號","121.458305","25.044365","6500500","新莊區"
"242044","566-BX","2018/12/25 17:31:07","新北市新莊區富國路101-1號","121.421311666667","25.0255333333333","6500500","新莊區"
"242048","497-BY","2018/12/25 17:31:16","新北市新莊區四維路210號","121.421338333333","25.0201166666667","6500500","新莊區"
"242021","442-UM","2018/12/25 17:31:16","新北市新莊區中華路一段33-1號","121.451968333333","25.0376166666667","6500500","新莊區"
"242054","441-UM","2018/12/25 17:31:22","新北市新莊區瓊林南路311號","121.433858333333","25.00599","6500500","新莊區"
"242002","440-UM","2018/12/25 17:31:07","新北市新莊區新莊路211號","121.455286666667","25.0354233333333","6500500","新莊區"
"242039","415-TV","2018/12/25 17:31:21","新北市新莊區民安東路27號","121.428373333333","25.02093","6500500","新莊區"
"242009","413-TV","2018/12/25 17:31:13","新北市新莊區中原路109號","121.455778333333","25.0542866666667","6500500","新莊區"
"242046","400-BY","2018/12/25 17:31:10","新北市新莊區新樹路67巷2號","121.439163333333","25.0300133333333","6500500","新莊區"
"242023","362-BY","2018/12/25 17:31:25","新北市新莊區公園路49號","121.453453333333","25.0401683333333","6500500","新莊區"
"242061","353-BY","2018/12/25 17:31:17","新北市新莊區瓊林南路50號","121.43579","25.017335","6500500","新莊區"
"242011","132-UY","2018/12/25 17:31:13","新北市新莊區中港路487號","121.45218","25.049945","6500500","新莊區"
"242034","135-UY","2018/12/25 17:31:14","新北市新莊區新莊路495號","121.44869","25.0333483333333","6500500","新莊區"
"242051","172-VK","2018/12/25 17:31:11","新北市新莊區新樹路449巷8弄2號","121.433148333333","25.0136133333333","6500500","新莊區"
"242013","173-VK","2018/12/25 17:31:11","新北市新莊區中誠街18號","121.451948333333","25.0482616666667","6500500","新莊區"
"242007","176-VK","2018/12/25 17:31:28","新北市新莊區自強街71號","121.45473","25.04745","6500500","新莊區"
"242017","KED-0687","2018/12/25 17:31:12","新北市新莊區德豐街4號","121.45164","25.0439683333333","6500500","新莊區"
"242032","348-TH","2018/12/25 17:31:26","新北市新莊區新泰路417號","121.44319","25.044415","6500500","新莊區"
"242005","349-TH","2018/12/25 17:31:16","新北市新莊區中港路288巷22號","121.45367","25.0446566666667","6500500","新莊區"
"242015","351-TH","2018/12/25 17:31:26","新北市新莊區新泰路185號","121.447411666667","25.0376716666667","6500500","新莊區"
"238015","755-BX","2018/12/25 17:31:05","新北市樹林區長壽街58號","121.422265","24.994055","6500700","樹林區"
"238023","601-UM","2018/12/25 17:31:12","新北市樹林區三福街114號","121.406455","25.0163283333333","6500700","樹林區"
"238019","599-UM","2018/12/25 17:31:06","新北市樹林區太平路7號","121.419015","24.9838883333333","6500700","樹林區"
"238018","571-TV","2018/12/25 17:31:13","新北市樹林區鎮前街157號","121.423925","24.98886","6500700","樹林區"
"238024","5061-A6","2018/12/25 17:31:06","新北市樹林區忠孝街67巷4號","121.424525","24.98143","6500700","樹林區"
"238022","KEA-2213","2018/12/25 17:31:17","新北市樹林區仁愛街10號","121.421663333333","24.9816383333333","6500700","樹林區"
"238021","KEA-2539","2018/12/25 17:31:12","新北市樹林區佳園路二段41號","121.39186","24.96269","6500700","樹林區"
"238025","303-VK","2018/12/25 17:31:16","新北市樹林區保安街二段22-1號","121.415508333333","25.0017083333333","6500700","樹林區"
"238017","283-BY","2018/12/25 17:31:19","新北市樹林區三德街1號","121.412663333333","25.0127766666667","6500700","樹林區"
"238014","282-BY","2018/12/25 17:31:24","新北市樹林區保安街一段282號","121.41938","24.997155","6500700","樹林區"
"238020","268-VK","2018/12/25 17:31:07","新北市樹林區俊英街90號","121.427765","25.004885","6500700","樹林區"
"238026","172-UY","2018/12/25 17:31:12","新北市樹林區中山路三段39號","121.401175","24.9753666666667","6500700","樹林區"
"238016","169-UY","2018/12/25 17:31:27","新北市樹林區長壽街28巷4弄10號","121.423535","24.9942633333333","6500700","樹林區"
"239007","AAC-297","2018/12/25 17:31:23","新北市鶯歌區光明街232號","121.341401666667","24.9559216666667","6500800","鶯歌區"
"239006","891-R6","2018/12/25 17:31:09","新北市鶯歌區鳳鳴路45號","121.333441666667","24.9654216666667","6500800","鶯歌區"
"239008","527-UM","2018/12/25 17:31:22","桃園市龜山區宏德司法新村4號","121.331111666667","24.979335","6500800","鶯歌區"
"239005","526-UM","2018/12/25 17:30:27","新北市鶯歌區福隆一街56號","121.324788333333","24.9712316666667","6500800","鶯歌區"
"239001","417-VK","2018/12/25 17:31:26","新北市鶯歌區中正三路153-1號","121.336586666667","24.9401016666667","6500800","鶯歌區"
"239003","360-BY","2018/12/25 17:31:25","新北市鶯歌區鶯桃路283號","121.335125","24.96007","6500800","鶯歌區"
"239002","359-BY","2018/12/25 17:31:25","新北市鶯歌區育才街77號","121.34728","24.9546","6500800","鶯歌區"
"239004","193-VK","2018/12/25 17:31:22","新北市鶯歌區三鶯路29巷8號","121.355388333333","24.9410783333333","6500800","鶯歌區"
"221008","489-VK","2018/12/25 17:31:16","新北市汐止區康寧街901號","121.651346666667","25.0751083333333","6501100","汐止區"
"221021","299-VK","2018/12/25 17:31:26","新北市汐止區汐萬路一段256巷3號","121.65212","25.074925","6501100","汐止區"
"242042","281-VK","2018/12/25 17:31:20","新北市新莊區新樹路113巷32號","121.438656666667","25.0267266666667","6500500","新莊區"
"242019","280-VK","2018/12/25 17:31:24","新北市新莊區中港路78號","121.45549","25.039075","6500500","新莊區"
