"lineid","car","time","location","longitude","latitude","cityid","cityname"
"234046","148-BY","2018/12/25 18:41:14","新北市永和區永元路40巷41號","121.523591666667","25.0006616666667","6500400","永和區"
"234081","298-R6","2018/12/25 18:41:16","新北市永和區林森路81號","121.523945","25.0038516666667","6500400","永和區"
"234038","336-UY","2018/12/25 18:41:25","新北市永和區福和路1號","121.526633333333","25.010155","6500400","永和區"
"234070","552-UM","2018/12/25 18:41:28","新北市永和區福和路1號","121.525998333333","25.00912","6500400","永和區"
"234086","553-UM","2018/12/25 18:41:25","新北市中和區安樂路71-1號","121.512495","24.9940366666667","6500400","永和區"
"234017","745-BX","2018/12/25 18:41:12","新北市永和區豫溪街217巷15號","121.524991666667","25.0101166666667","6500400","永和區"
"234030","746-BX","2018/12/25 18:41:22","新北市永和區得和路325號","121.523463333333","24.9996583333333","6500400","永和區"
"234007","839-RS","2018/12/25 18:41:20","新北市永和區環河西路二段79號","121.506746666667","25.0150633333333","6500400","永和區"
"234013","KEA-2591","2018/12/25 18:41:22","新北市永和區保福路二段105號","121.510238333333","25.0133666666667","6500400","永和區"
"234042","862-TW","2018/12/25 18:41:19","新北市永和區中和路605號","121.51253","25.004395","6500400","永和區"
"234026","9371-KE","2018/12/25 18:41:18","新北市永和區中和路605號","121.512403333333","25.0044633333333","6500400","永和區"
"234011","9373-KE","2018/12/25 18:41:25","新北市永和區永和路二段235-1號","121.51527","25.01443","6500400","永和區"
"249005","172-UM","2018/12/25 18:41:19","新北市八里區中華路三段235號","121.390841666667","25.1266366666667","6502300","八里區"
"249001","173-UM","2018/12/25 18:41:16","新北市八里區龍米路一段172號","121.452283333333","25.12671","6502300","八里區"
"249004","303-UY","2018/12/25 18:41:14","新北市八里區中山路一段178號","121.416911666667","25.15934","6502300","八里區"
"249002","305-UY","2018/12/25 18:39:47","新北市八里區頂寮二街138號","121.449298333333","25.129425","6502300","八里區"
"248014","025-BX","2018/12/25 18:41:27","新北市五股區蓬萊路24號","121.434176666667","25.0798066666667","6501500","五股區"
"248016","026-BX","2018/12/25 18:41:12","新北市五股區凌雲路一段133巷27-3號","121.44865","25.1008283333333","6501500","五股區"
"248008","095-VK","2018/12/25 18:41:22","新北市五股區中興路一段151巷1弄2號","121.465091666667","25.073155","6501500","五股區"
"248020","225-UY","2018/12/25 18:35:08","新北市五股區孝義路73-1號","121.445435","25.1195416666667","6501500","五股區"
"248012","247-BX","2018/12/25 18:41:23","新北市五股區成泰路三段2巷3號","121.440965","25.0863333333333","6501500","五股區"
"248010","272-BY","2018/12/25 18:41:14","新北市五股區水碓一路92號","121.431771666667","25.0736133333333","6501500","五股區"
"248004","677-BX","2018/12/25 18:41:26","新北市五股區民義路一段217號","121.42988","25.0897866666667","6501500","五股區"
"248002","678-BX","2018/12/25 18:41:13","新北市五股區西雲路201號","121.448203333333","25.0962983333333","6501500","五股區"
"234023","9380-KE","2018/12/25 18:41:25","新北市永和區竹林路225巷42號","121.52222","25.0086266666667","6500400","永和區"
"234077","969-R7","2018/12/25 18:41:14","新北市永和區中正路332號","121.517678333333","24.999855","6500400","永和區"
"234067","AAC-212","2018/12/25 18:41:08","新北市中和區永貞路248號","121.514193333333","25.0037233333333","6500400","永和區"
"234003","AAC-295","2018/12/25 18:41:26","新北市永和區福和路1號","121.526041666667","25.0091933333333","6500400","永和區"
"244007","080-UY","2018/12/25 18:41:18","新北市林口區湖北里55號","121.384891666667","25.106445","6501700","林口區"
"244019","402-UM","2018/12/25 18:41:08","新北市林口區麗園二街62-7號","121.381143333333","25.0680383333333","6501700","林口區"
"244013","KEA-2802","2018/12/25 18:41:19","新北市林口區文化一路一段120號","121.374141666667","25.07196","6501700","林口區"
"244023","483-VK","2018/12/25 18:41:13","新北市林口區仁愛路二段111號","121.383876666667","25.0750283333333","6501700","林口區"
"244017","485-VK","2018/12/25 18:41:10","新北市林口區文化二路一段92-1號","121.366528333333","25.0698766666667","6501700","林口區"
"244009","656-BX","2018/12/25 18:41:13","新北市林口區竹林路326巷80號","121.392688333333","25.0824316666667","6501700","林口區"
"244011","701-TV","2018/12/25 18:41:15","新北市林口區新寮1-84號","121.392758333333","25.0767883333333","6501700","林口區"
"244025","837-TS","2018/12/25 18:41:25","新北市林口區南勢里53-6號","121.35503","25.074795","6501700","林口區"
"244021","838-TS","2018/12/25 18:41:22","新北市林口區粉寮路一段82號","121.397225","25.0793233333333","6501700","林口區"
"243013","AAD-798","2018/12/25 18:25:17","新北市泰山區明志路三段206巷3號","121.42327","25.03794","6501600","泰山區"
"243012","646-TV","2018/12/25 18:41:17","新北市泰山區福興三街11號","121.4345","25.05776","6501600","泰山區"
"222003","436-BY","2018/12/25 18:41:26","新北市深坑區翠谷街17巷42弄2號","121.625353333333","25.0101433333333","6501800","深坑區"
"222002","659-BX","2018/12/25 18:41:11","新北市深坑區文山路一段62巷3號","121.622813333333","25.0008816666667","6501800","深坑區"
"231041","002-UM","2018/12/25 18:41:21","新北市新店區安華路28-1號","121.519521666667","24.9608033333333","6500600","新店區"
"231059","046-UY","2018/12/25 18:41:19","新北市新店區安華路28-1號","121.519495","24.960745","6500600","新店區"
"231040","047-UY","2018/12/25 18:41:17","新北市新店區安華路28-1號","121.519165","24.9609033333333","6500600","新店區"
"231044","106-UY","2018/12/25 18:41:14","新北市新店區安康路一段3-1號","121.534355","24.960665","6500600","新店區"
"231046","107-UY","2018/12/25 18:41:15","新北市新店區直潭二街1號","121.535533333333","24.9431983333333","6500600","新店區"
"231053","108-UY","2018/12/25 18:41:06","新北市新店區長興路43號","121.549503333333","24.937905","6500600","新店區"
"231048","187-VK","2018/12/25 18:41:17","新北市新店區安一路一段1-1號","121.519683333333","24.961245","6500600","新店區"
"231054","KEA-2219","2018/12/25 18:41:23","新北市新店區安一路一段1-1號","121.519813333333","24.961215","6500600","新店區"
"221035","KEA-2785","2018/12/25 18:41:20","新北市汐止區大同路二段342號","121.656675","25.06708","6501100","汐止區"
"231057","256-BX","2018/12/25 18:41:17","新北市新店區新烏路一段215號","121.549136666667","24.931435","6500600","新店區"
"231042","268-BY","2018/12/25 18:41:21","新北市新店區安華路28-1號","121.519611666667","24.9610366666667","6500600","新店區"
"231051","278-BY","2018/12/25 18:41:09","新北市新店區中央路208號","121.530188333333","24.9738683333333","6500600","新店區"
"231050","AAD-862","2018/12/25 18:41:23","新北市新店區安華路28-1號","121.519513333333","24.96098","6500600","新店區"
"231058","3713-VJ","2018/12/25 18:41:25","新北市新店區北宜路一段168號","121.540413333333","24.952945","6500600","新店區"
"231066","4716-K9","2018/12/25 18:41:12","新北市新店區安一路一段1-1號","121.51939","24.9611216666667","6500600","新店區"
"231056","4715-K9","2018/12/25 18:41:22","新北市新店區大豐路68巷18號","121.53879","24.9800683333333","6500600","新店區"
"231067","4772-VM","2018/12/25 18:41:20","新北市新店區安華路28-1號","121.519263333333","24.9605783333333","6500600","新店區"
"231065","512-UM","2018/12/25 18:41:19","新北市新店區安一路一段1-1號","121.519336666667","24.961255","6500600","新店區"
"231049","513-UM","2018/12/25 18:41:11","新北市新店區安一路一段1-1號","121.519605","24.96115","6500600","新店區"
"231061","619-UM","2018/12/25 18:41:18","新北市新店區安華路28-1號","121.519591666667","24.9607766666667","6500600","新店區"
"231063","641-BX","2018/12/25 18:41:17","新北市新店區安華路1-1號","121.519528333333","24.960495","6500600","新店區"
"231064","719-UM","2018/12/25 18:41:10","新北市新店區安一路一段1-1號","121.5195","24.96106","6500600","新店區"
"231062","720-UM","2018/12/25 18:41:24","新北市新店區安一路一段1-1號","121.519218333333","24.9612883333333","6500600","新店區"
"231060","897-TW","2018/12/25 18:41:29","新北市新店區安華路28-1號","121.519516666667","24.9607733333333","6500600","新店區"
"231045","898-TW","2018/12/25 18:41:11","新北市新店區安華路28-1號","121.519271666667","24.960915","6500600","新店區"
"231043","899-TW","2018/12/25 18:41:27","新北市新店區安華路28-1號","121.519241666667","24.960875","6500600","新店區"
"231055","AKT-0513","2018/12/25 18:41:24","新北市新店區新生街13巷40號","121.538795","24.9669","6500600","新店區"
"235066","003-UY","2018/12/25 18:41:21","新北市中和區水源路38號","121.505433333333","25.0035183333333","6500300","中和區"
"235064","005-UY","2018/12/25 18:41:14","新北市中和區連城路87號","121.496838333333","25.000215","6500300","中和區"
"235063","006-UY","2018/12/25 18:41:19","新北市中和區連城路369-1號","121.487163333333","24.996135","6500300","中和區"
"235056","096-UM","2018/12/25 18:41:07","新北市中和區員山路611巷1號","121.477861666667","25.0112066666667","6500300","中和區"
"235039","097-UM","2018/12/25 18:41:11","新北市中和區宜安路7號","121.51344","24.995475","6500300","中和區"
"235040","150-BY","2018/12/25 18:41:08","新北市中和區宜安路41號","121.511793333333","24.996415","6500300","中和區"
"235058","151-BY","2018/12/25 18:41:23","新北市中和區員山路72號","121.480828333333","24.99365","6500300","中和區"
"235055","183-VK","2018/12/25 18:41:26","新北市中和區中山路三段229巷35號","121.469531666667","25.005785","6500300","中和區"
"235038","185-VK","2018/12/25 18:41:09","新北市中和區大勇街59號","121.517765","24.9951866666667","6500300","中和區"
"235049","186-VK","2018/12/25 18:41:14","新北市中和區明義街40巷3-1號","121.503926666667","24.995665","6500300","中和區"
"235067","255-BX","2018/12/25 18:41:18","新北市中和區中山路二段463號","121.483613333333","25.0048783333333","6500300","中和區"
"235044","293-VK","2018/12/25 18:41:20","新北市中和區復興路280巷19號","121.50218","24.9916366666667","6500300","中和區"
"235072","301-VK","2018/12/25 18:41:21","新北市中和區中山路二段91號","121.503465","25.0041566666667","6500300","中和區"
"235042","KEA-2878","2018/12/25 18:41:18","新北市中和區成功路101巷7號","121.52644","24.991705","6500300","中和區"
"247012","KEA-2869","2018/12/25 18:41:26","新北市林口區太平里180號","121.367276666667","25.1338366666667","6501400","蘆洲區"
"235050","4979-A6","2018/12/25 18:41:27","新北市中和區景新街496巷26號","121.513306666667","24.98586","6500300","中和區"
"235069","4980-A6","2018/12/25 18:41:19","新北市中和區連城路61號","121.49761","25.0014733333333","6500300","中和區"
"235045","565-BX","2018/12/25 18:41:18","新北市中和區南山路389號","121.506465","24.99028","6500300","中和區"
"235054","640-BX","2018/12/25 18:41:17","新北市中和區民享街32巷16號","121.47315","25.0032083333333","6500300","中和區"
"235060","647-TV","2018/12/25 18:41:24","新北市中和區中山路三段150號","121.473546666667","25.0062666666667","6500300","中和區"
"235046","733-UM","2018/12/25 18:41:09","新北市中和區忠孝街103號","121.512066666667","24.9862616666667","6500300","中和區"
"235062","800-TS","2018/12/25 18:41:20","新北市中和區中山路二段312巷16號","121.495253333333","25.0038483333333","6500300","中和區"
"235057","801-TS","2018/12/25 18:41:16","新北市中和區民安街1號","121.480971666667","25.0010316666667","6500300","中和區"
"235041","802-TS","2018/12/25 18:41:25","新北市中和區中安街178巷2號","121.510876666667","24.9995316666667","6500300","中和區"
"235052","805-TS","2018/12/25 18:41:21","新北市中和區興南路三段90號","121.490203333333","24.9735083333333","6500300","中和區"
"235048","896-TW","2018/12/25 18:40:56","新北市中和區南山路415號","121.50718","24.98967","6500300","中和區"
"235053","900-TW","2018/12/25 18:41:17","新北市中和區華安街16巷18號","121.46594","24.9973633333333","6500300","中和區"
"235065","911-UM","2018/12/25 18:41:17","新北市中和區莊敬路49巷29弄26號","121.500781666667","25.006535","6500300","中和區"
"235051","157-BY","2018/12/25 18:41:15","新北市中和區華新街143巷106弄34號","121.50637","24.9784933333333","6500300","中和區"
"235037","AAC-213","2018/12/25 18:41:24","新北市中和區景平路73-1號","121.518745","24.9913683333333","6500300","中和區"
"235059","AAC-215","2018/12/25 18:41:21","新北市中和區錦和路171號","121.490715","24.9913366666667","6500300","中和區"
"220065","072-UY","2018/12/25 18:41:20","新北市板橋區成都街103號","121.463543333333","25.005395","6500100","板橋區"
"220086","073-UY","2018/12/25 18:41:14","新北市板橋區南雅西路二段145巷6號","121.45164","25.0117066666667","6500100","板橋區"
"220069","AAD-861","2018/12/25 18:41:20","新北市板橋區南雅西路一段5巷5號","121.454716666667","25.0038933333333","6500100","板橋區"
"226004","205-ST","2018/12/25 18:41:13","新北市平溪區石底里公園街18-3號","121.733533333333","25.025605","6502400","平溪區"
"228001","212-TW","2018/12/25 18:41:22","新北市貢寮區仁理村研海街12-1號","121.923753333333","25.0516516666667","6502600","貢寮區"
"228002","663-BX","2018/12/25 18:41:24","新北市貢寮區福隆里東興街6-11號","121.95074","25.0210683333333","6502600","貢寮區"
"228003","828-UM","2018/12/25 18:41:26","新北市貢寮區和美里龍洞街12-2號","121.918198333333","25.111715","6502600","貢寮區"
"224006","676-BX","2018/12/25 18:41:18","新北市瑞芳區明燈路三段143號","121.803223333333","25.109305","6501200","瑞芳區"
"224008","285-BY","2018/12/25 18:41:22","新北市瑞芳區逢甲路274號","121.80483","25.1108916666667","6501200","瑞芳區"
"224007","275-VK","2018/12/25 18:41:11","新北市瑞芳區大埔路115巷13號","121.76314","25.101115","6501200","瑞芳區"
"224009","273-VK","2018/12/25 18:41:18","新北市瑞芳區祈堂路86號","121.859091666667","25.1096916666667","6501200","瑞芳區"
"224005","271-BY","2018/12/25 18:41:06","新北市瑞芳區瑞濱路85號","121.821468333333","25.1209216666667","6501200","瑞芳區"
"227003","642-TC","2018/12/25 18:41:11","新北市雙溪區魚行里坤溪5號","121.873998333333","25.0223183333333","6502500","雙溪區"
"227009","400-TW","2018/12/25 18:41:19","新北市雙溪區牡丹里下坑11號","121.851006666667","25.0561816666667","6502500","雙溪區"
"253006","032-BX","2018/12/25 18:41:18","新北市石門區海灣新城39號","121.526876666667","25.2850216666667","6502200","石門區"
"253005","295-VK","2018/12/25 18:41:12","新北市石門區中山路28-1號","121.56586","25.289955","6502200","石門區"
"222001","KEA-2212","2018/12/25 18:41:21","新北市深坑區北深路一段82號","121.636316666667","25.0107","6501800","深坑區"
"208002","KEA-2872","2018/12/25 18:41:16","新北市金山區忠孝一路22號","121.638418333333","25.21952","6502700","金山區"
"208003","665-BX","2018/12/25 18:41:15","新北市金山區中山路348號","121.633403333333","25.2253383333333","6502700","金山區"
"208001","761-BX","2018/12/25 18:41:29","新北市金山區文化三路7號","121.635073333333","25.224915","6502700","金山區"
"251004","009-UM","2018/12/25 18:41:19","新北市淡水區民權路36號","121.459941666667","25.1373683333333","6501000","淡水區"
"251013","KEA-2871","2018/12/25 18:40:42","新北市淡水區雲廣坑5-1號","121.47489","25.2122216666667","6501000","淡水區"
"251016","179-VK","2018/12/25 18:41:28","新北市淡水區下圭柔山72-3號","121.44626","25.20581","6501000","淡水區"
"251014","180-VK","2018/12/25 18:41:24","新北市淡水區崙頂12-8號","121.495556666667","25.217235","6501000","淡水區"
"251008","181-VK","2018/12/25 18:41:19","新北市淡水區淡金路二段145號","121.450158333333","25.18272","6501000","淡水區"
"251015","182-VK","2018/12/25 18:41:24","新北市淡水區興福寮66巷347號","121.483696666667","25.1624133333333","6501000","淡水區"
"251010","413-VK","2018/12/25 18:41:16","新北市淡水區沙崙路126號","121.423443333333","25.1829066666667","6501000","淡水區"
"251012","441-VK","2018/12/25 18:41:17","新北市淡水區北新路61號","121.445978333333","25.1782783333333","6501000","淡水區"
"251001","559-UM","2018/12/25 18:41:15","新北市淡水區自強路419號","121.46563","25.1342683333333","6501000","淡水區"
"251006","561-UM","2018/12/25 18:41:20","新北市淡水區崁頂36號","121.438966666667","25.1946533333333","6501000","淡水區"
"251011","650-BX","2018/12/25 18:41:22","新北市淡水區鄧公路48號","121.459483333333","25.16876","6501000","淡水區"
"251002","672-BX","2018/12/25 18:41:17","新北市淡水區中正東路一段5巷5號","121.450788333333","25.1644683333333","6501000","淡水區"
"251003","673-BX","2018/12/25 18:41:22","新北市淡水區北新路69巷26號","121.446683333333","25.1801066666667","6501000","淡水區"
"207003","550-UM","2018/12/25 18:41:24","新北市萬里區大鵬里頂社2-1號","121.660368333333","25.2072333333333","6502800","萬里區"
"207004","225-TW","2018/12/25 18:41:14","新北市萬里區萬里里獅頭路2-1號","121.691958333333","25.1778783333333","6502800","萬里區"
"252002","178-VK","2018/12/25 18:41:10","新北市三芝區民生街38號","121.503798333333","25.25607","6502100","三芝區"
"252003","249-BX","2018/12/25 18:41:10","新北市三芝區後厝里大片頭83-19號","121.458783333333","25.2440266666667","6502100","三芝區"
"252001","292-VK","2018/12/25 18:41:11","新北市三芝區中正路三段32號","121.501973333333","25.2522516666667","6502100","三芝區"
"237004","KEA-2597","2018/12/25 18:41:07","新北市三峽區插角117號","121.408388333333","24.8704266666667","6500900","三峽區"
"237007","153-BY","2018/12/25 18:41:25","新北市三峽區柑樹路6巷33號","121.361576666667","24.9034333333333","6500900","三峽區"
"237009","210-TH","2018/12/25 18:41:17","新北市三峽區弘園街37號","121.367443333333","24.9277466666667","6500900","三峽區"
"237013","252-BX","2018/12/25 18:41:21","新北市三峽區光明路69巷25號","121.376626666667","24.92916","6500900","三峽區"
"237012","275-BY","2018/12/25 18:41:20","新北市三峽區三樹路340號","121.383986666667","24.9433","6500900","三峽區"
"237008","302-VK","2018/12/25 18:41:14","新北市三峽區白雞67號","121.396125","24.911035","6500900","三峽區"
"237014","433-BY","2018/12/25 18:41:14","新北市三峽區復興路480巷28號","121.359266666667","24.9399316666667","6500900","三峽區"
"237006","5529-G3","2018/12/25 18:41:22","新北市三峽區溪東路473巷75號","121.415336666667","24.9293016666667","6500900","三峽區"
"237011","KEA-2596","2018/12/25 18:41:16","新北市三峽區溪東路281號","121.409055","24.9313433333333","6500900","三峽區"
"237016","649-BX","2018/12/25 18:41:08","新北市三峽區竹崙路167號","121.437666666667","24.90561","6500900","三峽區"
"237010","706-TV","2018/12/25 18:41:26","新北市三峽區復興路449號","121.362623333333","24.9384816666667","6500900","三峽區"
"237005","AKY-6261","2018/12/25 18:41:13","新北市三峽區民族街5巷68號","121.369931666667","24.9327","6500900","三峽區"
"236070","105-UM","2018/12/25 18:41:10","新北市土城區永豐路157巷4號","121.468241666667","24.9814833333333","6501300","土城區"
"236042","KED-0685","2018/12/25 18:41:23","新北市土城區裕民路55巷10號","121.44933","24.9882916666667","6501300","土城區"
"236079","166-UM","2018/12/25 18:41:10","新北市土城區中央路四段56-1號","121.420196666667","24.9605183333333","6501300","土城區"
"236030","253-BX","2018/12/25 18:41:27","新北市土城區中華路二段187號","121.4385","24.9745966666667","6501300","土城區"
"236026","269-VK","2018/12/25 18:41:12","新北市土城區忠義路51號","121.440545","24.968965","6501300","土城區"
"236014","270-VK","2018/12/25 18:41:26","新北市土城區清水路234巷20弄1號","121.4621","24.9818083333333","6501300","土城區"
"236038","271-VK","2018/12/25 18:41:28","新北市土城區明德路一段226號","121.460645","24.9774366666667","6501300","土城區"
"236021","401-BY","2018/12/25 18:41:17","新北市土城區延吉街253巷5號","121.467685","24.984595","6501300","土城區"
"236059","912-UM","2018/12/25 18:41:17","新北市土城區中央路三段161號","121.4319","24.9652783333333","6501300","土城區"
"236049","913-UM","2018/12/25 18:41:09","新北市土城區明德路1段9號","121.464908333333","24.98569","6501300","土城區"
"236063","915-UM","2018/12/25 18:41:27","新北市土城區金城路三段207巷8弄2號","121.470126666667","24.9901616666667","6501300","土城區"
"236055","AAC-216","2018/12/25 18:41:13","新北市土城區裕民路22號","121.447551666667","24.98869","6501300","土城區"
"242058","986-R7","2018/12/25 18:41:26","新北市新莊區中正路891-15號","121.413006666667","25.0224133333333","6500500","新莊區"
"242025","613-BX","2018/12/25 18:41:08","新北市新莊區新泰路255巷83號","121.442153333333","25.039045","6500500","新莊區"
"242046","400-BY","2018/12/25 18:41:10","新北市新莊區富國路77巷17號","121.420336666667","25.02646","6500500","新莊區"
"242061","353-BY","2018/12/25 18:41:17","新北市新莊區四維路97巷22號","121.42425","25.0233383333333","6500500","新莊區"
"242011","132-UY","2018/12/25 18:41:13","新北市新莊區幸福路914號","121.442506666667","25.049105","6500500","新莊區"
"242007","176-VK","2018/12/25 18:41:23","新北市樹林區環河路2-2號","121.425251666667","24.976745","6500500","新莊區"
"242005","349-TH","2018/12/25 18:41:16","新北市新莊區三和路12-21號","121.442033333333","25.0385283333333","6500500","新莊區"
"238023","601-UM","2018/12/25 18:41:11","新北市樹林區三福街114號","121.406275","25.0163483333333","6500700","樹林區"
"238019","599-UM","2018/12/25 18:41:25","新北市樹林區中華路190-16號","121.411695","24.9805466666667","6500700","樹林區"
"238018","571-TV","2018/12/25 18:41:13","新北市樹林區鎮前街165號","121.422248333333","24.98716","6500700","樹林區"
"238024","5061-A6","2018/12/25 18:41:26","新北市樹林區太順街79巷17號","121.41715","24.9780916666667","6500700","樹林區"
"238022","KEA-2213","2018/12/25 18:41:17","新北市樹林區中華路190-1號","121.411411666667","24.9805083333333","6500700","樹林區"
"238025","303-VK","2018/12/25 18:41:26","新北市樹林區中山路三段22號","121.39557","24.9728366666667","6500700","樹林區"
"238017","283-BY","2018/12/25 18:41:18","新北市樹林區光興街52號","121.409773333333","25.0026766666667","6500700","樹林區"
"238014","282-BY","2018/12/25 18:41:24","新北市樹林區大安路111巷25號","121.423248333333","24.997645","6500700","樹林區"
"238020","268-VK","2018/12/25 18:41:26","新北市樹林區俊安街19號","121.419756666667","25.0137766666667","6500700","樹林區"
"238026","172-UY","2018/12/25 18:41:12","新北市樹林區八德街1266號","121.390845","24.9690933333333","6500700","樹林區"
"238016","169-UY","2018/12/25 18:41:27","新北市樹林區中山路二段34號","121.417385","24.9851266666667","6500700","樹林區"
"239007","AAC-297","2018/12/25 18:41:22","新北市鶯歌區中正一路建德二巷2號","121.363833333333","24.9564766666667","6500800","鶯歌區"
"239006","891-R6","2018/12/25 18:41:14","新北市鶯歌區鶯桃路296巷84弄29號","121.337436666667","24.9613566666667","6500800","鶯歌區"
"239008","527-UM","2018/12/25 18:41:22","新北市鶯歌區國際一路179號","121.336231666667","24.9764883333333","6500800","鶯歌區"
"239005","526-UM","2018/12/25 18:41:27","新北市鶯歌區鳳吉一街115號","121.3277","24.9745516666667","6500800","鶯歌區"
"239001","417-VK","2018/12/25 18:41:26","新北市鶯歌區中正三路25號","121.339206666667","24.9424516666667","6500800","鶯歌區"
"239003","360-BY","2018/12/25 18:41:08","新北市鶯歌區鶯桃路566號","121.330808333333","24.9677083333333","6500800","鶯歌區"
"239002","359-BY","2018/12/25 18:41:25","新北市鶯歌區中山路182號","121.34863","24.95702","6500800","鶯歌區"
"239004","193-VK","2018/12/25 18:41:02","新北市鶯歌區中正三路194巷2-3號","121.332688333333","24.93853","6500800","鶯歌區"
"221008","489-VK","2018/12/25 18:41:16","新北市汐止區康寧街901號","121.65138","25.075045","6501100","汐止區"
"221036","130-UY","2018/12/25 18:41:18","新北市汐止區水碓街26巷1號","121.664578333333","25.0696033333333","6501100","汐止區"
"221015","131-UY","2018/12/25 18:41:25","新北市汐止區吉祥街8號","121.668166666667","25.0800316666667","6501100","汐止區"
"221010","269-BY","2018/12/25 18:41:16","新北市汐止區汐萬路二段132號","121.647986666667","25.0854766666667","6501100","汐止區"
"221012","278-VK","2018/12/25 18:41:10","新北市汐止區長江街3號","121.654393333333","25.0712183333333","6501100","汐止區"
"221023","279-VK","2018/12/25 18:41:09","新北市汐止區汐萬路一段329號","121.649996666667","25.0756183333333","6501100","汐止區"
"221032","280-BY","2018/12/25 18:41:22","新北市汐止區民權街二段93號","121.618971666667","25.04746","6501100","汐止區"
"221027","281-BY","2018/12/25 18:41:24","新北市汐止區汐萬路一段256巷3號","121.653321666667","25.074455","6501100","汐止區"
"221029","298-VK","2018/12/25 18:41:19","新北市汐止區樟樹一路133巷1號","121.642203333333","25.0650566666667","6501100","汐止區"
"221021","299-VK","2018/12/25 18:41:26","新北市汐止區新興路51號","121.65719","25.063085","6501100","汐止區"
"221031","353-TW","2018/12/25 18:41:27","新北市汐止區福德一路272巷16號","121.631893333333","25.0643","6501100","汐止區"
"221025","623-UM","2018/12/25 18:41:25","新北市汐止區仁愛路119巷15號","121.662261666667","25.0641316666667","6501100","汐止區"
"221038","646-BX","2018/12/25 18:41:13","新北市汐止區康寧街901號","121.650725","25.075285","6501100","汐止區"
"221033","647-BX","2018/12/25 18:41:10","新北市汐止區南勢街3號","121.627088333333","25.0374233333333","6501100","汐止區"
"221002","707-TV","2018/12/25 18:41:23","新北市汐止區大同路一段255號","121.63585","25.0582483333333","6501100","汐止區"
"221018","753-BX","2018/12/25 18:41:09","新北市汐止區茄苳路157號","121.669673333333","25.0695233333333","6501100","汐止區"
"220079","145-BY","2018/12/25 18:41:17","新北市板橋區南雅西路二段175巷5號","121.451581666667","25.0122433333333","6500100","板橋區"
"220080","200-UY","2018/12/25 18:41:22","新北市板橋區大觀路二段265巷76弄7號","121.442166666667","24.996585","6500100","板橋區"
"220082","610-BX","2018/12/25 18:41:19","新北市板橋區篤行路二段52號","121.431728333333","24.9926116666667","6500100","板橋區"
"224002","257-TC","2018/12/25 18:41:29","新北市瑞芳區中山路266號","121.798895","25.108655","6501200","瑞芳區"
"220056","276-BY","2018/12/25 18:41:22","新北市板橋區華興街36號","121.458731666667","25.0046983333333","6500100","板橋區"
"220072","277-BY","2018/12/25 18:41:13","新北市板橋區大觀路三段121號","121.432686666667","24.9944283333333","6500100","板橋區"
"220101","280-UM","2018/12/25 18:41:15","新北市板橋區民生路二段120號","121.470395","25.0195266666667","6500100","板橋區"
"220071","283-VK","2018/12/25 18:41:15","新北市板橋區四川路一段387號","121.458083333333","24.99925","6500100","板橋區"
"220094","285-UM","2018/12/25 18:41:09","新北市板橋區民生路二段161巷5號","121.470133333333","25.019685","6500100","板橋區"
"220053","285-VK","2018/12/25 18:41:19","新北市板橋區民生路二段56-6號","121.470748333333","25.0188033333333","6500100","板橋區"
"220083","286-VK","2018/12/25 18:41:12","新北市板橋區大觀路二段107號","121.446416666667","25.0016033333333","6500100","板橋區"
"220081","287-VK","2018/12/25 18:41:08","新北市板橋區大觀路二段153巷46弄1號","121.448536666667","24.99869","6500100","板橋區"
"220090","288-VK","2018/12/25 18:41:18","新北市板橋區民生路二段120號","121.47034","25.01966","6500100","板橋區"
"220061","293-UM","2018/12/25 18:41:23","新北市板橋區民生路二段89-6號","121.470713333333","25.0190266666667","6500100","板橋區"
"220084","296-UM","2018/12/25 18:41:29","新北市板橋區大觀路二段148巷1-2號","121.441761666667","24.999205","6500100","板橋區"
"220075","303-R5","2018/12/25 18:41:17","新北市板橋區館前西路160巷34號","121.45212","25.009385","6500100","板橋區"
"220062","305-R5","2018/12/25 18:41:07","新北市板橋區民生路二段120號","121.470458333333","25.0195883333333","6500100","板橋區"
"220092","307-R5","2018/12/25 18:32:19","新北市板橋區民生路二段161巷1號","121.470038333333","25.0198516666667","6500100","板橋區"
"220098","317-R6","2018/12/25 18:41:10","新北市板橋區民生路二段120號","121.470341666667","25.0197116666667","6500100","板橋區"
"220089","487-VK","2018/12/25 18:41:14","新北市板橋區民生路二段120號","121.47053","25.01951","6500100","板橋區"
"220088","491-VK","2018/12/25 18:41:14","新北市板橋區民生路二段161巷5號","121.470161666667","25.0197633333333","6500100","板橋區"
"220035","560-BX","2018/12/25 18:41:23","新北市板橋區南雅西路二段175巷2號","121.451536666667","25.0124916666667","6500100","板橋區"
"220103","561-BX","2018/12/25 18:41:11","新北市板橋區民生路二段123號","121.470681666667","25.0186366666667","6500100","板橋區"
"220063","609-BX","2018/12/25 18:41:10","新北市板橋區民生路二段121號","121.470863333333","25.01856","6500100","板橋區"
"220055","630-UY","2018/12/25 18:41:20","新北市板橋區忠孝路31-1號","121.460766666667","25.00206","6500100","板橋區"
"220057","686-BX","2018/12/25 18:41:09","新北市板橋區南雅南路二段120-1號","121.452266666667","24.9997166666667","6500100","板橋區"
"220077","687-BX","2018/12/25 18:41:17","新北市板橋區板城路421號","121.448083333333","24.9962283333333","6500100","板橋區"
"220093","689-BX","2018/12/25 18:41:12","新北市板橋區民生路二段161巷1號","121.470076666667","25.0202033333333","6500100","板橋區"
"220054","741-BX","2018/12/25 18:41:17","新北市板橋區南雅南路二段1-1號","121.454931666667","25.0039983333333","6500100","板橋區"
"220102","KEA-2699","2018/12/25 18:41:10","新北市板橋區民生路二段120號","121.47037","25.0197233333333","6500100","板橋區"
"220067","829-TW","2018/12/25 18:41:16","新北市板橋區中山路二段37號","121.47303","25.0155666666667","6500100","板橋區"
"220068","830-TW","2018/12/25 18:41:09","新北市板橋區莊敬路208巷8弄6號","121.470803333333","25.0208516666667","6500100","板橋區"
"220074","895-R6","2018/12/25 18:41:24","新北市板橋區南雅南路二段114號","121.4533","25.0005383333333","6500100","板橋區"
"220073","985-R7","2018/12/25 18:41:19","新北市板橋區南雅南路二段17號","121.453996666667","24.999035","6500100","板橋區"
"220064","AAC-253","2018/12/25 18:41:21","新北市板橋區府中路1號","121.460255","25.00936","6500100","板橋區"
"235068","KEA-2873","2018/12/25 18:41:11","新北市中和區中正路209號","121.497173333333","24.9937066666667","6500300","中和區"
"235061","KEA-2875","2018/12/25 18:41:06","新北市中和區民享街90巷24號","121.473323333333","25.0000633333333","6500300","中和區"
"235047","KEA-2876","2018/12/25 18:41:01","新北市中和區南山路320巷10弄11號","121.506876666667","24.9865433333333","6500300","中和區"
