"lineid","car","time","location","longitude","latitude","cityid","cityname"
"234046","148-BY","2018/12/25 19:11:14","新北市永和區秀朗路二段126巷30號","121.524635","25.0008183333333","6500400","永和區"
"234081","298-R6","2018/12/25 19:11:16","新北市永和區永亨路67-1號","121.52118","25.00602","6500400","永和區"
"234038","336-UY","2018/12/25 19:11:25","新北市永和區民樂街69巷5號","121.52753","24.9977583333333","6500400","永和區"
"234064","337-UY","2018/12/25 19:11:28","新北市永和區秀朗路二段28號","121.520906666667","25.0026566666667","6500400","永和區"
"234070","552-UM","2018/12/25 19:11:27","新北市永和區豫溪街126號","121.519778333333","25.0101533333333","6500400","永和區"
"234086","553-UM","2018/12/25 19:11:25","新北市永和區永貞路113號","121.517726666667","25.0043666666667","6500400","永和區"
"234017","745-BX","2018/12/25 19:11:12","新北市永和區文化路90巷34號","121.513516666667","25.0164016666667","6500400","永和區"
"234030","746-BX","2018/12/25 19:11:22","新北市永和區民生路23號","121.522885","24.998825","6500400","永和區"
"234054","KEA-2590","2018/12/25 19:11:23","新北市永和區中興街102號","121.519041666667","25.0123383333333","6500400","永和區"
"234007","839-RS","2018/12/25 19:11:20","新北市永和區中山路一段285號","121.506958333333","25.0068516666667","6500400","永和區"
"234013","KEA-2591","2018/12/25 19:11:26","新北市永和區保福路二段14-1號","121.510975","25.011335","6500400","永和區"
"234061","AAD-866","2018/12/25 19:11:13","新北市永和區安樂路340號","121.514443333333","25.0061633333333","6500400","永和區"
"234042","862-TW","2018/12/25 19:11:19","新北市永和區保平路203巷1號","121.509068333333","25.0048166666667","6500400","永和區"
"234050","863-TW","2018/12/25 19:11:27","新北市永和區文化路135巷32弄1號","121.510925","25.0140916666667","6500400","永和區"
"234026","9371-KE","2018/12/25 19:11:18","新北市永和區安樂路198巷4弄2號","121.515591666667","25.0020016666667","6500400","永和區"
"234011","9373-KE","2018/12/25 19:11:24","新北市永和區中山路一段100巷16號","121.511055","25.0109433333333","6500400","永和區"
"249005","172-UM","2018/12/25 19:11:19","新北市八里區中華路三段55號","121.394965","25.1412","6502300","八里區"
"249001","173-UM","2018/12/25 19:11:16","新北市八里區龍米路二段228-7號","121.432288333333","25.1584616666667","6502300","八里區"
"249003","593-UM","2018/12/25 19:11:16","新北市八里區仁愛路12號","121.41276","25.162","6502300","八里區"
"248016","026-BX","2018/12/25 19:11:12","新北市五股區成泰路三段543巷52-1號","121.449853333333","25.1029516666667","6501500","五股區"
"248006","077-UY","2018/12/25 19:11:07","新北市五股區四維路127號","121.467578333333","25.07384","6501500","五股區"
"248008","095-VK","2018/12/25 19:11:22","新北市五股區中興路二段37巷28號","121.460155","25.0750433333333","6501500","五股區"
"248020","225-UY","2018/12/25 18:58:27","新北市五股區凌雲路三段57號","121.425308333333","25.12501","6501500","五股區"
"248012","247-BX","2018/12/25 19:11:22","新北市五股區中興路四段48巷16號","121.43856","25.0834333333333","6501500","五股區"
"248010","272-BY","2018/12/25 19:11:14","新北市五股區水碓一路23號","121.43061","25.07125","6501500","五股區"
"248004","677-BX","2018/12/25 19:11:26","新北市五股區六合街3號","121.431881666667","25.08853","6501500","五股區"
"248002","678-BX","2018/12/25 19:11:13","新北市五股區凌雲路一段158巷14-1號","121.447823333333","25.1034633333333","6501500","五股區"
"234023","9380-KE","2018/12/25 19:11:25","新北市永和區中興街10巷17號","121.51585","25.0112","6500400","永和區"
"234077","969-R7","2018/12/25 19:11:14","新北市永和區民族街27巷5號","121.519218333333","24.9995966666667","6500400","永和區"
"234074","AAC-211","2018/12/25 19:11:25","新北市永和區竹林路239號","121.520826666667","25.0081316666667","6500400","永和區"
"234067","AAC-212","2018/12/25 19:11:28","新北市永和區保平路2-1號","121.513053333333","25.0076516666667","6500400","永和區"
"234003","AAC-295","2018/12/25 19:11:26","新北市永和區保福路一段64號","121.512601666667","25.0096883333333","6500400","永和區"
"244013","KEA-2802","2018/12/25 19:11:19","新北市林口區麗園一街4巷1號","121.37608","25.0709266666667","6501700","林口區"
"244023","483-VK","2018/12/25 19:11:13","新北市林口區文化三路二段77巷39號","121.373143333333","25.0802833333333","6501700","林口區"
"244017","485-VK","2018/12/25 19:11:30","新北市林口區公園路131巷11號","121.368681666667","25.0706933333333","6501700","林口區"
"244011","701-TV","2018/12/25 19:11:15","新北市林口區竹林路65號","121.387806666667","25.07856","6501700","林口區"
"244025","837-TS","2018/12/25 19:11:25","新北市林口區民族路96號","121.36629","25.0757533333333","6501700","林口區"
"243013","AAD-798","2018/12/25 19:11:22","新北市泰山區台麗街6巷11號","121.424093333333","25.0377633333333","6501600","泰山區"
"243009","297-R6","2018/12/25 19:11:15","新北市泰山區楓樹街15巷3-2號","121.4348","25.0630383333333","6501600","泰山區"
"243016","KEA-2801","2018/12/25 19:11:26","新北市泰山區明志路三段1號","121.424785","25.0434533333333","6501600","泰山區"
"243015","421-VK","2018/12/25 19:11:25","新北市泰山區明志路一段493-1號","121.430558333333","25.055035","6501600","泰山區"
"243011","KEA-2215","2018/12/25 19:11:28","新北市泰山區明志路二段372巷2號","121.42536","25.0449633333333","6501600","泰山區"
"243010","KEA-2216","2018/12/25 19:11:25","新北市泰山區明志路一段483巷1弄8號","121.43118","25.055565","6501600","泰山區"
"243012","646-TV","2018/12/25 19:11:17","新北市泰山區同義街17號","121.431573333333","25.0566833333333","6501600","泰山區"
"243014","680-BX","2018/12/25 19:11:18","新北市泰山區泰林路二段345號","121.428971666667","25.0635216666667","6501600","泰山區"
"222003","436-BY","2018/12/25 19:11:26","新北市深坑區深南路204號","121.626633333333","25.0160666666667","6501800","深坑區"
"222002","659-BX","2018/12/25 19:11:09","新北市深坑區紅葉街22號","121.632691666667","25.0133916666667","6501800","深坑區"
"231041","002-UM","2018/12/25 19:11:21","新北市新店區溪園路381號","121.523331666667","24.979635","6500600","新店區"
"231059","046-UY","2018/12/25 19:11:19","新北市新店區安和路一段39號","121.517108333333","24.965255","6500600","新店區"
"231040","047-UY","2018/12/25 19:11:17","新北市新店區三民路155-1號","121.533878333333","24.9733633333333","6500600","新店區"
"231044","106-UY","2018/12/25 19:11:14","新北市新店區中興路三段217號","121.54365","24.98214","6500600","新店區"
"231046","107-UY","2018/12/25 19:11:15","新北市新店區華城路5-3號","121.529268333333","24.9578983333333","6500600","新店區"
"231053","108-UY","2018/12/25 19:11:26","新北市新店區自強路229號","121.547118333333","24.9186866666667","6500600","新店區"
"231048","187-VK","2018/12/25 19:11:17","新北市新店區德正街27巷29弄145號","121.545708333333","24.9735383333333","6500600","新店區"
"231054","KEA-2219","2018/12/25 19:11:23","新北市新店區新店路155號","121.537076666667","24.95505","6500600","新店區"
"231042","268-BY","2018/12/25 19:11:21","新北市新店區中興路一段199號","121.543436666667","24.9653816666667","6500600","新店區"
"231051","278-BY","2018/12/25 19:11:28","新北市新店區中正路399巷22號","121.533928333333","24.9767833333333","6500600","新店區"
"231050","AAD-862","2018/12/25 19:11:23","新北市新店區竹林路25巷10號","121.552286666667","24.9513616666667","6500600","新店區"
"231058","3713-VJ","2018/12/25 19:11:25","新北市新店區中興路一段51號","121.539648333333","24.9602183333333","6500600","新店區"
"231066","4716-K9","2018/12/25 19:11:12","新北市新店區安祥路34號","121.493185","24.9558783333333","6500600","新店區"
"231056","4715-K9","2018/12/25 19:11:22","新北市新店區安興路141號","121.516735","24.97939","6500600","新店區"
"231067","4772-VM","2018/12/25 19:11:20","新北市新店區安康路一段263巷25號","121.523978333333","24.9616583333333","6500600","新店區"
"231065","512-UM","2018/12/25 19:11:19","新北市新店區安祥路145巷19號","121.4751","24.9561666666667","6500600","新店區"
"231049","513-UM","2018/12/25 19:11:11","新北市新店區二十張路25巷18弄35號","121.539375","24.9810266666667","6500600","新店區"
"231061","619-UM","2018/12/25 19:11:18","新北市新店區安康路一段222-1號","121.52283","24.9636816666667","6500600","新店區"
"231063","641-BX","2018/12/25 19:11:17","新北市新店區車子路155號","121.505363333333","24.9470416666667","6500600","新店區"
"231064","719-UM","2018/12/25 19:11:10","新北市新店區安忠路69號","121.511306666667","24.9575283333333","6500600","新店區"
"231062","720-UM","2018/12/25 19:11:24","新北市新店區安平路22號","121.524035","24.9671116666667","6500600","新店區"
"231060","897-TW","2018/12/25 19:11:09","新北市新店區安康路二段295-1號","121.502871666667","24.9575733333333","6500600","新店區"
"231045","898-TW","2018/12/25 19:11:11","新北市新店區北宜路一段190號","121.541123333333","24.952815","6500600","新店區"
"231043","899-TW","2018/12/25 19:11:27","新北市新店區寶橋路132號","121.54734","24.9760233333333","6500600","新店區"
"231055","AKT-0513","2018/12/25 19:11:24","新北市新店區薏仁坑路自強巷6號","121.496625","24.9584866666667","6500600","新店區"
"241022","060-VK","2018/12/25 19:11:19","新北市三重區中正北路140號","121.484913333333","25.0654533333333","6500200","三重區"
"241035","KEA-2210","2018/12/25 19:11:12","新北市三重區重陽路三段5巷1號","121.490636666667","25.065465","6500200","三重區"
"241020","478-VK","2018/12/25 19:11:25","新北市三重區自強路三段17號","121.487221666667","25.0722583333333","6500200","三重區"
"241026","743-BX","2018/12/25 19:11:18","新北市三重區環河南路220-2號","121.493943333333","25.0529216666667","6500200","三重區"
"241029","942-UM","2018/12/25 19:11:24","新北市三重區重安街87巷10號","121.493048333333","25.0552683333333","6500200","三重區"
"235066","003-UY","2018/12/25 19:11:21","新北市中和區廣福路16號","121.505225","25.0026616666667","6500300","中和區"
"235064","005-UY","2018/12/25 19:11:13","新北市中和區連城路41號","121.498298333333","25.001905","6500300","中和區"
"235063","006-UY","2018/12/25 19:11:19","新北市中和區建八路10號","121.486416666667","24.9985766666667","6500300","中和區"
"235056","096-UM","2018/12/25 19:11:27","新北市板橋區三民路二段210號","121.478888333333","25.0119316666667","6500300","中和區"
"235039","097-UM","2018/12/25 19:11:09","新北市中和區景平路64巷18號","121.522393333333","24.9913133333333","6500300","中和區"
"235040","150-BY","2018/12/25 19:11:29","新北市中和區宜安路63號","121.511333333333","24.9969733333333","6500300","中和區"
"235058","151-BY","2018/12/25 19:11:23","新北市中和區員山路106號","121.481061666667","24.995505","6500300","中和區"
"235055","183-VK","2018/12/25 19:11:26","新北市中和區德光路59號","121.469916666667","25.003865","6500300","中和區"
"235038","185-VK","2018/12/25 19:11:09","新北市中和區大仁街10巷42號","121.51905","24.9924966666667","6500300","中和區"
"235049","186-VK","2018/12/25 19:11:22","新北市中和區景新街176號","121.506193333333","24.9964216666667","6500300","中和區"
"235067","255-BX","2018/12/25 19:11:18","新北市中和區新生街176巷19號","121.482626666667","24.999855","6500300","中和區"
"235044","293-VK","2018/12/25 19:11:20","新北市中和區中興街250號","121.499525","24.98813","6500300","中和區"
"235072","301-VK","2018/12/25 19:11:21","新北市中和區連城路49號","121.498448333333","25.0018583333333","6500300","中和區"
"235042","KEA-2878","2018/12/25 19:11:18","新北市中和區自立路16巷6號","121.521428333333","24.9936566666667","6500300","中和區"
"235050","4979-A6","2018/12/25 19:11:27","新北市中和區復興路280巷18弄1號","121.501826666667","24.99194","6500300","中和區"
"235069","4980-A6","2018/12/25 19:11:18","新北市中和區中和路165巷18號","121.503308333333","25.0004683333333","6500300","中和區"
"235070","558-UM","2018/12/25 19:11:18","新北市中和區中和路8號","121.499541666667","25.002205","6500300","中和區"
"235045","565-BX","2018/12/25 19:11:18","新北市中和區景新街437巷26號","121.514511666667","24.989405","6500300","中和區"
"235054","640-BX","2018/12/25 19:11:17","新北市中和區民德路105號","121.468981666667","25.0007333333333","6500300","中和區"
"235060","647-TV","2018/12/25 19:11:24","新北市中和區中山路三段77號","121.476248333333","25.0057533333333","6500300","中和區"
"235046","733-UM","2018/12/25 19:11:29","新北市中和區忠孝街1巷1號","121.508833333333","24.9832166666667","6500300","中和區"
"235071","783-BX","2018/12/25 19:11:28","新北市中和區連城路326號","121.483306666667","24.99594","6500300","中和區"
"235062","800-TS","2018/12/25 19:11:20","新北市中和區中山路二段526巷27號","121.485781666667","25.0057433333333","6500300","中和區"
"235057","801-TS","2018/12/25 19:11:16","新北市中和區民利街86號","121.478033333333","24.9981616666667","6500300","中和區"
"235041","802-TS","2018/12/25 19:11:25","新北市中和區中和路294號","121.508516666667","24.99981","6500300","中和區"
"235052","805-TS","2018/12/25 19:11:21","新北市中和區興南路二段142巷19弄58號","121.502413333333","24.9832616666667","6500300","中和區"
"235048","896-TW","2018/12/25 19:11:16","新北市中和區忠孝街28號","121.510613333333","24.983025","6500300","中和區"
"235053","900-TW","2018/12/25 19:11:17","新北市中和區華福街71號","121.467083333333","24.99666","6500300","中和區"
"235065","911-UM","2018/12/25 19:11:17","新北市中和區中山路二段136巷35弄1號","121.500975","25.0043066666667","6500300","中和區"
"235051","157-BY","2018/12/25 19:11:28","新北市中和區和平街22號","121.509881666667","24.9904033333333","6500300","中和區"
"235037","AAC-213","2018/12/25 19:11:24","新北市中和區秀朗路三段60巷9號","121.525715","24.9950366666667","6500300","中和區"
"235059","AAC-215","2018/12/25 19:11:21","新北市中和區圓通路294巷7號","121.488806666667","24.9897633333333","6500300","中和區"
"220065","072-UY","2018/12/25 19:11:20","新北市板橋區民族路219巷77號","121.468885","25.008915","6500100","板橋區"
"220086","073-UY","2018/12/25 19:11:14","新北市板橋區中正路216巷133號","121.460501666667","25.0195433333333","6500100","板橋區"
"220069","AAD-861","2018/12/25 19:11:20","新北市板橋區華興街31巷15號","121.458425","25.003935","6500100","板橋區"
"226004","205-ST","2018/12/25 19:11:13","新北市平溪區靜安路二段532號","121.74674","25.0270366666667","6502400","平溪區"
"228001","212-TW","2018/12/25 19:11:22","新北市貢寮區真理里新港街10號","121.92551","25.0543983333333","6502600","貢寮區"
"228002","663-BX","2018/12/25 19:11:24","新北市貢寮區福隆里福隆街32-1號","121.9451","25.01741","6502600","貢寮區"
"228003","828-UM","2018/12/25 19:11:26","新北市貢寮區和美里和美街34號","121.913668333333","25.08366","6502600","貢寮區"
"224008","285-BY","2018/12/25 19:11:22","新北市瑞芳區一坑路70-3號","121.803745","25.1081716666667","6501200","瑞芳區"
"224009","273-VK","2018/12/25 19:11:18","新北市瑞芳區洞頂路205號","121.860486666667","25.12198","6501200","瑞芳區"
"227003","642-TC","2018/12/25 19:11:13","新北市雙溪區平林里梅竹蹊56-4號","121.860616666667","25.0368383333333","6502500","雙溪區"
"227009","400-TW","2018/12/25 19:11:19","新北市雙溪區牡丹里自強路18號","121.865118333333","25.0394066666667","6502500","雙溪區"
"253006","032-BX","2018/12/25 19:11:18","新北市石門區崁子腳10號","121.532838333333","25.28752","6502200","石門區"
"253005","295-VK","2018/12/25 19:11:19","新北市石門區阿里荖24號","121.606315","25.2801433333333","6502200","石門區"
"222001","KEA-2212","2018/12/25 19:11:21","新北市深坑區北深路一段300號","121.624258333333","25.0057616666667","6501800","深坑區"
"208002","KEA-2872","2018/12/25 19:11:16","新北市金山區中正路73號","121.633848333333","25.2217883333333","6502700","金山區"
"208003","665-BX","2018/12/25 19:11:23","新北市金山區中正路13號","121.6365","25.2223366666667","6502700","金山區"
"208001","761-BX","2018/12/25 19:11:29","新北市金山區金包里街32號","121.639691666667","25.2208683333333","6502700","金山區"
"251013","KEA-2871","2018/12/25 19:11:22","新北市淡水區安子內12-1號","121.48154","25.219105","6501000","淡水區"
"251016","179-VK","2018/12/25 19:11:08","新北市淡水區下圭柔山119-51號","121.450673333333","25.2085566666667","6501000","淡水區"
"251014","180-VK","2018/12/25 19:11:24","新北市淡水區小中寮19-7號","121.484755","25.22959","6501000","淡水區"
"251015","182-VK","2018/12/25 19:11:24","新北市淡水區南勢埔45號","121.482313333333","25.1776033333333","6501000","淡水區"
"251010","413-VK","2018/12/25 19:11:16","新北市淡水區中正路一段156巷1號","121.421131666667","25.180205","6501000","淡水區"
"251005","443-VK","2018/12/25 19:11:17","新北市淡水區中山路108巷3號","121.442133333333","25.1710816666667","6501000","淡水區"
"251001","559-UM","2018/12/25 19:11:15","新北市淡水區民權路92巷35-1號","121.462051666667","25.1267783333333","6501000","淡水區"
"251009","575-R6","2018/12/25 19:11:18","新北市淡水區清水街192號","121.440555","25.1709133333333","6501000","淡水區"
"251007","577-R6","2018/12/25 19:11:28","新北市淡水區民生路145巷58號","121.46802","25.1387566666667","6501000","淡水區"
"251002","672-BX","2018/12/25 19:11:17","新北市淡水區中山路131號","121.441136666667","25.1712633333333","6501000","淡水區"
"251003","673-BX","2018/12/25 19:11:22","新北市淡水區中山北路一段47號","121.441681666667","25.1753933333333","6501000","淡水區"
"207003","550-UM","2018/12/25 19:11:24","新北市萬里區大鵬里萬里加投79-3號","121.64731","25.2123316666667","6502800","萬里區"
"207004","225-TW","2018/12/25 19:11:14","新北市萬里區萬里里瑪鋉路54巷15號","121.690398333333","25.17733","6502800","萬里區"
"252002","178-VK","2018/12/25 19:11:30","新北市三芝區埔坪里埔頭坑84號","121.508118333333","25.2542716666667","6502100","三芝區"
"252003","249-BX","2018/12/25 19:11:10","新北市三芝區古庄里四棧橋38-1號","121.483661666667","25.2628566666667","6502100","三芝區"
"252001","292-VK","2018/12/25 19:11:11","新北市三芝區長勤街36號","121.500721666667","25.25568","6502100","三芝區"
"237004","KEA-2597","2018/12/25 19:11:07","新北市三峽區有木205-1號","121.439046666667","24.8515416666667","6500900","三峽區"
"237007","153-BY","2018/12/25 19:11:25","新北市三峽區中正路二段42巷12-1號","121.364216666667","24.9206783333333","6500900","三峽區"
"237009","210-TH","2018/12/25 19:11:11","新北市三峽區文化路149號","121.368436666667","24.9358866666667","6500900","三峽區"
"237013","252-BX","2018/12/25 19:11:21","新北市三峽區大同路39-1號","121.376646666667","24.9280616666667","6500900","三峽區"
"237012","275-BY","2018/12/25 19:11:20","新北市三峽區三樹路222巷236弄23號","121.391671666667","24.9430216666667","6500900","三峽區"
"237008","302-VK","2018/12/25 19:11:14","新北市三峽區大同路95號","121.374696666667","24.9270783333333","6500900","三峽區"
"237014","433-BY","2018/12/25 19:11:14","新北市三峽區中山路257巷39號","121.362123333333","24.9364233333333","6500900","三峽區"
"237006","5529-G3","2018/12/25 19:11:29","新北市三峽區溪東路327號","121.410598333333","24.93017","6500900","三峽區"
"237011","KEA-2596","2018/12/25 19:11:16","新北市三峽區介壽路三段107號","121.395483333333","24.9392916666667","6500900","三峽區"
"237016","649-BX","2018/12/25 19:11:28","新北市三峽區安坑49號","121.46091","24.9321366666667","6500900","三峽區"
"237010","706-TV","2018/12/25 19:11:26","新北市三峽區民生街58號","121.375288333333","24.9362766666667","6500900","三峽區"
"237005","AKY-6261","2018/12/25 19:11:13","新北市三峽區中山路459巷90-1號","121.355025","24.936195","6500900","三峽區"
"236070","105-UM","2018/12/25 19:11:10","新北市土城區裕生路84巷6號","121.44698","24.9855316666667","6501300","土城區"
"236079","166-UM","2018/12/25 19:11:14","新北市土城區中央路四段321巷32-2號","121.411826666667","24.951195","6501300","土城區"
"236030","253-BX","2018/12/25 19:11:26","新北市土城區城林路6巷80號","121.438538333333","24.9796233333333","6501300","土城區"
"236026","269-VK","2018/12/25 19:11:12","新北市土城區中正路1號","121.442136666667","24.9750683333333","6501300","土城區"
"236014","270-VK","2018/12/25 19:11:29","新北市土城區學府路一段23巷38號","121.457318333333","24.98685","6501300","土城區"
"236021","401-BY","2018/12/25 19:11:17","新北市土城區延峰街16號","121.468721666667","24.9863516666667","6501300","土城區"
"236059","912-UM","2018/12/25 19:11:17","新北市土城區金城路一段141號","121.445353333333","24.9742583333333","6501300","土城區"
"236049","913-UM","2018/12/25 19:11:09","新北市土城區明德路一段365-1號","121.453651666667","24.9790833333333","6501300","土城區"
"236055","AAC-216","2018/12/25 19:11:13","新北市土城區學府路一段217號","121.451485","24.9843283333333","6501300","土城區"
"242013","173-VK","2018/12/25 19:11:11","新北市新莊區三和路12-21號","121.442055","25.0387433333333","6500500","新莊區"
"242007","176-VK","2018/12/25 19:11:23","新北市新莊區瓊林南路305巷35號","121.435995","25.004815","6500500","新莊區"
"238023","601-UM","2018/12/25 19:11:11","新北市樹林區三興路77號","121.392575","25.0144666666667","6500700","樹林區"
"238019","599-UM","2018/12/25 19:11:25","新北市樹林區東華街70巷1號","121.415361666667","24.98135","6500700","樹林區"
"238022","KEA-2213","2018/12/25 19:11:16","新北市樹林區中山路二段151巷8弄33號","121.40598","24.9775716666667","6500700","樹林區"
"238021","KEA-2539","2018/12/25 19:11:19","新北市樹林區柑園街二段447號","121.363576666667","24.946405","6500700","樹林區"
"238025","303-VK","2018/12/25 19:11:26","新北市樹林區中山路三段92號","121.393241666667","24.9722483333333","6500700","樹林區"
"238017","283-BY","2018/12/25 19:11:18","新北市樹林區光興街50號","121.40985","25.00271","6500700","樹林區"
"238014","282-BY","2018/12/25 19:11:23","新北市樹林區千歲街63-14號","121.427033333333","24.99859","6500700","樹林區"
"238020","268-VK","2018/12/25 19:11:27","新北市樹林區俊英街133巷1弄1號","121.424063333333","25.0113866666667","6500700","樹林區"
"238026","172-UY","2018/12/25 19:11:19","新北市樹林區佳園路一段39號","121.393006666667","24.9707933333333","6500700","樹林區"
"238016","169-UY","2018/12/25 19:11:27","新北市樹林區中山路一段306巷18號","121.419491666667","24.9866416666667","6500700","樹林區"
"239007","AAC-297","2018/12/25 19:11:28","新北市鶯歌區西湖街53巷30-1號","121.341938333333","24.9610216666667","6500800","鶯歌區"
"239006","891-R6","2018/12/25 19:11:28","新北市鶯歌區永昌街190號","121.339258333333","24.9504933333333","6500800","鶯歌區"
"239008","527-UM","2018/12/25 19:11:28","新北市鶯歌區大湖路548巷1弄2號","121.337185","24.9731666666667","6500800","鶯歌區"
"239005","526-UM","2018/12/25 19:11:27","新北市鶯歌區中湖街258巷8號","121.34945","24.9764066666667","6500800","鶯歌區"
"239001","417-VK","2018/12/25 19:11:06","新北市鶯歌區永智街30號","121.336688333333","24.9546083333333","6500800","鶯歌區"
"239003","360-BY","2018/12/25 19:11:28","新北市鶯歌區中正二路91巷3號","121.348778333333","24.9500716666667","6500800","鶯歌區"
"239002","359-BY","2018/12/25 19:11:25","新北市鶯歌區湖山路64巷1號","121.339793333333","24.9767283333333","6500800","鶯歌區"
"239004","193-VK","2018/12/25 19:11:22","新北市鶯歌區中正三路203號","121.335433333333","24.9393916666667","6500800","鶯歌區"
"221008","489-VK","2018/12/25 19:11:16","新北市汐止區康寧街418-1號","121.63047","25.0680033333333","6501100","汐止區"
"221036","130-UY","2018/12/25 19:11:18","新北市汐止區康寧街901號","121.651093333333","25.0751566666667","6501100","汐止區"
"221015","131-UY","2018/12/25 19:11:25","新北市汐止區康寧街901號","121.65164","25.07495","6501100","汐止區"
"221010","269-BY","2018/12/25 19:11:16","新北市汐止區康寧街901號","121.651548333333","25.07498","6501100","汐止區"
"221012","278-VK","2018/12/25 19:11:30","新北市汐止區康寧街901號","121.650763333333","25.07524","6501100","汐止區"
"221023","279-VK","2018/12/25 19:11:09","新北市汐止區康寧街901號","121.65154","25.07498","6501100","汐止區"
"221027","281-BY","2018/12/25 19:11:24","新北市汐止區康寧街901號","121.651481666667","25.0750133333333","6501100","汐止區"
"221029","298-VK","2018/12/25 19:11:19","新北市汐止區汐萬路一段256巷3號","121.65256","25.07446","6501100","汐止區"
"221021","299-VK","2018/12/25 19:11:26","新北市汐止區康寧街901號","121.651441666667","25.075055","6501100","汐止區"
"221031","353-TW","2018/12/25 19:11:27","新北市汐止區汐萬路一段256巷1號","121.652026666667","25.07482","6501100","汐止區"
"221025","623-UM","2018/12/25 19:11:25","新北市汐止區康寧街901號","121.651505","25.07491","6501100","汐止區"
"221038","646-BX","2018/12/25 19:11:13","新北市汐止區汐萬路一段312號","121.65068","25.075265","6501100","汐止區"
"221033","647-BX","2018/12/25 19:11:10","新北市汐止區南勢街3號","121.627095","25.03742","6501100","汐止區"
"221002","707-TV","2018/12/25 19:11:23","新北市汐止區大同路一段300號","121.635733333333","25.0580583333333","6501100","汐止區"
"221018","753-BX","2018/12/25 19:11:28","新北市汐止區康寧街901號","121.650906666667","25.0752833333333","6501100","汐止區"
"220079","145-BY","2018/12/25 19:11:17","新北市板橋區民權路254號","121.458325","25.01501","6500100","板橋區"
"220080","200-UY","2018/12/25 19:11:22","新北市板橋區大觀路二段7巷27號","121.44789","25.0034916666667","6500100","板橋區"
"220082","610-BX","2018/12/25 19:11:27","新北市板橋區溪崑二街96巷2號","121.426778333333","24.9889783333333","6500100","板橋區"
"220091","267-BY","2018/12/25 19:11:16","新北市板橋區縣民大道三段185號","121.479476666667","25.024715","6500100","板橋區"
"220056","276-BY","2018/12/25 19:11:22","新北市土城區廣福街106號","121.456641666667","24.9923716666667","6500100","板橋區"
"220072","277-BY","2018/12/25 19:11:16","新北市板橋區金門街262號","121.42993","24.98671","6500100","板橋區"
"220101","280-UM","2018/12/25 19:11:25","新北市板橋區莊敬路25巷13號","121.474535","25.0271933333333","6500100","板橋區"
"220071","283-VK","2018/12/25 19:11:21","新北市板橋區重慶路245巷50弄32-3號","121.465305","25.0004633333333","6500100","板橋區"
"220094","285-UM","2018/12/25 19:11:09","新北市板橋區光武街136巷7號","121.465671666667","25.0300916666667","6500100","板橋區"
"220053","285-VK","2018/12/25 19:11:21","新北市板橋區懷仁街35巷2弄2號","121.476748333333","25.019565","6500100","板橋區"
"220083","286-VK","2018/12/25 19:11:17","新北市板橋區大觀路二段174巷173弄11號","121.441233333333","25.00388","6500100","板橋區"
"220081","287-VK","2018/12/25 19:11:08","新北市板橋區南雅西路二段110巷35號","121.452958333333","25.0127083333333","6500100","板橋區"
"220090","288-VK","2018/12/25 19:11:23","新北市板橋區長江路一段106巷13弄18號","121.46075","25.0294033333333","6500100","板橋區"
"220061","293-UM","2018/12/25 19:11:23","新北市板橋區中山路二段318巷25號","121.480533333333","25.0185166666667","6500100","板橋區"
"220092","295-UM","2018/12/25 19:11:13","新北市板橋區光武街40號","121.467368333333","25.026045","6500100","板橋區"
"220084","296-UM","2018/12/25 19:11:09","新北市板橋區溪崑一街30巷23號","121.429221666667","24.9914666666667","6500100","板橋區"
"220075","303-R5","2018/12/25 19:11:17","新北市板橋區南雅南路一段60-1號","121.455383333333","25.0053583333333","6500100","板橋區"
"220062","305-R5","2018/12/25 19:11:07","新北市板橋區三民路二段245巷4弄10號","121.480865","25.0117366666667","6500100","板橋區"
"220092","307-R5","2018/12/25 18:46:32","新北市板橋區民生路二段56-6號","121.470781666667","25.01898","6500100","板橋區"
"220098","317-R6","2018/12/25 19:11:17","新北市板橋區四維路112巷36號","121.465375","25.02587","6500100","板橋區"
"220089","487-VK","2018/12/25 19:11:24","新北市板橋區文化路一段263號","121.464555","25.0181633333333","6500100","板橋區"
"220088","491-VK","2018/12/25 19:11:26","新北市板橋區雙十路二段79號","121.476063333333","25.0272266666667","6500100","板橋區"
"220035","560-BX","2018/12/25 19:11:03","新北市板橋區中正路379巷3弄1號","121.45336","25.02121","6500100","板橋區"
"220103","561-BX","2018/12/25 19:11:26","新北市板橋區文化路一段220號","121.466828333333","25.0205416666667","6500100","板橋區"
"220063","609-BX","2018/12/25 19:11:30","新北市板橋區三民路二段228號","121.478661666667","25.011225","6500100","板橋區"
"220055","630-UY","2018/12/25 19:11:21","新北市板橋區中山路一段158號","121.46588","25.0118816666667","6500100","板橋區"
"220057","686-BX","2018/12/25 19:11:15","新北市板橋區重慶路368號","121.464581666667","24.9970433333333","6500100","板橋區"
"220077","687-BX","2018/12/25 19:11:17","新北市板橋區大觀路二段325號","121.441571666667","24.9985533333333","6500100","板橋區"
"220093","689-BX","2018/12/25 19:11:14","新北市板橋區漢生西路77-3號","121.462721666667","25.0191466666667","6500100","板橋區"
"220054","741-BX","2018/12/25 19:11:17","新北市板橋區後埔街47號","121.460626666667","25.005855","6500100","板橋區"
"220102","KEA-2699","2018/12/25 19:11:10","新北市板橋區松柏街40號","121.475271666667","25.0301083333333","6500100","板橋區"
"220067","829-TW","2018/12/25 19:11:16","新北市板橋區長安街138巷1弄118號","121.47423","25.010435","6500100","板橋區"
"220068","830-TW","2018/12/25 19:11:09","新北市板橋區翠華街4巷1號","121.480265","25.023825","6500100","板橋區"
"220106","831-TW","2018/12/25 19:11:13","新北市板橋區江寧路三段85巷14號","121.472256666667","25.033175","6500100","板橋區"
"220074","895-R6","2018/12/25 19:11:24","新北市板橋區西門街5號","121.456091666667","25.0110083333333","6500100","板橋區"
"220073","985-R7","2018/12/25 19:11:19","新北市板橋區中正路307號","121.455188333333","25.0197316666667","6500100","板橋區"
"220097","AAC-210","2018/12/25 19:11:27","新北市板橋區幸福路60巷49號","121.460306666667","25.02133","6500100","板橋區"
"220064","AAC-253","2018/12/25 19:11:21","新北市板橋區板新路158號","121.470253333333","25.015715","6500100","板橋區"
"235068","KEA-2873","2018/12/25 19:11:11","新北市中和區板南路250號","121.496535","24.995125","6500300","中和區"
"235061","KEA-2875","2018/12/25 19:11:06","新北市中和區中山路三段145號","121.473826666667","25.0059966666667","6500300","中和區"
"235047","KEA-2876","2018/12/25 19:11:01","新北市中和區捷運路6號","121.510196666667","24.9895933333333","6500300","中和區"
