"lineid","car","time","location","longitude","latitude","cityid","cityname"
"234040","862-TW","2018/12/25 22:00:17","新北市永和區福和路1號","121.52618","25.009875","6500400","永和區"
"247012","KEA-2869","2018/12/25 22:10:35","新北市八里區荖阡坑路32號","121.403191666667","25.12757","6501400","蘆洲區"
"251004","009-UM","2018/12/25 22:11:26","新北市淡水區民族路33號","121.462235","25.1357816666667","6501000","淡水區"
"251008","181-VK","2018/12/25 22:11:21","新北市淡水區學府路104號","121.449863333333","25.1717866666667","6501000","淡水區"
"251010","413-VK","2018/12/25 22:11:16","新北市淡水區沙崙路200號","121.42475","25.183905","6501000","淡水區"
"251007","442-VK","2018/12/25 22:11:22","新北市淡水區北新路184巷48號","121.450503333333","25.177855","6501000","淡水區"
"251011","650-BX","2018/12/25 22:11:12","新北市淡水區水碓街7號","121.443173333333","25.1771433333333","6501000","淡水區"
