"lineid","car","time","location","longitude","latitude","cityid","cityname"
"232001","290-BY","2018/01/01 08:37:48","新北市坪林區粗石斛4號","121.747263333333","24.9536566666667","6502000","坪林區"
"232012","291-BY","2018/01/01 08:37:54","新北市坪林區金瓜寮24-2號","121.680433333333","24.908455","6502000","坪林區"
"232017","705-BZ","2018/01/01 08:34:24","新北市坪林區中心崙9號","121.779905","24.9428066666667","6502000","坪林區"
"232005","758-BX","2018/01/01 08:37:56","新北市坪林區石10-3號","121.709175","24.908445","6502000","坪林區"
"244012","069-UM","2018/01/01 08:37:51","新北市林口區中山路158號","121.390638333333","25.0788016666667","6501700","林口區"
"244006","080-UY","2018/01/01 08:37:47","新北市林口區中山路202-6號","121.388156666667","25.079155","6501700","林口區"
"244001","248-BX","2018/01/01 08:37:51","新北市林口區嘉寶里89-5號","121.332226666667","25.1222183333333","6501700","林口區"
"244018","403-UM","2018/01/01 08:37:49","新北市林口區文化一路一段83巷14弄42號","121.37216","25.0715366666667","6501700","林口區"
"244024","742-UY","2018/01/01 08:38:00","新北市林口區南勢四街218號","121.356448333333","25.0733033333333","6501700","林口區"
"244022","483-VK","2018/01/01 08:37:55","新北市林口區興林路351號","121.38899","25.0684833333333","6501700","林口區"
"244016","485-VK","2018/01/01 08:37:46","新北市林口區八德路20巷3號","121.367941666667","25.0674533333333","6501700","林口區"
"244010","656-BX","2018/01/01 08:38:01","新北市林口區中正路74巷5弄4號","121.394546666667","25.0780083333333","6501700","林口區"
"244008","837-TS","2018/01/01 08:38:03","新北市林口區佳林路56巷3號","121.385613333333","25.0817066666667","6501700","林口區"
"244020","838-TS","2018/01/01 08:37:41","新北市林口區自強四街7號","121.39905","25.0767466666667","6501700","林口區"
"222005","289-BY","2018/01/01 08:36:40","新北市深坑區風格街31巷26號","121.627551666667","25.01763","6501800","深坑區"
"231007","189-VK","2018/01/01 08:37:54","新北市新店區新潭路三段211號","121.504265","24.90477","6500600","新店區"
"231008","192-VK","2018/01/01 08:38:05","新北市新店區新烏路三段165巷64號","121.553966666667","24.901525","6500600","新店區"
"235043","352-BY","2018/01/01 08:37:55","新北市中和區圓通路435-1號","121.488065","24.985665","6500300","中和區"
"226005","5620-A6","2018/01/01 08:37:57","新北市平溪區南山里六分8號","121.796456666667","25.0496533333333","6502400","平溪區"
"226001","7418-A5","2018/01/01 08:26:20","新北市平溪區東勢里番仔坑16號","121.756038333333","24.9917133333333","6502400","平溪區"
"226003","AGD-0702","2018/01/01 08:38:02","新北市平溪區十分里十分街246號","121.777581666667","25.0445716666667","6502400","平溪區"
"223006","022-BY","2018/01/01 08:37:42","新北市石碇區溪邊寮2-1號","121.658458333333","24.9780583333333","6501900","石碇區"
"223002","198-BX","2018/01/01 08:37:47","新北市石碇區楓子林3號","121.641531666667","25.0084633333333","6501900","石碇區"
"223008","406-TH","2018/01/01 08:38:05","新北市石碇區碇南路二段松柏崎巷45號","121.678041666667","25.0254766666667","6501900","石碇區"
"223001","592-UM","2018/01/01 08:37:44","新北市石碇區北宜路六段柑腳巷2號","121.659523333333","24.9380683333333","6501900","石碇區"
"223004","660-BX","2018/01/01 08:37:55","新北市石碇區崩山24-2號","121.678613333333","24.96785","6501900","石碇區"
"223007","661-BX","2018/01/01 08:37:57","新北市石碇區碇南路二段松柏崎巷3號","121.671905","25.01881","6501900","石碇區"
"223005","677-TV","2018/01/01 08:37:54","新北市石碇區崩山33號","121.677435","24.9645666666667","6501900","石碇區"
"227005","282-VK","2018/01/01 08:37:50","新北市雙溪區泰平里泰平1-5號","121.846936666667","24.995625","6502500","雙溪區"
"252006","073-UM","2018/01/01 08:37:57","新北市三芝區後厝里北勢子22-16號","121.473023333333","25.253305","6502100","三芝區"
"252004","249-BX","2018/01/01 08:37:52","新北市三芝區興華里田心子11-2號","121.494068333333","25.206095","6502100","三芝區"
"237001","159-UY","2018/01/01 08:37:55","新北市三峽區學勤路110號","121.375076666667","24.9462","6500900","三峽區"
"236007","165-UM","2018/01/01 08:37:59","新北市土城區青雲路291號","121.459118333333","24.9797466666667","6501300","土城區"
"236001","339-SR","2018/01/01 08:37:47","新北市土城區中央路四段83號","121.417076666667","24.9581483333333","6501300","土城區"
"236005","498-BY","2018/01/01 08:37:48","新北市土城區永和街46-1號","121.434503333333","24.96049","6501300","土城區"
"242030","AAC-296","2018/01/01 08:37:55","新北市新莊區新泰路255巷20號","121.445215","25.0397183333333","6500500","新莊區"
"242028","986-R7","2018/01/01 08:37:54","新北市新莊區中平路303號","121.444586666667","25.0514","6500500","新莊區"
"242049","751-BX","2018/01/01 08:38:01","新北市新莊區西盛街141號","121.428245","25.0184066666667","6500500","新莊區"
"242024","615-BX","2018/01/01 08:37:50","新北市新莊區五工二路88號","121.459656666667","25.066435","6500500","新莊區"
"242022","613-BX","2018/01/01 08:38:01","新北市新莊區化成路424號","121.465961666667","25.05108","6500500","新莊區"
"242026","612-BX","2018/01/01 08:37:56","新北市新莊區幸福路597號","121.453418333333","25.0492416666667","6500500","新莊區"
"242038","566-BX","2018/01/01 08:38:03","新北市新莊區民安西路40號","121.427218333333","25.0210216666667","6500500","新莊區"
"242043","442-UM","2018/01/01 08:37:56","新北市新莊區雙鳳路134巷2號","121.413093333333","25.028035","6500500","新莊區"
"242047","441-UM","2018/01/01 08:37:58","新北市新莊區民安路106號","121.42427","25.0255866666667","6500500","新莊區"
"242052","440-UM","2018/01/01 08:37:49","新北市新莊區民安西路344號","121.427031666667","25.0113183333333","6500500","新莊區"
"242033","415-TV","2018/01/01 08:38:02","新北市新莊區仁愛街30號","121.444283333333","25.0361816666667","6500500","新莊區"
"242003","413-TV","2018/01/01 08:37:47","新北市新莊區自由街34號","121.455901666667","25.046565","6500500","新莊區"
"242040","400-BY","2018/01/01 08:37:57","新北市新莊區天祥街92巷10號","121.415568333333","25.0298416666667","6500500","新莊區"
"242059","362-BY","2018/01/01 08:37:58","新北市新莊區民安路188巷4號","121.425115","25.02348","6500500","新莊區"
"242057","353-BY","2018/01/01 08:37:47","新北市新莊區中正路818號","121.409891666667","25.0208166666667","6500500","新莊區"
"242006","132-UY","2018/01/01 08:38:03","新北市新莊區思源路593巷6弄14號","121.458971666667","25.0599333333333","6500500","新莊區"
"242035","133-UY","2018/01/01 08:37:52","新北市新莊區後港一路35號","121.425376666667","25.0261516666667","6500500","新莊區"
"242020","135-UY","2018/01/01 08:37:54","新北市新莊區新興街16號","121.450716666667","25.036415","6500500","新莊區"
"242045","172-VK","2018/01/01 08:38:00","新北市新莊區福營路354號","121.42129","25.026595","6500500","新莊區"
"242008","173-VK","2018/01/01 08:37:57","新北市新莊區昌盛街34號","121.45422","25.0499466666667","6500500","新莊區"
"242014","175-VK","2018/01/01 08:37:51","新北市新莊區泰順街63號","121.447951666667","25.0430983333333","6500500","新莊區"
"242001","176-VK","2018/01/01 08:37:59","新北市新莊區武前街29號","121.450371666667","25.0325166666667","6500500","新莊區"
"242012","346-TH","2018/01/01 08:37:54","新北市新莊區中港路417巷16號","121.4517","25.04757","6500500","新莊區"
"242018","348-TH","2018/01/01 08:37:52","新北市新莊區中港路132巷10號","121.455798333333","25.04075","6500500","新莊區"
"242016","350-TH","2018/01/01 08:37:53","新北市新莊區中港路360號","121.452046666667","25.0468666666667","6500500","新莊區"
"242010","351-TH","2018/01/01 08:37:59","新北市新莊區中港路中慶巷27弄13號","121.450156666667","25.0532","6500500","新莊區"
"239006","661-UM","2018/01/01 08:37:53","桃園市龜山區宏德司法新村1號","121.331628333333","24.979495","6500800","鶯歌區"
"220064","282-UM","2018/01/01 08:37:57","新北市五股區凌雲路二段18巷6號","121.443523333333","25.1065983333333","6500100","板橋區"
"242055","280-VK","2018/01/01 08:37:51","新北市新莊區豐年街豐1巷16號","121.447165","25.0311616666667","6500500","新莊區"
