"lineid","car","time","location","longitude","latitude","cityid","cityname"
"244025","742-UY","2018/01/01 11:28:10","新北市林口區粉寮路二段160巷28號","121.405241666667","25.0908","6501700","林口區"
"231008","192-VK","2018/01/01 12:04:25","新北市新店區屈尺路56號","121.54763","24.9227033333333","6500600","新店區"
"235031","255-BX","2018/01/01 11:39:53","新北市中和區和城路一段271巷1號","121.485491666667","24.991885","6500300","中和區"
"224010","AGQ-8101","2018/01/01 09:30:02","新北市瑞芳區明燈路二段48-1號","121.809631666667","25.1079933333333","6501200","瑞芳區"
"227005","282-VK","2018/01/01 12:04:30","新北市雙溪區牡丹里中正路103號","121.861756666667","25.0474516666667","6502500","雙溪區"
"220064","282-UM","2018/01/01 08:58:29","新北市板橋區華東街1-9號","121.448146666667","24.9948433333333","6500100","板橋區"
