"lineid","car","time","location","longitude","latitude","cityid","cityname"
"234044","148-BY","2018/01/01 13:09:38","新北市永和區永元路18巷9號","121.523106666667","25.0002483333333","6500400","永和區"
"234012","149-BY","2018/01/01 13:09:41","新北市永和區保福路二段30號","121.51099","25.01172","6500400","永和區"
"234005","207-UY","2018/01/01 13:09:29","新北市永和區中山路一段175-1號","121.50948","25.0090266666667","6500400","永和區"
"234081","298-R6","2018/01/01 13:09:51","新北市永和區福和路57巷14弄5號","121.522433333333","25.0071383333333","6500400","永和區"
"234036","336-UY","2018/01/01 13:09:50","新北市永和區民樂街73巷1號","121.527363333333","24.9972883333333","6500400","永和區"
"234062","337-UY","2018/01/01 13:09:51","新北市永和區秀朗路二段48號","121.521641666667","25.0021833333333","6500400","永和區"
"234084","338-UY","2018/01/01 13:09:37","新北市永和區永利路4巷24號","121.517561666667","25.0048633333333","6500400","永和區"
"234052","553-UM","2018/01/01 13:09:43","新北市永和區中興街133巷8號","121.518578333333","25.01268","6500400","永和區"
"234015","745-BX","2018/01/01 13:09:44","新北市永和區文化路90巷9弄2號","121.513773333333","25.0158416666667","6500400","永和區"
"234060","AAD-866","2018/01/01 13:09:41","新北市永和區安樂路304巷7號","121.514521666667","25.00508","6500400","永和區"
"234068","847-RS","2018/01/01 13:09:42","新北市永和區豫溪街137號","121.519815","25.0104016666667","6500400","永和區"
"234040","862-TW","2018/01/01 13:09:49","新北市永和區保平路93巷7號","121.511963333333","25.0065966666667","6500400","永和區"
"234048","863-TW","2018/01/01 13:09:43","新北市永和區文化路135巷28號","121.510725","25.0142266666667","6500400","永和區"
"234025","9371-KE","2018/01/01 13:09:55","新北市永和區自由街41-1號","121.51407","25.0060583333333","6500400","永和區"
"234010","9373-KE","2018/01/01 13:09:50","新北市永和區永和路二段231巷5號","121.514758333333","25.0139133333333","6500400","永和區"
"248015","026-BX","2018/01/01 13:09:53","新北市五股區成泰路三段146號","121.44435","25.0898183333333","6501500","五股區"
"248005","077-UY","2018/01/01 13:09:48","新北市五股區中興路二段61號","121.461388333333","25.07686","6501500","五股區"
"248007","095-VK","2018/01/01 13:09:35","新北市五股區更洲路32巷8弄35-9號","121.460048333333","25.0794266666667","6501500","五股區"
"248019","225-UY","2018/01/01 13:09:45","新北市五股區成泰路三段544-1號","121.45443","25.1024516666667","6501500","五股區"
"248011","247-BX","2018/01/01 13:09:39","新北市五股區新五路二段258號","121.441011666667","25.0821883333333","6501500","五股區"
"248013","261-SL","2018/01/01 13:09:41","新北市五股區成泰路一段191號","121.434763333333","25.0765233333333","6501500","五股區"
"248009","272-BY","2018/01/01 13:09:38","新北市五股區新五路二段135號","121.438883333333","25.0801116666667","6501500","五股區"
"248003","677-BX","2018/01/01 13:09:39","新北市五股區成泰路二段51-1號","121.437835","25.08331","6501500","五股區"
"248001","678-BX","2018/01/01 13:09:45","新北市五股區芳洲路59號","121.442055","25.0843366666667","6501500","五股區"
"234022","9380-KE","2018/01/01 13:09:41","新北市永和區中興街10巷17號","121.515831666667","25.0111733333333","6500400","永和區"
"234076","969-R7","2018/01/01 13:09:54","新北市永和區民光街3號","121.515285","24.9963833333333","6500400","永和區"
"234072","AAC-211","2018/01/01 13:09:38","新北市永和區竹林路152號","121.52008","25.01066","6500400","永和區"
"234066","AAC-212","2018/01/01 13:09:42","新北市永和區永和路一段67號","121.512961666667","25.0071016666667","6500400","永和區"
"234001","AAC-295","2018/01/01 13:09:42","新北市永和區和平街2號","121.514261666667","25.01003","6500400","永和區"
"244001","248-BX","2018/01/01 13:09:50","新北市林口區嘉寶里32-1號","121.360521666667","25.0972683333333","6501700","林口區"
"244025","742-UY","2018/01/01 11:28:10","新北市林口區粉寮路二段160巷28號","121.405241666667","25.0908","6501700","林口區"
"243007","380-SR","2018/01/01 03:24:02","新北市泰山區黎明路26號","121.421346666667","25.0605966666667","6501600","泰山區"
"243005","646-TV","2018/01/01 13:09:37","新北市泰山區南林路89-4號","121.415478333333","25.0511966666667","6501600","泰山區"
"231037","0293-UT","2018/01/01 13:09:51","新北市新店區安華路28-1號","121.519565","24.9605883333333","6500600","新店區"
"231028","046-UY","2018/01/01 13:09:45","新北市新店區安華路28-1號","121.51953","24.9607666666667","6500600","新店區"
"231030","047-UY","2018/01/01 13:09:47","新北市新店區安華路28-1號","121.519223333333","24.9608966666667","6500600","新店區"
"231029","106-UY","2018/01/01 13:09:43","新北市新店區安華路28-1號","121.519585","24.9607266666667","6500600","新店區"
"231018","107-UY","2018/01/01 13:09:53","新北市新店區安華路28-1號","121.519436666667","24.961275","6500600","新店區"
"231011","108-UY","2018/01/01 13:09:40","新北市新店區安華路28-1號","121.519476666667","24.961025","6500600","新店區"
"231019","187-VK","2018/01/01 13:09:55","新北市新店區安康路一段355-10號","121.520271666667","24.9638066666667","6500600","新店區"
"231014","KEA-2219","2018/01/01 13:09:41","新北市新店區安華路28-1號","121.519673333333","24.9612783333333","6500600","新店區"
"231026","256-BX","2018/01/01 13:09:43","新北市新店區安華路28-1號","121.519631666667","24.9611066666667","6500600","新店區"
"231034","268-BY","2018/01/01 13:09:54","新北市新店區安華路28-1號","121.519441666667","24.960575","6500600","新店區"
"231010","278-BY","2018/01/01 09:43:07","新北市新店區安華路28-1號","121.519833333333","24.9613233333333","6500600","新店區"
"231023","AAD-862","2018/01/01 13:09:53","新北市新店區安華路28-1號","121.519686666667","24.9611416666667","6500600","新店區"
"231005","355-BY","2018/01/01 13:09:50","新北市新店區安華路28-1號","121.519288333333","24.9607616666667","6500600","新店區"
"231027","3712-VJ","2018/01/01 13:09:48","新北市新店區安華路1-1號","121.519283333333","24.96056","6500600","新店區"
"231025","3713-VJ","2018/01/01 13:09:52","新北市新店區安華路28-1號","121.519596666667","24.9607366666667","6500600","新店區"
"231024","4716-K9","2018/01/01 13:09:42","新北市新店區安華路28-1號","121.519728333333","24.9609666666667","6500600","新店區"
"231038","4715-K9","2018/01/01 13:09:44","新北市新店區安華路1-1號","121.519375","24.96036","6500600","新店區"
"231036","512-UM","2018/01/01 13:09:40","新北市新店區安華路16號","121.517111666667","24.9581116666667","6500600","新店區"
"231035","515-UM","2018/01/01 13:09:54","新北市新店區安華路28-1號","121.51993","24.960775","6500600","新店區"
"231001","619-UM","2018/01/01 13:09:38","新北市新店區安華路28-1號","121.519423333333","24.9606116666667","6500600","新店區"
"231003","641-BX","2018/01/01 13:09:54","新北市新店區安華路28-1號","121.519511666667","24.9605416666667","6500600","新店區"
"231013","719-UM","2018/01/01 13:09:38","新北市新店區安華路28-1號","121.519533333333","24.9612383333333","6500600","新店區"
"231031","720-UM","2018/01/01 13:09:49","新北市新店區安華路28-1號","121.519273333333","24.9612233333333","6500600","新店區"
"231002","897-TW","2018/01/01 13:09:48","新北市新店區安華路28-1號","121.5197","24.96082","6500600","新店區"
"231006","898-TW","2018/01/01 12:56:59","新北市新店區安華路28-1號","121.51938","24.9610216666667","6500600","新店區"
"231004","899-TW","2017/12/31 03:56:10","新北市新店區安華路28-1號","121.519243333333","24.9608433333333","6500600","新店區"
"235030","003-UY","2018/01/01 13:09:47","新北市中和區廣福路34號","121.504533333333","25.0023116666667","6500300","中和區"
"235028","005-UY","2018/01/01 13:09:48","新北市中和區中正路277號","121.495361666667","24.9937066666667","6500300","中和區"
"235027","006-UY","2018/01/01 13:09:56","新北市中和區員山路36巷16-3號","121.485061666667","24.9912966666667","6500300","中和區"
"235004","150-BY","2018/01/01 13:09:40","新北市中和區員山路36巷16-2號","121.485393333333","24.9916083333333","6500300","中和區"
"235022","151-BY","2018/01/01 13:09:43","新北市中和區圓通路367巷29號","121.492493333333","24.985545","6500300","中和區"
"235002","185-VK","2018/01/01 13:09:43","新北市中和區大智街2號","121.519911666667","24.9918966666667","6500300","中和區"
"235031","255-BX","2018/01/01 13:09:52","新北市中和區中正路849巷1號","121.484646666667","25.0027066666667","6500300","中和區"
"235036","301-VK","2018/01/01 13:09:38","新北市中和區員山路36巷12號","121.483896666667","24.9909533333333","6500300","中和區"
"235032","377-QA","2018/01/01 13:09:46","新北市中和區員山路36巷16-3號","121.484941666667","24.99135","6500300","中和區"
"235025","378-QA","2018/01/01 13:03:04","新北市中和區和城路一段271巷1號","121.485646666667","24.9910433333333","6500300","中和區"
"235014","4979-A6","2018/01/01 13:09:50","新北市中和區中正路637巷52弄1號","121.485483333333","24.99357","6500300","中和區"
"235006","551-UM","2018/01/01 13:09:39","新北市中和區錦和路350-1號","121.490496666667","24.99356","6500300","中和區"
"235018","640-BX","2018/01/01 13:09:49","新北市土城區延壽路109巷2號","121.469166666667","24.9935183333333","6500300","中和區"
"235011","732-UM","2018/01/01 13:09:45","新北市中和區連城路301號","121.489818333333","24.996415","6500300","中和區"
"235026","800-TS","2018/01/01 13:09:54","新北市中和區橋和路77號","121.489316666667","25.005135","6500300","中和區"
"235005","802-TS","2018/01/01 13:09:37","新北市中和區中正路637巷52弄1號","121.48544","24.99351","6500300","中和區"
"235016","805-TS","2018/01/01 13:09:50","新北市中和區錦和路350-1號","121.490193333333","24.99356","6500300","中和區"
"235012","896-TW","2018/01/01 13:09:37","新北市中和區員山路36巷16-2號","121.48516","24.99184","6500300","中和區"
"235017","900-TW","2018/01/01 13:09:42","新北市中和區員山路36巷16-3號","121.484828333333","24.9916816666667","6500300","中和區"
"235029","911-UM","2018/01/01 13:09:34","新北市中和區橋和路328號","121.497983333333","25.0074383333333","6500300","中和區"
"235015","157-BY","2018/01/01 13:09:39","新北市中和區板南路187號","121.49989","24.992905","6500300","中和區"
"235001","AAC-213","2018/01/01 13:09:37","新北市中和區景平路149號","121.513813333333","24.9921366666667","6500300","中和區"
"224010","AGQ-8101","2018/01/01 09:30:02","新北市瑞芳區明燈路二段48-1號","121.809631666667","25.1079933333333","6501200","瑞芳區"
"253003","6232-TK","2018/01/01 13:09:46","新北市石門區石崩山20-1號","121.565621666667","25.2755316666667","6502200","石門區"
"253001","6251-TK","2018/01/01 13:09:41","新北市石門區老梅路43-2號","121.545368333333","25.28963","6502200","石門區"
"253002","637-UY","2018/01/01 13:09:46","新北市石門區老崩山35號","121.557395","25.2767583333333","6502200","石門區"
"253004","8270-PC","2018/01/01 13:09:42","新北市石門區草埔尾3號","121.598358333333","25.277625","6502200","石門區"
"208004","AAC-292","2018/01/01 13:09:38","新北市金山區中山路162號","121.63841","25.2210133333333","6502700","金山區"
"207002","749-BX","2018/01/01 13:09:52","新北市萬里區崁腳里崁腳路93號","121.64765","25.1590466666667","6502800","萬里區"
"252005","073-UM","2018/01/01 13:09:36","新北市三芝區八賢里八連溪19號","121.510825","25.241725","6502100","三芝區"
"207001","662-BX","2018/01/01 13:09:58","新北市萬里區萬里里瑪鋉路145號","121.689495","25.1777983333333","6502800","萬里區"
"236005","498-BY","2018/01/01 13:09:40","新北市土城區亞洲路122號","121.433943333333","24.9719816666667","6501300","土城區"
"221032","280-BY","2018/01/01 13:09:41","新北市汐止區大同路二段645號","121.664628333333","25.0714","6501100","汐止區"
"220064","282-UM","2018/01/01 08:58:29","新北市板橋區華東街1-9號","121.448146666667","24.9948433333333","6500100","板橋區"
