"lineid","car","time","location","longitude","latitude","cityid","cityname"
"234044","148-BY","2018/01/01 13:49:38","新北市永和區永亨路203號","121.526081666667","25.0027116666667","6500400","永和區"
"234012","149-BY","2018/01/01 13:49:41","新北市永和區仁愛路204號","121.509273333333","25.0122716666667","6500400","永和區"
"234005","207-UY","2018/01/01 13:49:49","新北市中和區中和路454號","121.511963333333","25.0036566666667","6500400","永和區"
"234081","298-R6","2018/01/01 13:49:51","新北市永和區永利路81巷23號","121.522386666667","25.0038833333333","6500400","永和區"
"234036","336-UY","2018/01/01 13:49:50","新北市永和區民樂街39巷18弄2號","121.528536666667","24.99956","6500400","永和區"
"234062","337-UY","2018/01/01 13:49:52","新北市永和區中正路368巷33號","121.518943333333","25.0007633333333","6500400","永和區"
"234084","338-UY","2018/01/01 13:49:37","新北市永和區中正路511號","121.516951666667","25.0070883333333","6500400","永和區"
"234052","553-UM","2018/01/01 13:49:53","新北市永和區竹林路58號","121.517861666667","25.013875","6500400","永和區"
"234015","745-BX","2018/01/01 13:49:44","新北市永和區文化路25號","121.514966666667","25.0149816666667","6500400","永和區"
"234060","AAD-866","2018/01/01 13:49:41","新北市永和區安樂路44號","121.514608333333","24.9968933333333","6500400","永和區"
"234068","847-RS","2018/01/01 13:49:42","新北市永和區竹林路88號","121.519415","25.0126283333333","6500400","永和區"
"234040","862-TW","2018/01/01 13:49:49","新北市永和區中和路389巷16號","121.508103333333","25.0011516666667","6500400","永和區"
"234048","863-TW","2018/01/01 13:49:48","新北市永和區保安路144號","121.508491666667","25.014875","6500400","永和區"
"234010","9373-KE","2018/01/01 13:49:50","新北市永和區保生路55號","121.504718333333","25.01061","6500400","永和區"
"248015","026-BX","2018/01/01 13:49:53","新北市五股區凌雲路一段135號","121.449555","25.1021083333333","6501500","五股區"
"248007","095-VK","2018/01/01 13:49:55","新北市五股區中興路一段128巷20號","121.4657","25.0748016666667","6501500","五股區"
"248019","225-UY","2018/01/01 13:49:45","新北市五股區凌雲路三段100號","121.426836666667","25.1227283333333","6501500","五股區"
"248011","247-BX","2018/01/01 13:49:39","新北市五股區成泰路二段195巷1號","121.440425","25.087385","6501500","五股區"
"248013","261-SL","2018/01/01 13:49:41","新北市五股區成泰路二段96號","121.437476666667","25.0826983333333","6501500","五股區"
"248009","272-BY","2018/01/01 13:49:50","新北市五股區水碓二路9號","121.430216666667","25.0716183333333","6501500","五股區"
"248003","677-BX","2018/01/01 13:49:39","新北市五股區民義路二段54號","121.40645","25.1071916666667","6501500","五股區"
"248001","678-BX","2018/01/01 13:49:45","新北市五股區成泰路三段454號","121.451396666667","25.10041","6501500","五股區"
"234022","9380-KE","2018/01/01 13:49:41","新北市永和區中正路654巷29號","121.517515","25.0085983333333","6500400","永和區"
"234076","969-R7","2018/01/01 13:49:54","新北市永和區民族街41巷17號","121.519256666667","24.9989283333333","6500400","永和區"
"234072","AAC-211","2018/01/01 13:49:47","新北市永和區豫溪街156號","121.522983333333","25.0099216666667","6500400","永和區"
"234066","AAC-212","2018/01/01 13:49:42","新北市永和區保平路236巷29號","121.50799","25.0068783333333","6500400","永和區"
"234001","AAC-295","2018/01/01 13:49:38","新北市永和區永和路一段107號","121.513888333333","25.0079783333333","6500400","永和區"
"244025","742-UY","2018/01/01 11:28:10","新北市林口區粉寮路二段160巷28號","121.405241666667","25.0908","6501700","林口區"
"243004","AAD-798","2018/01/01 13:49:52","新北市泰山區泰林路二段73巷29號","121.434418333333","25.0578283333333","6501600","泰山區"
"243007","380-SR","2018/01/01 13:49:49","新北市泰山區美寧街50號","121.430551666667","25.064415","6501600","泰山區"
"243002","KEA-2215","2018/01/01 13:49:58","新北市泰山區辭修路24號","121.428998333333","25.0581116666667","6501600","泰山區"
"243001","KEA-2216","2018/01/01 13:49:45","新北市泰山區黎明路25號","121.421838333333","25.0608116666667","6501600","泰山區"
"243005","646-TV","2018/01/01 13:39:54","新北市泰山區明志路三段206巷3號","121.423251666667","25.0379166666667","6501600","泰山區"
"243008","680-BX","2018/01/01 13:49:53","新北市泰山區泰林路二段360號","121.428978333333","25.063655","6501600","泰山區"
"231037","0293-UT","2018/01/01 13:49:51","新北市新店區安康路三段410號","121.485561666667","24.95159","6500600","新店區"
"231028","046-UY","2018/01/01 13:49:45","新北市新店區安和路三段31號","121.517661666667","24.98157","6500600","新店區"
"231030","047-UY","2018/01/01 13:49:47","新北市新店區安康路一段266巷4號","121.520055","24.964045","6500600","新店區"
"231029","106-UY","2018/01/01 13:49:43","新北市新店區安康路二段107巷1號","121.512721666667","24.962245","6500600","新店區"
"231018","107-UY","2018/01/01 13:49:53","新北市新店區中正路400巷6號","121.534813333333","24.9777266666667","6500600","新店區"
"231011","108-UY","2018/01/01 13:49:40","新北市新店區德正街31號","121.544733333333","24.9713166666667","6500600","新店區"
"231019","187-VK","2018/01/01 13:49:35","新北市新店區湖子內路22號","121.542313333333","24.93079","6500600","新店區"
"231014","KEA-2219","2018/01/01 13:49:41","新北市新店區竹林路71-7號","121.553581666667","24.951315","6500600","新店區"
"231026","256-BX","2018/01/01 13:49:53","新北市新店區三民路84巷3號","121.534645","24.97284","6500600","新店區"
"231034","268-BY","2018/01/01 13:49:53","新北市新店區達觀路12號","121.505383333333","24.9403233333333","6500600","新店區"
"231010","278-BY","2018/01/01 13:49:52","新北市新店區平等街48巷8號","121.535806666667","24.97312","6500600","新店區"
"231023","AAD-862","2018/01/01 13:49:53","新北市新店區國校路47號","121.537958333333","24.9549216666667","6500600","新店區"
"231005","355-BY","2018/01/01 13:49:50","新北市新店區寶中路123號","121.549693333333","24.9794066666667","6500600","新店區"
"231027","3712-VJ","2018/01/01 13:49:48","新北市新店區中興路一段34號","121.538743333333","24.9587","6500600","新店區"
"231025","3713-VJ","2018/01/01 13:49:52","新北市新店區中央路31號","121.533051666667","24.977835","6500600","新店區"
"231024","4716-K9","2018/01/01 13:49:22","新北市新店區中華路70巷1號","121.538931666667","24.9693366666667","6500600","新店區"
"231038","4715-K9","2018/01/01 13:49:44","新北市新店區安康路一段321巷3號","121.521721666667","24.962905","6500600","新店區"
"231036","512-UM","2018/01/01 13:49:42","新北市新店區安祥路110巷4號","121.47465","24.9569366666667","6500600","新店區"
"231035","515-UM","2018/01/01 13:49:49","新北市新店區安忠路57巷7弄1號","121.513268333333","24.9585833333333","6500600","新店區"
"231001","619-UM","2018/01/01 13:49:38","新北市新店區三民路40號","121.536218333333","24.9715433333333","6500600","新店區"
"231003","641-BX","2018/01/01 13:49:54","新北市新店區中興路一段110-1號","121.541198333333","24.9623616666667","6500600","新店區"
"231013","719-UM","2018/01/01 13:49:38","新北市新店區二十張路25巷18弄1號","121.539308333333","24.9817333333333","6500600","新店區"
"231031","720-UM","2018/01/01 13:49:49","新北市新店區青山路399巷2號","121.524768333333","24.953025","6500600","新店區"
"231002","897-TW","2018/01/01 13:49:48","新北市新店區溪園路393號","121.524291666667","24.9790616666667","6500600","新店區"
"231006","898-TW","2018/01/01 13:49:35","新北市新店區北宜路一段260號","121.5457","24.95276","6500600","新店區"
"231004","899-TW","2018/01/01 13:49:35","新北市新店區寶橋路69-1號","121.545441666667","24.975015","6500600","新店區"
"235030","003-UY","2018/01/01 13:49:47","新北市中和區水源路18巷4號","121.503981666667","25.0031583333333","6500300","中和區"
"235028","005-UY","2018/01/01 13:49:48","新北市中和區連城路75巷2-12號","121.497605","24.9994866666667","6500300","中和區"
"235027","006-UY","2018/01/01 13:49:56","新北市中和區錦和路107號","121.490215","24.9952233333333","6500300","中和區"
"235010","031-BX","2018/01/01 13:49:40","新北市中和區仁愛街36巷26號","121.511011666667","24.9870766666667","6500300","中和區"
"235020","096-UM","2018/01/01 13:49:37","新北市中和區中正路1196號","121.480368333333","25.01035","6500300","中和區"
"235003","097-UM","2018/01/01 13:49:54","新北市中和區大勇街25巷28號","121.516258333333","24.993635","6500300","中和區"
"235004","150-BY","2018/01/01 13:49:40","新北市中和區保健路48巷2號","121.50998","24.9969433333333","6500300","中和區"
"235022","151-BY","2018/01/01 13:49:43","新北市中和區連城路532巷3-6號","121.475238333333","24.9920416666667","6500300","中和區"
"235019","183-VK","2018/01/01 13:49:56","新北市中和區民生街85巷5弄2號","121.469281666667","25.0039533333333","6500300","中和區"
"235002","185-VK","2018/01/01 13:49:43","新北市中和區大勇街31巷23號","121.517063333333","24.9945583333333","6500300","中和區"
"235013","186-VK","2018/01/01 13:49:43","新北市中和區景安路177巷36號","121.506941666667","24.9945333333333","6500300","中和區"
"235031","255-BX","2018/01/01 13:49:52","新北市中和區新生街220巷1弄1號","121.483418333333","24.9984983333333","6500300","中和區"
"235008","293-VK","2018/01/01 13:49:40","新北市中和區中興街143號","121.49999","24.9912583333333","6500300","中和區"
"235036","301-VK","2018/01/01 13:49:38","新北市中和區中山路二段72號","121.503733333333","25.00451","6500300","中和區"
"235007","352-BY","2018/01/01 13:49:51","新北市中和區景平路1號","121.525853333333","24.9899383333333","6500300","中和區"
"235032","377-QA","2018/01/01 13:49:46","新北市中和區中正路167巷19號","121.49871","24.992665","6500300","中和區"
"235025","378-QA","2018/01/01 13:49:44","新北市中和區民享街54巷16弄3號","121.473306666667","25.0027133333333","6500300","中和區"
"235014","4979-A6","2018/01/01 13:49:50","新北市中和區忠孝街62巷7弄13號","121.512453333333","24.9837","6500300","中和區"
"235033","4980-A6","2018/01/01 13:49:44","新北市中和區南山路81巷8弄12號","121.502566666667","24.9976816666667","6500300","中和區"
"235006","551-UM","2018/01/01 13:49:39","新北市中和區秀朗路三段70巷41號","121.525248333333","24.994345","6500300","中和區"
"235034","558-UM","2018/01/01 13:49:42","新北市中和區南華路48號","121.504016666667","24.9967033333333","6500300","中和區"
"235009","565-BX","2018/01/01 13:49:51","新北市中和區景安路213號","121.504406666667","24.9916166666667","6500300","中和區"
"235018","640-BX","2018/01/01 13:49:49","新北市中和區民享街68巷2號","121.473991666667","25.0018283333333","6500300","中和區"
"235024","647-TV","2018/01/01 13:49:53","新北市中和區中山路三段33號","121.479058333333","25.0059266666667","6500300","中和區"
"235011","732-UM","2018/01/01 13:49:45","新北市中和區興南路二段34巷28弄2號","121.505111666667","24.9864566666667","6500300","中和區"
"235026","800-TS","2018/01/01 13:49:54","新北市中和區中山路二段316號","121.495586666667","25.0023916666667","6500300","中和區"
"235021","801-TS","2018/01/01 13:49:52","新北市中和區民安街22巷13號","121.479685","25.0012","6500300","中和區"
"235005","802-TS","2018/01/01 13:49:37","新北市永和區中和路603號","121.512458333333","25.0043433333333","6500300","中和區"
"235016","805-TS","2018/01/01 13:49:50","新北市中和區興南路二段399巷124號","121.501235","24.9755","6500300","中和區"
"235012","896-TW","2018/01/01 13:49:37","新北市中和區南山路250巷1號","121.50763","24.9891016666667","6500300","中和區"
"235017","900-TW","2018/01/01 13:49:42","新北市中和區華福街29-1號","121.466051666667","24.9967466666667","6500300","中和區"
"235029","911-UM","2018/01/01 13:49:54","新北市中和區中山路二段2巷45弄28號","121.50201","25.0065883333333","6500300","中和區"
"235015","157-BY","2018/01/01 13:49:39","新北市中和區華新街109巷11弄3號","121.508711666667","24.9793083333333","6500300","中和區"
"235001","AAC-213","2018/01/01 13:49:37","新北市中和區秀朗路三段173-2號","121.524415","24.991405","6500300","中和區"
"235023","AAC-215","2018/01/01 13:49:49","新北市中和區圓通路393巷2號","121.489571666667","24.9889383333333","6500300","中和區"
"220016","013-TV","2017/12/29 21:10:47","新北市八里區荖阡坑路4-28號","121.398095","25.1426633333333","6500100","板橋區"
"220013","072-UY","2018/01/01 13:49:36","新北市板橋區漢生東路282號","121.47129","25.0089583333333","6500100","板橋區"
"220034","073-UY","2018/01/01 13:49:39","新北市板橋區大智街71巷40號","121.452943333333","25.0143533333333","6500100","板橋區"
"220105","075-UY","2018/01/01 13:49:55","新北市板橋區民生路二段161巷9號","121.470161666667","25.0196116666667","6500100","板橋區"
"220017","AAD-861","2018/01/01 13:49:39","新北市板橋區南雅南路二段4巷2號","121.45449","25.0038383333333","6500100","板橋區"
"220045","120-SR","2018/01/01 13:49:48","新北市板橋區民生路二段161巷3號","121.470258333333","25.0197866666667","6500100","板橋區"
"247003","336-TH","2018/01/01 13:49:39","新北市蘆洲區長榮路50號","121.462683333333","25.0831916666667","6501400","蘆洲區"
"247005","056-VK","2018/01/01 13:49:46","新北市蘆洲區和平路77號","121.46928","25.0790433333333","6501400","蘆洲區"
"247007","053-VK","2018/01/01 13:49:45","新北市蘆洲區重陽一街14號","121.481586666667","25.081555","6501400","蘆洲區"
"247017","001-UY","2018/01/01 13:49:34","新北市蘆洲區民族路263巷28號","121.475541666667","25.0898033333333","6501400","蘆洲區"
"224010","AGQ-8101","2018/01/01 09:30:02","新北市瑞芳區明燈路二段48-1號","121.809631666667","25.1079933333333","6501200","瑞芳區"
"253003","6232-TK","2018/01/01 13:49:46","新北市石門區尖子鹿8-1號","121.575206666667","25.2799333333333","6502200","石門區"
"253001","6251-TK","2018/01/01 13:49:41","新北市石門區八甲58-2號","121.522056666667","25.2742616666667","6502200","石門區"
"253002","637-UY","2018/01/01 13:49:39","新北市石門區尖山湖13號","121.56327","25.242135","6502200","石門區"
"253004","8270-PC","2018/01/01 13:49:41","新北市石門區草埔尾31-1號","121.60326","25.2650066666667","6502200","石門區"
"208004","AAC-292","2018/01/01 13:49:38","新北市金山區重和里三重橋13號","121.591131666667","25.1897733333333","6502700","金山區"
"207002","749-BX","2018/01/01 13:49:52","新北市萬里區崁腳里崁腳路173-1號","121.645901666667","25.1549866666667","6502800","萬里區"
"252005","073-UM","2018/01/01 13:49:56","新北市三芝區圓山里二坪頂77-1號","121.537373333333","25.23911","6502100","三芝區"
"207001","662-BX","2018/01/01 13:49:37","新北市萬里區磺潭里磺溪12號","121.631045","25.2034016666667","6502800","萬里區"
"236064","105-UM","2018/01/01 13:49:39","新北市土城區城林路6巷80號","121.438373333333","24.9797216666667","6501300","土城區"
"236040","107-UM","2018/01/01 13:49:36","新北市土城區城林路6巷80號","121.438408333333","24.9798183333333","6501300","土城區"
"236074","166-UM","2018/01/01 13:49:36","新北市土城區中華路二段184號","121.437345","24.9710583333333","6501300","土城區"
"236028","253-BX","2018/01/01 13:49:57","新北市土城區城林路6巷80號","121.43857","24.979785","6501300","土城區"
"236024","269-VK","2018/01/01 13:49:43","新北市土城區中華路二段196號","121.437516666667","24.9705883333333","6501300","土城區"
"236012","270-VK","2018/01/01 13:49:58","新北市土城區城林路6巷80號","121.438551666667","24.9797916666667","6501300","土城區"
"236032","271-VK","2018/01/01 13:49:54","新北市土城區城林路6巷80號","121.438343333333","24.979775","6501300","土城區"
"236005","498-BY","2018/01/01 13:49:40","新北市土城區中央路一段100號","121.446891666667","24.9885883333333","6501300","土城區"
"236044","913-UM","2018/01/01 13:49:42","新北市土城區城林路6巷80號","121.438371666667","24.9797933333333","6501300","土城區"
"236060","915-UM","2018/01/01 13:49:50","新北市土城區城林路6巷80號","121.4384","24.979765","6501300","土城區"
"236052","AAC-216","2018/01/01 13:49:41","新北市土城區城林路6巷80號","121.438343333333","24.979735","6501300","土城區"
"221032","280-BY","2018/01/01 13:49:41","新北市汐止區新台五路一段91-2號","121.65039","25.0614533333333","6501100","汐止區"
"220027","145-BY","2018/01/01 13:49:57","新北市板橋區漢生西路89巷4弄12號","121.461158333333","25.0186733333333","6500100","板橋區"
"220028","200-UY","2018/01/01 13:49:45","新北市板橋區大觀路二段265巷66弄30號","121.4415","24.997145","6500100","板橋區"
"220030","610-BX","2018/01/01 13:49:46","新北市板橋區篤行路三段玉平巷68弄2號","121.428","24.9862033333333","6500100","板橋區"
"220046","257-TC","2018/01/01 13:49:44","新北市板橋區民生路二段120號","121.470351666667","25.019655","6500100","板橋區"
"220004","276-BY","2018/01/01 13:49:53","新北市土城區四川路2號","121.455746666667","24.9962383333333","6500100","板橋區"
"220020","277-BY","2018/01/01 13:49:38","新北市板橋區金門街19巷1號","121.433708333333","24.9947166666667","6500100","板橋區"
"220050","280-UM","2018/01/01 13:49:42","新北市板橋區民生路二段120號","121.470421666667","25.0197883333333","6500100","板橋區"
"220064","282-UM","2018/01/01 13:43:06","新北市板橋區華東街1-9號","121.448181666667","24.9947866666667","6500100","板橋區"
"220019","283-VK","2018/01/01 13:49:48","新北市板橋區忠孝路196巷43號","121.46556","25.001685","6500100","板橋區"
"220043","285-UM","2018/01/01 13:49:48","新北市板橋區民生路二段161巷1號","121.470095","25.01985","6500100","板橋區"
"220031","286-VK","2018/01/01 13:49:51","新北市板橋區僑中二街126巷2號","121.445285","25.005145","6500100","板橋區"
"220029","287-VK","2018/01/01 13:49:46","新北市板橋區光華街13巷32號","121.45314","25.0113216666667","6500100","板橋區"
"220039","288-VK","2018/01/01 13:49:38","新北市板橋區民生路二段161巷7號","121.47025","25.019685","6500100","板橋區"
"220009","293-UM","2018/01/01 13:49:45","新北市板橋區太和街4巷5號","121.474055","25.019935","6500100","板橋區"
"220032","296-UM","2018/01/01 13:49:47","新北市板橋區大觀路二段150巷58-1號","121.441548333333","25.0004733333333","6500100","板橋區"
"220023","297-UM","2018/01/01 13:49:40","新北市板橋區大觀路一段10號","121.450486666667","25.008545","6500100","板橋區"
"220010","305-R5","2018/01/01 13:49:54","新北市板橋區中山路二段25號","121.472478333333","25.015255","6500100","板橋區"
"220041","307-R5","2018/01/01 04:39:48","新北市板橋區民生路二段120號","121.4704","25.01977","6500100","板橋區"
"220047","317-R6","2018/01/01 13:49:45","新北市板橋區民生路二段89-6號","121.470491666667","25.0193433333333","6500100","板橋區"
"220012","486-VK","2018/01/01 13:49:50","新北市板橋區民生路二段9號","121.472766666667","25.0159466666667","6500100","板橋區"
"220038","487-VK","2018/01/01 13:49:35","新北市板橋區民生路二段161巷2號","121.469568333333","25.0196733333333","6500100","板橋區"
"220037","491-VK","2018/01/01 13:49:55","新北市板橋區民生路二段161巷1號","121.470053333333","25.0199466666667","6500100","板橋區"
"220104","560-BX","2018/01/01 13:49:52","新北市板橋區中正路325巷5弄9號","121.453716666667","25.0189016666667","6500100","板橋區"
"220052","561-BX","2018/01/01 13:49:39","新北市板橋區民生路二段161巷3號","121.47019","25.0198283333333","6500100","板橋區"
"220011","609-BX","2018/01/01 13:49:39","新北市板橋區民生路二段121號","121.470748333333","25.0184483333333","6500100","板橋區"
"220040","637-BX","2018/01/01 13:49:41","新北市板橋區民生路二段120號","121.470413333333","25.02001","6500100","板橋區"
"220005","686-BX","2018/01/01 13:49:55","新北市板橋區華東街1-9號","121.448215","24.9948983333333","6500100","板橋區"
"220025","687-BX","2018/01/01 13:49:51","新北市板橋區篤行路一段48號","121.43187","24.9936366666667","6500100","板橋區"
"220042","689-BX","2018/01/01 13:49:54","新北市板橋區民生路二段161巷1號","121.469986666667","25.0200783333333","6500100","板橋區"
"220002","741-BX","2018/01/01 13:49:39","新北市板橋區館前西路4-1號","121.459296666667","25.0070966666667","6500100","板橋區"
"220003","827-TW","2018/01/01 13:49:38","新北市板橋區縣民大道一段288號","121.461195","25.0104166666667","6500100","板橋區"
"220014","829-TW","2018/01/01 13:49:50","新北市板橋區三民路二段正隆巷41號","121.476945","25.0136766666667","6500100","板橋區"
"220051","830-TW","2017/12/30 21:55:09","新北市板橋區長江路三段1巷14號","121.474565","25.0371483333333","6500100","板橋區"
"220022","895-R6","2018/01/01 13:49:41","新北市板橋區府中路53號","121.458425","25.0091433333333","6500100","板橋區"
"220021","985-R7","2018/01/01 13:49:45","新北市板橋區南門街66號","121.456676666667","25.0079383333333","6500100","板橋區"
"220018","AAC-253","2018/01/01 13:49:37","新北市板橋區四川路一段80號","121.459698333333","25.0051983333333","6500100","板橋區"
