"lineid","car","time","location","longitude","latitude","cityid","cityname"
"234048","863-TW","2018/01/01 14:53:47","新北市五股區中直路11-21號","121.426731666667","25.1096666666667","6500400","永和區"
"234025","9371-KE","2018/01/01 14:53:35","新北市永和區水源街33巷5號","121.510841666667","25.0041616666667","6500400","永和區"
"248015","026-BX","2018/01/01 14:53:33","新北市五股區成泰路三段577巷80弄72號","121.448925","25.1047666666667","6501500","五股區"
"248007","095-VK","2018/01/01 14:53:35","新北市五股區四維路30巷34弄2號","121.468471666667","25.0714766666667","6501500","五股區"
"248011","247-BX","2018/01/01 14:53:39","新北市五股區六合街42號","121.432803333333","25.0893866666667","6501500","五股區"
"248013","261-SL","2018/01/01 14:53:37","新北市五股區五福路14巷26號","121.43545","25.0889066666667","6501500","五股區"
"248009","272-BY","2018/01/01 14:53:38","新北市五股區成泰路一段7巷44號","121.432503333333","25.0671783333333","6501500","五股區"
"248003","677-BX","2018/01/01 14:53:39","新北市五股區成泰路一段48-1號","121.435351666667","25.0690983333333","6501500","五股區"
"248001","678-BX","2018/01/01 14:53:45","新北市五股區成泰路三段152號","121.444775","25.0912183333333","6501500","五股區"
"234022","9380-KE","2018/01/01 14:53:41","新北市永和區中山路一段190號","121.508951666667","25.0088516666667","6500400","永和區"
"244025","742-UY","2018/01/01 11:28:10","新北市林口區粉寮路二段160巷28號","121.405241666667","25.0908","6501700","林口區"
"243004","AAD-798","2018/01/01 14:53:52","新北市泰山區明志路一段168號","121.433251666667","25.0626533333333","6501600","泰山區"
"243003","297-R6","2018/01/01 14:53:39","新北市新莊區壽山路23號","121.420386666667","25.0290316666667","6501600","泰山區"
"243007","380-SR","2018/01/01 14:53:49","新北市泰山區泰林路二段117號","121.434366666667","25.0595783333333","6501600","泰山區"
"243006","421-VK","2018/01/01 14:53:31","新北市泰山區明志路一段52號","121.433563333333","25.0648866666667","6501600","泰山區"
"243002","KEA-2215","2018/01/01 14:53:38","新北市泰山區新生路31巷12號","121.427751666667","25.0462683333333","6501600","泰山區"
"243001","KEA-2216","2018/01/01 14:53:45","新北市泰山區忠孝街40巷13號","121.428345","25.0650383333333","6501600","泰山區"
"243005","646-TV","2018/01/01 14:53:50","新北市泰山區新生路4號","121.427525","25.0444266666667","6501600","泰山區"
"243008","680-BX","2018/01/01 14:53:33","新北市泰山區新生路28號","121.429265","25.0445283333333","6501600","泰山區"
"231037","0293-UT","2018/01/01 14:53:51","新北市新店區柴埕路60巷17號","121.507983333333","24.9656333333333","6500600","新店區"
"231028","046-UY","2018/01/01 14:53:45","新北市新店區安豐路46號","121.500053333333","24.954925","6500600","新店區"
"231030","047-UY","2018/01/01 14:53:47","新北市新店區安民街382號","121.516276666667","24.9766333333333","6500600","新店區"
"231029","106-UY","2018/01/01 14:53:43","新北市新店區錦秀路11巷11號","121.479805","24.9447033333333","6500600","新店區"
"231018","107-UY","2018/01/01 14:53:53","新北市新店區中央六街6號","121.530275","24.9743733333333","6500600","新店區"
"231011","108-UY","2018/01/01 14:53:40","新北市新店區寶橋路85巷23號","121.545376666667","24.9762316666667","6500600","新店區"
"231019","187-VK","2018/01/01 14:53:35","新北市新店區永福路54號","121.558106666667","24.9286866666667","6500600","新店區"
"231014","KEA-2219","2018/01/01 14:53:41","新北市新店區銀河路21號","121.573078333333","24.9571166666667","6500600","新店區"
"231026","256-BX","2018/01/01 14:53:49","新北市新店區中正路111號","121.542456666667","24.9707283333333","6500600","新店區"
"231034","268-BY","2018/01/01 14:53:33","新北市新店區安康路三段45號","121.492776666667","24.9527266666667","6500600","新店區"
"231023","AAD-862","2018/01/01 14:53:53","新北市新店區檳榔路109號","121.544463333333","24.9616366666667","6500600","新店區"
"231005","355-BY","2018/01/01 14:53:50","新北市新店區復興路2號","121.532405","24.9882633333333","6500600","新店區"
"231025","3713-VJ","2018/01/01 14:53:52","新北市新店區大豐路68巷24號","121.538663333333","24.980205","6500600","新店區"
"231036","512-UM","2018/01/01 14:53:42","新北市新店區安祥路106巷2號","121.47897","24.9623233333333","6500600","新店區"
"231035","515-UM","2018/01/01 14:53:45","新北市新店區安和路二段231號","121.51715","24.9761716666667","6500600","新店區"
"231001","619-UM","2018/01/01 14:53:37","新北市新店區中正路261號","121.538783333333","24.973585","6500600","新店區"
"231003","641-BX","2018/01/01 14:53:43","新北市新店區五峰路57-1號","121.54704","24.9708416666667","6500600","新店區"
"231039","718-UY","2018/01/01 14:53:49","新北市新店區中興路三段6號","121.546578333333","24.9772366666667","6500600","新店區"
"231031","720-UM","2018/01/01 14:53:49","新北市新店區安泰路18號","121.48558","24.9487633333333","6500600","新店區"
"231002","897-TW","2018/01/01 14:53:48","新北市新店區建國路253號","121.537578333333","24.9827333333333","6500600","新店區"
"231006","898-TW","2018/01/01 14:53:34","新北市新店區北宜路一段116號","121.539215","24.955275","6500600","新店區"
"231004","899-TW","2018/01/01 14:53:35","新北市新店區建國路131號","121.53945","24.9782233333333","6500600","新店區"
"235030","003-UY","2018/01/01 14:53:47","新北市中和區光華街67號","121.506556666667","25.003005","6500300","中和區"
"235010","031-BX","2018/01/01 14:53:40","新北市中和區興南路一段93巷6弄3號","121.509756666667","24.98809","6500300","中和區"
"235020","096-UM","2018/01/01 14:53:39","新北市中和區中山路三段170巷4弄2號","121.47286","25.0068166666667","6500300","中和區"
"235003","097-UM","2018/01/01 14:53:34","新北市中和區安樂路213號","121.514336666667","24.9987866666667","6500300","中和區"
"235004","150-BY","2018/01/01 14:53:51","新北市中和區景安路77號","121.506391666667","24.9973433333333","6500300","中和區"
"235002","185-VK","2018/01/01 14:53:43","新北市中和區自強路12號","121.520258333333","24.9957916666667","6500300","中和區"
"235013","186-VK","2018/01/01 14:53:43","新北市中和區中興街30號","121.50096","24.994775","6500300","中和區"
"235031","255-BX","2018/01/01 14:53:51","新北市中和區中正路751巷12號","121.484301666667","24.9998166666667","6500300","中和區"
"235008","293-VK","2018/01/01 14:53:40","新北市中和區板南路160號","121.501715","24.9926816666667","6500300","中和區"
"235007","352-BY","2018/01/01 14:53:56","新北市中和區興南路一段29號","121.511148333333","24.990665","6500300","中和區"
"235032","377-QA","2018/01/01 14:53:46","新北市中和區景平路736巷3弄11號","121.49762","25.0038083333333","6500300","中和區"
"235014","4979-A6","2018/01/01 14:53:50","新北市中和區景平路241巷66號","121.507738333333","24.9922733333333","6500300","中和區"
"235033","4980-A6","2018/01/01 14:53:44","新北市中和區中和路100號","121.50204","24.999585","6500300","中和區"
"235034","558-UM","2018/01/01 14:53:42","新北市中和區連勝街37號","121.498196666667","24.9977633333333","6500300","中和區"
"235018","640-BX","2018/01/01 14:53:49","新北市中和區莒光路258號","121.467961666667","24.9938933333333","6500300","中和區"
"235024","647-TV","2018/01/01 14:53:53","新北市中和區新生街30巷32號","121.482098333333","25.0038166666667","6500300","中和區"
"235026","800-TS","2018/01/01 14:53:53","新北市中和區永和路191巷6-1號","121.491261666667","25.0069083333333","6500300","中和區"
"235021","801-TS","2018/01/01 14:53:52","新北市中和區民樂路73號","121.484278333333","25.001355","6500300","中和區"
"235016","805-TS","2018/01/01 14:53:47","新北市中和區華新街50巷5弄30號","121.507525","24.9833","6500300","中和區"
"235012","896-TW","2018/01/01 14:53:37","新北市中和區忠孝街2-8號","121.509193333333","24.9829916666667","6500300","中和區"
"235017","900-TW","2018/01/01 14:53:41","新北市中和區國光街215巷7-3號","121.46656","25.0015166666667","6500300","中和區"
"235029","911-UM","2018/01/01 14:53:54","新北市中和區永和路90巷2弄4號","121.497455","25.005655","6500300","中和區"
"235015","157-BY","2018/01/01 14:53:39","新北市中和區中興街180巷52弄2號","121.498786666667","24.9886633333333","6500300","中和區"
"235001","AAC-213","2018/01/01 14:53:37","新北市中和區自立路175號","121.52321","24.9921433333333","6500300","中和區"
"235023","AAC-215","2018/01/01 14:53:49","新北市中和區圓通路367巷2號","121.491281666667","24.9894166666667","6500300","中和區"
"220016","013-TV","2017/12/29 21:10:47","新北市八里區荖阡坑路4-28號","121.398095","25.1426633333333","6500100","板橋區"
"220013","072-UY","2018/01/01 14:53:38","新北市板橋區國泰街39巷5弄1號","121.46854","25.0060766666667","6500100","板橋區"
"220105","075-UY","2018/01/01 14:53:55","新北市板橋區民治街57巷26號","121.480126666667","25.0338933333333","6500100","板橋區"
"220017","AAD-861","2018/01/01 14:53:39","新北市板橋區貴興路114號","121.455066666667","25.0018616666667","6500100","板橋區"
"220045","120-SR","2018/01/01 14:53:48","新北市板橋區莒光路39巷17號","121.470951666667","25.0253766666667","6500100","板橋區"
"247021","893-R6","2018/01/01 14:53:29","新北市蘆洲區中正路507號","121.461133333333","25.0973483333333","6501400","蘆洲區"
"247001","337-TH","2018/01/01 14:53:48","新北市蘆洲區長安街230號","121.458261666667","25.0853916666667","6501400","蘆洲區"
"247007","053-VK","2018/01/01 14:53:49","新北市五股區中興路二段182巷15弄13號","121.457231666667","25.0814183333333","6501400","蘆洲區"
"224010","AGQ-8101","2018/01/01 09:30:02","新北市瑞芳區明燈路二段48-1號","121.809631666667","25.1079933333333","6501200","瑞芳區"
"253003","6232-TK","2018/01/01 14:53:46","新北市石門區小坑12-1號","121.595456666667","25.284135","6502200","石門區"
"253001","6251-TK","2018/01/01 14:53:41","新北市石門區崁子腳48號","121.534726666667","25.2834983333333","6502200","石門區"
"253002","637-UY","2018/01/01 14:53:38","新北市石門區楓林59號","121.543408333333","25.2720683333333","6502200","石門區"
"253004","8270-PC","2018/01/01 14:53:36","新北市石門區茂林社區245號","121.593848333333","25.2697","6502200","石門區"
"208004","AAC-292","2018/01/01 14:53:47","新北市金山區兩湖里葵扇湖11-1號","121.594011666667","25.2286833333333","6502700","金山區"
"207002","749-BX","2018/01/01 14:53:36","新北市萬里區崁腳里崁腳路106-4號","121.646005","25.15873","6502800","萬里區"
"207001","662-BX","2018/01/01 14:53:37","新北市萬里區雙興里太和路30-1號","121.654498333333","25.1772883333333","6502800","萬里區"
"236064","105-UM","2018/01/01 14:53:39","新北市土城區明德路二段99巷2弄2號","121.450351666667","24.9810516666667","6501300","土城區"
"236040","107-UM","2018/01/01 14:53:38","新北市土城區學府路一段223號","121.451306666667","24.98427","6501300","土城區"
"236074","166-UM","2018/01/01 14:53:36","新北市土城區中央路四段226號","121.41554","24.95718","6501300","土城區"
"236028","253-BX","2018/01/01 14:53:45","新北市土城區興城路49巷12號","121.441315","24.9708533333333","6501300","土城區"
"236024","269-VK","2018/01/01 14:53:43","新北市土城區光明街4號","121.441975","24.9745933333333","6501300","土城區"
"236012","270-VK","2018/01/01 14:53:38","新北市土城區清水路332號","121.464046666667","24.9856133333333","6501300","土城區"
"236032","271-VK","2018/01/01 14:53:34","新北市土城區明德路一段196巷17號","121.461428333333","24.9785433333333","6501300","土城區"
"236016","401-BY","2018/01/01 14:53:46","新北市土城區明峰街33號","121.466103333333","24.9860383333333","6501300","土城區"
"236056","912-UM","2018/01/01 14:53:48","新北市土城區千歲路15號","121.44128","24.969615","6501300","土城區"
"236044","913-UM","2018/01/01 14:53:42","新北市土城區青雲路113號","121.45883","24.98464","6501300","土城區"
"236060","915-UM","2018/01/01 14:53:50","新北市土城區金城路三段149巷9號","121.468148333333","24.988815","6501300","土城區"
"236052","AAC-216","2018/01/01 14:53:42","新北市土城區裕民路100號","121.450551666667","24.9869016666667","6501300","土城區"
"238010","601-UM","2018/01/01 14:53:40","新北市樹林區中山路三段204號","121.386855","24.968195","6500700","樹林區"
"238012","303-VK","2018/01/01 14:53:37","新北市樹林區育德街78號","121.387581666667","24.9683883333333","6500700","樹林區"
"238004","283-BY","2018/01/01 14:53:38","新北市樹林區育德街78-1號","121.387478333333","24.96831","6500700","樹林區"
"238007","268-VK","2018/01/01 14:53:40","新北市樹林區中山路三段204號","121.386735","24.9682133333333","6500700","樹林區"
"221002","707-TV","2018/01/01 14:53:43","新北市汐止區莊敬街19巷1號","121.65741","25.0613716666667","6501100","汐止區"
"220027","145-BY","2018/01/01 14:53:37","新北市板橋區建國街54巷22號","121.45969","25.0169083333333","6500100","板橋區"
"220028","200-UY","2018/01/01 14:53:44","新北市板橋區大觀路二段153巷20號","121.446513333333","25.00034","6500100","板橋區"
"220030","610-BX","2018/01/01 14:53:46","新北市板橋區大觀路三段152-2號","121.43167","24.99345","6500100","板橋區"
"220046","257-TC","2018/01/01 14:53:51","新北市板橋區文化路一段285巷2弄31號","121.463878333333","25.01957","6500100","板橋區"
"220020","277-BY","2018/01/01 14:53:38","新北市板橋區金門街127巷8號","121.43328","24.9911766666667","6500100","板橋區"
"220050","280-UM","2018/01/01 14:53:49","新北市板橋區莒光路227號","121.474451666667","25.0224683333333","6500100","板橋區"
"220064","282-UM","2018/01/01 13:43:06","新北市板橋區華東街1-9號","121.448181666667","24.9947866666667","6500100","板橋區"
"220019","283-VK","2018/01/01 14:53:48","新北市板橋區和平路174巷31號","121.464871666667","24.9943083333333","6500100","板橋區"
"220043","285-UM","2018/01/01 14:53:48","新北市板橋區陽明街251號","121.462613333333","25.02523","6500100","板橋區"
"220001","285-VK","2018/01/01 14:53:32","新北市板橋區中山路二段90巷27號","121.475693333333","25.015695","6500100","板橋區"
"220031","286-VK","2018/01/01 14:53:51","新北市板橋區僑中二街10巷24號","121.44602","25.0111433333333","6500100","板橋區"
"220029","287-VK","2018/01/01 14:53:45","新北市板橋區大觀路一段28巷88號","121.449906666667","25.011045","6500100","板橋區"
"220039","288-VK","2018/01/01 14:53:37","新北市板橋區龍泉街72巷13號","121.456063333333","25.0262616666667","6500100","板橋區"
"220009","293-UM","2018/01/01 14:53:45","新北市板橋區縣民大道二段200巷3號","121.46984","25.0172183333333","6500100","板橋區"
"220032","296-UM","2018/01/01 14:53:41","新北市板橋區滿平街37-1號","121.426878333333","24.9897516666667","6500100","板橋區"
"220023","297-UM","2018/01/01 14:53:41","新北市板橋區大勇街4巷1號","121.454823333333","25.017415","6500100","板橋區"
"220010","305-R5","2018/01/01 14:53:34","新北市板橋區光復街106號","121.483273333333","25.0182833333333","6500100","板橋區"
"220041","307-R5","2018/01/01 14:53:48","新北市板橋區四維路259巷63號","121.460948333333","25.026895","6500100","板橋區"
"220047","317-R6","2018/01/01 14:53:45","新北市板橋區英士路192-1號","121.458393333333","25.02354","6500100","板橋區"
"220012","486-VK","2018/01/01 14:53:41","新北市板橋區實踐路85號","121.46395","25.005685","6500100","板橋區"
"220038","487-VK","2018/01/01 14:53:36","新北市板橋區綠堤街47號","121.455271666667","25.025875","6500100","板橋區"
"220037","491-VK","2018/01/01 14:53:35","新北市板橋區民治街10號","121.477433333333","25.0343816666667","6500100","板橋區"
"220104","560-BX","2018/01/01 14:53:52","新北市板橋區新生街53巷14號","121.457545","25.0215133333333","6500100","板橋區"
"220052","561-BX","2018/01/01 14:53:39","新北市板橋區陽明街29巷3號","121.465291666667","25.0215716666667","6500100","板橋區"
"220011","609-BX","2018/01/01 14:53:39","新北市板橋區萬安街53巷23號","121.483061666667","25.0235883333333","6500100","板橋區"
"220040","637-BX","2018/01/01 14:53:41","新北市板橋區民治街81巷15號","121.480373333333","25.03218","6500100","板橋區"
"220005","686-BX","2018/01/01 14:53:49","新北市板橋區廣和街83號","121.462776666667","24.991975","6500100","板橋區"
"220025","687-BX","2018/01/01 14:53:51","新北市板橋區僑中一街102巷1弄16號","121.445965","25.0121666666667","6500100","板橋區"
"220042","689-BX","2018/01/01 14:53:54","新北市板橋區長江路二段59號","121.464566666667","25.0314533333333","6500100","板橋區"
"220002","741-BX","2018/01/01 14:53:39","新北市板橋區實踐路93巷55號","121.46709","25.00466","6500100","板橋區"
"220003","827-TW","2018/01/01 14:53:38","新北市板橋區仁愛路86巷8號","121.460996666667","24.9992766666667","6500100","板橋區"
"220014","829-TW","2018/01/01 14:53:44","新北市板橋區漢生東路193巷69弄1號","121.472263333333","25.0121666666667","6500100","板橋區"
"220051","830-TW","2018/01/01 14:53:37","新北市板橋區仁化街67號","121.475633333333","25.031815","6500100","板橋區"
"220022","895-R6","2018/01/01 14:53:41","新北市板橋區府後街2號","121.459311666667","25.0098616666667","6500100","板橋區"
"220021","985-R7","2018/01/01 14:53:49","新北市板橋區南雅西路二段110號","121.452165","25.0121233333333","6500100","板橋區"
"220018","AAC-253","2018/01/01 14:53:38","新北市板橋區民族路83-1號","121.46582","25.0085083333333","6500100","板橋區"
