"lineid","car","time","location","longitude","latitude","cityid","cityname"
"248007","095-VK","2018/01/01 15:09:35","新北市五股區中興路二段83巷26-6號","121.459911666667","25.0752116666667","6501500","五股區"
"248003","677-BX","2018/01/01 15:09:39","新北市五股區成泰路一段153號","121.435293333333","25.073895","6501500","五股區"
"234022","9380-KE","2018/01/01 15:03:28","新北市永和區福和路1號","121.526466666667","25.0098083333333","6500400","永和區"
"244025","742-UY","2018/01/01 11:28:10","新北市林口區粉寮路二段160巷28號","121.405241666667","25.0908","6501700","林口區"
"243007","380-SR","2018/01/01 15:09:49","新北市泰山區福興街22號","121.434358333333","25.05761","6501600","泰山區"
"243006","421-VK","2018/01/01 15:09:51","新北市泰山區泰林路三段745巷145號","121.405553333333","25.0678516666667","6501600","泰山區"
"243001","KEA-2216","2018/01/01 15:09:45","新北市泰山區泰林路三段745巷145號","121.40605","25.068455","6501600","泰山區"
"243005","646-TV","2018/01/01 15:09:44","新北市泰山區泰林路三段17巷3號","121.420805","25.0642416666667","6501600","泰山區"
"243008","680-BX","2018/01/01 15:09:33","新北市泰山區明志路二段189號","121.427615","25.0494033333333","6501600","泰山區"
"231037","0293-UT","2018/01/01 15:09:51","新北市新店區安民街365巷7弄2號","121.515885","24.9753316666667","6500600","新店區"
"231028","046-UY","2018/01/01 15:09:51","新北市新店區吉祥街15巷60號","121.499818333333","24.9451416666667","6500600","新店區"
"231030","047-UY","2018/01/01 15:09:47","新北市新店區安民街341-1號","121.516791666667","24.9748433333333","6500600","新店區"
"231029","106-UY","2018/01/01 15:09:43","新北市新店區安康路三段738號","121.473923333333","24.942","6500600","新店區"
"231018","107-UY","2018/01/01 15:09:53","新北市新店區中央六街33號","121.528988333333","24.9752416666667","6500600","新店區"
"231011","108-UY","2018/01/01 15:09:40","新北市新店區寶元路一段65號","121.542211666667","24.9858316666667","6500600","新店區"
"231019","187-VK","2018/01/01 15:09:35","新北市新店區湖興路128-7號","121.560518333333","24.9307083333333","6500600","新店區"
"231014","KEA-2219","2018/01/01 15:08:21","新北市新店區明山路45號","121.5638","24.9558366666667","6500600","新店區"
"231026","256-BX","2018/01/01 15:09:49","新北市新店區建興街7號","121.539925","24.976425","6500600","新店區"
"231034","268-BY","2018/01/01 15:09:33","新北市新店區玫瑰路4-1號","121.493558333333","24.9513766666667","6500600","新店區"
"231023","AAD-862","2018/01/01 15:09:33","新北市新店區檳榔路109號","121.544488333333","24.961635","6500600","新店區"
"231005","355-BY","2018/01/01 15:09:50","新北市新店區北新路三段141號","121.541235","24.98324","6500600","新店區"
"231025","3713-VJ","2018/01/01 15:09:52","新北市新店區二十張路46巷37弄22號","121.53624","24.9816983333333","6500600","新店區"
"231024","4716-K9","2018/01/01 15:09:41","新北市新店區中華路42巷40號","121.541395","24.96928","6500600","新店區"
"231036","512-UM","2018/01/01 15:09:45","新北市新店區安祥路102巷144號","121.486773333333","24.9645283333333","6500600","新店區"
"231035","515-UM","2018/01/01 15:09:54","新北市新店區安和路三段171號","121.516001666667","24.9860733333333","6500600","新店區"
"231001","619-UM","2018/01/01 15:09:38","新北市新店區中正路193號","121.540508333333","24.9724466666667","6500600","新店區"
"231003","641-BX","2018/01/01 15:09:54","新北市新店區寶橋路194號","121.55066","24.978385","6500600","新店區"
"231039","718-UY","2018/01/01 15:09:49","新北市新店區中興路三段254號","121.542855","24.9841183333333","6500600","新店區"
"231031","720-UM","2018/01/01 15:09:49","新北市新店區安泰路93-4號","121.486166666667","24.94448","6500600","新店區"
"231002","897-TW","2018/01/01 15:09:48","新北市新店區中正路695巷2號","121.533913333333","24.9905866666667","6500600","新店區"
"231006","898-TW","2018/01/01 15:09:55","新北市新店區新坡一街18巷5弄23號","121.550721666667","24.9618616666667","6500600","新店區"
"231004","899-TW","2018/01/01 15:09:55","新北市新店區建國路35巷1號","121.540386666667","24.97436","6500600","新店區"
"235030","003-UY","2018/01/01 15:09:47","新北市中和區水源路154巷2號","121.508095","25.0033316666667","6500300","中和區"
"235003","097-UM","2018/01/01 15:09:54","新北市中和區宜安路52巷14號","121.512381666667","24.9971866666667","6500300","中和區"
"235004","150-BY","2018/01/01 15:09:40","新北市中和區景安路6號","121.507735","24.9989783333333","6500300","中和區"
"235007","352-BY","2018/01/01 15:09:51","新北市中和區興南路二段159巷7號","121.50533","24.983245","6500300","中和區"
"235032","377-QA","2018/01/01 15:09:46","新北市中和區勝利路35巷1弄3號","121.49911","25.0074533333333","6500300","中和區"
"235014","4979-A6","2018/01/01 15:09:50","新北市中和區景新街296號","121.511181666667","24.9919466666667","6500300","中和區"
"235033","4980-A6","2018/01/01 15:09:43","新北市中和區景新街34巷3-1號","121.50332","24.998955","6500300","中和區"
"235034","558-UM","2018/01/01 15:09:42","新北市中和區景平路511號","121.499425","24.9987683333333","6500300","中和區"
"235026","800-TS","2018/01/01 15:09:53","新北市中和區建八路166號","121.490191666667","24.998615","6500300","中和區"
"235012","896-TW","2018/01/01 15:09:37","新北市中和區興南路二段49號","121.507345","24.98542","6500300","中和區"
"235029","911-UM","2018/01/01 15:09:54","新北市中和區福美路312巷9號","121.496525","25.0052416666667","6500300","中和區"
"235015","157-BY","2018/01/01 15:09:38","新北市中和區景安路220巷4弄1號","121.503346666667","24.9909416666667","6500300","中和區"
"235001","AAC-213","2018/01/01 15:09:37","新北市中和區自立路129號","121.521953333333","24.9940316666667","6500300","中和區"
"235023","AAC-215","2018/01/01 15:09:49","新北市中和區圓通路367巷13弄26號","121.493048333333","24.988305","6500300","中和區"
"220016","013-TV","2017/12/29 21:10:47","新北市八里區荖阡坑路4-28號","121.398095","25.1426633333333","6500100","板橋區"
"220013","072-UY","2018/01/01 15:09:36","新北市板橋區長安街23號","121.466656666667","25.00876","6500100","板橋區"
"220105","075-UY","2018/01/01 15:09:55","新北市板橋區文化路二段520號","121.47584","25.0336566666667","6500100","板橋區"
"220017","AAD-861","2018/01/01 15:09:39","新北市板橋區大明街25巷4弄12號","121.457588333333","25.0021983333333","6500100","板橋區"
"224010","AGQ-8101","2018/01/01 09:30:02","新北市瑞芳區明燈路二段48-1號","121.809631666667","25.1079933333333","6501200","瑞芳區"
"253003","6232-TK","2018/01/01 15:09:46","新北市石門區小坑9號","121.594386666667","25.2883983333333","6502200","石門區"
"253001","6251-TK","2018/01/01 15:09:41","新北市石門區老崩山11-13號","121.551613333333","25.2904733333333","6502200","石門區"
"253002","637-UY","2018/01/01 15:09:38","新北市石門區老崩山11-13號","121.551678333333","25.2905383333333","6502200","石門區"
"253004","8270-PC","2018/01/01 15:09:36","新北市石門區小坑29-1號","121.598028333333","25.2722216666667","6502200","石門區"
"208004","AAC-292","2018/01/01 15:09:38","新北市金山區半嶺41號","121.60133","25.2398316666667","6502700","金山區"
"207002","749-BX","2018/01/01 15:09:36","新北市萬里區崁腳里內中福路73-1號","121.655105","25.1668666666667","6502800","萬里區"
"207001","662-BX","2018/01/01 15:09:37","新北市萬里區雙興里麗水路8-1號","121.64978","25.1875","6502800","萬里區"
"236064","105-UM","2018/01/01 15:09:50","新北市土城區中華路一段11號","121.44685","24.9894833333333","6501300","土城區"
"236040","107-UM","2018/01/01 15:09:43","新北市土城區裕民路265號","121.455253333333","24.98246","6501300","土城區"
"236074","166-UM","2018/01/01 14:55:36","新北市土城區中州路3巷43號","121.413335","24.956345","6501300","土城區"
"236028","253-BX","2018/01/01 15:09:37","新北市土城區福祥街22號","121.44096","24.9800616666667","6501300","土城區"
"236024","269-VK","2018/01/01 15:09:43","新北市土城區中正路67巷21號","121.444345","24.9763616666667","6501300","土城區"
"236012","270-VK","2018/01/01 15:09:38","新北市土城區學府路一段77號","121.456881666667","24.9881933333333","6501300","土城區"
"236032","271-VK","2018/01/01 15:09:54","新北市土城區明德路一段172號","121.462566666667","24.97845","6501300","土城區"
"236016","401-BY","2018/01/01 15:09:46","新北市土城區延峰街16號","121.468718333333","24.986315","6501300","土城區"
"236056","912-UM","2018/01/01 15:09:48","新北市土城區清水路1號","121.452581666667","24.9802383333333","6501300","土城區"
"236044","913-UM","2018/01/01 15:09:42","新北市土城區清水路196號","121.460361666667","24.98186","6501300","土城區"
"236052","AAC-216","2018/01/01 15:09:46","新北市土城區學府路一段203號","121.451791666667","24.9846483333333","6501300","土城區"
"238002","755-BX","2018/01/01 15:09:39","新北市樹林區八德街1012號","121.391388333333","24.9685016666667","6500700","樹林區"
"238010","601-UM","2018/01/01 15:09:40","新北市樹林區中山路二段249巷2號","121.401766666667","24.9756466666667","6500700","樹林區"
"238006","599-UM","2018/01/01 15:09:46","新北市樹林區八德街445-2號","121.404448333333","24.97028","6500700","樹林區"
"238005","571-TV","2018/01/01 15:09:55","新北市樹林區環河路10號","121.427076666667","24.97805","6500700","樹林區"
"238011","5061-A6","2018/01/01 15:09:34","新北市樹林區環河路10號","121.427093333333","24.978115","6500700","樹林區"
"238008","KEA-2217","2018/01/01 15:09:52","新北市樹林區西圳街165巷20弄26號","121.39558","24.96008","6500700","樹林區"
"238012","303-VK","2018/01/01 15:09:37","新北市樹林區福德街3號","121.401738333333","24.9755983333333","6500700","樹林區"
"238004","283-BY","2018/01/01 15:09:38","新北市樹林區中山路三段125-1號","121.397333333333","24.9731366666667","6500700","樹林區"
"238001","282-BY","2018/01/01 15:09:54","新北市樹林區中山路三段39號","121.401196666667","24.9752933333333","6500700","樹林區"
"238007","268-VK","2018/01/01 15:09:40","新北市樹林區中洲街3號","121.397361666667","24.9729766666667","6500700","樹林區"
"238013","172-UY","2018/01/01 15:08:33","新北市樹林區八德街222號","121.415556666667","24.971925","6500700","樹林區"
"238003","169-UY","2018/01/01 15:09:53","新北市樹林區中山路二段219號","121.402546666667","24.9761283333333","6500700","樹林區"
"220027","145-BY","2018/01/01 15:09:56","新北市板橋區僑中一街124巷86-4號","121.447806666667","25.0181866666667","6500100","板橋區"
"220046","257-TC","2018/01/01 15:09:44","新北市板橋區文化路一段221巷10號","121.463208333333","25.0177533333333","6500100","板橋區"
"220050","280-UM","2018/01/01 15:09:42","新北市板橋區雙十路一段44巷36號","121.47721","25.02476","6500100","板橋區"
"220064","282-UM","2018/01/01 13:43:06","新北市板橋區華東街1-9號","121.448181666667","24.9947866666667","6500100","板橋區"
"220001","285-VK","2018/01/01 15:09:52","新北市板橋區中山路二段224號","121.478148333333","25.0179516666667","6500100","板橋區"
"220031","286-VK","2018/01/01 15:09:51","新北市板橋區僑中二街90巷2號","121.44636","25.0092","6500100","板橋區"
"220029","287-VK","2018/01/01 15:09:27","新北市板橋區僑中一街80巷7弄5號","121.447523333333","25.0127766666667","6500100","板橋區"
"220039","288-VK","2018/01/01 15:09:37","新北市板橋區幸福路32巷54號","121.460426666667","25.0222516666667","6500100","板橋區"
"220009","293-UM","2018/01/01 15:09:49","新北市板橋區四川路一段274巷13號","121.45795","25.0015166666667","6500100","板橋區"
"220023","297-UM","2018/01/01 15:09:40","新北市板橋區金華街10巷120號","121.459376666667","25.020505","6500100","板橋區"
"220010","305-R5","2018/01/01 15:09:54","新北市五股區成泰路三段358號","121.451341666667","25.098355","6500100","板橋區"
"220041","307-R5","2018/01/01 15:09:41","新北市板橋區幸福路70巷9號","121.460358333333","25.020285","6500100","板橋區"
"220012","486-VK","2018/01/01 15:09:41","新北市板橋區漢生東路193巷23-4號","121.470985","25.0122066666667","6500100","板橋區"
"220038","487-VK","2018/01/01 15:09:36","新北市板橋區新海路403巷1號","121.458461666667","25.0266833333333","6500100","板橋區"
"220037","491-VK","2018/01/01 15:09:47","新北市板橋區懷德街166號","121.4791","25.0304833333333","6500100","板橋區"
"220052","561-BX","2018/01/01 15:09:39","新北市板橋區陽明街279巷32號","121.461001666667","25.0256816666667","6500100","板橋區"
"220011","609-BX","2018/01/01 15:09:55","新北市板橋區中山路二段312號","121.479925","25.0190816666667","6500100","板橋區"
"220042","689-BX","2018/01/01 15:09:54","新北市板橋區長江路三段56號","121.473433333333","25.0339366666667","6500100","板橋區"
"220003","827-TW","2018/01/01 15:09:38","新北市板橋區仁愛路30號","121.458888333333","24.9994033333333","6500100","板橋區"
"220014","829-TW","2018/01/01 15:09:44","新北市板橋區中山路一段214號","121.470191666667","25.013955","6500100","板橋區"
"220051","830-TW","2018/01/01 15:09:37","新北市板橋區民治街135號","121.477676666667","25.0307416666667","6500100","板橋區"
"220018","AAC-253","2018/01/01 15:09:37","新北市板橋區四川路一段112號","121.459781666667","25.004465","6500100","板橋區"
