"lineid","car","time","location","longitude","latitude","cityid","cityname"
"234046","148-BY","2018/01/01 18:39:23","新北市永和區永元路68號","121.52258","25.0015216666667","6500400","永和區"
"234013","149-BY","2018/01/01 18:39:33","新北市永和區竹林路91巷55弄1號","121.521978333333","25.0138166666667","6500400","永和區"
"234007","207-UY","2018/01/01 18:39:34","新北市永和區文化路170號","121.511788333333","25.0155366666667","6500400","永和區"
"234081","298-R6","2018/01/01 18:39:35","新北市永和區林森路77號","121.523973333333","25.0038916666667","6500400","永和區"
"234038","336-UY","2018/01/01 18:39:36","新北市永和區福和路1號","121.526565","25.0099816666667","6500400","永和區"
"234064","337-UY","2018/01/01 18:39:37","新北市永和區福和路1號","121.526186666667","25.0094433333333","6500400","永和區"
"234086","338-UY","2018/01/01 18:39:28","新北市中和區安和路21號","121.51098","24.9940433333333","6500400","永和區"
"234054","553-UM","2018/01/01 18:39:37","新北市永和區福和路1號","121.525965","25.0096766666667","6500400","永和區"
"234017","745-BX","2018/01/01 18:39:37","新北市永和區豫溪街217巷5號","121.525155","25.00986","6500400","永和區"
"234061","AAD-866","2018/01/01 18:39:31","新北市永和區環河東路二段92號","121.524391666667","25.0106433333333","6500400","永和區"
"234070","847-RS","2018/01/01 18:39:23","新北市永和區福和路1號","121.52637","25.0097816666667","6500400","永和區"
"234042","862-TW","2018/01/01 18:39:37","新北市永和區永貞路306號","121.511908333333","25.0048233333333","6500400","永和區"
"234050","863-TW","2018/01/01 18:39:34","新北市永和區竹林路91巷60弄70號","121.523031666667","25.0122583333333","6500400","永和區"
"234026","9371-KE","2018/01/01 18:39:37","新北市永和區永貞路417巷4號","121.506901666667","25.0092116666667","6500400","永和區"
"234011","9373-KE","2018/01/01 18:39:24","新北市永和區文化路9巷22弄32號","121.514466666667","25.0145966666667","6500400","永和區"
"249001","173-UM","2018/01/01 18:39:33","新北市八里區龍米路一段386巷1號","121.451556666667","25.1320066666667","6502300","八里區"
"249004","303-UY","2018/01/01 18:39:22","新北市八里區龍米路三段58-6號","121.424263333333","25.1590316666667","6502300","八里區"
"249002","305-UY","2018/01/01 18:39:31","新北市八里區頂寮二街138號","121.449355","25.1294566666667","6502300","八里區"
"249005","759-BX","2018/01/01 18:39:32","新北市八里區中華路三段196號","121.388136666667","25.1255716666667","6502300","八里區"
"248016","026-BX","2018/01/01 18:39:22","新北市五股區凌雲路一段133巷27-3號","121.44862","25.10089","6501500","五股區"
"248008","095-VK","2018/01/01 18:39:22","新北市五股區中興路一段151巷3號","121.465068333333","25.07288","6501500","五股區"
"248018","225-UY","2018/01/01 18:39:24","新北市五股區民義路二段54-3號","121.407841666667","25.106365","6501500","五股區"
"248012","247-BX","2018/01/01 18:39:31","新北市五股區成泰路三段2巷1-20號","121.440968333333","25.0864916666667","6501500","五股區"
"248014","261-SL","2018/01/01 18:39:25","新北市五股區蓬萊路1-3號","121.434683333333","25.0796016666667","6501500","五股區"
"248010","272-BY","2018/01/01 18:39:30","新北市五股區水碓三路120號","121.431825","25.0735916666667","6501500","五股區"
"248004","677-BX","2018/01/01 18:39:22","新北市五股區民義路一段310號","121.424553333333","25.0937833333333","6501500","五股區"
"248002","678-BX","2018/01/01 18:39:35","新北市五股區西雲路240號","121.44891","25.09679","6501500","五股區"
"234022","9380-KE","2018/01/01 18:39:40","新北市永和區福和路8巷1號","121.524846666667","25.0088066666667","6500400","永和區"
"234077","969-R7","2018/01/01 18:39:27","新北市中和區安樂路101-3號","121.513521666667","24.9950683333333","6500400","永和區"
"234067","AAC-212","2018/01/01 18:39:37","新北市永和區永和路一段12號","121.512893333333","25.0046766666667","6500400","永和區"
"234003","AAC-295","2018/01/01 18:39:21","新北市永和區福和路1號","121.525655","25.0095083333333","6500400","永和區"
"232011","375-UM","2018/01/01 18:39:36","新北市坪林區坪雙路一段43號","121.711828333333","24.9424483333333","6502000","坪林區"
"244013","069-UM","2018/01/01 18:39:27","新北市林口區中正路514巷33弄2號","121.382391666667","25.078355","6501700","林口區"
"244007","080-UY","2018/01/01 18:39:31","新北市林口區太平里16號","121.377198333333","25.115055","6501700","林口區"
"244019","403-UM","2018/01/01 18:39:33","新北市林口區忠孝路622巷5號","121.377941666667","25.067055","6501700","林口區"
"244025","742-UY","2018/01/01 18:39:23","新北市林口區南勢里53-7號","121.355031666667","25.07477","6501700","林口區"
"244023","483-VK","2018/01/01 18:39:34","新北市林口區文化二路二段105號","121.37818","25.080685","6501700","林口區"
"244017","485-VK","2018/01/01 18:39:41","新北市林口區文化二路一段68巷18-2號","121.36618","25.0679","6501700","林口區"
"244011","656-BX","2018/01/01 18:39:37","新北市林口區仁愛路一段326號","121.391261666667","25.076555","6501700","林口區"
"244009","837-TS","2018/01/01 18:39:28","新北市林口區寶林路40號","121.385455","25.0843033333333","6501700","林口區"
"244021","838-TS","2018/01/01 18:39:36","新北市林口區工六路100號","121.40126","25.076515","6501700","林口區"
"243012","AAD-798","2018/01/01 18:39:35","新北市泰山區福興三街13號","121.43448","25.0577316666667","6501600","泰山區"
"243009","KEA-2216","2018/01/01 18:39:39","新北市泰山區黎明路31號","121.421766666667","25.060605","6501600","泰山區"
"243013","646-TV","2018/01/01 18:30:13","新北市泰山區明志路三段206巷10號","121.423248333333","25.0380066666667","6501600","泰山區"
"222003","436-BY","2018/01/01 18:39:30","新北市深坑區翠谷街37巷2號","121.626666666667","25.0094933333333","6501800","深坑區"
"222002","659-BX","2018/01/01 18:39:30","新北市深坑區文山路一段62巷10號","121.621808333333","25.0008733333333","6501800","深坑區"
"222001","696-SL","2018/01/01 18:39:37","新北市深坑區北深路一段26號","121.639045","25.0103516666667","6501800","深坑區"
"231066","0293-UT","2018/01/01 18:39:26","新北市新店區安華路1-1號","121.519513333333","24.960485","6500600","新店區"
"231059","046-UY","2018/01/01 18:39:23","新北市新店區安華路28-1號","121.519546666667","24.9608383333333","6500600","新店區"
"231061","047-UY","2018/01/01 18:39:36","新北市新店區安華路28-1號","121.518998333333","24.96105","6500600","新店區"
"231060","106-UY","2018/01/01 18:39:36","新北市新店區安華路28-1號","121.51966","24.9606966666667","6500600","新店區"
"231051","107-UY","2018/01/01 18:39:35","新北市新店區安康路一段33-1號","121.532363333333","24.96046","6500600","新店區"
"231047","108-UY","2018/01/01 18:39:34","新北市新店區安康路一段33-1號","121.532181666667","24.9605033333333","6500600","新店區"
"231052","187-VK","2018/01/01 18:39:38","新北市新店區永興路34號","121.54356","24.9388133333333","6500600","新店區"
"231050","KEA-2219","2018/01/01 18:39:33","新北市新店區安華路28-1號","121.519765","24.96125","6500600","新店區"
"231057","256-BX","2018/01/01 18:39:28","新北市新店區新烏路一段127-1號","121.546813333333","24.937035","6500600","新店區"
"231063","268-BY","2018/01/01 18:39:30","新北市新店區安華路1-1號","121.519378333333","24.9605033333333","6500600","新店區"
"231046","278-BY","2018/01/01 18:39:36","新北市新店區直潭二街1號","121.53556","24.94318","6500600","新店區"
"231054","AAD-862","2018/01/01 18:39:27","新北市新店區安華路28-1號","121.51982","24.9612083333333","6500600","新店區"
"231044","355-BY","2018/01/01 18:39:30","新北市新店區北新路一段62號","121.54129","24.9668133333333","6500600","新店區"
"231058","3712-VJ","2018/01/01 18:39:30","新北市新店區北宜路一段168號","121.540383333333","24.9529216666667","6500600","新店區"
"231056","3713-VJ","2018/01/01 18:39:31","新北市新店區自立街19號","121.537708333333","24.97935","6500600","新店區"
"231055","4716-K9","2018/01/01 18:39:31","新北市新店區中央路185-2號","121.536915","24.9690316666667","6500600","新店區"
"231067","4772-VM","2018/01/01 18:39:32","新北市新店區安華路28-1號","121.51967","24.961305","6500600","新店區"
"231065","512-UM","2018/01/01 18:39:21","新北市新店區安華路28-1號","121.519248333333","24.9612866666667","6500600","新店區"
"231064","515-UM","2018/01/01 18:39:22","新北市新店區安華路28-1號","121.519595","24.9609483333333","6500600","新店區"
"231040","619-UM","2018/01/01 18:39:27","新北市新店區安華路28-1號","121.519635","24.961395","6500600","新店區"
"231042","641-BX","2018/01/01 18:39:24","新北市新店區安華路1-1號","121.51951","24.960405","6500600","新店區"
"231049","719-UM","2018/01/01 18:39:36","新北市新店區安康路一段85號","121.529428333333","24.9613933333333","6500600","新店區"
"231062","720-UM","2018/01/01 18:39:36","新北市新店區安華路28-1號","121.519286666667","24.9610983333333","6500600","新店區"
"231041","897-TW","2018/01/01 18:39:35","新北市新店區安華路1-1號","121.519458333333","24.9605316666667","6500600","新店區"
"231045","898-TW","2018/01/01 18:39:38","新北市新店區安華路28-1號","121.519205","24.9608233333333","6500600","新店區"
"231043","899-TW","2018/01/01 18:39:26","新北市新店區安華路28-1號","121.519091666667","24.9608283333333","6500600","新店區"
"235066","003-UY","2018/01/01 18:39:27","新北市中和區水源路39號","121.504566666667","25.0035566666667","6500300","中和區"
"235064","005-UY","2018/01/01 18:39:35","新北市中和區連城路109巷61號","121.49721","24.9981066666667","6500300","中和區"
"235063","006-UY","2018/01/01 18:39:21","新北市中和區中正路554號","121.486951666667","24.9945266666667","6500300","中和區"
"235046","031-BX","2018/01/01 18:39:39","新北市中和區興南路一段86號","121.509898333333","24.9894783333333","6500300","中和區"
"235056","096-UM","2018/01/01 18:39:25","新北市中和區員山路611巷1號","121.4779","25.0112533333333","6500300","中和區"
"235039","097-UM","2018/01/01 18:39:33","新北市永和區安樂路58巷2號","121.51507","24.9979283333333","6500300","中和區"
"235040","150-BY","2018/01/01 18:39:27","新北市中和區安平路38號","121.509786666667","24.99499","6500300","中和區"
"235058","151-BY","2018/01/01 18:39:18","新北市中和區圓通路433巷8號","121.488271666667","24.9876383333333","6500300","中和區"
"235055","183-VK","2018/01/01 18:39:22","新北市板橋區民族路276巷46號","121.469208333333","25.005565","6500300","中和區"
"235038","185-VK","2018/01/01 18:39:21","新北市中和區大勇街60巷2號","121.518385","24.99478","6500300","中和區"
"235049","186-VK","2018/01/01 18:39:41","新北市中和區景平路510號","121.503728333333","24.9938116666667","6500300","中和區"
"235067","255-BX","2018/01/01 18:39:21","新北市中和區新生街6號","121.483138333333","25.0046183333333","6500300","中和區"
"235044","293-VK","2018/01/01 18:39:34","新北市中和區復興路280巷19號","121.502208333333","24.9916166666667","6500300","中和區"
"235072","301-VK","2018/01/01 18:39:21","新北市中和區中山路二段191號","121.50008","25.00272","6500300","中和區"
"235043","352-BY","2018/01/01 18:39:38","新北市中和區景平路105號","121.516975","24.991825","6500300","中和區"
"235068","377-QA","2018/01/01 18:39:27","新北市中和區中正路150號","121.498898333333","24.9938016666667","6500300","中和區"
"235061","378-QA","2018/01/01 18:39:28","新北市中和區民享街90巷35號","121.473286666667","25.0000583333333","6500300","中和區"
"235050","4979-A6","2018/01/01 18:39:33","新北市中和區景新街496巷28弄8號","121.513178333333","24.9859183333333","6500300","中和區"
"235069","4980-A6","2018/01/01 18:39:38","新北市中和區連城路65巷2號","121.497701666667","25.0011233333333","6500300","中和區"
"235042","551-UM","2018/01/01 18:39:21","新北市中和區成功路97巷5弄17號","121.526485","24.9921716666667","6500300","中和區"
"235070","558-UM","2018/01/01 18:39:40","新北市中和區景新街129號","121.505755","24.9972966666667","6500300","中和區"
"235045","565-BX","2018/01/01 18:39:36","新北市中和區南山路236巷21號","121.505541666667","24.9885666666667","6500300","中和區"
"235054","640-BX","2018/01/01 18:39:29","新北市中和區民享街86巷30弄11號","121.473095","25.0011016666667","6500300","中和區"
"235060","647-TV","2018/01/01 18:39:37","新北市中和區中山路二段584號","121.48253","25.0051066666667","6500300","中和區"
"235047","732-UM","2018/01/01 18:39:41","新北市中和區南山路322號","121.507823333333","24.9865366666667","6500300","中和區"
"235062","800-TS","2018/01/01 18:39:33","新北市中和區中山路二段312巷33弄8號","121.494951666667","25.0037516666667","6500300","中和區"
"235057","801-TS","2018/01/01 18:39:26","新北市中和區員山路327巷66號","121.479913333333","25.0019983333333","6500300","中和區"
"235041","802-TS","2018/01/01 18:39:30","新北市中和區宜安路166號","121.508973333333","24.9989716666667","6500300","中和區"
"235052","805-TS","2018/01/01 18:39:38","新北市中和區興南路三段70號","121.492425","24.97459","6500300","中和區"
"235048","896-TW","2018/01/01 18:39:22","新北市中和區南山路373號","121.506233333333","24.9904516666667","6500300","中和區"
"235053","900-TW","2018/01/01 18:39:19","新北市土城區金城路三段210號","121.471881666667","24.9899333333333","6500300","中和區"
"235065","911-UM","2018/01/01 18:39:40","新北市中和區莊敬路33巷34弄2號","121.500071666667","25.006045","6500300","中和區"
"235051","157-BY","2018/01/01 18:39:39","新北市中和區華新街133號","121.506655","24.9817816666667","6500300","中和區"
"235037","AAC-213","2018/01/01 18:39:34","新北市中和區景平路125巷8弄2-2號","121.514838333333","24.9911683333333","6500300","中和區"
"235059","AAC-215","2018/01/01 18:39:29","新北市中和區錦和路350-1號","121.490475","24.9935183333333","6500300","中和區"
"220068","013-TV","2017/12/29 21:10:47","新北市八里區荖阡坑路4-28號","121.398095","25.1426633333333","6500100","板橋區"
"220065","072-UY","2018/01/01 18:39:31","新北市板橋區縣民大道二段68-1號","121.463298333333","25.012645","6500100","板橋區"
"220086","073-UY","2018/01/01 18:39:29","新北市板橋區南雅西路二段177號","121.451795","25.012545","6500100","板橋區"
"226004","312-R5","2018/01/01 18:39:25","新北市平溪區石底里公園街17號","121.7371","25.02497","6502400","平溪區"
"228003","097-TW","2018/01/01 18:39:39","新北市貢寮區和美里龍洞街35-2號","121.917018333333","25.11168","6502600","貢寮區"
"228001","212-TW","2018/01/01 18:39:26","新北市貢寮區仁理村研海街12-1號","121.923795","25.0516416666667","6502600","貢寮區"
"228002","585-TW","2018/01/01 18:39:30","新北市貢寮區福隆里東興街6-11號","121.950746666667","25.021065","6502600","貢寮區"
"224010","AGQ-8101","2018/01/01 18:39:24","新北市瑞芳區九份中山巷10號","121.84383","25.10757","6501200","瑞芳區"
"224006","676-BX","2018/01/01 18:39:26","新北市瑞芳區明燈路三段130號","121.80454","25.1084766666667","6501200","瑞芳區"
"224002","639-TC","2018/01/01 18:39:35","新北市瑞芳區三爪子坑路91巷1號","121.81186","25.107385","6501200","瑞芳區"
"224009","285-BY","2018/01/01 18:39:21","新北市瑞芳區祈堂路239號","121.856243333333","25.109045","6501200","瑞芳區"
"224008","275-VK","2018/01/01 18:39:25","新北市瑞芳區岳王路162號","121.807975","25.1113483333333","6501200","瑞芳區"
"224007","272-VK","2018/01/01 18:39:36","新北市瑞芳區大埔路117號","121.76357","25.100985","6501200","瑞芳區"
"224005","271-BY","2018/01/01 18:39:36","新北市瑞芳區建基路二段9號","121.80739","25.1329016666667","6501200","瑞芳區"
"227001","400-TW","2018/01/01 18:39:39","新北市雙溪區魚行里坤溪3-5號","121.874983333333","25.0217033333333","6502500","雙溪區"
"227008","030-BX","2018/01/01 18:39:33","新北市雙溪區牡丹里下坑11號","121.850966666667","25.05616","6502500","雙溪區"
"253005","032-BX","2018/01/01 18:39:36","新北市石門區中山路62號","121.566851666667","25.2904683333333","6502200","石門區"
"253006","741-TV","2018/01/01 18:39:42","新北市石門區崁子腳28-2號","121.540511666667","25.2898366666667","6502200","石門區"
"208002","742-BX","2018/01/01 18:39:38","新北市金山區忠孝一路21-1號","121.638395","25.2188483333333","6502700","金山區"
"208003","665-BX","2018/01/01 18:39:34","新北市金山區中山路276-8號","121.635115","25.224295","6502700","金山區"
"208001","761-BX","2018/01/01 18:39:36","新北市金山區文化三路7號","121.635146666667","25.224965","6502700","金山區"
"251004","009-UM","2018/01/01 18:39:28","新北市淡水區民權路39號","121.45974","25.140835","6501000","淡水區"
"251001","011-UM","2018/01/01 18:39:30","新北市淡水區自強路419號","121.465606666667","25.134255","6501000","淡水區"
"251013","179-VK","2018/01/01 18:39:31","新北市淡水區小坑子頭1號","121.479273333333","25.2095983333333","6501000","淡水區"
"251014","180-VK","2018/01/01 18:39:20","新北市淡水區番社前25-1號","121.49483","25.2145416666667","6501000","淡水區"
"251008","181-VK","2018/01/01 18:39:36","新北市淡水區北投子73-1號","121.453298333333","25.1828966666667","6501000","淡水區"
"251015","182-VK","2018/01/01 18:39:19","新北市淡水區興福寮66巷267號","121.48679","25.1621116666667","6501000","淡水區"
"251010","413-VK","2018/01/01 18:39:19","新北市淡水區沙崙路145號","121.423438333333","25.1829983333333","6501000","淡水區"
"251012","441-VK","2018/01/01 18:39:35","新北市淡水區北新路121號","121.448983333333","25.17868","6501000","淡水區"
"251016","442-VK","2018/01/01 18:39:22","新北市淡水區下圭柔山76-8號","121.441311666667","25.2050416666667","6501000","淡水區"
"251006","561-UM","2018/01/01 18:39:36","新北市淡水區新生街51巷26號","121.440665","25.1757133333333","6501000","淡水區"
"251007","577-R6","2018/01/01 18:39:26","新北市淡水區中正東路二段143巷2弄1號","121.460608333333","25.147395","6501000","淡水區"
"251011","650-BX","2018/01/01 18:39:39","新北市淡水區鄧公路36巷3號","121.457213333333","25.1689766666667","6501000","淡水區"
"251002","672-BX","2018/01/01 18:39:38","新北市淡水區中正東路一段3巷14弄3號","121.450988333333","25.1642366666667","6501000","淡水區"
"251003","766-UM","2018/01/01 18:39:28","新北市淡水區中山北路一段212巷38號","121.446193333333","25.17904","6501000","淡水區"
"207003","550-UM","2018/01/01 18:39:29","新北市萬里區野柳里港東路161號","121.690075","25.204755","6502800","萬里區"
"207004","225-TW","2018/01/01 18:39:34","新北市萬里區萬里里獅頭路7號","121.691986666667","25.178435","6502800","萬里區"
"252002","178-VK","2018/01/01 18:39:24","新北市三芝區民生街62號","121.503453333333","25.25547","6502100","三芝區"
"252003","249-BX","2018/01/01 18:39:28","新北市三芝區後厝里北勢子54-3號","121.466938333333","25.2499733333333","6502100","三芝區"
"252001","292-VK","2018/01/01 18:39:26","新北市三芝區埔頭里埔頭14號","121.500463333333","25.254115","6502100","三芝區"
"237004","078-UY","2018/01/01 18:39:30","新北市三峽區插角117號","121.4085","24.8704566666667","6500900","三峽區"
"237007","153-BY","2018/01/01 18:39:28","新北市三峽區中正路三段112號","121.355561666667","24.9033916666667","6500900","三峽區"
"237009","210-TH","2018/01/01 18:39:21","新北市三峽區民族街180-1號","121.368343333333","24.927945","6500900","三峽區"
"237013","252-BX","2018/01/01 18:39:27","新北市三峽區光明路69巷25號","121.376681666667","24.9292466666667","6500900","三峽區"
"237012","275-BY","2018/01/01 18:39:34","新北市三峽區三樹路340號","121.383983333333","24.9433216666667","6500900","三峽區"
"237008","302-VK","2018/01/01 18:39:28","新北市三峽區白雞41號","121.381455","24.9118783333333","6500900","三峽區"
"237011","433-BY","2018/01/01 18:39:23","新北市三峽區溪東路1號","121.399248333333","24.9352483333333","6500900","三峽區"
"237006","5529-G3","2018/01/01 18:39:24","新北市三峽區溪東路315巷6號","121.410625","24.930675","6500900","三峽區"
"237015","649-BX","2018/01/01 18:05:34","新北市三峽區紫微路83號","121.411425","24.9155966666667","6500900","三峽區"
"237010","706-TV","2018/01/01 18:39:38","新北市三峽區中山路286號","121.360961666667","24.9381783333333","6500900","三峽區"
"237005","AKY-6261","2018/01/01 18:39:25","新北市三峽區清水街311號","121.372606666667","24.9344416666667","6500900","三峽區"
"236069","105-UM","2018/01/01 18:39:30","新北市土城區永豐路157巷29弄1號","121.468623333333","24.9814616666667","6501300","土城區"
"236042","107-UM","2018/01/01 18:39:30","新北市土城區裕民路55巷19弄2號","121.44921","24.9888466666667","6501300","土城區"
"236078","166-UM","2018/01/01 16:26:36","新北市土城區城林路6巷80號","121.438558333333","24.97971","6501300","土城區"
"236030","253-BX","2018/01/01 18:39:38","新北市土城區慶利街33號","121.43878","24.9744633333333","6501300","土城區"
"236026","269-VK","2018/01/01 18:39:39","新北市土城區承天路101號","121.442988333333","24.9625366666667","6501300","土城區"
"236014","270-VK","2018/01/01 18:39:37","新北市土城區清水路207巷9號","121.460035","24.9821833333333","6501300","土城區"
"236036","271-VK","2018/01/01 18:39:41","新北市土城區明德路一段313巷22號","121.4596","24.9762466666667","6501300","土城區"
"236020","401-BY","2018/01/01 18:39:27","新北市土城區延吉街253巷1號","121.467563333333","24.98469","6501300","土城區"
"236058","912-UM","2018/01/01 18:39:28","新北市土城區中央路四段33號","121.423325","24.9620716666667","6501300","土城區"
"236048","913-UM","2018/01/01 18:39:25","新北市土城區金城路三段6號","121.46429","24.9859683333333","6501300","土城區"
"236062","915-UM","2018/01/01 18:39:30","新北市土城區延壽路13巷34號","121.470141666667","24.9913066666667","6501300","土城區"
"236053","AAC-216","2018/01/01 18:39:20","新北市土城區中華路一段31-2號","121.446223333333","24.9889683333333","6501300","土城區"
"238015","755-BX","2018/01/01 18:38:33","新北市樹林區大安路576號","121.411786666667","24.983725","6500700","樹林區"
"238023","601-UM","2018/01/01 18:39:39","新北市樹林區三福街114號","121.40653","25.0163283333333","6500700","樹林區"
"238019","599-UM","2018/01/01 18:39:26","新北市樹林區中華路190號","121.41199","24.98056","6500700","樹林區"
"238018","571-TV","2018/01/01 18:39:22","新北市樹林區樹新路50巷5弄2號","121.429206666667","24.9965083333333","6500700","樹林區"
"238024","5061-A6","2018/01/01 18:39:34","新北市樹林區太順街79巷15弄7號","121.417431666667","24.9782633333333","6500700","樹林區"
"238025","303-VK","2018/01/01 18:39:26","新北市樹林區中山路三段22號","121.395573333333","24.9730083333333","6500700","樹林區"
"238017","283-BY","2018/01/01 18:39:38","新北市樹林區光興街50號","121.409835","25.0026933333333","6500700","樹林區"
"238007","268-VK","2018/01/01 18:39:40","新北市樹林區三俊街318號","121.423605","25.013695","6500700","樹林區"
"238026","172-UY","2018/01/01 18:39:37","新北市樹林區育德街78-1號","121.388496666667","24.9682083333333","6500700","樹林區"
"238016","169-UY","2018/01/01 18:39:33","新北市樹林區文化街28號","121.419301666667","24.9877916666667","6500700","樹林區"
"239007","AAC-297","2018/01/01 18:39:37","新北市鶯歌區中山路129-1號","121.349628333333","24.9566566666667","6500800","鶯歌區"
"239008","527-UM","2018/01/01 18:39:24","新北市鶯歌區國際一路179號","121.336183333333","24.976435","6500800","鶯歌區"
"239005","526-UM","2018/01/01 18:39:20","新北市鶯歌區鳳吉三街29號","121.327133333333","24.97368","6500800","鶯歌區"
"239001","417-VK","2018/01/01 18:39:30","新北市鶯歌區中正三路171號","121.336205","24.9398516666667","6500800","鶯歌區"
"239003","360-BY","2018/01/01 18:39:34","新北市鶯歌區永和街172號","121.33608","24.9704583333333","6500800","鶯歌區"
"239004","193-VK","2018/01/01 18:39:28","新北市鶯歌區尖山路卓厝巷1-5號","121.34142","24.9464016666667","6500800","鶯歌區"
"221008","489-VK","2018/01/01 18:27:08","新北市汐止區康寧街901號","121.651463333333","25.07511","6501100","汐止區"
"221036","130-UY","2018/01/01 18:39:31","新北市汐止區水碓街1號","121.66386","25.069995","6501100","汐止區"
"221010","269-BY","2018/01/01 18:39:23","新北市汐止區瑞松街46號","121.645396666667","25.105965","6501100","汐止區"
"221012","278-VK","2018/01/01 18:39:25","新北市汐止區長興街一段53號","121.670608333333","25.0796383333333","6501100","汐止區"
"221023","279-VK","2018/01/01 18:39:18","新北市汐止區汐萬路一段312號","121.650493333333","25.0754033333333","6501100","汐止區"
"221032","280-BY","2018/01/01 18:39:32","新北市汐止區民權街二段131號","121.617993333333","25.0455783333333","6501100","汐止區"
"221027","281-BY","2018/01/01 18:39:31","新北市汐止區汐萬路一段256巷3號","121.653365","25.074765","6501100","汐止區"
"221029","298-VK","2018/01/01 18:39:29","新北市汐止區樟樹一路140號","121.642208333333","25.06499","6501100","汐止區"
"221021","299-VK","2018/01/01 18:39:21","新北市汐止區新興路57號","121.657273333333","25.0629116666667","6501100","汐止區"
"221031","353-TW","2018/01/01 18:39:36","新北市汐止區福德一路274號","121.632125","25.063955","6501100","汐止區"
"221015","567-BX","2018/01/01 18:39:27","新北市汐止區鄉友街26號","121.668713333333","25.0811166666667","6501100","汐止區"
"221035","622-UM","2018/01/01 18:39:30","新北市汐止區大同路二段278號","121.65487","25.066315","6501100","汐止區"
"221025","623-UM","2018/01/01 18:39:25","新北市汐止區仁愛路119巷18號","121.662168333333","25.0643133333333","6501100","汐止區"
"221038","646-BX","2018/01/01 18:39:37","新北市汐止區大同路二段383號","121.657643333333","25.067305","6501100","汐止區"
"221033","647-BX","2018/01/01 18:39:37","台北市南港區舊莊街二段1巷18號","121.623963333333","25.03882","6501100","汐止區"
"221002","707-TV","2018/01/01 18:39:26","新北市汐止區中興路25號","121.63693","25.0596083333333","6501100","汐止區"
"221018","753-BX","2018/01/01 18:39:39","新北市汐止區茄苳路250巷7號","121.671346666667","25.0679583333333","6501100","汐止區"
"220079","145-BY","2018/01/01 18:39:35","新北市板橋區大觀路二段111號","121.446183333333","25.0016183333333","6500100","板橋區"
"220080","200-UY","2018/01/01 18:39:26","新北市板橋區大觀路二段431-1號","121.441511666667","24.9950983333333","6500100","板橋區"
"220082","610-BX","2018/01/01 18:39:30","新北市板橋區四川路二段橋頭1巷1號","121.44689","24.994105","6500100","板橋區"
"220056","276-BY","2018/01/01 18:39:36","新北市板橋區四川路二段113號","121.451528333333","24.9943683333333","6500100","板橋區"
"220072","277-BY","2018/01/01 18:39:38","新北市板橋區四川路二段橋頭1巷1號","121.446841666667","24.9941266666667","6500100","板橋區"
"220064","282-UM","2018/01/01 13:43:06","新北市板橋區華東街1-9號","121.448181666667","24.9947866666667","6500100","板橋區"
"220071","283-VK","2018/01/01 18:39:31","新北市板橋區四川路二段橋頭6號","121.448346666667","24.9940766666667","6500100","板橋區"
"220094","285-UM","2018/01/01 18:39:29","新北市板橋區民生路二段161巷3號","121.470206666667","25.0197816666667","6500100","板橋區"
"220053","285-VK","2018/01/01 18:39:39","新北市板橋區民生路二段161巷1號","121.4702","25.0199583333333","6500100","板橋區"
"220083","286-VK","2018/01/01 18:39:35","新北市板橋區華東街1-8號","121.447475","24.9949933333333","6500100","板橋區"
"220081","287-VK","2018/01/01 18:39:23","新北市板橋區板城路421號","121.44821","24.9961266666667","6500100","板橋區"
"220090","288-VK","2018/01/01 18:39:38","新北市板橋區民生路二段161巷9號","121.470285","25.0196233333333","6500100","板橋區"
"220061","293-UM","2018/01/01 18:39:33","新北市板橋區民生路二段161巷9號","121.470301666667","25.0196783333333","6500100","板橋區"
"220084","296-UM","2018/01/01 18:39:23","新北市板橋區板城路421號","121.448085","24.9963066666667","6500100","板橋區"
"220075","297-UM","2018/01/01 18:39:27","新北市板橋區南雅南路二段116號","121.452511666667","25.0005033333333","6500100","板橋區"
"220062","305-R5","2018/01/01 18:39:30","新北市板橋區民生路二段120號","121.47032","25.0197566666667","6500100","板橋區"
"220064","486-VK","2018/01/01 18:39:34","新北市板橋區民生路二段36-1號","121.472063333333","25.016785","6500100","板橋區"
"220035","560-BX","2018/01/01 18:39:35","新北市板橋區南雅西路二段145巷3號","121.451661666667","25.0116083333333","6500100","板橋區"
"220063","609-BX","2018/01/01 16:29:19","新北市板橋區民生路二段161巷1號","121.469886666667","25.020085","6500100","板橋區"
"220057","686-BX","2018/01/01 18:39:22","新北市板橋區華東街1-9號","121.448233333333","24.9949033333333","6500100","板橋區"
"220077","687-BX","2018/01/01 18:39:24","新北市板橋區四川路二段橋頭1巷1號","121.446888333333","24.99405","6500100","板橋區"
"220054","741-BX","2018/01/01 18:39:35","新北市板橋區華東街1-9號","121.448123333333","24.9948883333333","6500100","板橋區"
"220055","827-TW","2018/01/01 18:39:28","新北市板橋區華東街1-9號","121.44818","24.9949066666667","6500100","板橋區"
"220067","829-TW","2018/01/01 18:39:39","新北市板橋區民生路二段161巷5號","121.470286666667","25.0197616666667","6500100","板橋區"
"220073","985-R7","2018/01/01 18:39:26","新北市板橋區南雅南路二段134號","121.45207","24.9965666666667","6500100","板橋區"
"220097","AAC-210","2018/01/01 14:56:40","新北市板橋區民生路二段161巷9號","121.470308333333","25.0194666666667","6500100","板橋區"
"220070","AAC-253","2018/01/01 18:39:39","新北市板橋區華東街1-9號","121.448253333333","24.9948316666667","6500100","板橋區"
