"lineid","car","time","location","longitude","latitude","cityid","cityname"
"234046","148-BY","2018/01/01 18:41:38","新北市永和區永元路40巷23號","121.522818333333","25.0006933333333","6500400","永和區"
"234013","149-BY","2018/01/01 18:41:33","新北市永和區環河西路一段87號","121.512396666667","25.0180383333333","6500400","永和區"
"234007","207-UY","2018/01/01 18:41:34","新北市永和區文化路170號","121.511795","25.0155516666667","6500400","永和區"
"234081","298-R6","2018/01/01 18:41:35","新北市永和區林森路77號","121.523986666667","25.0038933333333","6500400","永和區"
"234038","336-UY","2018/01/01 18:41:36","新北市永和區福和路1號","121.526568333333","25.00998","6500400","永和區"
"234064","337-UY","2018/01/01 18:41:37","新北市永和區福和路1號","121.526123333333","25.0094483333333","6500400","永和區"
"234086","338-UY","2018/01/01 18:41:28","新北市中和區安和路21號","121.51101","24.9940566666667","6500400","永和區"
"234054","553-UM","2018/01/01 18:41:37","新北市永和區福和路1號","121.525953333333","25.00966","6500400","永和區"
"234017","745-BX","2018/01/01 18:41:37","新北市永和區環河東路二段62號","121.52378","25.0111083333333","6500400","永和區"
"234061","AAD-866","2018/01/01 18:41:31","新北市永和區豫溪街217巷15號","121.524488333333","25.0098066666667","6500400","永和區"
"234070","847-RS","2018/01/01 18:41:23","新北市永和區福和路1號","121.526371666667","25.00978","6500400","永和區"
"234042","862-TW","2018/01/01 18:41:36","新北市永和區永貞路304號","121.511898333333","25.0048083333333","6500400","永和區"
"234050","863-TW","2018/01/01 18:41:35","新北市永和區環河西路一段95巷2-3號","121.51177","25.01782","6500400","永和區"
"234026","9371-KE","2018/01/01 18:41:37","新北市永和區永貞路415號","121.507313333333","25.0094516666667","6500400","永和區"
"234011","9373-KE","2018/01/01 18:41:24","新北市永和區永和路二段235-1號","121.515261666667","25.014455","6500400","永和區"
"249001","173-UM","2018/01/01 18:41:33","新北市八里區龍米路一段420號","121.451091666667","25.1336066666667","6502300","八里區"
"249004","303-UY","2018/01/01 18:41:42","新北市八里區中山路一段58號","121.421828333333","25.1591083333333","6502300","八里區"
"249002","305-UY","2018/01/01 18:41:31","新北市八里區頂寮二街138號","121.449355","25.1294566666667","6502300","八里區"
"249005","759-BX","2018/01/01 18:41:32","新北市八里區長坑口34-1號","121.389235","25.1255733333333","6502300","八里區"
"248016","026-BX","2018/01/01 18:41:22","新北市五股區凌雲路一段149巷42號","121.448618333333","25.100895","6501500","五股區"
"248008","095-VK","2018/01/01 18:41:21","新北市五股區中興路一段151巷27號","121.465213333333","25.07234","6501500","五股區"
"248018","225-UY","2018/01/01 18:41:25","新北市五股區民義路二段122號","121.405055","25.1138916666667","6501500","五股區"
"248012","247-BX","2018/01/01 18:41:31","新北市五股區成泰路二段147巷26號","121.438461666667","25.08693","6501500","五股區"
"248014","261-SL","2018/01/01 18:41:25","新北市五股區成泰路二段54-1號","121.437248333333","25.0817683333333","6501500","五股區"
"248010","272-BY","2018/01/01 18:41:30","新北市五股區水碓七路168號","121.430793333333","25.073985","6501500","五股區"
"248004","677-BX","2018/01/01 18:41:22","新北市五股區民義路二段12-1號","121.421033333333","25.096345","6501500","五股區"
"248002","678-BX","2018/01/01 18:41:35","新北市五股區成泰路三段435巷11號","121.449383333333","25.0978","6501500","五股區"
"234022","9380-KE","2018/01/01 18:41:20","新北市永和區福和路76巷5弄14號","121.522338333333","25.0083883333333","6500400","永和區"
"234077","969-R7","2018/01/01 18:41:27","新北市中和區安樂路101-3號","121.513515","24.9950633333333","6500400","永和區"
"234067","AAC-212","2018/01/01 18:41:37","新北市永和區永和路一段22號","121.513078333333","25.0048583333333","6500400","永和區"
"234003","AAC-295","2018/01/01 18:41:21","新北市永和區豫溪街217巷1號","121.525343333333","25.0096683333333","6500400","永和區"
"232011","375-UM","2018/01/01 18:41:36","新北市坪林區坪雙路一段43號","121.711833333333","24.9424483333333","6502000","坪林區"
"244013","069-UM","2018/01/01 18:41:35","新北市林口區文化一路二段92號","121.381665","25.0787233333333","6501700","林口區"
"244007","080-UY","2018/01/01 18:41:31","新北市林口區太平嶺22號","121.37583","25.1163583333333","6501700","林口區"
"244019","403-UM","2018/01/01 18:41:38","新北市林口區麗園二街12巷4-2號","121.378398333333","25.0684183333333","6501700","林口區"
"244025","742-UY","2018/01/01 18:41:23","新北市林口區南勢六街248號","121.356","25.0748316666667","6501700","林口區"
"244023","483-VK","2018/01/01 18:41:31","新北市林口區文化二路二段88巷7號","121.379351666667","25.080895","6501700","林口區"
"244017","485-VK","2018/01/01 18:41:21","新北市林口區文化二路一段20巷25弄11號","121.365418333333","25.0672883333333","6501700","林口區"
"244011","656-BX","2018/01/01 18:41:37","新北市林口區仁愛路一段272巷17號","121.39216","25.0766716666667","6501700","林口區"
"244009","837-TS","2018/01/01 18:41:29","新北市林口區竹林路278巷2號","121.390411666667","25.081725","6501700","林口區"
"244021","838-TS","2018/01/01 18:41:36","新北市林口區自強二街1-4號","121.397293333333","25.078505","6501700","林口區"
"243012","AAD-798","2018/01/01 18:41:35","新北市泰山區福興三街13號","121.434453333333","25.05778","6501600","泰山區"
"243009","KEA-2216","2018/01/01 18:41:19","新北市泰山區黎明路31號","121.421818333333","25.0606066666667","6501600","泰山區"
"243013","646-TV","2018/01/01 18:30:13","新北市泰山區明志路三段206巷10號","121.423248333333","25.0380066666667","6501600","泰山區"
"243016","680-BX","2018/01/01 18:41:34","新北市泰山區泰林路二段570號","121.422685","25.0636433333333","6501600","泰山區"
"222003","436-BY","2018/01/01 18:41:30","新北市深坑區翠谷街28號","121.626663333333","25.0090933333333","6501800","深坑區"
"222002","659-BX","2018/01/01 18:41:30","新北市深坑區文山路一段62巷3號","121.622895","25.000845","6501800","深坑區"
"222001","696-SL","2018/01/01 18:41:38","新北市深坑區北深路一段32-1號","121.638205","25.0105033333333","6501800","深坑區"
"231066","0293-UT","2018/01/01 18:41:26","新北市新店區安華路1-1號","121.5195","24.960015","6500600","新店區"
"231059","046-UY","2018/01/01 18:41:23","新北市新店區安華路28-1號","121.519548333333","24.9608416666667","6500600","新店區"
"231061","047-UY","2018/01/01 18:41:36","新北市新店區安華路28-1號","121.519","24.9610383333333","6500600","新店區"
"231060","106-UY","2018/01/01 18:41:36","新北市新店區安華路28-1號","121.51966","24.9607","6500600","新店區"
"231051","107-UY","2018/01/01 18:41:36","新北市新店區環河路100號","121.53699","24.9641033333333","6500600","新店區"
"231047","108-UY","2018/01/01 18:41:34","新北市新店區光明街139號","121.539336666667","24.9620883333333","6500600","新店區"
"231052","187-VK","2018/01/01 18:41:38","新北市新店區永興路7號","121.54461","24.9395816666667","6500600","新店區"
"231050","KEA-2219","2018/01/01 18:41:33","新北市新店區安華路28-1號","121.519761666667","24.96125","6500600","新店區"
"231057","256-BX","2018/01/01 18:41:28","新北市新店區新烏路一段217號","121.54905","24.9310416666667","6500600","新店區"
"231063","268-BY","2018/01/01 18:41:30","新北市新店區安華路1-1號","121.519376666667","24.9605016666667","6500600","新店區"
"231046","278-BY","2018/01/01 18:41:36","新北市新店區直潭二街1號","121.535561666667","24.9431783333333","6500600","新店區"
"231054","AAD-862","2018/01/01 18:41:27","新北市新店區安華路28-1號","121.519768333333","24.96119","6500600","新店區"
"231044","355-BY","2018/01/01 18:41:30","新北市新店區中正路23號","121.545345","24.969525","6500600","新店區"
"231058","3712-VJ","2018/01/01 18:41:30","新北市新店區新店路9號","121.540413333333","24.9529066666667","6500600","新店區"
"231056","3713-VJ","2018/01/01 18:41:31","新北市新店區自立街32號","121.538488333333","24.97846","6500600","新店區"
"231055","4716-K9","2018/01/01 18:41:35","新北市新店區華興街32號","121.537218333333","24.9689416666667","6500600","新店區"
"231067","4772-VM","2018/01/01 18:41:32","新北市新店區安康路一段273號","121.524061666667","24.963455","6500600","新店區"
"231065","512-UM","2018/01/01 18:41:41","新北市新店區安華路28-1號","121.519225","24.9612166666667","6500600","新店區"
"231064","515-UM","2018/01/01 18:41:22","新北市新店區安華路28-1號","121.51959","24.9608816666667","6500600","新店區"
"231040","619-UM","2018/01/01 18:41:27","新北市新店區安康路一段222號","121.523773333333","24.96355","6500600","新店區"
"231042","641-BX","2018/01/01 18:41:23","新北市新店區安華路28-1號","121.51966","24.9609","6500600","新店區"
"231049","719-UM","2018/01/01 18:41:36","新北市新店區環河路29巷1號","121.536991666667","24.96134","6500600","新店區"
"231062","720-UM","2018/01/01 18:41:36","新北市新店區安華路28-1號","121.519288333333","24.9611016666667","6500600","新店區"
"231041","897-TW","2018/01/01 18:41:35","新北市新店區安華路1-1號","121.51945","24.960525","6500600","新店區"
"231045","898-TW","2018/01/01 18:41:18","新北市新店區安華路28-1號","121.519218333333","24.9608316666667","6500600","新店區"
"231043","899-TW","2018/01/01 18:41:26","新北市新店區安華路28-1號","121.519091666667","24.9608383333333","6500600","新店區"
"235066","003-UY","2018/01/01 18:41:26","新北市中和區水源路36巷1弄1號","121.50524","25.00349","6500300","中和區"
"235064","005-UY","2018/01/01 18:41:35","新北市中和區連城路109巷9號","121.496671666667","24.9991766666667","6500300","中和區"
"235063","006-UY","2018/01/01 18:41:41","新北市中和區中正路628號","121.48548","24.995855","6500300","中和區"
"235046","031-BX","2018/01/01 18:41:38","新北市中和區仁愛街95號","121.5119","24.9868033333333","6500300","中和區"
"235056","096-UM","2018/01/01 18:41:25","新北市中和區員山路611巷1號","121.477903333333","25.0112533333333","6500300","中和區"
"235039","097-UM","2018/01/01 18:41:32","新北市中和區安樂路139號","121.514555","24.9967916666667","6500300","中和區"
"235040","150-BY","2018/01/01 18:41:27","新北市中和區安平路38號","121.509781666667","24.9949933333333","6500300","中和區"
"235058","151-BY","2018/01/01 18:41:38","新北市中和區員山路32-3號","121.481028333333","24.987435","6500300","中和區"
"235055","183-VK","2018/01/01 18:41:22","新北市板橋區民族路276巷11號","121.469808333333","25.0060416666667","6500300","中和區"
"235038","185-VK","2018/01/01 18:41:21","新北市中和區立人街14巷77號","121.518335","24.9956666666667","6500300","中和區"
"235049","186-VK","2018/01/01 18:41:21","新北市中和區景安路132巷38號","121.50381","24.9946316666667","6500300","中和區"
"235067","255-BX","2018/01/01 18:41:41","新北市中和區中山路二段475號","121.483251666667","25.0049733333333","6500300","中和區"
"235044","293-VK","2018/01/01 18:41:34","新北市中和區復興路280巷35號","121.50133","24.9918383333333","6500300","中和區"
"235072","301-VK","2018/01/01 18:41:21","新北市中和區中山路二段170號","121.501255","25.00293","6500300","中和區"
"235043","352-BY","2018/01/01 18:41:38","新北市中和區景平路73號","121.518868333333","24.99162","6500300","中和區"
"235068","377-QA","2018/01/01 18:41:27","新北市中和區圓通路257巷3號","121.49617","24.9933983333333","6500300","中和區"
"235061","378-QA","2018/01/01 18:41:28","新北市中和區民享街88巷1號","121.474478333333","25.0004783333333","6500300","中和區"
"235050","4979-A6","2018/01/01 18:41:33","新北市中和區景新街496巷30弄18號","121.512941666667","24.9856116666667","6500300","中和區"
"235069","4980-A6","2018/01/01 18:41:18","新北市中和區泰和街24號","121.499683333333","25.0005166666667","6500300","中和區"
"235042","551-UM","2018/01/01 18:41:41","新北市中和區成功路41巷1號","121.526276666667","24.9932366666667","6500300","中和區"
"235070","558-UM","2018/01/01 18:41:20","新北市中和區南華路59號","121.504396666667","24.9969683333333","6500300","中和區"
"235045","565-BX","2018/01/01 18:41:36","新北市中和區南山路236巷63弄1號","121.503865","24.9876216666667","6500300","中和區"
"235054","640-BX","2018/01/01 18:41:29","新北市中和區民享街32巷17號","121.47278","25.0031516666667","6500300","中和區"
"235060","647-TV","2018/01/01 18:41:37","新北市中和區中山路二段640號","121.480936666667","25.0056283333333","6500300","中和區"
"235047","732-UM","2018/01/01 18:41:21","新北市中和區興南路二段55號","121.507001666667","24.9852633333333","6500300","中和區"
"235062","800-TS","2018/01/01 18:41:33","新北市中和區中山路二段312巷33弄25號","121.494788333333","25.0041716666667","6500300","中和區"
"235057","801-TS","2018/01/01 18:41:26","新北市中和區員山路327巷46號","121.480516666667","25.00175","6500300","中和區"
"235041","802-TS","2018/01/01 18:41:36","新北市中和區宜安路118巷20號","121.510853333333","24.9986416666667","6500300","中和區"
"235052","805-TS","2018/01/01 18:41:38","新北市中和區興南路三段94號","121.489138333333","24.9734216666667","6500300","中和區"
"235048","896-TW","2018/01/01 18:41:22","新北市中和區南山路250巷2號","121.507795","24.9889133333333","6500300","中和區"
"235053","900-TW","2018/01/01 18:41:39","新北市中和區民享街463號","121.470088333333","24.9927866666667","6500300","中和區"
"235065","911-UM","2018/01/01 18:41:20","新北市中和區莊敬路33巷36弄10號","121.500411666667","25.0063166666667","6500300","中和區"
"235051","157-BY","2018/01/01 18:41:19","新北市中和區華新街143巷106弄30號","121.506153333333","24.97878","6500300","中和區"
"235037","AAC-213","2018/01/01 18:41:34","新北市中和區景德街40號","121.517828333333","24.9915516666667","6500300","中和區"
"235059","AAC-215","2018/01/01 18:41:29","新北市中和區錦和路356號","121.490651666667","24.9914016666667","6500300","中和區"
"220068","013-TV","2017/12/29 21:10:47","新北市八里區荖阡坑路4-28號","121.398095","25.1426633333333","6500100","板橋區"
"220065","072-UY","2018/01/01 18:41:31","新北市板橋區漢生東路258號","121.46804","25.0138566666667","6500100","板橋區"
"220086","073-UY","2018/01/01 18:41:29","新北市板橋區南雅西路二段192巷1弄3號","121.452035","25.0144833333333","6500100","板橋區"
"226004","312-R5","2018/01/01 18:41:25","新北市平溪區平溪里平溪街56號","121.736101666667","25.02759","6502400","平溪區"
"228003","097-TW","2018/01/01 18:41:19","新北市貢寮區和美里龍洞街5-1號","121.918455","25.1118133333333","6502600","貢寮區"
"228001","212-TW","2018/01/01 18:41:26","新北市貢寮區仁理村研海街12-1號","121.923801666667","25.0516416666667","6502600","貢寮區"
"228002","585-TW","2018/01/01 18:41:30","新北市貢寮區福隆里東興街6-11號","121.950776666667","25.0210716666667","6502600","貢寮區"
"224010","AGQ-8101","2018/01/01 18:41:24","新北市瑞芳區崙頂路45號","121.844708333333","25.1072183333333","6501200","瑞芳區"
"224006","676-BX","2018/01/01 18:41:26","新北市瑞芳區一坑路46號","121.803803333333","25.1088066666667","6501200","瑞芳區"
"224002","639-TC","2018/01/01 18:41:35","新北市瑞芳區東和路31-5號","121.805213333333","25.106045","6501200","瑞芳區"
"224009","285-BY","2018/01/01 18:41:23","新北市瑞芳區五號路124號","121.854906666667","25.1109083333333","6501200","瑞芳區"
"224008","275-VK","2018/01/01 18:41:28","新北市瑞芳區瑞芳街5號","121.806763333333","25.109825","6501200","瑞芳區"
"224007","272-VK","2018/01/01 18:41:36","新北市瑞芳區大埔路115巷27號","121.762923333333","25.10127","6501200","瑞芳區"
"224005","271-BY","2018/01/01 18:41:21","新北市瑞芳區建基新村7-4號","121.812295","25.1316516666667","6501200","瑞芳區"
"227001","400-TW","2018/01/01 18:41:19","新北市雙溪區魚行里坤溪18號","121.872838333333","25.0260283333333","6502500","雙溪區"
"227008","030-BX","2018/01/01 18:41:33","新北市雙溪區牡丹里下坑11號","121.850966666667","25.0561616666667","6502500","雙溪區"
"253005","032-BX","2018/01/01 18:41:15","新北市石門區中山路33號","121.567083333333","25.2909066666667","6502200","石門區"
"253006","741-TV","2018/01/01 18:41:22","新北市石門區崁子腳16號","121.532913333333","25.2883116666667","6502200","石門區"
"208002","742-BX","2018/01/01 18:41:38","新北市金山區忠孝一路31號","121.638333333333","25.2194466666667","6502700","金山區"
"208003","665-BX","2018/01/01 18:41:26","新北市金山區中山路278號","121.635016666667","25.2243566666667","6502700","金山區"
"208001","761-BX","2018/01/01 18:41:36","新北市金山區文化三路7號","121.635071666667","25.2249","6502700","金山區"
"251004","009-UM","2018/01/01 18:41:28","新北市淡水區民權路3巷12弄30號","121.461225","25.1418766666667","6501000","淡水區"
"251001","011-UM","2018/01/01 18:41:30","新北市淡水區自強路419號","121.465611666667","25.1342533333333","6501000","淡水區"
"251013","179-VK","2018/01/01 18:41:31","新北市淡水區雲廣坑5-1號","121.474825","25.213145","6501000","淡水區"
"251014","180-VK","2018/01/01 18:41:40","新北市淡水區南平28號","121.492731666667","25.2157783333333","6501000","淡水區"
"251008","181-VK","2018/01/01 18:41:36","新北市淡水區北投子19-8號","121.453925","25.1839183333333","6501000","淡水區"
"251015","182-VK","2018/01/01 18:41:38","新北市淡水區興福寮66巷339號","121.484078333333","25.1619483333333","6501000","淡水區"
"251010","413-VK","2018/01/01 18:41:39","新北市淡水區沙崙路145號","121.423441666667","25.1830266666667","6501000","淡水區"
"251012","441-VK","2018/01/01 18:41:35","新北市淡水區北新路92號","121.446975","25.17844","6501000","淡水區"
"251016","442-VK","2018/01/01 18:41:42","新北市淡水區下圭柔山72號","121.445978333333","25.2047316666667","6501000","淡水區"
"251006","561-UM","2018/01/01 18:41:36","新北市淡水區大信街38號","121.44214","25.17742","6501000","淡水區"
"251007","577-R6","2018/01/01 18:41:26","新北市淡水區中正東路二段143巷2弄1號","121.460635","25.1475033333333","6501000","淡水區"
"251011","650-BX","2018/01/01 18:41:21","新北市淡水區鄧公路48號","121.459525","25.1687583333333","6501000","淡水區"
"251002","672-BX","2018/01/01 18:41:18","新北市淡水區中正東路一段3巷14弄1號","121.450956666667","25.164215","6501000","淡水區"
"251003","766-UM","2018/01/01 18:41:28","新北市淡水區中山北路一段186巷27弄1-1號","121.446196666667","25.1788933333333","6501000","淡水區"
"207003","550-UM","2018/01/01 18:41:40","新北市萬里區野柳里港東新村1-1號","121.68604","25.2030566666667","6502800","萬里區"
"207004","225-TW","2018/01/01 18:41:34","新北市萬里區萬里里獅頭路2-1號","121.691846666667","25.177865","6502800","萬里區"
"252002","178-VK","2018/01/01 18:41:24","新北市三芝區民生街17號","121.503635","25.2570816666667","6502100","三芝區"
"252003","249-BX","2018/01/01 18:41:28","新北市三芝區後厝里土地公坑54-10號","121.466363333333","25.249745","6502100","三芝區"
"252001","292-VK","2018/01/01 18:41:26","新北市三芝區中興街二段260號","121.501898333333","25.2528383333333","6502100","三芝區"
"237004","078-UY","2018/01/01 18:41:30","新北市三峽區插角227號","121.41505","24.86827","6500900","三峽區"
"237007","153-BY","2018/01/01 18:41:28","新北市三峽區柑樹路9號","121.362336666667","24.9059883333333","6500900","三峽區"
"237009","210-TH","2018/01/01 18:41:41","新北市三峽區民權街231號","121.36805","24.9279266666667","6500900","三峽區"
"237013","252-BX","2018/01/01 18:41:26","新北市三峽區光明路69巷25號","121.376681666667","24.92924","6500900","三峽區"
"237012","275-BY","2018/01/01 18:41:34","新北市三峽區三樹路340號","121.38398","24.9433016666667","6500900","三峽區"
"237008","302-VK","2018/01/01 18:41:34","新北市三峽區白雞33-51號","121.370433333333","24.9129916666667","6500900","三峽區"
"237011","433-BY","2018/01/01 18:41:23","新北市三峽區介壽路三段40號","121.395918333333","24.9368133333333","6500900","三峽區"
"237006","5529-G3","2018/01/01 18:41:24","新北市三峽區溪東路211巷3號","121.40497","24.9335816666667","6500900","三峽區"
"237015","649-BX","2018/01/01 18:05:34","新北市三峽區紫微路83號","121.411425","24.9155966666667","6500900","三峽區"
"237010","706-TV","2018/01/01 18:41:38","新北市三峽區復興路487號","121.361275","24.9384566666667","6500900","三峽區"
"237005","AKY-6261","2018/01/01 18:41:25","新北市三峽區民生街102號","121.373813333333","24.9354583333333","6500900","三峽區"
"236069","105-UM","2018/01/01 18:41:29","新北市土城區永豐路157巷29弄6-1號","121.468276666667","24.9815","6501300","土城區"
"236042","107-UM","2018/01/01 18:41:24","新北市土城區裕民路57號","121.448983333333","24.9879933333333","6501300","土城區"
"236078","166-UM","2018/01/01 16:26:36","新北市土城區城林路6巷80號","121.438558333333","24.97971","6501300","土城區"
"236030","253-BX","2018/01/01 18:41:38","新北市土城區中華路二段181號","121.438486666667","24.9749216666667","6501300","土城區"
"236026","269-VK","2018/01/01 18:41:19","新北市土城區千歲路33號","121.442176666667","24.9683733333333","6501300","土城區"
"236014","270-VK","2018/01/01 18:41:32","新北市土城區清水路234巷15弄10號","121.46214","24.98184","6501300","土城區"
"236036","271-VK","2018/01/01 18:41:21","新北市土城區明德路一段291巷14號","121.460338333333","24.9766716666667","6501300","土城區"
"236020","401-BY","2018/01/01 18:41:27","新北市土城區延吉街253巷17號","121.467835","24.9840983333333","6501300","土城區"
"236058","912-UM","2018/01/01 18:41:28","新北市土城區中央路三段282號","121.426501666667","24.9634633333333","6501300","土城區"
"236048","913-UM","2018/01/01 18:41:25","新北市土城區青雲路113號","121.458956666667","24.98446","6501300","土城區"
"236062","915-UM","2018/01/01 18:41:39","新北市土城區延壽路55巷9弄2號","121.469468333333","24.9916216666667","6501300","土城區"
"236053","AAC-216","2018/01/01 18:41:20","新北市土城區裕民路24號","121.447686666667","24.988615","6501300","土城區"
"238015","755-BX","2018/01/01 18:41:33","新北市樹林區大安路591號","121.411721666667","24.9833916666667","6500700","樹林區"
"238023","601-UM","2018/01/01 18:41:39","新北市樹林區三福街114號","121.406506666667","25.01632","6500700","樹林區"
"238019","599-UM","2018/01/01 18:41:26","新北市樹林區中華路190號","121.411988333333","24.980555","6500700","樹林區"
"238018","571-TV","2018/01/01 18:41:22","新北市樹林區樹新路98號","121.429468333333","24.9976183333333","6500700","樹林區"
"238024","5061-A6","2018/01/01 18:41:33","新北市樹林區太順街49巷7號","121.4182","24.9788483333333","6500700","樹林區"
"238022","KEA-2213","2018/01/01 18:41:39","新北市樹林區中華路190-8號","121.411333333333","24.9805133333333","6500700","樹林區"
"238025","303-VK","2018/01/01 18:41:26","新北市樹林區中山路三段22號","121.395568333333","24.9730066666667","6500700","樹林區"
"238017","283-BY","2018/01/01 18:41:38","新北市樹林區光興街50號","121.409831666667","25.002695","6500700","樹林區"
"238007","268-VK","2018/01/01 18:41:20","新北市樹林區俊英街282號","121.423738333333","25.013325","6500700","樹林區"
"238026","172-UY","2018/01/01 18:41:37","新北市樹林區信和街2巷1號","121.389681666667","24.9710016666667","6500700","樹林區"
"238016","169-UY","2018/01/01 18:41:33","新北市樹林區文化街28號","121.419291666667","24.9877416666667","6500700","樹林區"
"239007","AAC-297","2018/01/01 18:41:37","新北市鶯歌區中正一路403號","121.359258333333","24.957","6500800","鶯歌區"
"239008","527-UM","2018/01/01 18:41:24","新北市鶯歌區國際一路179號","121.336155","24.9764566666667","6500800","鶯歌區"
"239005","526-UM","2018/01/01 18:41:20","新北市鶯歌區鳳吉二街114號","121.327738333333","24.9743666666667","6500800","鶯歌區"
"239001","417-VK","2018/01/01 18:41:30","新北市鶯歌區中正二路199號","121.33989","24.9450266666667","6500800","鶯歌區"
"239003","360-BY","2018/01/01 18:41:34","新北市鶯歌區永和二街6-2號","121.336261666667","24.97175","6500800","鶯歌區"
"239004","193-VK","2018/01/01 18:41:28","新北市鶯歌區尖山路362號","121.341605","24.9438633333333","6500800","鶯歌區"
"221008","489-VK","2018/01/01 18:27:08","新北市汐止區康寧街901號","121.651463333333","25.07511","6501100","汐止區"
"221036","130-UY","2018/01/01 18:41:31","新北市汐止區忠孝東路339巷4號","121.664865","25.07012","6501100","汐止區"
"221010","269-BY","2018/01/01 18:41:23","新北市汐止區汐萬路三段252巷14號","121.644651666667","25.1048233333333","6501100","汐止區"
"221012","278-VK","2018/01/01 18:41:25","新北市汐止區長江街267號","121.664238333333","25.0797816666667","6501100","汐止區"
"221023","279-VK","2018/01/01 18:41:39","新北市汐止區汐萬路一段256巷3號","121.65312","25.07441","6501100","汐止區"
"221032","280-BY","2018/01/01 18:41:32","新北市汐止區民權街二段113號","121.618731666667","25.046725","6501100","汐止區"
"221027","281-BY","2018/01/01 18:41:31","新北市汐止區汐萬路一段256巷3號","121.652223333333","25.0746766666667","6501100","汐止區"
"221029","298-VK","2018/01/01 18:41:29","新北市汐止區樟樹一路140號","121.642223333333","25.0649783333333","6501100","汐止區"
"221021","299-VK","2018/01/01 18:41:21","新北市汐止區新興路42號","121.657055","25.0632583333333","6501100","汐止區"
"221031","353-TW","2018/01/01 18:41:36","新北市汐止區福德一路274號","121.632103333333","25.0639483333333","6501100","汐止區"
"221015","567-BX","2018/01/01 18:41:31","新北市汐止區鄉友街6號","121.668145","25.0806683333333","6501100","汐止區"
"221035","622-UM","2018/01/01 18:41:30","新北市汐止區大同路二段302號","121.655363333333","25.0666633333333","6501100","汐止區"
"221025","623-UM","2018/01/01 18:41:25","新北市汐止區仁愛路119巷24號","121.662018333333","25.064565","6501100","汐止區"
"221038","646-BX","2018/01/01 18:41:37","新北市汐止區汐萬路一段39號","121.655151666667","25.0690333333333","6501100","汐止區"
"221033","647-BX","2018/01/01 18:41:37","新北市汐止區南勢街3號","121.627221666667","25.037435","6501100","汐止區"
"221002","707-TV","2018/01/01 18:41:26","新北市汐止區中興路3號","121.637261666667","25.05904","6501100","汐止區"
"221018","753-BX","2018/01/01 18:41:19","新北市汐止區茄苳路255號","121.67188","25.06823","6501100","汐止區"
"220079","145-BY","2018/01/01 18:41:35","新北市板橋區館前西路162號","121.452711666667","25.0085866666667","6500100","板橋區"
"220080","200-UY","2018/01/01 18:40:26","新北市板橋區大觀路二段265巷130弄32號","121.441055","24.9965983333333","6500100","板橋區"
"220082","610-BX","2018/01/01 18:41:30","新北市板橋區大觀路三段20號","121.434483333333","24.99568","6500100","板橋區"
"220056","276-BY","2018/01/01 18:41:30","新北市板橋區四川路二段113號","121.451528333333","24.9943666666667","6500100","板橋區"
"220072","277-BY","2018/01/01 18:41:38","新北市板橋區大觀路三段32號","121.433968333333","24.9957283333333","6500100","板橋區"
"220101","280-UM","2018/01/01 18:41:35","新北市板橋區民生路二段161巷5號","121.470126666667","25.0197033333333","6500100","板橋區"
"220064","282-UM","2018/01/01 13:43:06","新北市板橋區華東街1-9號","121.448181666667","24.9947866666667","6500100","板橋區"
"220071","283-VK","2018/01/01 18:41:31","新北市板橋區四川路二段140巷8號","121.449593333333","24.9932116666667","6500100","板橋區"
"220094","285-UM","2018/01/01 18:41:29","新北市板橋區民生路二段161巷3號","121.470201666667","25.019785","6500100","板橋區"
"220053","285-VK","2018/01/01 18:41:19","新北市板橋區民生路二段161巷1號","121.4702","25.0199566666667","6500100","板橋區"
"220083","286-VK","2018/01/01 18:41:35","新北市板橋區大觀路二段153巷47號","121.44713","25.00075","6500100","板橋區"
"220081","287-VK","2018/01/01 18:41:23","新北市板橋區大觀路二段163巷23號","121.446775","24.9999916666667","6500100","板橋區"
"220090","288-VK","2018/01/01 18:41:38","新北市板橋區民生路二段161巷9號","121.470231666667","25.0195","6500100","板橋區"
"220061","293-UM","2018/01/01 18:41:33","新北市板橋區民生路二段161巷9號","121.47027","25.0196783333333","6500100","板橋區"
"220084","296-UM","2018/01/01 18:41:23","新北市板橋區大觀路二段187巷25號","121.446155","24.9992716666667","6500100","板橋區"
"220075","297-UM","2018/01/01 18:41:27","新北市板橋區華東街328號","121.452841666667","25.00334","6500100","板橋區"
"220062","305-R5","2018/01/01 18:41:30","新北市板橋區民生路二段120號","121.470316666667","25.0197416666667","6500100","板橋區"
"220064","486-VK","2018/01/01 18:41:34","新北市板橋區民生路二段36-1號","121.472066666667","25.0167883333333","6500100","板橋區"
"220035","560-BX","2018/01/01 18:41:35","新北市板橋區南雅西路二段164號","121.451668333333","25.0136633333333","6500100","板橋區"
"220103","561-BX","2018/01/01 18:41:34","新北市板橋區民生路二段161巷5號","121.470046666667","25.0196466666667","6500100","板橋區"
"220063","609-BX","2018/01/01 16:29:19","新北市板橋區民生路二段161巷1號","121.469886666667","25.020085","6500100","板橋區"
"220057","686-BX","2018/01/01 18:41:22","新北市板橋區華東街1-9號","121.44824","24.9949016666667","6500100","板橋區"
"220077","687-BX","2018/01/01 18:41:24","新北市板橋區大觀路二段431-1號","121.44133","24.9951","6500100","板橋區"
"220054","741-BX","2018/01/01 18:41:35","新北市板橋區華東街1-9號","121.448125","24.9948883333333","6500100","板橋區"
"220055","827-TW","2018/01/01 18:41:28","新北市板橋區華東街1-9號","121.44818","24.9949083333333","6500100","板橋區"
"220067","829-TW","2018/01/01 18:41:19","新北市板橋區民生路二段161巷5號","121.470225","25.019725","6500100","板橋區"
"220074","895-R6","2018/01/01 18:41:19","新北市板橋區四川路二段130巷25弄4號","121.449125","24.9944316666667","6500100","板橋區"
"220073","985-R7","2018/01/01 18:41:26","新北市板橋區南雅南路二段28號","121.454365","25.003125","6500100","板橋區"
"220097","AAC-210","2018/01/01 14:56:40","新北市板橋區民生路二段161巷9號","121.470308333333","25.0194666666667","6500100","板橋區"
"220070","AAC-253","2018/01/01 18:41:39","新北市板橋區南雅南路二段144巷54號","121.450063333333","24.9971966666667","6500100","板橋區"
