"lineid","car","time","location","longitude","latitude","cityid","cityname"
"234046","148-BY","2018/01/01 19:03:03","新北市永和區永元路52巷50號","121.52445","25.000785","6500400","永和區"
"234013","149-BY","2018/01/01 19:02:53","新北市永和區信義路19號","121.51416","25.0118883333333","6500400","永和區"
"234007","207-UY","2018/01/01 19:02:55","新北市永和區中山路一段102號","121.511273333333","25.0105733333333","6500400","永和區"
"234081","298-R6","2018/01/01 19:02:55","新北市永和區福和路152號","121.521818333333","25.0079416666667","6500400","永和區"
"234038","336-UY","2018/01/01 19:02:56","新北市永和區成功路二段201巷17號","121.527231666667","24.9962416666667","6500400","永和區"
"234064","337-UY","2018/01/01 19:02:57","新北市永和區秀朗路一段198號","121.51941","25.0031566666667","6500400","永和區"
"234086","338-UY","2018/01/01 19:02:52","新北市永和區永貞路152號","121.517845","25.0044183333333","6500400","永和區"
"234054","553-UM","2018/01/01 19:02:58","新北市永和區竹林路66巷20號","121.517475","25.0131566666667","6500400","永和區"
"234017","745-BX","2018/01/01 19:02:57","新北市永和區忠孝街5號","121.515261666667","25.015685","6500400","永和區"
"234061","AAD-866","2018/01/01 19:02:51","新北市永和區中正路497巷7號","121.516383333333","25.0065533333333","6500400","永和區"
"234070","847-RS","2018/01/01 19:03:03","新北市永和區豫溪街57巷22號","121.51713","25.0108333333333","6500400","永和區"
"234042","862-TW","2018/01/01 19:02:57","新北市永和區永貞路332巷26號","121.511581666667","25.005735","6500400","永和區"
"234050","863-TW","2018/01/01 19:02:54","新北市永和區文化路194號","121.510841666667","25.0163333333333","6500400","永和區"
"234026","9371-KE","2018/01/01 19:02:57","新北市永和區安樂路451號","121.514313333333","25.0049283333333","6500400","永和區"
"234011","9373-KE","2018/01/01 19:02:53","新北市永和區仁愛路141巷5弄10號","121.512111666667","25.012165","6500400","永和區"
"249001","173-UM","2018/01/01 19:02:52","新北市八里區龍米路二段228-1號","121.432745","25.158465","6502300","八里區"
"249005","759-BX","2018/01/01 19:02:52","新北市八里區中華路三段159號","121.39208","25.1317916666667","6502300","八里區"
"248016","026-BX","2018/01/01 19:02:55","新北市五股區成泰路三段559巷16號","121.451416666667","25.1026","6501500","五股區"
"248006","077-UY","2018/01/01 19:02:51","新北市五股區四維路183號","121.467923333333","25.0753016666667","6501500","五股區"
"248008","095-VK","2018/01/01 19:02:41","新北市五股區中興路一段118巷13號","121.465933333333","25.0741483333333","6501500","五股區"
"248018","225-UY","2018/01/01 19:03:04","新北市五股區民義路二段22巷30-1號","121.423915","25.09936","6501500","五股區"
"248012","247-BX","2018/01/01 19:02:51","新北市五股區中興路四段48巷16號","121.438601666667","25.0834416666667","6501500","五股區"
"248010","272-BY","2018/01/01 19:02:50","新北市五股區水碓一路23號","121.430691666667","25.0713033333333","6501500","五股區"
"248004","677-BX","2018/01/01 19:03:02","新北市五股區六合街3號","121.431851666667","25.0886","6501500","五股區"
"248002","678-BX","2018/01/01 19:02:55","新北市五股區凌雲路一段158巷6號","121.44812","25.102775","6501500","五股區"
"234023","9380-KE","2018/01/01 19:03:00","新北市永和區竹林路75巷47號","121.52094","25.0143866666667","6500400","永和區"
"234077","969-R7","2018/01/01 19:02:47","新北市永和區智光街20號","121.517898333333","24.9993683333333","6500400","永和區"
"234074","AAC-211","2018/01/01 19:02:53","新北市永和區福和路12巷4號","121.524355","25.00874","6500400","永和區"
"234067","AAC-212","2018/01/01 19:02:57","新北市永和區安樂路475號","121.514201666667","25.00558","6500400","永和區"
"234003","AAC-295","2018/01/01 19:03:01","新北市永和區和平街103號","121.511093333333","25.0099183333333","6500400","永和區"
"244013","069-UM","2018/01/01 19:02:47","新北市林口區麗園一街11巷3號","121.377395","25.07039","6501700","林口區"
"244019","403-UM","2018/01/01 19:02:58","新北市林口區麗園二街42巷25號","121.38226","25.0665266666667","6501700","林口區"
"244025","742-UY","2018/01/01 19:03:03","新北市林口區民族路140號","121.366885","25.076125","6501700","林口區"
"244023","483-VK","2018/01/01 19:02:51","新北市林口區文林六街62巷28號","121.371773333333","25.0818266666667","6501700","林口區"
"244011","656-BX","2018/01/01 19:02:57","新北市林口區中正路341號","121.388106666667","25.0776383333333","6501700","林口區"
"244009","837-TS","2018/01/01 19:02:49","新北市林口區台電新村18號","121.386756666667","25.0862216666667","6501700","林口區"
"244021","838-TS","2018/01/01 19:02:56","新北市林口區太平里180號","121.368163333333","25.1345166666667","6501700","林口區"
"243012","AAD-798","2018/01/01 19:02:55","新北市泰山區明志路一段373巷9-1號","121.43133","25.0578","6501600","泰山區"
"243011","297-R6","2018/01/01 19:02:57","新北市泰山區明志路二段298巷16-1號","121.425716666667","25.0467116666667","6501600","泰山區"
"243015","380-SR","2018/01/01 19:03:04","新北市泰山區明志路一段303號","121.431611666667","25.0593066666667","6501600","泰山區"
"243014","421-VK","2018/01/01 19:02:50","新北市泰山區泰林路二段528號","121.423955","25.0638533333333","6501600","泰山區"
"243010","KEA-2215","2018/01/01 19:03:00","新北市泰山區明志路一段352巷15弄1號","121.429853333333","25.05921","6501600","泰山區"
"243009","KEA-2216","2018/01/01 19:02:59","新北市泰山區明志路一段113號","121.433438333333","25.0635216666667","6501600","泰山區"
"243013","646-TV","2018/01/01 19:02:57","新北市泰山區漢口街22巷6弄2號","121.423421666667","25.0356766666667","6501600","泰山區"
"243016","680-BX","2018/01/01 19:02:53","新北市泰山區明志路二段257號","121.427105","25.0477233333333","6501600","泰山區"
"222003","436-BY","2018/01/01 19:02:50","新北市深坑區深南路51-1號","121.621468333333","25.01011","6501800","深坑區"
"222002","659-BX","2018/01/01 19:02:50","新北市深坑區烏月路1號","121.63343","25.0082166666667","6501800","深坑區"
"222001","696-SL","2018/01/01 19:02:55","新北市深坑區北深路一段300號","121.624201666667","25.0057533333333","6501800","深坑區"
"231066","0293-UT","2018/01/01 19:02:46","新北市新店區安康路三段148號","121.490386666667","24.9517983333333","6500600","新店區"
"231059","046-UY","2018/01/01 19:03:03","新北市新店區安康路一段351-1號","121.519688333333","24.9640416666667","6500600","新店區"
"231061","047-UY","2018/01/01 19:02:56","新北市新店區安康路一段186號","121.524803333333","24.9634183333333","6500600","新店區"
"231060","106-UY","2018/01/01 19:02:56","新北市新店區安康路二段309-1號","121.501426666667","24.9571983333333","6500600","新店區"
"231051","107-UY","2018/01/01 19:02:55","新北市新店區百忍街33號","121.533633333333","24.9757483333333","6500600","新店區"
"231047","108-UY","2018/01/01 19:02:54","新北市新店區德正街27巷29弄76號","121.545786666667","24.973235","6500600","新店區"
"231052","187-VK","2018/01/01 19:02:58","新北市新店區櫻花街31號","121.547415","24.92613","6500600","新店區"
"231050","KEA-2219","2018/01/01 19:02:53","新北市新店區北宜路二段52-1號","121.549253333333","24.9512383333333","6500600","新店區"
"231063","268-BY","2018/01/01 19:02:51","新北市新店區車子路110號","121.50523","24.95208","6500600","新店區"
"231046","278-BY","2018/01/01 19:02:56","新北市新店區新潭路一段61號","121.525778333333","24.9422283333333","6500600","新店區"
"231054","AAD-862","2018/01/01 19:02:47","新北市新店區新店路30號","121.537591666667","24.95301","6500600","新店區"
"231044","355-BY","2018/01/01 19:02:50","新北市新店區寶中路105號","121.549013333333","24.9802066666667","6500600","新店區"
"231058","3712-VJ","2018/01/01 19:02:50","新北市新店區中興路一段121號","121.541631666667","24.96306","6500600","新店區"
"231056","3713-VJ","2018/01/01 19:02:51","新北市新店區二十張路33巷16號","121.538941666667","24.98099","6500600","新店區"
"231055","4716-K9","2018/01/01 19:02:51","新北市新店區新生街13巷26號","121.53897","24.966515","6500600","新店區"
"231067","4772-VM","2018/01/01 19:02:52","新北市新店區安康路一段247巷29號","121.524616666667","24.9619666666667","6500600","新店區"
"231065","512-UM","2018/01/01 19:03:01","新北市新店區安祥路147巷82號","121.475653333333","24.955495","6500600","新店區"
"231064","515-UM","2018/01/01 19:02:42","新北市新店區安忠路13號","121.514735","24.9625466666667","6500600","新店區"
"231040","619-UM","2018/01/01 19:02:47","新北市新店區三民路98-3號","121.533935","24.9734366666667","6500600","新店區"
"231042","641-BX","2018/01/01 19:02:44","新北市新店區大新街9巷28號","121.54451","24.9668166666667","6500600","新店區"
"231049","719-UM","2018/01/01 19:02:56","新北市新店區二十張路58號","121.536923333333","24.98036","6500600","新店區"
"231062","720-UM","2018/01/01 19:02:56","新北市新店區安平路53號","121.519686666667","24.96842","6500600","新店區"
"231041","897-TW","2018/01/01 19:02:55","新北市新店區環河路82號","121.536996666667","24.9635033333333","6500600","新店區"
"231045","898-TW","2018/01/01 19:02:58","新北市新店區北新路一段23號","121.537931666667","24.9590316666667","6500600","新店區"
"231043","899-TW","2018/01/01 19:02:46","新北市新店區北新路二段96號","121.54293","24.9731083333333","6500600","新店區"
"241026","066-VK","2018/01/01 19:03:00","新北市三重區泉州街110號","121.49483","25.0536216666667","6500200","三重區"
"241035","462-BY","2018/01/01 19:02:43","新北市三重區新北大道一段7號","121.489763333333","25.06147","6500200","三重區"
"241029","942-UM","2018/01/01 19:02:52","新北市三重區重安街41巷13號","121.490788333333","25.0564116666667","6500200","三重區"
"235066","003-UY","2018/01/01 19:02:46","新北市中和區中山路二段115號","121.50301","25.0037533333333","6500300","中和區"
"235064","005-UY","2018/01/01 19:02:55","新北市中和區泰和街30巷31號","121.498736666667","25.0014966666667","6500300","中和區"
"235063","006-UY","2018/01/01 19:03:01","新北市中和區中正路580號","121.486051666667","24.9947933333333","6500300","中和區"
"235046","031-BX","2018/01/01 19:02:58","新北市中和區興南路二段31巷3號","121.50791","24.9855933333333","6500300","中和區"
"235056","096-UM","2018/01/01 19:02:45","新北市中和區新民街94巷18號","121.48139","25.009145","6500300","中和區"
"235039","097-UM","2018/01/01 19:02:53","新北市中和區安樂路217巷40弄2號","121.513501666667","24.9980533333333","6500300","中和區"
"235040","150-BY","2018/01/01 19:02:47","新北市中和區安樂路51巷2號","121.51202","24.9937466666667","6500300","中和區"
"235058","151-BY","2018/01/01 19:02:58","新北市中和區連城路428巷3號","121.47989","24.9952733333333","6500300","中和區"
"235055","183-VK","2018/01/01 19:03:02","新北市中和區德光路77巷25號","121.470003333333","25.00318","6500300","中和區"
"235038","185-VK","2018/01/01 19:03:01","新北市中和區大仁街20巷1號","121.517773333333","24.993325","6500300","中和區"
"235049","186-VK","2018/01/01 19:02:41","新北市中和區景安路163號","121.505336666667","24.9946533333333","6500300","中和區"
"235067","255-BX","2018/01/01 19:03:00","新北市中和區新生街207號","121.483785","24.9998416666667","6500300","中和區"
"235044","293-VK","2018/01/01 19:02:54","新北市中和區中興街202巷10號","121.499126666667","24.9898233333333","6500300","中和區"
"235072","301-VK","2018/01/01 19:03:01","新北市中和區景平路756號","121.496603333333","25.0047083333333","6500300","中和區"
"235043","352-BY","2018/01/01 19:02:58","新北市中和區成功路139號","121.525798333333","24.9905033333333","6500300","中和區"
"235068","377-QA","2018/01/01 19:02:47","新北市中和區圓通路231號","121.496286666667","24.9942116666667","6500300","中和區"
"235061","378-QA","2018/01/01 18:54:08","新北市中和區莒光路129巷1弄22號","121.4731","25.0028533333333","6500300","中和區"
"235050","4979-A6","2018/01/01 19:02:53","新北市中和區華新街9號","121.507528333333","24.985175","6500300","中和區"
"235069","4980-A6","2018/01/01 19:02:58","新北市中和區中和路217巷18弄2號","121.504636666667","25.0002766666667","6500300","中和區"
"235042","551-UM","2018/01/01 19:03:01","新北市中和區秀朗路三段22巷5號","121.525956666667","24.9962683333333","6500300","中和區"
"235070","558-UM","2018/01/01 19:03:00","新北市中和區安和路209號","121.506075","24.9987983333333","6500300","中和區"
"235045","565-BX","2018/01/01 19:02:56","新北市中和區景新街467巷20弄7-5號","121.514418333333","24.9878433333333","6500300","中和區"
"235054","640-BX","2018/01/01 19:02:49","新北市中和區民享街33-2號","121.474113333333","25.004045","6500300","中和區"
"235060","647-TV","2018/01/01 19:02:57","新北市中和區自治街38號","121.475213333333","25.0033516666667","6500300","中和區"
"235047","732-UM","2018/01/01 19:03:01","新北市中和區興南路二段2號","121.507918333333","24.9863266666667","6500300","中和區"
"235057","801-TS","2018/01/01 19:02:46","新北市中和區民利街87號","121.47806","24.9980783333333","6500300","中和區"
"235041","802-TS","2018/01/01 19:02:50","新北市中和區宜安路127號","121.509818333333","24.9981516666667","6500300","中和區"
"235052","805-TS","2018/01/01 19:02:58","新北市中和區興南路二段114巷21弄5號","121.5036","24.9843","6500300","中和區"
"235048","896-TW","2018/01/01 19:03:02","新北市中和區工專路147號","121.508415","24.9787816666667","6500300","中和區"
"235053","900-TW","2018/01/01 19:02:59","新北市中和區華順街135巷3號","121.465306666667","24.9961233333333","6500300","中和區"
"235065","911-UM","2018/01/01 19:03:00","新北市中和區勝利路35巷3弄2號","121.499143333333","25.0070316666667","6500300","中和區"
"235051","157-BY","2018/01/01 19:02:59","新北市中和區忠孝街19巷22號","121.510031666667","24.9834116666667","6500300","中和區"
"235037","AAC-213","2018/01/01 19:02:54","新北市中和區秀朗路三段10巷37弄4號","121.524155","24.9960283333333","6500300","中和區"
"235059","AAC-215","2018/01/01 19:02:49","新北市中和區圓通路296巷3-1號","121.487863333333","24.98902","6500300","中和區"
"220068","013-TV","2017/12/29 21:10:47","新北市八里區荖阡坑路4-28號","121.398095","25.1426633333333","6500100","板橋區"
"220065","072-UY","2018/01/01 19:02:55","新北市板橋區民族路247巷5弄42號","121.47026","25.0084366666667","6500100","板橋區"
"220086","073-UY","2018/01/01 19:02:50","新北市板橋區民權路209號","121.457908333333","25.0148416666667","6500100","板橋區"
"220106","075-UY","2018/01/01 19:02:48","新北市板橋區莒光路30-1號","121.470098333333","25.0246133333333","6500100","板橋區"
"220069","AAD-861","2018/01/01 19:02:51","新北市板橋區大華街34號","121.458655","25.0056616666667","6500100","板橋區"
"220096","120-SR","2018/01/01 19:02:59","新北市板橋區莒光路165巷42-1號","121.474371666667","25.0250416666667","6500100","板橋區"
"226004","312-R5","2018/01/01 19:02:45","新北市平溪區嶺腳里嶺腳寮13號","121.747925","25.0299133333333","6502400","平溪區"
"228003","097-TW","2018/01/01 19:02:59","新北市貢寮區和美里龍洞街21-1號","121.919985","25.10989","6502600","貢寮區"
"228001","212-TW","2018/01/01 19:02:46","新北市貢寮區仁理村仁愛路18巷3號","121.924453333333","25.0528633333333","6502600","貢寮區"
"228002","585-TW","2018/01/01 19:02:50","新北市貢寮區福隆里福隆街22號","121.945045","25.01703","6502600","貢寮區"
"224010","AGQ-8101","2018/01/01 19:02:44","新北市瑞芳區基山街31巷11號","121.845581666667","25.10952","6501200","瑞芳區"
"224006","676-BX","2018/01/01 19:02:46","新北市瑞芳區中正路2號","121.808973333333","25.107055","6501200","瑞芳區"
"224009","285-BY","2018/01/01 19:02:40","新北市瑞芳區祈堂路53-1號","121.859533333333","25.1104433333333","6501200","瑞芳區"
"224008","275-VK","2018/01/01 19:02:45","新北市瑞芳區逢甲路343-1號","121.80019","25.1123983333333","6501200","瑞芳區"
"224007","272-VK","2018/01/01 19:02:56","新北市瑞芳區中央路12號","121.761976666667","25.1037416666667","6501200","瑞芳區"
"224005","271-BY","2018/01/01 19:03:01","新北市瑞芳區瑞濱路139號","121.819733333333","25.11987","6501200","瑞芳區"
"227001","400-TW","2018/01/01 19:02:59","新北市雙溪區平林里康福家園10號","121.858788333333","25.0373316666667","6502500","雙溪區"
"227008","030-BX","2018/01/01 19:02:53","新北市雙溪區牡丹里中正路58巷2號","121.866235","25.0409233333333","6502500","雙溪區"
"253005","032-BX","2018/01/01 19:02:56","新北市石門區尖子鹿108號","121.575955","25.2976066666667","6502200","石門區"
"253006","741-TV","2018/01/01 19:03:02","新北市石門區八甲11號","121.522016666667","25.2813866666667","6502200","石門區"
"208002","742-BX","2018/01/01 19:02:58","新北市金山區仁愛路37-13號","121.635828333333","25.220235","6502700","金山區"
"208003","665-BX","2018/01/01 19:02:46","新北市金山區中正路51號","121.634615","25.2220016666667","6502700","金山區"
"208001","761-BX","2018/01/01 19:02:56","新北市金山區民生路45號","121.641993333333","25.2207883333333","6502700","金山區"
"251009","008-UM","2018/01/01 19:02:58","新北市淡水區建設街1巷1號","121.43916","25.1728266666667","6501000","淡水區"
"251001","011-UM","2018/01/01 19:02:50","新北市淡水區自強路40-3號","121.463523333333","25.12686","6501000","淡水區"
"251013","179-VK","2018/01/01 19:02:51","新北市淡水區安子內12號","121.481563333333","25.2191066666667","6501000","淡水區"
"251014","180-VK","2018/01/01 19:03:00","新北市淡水區小中寮22號","121.489098333333","25.2289166666667","6501000","淡水區"
"251015","182-VK","2018/01/01 19:02:58","新北市淡水區埔子頂11號","121.483626666667","25.1732933333333","6501000","淡水區"
"251010","413-VK","2018/01/01 19:02:59","新北市淡水區中正路一段156巷11號","121.4214","25.1806383333333","6501000","淡水區"
"251016","442-VK","2018/01/01 19:03:02","新北市淡水區埤島26-2號","121.446048333333","25.1997616666667","6501000","淡水區"
"251007","577-R6","2018/01/01 19:02:47","新北市淡水區民生路59號","121.46289","25.138295","6501000","淡水區"
"251011","650-BX","2018/01/01 19:03:02","新北市淡水區中正東路二段37號","121.459026666667","25.1563066666667","6501000","淡水區"
"251002","672-BX","2018/01/01 19:02:58","新北市淡水區中正東路43號","121.446421666667","25.1681316666667","6501000","淡水區"
"251003","766-UM","2018/01/01 19:02:48","新北市淡水區中山北路一段149巷28號","121.443106666667","25.178245","6501000","淡水區"
"207003","550-UM","2018/01/01 19:02:58","新北市萬里區大鵬里頂社67號","121.655725","25.2094383333333","6502800","萬里區"
"207004","225-TW","2018/01/01 19:02:54","新北市萬里區萬里里獅頭路23號","121.693213333333","25.17826","6502800","萬里區"
"252002","178-VK","2018/01/01 19:02:44","新北市三芝區中正路一段43號","121.50321","25.25818","6502100","三芝區"
"252003","249-BX","2018/01/01 19:02:48","新北市三芝區後厝里北勢子22-16號","121.473101666667","25.2534166666667","6502100","三芝區"
"252001","292-VK","2018/01/01 19:02:46","新北市三芝區中興街二段260號","121.501695","25.2530483333333","6502100","三芝區"
"237004","078-UY","2018/01/01 19:02:50","新北市三峽區有木205-1號","121.439048333333","24.8514933333333","6500900","三峽區"
"237007","153-BY","2018/01/01 19:02:48","新北市三峽區中正路二段223號","121.366013333333","24.9130433333333","6500900","三峽區"
"237009","210-TH","2018/01/01 19:03:01","新北市三峽區中山路78號","121.366971666667","24.9350283333333","6500900","三峽區"
"237013","252-BX","2018/01/01 19:02:47","新北市三峽區光明路69巷25號","121.376725","24.92924","6500900","三峽區"
"237012","275-BY","2018/01/01 19:02:54","新北市三峽區三樹路222巷196-1號","121.38879","24.9426516666667","6500900","三峽區"
"237008","302-VK","2018/01/01 19:02:48","新北市三峽區大同路174巷4號","121.372601666667","24.9271016666667","6500900","三峽區"
"237011","433-BY","2018/01/01 19:03:03","新北市三峽區介壽路二段91-3號","121.391833333333","24.93553","6500900","三峽區"
"237006","5529-G3","2018/01/01 19:03:03","新北市三峽區溪東路43號","121.400536666667","24.9348783333333","6500900","三峽區"
"237015","649-BX","2018/01/01 18:46:13","新北市三峽區成福路318號","121.429706666667","24.9232766666667","6500900","三峽區"
"237010","706-TV","2018/01/01 19:02:57","新北市三峽區國光街362號","121.371008333333","24.9397883333333","6500900","三峽區"
"237005","AKY-6261","2018/01/01 19:02:45","新北市三峽區中山路459巷163-3號","121.348631666667","24.9329366666667","6500900","三峽區"
"236069","105-UM","2018/01/01 19:02:50","新北市土城區清水路1號","121.45265","24.9802383333333","6501300","土城區"
"236042","107-UM","2018/01/01 19:03:04","新北市土城區學府路一段183號","121.452233333333","24.9850983333333","6501300","土城區"
"236078","166-UM","2018/01/01 16:26:36","新北市土城區城林路6巷80號","121.438558333333","24.97971","6501300","土城區"
"236030","253-BX","2018/01/01 19:02:58","新北市土城區慶利街9號","121.439576666667","24.9736616666667","6501300","土城區"
"236026","269-VK","2018/01/01 19:03:00","新北市土城區光明街1號","121.442015","24.9749033333333","6501300","土城區"
"236014","270-VK","2018/01/01 19:02:52","新北市土城區立德路13巷22號","121.461621666667","24.9887933333333","6501300","土城區"
"236036","271-VK","2018/01/01 19:03:01","新北市土城區仁愛路17巷2號","121.460731666667","24.98036","6501300","土城區"
"236020","401-BY","2018/01/01 19:02:58","新北市土城區延吉街217巷9弄2號","121.468868333333","24.9845216666667","6501300","土城區"
"236058","912-UM","2018/01/01 19:02:47","新北市土城區金城路二段205-2號","121.454215","24.9813416666667","6501300","土城區"
"236048","913-UM","2018/01/01 19:02:45","新北市土城區明德路一段398-1號","121.453593333333","24.9791416666667","6501300","土城區"
"236062","915-UM","2018/01/01 19:02:49","新北市土城區延和路41巷2弄2號","121.466035","24.9896816666667","6501300","土城區"
"236053","AAC-216","2018/01/01 19:03:00","新北市土城區學成路164號","121.448023333333","24.9891","6501300","土城區"
"238015","755-BX","2018/01/01 19:02:47","新北市樹林區備內街121號","121.406035","24.9894283333333","6500700","樹林區"
"238023","601-UM","2018/01/01 19:02:59","新北市樹林區工興街16-1號","121.398378333333","25.013115","6500700","樹林區"
"238019","599-UM","2018/01/01 19:03:01","新北市樹林區東榮街91巷4弄20號","121.415566666667","24.98164","6500700","樹林區"
"238018","571-TV","2018/01/01 19:03:02","新北市樹林區中華路68號","121.419948333333","24.981555","6500700","樹林區"
"238021","KEA-2217","2018/01/01 19:02:58","新北市樹林區柑園街二段237號","121.375091666667","24.9528266666667","6500700","樹林區"
"238022","KEA-2213","2018/01/01 19:02:59","新北市樹林區中山路二段151巷15弄5號","121.408183333333","24.977","6500700","樹林區"
"238025","303-VK","2018/01/01 19:02:46","新北市樹林區民和街50號","121.384301666667","24.969215","6500700","樹林區"
"238017","283-BY","2018/01/01 19:02:58","新北市樹林區光興街146巷2號","121.407881666667","25.004365","6500700","樹林區"
"238014","282-BY","2018/01/01 19:02:54","新北市樹林區中正路22-1號","121.427731666667","24.9994766666667","6500700","樹林區"
"238007","268-VK","2018/01/01 19:03:00","新北市樹林區俊英街200號","121.425471666667","25.0089616666667","6500700","樹林區"
"238026","172-UY","2018/01/01 19:02:57","新北市樹林區佳園路一段27號","121.392878333333","24.971095","6500700","樹林區"
"238016","169-UY","2018/01/01 19:02:53","新北市樹林區文化街25巷29號","121.41803","24.986415","6500700","樹林區"
"239007","AAC-297","2018/01/01 19:02:57","新北市鶯歌區成功街20巷1號","121.358501666667","24.9577316666667","6500800","鶯歌區"
"239006","891-R6","2018/01/01 19:02:44","新北市鶯歌區鶯桃路296巷84弄17號","121.337198333333","24.961565","6500800","鶯歌區"
"239008","527-UM","2018/01/01 19:03:04","新北市鶯歌區國際二路70巷33號","121.336523333333","24.9750283333333","6500800","鶯歌區"
"239005","526-UM","2018/01/01 19:03:00","新北市鶯歌區大湖路361巷28號","121.330536666667","24.9778866666667","6500800","鶯歌區"
"239001","417-VK","2018/01/01 19:02:50","新北市鶯歌區鶯桃路137號","121.337926666667","24.95475","6500800","鶯歌區"
"239003","360-BY","2018/01/01 19:02:54","新北市鶯歌區鶯桃路451-1號","121.332153333333","24.9656616666667","6500800","鶯歌區"
"239004","193-VK","2018/01/01 19:02:56","新北市鶯歌區中正三路282巷12弄1號","121.328453333333","24.9369716666667","6500800","鶯歌區"
"221008","489-VK","2018/01/01 19:02:45","新北市汐止區康寧街520-1號","121.633741666667","25.0687166666667","6501100","汐止區"
"221036","130-UY","2018/01/01 19:02:51","新北市汐止區信義路1號","121.662633333333","25.0693183333333","6501100","汐止區"
"221010","269-BY","2018/01/01 19:03:03","新北市汐止區康寧街901號","121.651405","25.0750516666667","6501100","汐止區"
"221012","278-VK","2018/01/01 19:02:44","新北市汐止區康寧街901號","121.650796666667","25.0752583333333","6501100","汐止區"
"221023","279-VK","2018/01/01 19:02:58","新北市汐止區康寧街901號","121.650996666667","25.0752116666667","6501100","汐止區"
"221032","280-BY","2018/01/01 19:02:52","新北市汐止區橫科路407巷30弄28號","121.627373333333","25.04845","6501100","汐止區"
"221027","281-BY","2018/01/01 19:02:50","新北市汐止區康寧街901號","121.65147","25.0750133333333","6501100","汐止區"
"221029","298-VK","2018/01/01 19:02:49","新北市汐止區樟樹一路276號","121.642766666667","25.06907","6501100","汐止區"
"221021","299-VK","2018/01/01 19:03:01","新北市汐止區康寧街901號","121.651516666667","25.0749966666667","6501100","汐止區"
"221031","353-TW","2018/01/01 19:02:57","新北市汐止區中興路181巷29弄8號","121.629928333333","25.065795","6501100","汐止區"
"221015","567-BX","2018/01/01 19:02:47","新北市汐止區鄉長路一段43號","121.66545","25.0752933333333","6501100","汐止區"
"221025","623-UM","2018/01/01 19:03:05","新北市汐止區康寧街901號","121.651643333333","25.07496","6501100","汐止區"
"221038","646-BX","2018/01/01 19:02:57","新北市汐止區康寧街901號","121.650735","25.0753083333333","6501100","汐止區"
"221033","647-BX","2018/01/01 19:02:57","新北市汐止區南勢街1巷1號","121.627023333333","25.0374383333333","6501100","汐止區"
"221002","707-TV","2018/01/01 19:02:46","新北市汐止區大同路一段2號","121.621068333333","25.054945","6501100","汐止區"
"221018","753-BX","2018/01/01 19:02:59","新北市汐止區汐萬路一段256巷3號","121.652551666667","25.074535","6501100","汐止區"
"220079","145-BY","2018/01/01 19:02:55","新北市板橋區民權路202巷12弄1號","121.460586666667","25.0156","6500100","板橋區"
"220080","200-UY","2018/01/01 19:02:46","新北市板橋區大觀路二段力行3巷77-6號","121.448316666667","24.9986233333333","6500100","板橋區"
"220082","610-BX","2018/01/01 19:03:02","新北市板橋區滿平街81巷120弄22號","121.427906666667","24.9889233333333","6500100","板橋區"
"220056","276-BY","2018/01/01 19:02:49","新北市板橋區信義路150巷51號","121.457113333333","24.9918333333333","6500100","板橋區"
"220072","277-BY","2018/01/01 19:02:58","新北市板橋區金門街319號","121.429693333333","24.98617","6500100","板橋區"
"220101","280-UM","2018/01/01 19:02:55","新北市板橋區莊敬路165號","121.471436666667","25.0245733333333","6500100","板橋區"
"220064","282-UM","2018/01/01 13:43:06","新北市板橋區華東街1-9號","121.448181666667","24.9947866666667","6500100","板橋區"
"220071","283-VK","2018/01/01 19:02:51","新北市板橋區忠孝路154巷22號","121.464076666667","25.0019733333333","6500100","板橋區"
"220094","285-UM","2018/01/01 19:02:49","新北市板橋區光武街39號","121.467706666667","25.0253016666667","6500100","板橋區"
"220053","285-VK","2018/01/01 19:02:59","新北市板橋區永豐街89巷5弄2號","121.473141666667","25.01963","6500100","板橋區"
"220083","286-VK","2018/01/01 19:02:55","新北市板橋區大觀路一段38巷156弄70號","121.442946666667","25.00653","6500100","板橋區"
"220081","287-VK","2018/01/01 19:03:03","新北市板橋區光華街24巷1號","121.453961666667","25.0122816666667","6500100","板橋區"
"220090","288-VK","2018/01/01 19:02:58","新北市板橋區四維路269巷11號","121.462755","25.0281983333333","6500100","板橋區"
"220061","293-UM","2018/01/01 19:02:53","新北市板橋區懷仁街55號","121.47694","25.0189183333333","6500100","板橋區"
"220084","296-UM","2018/01/01 19:02:43","新北市板橋區龍興街6號","121.442763333333","24.9995633333333","6500100","板橋區"
"220075","297-UM","2018/01/01 19:02:47","新北市板橋區館前西路92號","121.457263333333","25.00733","6500100","板橋區"
"220062","305-R5","2018/01/01 19:02:50","新北市板橋區三民路二段245巷4弄8號","121.480961666667","25.01214","6500100","板橋區"
"220092","307-R5","2018/01/01 19:02:53","新北市板橋區文化路一段104巷1弄1號","121.465136666667","25.017825","6500100","板橋區"
"220098","317-R6","2018/01/01 19:02:59","新北市板橋區四維路112巷36號","121.465358333333","25.025895","6500100","板橋區"
"220064","486-VK","2018/01/01 19:03:04","新北市板橋區長安街232號","121.475238333333","25.0123666666667","6500100","板橋區"
"220089","487-VK","2018/01/01 19:03:03","新北市板橋區文化路二段464號","121.475041666667","25.0326166666667","6500100","板橋區"
"220088","491-VK","2018/01/01 19:02:59","新北市板橋區莊敬路83號","121.472821666667","25.0265466666667","6500100","板橋區"
"220035","560-BX","2018/01/01 19:02:55","新北市板橋區中正路375巷30號","121.453538333333","25.0207133333333","6500100","板橋區"
"220103","561-BX","2018/01/01 19:02:53","新北市板橋區介壽街86號","121.470245","25.0184366666667","6500100","板橋區"
"220063","609-BX","2018/01/01 19:03:01","新北市板橋區三民路二段38號","121.479148333333","25.017835","6500100","板橋區"
"220091","637-BX","2018/01/01 19:02:50","新北市板橋區萬板路400號","121.478648333333","25.0254566666667","6500100","板橋區"
"220057","686-BX","2018/01/01 19:03:02","新北市板橋區重慶路65號","121.461826666667","25.0070866666667","6500100","板橋區"
"220077","687-BX","2018/01/01 19:02:58","新北市板橋區龍興街2號","121.442668333333","24.9993133333333","6500100","板橋區"
"220093","689-BX","2018/01/01 19:02:50","新北市板橋區民生路三段66號","121.467015","25.02565","6500100","板橋區"
"220054","741-BX","2018/01/01 19:02:55","新北市板橋區重慶路127巷11號","121.46304","25.0048983333333","6500100","板橋區"
"220055","827-TW","2018/01/01 19:02:48","新北市板橋區中山路一段158號","121.466021666667","25.0118466666667","6500100","板橋區"
"220067","829-TW","2018/01/01 19:02:59","新北市板橋區民享街116巷11號","121.478491666667","25.01554","6500100","板橋區"
"220102","830-TW","2018/01/01 19:02:52","新北市板橋區田單街2巷2號","121.481731666667","25.0290366666667","6500100","板橋區"
"220074","895-R6","2018/01/01 19:02:59","新北市板橋區西門街59號","121.454435","25.0091483333333","6500100","板橋區"
"220073","985-R7","2018/01/01 19:02:59","新北市板橋區中正路185號","121.456563333333","25.0166966666667","6500100","板橋區"
"220097","AAC-210","2018/01/01 19:02:42","新北市板橋區國光路214號","121.46216","25.018575","6500100","板橋區"
"220070","AAC-253","2018/01/01 19:02:59","新北市板橋區四川路一段467號","121.457586666667","24.9981533333333","6500100","板橋區"
