"lineid","car","time","location","longitude","latitude","cityid","cityname"
"249004","303-UY","2018/01/01 20:57:37","新北市八里區中山路二段210巷128號","121.403335","25.154645","6502300","八里區"
"234023","9380-KE","2018/01/01 20:57:40","新北市永和區保生路55-1號","121.504483333333","25.0109166666667","6500400","永和區"
"222003","436-BY","2018/01/01 20:57:35","新北市深坑區阿柔洋40號","121.610318333333","24.9984916666667","6501800","深坑區"
"222002","659-BX","2018/01/01 20:57:30","新北市深坑區北深路三段93巷11號","121.60546","25.0011183333333","6501800","深坑區"
"222001","696-SL","2018/01/01 20:57:34","新北市深坑區北深路三段25巷13-3號","121.608728333333","25.0002683333333","6501800","深坑區"
"231066","0293-UT","2018/01/01 20:57:46","新北市新店區吉安街15號","121.516435","24.9657916666667","6500600","新店區"
"231059","046-UY","2018/01/01 20:57:46","新北市新店區僑信路112號","121.500241666667","24.9467766666667","6500600","新店區"
"231061","047-UY","2018/01/01 20:57:36","新北市新店區永安街85號","121.52007","24.9864933333333","6500600","新店區"
"231060","106-UY","2018/01/01 20:57:36","新北市新店區安康路三段578-1號","121.481346666667","24.948665","6500600","新店區"
"231051","107-UY","2018/01/01 20:57:35","新北市新店區溪園路75號","121.529466666667","24.98732","6500600","新店區"
"231047","108-UY","2018/01/01 20:57:34","新北市新店區寶元路二段1巷1-2號","121.547528333333","24.9830983333333","6500600","新店區"
"231052","187-VK","2018/01/01 20:57:38","新北市新店區新烏路一段193號","121.547833333333","24.931385","6500600","新店區"
"231050","KEA-2219","2018/01/01 20:57:33","新北市新店區三民路117巷3弄2號","121.534393333333","24.9714466666667","6500600","新店區"
"231063","268-BY","2018/01/01 20:57:44","新北市新店區富貴街12巷2號","121.49412","24.9493516666667","6500600","新店區"
"231054","AAD-862","2018/01/01 20:57:47","新北市新店區北新路一段126巷27號","121.54329","24.969515","6500600","新店區"
"231058","3712-VJ","2018/01/01 20:57:30","新北市新店區薏仁坑路5號","121.49906","24.9590533333333","6500600","新店區"
"231056","3713-VJ","2018/01/01 20:57:51","新北市新店區中央七街61巷2號","121.528191666667","24.9763816666667","6500600","新店區"
"231067","4772-VM","2018/01/01 20:57:32","新北市新店區安華路30巷12-1號","121.518258333333","24.95801","6500600","新店區"
"231065","512-UM","2018/01/01 20:57:41","新北市新店區安祥路69巷94號","121.482831666667","24.9590616666667","6500600","新店區"
"231064","515-UM","2018/01/01 20:57:41","新北市新店區安和路二段169巷7號","121.518341666667","24.9740616666667","6500600","新店區"
"231040","619-UM","2018/01/01 20:57:47","新北市新店區北新路二段2號","121.542576666667","24.970765","6500600","新店區"
"231042","641-BX","2018/01/01 20:57:44","新北市新店區寶興路60巷3號","121.549883333333","24.9718016666667","6500600","新店區"
"231068","718-UY","2018/01/01 20:57:40","新北市新店區寶元路二段11-1號","121.546146666667","24.9822866666667","6500600","新店區"
"231062","720-UM","2018/01/01 20:57:36","新北市新店區裕合街82號","121.490311666667","24.948675","6500600","新店區"
"231043","899-TW","2018/01/01 20:57:46","新北市新店區民族路177號","121.537486666667","24.976485","6500600","新店區"
"241011","013-R5","2018/01/01 20:57:31","新北市三重區秀江街119-1號","121.499661666667","25.0722","6500200","三重區"
"241028","022-UY","2018/01/01 20:57:48","新北市三重區新北大道一段7號","121.489696666667","25.061365","6500200","三重區"
"241008","059-VK","2018/01/01 20:57:40","新北市三重區永福街72巷11號","121.479421666667","25.0767533333333","6500200","三重區"
"241009","060-VK","2018/01/01 20:57:49","新北市三重區三和路四段388-2號","121.48204","25.0791116666667","6500200","三重區"
"241031","061-VK","2018/01/01 20:57:33","新北市三重區重陽路一段113巷3號","121.487506666667","25.0598116666667","6500200","三重區"
"241015","062-VK","2018/01/01 20:57:47","新北市三重區福德北路63號","121.502091666667","25.06555","6500200","三重區"
"241017","063-VK","2018/01/01 20:57:40","新北市三重區民生街12號","121.492221666667","25.0674666666667","6500200","三重區"
"241024","065-VK","2018/01/01 20:57:40","新北市三重區大勇街49號","121.481355","25.072","6500200","三重區"
"241026","066-VK","2018/01/01 20:57:40","新北市三重區文化南路45號","121.50023","25.0614666666667","6500200","三重區"
"241002","090-VK","2018/01/01 20:57:50","新北市三重區仁義街157巷20號","121.497651666667","25.081265","6500200","三重區"
"241005","262-UM","2018/01/01 20:57:48","新北市三重區五華街167號","121.49027","25.085145","6500200","三重區"
"241016","266-UM","2018/01/01 20:57:44","新北市三重區自強路一段135號","121.494825","25.0664683333333","6500200","三重區"
"241022","267-UM","2018/01/01 20:57:41","新北市三重區中正北路20巷12號","121.487935","25.0624833333333","6500200","三重區"
"241018","268-UM","2018/01/01 20:57:38","新北市三重區自強路一段232號","121.493461666667","25.0669233333333","6500200","三重區"
"241032","269-UM","2018/01/01 20:57:36","新北市三重區三陽路118號","121.482978333333","25.0587533333333","6500200","三重區"
"241013","270-UM","2018/01/01 20:57:34","新北市三重區仁賢街6號","121.49566","25.0747983333333","6500200","三重區"
"241025","271-UM","2018/01/01 20:57:48","新北市三重區貴陽街20號","121.48422","25.0620233333333","6500200","三重區"
"241007","398-BY","2018/01/01 20:57:44","新北市三重區慈愛街8號","121.484458333333","25.0784166666667","6500200","三重區"
"241020","413-TH","2018/01/01 20:57:39","新北市三重區忠孝路二段35號","121.48591","25.0710516666667","6500200","三重區"
"241004","475-VK","2018/01/01 20:57:51","新北市三重區仁愛街420號","121.490398333333","25.081425","6500200","三重區"
"241019","478-VK","2018/01/01 20:57:47","新北市三重區三張街104號","121.487871666667","25.069935","6500200","三重區"
"241030","480-VK","2018/01/01 20:57:31","新北市三重區環河南路222號","121.492476666667","25.05196","6500200","三重區"
"241014","543-UM","2018/01/01 20:57:32","新北市三重區長榮路75號","121.502561666667","25.0690116666667","6500200","三重區"
"241023","545-UM","2018/01/01 20:57:40","新北市三重區忠孝路三段50巷41弄64號","121.4824","25.0637266666667","6500200","三重區"
"241001","547-UM","2018/01/01 20:57:33","新北市三重區自強路三段79號","121.487365","25.074385","6500200","三重區"
"241006","AAD-863","2018/01/01 20:57:42","新北市三重區永福街46-4號","121.481791666667","25.0781216666667","6500200","三重區"
"241012","941-UM","2018/01/01 20:57:36","新北市三重區龍門路274巷45號","121.501243333333","25.075495","6500200","三重區"
"241029","942-UM","2018/01/01 20:57:40","新北市三重區正義南路107號","121.498018333333","25.0585166666667","6500200","三重區"
"241033","AAC-255","2018/01/01 20:57:31","新北市三重區光復路二段1號","121.47227","25.05333","6500200","三重區"
"235043","352-BY","2018/01/01 20:57:38","新北市八里區中山路三段387號","121.371401666667","25.1372","6500300","中和區"
"235026","800-TS","2018/01/01 20:20:52","新北市中和區員山路36巷16-3號","121.48476","24.991675","6500300","中和區"
"247022","893-R6","2018/01/01 20:57:34","新北市蘆洲區三民路224號","121.468751666667","25.0894416666667","6501400","蘆洲區"
"247012","546-UM","2018/01/01 20:57:46","新北市蘆洲區民權路6-1號","121.47695","25.0855983333333","6501400","蘆洲區"
"247020","500-BY","2018/01/01 20:57:32","新北市蘆洲區民族路375號","121.47068","25.0910333333333","6501400","蘆洲區"
"247010","339-TH","2018/01/01 20:57:48","新北市蘆洲區鷺江街76號","121.476976666667","25.0838616666667","6501400","蘆洲區"
"247002","337-TH","2018/01/01 20:57:16","新北市蘆洲區長安街315號","121.457436666667","25.086125","6501400","蘆洲區"
"247004","336-TH","2018/01/01 20:57:46","新北市蘆洲區永安南路二段268號","121.458641666667","25.08076","6501400","蘆洲區"
"247016","057-VK","2018/01/01 20:57:42","新北市蘆洲區正和街19-5號","121.469923333333","25.08215","6501400","蘆洲區"
"247006","056-VK","2018/01/01 20:57:34","新北市蘆洲區永安南路二段16巷8號","121.467795","25.0771883333333","6501400","蘆洲區"
"247008","053-VK","2018/01/01 20:57:49","新北市蘆洲區中山一路276號","121.471508333333","25.079205","6501400","蘆洲區"
"247014","007-UY","2018/01/01 20:57:39","新北市蘆洲區中山二路36巷1號","121.474458333333","25.082435","6501400","蘆洲區"
"247024","002-UY","2018/01/01 20:57:35","新北市蘆洲區光榮路85號","121.46195","25.0887233333333","6501400","蘆洲區"
"247018","001-UY","2018/01/01 20:57:44","新北市蘆洲區民權路136-2號","121.473136666667","25.0888766666667","6501400","蘆洲區"
"251001","011-UM","2018/01/01 20:57:30","新北市淡水區北新路一段69-5號","121.452608333333","25.1810616666667","6501000","淡水區"
"251013","179-VK","2018/01/01 20:57:30","新北市淡水區行忠路253號","121.45971","25.2003883333333","6501000","淡水區"
"251014","180-VK","2018/01/01 20:57:40","新北市淡水區番子田28號","121.456465","25.2329516666667","6501000","淡水區"
"251008","181-VK","2018/01/01 20:57:36","新北市淡水區下圭柔山90-8號","121.431175","25.211545","6501000","淡水區"
"251015","182-VK","2018/01/01 20:57:38","新北市淡水區淡金路四段542巷17號","121.452731666667","25.2270716666667","6501000","淡水區"
"251010","413-VK","2018/01/01 20:57:39","新北市淡水區淡海路37號","121.423463333333","25.1794566666667","6501000","淡水區"
"251012","441-VK","2018/01/01 20:57:35","新北市淡水區淡金路四段563號","121.451586666667","25.2301683333333","6501000","淡水區"
"251016","442-VK","2018/01/01 20:57:42","新北市淡水區興仁路165號","121.451508333333","25.2202416666667","6501000","淡水區"
"251005","443-VK","2018/01/01 20:57:30","新北市淡水區學府路96號","121.449238333333","25.1711366666667","6501000","淡水區"
"251007","577-R6","2018/01/01 20:57:46","新北市淡水區水源街一段110號","121.446795","25.1718833333333","6501000","淡水區"
"251011","650-BX","2018/01/01 20:57:47","新北市淡水區新民街一段3號","121.434121666667","25.1841466666667","6501000","淡水區"
"251003","766-UM","2018/01/01 20:57:34","新北市淡水區新春街137號","121.441958333333","25.1817533333333","6501000","淡水區"
"242029","986-R7","2018/01/01 20:57:47","新北市新莊區中港路441號","121.452671666667","25.0482916666667","6500500","新莊區"
"242044","442-UM","2018/01/01 20:57:32","新北市樹林區八德街286號","121.409843333333","24.9698866666667","6500500","新莊區"
"242048","441-UM","2018/01/01 20:57:27","新北市樹林區環河路10號","121.42719","24.9782266666667","6500500","新莊區"
"242036","133-UY","2018/01/01 20:57:50","新北市新莊區中正路380號","121.442915","25.0341416666667","6500500","新莊區"
"242002","176-VK","2018/01/01 20:57:49","新北市新莊區大觀街38號","121.453793333333","25.0353566666667","6500500","新莊區"
"242011","351-TH","2018/01/01 20:57:30","新北市新莊區瓊林南路75-37號","121.43827","25.0148816666667","6500500","新莊區"
"238014","282-BY","2018/01/01 20:54:57","新北市樹林區中山路三段204號","121.38674","24.9681566666667","6500700","樹林區"
"221029","298-VK","2018/01/01 20:57:49","新北市汐止區康寧街901號","121.651673333333","25.0749333333333","6501100","汐止區"
"220064","282-UM","2018/01/01 13:43:06","新北市板橋區華東街1-9號","121.448181666667","24.9947866666667","6500100","板橋區"
"220062","305-R5","2018/01/01 20:57:30","新北市板橋區民生路二段120號","121.470488333333","25.0196566666667","6500100","板橋區"
"220070","AAC-253","2018/01/01 20:57:39","新北市八里區中山路三段409號","121.368498333333","25.1349533333333","6500100","板橋區"
