"lineid","car","time","location","longitude","latitude","cityid","cityname"
"234023","9380-KE","2018/01/01 21:26:27","新北市永和區福和路1號","121.526356666667","25.0098433333333","6500400","永和區"
"231051","107-UY","2018/01/01 21:39:35","新北市新店區薏仁坑路自強巷1號","121.497558333333","24.9576316666667","6500600","新店區"
"231063","268-BY","2018/01/01 21:39:30","新北市新店區如意街30號","121.493615","24.9483616666667","6500600","新店區"
"241005","262-UM","2018/01/01 21:39:28","新北市三重區碧華街1號","121.483553333333","25.081035","6500200","三重區"
"235026","800-TS","2018/01/01 20:20:52","新北市中和區員山路36巷16-3號","121.48476","24.991675","6500300","中和區"
"235029","911-UM","2018/01/01 21:18:23","新北市中和區員山路36巷16-3號","121.485128333333","24.9911833333333","6500300","中和區"
"247004","336-TH","2018/01/01 21:39:26","新北市八里區中山路三段386號","121.36855","25.135635","6501400","蘆洲區"
"247008","053-VK","2018/01/01 21:38:49","新北市五股區中直路17-3號","121.42198","25.11166","6501400","蘆洲區"
"251009","008-UM","2018/01/01 21:39:38","新北市淡水區民族路29巷2弄2號","121.462765","25.1373333333333","6501000","淡水區"
"251004","009-UM","2018/01/01 21:39:03","新北市淡水區民生路7號","121.460476666667","25.1378016666667","6501000","淡水區"
"251001","011-UM","2018/01/01 21:39:30","新北市淡水區新市二路三段152號","121.435378333333","25.1942333333333","6501000","淡水區"
"251014","180-VK","2018/01/01 21:39:40","新北市淡水區淡金路552-1號","121.451738333333","25.2274816666667","6501000","淡水區"
"251008","181-VK","2018/01/01 21:39:36","新北市淡水區水源街二段62號","121.451066666667","25.174085","6501000","淡水區"
"251010","413-VK","2018/01/01 21:39:39","新北市淡水區沙崙路216巷58號","121.426271666667","25.18419","6501000","淡水區"
"251012","441-VK","2018/01/01 21:39:35","新北市淡水區淡金路四段493號","121.45191","25.2247066666667","6501000","淡水區"
"251016","442-VK","2018/01/01 21:39:21","新北市淡水區下圭柔山80號","121.43778","25.2046816666667","6501000","淡水區"
"251005","443-VK","2018/01/01 21:39:29","新北市淡水區水源街一段66號","121.445095","25.1722583333333","6501000","淡水區"
"251006","561-UM","2018/01/01 21:39:36","新北市淡水區中正路5巷11-1號","121.442108333333","25.16898","6501000","淡水區"
"251011","650-BX","2018/01/01 21:39:25","新北市淡水區新民街103號","121.436068333333","25.180965","6501000","淡水區"
"251003","766-UM","2018/01/01 21:39:28","新北市淡水區新春街48號","121.437755","25.1817816666667","6501000","淡水區"
"242048","441-UM","2018/01/01 21:39:27","新北市新莊區新泰路361巷23號","121.44238","25.0426333333333","6500500","新莊區"
"242011","351-TH","2018/01/01 21:39:30","新北市新莊區瓊林南路61-71號","121.439615","25.018805","6500500","新莊區"
"238014","282-BY","2018/01/01 20:54:57","新北市樹林區中山路三段204號","121.38674","24.9681566666667","6500700","樹林區"
"220064","282-UM","2018/01/01 13:43:06","新北市板橋區華東街1-9號","121.448181666667","24.9947866666667","6500100","板橋區"
"220062","305-R5","2018/01/01 21:08:05","新北市板橋區民生路二段120號","121.47047","25.0196383333333","6500100","板橋區"
"220070","AAC-253","2018/01/01 21:39:39","新北市板橋區華東街1-9號","121.44821","24.99498","6500100","板橋區"
