"lineid","car","time","location","longitude","latitude","cityid","cityname"
"232002","290-BY","2018/01/02 07:12:34","新北市坪林區大粗坑29-2號","121.70863","24.9667533333333","6502000","坪林區"
"232013","291-BY","2018/01/02 07:19:40","新北市坪林區北宜路七段172號","121.684575","24.9362233333333","6502000","坪林區"
"232006","758-BX","2018/01/02 07:12:02","新北市坪林區北宜路九段7號","121.720061666667","24.90236","6502000","坪林區"
"244002","248-BX","2018/01/02 07:19:33","新北市林口區南勢里59-18號","121.361735","25.0791283333333","6501700","林口區"
"226005","5620-A6","2018/01/02 07:19:36","新北市平溪區靜安路二段129號","121.721713333333","25.02285","6502400","平溪區"
"226002","7418-A5","2018/01/02 07:18:43","新北市平溪區南山里南山坪7號","121.76349","25.0319233333333","6502400","平溪區"
"226003","AGD-0702","2018/01/02 07:19:34","新北市平溪區白石里中埔226號","121.721803333333","25.020075","6502400","平溪區"
"223006","022-BY","2018/01/02 07:19:42","新北市石碇區磨石坑16-3號","121.686446666667","24.9715033333333","6501900","石碇區"
"223002","198-BX","2018/01/02 07:19:37","新北市石碇區北宜路六段獅子頭坑巷16號","121.643068333333","24.932145","6501900","石碇區"
"223008","406-TH","2018/01/02 07:19:46","新北市石碇區南勢坑2-2號","121.698393333333","24.9888633333333","6501900","石碇區"
"223001","592-UM","2018/01/02 07:19:39","新北市石碇區中楒子腳2-7號","121.63773","24.97269","6501900","石碇區"
"223004","660-BX","2018/01/02 07:19:39","新北市石碇區新興坑3號","121.654728333333","25.01661","6501900","石碇區"
"223007","661-BX","2018/01/02 07:19:34","新北市石碇區蚯蚓坑19-7號","121.69176","25.00407","6501900","石碇區"
"223005","677-TV","2018/01/02 07:19:31","新北市石碇區靜安路一段47號","121.646803333333","25.0114083333333","6501900","石碇區"
"227006","282-VK","2018/01/02 07:19:42","新北市雙溪區新基里自強路5號","121.866321666667","25.039085","6502500","雙溪區"
"252004","249-BX","2018/01/02 07:19:34","新北市三芝區福德里大湖8-5號","121.500865","25.22772","6502100","三芝區"
"252007","AAC-283","2018/01/02 07:19:44","新北市三芝區錫板里海尾17號","121.478868333333","25.2569683333333","6502100","三芝區"
"237001","159-UY","2018/01/02 07:19:26","新北市三峽區中山路459巷24號","121.357593333333","24.9391566666667","6500900","三峽區"
"236008","165-UM","2018/01/02 07:19:34","新北市土城區中華路一段23號","121.446943333333","24.9891566666667","6501300","土城區"
"236002","339-SR","2018/01/02 07:19:27","新北市土城區南天母路77號","121.446658333333","24.9570616666667","6501300","土城區"
"220080","461-BY","2018/01/02 07:17:58","新北市板橋區國光路31巷14號","121.457808333333","25.0180316666667","6500100","板橋區"
