"lineid","car","time","location","longitude","latitude","cityid","cityname"
"232001","290-BY","2018/10/01 08:19:03","新北市坪林區大粗坑6-1號","121.732401666667","24.9484083333333","6502000","坪林區"
"232012","291-BY","2018/10/01 08:19:06","新北市坪林區九芎根5號","121.664411666667","24.8809283333333","6502000","坪林區"
"232017","705-BZ","2018/10/01 08:18:53","新北市坪林區柑腳坑13-2號","121.766541666667","24.94818","6502000","坪林區"
"232005","758-BX","2018/10/01 08:19:15","新北市坪林區鶯子瀨2-6號","121.707511666667","24.913475","6502000","坪林區"
"244022","069-UM","2018/10/01 08:19:15","新北市林口區隆林街30號","121.388271666667","25.0753883333333","6501700","林口區"
"244006","080-UY","2018/10/01 08:19:19","新北市林口區菁埔25-8號","121.377081666667","25.0965766666667","6501700","林口區"
"244001","248-BX","2018/10/01 08:19:13","新北市林口區嘉寶里3鄰9號","121.33358","25.1067466666667","6501700","林口區"
"244018","403-UM","2018/10/01 08:19:10","新北市林口區仁愛路二段160號","121.38143","25.0741016666667","6501700","林口區"
"244012","KEA-2802","2018/10/01 08:19:18","新北市林口區中山路68-1號","121.393373333333","25.0785683333333","6501700","林口區"
"244016","485-VK","2018/10/01 08:19:22","新北市林口區中山路255號","121.385488333333","25.0795083333333","6501700","林口區"
"244008","656-BX","2018/10/01 08:19:07","新北市林口區民享路362號","121.384535","25.0871433333333","6501700","林口區"
"244010","701-TV","2018/10/01 08:19:17","新北市林口區佳林路160號","121.383893333333","25.0767416666667","6501700","林口區"
"244024","837-TS","2018/10/01 08:19:21","新北市林口區文化三路一段435號","121.367696666667","25.074125","6501700","林口區"
"244020","838-TS","2018/10/01 08:19:18","新北市林口區粉寮路二段160巷29號","121.405741666667","25.0913866666667","6501700","林口區"
"222005","289-BY","2018/10/01 08:19:10","新北市深坑區北深路三段158巷23號","121.600626666667","25.0062216666667","6501800","深坑區"
"231007","189-VK","2018/10/01 08:19:10","新北市新店區新潭路一段19號","121.523133333333","24.9427916666667","6500600","新店區"
"231008","192-VK","2018/10/01 08:19:06","新北市新店區新烏路二段50巷5號","121.548518333333","24.9272133333333","6500600","新店區"
"241015","743-BX","2018/10/01 08:19:07","新北市三重區五谷王北街81號","121.475715","25.0508366666667","6500200","三重區"
"235001","611-BX","2018/10/01 08:19:07","新北市中和區錦和路350-1號","121.49073","24.99299","6500300","中和區"
"226005","5620-A6","2018/10/01 08:19:15","新北市平溪區南山里南山坪108號","121.7812","25.0425016666667","6502400","平溪區"
"226001","7418-A5","2018/10/01 08:19:11","新北市平溪區靜安路三段67號","121.766946666667","25.0330216666667","6502400","平溪區"
"226003","AGD-0702","2018/10/01 08:19:21","新北市平溪區十分里十分街55號","121.77524","25.0415133333333","6502400","平溪區"
"223006","022-BY","2018/10/01 08:13:14","新北市石碇區靜安路一段292巷10號","121.691858333333","25.0058266666667","6501900","石碇區"
"223002","KEA-2673","2018/10/01 08:19:07","新北市石碇區北宜路五段80號","121.646558333333","24.9517633333333","6501900","石碇區"
"223008","406-TH","2018/10/01 08:19:24","新北市石碇區石碇子埔42-2號","121.672676666667","25.0076116666667","6501900","石碇區"
"223004","437-BY","2018/10/01 08:19:22","新北市石碇區碇坪路一段11號","121.652645","24.9988533333333","6501900","石碇區"
"223001","592-UM","2018/10/01 08:19:10","新北市石碇區北宜路五段80號","121.646348333333","24.95168","6501900","石碇區"
"223005","677-TV","2018/10/01 08:19:06","新北市石碇區外按11-5號","121.651766666667","24.999215","6501900","石碇區"
"227005","282-VK","2018/10/01 08:19:05","新北市雙溪區上林里大瀨10號","121.822331666667","25.022245","6502500","雙溪區"
"252006","073-UM","2018/10/01 08:19:19","新北市三芝區後厝里大片頭90號","121.456261666667","25.2457316666667","6502100","三芝區"
"252004","249-BX","2018/10/01 08:19:03","新北市三芝區興華里車埕62號","121.49872","25.1968633333333","6502100","三芝區"
"237001","159-UY","2018/10/01 08:19:14","新北市三峽區學成路270號","121.376226666667","24.9431616666667","6500900","三峽區"
"242035","AAC-296","2018/10/01 08:19:19","新北市新莊區建福路49巷14號","121.427348333333","25.027765","6500500","新莊區"
"242057","986-R7","2018/10/01 08:19:05","新北市新莊區新北大道七段371號","121.412525","25.0265466666667","6500500","新莊區"
"242055","751-BX","2018/10/01 08:19:20","新北市新莊區瓊林路40巷19號","121.446941666667","25.0301833333333","6500500","新莊區"
"242028","705-TV","2018/10/01 08:19:24","新北市新莊區中平路81巷2號","121.444698333333","25.04534","6500500","新莊區"
"242026","615-BX","2018/10/01 08:19:06","新北市新莊區福壽街175號","121.457975","25.0539583333333","6500500","新莊區"
"242024","613-BX","2018/10/01 08:19:14","新北市三重區新北大道二段65號","121.469236666667","25.061285","6500500","新莊區"
"242043","566-BX","2018/10/01 08:19:08","新北市新莊區雙鳳路21號","121.416755","25.0268183333333","6500500","新莊區"
"242047","497-BY","2018/10/01 08:19:07","新北市新莊區萬安街146巷24號","121.420076666667","25.0219933333333","6500500","新莊區"
"242052","441-UM","2018/10/01 08:19:08","新北市新莊區新樹路603號","121.433168333333","25.0056916666667","6500500","新莊區"
"242001","440-UM","2018/10/01 08:19:24","新北市新莊區大觀街42巷5號","121.454126666667","25.0357216666667","6500500","新莊區"
"242038","415-TV","2018/10/01 08:19:13","新北市新莊區民安路144巷3號","121.42439","25.02515","6500500","新莊區"
"242008","413-TV","2018/10/01 08:19:18","新北市新莊區昌平街59巷20號","121.45411","25.053185","6500500","新莊區"
"242045","400-BY","2018/10/01 08:19:15","新北市新莊區建國一路52號","121.434125","25.0309416666667","6500500","新莊區"
"242022","362-BY","2018/10/01 08:19:14","新北市新莊區福壽街9號","121.457821666667","25.04781","6500500","新莊區"
"242059","353-BY","2018/10/01 08:19:11","新北市新莊區新樹路457號","121.432665","25.0132216666667","6500500","新莊區"
"242010","132-UY","2018/10/01 08:19:09","新北市新莊區中港路699號","121.450693333333","25.0569083333333","6500500","新莊區"
"242040","133-UY","2018/10/01 08:19:10","新北市新莊區丹鳳街34號","121.421595","25.0295466666667","6500500","新莊區"
"242049","172-VK","2018/10/01 08:19:21","新北市新莊區西盛街173號","121.428425","25.0172516666667","6500500","新莊區"
"242012","173-VK","2018/10/01 08:19:04","新北市新莊區中誠街154巷7號","121.448263333333","25.0478983333333","6500500","新莊區"
"242018","175-VK","2018/10/01 08:19:18","新北市新莊區民樂街46號","121.45802","25.0414533333333","6500500","新莊區"
"242016","346-TH","2018/10/01 08:17:38","新北市新莊區復興路一段149巷22弄4號","121.450628333333","25.0441233333333","6500500","新莊區"
"242030","348-TH","2018/10/01 08:19:07","新北市新莊區新泰路340號","121.444685","25.042365","6500500","新莊區"
"242003","349-TH","2018/10/01 08:19:07","新北市新莊區福樂街58號","121.457888333333","25.046075","6500500","新莊區"
"242020","350-TH","2018/10/01 08:19:21","新北市新莊區中華路一段33-1號","121.451938333333","25.0376533333333","6500500","新莊區"
"242014","351-TH","2018/10/01 08:19:17","新北市新莊區新泰路502巷56號","121.44451","25.0463366666667","6500500","新莊區"
"242033","281-VK","2018/10/01 08:19:15","新北市新莊區景德路548號","121.44302","25.0331083333333","6500500","新莊區"
"242006","280-VK","2018/10/01 08:19:23","新北市新莊區自治街1號","121.453091666667","25.0479816666667","6500500","新莊區"
