"lineid","car","time","location","longitude","latitude","cityid","cityname"
"232001","290-BY","2018/10/01 08:29:03","新北市坪林區坪雙路一段100號","121.729981666667","24.94831","6502000","坪林區"
"232012","291-BY","2018/10/01 08:29:06","新北市坪林區九芎根3-1號","121.666806666667","24.886325","6502000","坪林區"
"232017","705-BZ","2018/10/01 08:25:33","新北市坪林區柑腳坑15號","121.773296666667","24.9472766666667","6502000","坪林區"
"232005","758-BX","2018/10/01 08:29:15","新北市坪林區鶯子瀨3-7號","121.705935","24.914135","6502000","坪林區"
"244022","069-UM","2018/10/01 08:29:15","新北市林口區興林一街96巷33號","121.391261666667","25.071555","6501700","林口區"
"244006","080-UY","2018/10/01 08:29:19","新北市林口區湖子20號","121.385725","25.0925066666667","6501700","林口區"
"244001","248-BX","2018/10/01 08:29:13","新北市林口區下福里16號","121.311756666667","25.1112816666667","6501700","林口區"
"244018","403-UM","2018/10/01 08:29:10","新北市林口區公園路10-1號","121.373705","25.0749","6501700","林口區"
"244012","KEA-2802","2018/10/01 08:29:18","新北市林口區中正路420號","121.38432","25.0777966666667","6501700","林口區"
"244016","485-VK","2018/10/01 08:29:22","新北市林口區文化一路一段97號","121.37221","25.0705066666667","6501700","林口區"
"244008","656-BX","2018/10/01 08:29:07","新北市林口區中北三街350號","121.383393333333","25.0845266666667","6501700","林口區"
"244010","701-TV","2018/10/01 08:29:18","新北市林口區中興街3-1號","121.389075","25.0775733333333","6501700","林口區"
"244024","837-TS","2018/10/01 08:29:21","新北市林口區忠孝三路11號","121.361218333333","25.069155","6501700","林口區"
"244020","838-TS","2018/10/01 08:29:18","新北市林口區粉寮路二段27號","121.400751666667","25.0844883333333","6501700","林口區"
"222005","289-BY","2018/10/01 08:29:10","新北市深坑區萬福路147號","121.610975","25.0163083333333","6501800","深坑區"
"231007","189-VK","2018/10/01 08:29:08","新北市新店區新潭路一段78-13號","121.525688333333","24.939635","6500600","新店區"
"231008","192-VK","2018/10/01 08:29:06","新北市新店區新烏路三段95號","121.552611666667","24.90311","6500600","新店區"
"241015","743-BX","2018/10/01 08:29:07","新北市三重區五谷王北街81號","121.475753333333","25.0508883333333","6500200","三重區"
"235001","611-BX","2018/10/01 08:29:07","新北市中和區員山路314巷7弄10號","121.48209","25.0032866666667","6500300","中和區"
"226005","5620-A6","2018/10/01 08:29:15","新北市平溪區南山里六分10號","121.797093333333","25.04989","6502400","平溪區"
"226001","7418-A5","2018/10/01 08:29:16","新北市平溪區東勢里芊蓁林47-2號","121.751505","25.01194","6502400","平溪區"
"226003","AGD-0702","2018/10/01 08:29:21","新北市平溪區靜安路三段375號","121.780925","25.046955","6502400","平溪區"
"223006","022-BY","2018/10/01 08:27:38","新北市石碇區十八重溪63號","121.674948333333","25.013555","6501900","石碇區"
"223002","KEA-2673","2018/10/01 08:29:07","新北市石碇區北宜路五段十股寮巷5-2號","121.642091666667","24.9515383333333","6501900","石碇區"
"223008","406-TH","2018/10/01 08:27:45","新北市石碇區串空湖7-1號","121.670753333333","25.0014483333333","6501900","石碇區"
"223004","437-BY","2018/10/01 08:29:22","新北市石碇區石碇東街12號","121.661678333333","24.9906","6501900","石碇區"
"223001","592-UM","2018/10/01 08:26:30","新北市石碇區北宜路六段塗潭巷2號","121.6449","24.937485","6501900","石碇區"
"223005","677-TV","2018/10/01 08:29:06","新北市石碇區石碇東街12號","121.661636666667","24.990785","6501900","石碇區"
"227005","282-VK","2018/10/01 08:29:05","新北市雙溪區外柑里三叉坑6號","121.826035","25.0132833333333","6502500","雙溪區"
"252006","073-UM","2018/10/01 08:29:19","新北市三芝區蘭陽街13-1號","121.473476666667","25.2423933333333","6502100","三芝區"
"252004","249-BX","2018/10/01 08:29:22","新北市三芝區興華里車埕6號","121.501121666667","25.2017933333333","6502100","三芝區"
"237001","159-UY","2018/10/01 08:29:14","新北市三峽區大義路251號","121.377546666667","24.946225","6500900","三峽區"
"242035","AAC-296","2018/10/01 08:29:19","新北市新莊區後港一路69號","121.426641666667","25.0267033333333","6500500","新莊區"
"242057","986-R7","2018/10/01 08:29:09","新北市新莊區壽山路160巷21號","121.417386666667","25.03195","6500500","新莊區"
"242055","751-BX","2018/10/01 08:29:16","新北市新莊區豐年街122-3號","121.446346666667","25.0298166666667","6500500","新莊區"
"242028","705-TV","2018/10/01 08:29:19","新北市新莊區中平路202號","121.444673333333","25.0487083333333","6500500","新莊區"
"242026","615-BX","2018/10/01 08:29:06","新北市新莊區幸福路77號","121.45685","25.0493233333333","6500500","新莊區"
"242024","613-BX","2018/10/01 08:29:14","新北市新莊區五工路60號","121.458578333333","25.0629183333333","6500500","新莊區"
"242043","566-BX","2018/10/01 08:29:08","新北市新莊區雙鳳路135號","121.412836666667","25.0273783333333","6500500","新莊區"
"242047","497-BY","2018/10/01 08:29:07","新北市新莊區後港二路16號","121.422636666667","25.0237916666667","6500500","新莊區"
"242052","441-UM","2018/10/01 08:29:22","新北市新莊區民安西路406號","121.428843333333","25.0100816666667","6500500","新莊區"
"242001","440-UM","2018/10/01 08:29:11","新北市新莊區新莊路90號","121.456675","25.0362866666667","6500500","新莊區"
"242038","415-TV","2018/10/01 08:29:06","新北市新莊區民安西路88巷15號","121.426018333333","25.0200133333333","6500500","新莊區"
"242008","413-TV","2018/10/01 08:29:18","新北市新莊區中華路二段216號","121.452766666667","25.052695","6500500","新莊區"
"242045","400-BY","2018/10/01 08:29:20","新北市新莊區福營路165巷3號","121.43205","25.0310633333333","6500500","新莊區"
"242022","362-BY","2018/10/01 08:29:19","新北市新莊區化成路328號","121.465735","25.0488483333333","6500500","新莊區"
"242059","353-BY","2018/10/01 08:29:11","新北市新莊區新樹路259號","121.434581666667","25.0215216666667","6500500","新莊區"
"242010","132-UY","2018/10/01 08:29:09","新北市新莊區中港路中慶巷33號","121.449531666667","25.05375","6500500","新莊區"
"242040","133-UY","2018/10/01 08:29:10","新北市新莊區天祥街123號","121.414438333333","25.0296233333333","6500500","新莊區"
"242049","172-VK","2018/10/01 08:29:13","新北市新莊區民本街23巷17號","121.429006666667","25.0197816666667","6500500","新莊區"
"242012","173-VK","2018/10/01 08:29:04","新北市新莊區中和街150號","121.447465","25.04857","6500500","新莊區"
"242018","175-VK","2018/10/01 08:29:18","新北市新莊區民樂街18號","121.45774","25.0400383333333","6500500","新莊區"
"242016","346-TH","2018/10/01 08:17:38","新北市新莊區復興路一段149巷22弄4號","121.450628333333","25.0441233333333","6500500","新莊區"
"242030","348-TH","2018/10/01 08:29:07","新北市新莊區新泰路277巷69號","121.443066666667","25.039955","6500500","新莊區"
"242003","349-TH","2018/10/01 08:29:20","新北市新莊區自由街12號","121.455868333333","25.0475283333333","6500500","新莊區"
"242020","350-TH","2018/10/01 08:29:15","新北市新莊區中華路一段63巷46號","121.449918333333","25.039345","6500500","新莊區"
"242014","351-TH","2018/10/01 08:29:17","新北市新莊區中平路132巷12號","121.445515","25.0466666666667","6500500","新莊區"
"242033","281-VK","2018/10/01 08:29:15","新北市新莊區福海街24巷11號","121.446036666667","25.0342116666667","6500500","新莊區"
"242006","280-VK","2018/10/01 08:29:19","新北市新莊區中央路291號","121.452241666667","25.0579883333333","6500500","新莊區"
