"lineid","car","time","location","longitude","latitude","cityid","cityname"
"232001","290-BY","2018/10/01 08:39:23","新北市坪林區粗石斛4號","121.747276666667","24.9537533333333","6502000","坪林區"
"232012","291-BY","2018/10/01 08:39:06","新北市坪林區金瓜寮24-2號","121.680233333333","24.9080183333333","6502000","坪林區"
"232017","705-BZ","2018/10/01 08:38:53","新北市坪林區中心崙3號","121.783093333333","24.9478733333333","6502000","坪林區"
"232005","758-BX","2018/10/01 08:39:15","新北市坪林區石1號","121.712733333333","24.909515","6502000","坪林區"
"244022","069-UM","2018/10/01 08:39:20","新北市林口區東明一街110號","121.390603333333","25.0709866666667","6501700","林口區"
"244006","080-UY","2018/10/01 08:39:19","新北市林口區林口路272巷4號","121.386588333333","25.08464","6501700","林口區"
"244001","248-BX","2018/10/01 08:39:13","新北市林口區下福里137-1號","121.297141666667","25.1190383333333","6501700","林口區"
"244018","403-UM","2018/10/01 08:39:10","新北市林口區公園路128號","121.37118","25.0712433333333","6501700","林口區"
"244012","KEA-2802","2018/10/01 08:39:18","新北市林口區中山路11號","121.396271666667","25.0781916666667","6501700","林口區"
"244016","485-VK","2018/10/01 08:39:22","新北市林口區文化二路一段230巷80-1號","121.372018333333","25.0731016666667","6501700","林口區"
"244008","656-BX","2018/10/01 08:39:07","新北市林口區林口路297巷5號","121.385655","25.084625","6501700","林口區"
"244010","701-TV","2018/10/01 08:39:17","新北市林口區中正路103號","121.393996666667","25.0772883333333","6501700","林口區"
"244024","837-TS","2018/10/01 08:39:21","新北市林口區忠孝三路一段118號","121.359165","25.0716166666667","6501700","林口區"
"244020","838-TS","2018/10/01 08:39:18","新北市林口區東林街14號","121.396348333333","25.0789716666667","6501700","林口區"
"222005","289-BY","2018/10/01 08:39:10","新北市深坑區深南路88巷1-1號","121.62158","25.0117883333333","6501800","深坑區"
"231007","189-VK","2018/10/01 08:39:08","新北市新店區新潭路一段219號","121.528815","24.9282866666667","6500600","新店區"
"231008","192-VK","2018/10/01 08:39:06","新北市新店區新烏路三段251號","121.54664","24.89578","6500600","新店區"
"241015","743-BX","2018/10/01 08:39:07","新北市三重區五谷王北街81號","121.475778333333","25.0508866666667","6500200","三重區"
"235001","611-BX","2018/10/01 08:39:07","新北市中和區民安街53-12號","121.479688333333","24.999425","6500300","中和區"
"226005","5620-A6","2018/10/01 08:38:55","新北市平溪區南山里乾坑2-5號","121.786698333333","25.04455","6502400","平溪區"
"226001","7418-A5","2018/10/01 08:39:11","新北市平溪區東勢里火燒寮34-1號","121.759785","24.9916566666667","6502400","平溪區"
"226003","AGD-0702","2018/10/01 08:39:01","新北市平溪區新寮里新寮路1-1號","121.79054","25.0582666666667","6502400","平溪區"
"223006","022-BY","2018/10/01 08:39:18","新北市石碇區八分寮80-2號","121.653145","25.0073716666667","6501900","石碇區"
"223002","KEA-2673","2018/10/01 08:39:07","新北市石碇區半路店3號","121.647316666667","24.9653933333333","6501900","石碇區"
"223008","406-TH","2018/10/01 08:39:11","新北市石碇區靜安路一段156號","121.664726666667","25.0073316666667","6501900","石碇區"
"223004","437-BY","2018/10/01 08:39:22","新北市石碇區崩山15號","121.674808333333","24.9709183333333","6501900","石碇區"
"223001","592-UM","2018/10/01 08:39:15","新北市石碇區北宜路六段直潭巷26號","121.65992","24.934065","6501900","石碇區"
"223005","677-TV","2018/10/01 08:39:06","新北市石碇區崩山26號","121.676696666667","24.9669466666667","6501900","石碇區"
"227005","282-VK","2018/10/01 08:39:25","新北市雙溪區外柑里四分子1號","121.833813333333","25.0019883333333","6502500","雙溪區"
"252006","073-UM","2018/10/01 08:39:19","新北市三芝區後厝里北勢子4號","121.47914","25.2530433333333","6502100","三芝區"
"252004","249-BX","2018/10/01 08:39:03","新北市三芝區興華里楓子林40號","121.49423","25.206105","6502100","三芝區"
"237001","159-UY","2018/10/01 08:39:14","新北市三峽區三樹路201號","121.378078333333","24.9422266666667","6500900","三峽區"
"242035","AAC-296","2018/10/01 08:39:19","新北市新莊區後港一路49巷3弄11號","121.425248333333","25.0265866666667","6500500","新莊區"
"242057","986-R7","2018/10/01 08:39:05","新北市新莊區中正路742-1號","121.413601666667","25.0229433333333","6500500","新莊區"
"242055","751-BX","2018/10/01 08:39:16","新北市新莊區豐年街豐2巷10號","121.447061666667","25.0307766666667","6500500","新莊區"
"242028","705-TV","2018/10/01 08:39:24","新北市新莊區中平路298號","121.444761666667","25.0515966666667","6500500","新莊區"
"242026","615-BX","2018/10/01 08:39:05","新北市新莊區幸福路823號","121.445216666667","25.0490033333333","6500500","新莊區"
"242024","613-BX","2018/10/01 08:39:14","新北市新莊區五工一路97巷9號","121.46025","25.0675233333333","6500500","新莊區"
"242043","566-BX","2018/10/01 08:39:13","新北市新莊區天泉二街26巷2號","121.414596666667","25.025505","6500500","新莊區"
"242047","497-BY","2018/10/01 08:39:07","新北市新莊區後港一路17巷22號","121.42437","25.026785","6500500","新莊區"
"242052","441-UM","2018/10/01 08:39:08","新北市新莊區民安西路327巷2弄1號","121.427941666667","25.01135","6500500","新莊區"
"242001","440-UM","2018/10/01 08:39:11","新北市新莊區環漢路二段385號","121.451185","25.0326883333333","6500500","新莊區"
"242038","415-TV","2018/10/01 08:39:06","新北市新莊區民安路309號","121.429968333333","25.02265","6500500","新莊區"
"242008","413-TV","2018/10/01 08:39:18","新北市新莊區中華路二段152-1號","121.45333","25.05049","6500500","新莊區"
"242045","400-BY","2018/10/01 08:39:21","新北市新莊區福營路226號","121.427336666667","25.0294683333333","6500500","新莊區"
"242022","362-BY","2018/10/01 08:39:14","新北市新莊區化成路310號","121.465671666667","25.04824","6500500","新莊區"
"242059","353-BY","2018/10/01 08:39:11","新北市新莊區新樹路69-4號","121.438638333333","25.02976","6500500","新莊區"
"242010","132-UY","2018/10/01 08:39:15","新北市新莊區中榮街54號","121.449303333333","25.0529266666667","6500500","新莊區"
"242040","133-UY","2018/10/01 08:39:23","新北市新莊區天祥街77號","121.415645","25.0293066666667","6500500","新莊區"
"242049","172-VK","2018/10/01 08:37:34","新北市新莊區民本街53巷21號","121.42908","25.0180983333333","6500500","新莊區"
"242012","173-VK","2018/10/01 08:39:04","新北市新莊區中誠街121巷8號","121.44939","25.0470383333333","6500500","新莊區"
"242018","175-VK","2018/10/01 08:39:18","新北市新莊區中港路209號","121.454843333333","25.04206","6500500","新莊區"
"242016","346-TH","2018/10/01 08:17:38","新北市新莊區復興路一段149巷22弄4號","121.450628333333","25.0441233333333","6500500","新莊區"
"242030","348-TH","2018/10/01 08:39:07","新北市新莊區新泰路255巷35號","121.444786666667","25.03962","6500500","新莊區"
"242003","349-TH","2018/10/01 08:39:07","新北市新莊區思源路68號","121.460395","25.04454","6500500","新莊區"
"242020","350-TH","2018/10/01 08:39:15","新北市新莊區中正路170號","121.450795","25.0360616666667","6500500","新莊區"
"242014","351-TH","2018/10/01 08:39:17","新北市新莊區中平路184巷10弄14號","121.445486666667","25.0482216666667","6500500","新莊區"
"242033","281-VK","2018/10/01 08:39:15","新北市新莊區中正路285號","121.448835","25.0352233333333","6500500","新莊區"
"242006","280-VK","2018/10/01 08:39:18","新北市新莊區思源路682號","121.45978","25.057935","6500500","新莊區"
