"lineid","car","time","location","longitude","latitude","cityid","cityname"
"232001","290-BY","2018/10/01 08:48:03","新北市坪林區粗石斛6-1號","121.750375","24.9526716666667","6502000","坪林區"
"232012","291-BY","2018/10/01 08:49:06","新北市坪林區金瓜寮24-2號","121.680231666667","24.908055","6502000","坪林區"
"232017","705-BZ","2018/10/01 08:49:13","新北市坪林區鷺鶿岫4-1號","121.786838333333","24.9564066666667","6502000","坪林區"
"232005","758-BX","2018/10/01 08:49:15","新北市坪林區魚堀10號","121.705778333333","24.905435","6502000","坪林區"
"244022","069-UM","2018/10/01 08:49:15","新北市林口區東明二街61號","121.389658333333","25.069465","6501700","林口區"
"244006","080-UY","2018/10/01 08:49:19","新北市林口區佳林路1號","121.387285","25.082415","6501700","林口區"
"244001","248-BX","2018/10/01 08:49:13","新北市林口區寶斗厝坑79號","121.332445","25.119375","6501700","林口區"
"244018","403-UM","2018/10/01 08:49:10","新北市林口區文化一路一段135巷18號","121.373076666667","25.0724933333333","6501700","林口區"
"244012","KEA-2802","2018/10/01 08:49:18","新北市林口區中山路144號","121.391528333333","25.0788333333333","6501700","林口區"
"244016","485-VK","2018/10/01 08:49:22","新北市林口區忠孝路476號","121.370108333333","25.0705783333333","6501700","林口區"
"244008","656-BX","2018/10/01 08:49:07","新北市林口區佳林路56巷27號","121.385343333333","25.0810133333333","6501700","林口區"
"244010","701-TV","2018/10/01 08:49:17","新北市林口區中正路74巷8號","121.394655","25.0779066666667","6501700","林口區"
"244024","837-TS","2018/10/01 08:49:21","新北市林口區南勢四街96號","121.355576666667","25.071195","6501700","林口區"
"244020","838-TS","2018/10/01 08:49:18","新北市林口區自強七街2號","121.400353333333","25.0767366666667","6501700","林口區"
"222005","289-BY","2018/10/01 08:49:10","新北市深坑區深南路220號","121.624748333333","25.01693","6501800","深坑區"
"231007","189-VK","2018/10/01 08:49:08","新北市新店區新潭路二段120號","121.513505","24.922855","6500600","新店區"
"231008","192-VK","2018/10/01 08:49:06","新北市新店區松林路81號","121.550016666667","24.9074433333333","6500600","新店區"
"241015","743-BX","2018/10/01 08:49:07","新北市三重區五谷王北街81號","121.475781666667","25.0508866666667","6500200","三重區"
"235001","611-BX","2018/10/01 08:49:07","新北市中和區國光街112巷24弄1-3號","121.470423333333","25.0024283333333","6500300","中和區"
"226005","5620-A6","2018/10/01 08:49:15","新北市平溪區十分里十分街116號","121.776935","25.0431133333333","6502400","平溪區"
"226001","7418-A5","2018/10/01 08:49:11","新北市平溪區東勢里東勢格36-1號","121.76049","24.99077","6502400","平溪區"
"226003","AGD-0702","2018/10/01 08:49:21","新北市平溪區十分里十分街246號","121.777515","25.04453","6502400","平溪區"
"223006","022-BY","2018/10/01 08:49:18","新北市深坑區昇高坑路32號","121.62763","24.9999633333333","6501900","石碇區"
"223002","KEA-2673","2018/10/01 08:49:07","新北市石碇區外按18-2號","121.65146","24.999975","6501900","石碇區"
"223008","406-TH","2018/10/01 08:49:11","新北市石碇區十八重溪68-1號","121.672991666667","25.016905","6501900","石碇區"
"223004","437-BY","2018/10/01 08:49:22","新北市石碇區崩山45號","121.679783333333","24.9678366666667","6501900","石碇區"
"223001","592-UM","2018/10/01 08:49:10","新北市石碇區北宜路六段柑腳巷1-1號","121.66004","24.9385566666667","6501900","石碇區"
"223005","677-TV","2018/10/01 08:49:26","新北市石碇區崩山24-2號","121.679686666667","24.9673733333333","6501900","石碇區"
"227005","282-VK","2018/10/01 08:49:25","新北市雙溪區泰平里泰平10-1號","121.845541666667","24.9864616666667","6502500","雙溪區"
"252006","073-UM","2018/10/01 08:49:19","新北市三芝區古庄里四棧橋23號","121.486968333333","25.2603666666667","6502100","三芝區"
"252004","249-BX","2018/10/01 08:49:22","新北市三芝區興華里田心子15-13號","121.492883333333","25.2043216666667","6502100","三芝區"
"237001","159-UY","2018/10/01 08:49:14","新北市三峽區大觀路26號","121.374941666667","24.944885","6500900","三峽區"
"242035","AAC-296","2018/10/01 08:49:19","新北市新莊區建安街103號","121.426598333333","25.0242483333333","6500500","新莊區"
"242057","986-R7","2018/10/01 08:49:25","新北市新莊區中正路726-13號","121.41532","25.0237916666667","6500500","新莊區"
"242055","751-BX","2018/10/01 08:49:16","新北市新莊區瓊林路59-3號","121.444833333333","25.0271733333333","6500500","新莊區"
"242028","705-TV","2018/10/01 08:49:24","新北市新莊區中榮街152巷18號","121.445981666667","25.0534733333333","6500500","新莊區"
"242026","615-BX","2018/10/01 08:49:05","新北市新莊區立信三街35巷1號","121.442863333333","25.050595","6500500","新莊區"
"242024","613-BX","2018/10/01 08:49:14","新北市新莊區五工三路86巷4號","121.4588","25.0654733333333","6500500","新莊區"
"242043","566-BX","2018/10/01 08:49:08","新北市新莊區中正路891-26號","121.415123333333","25.0229133333333","6500500","新莊區"
"242047","497-BY","2018/10/01 08:49:07","新北市新莊區建安街92巷9號","121.425773333333","25.0241683333333","6500500","新莊區"
"242052","441-UM","2018/10/01 08:49:08","新北市新莊區民安西路346號","121.427073333333","25.0113","6500500","新莊區"
"242001","440-UM","2018/10/01 08:49:18","新北市新莊區中正路181號","121.453901666667","25.03636","6500500","新莊區"
"242038","415-TV","2018/10/01 08:49:06","新北市新莊區民安路287-6號","121.428731666667","25.02317","6500500","新莊區"
"242008","413-TV","2018/10/01 08:49:26","新北市新莊區昌盛街65巷2弄1號","121.454876666667","25.0502416666667","6500500","新莊區"
"242045","400-BY","2018/10/01 08:49:09","新北市新莊區中正路855巷23弄4號","121.4207","25.0269233333333","6500500","新莊區"
"242022","362-BY","2018/10/01 08:49:14","新北市新莊區化成路568號","121.466163333333","25.0541133333333","6500500","新莊區"
"242059","353-BY","2018/10/01 08:49:11","新北市新莊區富國路176巷1號","121.424263333333","25.0243583333333","6500500","新莊區"
"242010","132-UY","2018/10/01 08:49:09","新北市新莊區中榮街49巷1號","121.449511666667","25.05261","6500500","新莊區"
"242040","133-UY","2018/10/01 08:49:10","新北市新莊區天祥街72巷11號","121.416131666667","25.0299066666667","6500500","新莊區"
"242049","172-VK","2018/10/01 08:49:21","新北市新莊區民安西路212巷5弄5號","121.42509","25.0146616666667","6500500","新莊區"
"242012","173-VK","2018/10/01 08:49:24","新北市新莊區中港路417巷9號","121.451648333333","25.047445","6500500","新莊區"
"242018","175-VK","2018/10/01 08:49:18","新北市新莊區思源路131號","121.459825","25.0434433333333","6500500","新莊區"
"242030","348-TH","2018/10/01 08:49:07","新北市新莊區新泰路225巷2號","121.445968333333","25.0392566666667","6500500","新莊區"
"242003","349-TH","2018/10/01 08:49:08","新北市新莊區化成路29巷70號","121.462558333333","25.044005","6500500","新莊區"
"242020","350-TH","2018/10/01 08:49:15","新北市新莊區建中街48巷10弄12號","121.448643333333","25.0384633333333","6500500","新莊區"
"242014","351-TH","2018/10/01 08:49:17","新北市新莊區復興路一段47巷12號","121.44684","25.0427383333333","6500500","新莊區"
"242033","281-VK","2018/10/01 08:49:16","新北市新莊區公園一路110號","121.444433333333","25.0374383333333","6500500","新莊區"
"242006","280-VK","2018/10/01 08:49:18","新北市新莊區福壽街136巷38號","121.459236666667","25.0515883333333","6500500","新莊區"
