"lineid","car","time","location","longitude","latitude","cityid","cityname"
"232012","291-BY","2018/10/01 09:09:06","新北市坪林區北宜路八段6號","121.701151666667","24.9357933333333","6502000","坪林區"
"232005","758-BX","2018/10/01 09:09:15","新北市坪林區魚堀8-5號","121.709245","24.9068916666667","6502000","坪林區"
"244022","069-UM","2018/10/01 09:09:15","新北市林口區東湖一街103號","121.38415","25.0718766666667","6501700","林口區"
"244006","080-UY","2018/10/01 09:09:19","新北市林口區林口路124巷10弄3號","121.389085","25.08172","6501700","林口區"
"244001","248-BX","2018/10/01 09:09:13","新北市林口區文化一路二段303號","121.385683333333","25.0856733333333","6501700","林口區"
"244018","403-UM","2018/10/01 09:09:16","新北市林口區文化一路一段122號","121.374645","25.072045","6501700","林口區"
"244012","KEA-2802","2018/10/01 09:09:18","新北市林口區中山路255號","121.385346666667","25.079505","6501700","林口區"
"244016","485-VK","2018/10/01 09:09:22","新北市林口區公園路36號","121.367076666667","25.067915","6501700","林口區"
"244008","656-BX","2018/10/01 09:09:07","新北市林口區文林一街121號","121.378785","25.08718","6501700","林口區"
"244010","701-TV","2018/10/01 09:09:17","新北市林口區興林路17巷10號","121.390561666667","25.0769666666667","6501700","林口區"
"244024","837-TS","2018/10/01 09:09:21","新北市林口區忠孝一路180號","121.358946666667","25.074105","6501700","林口區"
"244020","838-TS","2018/10/01 09:09:18","新北市林口區工六路30號","121.398441666667","25.078675","6501700","林口區"
"222005","289-BY","2018/10/01 09:09:10","新北市深坑區大坪街11號","121.630765","25.0204566666667","6501800","深坑區"
"231007","189-VK","2018/10/01 09:09:08","新北市新店區新潭路三段220號","121.503296666667","24.9041366666667","6500600","新店區"
"231008","192-VK","2018/10/01 09:09:06","新北市新店區廣興路60巷35號","121.542505","24.9164133333333","6500600","新店區"
"241015","743-BX","2018/10/01 09:09:07","新北市三重區五谷王北街42巷2號","121.47557","25.048545","6500200","三重區"
"235001","611-BX","2018/10/01 09:09:07","新北市中和區民享街136-1號","121.473396666667","24.99679","6500300","中和區"
"226001","7418-A5","2018/10/01 08:49:51","新北市平溪區東勢里火燒寮26-2號","121.757085","24.9922433333333","6502400","平溪區"
"226003","AGD-0702","2018/10/01 09:07:41","新北市平溪區南山里南山坪5號","121.76125","25.0337083333333","6502400","平溪區"
"223006","022-BY","2018/10/01 09:09:11","新北市深坑區昇高坑路15號","121.62415","25.0007216666667","6501900","石碇區"
"223008","406-TH","2018/10/01 09:09:11","新北市石碇區光明路13號","121.680023333333","25.03361","6501900","石碇區"
"223004","437-BY","2018/10/01 09:09:22","新北市石碇區碇坪路二段65號","121.685303333333","24.9663516666667","6501900","石碇區"
"223001","592-UM","2018/10/01 09:09:10","新北市石碇區北宜路五段崙尾寮巷2號","121.645843333333","24.95304","6501900","石碇區"
"223005","677-TV","2018/10/01 09:09:18","新北市石碇區碇坪路二段65號","121.685503333333","24.965615","6501900","石碇區"
"227005","282-VK","2018/10/01 09:09:05","新北市雙溪區泰平里料角坑9號","121.813275","24.9744633333333","6502500","雙溪區"
"252006","073-UM","2018/10/01 09:09:19","新北市三芝區古庄里山豬堀14-2號","121.492215","25.260015","6502100","三芝區"
"252004","249-BX","2018/10/01 09:09:22","新北市三芝區興華里車埕69-4號","121.493306666667","25.1937116666667","6502100","三芝區"
"237001","159-UY","2018/10/01 09:06:34","新北市樹林區中山路三段210-2號","121.38073","24.967505","6500900","三峽區"
"242035","AAC-296","2018/10/01 09:08:59","新北市新莊區建安街9巷8號","121.429175","25.0266","6500500","新莊區"
"242057","986-R7","2018/10/01 09:09:25","新北市新莊區八德街135號","121.42386","25.02023","6500500","新莊區"
"242055","751-BX","2018/10/01 09:09:16","新北市新莊區新豐街68巷1號","121.44643","25.0337483333333","6500500","新莊區"
"242028","705-TV","2018/10/01 09:09:24","新北市新莊區中華路二段175號","121.452705","25.051945","6500500","新莊區"
"242026","615-BX","2018/10/01 09:09:05","新北市新莊區幸福路615號","121.451961666667","25.0492233333333","6500500","新莊區"
"242024","613-BX","2018/10/01 09:09:14","新北市新莊區五工二路70巷2號","121.460381666667","25.0657883333333","6500500","新莊區"
"242043","566-BX","2018/10/01 09:09:16","新北市新莊區萬壽路一段21巷17弄4號","121.410933333333","25.020315","6500500","新莊區"
"242047","497-BY","2018/10/01 09:09:07","新北市新莊區四維路186巷1號","121.421855","25.021155","6500500","新莊區"
"242052","441-UM","2018/10/01 09:09:08","新北市新莊區民安西路245巷7號","121.426591666667","25.01373","6500500","新莊區"
"242001","440-UM","2018/10/01 09:09:10","新北市新莊區中正路56巷12弄1號","121.46128","25.0410583333333","6500500","新莊區"
"242038","415-TV","2018/10/01 09:09:20","新北市新莊區成功街75號","121.424723333333","25.0198416666667","6500500","新莊區"
"242008","413-TV","2018/10/01 09:09:18","新北市新莊區思源路213號","121.459788333333","25.046025","6500500","新莊區"
"242045","400-BY","2018/10/01 09:09:09","新北市新莊區裕民街55巷5號","121.41916","25.0238933333333","6500500","新莊區"
"242022","362-BY","2018/10/01 09:09:17","新北市新莊區化成路968號","121.465031666667","25.063535","6500500","新莊區"
"242059","353-BY","2018/10/01 09:09:11","新北市新莊區瓊林路59-8號","121.444371666667","25.0275466666667","6500500","新莊區"
"242010","132-UY","2018/10/01 09:09:09","新北市新莊區中信街61號","121.44924","25.0508083333333","6500500","新莊區"
"242040","133-UY","2018/10/01 09:09:10","新北市新莊區壽山路73號","121.409561666667","25.032695","6500500","新莊區"
"242049","172-VK","2018/10/01 09:09:15","新北市新莊區民安西路109號","121.426791666667","25.0183816666667","6500500","新莊區"
"242012","173-VK","2018/10/01 09:09:23","新北市新莊區中和街155巷24弄18號","121.446818333333","25.0503366666667","6500500","新莊區"
"242018","175-VK","2018/10/01 09:09:18","新北市新莊區銘德街57號","121.456803333333","25.0436283333333","6500500","新莊區"
"242030","348-TH","2018/10/01 09:09:07","新北市新莊區忠孝街27號","121.443858333333","25.03549","6500500","新莊區"
"242003","349-TH","2018/10/01 09:09:06","新北市新莊區化成路213-2號","121.466035","25.05186","6500500","新莊區"
"242020","350-TH","2018/10/01 09:09:15","新北市新莊區公園路10巷2號","121.447771666667","25.0387716666667","6500500","新莊區"
"242014","351-TH","2018/10/01 09:09:17","新北市新莊區中平路36巷21號","121.445641666667","25.0435833333333","6500500","新莊區"
"242033","281-VK","2018/10/01 09:09:15","新北市新莊區建中街135號","121.445176666667","25.0364766666667","6500500","新莊區"
