"lineid","car","time","location","longitude","latitude","cityid","cityname"
"232005","758-BX","2018/10/01 09:19:15","新北市坪林區北宜路八段558號","121.716375","24.9089966666667","6502000","坪林區"
"244022","069-UM","2018/10/01 09:19:15","新北市林口區東湖路153巷135號","121.3822","25.07355","6501700","林口區"
"244006","080-UY","2018/10/01 09:19:19","新北市林口區竹林路548號","121.3876","25.084715","6501700","林口區"
"244001","248-BX","2018/10/01 09:18:53","新北市林口區粉寮路二段160巷30號","121.40555","25.0909566666667","6501700","林口區"
"244018","403-UM","2018/10/01 09:19:10","新北市林口區麗園路89號","121.373056666667","25.0686483333333","6501700","林口區"
"244012","KEA-2802","2018/10/01 09:19:18","新北市林口區文化一路一段137號","121.373968333333","25.0721333333333","6501700","林口區"
"244016","485-VK","2018/10/01 09:19:22","新北市林口區文化二路一段22號","121.36476","25.0674183333333","6501700","林口區"
"244008","656-BX","2018/10/01 09:19:07","新北市林口區文化一路二段285-1號","121.3849","25.0845833333333","6501700","林口區"
"244010","701-TV","2018/10/01 09:19:17","新北市林口區中正路57巷12弄14號","121.394898333333","25.0767016666667","6501700","林口區"
"244024","837-TS","2018/10/01 09:19:21","新北市林口區文化三路一段447巷29號","121.367608333333","25.07511","6501700","林口區"
"244020","838-TS","2018/10/01 09:19:18","新北市林口區工四路42號","121.400675","25.0839083333333","6501700","林口區"
"222005","289-BY","2018/10/01 09:19:10","新北市深坑區土庫尖路75-1號","121.631305","25.0181766666667","6501800","深坑區"
"231007","189-VK","2018/10/01 09:18:48","新北市新店區新潭路三段215巷25號","121.508116666667","24.9040933333333","6500600","新店區"
"231008","192-VK","2018/10/01 09:19:06","新北市新店區廣興路150號","121.536241666667","24.9100733333333","6500600","新店區"
"241015","743-BX","2018/10/01 09:17:07","新北市三重區竹圍(仔)街17-5號","121.487465","25.0472633333333","6500200","三重區"
"235001","611-BX","2018/10/01 09:19:07","新北市中和區中山路三段144號","121.473771666667","25.00633","6500300","中和區"
"226003","AGD-0702","2018/10/01 09:19:21","新北市平溪區嶺腳里嶺腳寮111號","121.746848333333","25.0338516666667","6502400","平溪區"
"223006","022-BY","2018/10/01 09:19:11","新北市石碇區碇坪路一段100號","121.658125","24.9913483333333","6501900","石碇區"
"223008","406-TH","2018/10/01 09:19:11","新北市石碇區光明路15號","121.680106666667","25.0336866666667","6501900","石碇區"
"223004","437-BY","2018/10/01 09:19:22","新北市石碇區華梵路3號","121.691803333333","24.978555","6501900","石碇區"
"223001","592-UM","2018/10/01 09:19:10","新北市石碇區北宜路五段坑內巷6號","121.63564","24.9534883333333","6501900","石碇區"
"223005","677-TV","2018/10/01 09:19:18","新北市石碇區華梵路2號","121.691513333333","24.9770416666667","6501900","石碇區"
"227005","282-VK","2018/10/01 09:10:25","新北市雙溪區泰平里料角坑19號","121.812001666667","24.9727833333333","6502500","雙溪區"
"252004","249-BX","2018/10/01 09:19:22","新北市三芝區興華里田心子20-8號","121.494015","25.2012966666667","6502100","三芝區"
"252006","AAC-283","2018/10/01 09:19:06","新北市三芝區埔坪里埔頭坑41號","121.504578333333","25.2646116666667","6502100","三芝區"
"237001","159-UY","2018/10/01 09:19:14","新北市鶯歌區三鶯路43號","121.356691666667","24.9419583333333","6500900","三峽區"
"242035","AAC-296","2018/10/01 09:19:20","新北市新莊區建安街62巷22號","121.426903333333","25.0252533333333","6500500","新莊區"
"242057","986-R7","2018/10/01 09:19:05","新北市新莊區龍安路266巷3號","121.421675","25.0191116666667","6500500","新莊區"
"242055","751-BX","2018/10/01 09:19:16","新北市新莊區豐年街28巷14號","121.445623333333","25.0323666666667","6500500","新莊區"
"242028","705-TV","2018/10/01 09:19:24","新北市新莊區中華路二段158號","121.45338","25.05095","6500500","新莊區"
"242026","615-BX","2018/10/01 09:19:14","新北市新莊區思源路245號","121.459781666667","25.0470416666667","6500500","新莊區"
"242024","613-BX","2018/10/01 09:19:15","新北市新莊區五工三路62巷19號","121.460173333333","25.0649683333333","6500500","新莊區"
"242043","566-BX","2018/10/01 09:19:25","新北市新莊區中正路895-42號","121.412396666667","25.0210983333333","6500500","新莊區"
"242047","497-BY","2018/10/01 09:19:12","新北市新莊區龍安路256號","121.421315","25.0195066666667","6500500","新莊區"
"242052","441-UM","2018/10/01 09:19:08","新北市新莊區西盛街324巷5號","121.427588333333","25.0146933333333","6500500","新莊區"
"242001","440-UM","2018/10/01 09:19:11","新北市新莊區明中街11號","121.458745","25.0383716666667","6500500","新莊區"
"242038","415-TV","2018/10/01 09:19:06","新北市新莊區民安西路38巷2號","121.42718","25.0211","6500500","新莊區"
"242045","400-BY","2018/10/01 09:19:09","新北市新莊區中正路新生巷54號","121.417428333333","25.0232483333333","6500500","新莊區"
"242022","362-BY","2018/10/01 09:19:14","新北市新莊區化成路215號","121.46611","25.0520566666667","6500500","新莊區"
"242059","353-BY","2018/10/01 09:19:11","新北市新莊區瓊林路瓊英巷6弄1號","121.443198333333","25.02766","6500500","新莊區"
"242010","132-UY","2018/10/01 09:19:09","新北市新莊區中信街37巷1弄11號","121.450956666667","25.0506183333333","6500500","新莊區"
"242040","133-UY","2018/10/01 09:19:12","新北市新莊區天祥街60號","121.416278333333","25.029115","6500500","新莊區"
"242012","173-VK","2018/10/01 09:18:59","新北市新莊區中和街155巷24弄77號","121.446141666667","25.051425","6500500","新莊區"
"242030","348-TH","2018/10/01 09:19:13","新北市新莊區忠孝街29巷19號","121.443491666667","25.0361416666667","6500500","新莊區"
"242003","349-TH","2018/10/01 09:19:27","新北市新莊區化成路554巷1號","121.466525","25.05389","6500500","新莊區"
"242014","351-TH","2018/10/01 09:19:17","新北市新莊區中和街1號","121.44836","25.04296","6500500","新莊區"
"242033","281-VK","2018/10/01 09:19:15","新北市新莊區新泰路98號","121.448635","25.0357833333333","6500500","新莊區"
