"lineid","car","time","location","longitude","latitude","cityid","cityname"
"244022","069-UM","2018/10/01 10:09:15","新北市林口區民權路12巷5號","121.371691666667","25.0798916666667","6501700","林口區"
"244018","403-UM","2018/10/01 10:09:10","新北市林口區麗園一街13號","121.376983333333","25.06928","6501700","林口區"
"244016","485-VK","2018/10/01 10:09:22","新北市林口區佳林路165-2號","121.386233333333","25.0792883333333","6501700","林口區"
"244020","838-TS","2018/10/01 09:48:09","新北市林口區粉寮路二段88巷100-12號","121.409461666667","25.0902633333333","6501700","林口區"
"231007","189-VK","2018/10/01 10:09:08","新北市新店區新潭路三段215巷25號","121.508178333333","24.9041766666667","6500600","新店區"
"231008","192-VK","2018/10/01 10:09:26","新北市新店區小坑一路21-1號","121.53183","24.9127","6500600","新店區"
"241015","743-BX","2018/10/01 10:09:07","新北市三重區新北大道一段7號","121.489813333333","25.0613616666667","6500200","三重區"
"223008","406-TH","2018/10/01 10:09:09","新北市石碇區小粗坑(潭邊里)15-8號","121.686748333333","24.9844766666667","6501900","石碇區"
"227005","282-VK","2018/10/01 09:59:25","新北市雙溪區泰平里烏山路28號","121.814005","24.9288433333333","6502500","雙溪區"
"252004","249-BX","2018/10/01 10:09:22","新北市三芝區福德里埔尾13-1號","121.504343333333","25.2445833333333","6502100","三芝區"
"252006","AAC-283","2018/10/01 10:09:06","新北市三芝區古庄里古庄101-3號","121.494105","25.2700983333333","6502100","三芝區"
"237001","159-UY","2018/10/01 10:09:14","新北市三峽區國際二街77號","121.370726666667","24.9421916666667","6500900","三峽區"
"242052","441-UM","2018/10/01 10:09:08","新北市新莊區瓊林南路75-37號","121.438131666667","25.0152183333333","6500500","新莊區"
"242022","362-BY","2018/10/01 10:09:14","新北市樹林區八德街1022號","121.391071666667","24.9684933333333","6500500","新莊區"
