"lineid","car","time","location","longitude","latitude","cityid","cityname"
"244022","069-UM","2018/10/01 10:18:15","新北市林口區文林六街62巷26號","121.371858333333","25.0818866666667","6501700","林口區"
"244018","403-UM","2018/10/01 10:18:10","新北市林口區仁愛路二段158號","121.381591666667","25.07422","6501700","林口區"
"244016","485-VK","2018/10/01 10:18:22","新北市林口區粉寮路二段88巷99-1號","121.407321666667","25.0899116666667","6501700","林口區"
"231007","189-VK","2018/10/01 10:18:08","新北市新店區新潭路三段215巷25號","121.508205","24.9041883333333","6500600","新店區"
"231008","192-VK","2018/10/01 10:12:46","新北市新店區小坑一路41號","121.527643333333","24.90965","6500600","新店區"
"223008","406-TH","2018/10/01 10:18:09","新北市石碇區小粗坑(潭邊里)9-2號","121.678941666667","24.986135","6501900","石碇區"
"227005","282-VK","2018/10/01 09:59:25","新北市雙溪區泰平里烏山路28號","121.814005","24.9288433333333","6502500","雙溪區"
"252006","AAC-283","2018/10/01 10:18:25","新北市三芝區新庄里番社后18號","121.496458333333","25.274635","6502100","三芝區"
"237001","159-UY","2018/10/01 10:18:14","新北市三峽區國際二街33號","121.372296666667","24.9431583333333","6500900","三峽區"
"242052","441-UM","2018/10/01 10:18:08","新北市新莊區瓊林路36號","121.448693333333","25.030955","6500500","新莊區"
"242022","362-BY","2018/10/01 10:18:14","新北市板橋區大觀路三段59巷47號","121.435188333333","24.993245","6500500","新莊區"
