"lineid","car","time","location","longitude","latitude","cityid","cityname"
"244022","069-UM","2018/10/01 10:39:15","新北市林口區仁愛路二段526號","121.372933333333","25.0781183333333","6501700","林口區"
"244018","403-UM","2018/10/01 10:39:10","新北市林口區粉寮路二段160巷28號","121.405235","25.0908383333333","6501700","林口區"
"231007","189-VK","2018/10/01 10:39:08","新北市新店區新潭路三段80巷11號","121.502458333333","24.9094666666667","6500600","新店區"
"231008","192-VK","2018/10/01 10:39:06","新北市新店區松林路16巷41號","121.54692","24.9075066666667","6500600","新店區"
"227005","282-VK","2018/10/01 10:39:20","新北市雙溪區泰平里溪尾寮45號","121.82066","24.96693","6502500","雙溪區"
"237001","159-UY","2018/10/01 10:39:13","新北市樹林區中山路三段210-2號","121.38131","24.9658383333333","6500900","三峽區"
"242022","362-BY","2018/10/01 10:39:14","新北市泰山區磚雅厝3號","121.441973333333","25.0417183333333","6500500","新莊區"
