"lineid","car","time","location","longitude","latitude","cityid","cityname"
"244019","403-UM","2018/10/01 11:45:35","新北市林口區粉寮路二段88巷100-12號","121.40963","25.0902066666667","6501700","林口區"
"231008","192-VK","2018/10/01 12:09:26","新北市新店區薏仁坑路10-1號","121.499223333333","24.9590033333333","6500600","新店區"
"235029","098-UM","2018/10/01 12:09:15","新北市中和區員山路36巷16-3號","121.48511","24.9912833333333","6500300","中和區"
"227005","282-VK","2018/10/01 12:09:25","新北市雙溪區三貂里定福路1-2號","121.850108333333","25.0637516666667","6502500","雙溪區"
"237001","159-UY","2018/10/01 12:09:13","新北市三峽區中山路459巷163-1號","121.349345","24.9335466666667","6500900","三峽區"
