"lineid","car","time","location","longitude","latitude","cityid","cityname"
"234044","148-BY","2018/10/01 13:39:26","新北市永和區秀朗路二段68號","121.522811666667","25.0015916666667","6500400","永和區"
"234005","207-UY","2018/10/01 13:39:24","新北市永和區中山路一段24號","121.513893333333","25.0105816666667","6500400","永和區"
"234078","298-R6","2018/10/01 13:39:24","新北市永和區國中路104巷11號","121.524658333333","25.0071066666667","6500400","永和區"
"234036","336-UY","2018/10/01 13:39:28","新北市永和區民樂街39巷18弄2號","121.528545","24.9995466666667","6500400","永和區"
"234062","337-UY","2018/10/01 13:39:15","新北市永和區永元路17巷25弄9號","121.520838333333","25.00171","6500400","永和區"
"234084","338-UY","2018/10/01 13:39:16","新北市永和區永亨路165巷1-4號","121.526181666667","25.0041783333333","6500400","永和區"
"234068","552-UM","2018/10/01 13:39:17","新北市永和區永和路二段239號","121.5156","25.014725","6500400","永和區"
"234015","745-BX","2018/10/01 13:39:28","新北市永和區永和路二段405巷8號","121.5153","25.0176216666667","6500400","永和區"
"234028","746-BX","2018/10/01 13:39:20","新北市永和區民權路23號","121.520276666667","24.99784","6500400","永和區"
"234052","KEA-2590","2018/10/01 13:39:26","新北市永和區竹林路39巷14號","121.51844","25.0145416666667","6500400","永和區"
"234012","KEA-2591","2018/10/01 13:39:21","新北市永和區永平路258號","121.508128333333","25.0114016666667","6500400","永和區"
"234060","AAD-866","2018/10/01 13:39:18","新北市永和區中正路456號","121.517471666667","25.00291","6500400","永和區"
"234066","748-BX","2018/10/01 13:39:16","新北市永和區中山路一段201號","121.508958333333","25.0086783333333","6500400","永和區"
"234040","862-TW","2018/10/01 13:39:22","新北市永和區水源街21巷2號","121.51135","25.0045966666667","6500400","永和區"
"234048","863-TW","2018/10/01 13:39:22","新北市永和區保福路二段163巷2號","121.509373333333","25.014755","6500400","永和區"
"234025","9371-KE","2018/10/01 13:39:11","新北市永和區和平街95巷4弄2號","121.511331666667","25.0097","6500400","永和區"
"234010","9373-KE","2018/10/01 13:39:22","新北市永和區保福路二段19-1號","121.510926666667","25.0111916666667","6500400","永和區"
"248013","025-BX","2018/10/01 13:39:20","新北市五股區中興路四段72號","121.437085","25.0835616666667","6501500","五股區"
"248015","026-BX","2018/10/01 13:39:28","新北市五股區凌雲路一段149巷42號","121.448608333333","25.1009083333333","6501500","五股區"
"248005","077-UY","2018/10/01 13:39:13","新北市五股區中興路一段7號","121.469438333333","25.0722666666667","6501500","五股區"
"248007","095-VK","2018/10/01 13:39:26","新北市五股區中興路一段152號","121.464558333333","25.07397","6501500","五股區"
"248019","225-UY","2018/10/01 13:39:27","新北市五股區孝義路92號","121.44712","25.1187516666667","6501500","五股區"
"248011","247-BX","2018/10/01 13:39:28","新北市五股區成泰路三段6號","121.441121666667","25.087425","6501500","五股區"
"248003","677-BX","2018/10/01 13:39:16","新北市五股區民義路一段282號","121.42548","25.0930083333333","6501500","五股區"
"248001","678-BX","2018/10/01 13:39:14","新北市五股區西雲路240號","121.44879","25.096745","6501500","五股區"
"248009","682-TV","2018/10/01 13:39:18","新北市五股區水碓七路168號","121.43087","25.0739266666667","6501500","五股區"
"234022","9380-KE","2018/10/01 13:39:29","新北市永和區豫溪街57巷8弄3號","121.517526666667","25.010445","6500400","永和區"
"234076","969-R7","2018/10/01 13:39:23","新北市永和區得和路198號","121.52038","24.9996783333333","6500400","永和區"
"234072","AAC-211","2018/10/01 13:39:11","新北市永和區竹林路213巷44號","121.523265","25.0091","6500400","永和區"
"234001","AAC-295","2018/10/01 13:39:16","新北市永和區永和路一段112號","121.513698333333","25.0073133333333","6500400","永和區"
"244001","248-BX","2018/10/01 13:39:29","新北市林口區瑞樹坑63號","121.344595","25.1267033333333","6501700","林口區"
"243005","AAD-798","2018/10/01 13:30:50","新北市泰山區明志路三段206巷3號","121.4233","25.0379533333333","6501600","泰山區"
"243008","KEA-2801","2018/10/01 13:39:17","新北市泰山區犁頭窠3-1號","121.421926666667","25.0604833333333","6501600","泰山區"
"243003","KEA-2215","2018/10/01 13:39:25","新北市泰山區黎明路25號","121.42201","25.0608433333333","6501600","泰山區"
"243004","646-TV","2018/10/01 13:39:14","新北市泰山區黎明路31號","121.421703333333","25.0608416666667","6501600","泰山區"
"231028","001-UM","2018/10/01 13:39:23","新北市新店區安和路一段6-1號","121.517146666667","24.9650083333333","6500600","新店區"
"231002","002-UM","2018/10/01 13:39:13","新北市新店區中央三街127號","121.524148333333","24.9769233333333","6500600","新店區"
"231027","0293-UT","2018/10/01 13:39:12","新北市新店區新店後街24號","121.537935","24.9533133333333","6500600","新店區"
"231001","047-UY","2018/10/01 13:39:28","新北市新店區中央路13號","121.533273333333","24.9784516666667","6500600","新店區"
"231005","106-UY","2018/10/01 13:39:12","新北市新店區寶中路72號","121.547865","24.9806616666667","6500600","新店區"
"231010","107-UY","2018/10/01 13:39:16","新北市新店區平等街48巷17號","121.535363333333","24.9734733333333","6500600","新店區"
"231019","110-UY","2018/10/01 13:39:24","新北市新店區永興路88-1號","121.544065","24.93358","6500600","新店區"
"231011","187-VK","2018/10/01 13:39:08","新北市新店區德正街23巷1號","121.54413","24.9719866666667","6500600","新店區"
"231031","188-VK","2018/10/01 13:39:27","新北市新店區安康路一段355號","121.51985","24.9631233333333","6500600","新店區"
"231026","256-BX","2018/10/01 13:39:23","新北市新店區北新路一段277號","121.541058333333","24.9668533333333","6500600","新店區"
"231003","268-BY","2018/10/01 13:39:17","新北市新店區中正路69號","121.543553333333","24.970035","6500600","新店區"
"231018","278-BY","2018/10/01 13:39:25","新北市新店區百忍街10巷2號","121.534795","24.9756233333333","6500600","新店區"
"231014","AAD-862","2018/10/01 13:39:19","新北市新店區竹林路2巷23-1號","121.550245","24.9510133333333","6500600","新店區"
"231038","3712-VJ","2018/10/01 13:39:30","新北市新店區安華路28-1號","121.5193","24.960705","6500600","新店區"
"231037","4716-K9","2018/10/01 13:38:58","新北市新店區薏仁坑路53-1號","121.49138","24.9636816666667","6500600","新店區"
"231025","4715-K9","2018/10/01 13:39:15","新北市新店區中央五街57號","121.527721666667","24.9756866666667","6500600","新店區"
"231036","512-UM","2018/10/01 13:39:28","新北市新店區安祥路145巷2號","121.474741666667","24.9554316666667","6500600","新店區"
"231013","513-UM","2018/10/01 13:39:13","新北市新店區中正路454-5號","121.534458333333","24.97907","6500600","新店區"
"231034","616-UM","2018/10/01 13:39:22","新北市新店區車子路121號","121.505271666667","24.9508266666667","6500600","新店區"
"231006","617-UM","2018/10/01 13:39:16","新北市新店區光明街1-1號","121.538088333333","24.9590633333333","6500600","新店區"
"231004","618-UM","2018/10/01 13:39:13","新北市新店區北新路二段7號","121.542636666667","24.9713133333333","6500600","新店區"
"231030","619-UM","2018/10/01 13:39:25","新北市新店區安康路一段351-1號","121.519608333333","24.9639133333333","6500600","新店區"
"231035","719-UM","2018/10/01 13:39:22","新北市新店區安忠路56巷6號","121.512951666667","24.9594366666667","6500600","新店區"
"231023","719-UY","2018/10/01 13:39:13","新北市新店區新店路182號","121.537143333333","24.9559766666667","6500600","新店區"
"231029","897-TW","2018/10/01 13:39:25","新北市新店區車子路1-1號","121.504615","24.9579766666667","6500600","新店區"
"231024","AKT-0513","2018/10/01 13:39:20","新北市新店區中華路47巷2弄1號","121.539628333333","24.9675916666667","6500600","新店區"
"235030","003-UY","2018/10/01 13:39:18","新北市中和區水源路39號","121.504643333333","25.003615","6500300","中和區"
"235064","005-UY","2018/10/01 13:39:20","新北市中和區連城路96號","121.49641","24.9999116666667","6500300","中和區"
"235027","006-UY","2018/10/01 13:39:26","新北市中和區連城路343號","121.488195","24.9958683333333","6500300","中和區"
"235020","096-UM","2018/10/01 13:39:21","新北市中和區員山路466巷17弄4號","121.480548333333","25.0071433333333","6500300","中和區"
"235003","097-UM","2018/10/01 13:39:25","新北市中和區大勇街29巷23弄1號","121.515523333333","24.9946566666667","6500300","中和區"
"235029","098-UM","2018/10/01 13:39:15","新北市中和區中山路二段2巷83號","121.500975","25.0075433333333","6500300","中和區"
"235004","150-BY","2018/10/01 13:39:22","新北市中和區安平路59號","121.509448333333","24.9951716666667","6500300","中和區"
"235022","151-BY","2018/10/01 13:39:11","新北市中和區圓通路369巷36弄19號","121.490136666667","24.98409","6500300","中和區"
"235019","183-VK","2018/10/01 13:39:29","新北市中和區莒光路120巷58號","121.471593333333","25.0007383333333","6500300","中和區"
"235002","185-VK","2018/10/01 13:39:17","新北市中和區大勇街60巷18號","121.518806666667","24.9946633333333","6500300","中和區"
"235013","186-VK","2018/10/01 13:39:09","新北市中和區景安路138號","121.50508","24.9942316666667","6500300","中和區"
"235031","255-BX","2018/10/01 13:39:18","新北市中和區新生街242巷11弄2號","121.482885","24.9978233333333","6500300","中和區"
"235008","293-VK","2018/10/01 13:39:17","新北市中和區復興路276號","121.502783333333","24.9904216666667","6500300","中和區"
"235036","301-VK","2018/10/01 13:39:26","新北市中和區連城路126號","121.495948333333","24.9992483333333","6500300","中和區"
"235006","KEA-2878","2018/10/01 13:39:26","新北市中和區成功路97巷5弄27號","121.526493333333","24.9927566666667","6500300","中和區"
"235014","4979-A6","2018/10/01 13:39:27","新北市中和區景新街496巷28-2號","121.513246666667","24.98558","6500300","中和區"
"235033","4980-A6","2018/10/01 13:39:26","新北市中和區景平路597號","121.496886666667","25.000485","6500300","中和區"
"235034","558-UM","2018/10/01 13:39:28","新北市中和區圓通路40號","121.50095","24.9978016666667","6500300","中和區"
"235009","565-BX","2018/10/01 13:39:23","新北市中和區南山路236巷30弄3號","121.50524","24.9884383333333","6500300","中和區"
"235018","640-BX","2018/10/01 13:39:23","新北市中和區莒光路80號","121.472321666667","25.00287","6500300","中和區"
"235011","732-UM","2018/10/01 13:39:26","新北市中和區南山路318號","121.507775","24.9866233333333","6500300","中和區"
"235035","783-BX","2018/10/01 13:39:23","新北市中和區中原街92號","121.488258333333","25.010365","6500300","中和區"
"235026","800-TS","2018/10/01 13:39:26","新北市中和區中山路二段312巷3弄1號","121.495491666667","25.0029733333333","6500300","中和區"
"235021","801-TS","2018/10/01 13:39:18","新北市中和區員山路327巷72號","121.47978","25.002155","6500300","中和區"
"235005","802-TS","2018/10/01 13:39:21","新北市中和區中和路390號","121.511098333333","25.0026116666667","6500300","中和區"
"235016","805-TS","2018/10/01 13:39:15","新北市中和區興南路三段42-3號","121.495775","24.9771516666667","6500300","中和區"
"235012","896-TW","2018/10/01 13:39:28","新北市中和區中正路79號","121.500795","24.99343","6500300","中和區"
"235017","900-TW","2018/10/01 13:39:22","新北市土城區延壽路77巷2號","121.469218333333","24.99273","6500300","中和區"
"235015","157-BY","2018/10/01 13:39:12","新北市中和區華新街143巷106弄22號","121.505988333333","24.9788833333333","6500300","中和區"
"235001","AAC-213","2018/10/01 13:39:31","新北市中和區景平路73-3號","121.51857","24.9913916666667","6500300","中和區"
"235023","AAC-215","2018/10/01 13:39:24","新北市中和區錦和路350-1號","121.490006666667","24.9935466666667","6500300","中和區"
"220016","013-TV","2018/10/01 13:39:19","新北市板橋區民生路二段120號","121.470445","25.0195233333333","6500100","板橋區"
"220013","072-UY","2018/10/01 13:39:11","新北市板橋區海山路1號","121.469953333333","25.0097966666667","6500100","板橋區"
"220034","073-UY","2018/10/01 13:39:18","新北市板橋區南雅西路二段175巷2號","121.45173","25.01257","6500100","板橋區"
"220017","AAD-861","2018/10/01 13:39:13","新北市板橋區華東街1-10號","121.448318333333","24.9951533333333","6500100","板橋區"
"247009","056-VK","2018/10/01 13:39:12","新北市五股區中興路三段163號","121.449178333333","25.0807783333333","6501400","蘆洲區"
"247003","002-UY","2018/10/01 13:39:21","新北市蘆洲區中原路81號","121.458098333333","25.08182","6501400","蘆洲區"
"247021","001-UY","2018/10/01 13:39:23","新北市五股區中興路三段2巷10號","121.449285","25.0809433333333","6501400","蘆洲區"
"226004","312-R5","2018/10/01 13:39:11","新北市新店區車子路10-3號","121.504545","24.9545633333333","6502400","平溪區"
"235007","251-BX","2018/10/01 13:39:14","新北市中和區景平路155號","121.513378333333","24.9923466666667","6500300","中和區"
"253003","6232-TK","2018/10/01 13:39:24","新北市石門區內石門22號","121.57026","25.273475","6502200","石門區"
"253001","6251-TK","2018/10/01 13:39:27","新北市石門區白沙灣別墅31號","121.510815","25.2778583333333","6502200","石門區"
"253002","637-UY","2018/10/01 13:39:28","新北市石門區內石門78-1號","121.568668333333","25.2563716666667","6502200","石門區"
"253004","8270-PC","2018/10/01 13:39:29","新北市石門區阿里荖60-1號","121.607373333333","25.2712666666667","6502200","石門區"
"207002","749-BX","2018/10/01 13:39:14","新北市萬里區崁腳里崁腳路166號","121.645101666667","25.15587","6502800","萬里區"
"252005","073-UM","2018/10/01 13:39:16","新北市三芝區圓山里內柑宅25號","121.538905","25.218895","6502100","三芝區"
"207001","662-BX","2018/10/01 13:39:26","新北市萬里區大鵬里萬里加投35-1號","121.645173333333","25.2109716666667","6502800","萬里區"
"237001","159-UY","2018/10/01 13:39:13","新北市樹林區柑園街二段276巷12弄15號","121.37437","24.953995","6500900","三峽區"
"236029","253-BX","2018/10/01 13:39:22","新北市土城區城林路6巷80號","121.438521666667","24.9797866666667","6501300","土城區"
"236032","271-VK","2018/10/01 13:39:12","新北市土城區城林路6巷80號","121.438498333333","24.9798133333333","6501300","土城區"
"236016","401-BY","2018/10/01 13:39:07","新北市土城區城林路6巷80號","121.438595","24.979865","6501300","土城區"
"236045","913-UM","2018/10/01 13:39:16","新北市土城區城林路6巷80號","121.43849","24.979755","6501300","土城區"
"236054","AAC-216","2018/10/01 13:39:29","新北市土城區城林路6巷80號","121.438708333333","24.979765","6501300","土城區"
"239006","661-UM","2018/10/01 13:39:27","新北市鶯歌區大湖路530巷2-2號","121.337681666667","24.9723116666667","6500800","鶯歌區"
"221010","269-BY","2018/10/01 13:39:21","新北市汐止區汐萬路一段312號","121.649985","25.07531","6501100","汐止區"
"220030","610-BX","2018/10/01 13:39:21","新北市板橋區篤行路一段29號","121.432036666667","24.9945783333333","6500100","板橋區"
"220004","276-BY","2018/10/01 13:39:13","新北市土城區廣興街38號","121.453443333333","24.9914816666667","6500100","板橋區"
"220020","277-BY","2018/10/01 13:39:20","新北市板橋區大觀路二段443-2號","121.438915","24.99522","6500100","板橋區"
"220019","283-VK","2018/10/01 13:39:22","新北市土城區四川路2號","121.455873333333","24.9961916666667","6500100","板橋區"
"220043","285-UM","2018/10/01 13:39:26","新北市板橋區民生路二段161巷5號","121.470125","25.01971","6500100","板橋區"
"220031","286-VK","2018/10/01 13:39:24","新北市板橋區大觀路二段163巷32號","121.446728333333","24.99995","6500100","板橋區"
"220029","287-VK","2018/10/01 13:39:24","新北市板橋區大觀路二段153巷39弄1號","121.447011666667","25.0005","6500100","板橋區"
"220039","288-VK","2018/10/01 13:39:23","新北市板橋區民生路二段120號","121.470326666667","25.01971","6500100","板橋區"
"220009","293-UM","2018/10/01 13:39:24","新北市板橋區民生路二段120號","121.470378333333","25.01963","6500100","板橋區"
"220032","296-UM","2018/10/01 13:39:13","新北市板橋區大觀路二段179巷33號","121.44644","24.99949","6500100","板橋區"
"220046","299-UM","2018/10/01 13:39:20","新北市板橋區民生路二段161巷1號","121.470225","25.01986","6500100","板橋區"
"220023","303-R5","2018/10/01 13:39:25","新北市板橋區南雅南路二段116號","121.452466666667","25.00057","6500100","板橋區"
"220012","486-VK","2018/10/01 13:39:10","新北市板橋區民生路二段36-1號","121.47231","25.0168533333333","6500100","板橋區"
"220104","560-BX","2018/10/01 13:39:18","新北市板橋區南雅西路二段177號","121.45181","25.012575","6500100","板橋區"
"220052","561-BX","2018/10/01 13:39:20","新北市板橋區民生路二段120號","121.470445","25.0197816666667","6500100","板橋區"
"220011","609-BX","2018/10/01 13:39:17","新北市板橋區民生路二段188號","121.470313333333","25.0203883333333","6500100","板橋區"
"220005","686-BX","2018/10/01 13:39:19","新北市板橋區華東街1-9號","121.4482","24.9949233333333","6500100","板橋區"
"220025","687-BX","2018/10/01 13:39:11","新北市板橋區大觀路三段212巷70號","121.42981","24.9935266666667","6500100","板橋區"
"220002","741-BX","2018/10/01 13:39:20","新北市板橋區華東街1-9號","121.448105","24.9949283333333","6500100","板橋區"
"220022","895-R6","2018/10/01 13:39:24","新北市板橋區南雅東路1號","121.455523333333","25.0055083333333","6500100","板橋區"
"220021","985-R7","2018/10/01 13:39:19","新北市板橋區南雅南路二段116號","121.452435","25.0004633333333","6500100","板橋區"
"220070","AAC-253","2018/10/01 13:39:20","新北市板橋區華東街1-9號","121.448261666667","24.9948866666667","6500100","板橋區"
"235032","KEA-2873","2018/10/01 13:39:14","新北市中和區中正路211巷13弄5號","121.49711","24.9931133333333","6500300","中和區"
"235025","KEA-2875","2018/10/01 13:39:25","新北市中和區民享街28號","121.473916666667","25.0035383333333","6500300","中和區"
"235024","KEA-2876","2018/10/01 13:39:21","新北市中和區中山路二段602號","121.48179","25.0053416666667","6500300","中和區"
