"lineid","car","time","location","longitude","latitude","cityid","cityname"
"234012","KEA-2591","2018/10/01 15:19:21","新北市永和區環河東路三段96號","121.529018333333","25.004495","6500400","永和區"
"244001","248-BX","2018/10/01 15:19:29","新北市林口區東林街17號","121.396085","25.0789733333333","6501700","林口區"
"243008","KEA-2801","2018/10/01 15:19:17","新北市泰山區文程路5號","121.427768333333","25.0495333333333","6501600","泰山區"
"231028","001-UM","2018/10/01 15:19:23","新北市新店區僑信路108巷42號","121.499015","24.946495","6500600","新店區"
"231002","002-UM","2018/10/01 15:19:13","新北市新店區中正路700巷1號","121.53399","24.9912133333333","6500600","新店區"
"231001","047-UY","2018/10/01 15:19:28","新北市新店區北新路一段311號","121.54156","24.967955","6500600","新店區"
"231005","106-UY","2018/10/01 15:19:33","新北市新店區建國路134號","121.539096666667","24.9789616666667","6500600","新店區"
"231019","110-UY","2018/10/01 15:19:23","新北市新店區永福路54-2號","121.558178333333","24.92868","6500600","新店區"
"231011","187-VK","2018/10/01 15:19:28","新北市新店區寶慶街74號","121.541618333333","24.9867966666667","6500600","新店區"
"231031","188-VK","2018/10/01 15:19:27","新北市新店區安泰路60巷55弄131號","121.484733333333","24.9470533333333","6500600","新店區"
"231026","256-BX","2018/10/01 15:19:26","新北市新店區中正路265巷15號","121.53792","24.9730833333333","6500600","新店區"
"231003","268-BY","2018/10/01 15:19:17","新北市新店區寶橋路230號","121.551568333333","24.978805","6500600","新店區"
"231018","278-BY","2018/10/01 15:19:25","新北市新店區中央七街58號","121.52807","24.9762183333333","6500600","新店區"
"231014","AAD-862","2018/10/01 15:14:59","新北市新店區明山路25號","121.56414","24.9558183333333","6500600","新店區"
"231037","4716-K9","2018/10/01 15:19:18","新北市新店區安民街341-1號","121.516613333333","24.9749633333333","6500600","新店區"
"231025","4715-K9","2018/10/01 15:19:15","新北市新店區中央路151號","121.529463333333","24.9724333333333","6500600","新店區"
"231036","512-UM","2018/10/01 15:19:28","新北市新店區安祥路69巷1號","121.482168333333","24.9619483333333","6500600","新店區"
"231034","616-UM","2018/10/01 15:19:22","新北市新店區如意街2巷2號","121.495716666667","24.9495933333333","6500600","新店區"
"231006","617-UM","2018/10/01 15:19:16","新北市新店區新坡一街102號","121.548316666667","24.9634583333333","6500600","新店區"
"231004","618-UM","2018/10/01 15:19:13","新北市新店區博愛街13巷24號","121.540275","24.9740666666667","6500600","新店區"
"231030","619-UM","2018/10/01 15:19:25","新北市新店區安民街341-1號","121.516796666667","24.97498","6500600","新店區"
"231039","718-UY","2018/10/01 15:19:14","新北市新店區寶元路一段65號","121.542255","24.98582","6500600","新店區"
"231035","719-UM","2018/10/01 15:19:21","新北市新店區永平街23巷8號","121.516671666667","24.9830733333333","6500600","新店區"
"231023","719-UY","2018/10/01 15:19:33","新北市新店區行政街45號","121.543048333333","24.965515","6500600","新店區"
"231029","897-TW","2018/10/01 15:19:25","新北市新店區安康路三段738號","121.473913333333","24.94205","6500600","新店區"
"231024","AKT-0513","2018/10/01 15:19:22","新北市新店區新明街26巷11號","121.540983333333","24.968695","6500600","新店區"
"241011","013-R5","2018/10/01 15:19:32","新北市三重區重新路四段121號","121.48477","25.0522483333333","6500200","三重區"
"241017","063-VK","2018/10/01 15:19:26","新北市三重區重新路四段121號","121.484996666667","25.0523883333333","6500200","三重區"
"241015","743-BX","2018/10/01 15:19:22","新北市五股區中興路二段35號","121.462148333333","25.0751916666667","6500200","三重區"
"235030","003-UY","2018/10/01 15:19:17","新北市中和區保平路293號","121.506481666667","25.00352","6500300","中和區"
"235014","4979-A6","2018/10/01 15:19:27","新北市中和區景平路448-1號","121.506385","24.9935733333333","6500300","中和區"
"235033","4980-A6","2018/10/01 15:19:26","新北市中和區圓通路172號","121.497335","24.9946433333333","6500300","中和區"
"235018","640-BX","2018/10/01 15:19:22","新北市樹林區佳園路三段99巷25號","121.38972","24.9521233333333","6500300","中和區"
"235012","896-TW","2018/10/01 15:19:27","新北市中和區興南路一段61號","121.510376666667","24.98963","6500300","中和區"
"235001","AAC-213","2018/10/01 15:19:31","新北市新店區安興路7號","121.515096666667","24.9682766666667","6500300","中和區"
"235023","AAC-215","2018/10/01 15:19:23","新北市中和區圓通路435巷3-3號","121.48815","24.9862466666667","6500300","中和區"
"220017","AAD-861","2018/10/01 15:19:33","新北市板橋區大明街20巷19弄19號","121.457733333333","25.0031116666667","6500100","板橋區"
"253003","6232-TK","2018/10/01 15:19:24","新北市石門區小坑9號","121.59435","25.2884216666667","6502200","石門區"
"253001","6251-TK","2018/10/01 15:19:27","新北市石門區小坑9號","121.594383333333","25.2891266666667","6502200","石門區"
"253002","637-UY","2018/10/01 15:19:28","新北市石門區阿里磅1號","121.589585","25.29109","6502200","石門區"
"253004","8270-PC","2018/10/01 15:19:29","新北市石門區小坑9號","121.594505","25.2892283333333","6502200","石門區"
"207002","749-BX","2018/10/01 15:19:14","新北市萬里區崁腳里內中福路2-1號","121.669423333333","25.1654916666667","6502800","萬里區"
"207001","662-BX","2018/10/01 15:19:31","新北市萬里區磺潭里員潭路1-1號","121.647","25.2029633333333","6502800","萬里區"
"236064","105-UM","2018/10/01 15:19:11","新北市土城區裕民路185巷36弄10號","121.454356666667","24.9845566666667","6501300","土城區"
"236074","166-UM","2018/10/01 15:19:17","新北市土城區中央路四段256號","121.414878333333","24.957015","6501300","土城區"
"236029","253-BX","2018/10/01 15:19:22","新北市土城區中央路一段262巷4號","121.443778333333","24.9840216666667","6501300","土城區"
"236024","269-VK","2018/10/01 15:19:24","新北市土城區學府路二段216號","121.444946666667","24.9781066666667","6501300","土城區"
"236012","270-VK","2018/10/01 15:19:28","新北市土城區廣福街7號","121.457255","24.98886","6501300","土城區"
"236032","271-VK","2018/10/01 15:19:32","新北市土城區國際路127-7號","121.467873333333","24.9760183333333","6501300","土城區"
"236016","401-BY","2018/10/01 15:19:27","新北市土城區峰廷街2號","121.468585","24.9878033333333","6501300","土城區"
"236040","752-BX","2018/10/01 15:19:22","新北市土城區裕民路185巷7號","121.453888333333","24.9848266666667","6501300","土城區"
"236057","912-UM","2018/10/01 15:19:32","新北市土城區中央路二段231號","121.440375","24.97244","6501300","土城區"
"236045","913-UM","2018/10/01 15:19:25","新北市土城區延吉街329-2號","121.46544","24.9840466666667","6501300","土城區"
"236060","915-UM","2018/10/01 15:19:28","新北市土城區延平街36號","121.468201666667","24.9919133333333","6501300","土城區"
"236054","AAC-216","2018/10/01 15:19:29","新北市土城區青雲路35號","121.460185","24.988385","6501300","土城區"
"238002","755-BX","2018/10/01 15:19:25","新北市樹林區復興路196號","121.419996666667","24.9910783333333","6500700","樹林區"
"238010","601-UM","2018/10/01 15:19:30","新北市樹林區中正路433號","121.41503","25.0085216666667","6500700","樹林區"
"238006","599-UM","2018/10/01 15:19:18","新北市樹林區八德街89號","121.420135","24.9813316666667","6500700","樹林區"
"238005","571-TV","2018/10/01 15:19:23","新北市樹林區樹新路106巷7號","121.429895","24.9982883333333","6500700","樹林區"
"238011","5061-A6","2018/10/01 15:19:25","新北市樹林區鎮前街193號","121.421351666667","24.9866833333333","6500700","樹林區"
"238009","KEA-2213","2018/10/01 15:19:17","新北市樹林區仁愛街79號","121.423788333333","24.982935","6500700","樹林區"
"238008","KEA-2539","2018/10/01 15:19:15","新北市樹林區西圳街一段165巷20弄11號","121.395626666667","24.9601783333333","6500700","樹林區"
"238012","303-VK","2018/10/01 15:19:23","新北市樹林區保安二街12號","121.424961666667","24.99399","6500700","樹林區"
"238004","283-BY","2018/10/01 15:19:21","新北市樹林區中正路35-1號","121.414928333333","25.0065516666667","6500700","樹林區"
"238001","282-BY","2018/10/01 15:19:27","新北市樹林區保安街一段206號","121.421203333333","24.996145","6500700","樹林區"
"238007","268-VK","2018/10/01 15:19:15","新北市樹林區樹新路106巷1號","121.43011","24.997695","6500700","樹林區"
"238013","172-UY","2018/10/01 15:19:29","新北市樹林區新興街11巷2號","121.401145","24.9733616666667","6500700","樹林區"
"238003","169-UY","2018/10/01 15:19:30","新北市樹林區八德街1號","121.417493333333","24.9849366666667","6500700","樹林區"
"220050","245-BX","2018/10/01 15:19:14","新北市板橋區莊敬路111號","121.472281666667","25.025855","6500100","板橋區"
"220001","285-VK","2018/10/01 15:19:24","新北市板橋區懷仁街87號","121.477448333333","25.018285","6500100","板橋區"
"220031","286-VK","2018/10/01 15:19:32","新北市板橋區僑中二街104巷28號","121.444918333333","25.00808","6500100","板橋區"
"220009","293-UM","2018/10/01 15:19:24","新北市板橋區四川路一段286巷26號","121.457823333333","25.0013366666667","6500100","板橋區"
"220010","305-R5","2018/10/01 15:19:19","新北市板橋區中山路二段617巷1弄2號","121.485335","25.0225583333333","6500100","板橋區"
"220041","307-R5","2018/10/01 15:19:22","新北市板橋區幸福路60巷58號","121.45948","25.02222","6500100","板橋區"
"220047","317-R6","2018/10/01 15:19:26","新北市三重區光復路二段87巷57號","121.475236666667","25.0591316666667","6500100","板橋區"
"220038","487-VK","2018/10/01 15:19:29","新北市板橋區互助街78號","121.460675","25.0264483333333","6500100","板橋區"
"220037","491-VK","2018/10/01 15:19:25","新北市板橋區懷德街127巷1號","121.478845","25.0308133333333","6500100","板橋區"
"220052","561-BX","2018/10/01 15:19:20","新北市板橋區文化路一段315號","121.465936666667","25.0204433333333","6500100","板橋區"
"220011","609-BX","2018/10/01 15:19:17","新北市板橋區中山路二段491號","121.482465","25.02086","6500100","板橋區"
"220042","689-BX","2018/10/01 15:19:24","新北市板橋區長江路二段201號","121.467473333333","25.0322783333333","6500100","板橋區"
"220051","KEA-2699","2018/10/01 15:19:20","新北市板橋區民生路二段250號","121.468308333333","25.0234933333333","6500100","板橋區"
"220018","AAC-253","2018/10/01 15:19:20","新北市板橋區德興街35號","121.453528333333","24.9938516666667","6500100","板橋區"
