"lineid","car","time","location","longitude","latitude","cityid","cityname"
"231046","107-UY","2018/10/01 16:09:28","新北市新店區灣潭路2-27號","121.536476666667","24.94982","6500600","新店區"
"231019","110-UY","2018/10/01 16:09:23","新北市新店區秀山路72號","121.531291666667","24.960965","6500600","新店區"
"231011","187-VK","2018/10/01 16:09:28","新北市新店區安民街133巷26號","121.515495","24.9696733333333","6500600","新店區"
"231018","278-BY","2018/10/01 16:09:25","新北市新店區中正路694巷15號","121.535378333333","24.9909016666667","6500600","新店區"
"231035","719-UM","2018/10/01 16:09:02","新北市新店區薏仁坑路2-1號","121.500561666667","24.95805","6500600","新店區"
"241011","013-R5","2018/10/01 16:09:32","新北市三重區正義北路388號","121.493245","25.0716266666667","6500200","三重區"
"241028","022-UY","2018/10/01 16:09:34","新北市三重區正義南路111號","121.49826","25.05858","6500200","三重區"
"241008","059-VK","2018/10/01 16:09:23","新北市三重區忠孝路二段94號","121.483601666667","25.06943","6500200","三重區"
"241022","060-VK","2018/10/01 16:09:31","新北市三重區市前街2號","121.488955","25.0618816666667","6500200","三重區"
"241031","061-VK","2018/10/01 16:09:13","新北市三重區重新路四段121號","121.484665","25.0521033333333","6500200","三重區"
"241015","062-VK","2018/10/01 16:09:34","新北市三重區福德南路53號","121.503258333333","25.0614116666667","6500200","三重區"
"241017","063-VK","2018/10/01 16:09:26","新北市三重區大同北路148巷51號","121.490835","25.0647683333333","6500200","三重區"
"241024","065-VK","2018/10/01 16:09:31","新北市三重區中正北路145巷9弄7號","121.485285","25.0678966666667","6500200","三重區"
"241026","066-VK","2018/10/01 16:09:31","新北市三重區正義南路15號","121.497793333333","25.061565","6500200","三重區"
"241002","090-VK","2018/10/01 16:09:32","新北市三重區仁義街91號","121.499786666667","25.079495","6500200","三重區"
"241003","091-VK","2018/10/01 15:54:00","新北市三重區環河北路三段6號","121.497526666667","25.08395","6500200","三重區"
"241005","262-UM","2018/10/01 16:09:15","新北市三重區溪尾街303號","121.487686666667","25.0836183333333","6500200","三重區"
"241016","266-UM","2018/10/01 16:09:23","新北市三重區重新路三段82號","121.493115","25.0610366666667","6500200","三重區"
"241018","268-UM","2018/10/01 16:09:33","新北市三重區明志街34號","121.491381666667","25.063805","6500200","三重區"
"241032","269-UM","2018/10/01 16:09:19","新北市三重區三陽路100巷3弄13號","121.483025","25.05815","6500200","三重區"
"241013","270-UM","2018/10/01 16:09:15","新北市三重區安樂街10號","121.496903333333","25.0697816666667","6500200","三重區"
"241025","271-UM","2018/10/01 16:09:26","新北市三重區中正北路208巷5號","121.482265","25.0671933333333","6500200","三重區"
"241007","398-BY","2018/10/01 16:09:26","新北市三重區慈愛街8號","121.48453","25.0783783333333","6500200","三重區"
"241004","475-VK","2018/10/01 16:09:32","新北市三重區泉州街96巷6號","121.495366666667","25.0539366666667","6500200","三重區"
"241020","478-VK","2018/10/01 16:09:26","新北市三重區車路頭街29號","121.483778333333","25.0707466666667","6500200","三重區"
"241030","480-VK","2018/10/01 16:09:27","新北市三重區重新路四段121號","121.484926666667","25.0527933333333","6500200","三重區"
"241014","543-UM","2018/10/01 16:09:30","新北市三重區泉州街84巷18號","121.496121666667","25.053845","6500200","三重區"
"241023","545-UM","2018/10/01 16:09:31","新北市三重區力行路一段58巷1號","121.484413333333","25.0689883333333","6500200","三重區"
"241001","547-UM","2018/10/01 16:09:17","新北市三重區自強路四段45-1號","121.489748333333","25.0777283333333","6500200","三重區"
"241006","AAD-863","2018/10/01 16:09:16","新北市三重區車路頭街139巷12號","121.484231666667","25.07622","6500200","三重區"
"241012","941-UM","2018/10/01 16:09:19","新北市三重區文化北路132巷35號","121.497705","25.0665883333333","6500200","三重區"
"241029","942-UM","2018/10/01 16:09:30","新北市三重區同安街24號","121.496268333333","25.0568333333333","6500200","三重區"
"241033","AAC-255","2018/10/01 16:09:21","新北市三重區五谷王南街50-1號","121.473851666667","25.04457","6500200","三重區"
"235046","733-UM","2018/10/01 15:49:27","新北市中和區員山路36巷13號","121.484178333333","24.99083","6500300","中和區"
"235026","800-TS","2018/10/01 16:09:26","新北市中和區永和路171巷1弄2號","121.49238","25.00692","6500300","中和區"
"247008","336-TH","2018/10/01 15:43:31","新北市五股區中興路三段2巷10號","121.449015","25.08094","6501400","蘆洲區"
"224007","275-VK","2018/10/01 16:09:24","新北市瑞芳區粗坑口路3-1號","121.761896666667","25.0986183333333","6501200","瑞芳區"
"224005","271-BY","2018/10/01 16:09:15","新北市瑞芳區中山路344號","121.796053333333","25.1102016666667","6501200","瑞芳區"
"227001","642-TC","2018/10/01 16:09:17","新北市雙溪區上林里內平林32號","121.834011666667","25.03113","6502500","雙溪區"
"227008","400-TW","2018/10/01 16:09:28","新北市雙溪區三港里雙澳路70-1號","121.881451666667","25.0543983333333","6502500","雙溪區"
"251008","KEA-2871","2018/10/01 16:09:27","新北市淡水區新民街294號","121.435226666667","25.1820583333333","6501000","淡水區"
"236057","912-UM","2018/10/01 16:09:19","新北市土城區中央路三段73-2號","121.438603333333","24.9690233333333","6501300","土城區"
"238002","755-BX","2018/10/01 16:09:25","新北市樹林區大安路323巷10弄8號","121.417416666667","24.99121","6500700","樹林區"
"238010","601-UM","2018/10/01 16:09:31","新北市樹林區三福街67巷4號","121.407753333333","25.0158866666667","6500700","樹林區"
"238006","599-UM","2018/10/01 16:09:18","新北市樹林區八德街82號","121.41999","24.9814","6500700","樹林區"
"238011","5061-A6","2018/10/01 16:09:25","新北市樹林區育德街78-1號","121.387361666667","24.9681683333333","6500700","樹林區"
"238009","KEA-2213","2018/10/01 16:09:18","新北市樹林區太平路174巷5弄1號","121.417986666667","24.9766283333333","6500700","樹林區"
"238012","303-VK","2018/10/01 16:09:23","新北市樹林區中正路22-1號","121.427801666667","24.99938","6500700","樹林區"
"238004","283-BY","2018/10/01 16:09:21","新北市樹林區中正路433-2號","121.414961666667","25.0081433333333","6500700","樹林區"
"238001","282-BY","2018/10/01 16:09:27","新北市樹林區千歲街34號","121.425638333333","24.9965733333333","6500700","樹林區"
"238007","268-VK","2018/10/01 16:09:34","新北市樹林區三龍街81號","121.416023333333","25.0185","6500700","樹林區"
"238013","172-UY","2018/10/01 16:09:29","新北市樹林區佳園路一段41巷18號","121.393946666667","24.9710516666667","6500700","樹林區"
"238003","169-UY","2018/10/01 16:09:00","新北市樹林區文化街25巷34號","121.417705","24.9864166666667","6500700","樹林區"
"220050","245-BX","2018/10/01 16:09:35","新北市林口區太平里180號","121.368298333333","25.13421","6500100","板橋區"
