"lineid","car","time","location","longitude","latitude","cityid","cityname"
"231046","107-UY","2018/10/01 16:19:17","新北市新店區灣潭路3-2號","121.538305","24.950855","6500600","新店區"
"231018","278-BY","2018/10/01 16:19:25","台北市文山區景文街146巷22號","121.532903333333","24.9926666666667","6500600","新店區"
"231035","719-UM","2018/10/01 16:15:02","新北市新店區薏仁坑路自強巷1號","121.497465","24.9579366666667","6500600","新店區"
"241011","013-R5","2018/10/01 16:19:11","新北市三重區龍門路68號","121.496791666667","25.07256","6500200","三重區"
"241028","022-UY","2018/10/01 16:19:34","新北市三重區正義南路165號","121.498716666667","25.0574416666667","6500200","三重區"
"241008","059-VK","2018/10/01 16:19:23","新北市三重區永福街112號","121.47903","25.0754266666667","6500200","三重區"
"241022","060-VK","2018/10/01 16:19:29","新北市三重區新北大道一段9號","121.488885","25.0606433333333","6500200","三重區"
"241031","061-VK","2018/10/01 16:19:34","新北市三重區重新路四段121號","121.484715","25.05191","6500200","三重區"
"241015","062-VK","2018/10/01 16:19:14","新北市三重區福德北路58號","121.501856666667","25.0658516666667","6500200","三重區"
"241017","063-VK","2018/10/01 16:19:26","新北市三重區大同北路85號","121.494846666667","25.0636833333333","6500200","三重區"
"241024","065-VK","2018/10/01 16:19:31","新北市三重區中正北路145巷3弄2號","121.483491666667","25.0676233333333","6500200","三重區"
"241026","066-VK","2018/10/01 16:19:31","新北市三重區正義南路60-6號","121.498435","25.0602266666667","6500200","三重區"
"241002","090-VK","2018/10/01 16:19:12","新北市三重區仁義街91號","121.49976","25.0794983333333","6500200","三重區"
"241003","091-VK","2018/10/01 15:54:00","新北市三重區環河北路三段6號","121.497526666667","25.08395","6500200","三重區"
"251014","742-BX","2018/10/01 16:19:25","新北市淡水區中正路二段31號","121.419516666667","25.1817133333333","6501000","淡水區"
"241005","262-UM","2018/10/01 16:19:15","新北市三重區溪尾街303號","121.487663333333","25.0835566666667","6500200","三重區"
"241016","266-UM","2018/10/01 16:19:23","新北市三重區大仁街94號","121.492886666667","25.0655583333333","6500200","三重區"
"241009","267-UM","2018/10/01 16:19:27","新北市三重區溪尾街196巷7號","121.487895","25.0808766666667","6500200","三重區"
"241018","268-UM","2018/10/01 16:19:33","新北市三重區重陽路三段39號","121.489401666667","25.0670466666667","6500200","三重區"
"241032","269-UM","2018/10/01 16:19:19","新北市三重區三陽路100巷3弄13號","121.48304","25.0581266666667","6500200","三重區"
"241013","270-UM","2018/10/01 16:19:15","新北市三重區三和路三段83巷28號","121.495685","25.07248","6500200","三重區"
"241025","271-UM","2018/10/01 16:19:18","新北市三重區中正北路560巷100弄17-1號","121.472805","25.0683233333333","6500200","三重區"
"241007","398-BY","2018/10/01 16:19:26","新北市三重區三和路四段163巷109號","121.487021666667","25.0797083333333","6500200","三重區"
"241004","475-VK","2018/10/01 16:19:32","新北市三重區自強路五段65號","121.494826666667","25.0819766666667","6500200","三重區"
"241020","478-VK","2018/10/01 16:19:26","新北市三重區三張街272號","121.48379","25.0711516666667","6500200","三重區"
"241030","480-VK","2018/10/01 16:19:27","新北市三重區重新路四段121號","121.484971666667","25.052885","6500200","三重區"
"241014","543-UM","2018/10/01 16:19:30","新北市三重區河邊北街96-1號","121.504003333333","25.069935","6500200","三重區"
"241023","545-UM","2018/10/01 16:19:31","新北市三重區忠孝路三段12號","121.481821666667","25.0673833333333","6500200","三重區"
"241001","547-UM","2018/10/01 16:19:17","新北市三重區自強路四段87號","121.491115","25.07935","6500200","三重區"
"241006","AAD-863","2018/10/01 16:19:16","新北市三重區永福街46巷14號","121.482251666667","25.07717","6500200","三重區"
"241012","941-UM","2018/10/01 16:19:19","新北市三重區河邊北街313號","121.502441666667","25.07487","6500200","三重區"
"241029","942-UM","2018/10/01 16:19:30","新北市三重區泉州街84巷4-3號","121.495181666667","25.0545283333333","6500200","三重區"
"241033","AAC-255","2018/10/01 16:19:21","新北市三重區重新路五段442號","121.474925","25.0471566666667","6500200","三重區"
"235046","733-UM","2018/10/01 15:49:27","新北市中和區員山路36巷13號","121.484178333333","24.99083","6500300","中和區"
"235026","800-TS","2018/10/01 16:19:26","新北市中和區中山路二段327巷20號","121.493121666667","25.0002833333333","6500300","中和區"
"224007","275-VK","2018/10/01 16:19:24","新北市瑞芳區大埔路108號","121.76233","25.1018816666667","6501200","瑞芳區"
"224005","271-BY","2018/10/01 16:17:15","新北市瑞芳區明燈路二段50號","121.80938","25.10783","6501200","瑞芳區"
"227001","642-TC","2018/10/01 16:19:17","新北市雙溪區上林里內平林80號","121.828401666667","25.02796","6502500","雙溪區"
"227008","400-TW","2018/10/01 16:19:28","新北市雙溪區三港里雙澳路80號","121.883815","25.0538933333333","6502500","雙溪區"
"251008","KEA-2871","2018/10/01 16:19:27","新北市淡水區北新路一段339號","121.46624","25.18224","6501000","淡水區"
"238002","755-BX","2018/10/01 16:19:25","新北市樹林區中山路二段249巷2號","121.401873333333","24.9757866666667","6500700","樹林區"
"238006","599-UM","2018/10/01 16:19:18","新北市樹林區東榮街147巷4弄16號","121.414351666667","24.9809483333333","6500700","樹林區"
"238009","KEA-2213","2018/10/01 16:19:17","新北市樹林區八德街263-1號","121.419266666667","24.9737783333333","6500700","樹林區"
"238012","303-VK","2018/10/01 16:19:23","新北市樹林區中正路22-1號","121.427843333333","24.9993983333333","6500700","樹林區"
"238004","283-BY","2018/10/01 16:19:20","新北市樹林區中正路433-1號","121.414906666667","25.0081416666667","6500700","樹林區"
"238001","282-BY","2018/10/01 16:19:27","新北市樹林區千歲街63-1號","121.426676666667","24.99826","6500700","樹林區"
"238007","268-VK","2018/10/01 16:19:15","新北市樹林區三俊街65巷2號","121.413461666667","25.0163083333333","6500700","樹林區"
"238003","169-UY","2018/10/01 16:19:30","新北市樹林區備前街34-2號","121.417383333333","24.985975","6500700","樹林區"
"220050","245-BX","2018/10/01 16:18:55","新北市八里區荖阡坑路28-2號","121.402995","25.127835","6500100","板橋區"
