"lineid","car","time","location","longitude","latitude","cityid","cityname"
"231046","107-UY","2018/10/01 16:28:57","新北市新店區灣潭路3-2號","121.538323333333","24.950835","6500600","新店區"
"241011","013-R5","2018/10/01 16:28:59","新北市三重區秀江街57號","121.500943333333","25.0726683333333","6500200","三重區"
"241028","022-UY","2018/10/01 16:28:54","新北市三重區仁化街192號","121.494915","25.056555","6500200","三重區"
"241008","059-VK","2018/10/01 16:29:04","新北市三重區力行路二段136巷45弄12號","121.479108333333","25.0754316666667","6500200","三重區"
"241022","060-VK","2018/10/01 16:28:49","新北市三重區新北大道一段86巷10號","121.486083333333","25.06189","6500200","三重區"
"241031","061-VK","2018/10/01 16:28:54","新北市三重區重陽路一段45號","121.486763333333","25.0581666666667","6500200","三重區"
"241015","062-VK","2018/10/01 16:28:54","新北市三重區福德北路46號","121.501968333333","25.0654066666667","6500200","三重區"
"241017","063-VK","2018/10/01 16:28:46","新北市三重區大同北路83號","121.494903333333","25.06365","6500200","三重區"
"241024","065-VK","2018/10/01 16:28:51","新北市三重區中正北路235號","121.475763333333","25.07069","6500200","三重區"
"241026","066-VK","2018/10/01 16:28:51","新北市三重區文化南路42號","121.500375","25.0603966666667","6500200","三重區"
"241002","090-VK","2018/10/01 16:29:01","新北市三重區五華街7巷14號","121.495718333333","25.0803116666667","6500200","三重區"
"241003","091-VK","2018/10/01 16:28:40","新北市三重區五華街87巷72號","121.494115","25.0845316666667","6500200","三重區"
"251014","742-BX","2018/10/01 16:28:45","新北市淡水區濱海路三段148巷50弄78號","121.430651666667","25.1900716666667","6501000","淡水區"
"241005","262-UM","2018/10/01 16:28:55","新北市三重區溪尾街305號","121.487563333333","25.0836566666667","6500200","三重區"
"241016","266-UM","2018/10/01 16:29:03","新北市三重區大智街21號","121.494238333333","25.0658216666667","6500200","三重區"
"241009","267-UM","2018/10/01 16:28:34","新北市三重區三和路四段191巷74號","121.484201666667","25.0797516666667","6500200","三重區"
"241018","268-UM","2018/10/01 16:28:53","新北市三重區重陽路三段97號","121.490253333333","25.06807","6500200","三重區"
"241032","269-UM","2018/10/01 16:28:59","新北市三重區三陽路116巷4號","121.483093333333","25.0580866666667","6500200","三重區"
"241013","270-UM","2018/10/01 16:28:55","新北市三重區三和路三段83巷142號","121.498278333333","25.0732616666667","6500200","三重區"
"241025","271-UM","2018/10/01 16:28:58","新北市三重區中正北路560巷100弄17-1號","121.472788333333","25.0683083333333","6500200","三重區"
"241007","398-BY","2018/10/01 16:28:47","新北市三重區三和路四段167巷129號","121.48771","25.0802266666667","6500200","三重區"
"241004","475-VK","2018/10/01 16:28:52","新北市三重區仁愛街377巷30號","121.49212","25.0806966666667","6500200","三重區"
"241020","478-VK","2018/10/01 16:28:46","新北市三重區車路頭街37巷2號","121.483953333333","25.0717316666667","6500200","三重區"
"241030","480-VK","2018/10/01 16:28:47","新北市三重區成功路106-1號","121.487615","25.05158","6500200","三重區"
"241014","543-UM","2018/10/01 16:28:50","新北市三重區長壽街196號","121.504201666667","25.0690366666667","6500200","三重區"
"241023","545-UM","2018/10/01 16:28:52","新北市三重區忠孝路三段50巷43號","121.482863333333","25.06453","6500200","三重區"
"241001","547-UM","2018/10/01 16:28:57","新北市三重區福隆路44號","121.492366666667","25.0783683333333","6500200","三重區"
"241006","AAD-863","2018/10/01 16:28:56","新北市三重區力行路二段184號","121.483361666667","25.0772183333333","6500200","三重區"
"241012","941-UM","2018/10/01 16:28:59","新北市三重區河邊北街379-1號","121.501731666667","25.0765166666667","6500200","三重區"
"241029","942-UM","2018/10/01 16:28:50","新北市三重區集美街126巷2號","121.489075","25.0536716666667","6500200","三重區"
"241033","AAC-255","2018/10/01 16:29:00","新北市三重區重新路五段317巷1弄20號","121.478131666667","25.04951","6500200","三重區"
"235026","800-TS","2018/10/01 16:28:46","新北市中和區建八路130號","121.488998333333","24.99845","6500300","中和區"
"247008","336-TH","2018/10/01 16:28:45","新北市五股區中興路三段163號","121.44927","25.080575","6501400","蘆洲區"
"247010","056-VK","2018/10/01 16:28:32","新北市五股區中興路三段163號","121.449126666667","25.0806233333333","6501400","蘆洲區"
"247004","002-UY","2018/10/01 16:29:01","新北市五股區中興路三段2巷10號","121.449171666667","25.0808216666667","6501400","蘆洲區"
"224007","275-VK","2018/10/01 16:29:04","新北市瑞芳區瑞竹路69-2號","121.764001666667","25.1029583333333","6501200","瑞芳區"
"224005","271-BY","2018/10/01 16:28:54","新北市瑞芳區阿美家園53號","121.821018333333","25.1173016666667","6501200","瑞芳區"
"227001","642-TC","2018/10/01 16:29:04","新北市雙溪區上林里內平林111號","121.826138333333","25.026935","6502500","雙溪區"
"227008","400-TW","2018/10/01 16:28:48","新北市雙溪區三港里雙澳路37-5號","121.872551666667","25.0506016666667","6502500","雙溪區"
"251008","KEA-2871","2018/10/01 16:28:47","新北市淡水區北新路三段162號","121.49238","25.1915316666667","6501000","淡水區"
"238006","599-UM","2018/10/01 16:28:58","新北市樹林區東華街73號","121.415626666667","24.9808116666667","6500700","樹林區"
"238012","303-VK","2018/10/01 16:28:43","新北市樹林區中正路22-1號","121.427878333333","24.9993716666667","6500700","樹林區"
"238004","283-BY","2018/10/01 16:29:00","新北市樹林區中正路433-2號","121.414913333333","25.00817","6500700","樹林區"
"238001","282-BY","2018/10/01 16:28:47","新北市樹林區中正路22-1號","121.427718333333","24.99964","6500700","樹林區"
"238007","268-VK","2018/10/01 16:28:55","新北市樹林區俊英街121巷2號","121.424575","25.01048","6500700","樹林區"
"220050","245-BX","2018/10/01 16:28:55","新北市三重區五谷王北街181-1號","121.477985","25.05375","6500100","板橋區"
