"lineid","car","time","location","longitude","latitude","cityid","cityname"
"249005","172-UM","2018/10/01 17:09:02","新北市八里區華富山3-1號","121.416146666667","25.146195","6502300","八里區"
"249001","173-UM","2018/10/01 17:08:46","新北市八里區商港路36號","121.396458333333","25.1448533333333","6502300","八里區"
"249004","303-UY","2018/10/01 17:09:01","新北市八里區忠孝路181號","121.42291","25.1607866666667","6502300","八里區"
"249002","305-UY","2018/10/01 17:08:33","新北市八里區米倉14-6號","121.439405","25.1499083333333","6502300","八里區"
"249003","593-UM","2018/10/01 17:08:45","新北市八里區中山路二段516號","121.397931666667","25.1467483333333","6502300","八里區"
"244022","069-UM","2018/10/01 17:08:54","新北市林口區仁愛路一段348號","121.390645","25.07654","6501700","林口區"
"244007","080-UY","2018/10/01 17:08:45","新北市林口區中湖50號","121.377083333333","25.0917266666667","6501700","林口區"
"244019","403-UM","2018/10/01 17:08:59","新北市林口區仁愛路二段22號","121.385561666667","25.0760866666667","6501700","林口區"
"244013","KEA-2802","2018/10/01 17:08:53","新北市林口區粉寮路二段88巷100-12號","121.409546666667","25.0902183333333","6501700","林口區"
"244017","485-VK","2018/10/01 17:09:01","新北市林口區粉寮路二段88巷100-12號","121.409765","25.0902033333333","6501700","林口區"
"244009","656-BX","2018/10/01 17:08:52","新北市林口區粉寮1號","121.397338333333","25.079795","6501700","林口區"
"244025","837-TS","2018/10/01 17:08:52","新北市林口區粉寮路一段77-1號","121.397051666667","25.07928","6501700","林口區"
"244021","838-TS","2018/10/01 17:08:51","新北市林口區粉寮路二段66-1號","121.403976666667","25.0876683333333","6501700","林口區"
"231046","107-UY","2018/10/01 17:08:57","新北市新店區直潭路92號","121.530926666667","24.9376066666667","6500600","新店區"
"241011","013-R5","2018/10/01 17:08:51","新北市三重區龍濱路285號","121.501043333333","25.0733433333333","6500200","三重區"
"241028","022-UY","2018/10/01 17:08:54","新北市三重區重新路三段110號","121.492301666667","25.0602633333333","6500200","三重區"
"241008","059-VK","2018/10/01 17:08:59","新北市三重區力行路二段136巷21號","121.481491666667","25.0755866666667","6500200","三重區"
"241022","060-VK","2018/10/01 17:08:49","新北市三重區重陽路二段22號","121.48654","25.06267","6500200","三重區"
"241031","061-VK","2018/10/01 17:08:53","新北市三重區重陽路一段113巷2弄2號","121.48751","25.05986","6500200","三重區"
"241015","062-VK","2018/10/01 17:08:54","新北市三重區長生街16號","121.499275","25.0664133333333","6500200","三重區"
"241017","063-VK","2018/10/01 17:08:46","新北市三重區國隆路27號","121.492638333333","25.0643","6500200","三重區"
"241024","065-VK","2018/10/01 17:08:51","新北市三重區大勇街82巷26弄19-1號","121.478696666667","25.0721816666667","6500200","三重區"
"241026","066-VK","2018/10/01 17:08:51","新北市三重區重新路一段71號","121.501528333333","25.06351","6500200","三重區"
"241002","090-VK","2018/10/01 17:08:52","新北市三重區五華街35巷46號","121.49553","25.08155","6500200","三重區"
"251014","742-BX","2018/10/01 17:08:45","新北市淡水區八里堆7-5號","121.460486666667","25.2253633333333","6501000","淡水區"
"241005","262-UM","2018/10/01 17:08:55","新北市三重區仁華街5號","121.48343","25.0813133333333","6500200","三重區"
"241016","266-UM","2018/10/01 17:08:03","新北市三重區大同北路140號","121.492686666667","25.0649716666667","6500200","三重區"
"241009","267-UM","2018/10/01 17:08:54","新北市三重區三和路四段398-2號","121.481381666667","25.0795516666667","6500200","三重區"
"241018","268-UM","2018/10/01 17:08:52","新北市三重區大智街109號","121.491658333333","25.0694483333333","6500200","三重區"
"241032","269-UM","2018/10/01 17:08:59","新北市三重區三陽路13巷1號","121.486076666667","25.0595833333333","6500200","三重區"
"241013","270-UM","2018/10/01 17:08:55","新北市三重區仁孝街62號","121.497301666667","25.0744966666667","6500200","三重區"
"241025","271-UM","2018/10/01 17:08:58","新北市三重區中正北路560巷61號","121.470921666667","25.0697233333333","6500200","三重區"
"241007","398-BY","2018/10/01 17:08:46","新北市三重區三和路四段163巷36號","121.485451666667","25.07928","6500200","三重區"
"241004","475-VK","2018/10/01 17:08:52","新北市三重區五華街98巷2號","121.492463333333","25.0823","6500200","三重區"
"241020","478-VK","2018/10/01 17:09:06","新北市三重區後竹圍街173-1號","121.486173333333","25.071905","6500200","三重區"
"241030","480-VK","2018/10/01 17:09:07","新北市三重區集成路18號","121.48867","25.0521966666667","6500200","三重區"
"241014","543-UM","2018/10/01 17:08:50","新北市三重區龍濱路128號","121.501706666667","25.07165","6500200","三重區"
"241023","545-UM","2018/10/01 17:08:51","新北市三重區忠孝路三段84巷1號","121.480251666667","25.0645883333333","6500200","三重區"
"241001","547-UM","2018/10/01 17:08:56","新北市三重區仁愛街245巷12號","121.493841666667","25.0782316666667","6500200","三重區"
"241019","KEA-2593","2018/10/01 17:08:54","新北市三重區力行路一段153巷50號","121.486458333333","25.06932","6500200","三重區"
"241006","AAD-863","2018/10/01 17:08:56","新北市三重區三和路四段264巷15號","121.48503","25.07675","6500200","三重區"
"241012","941-UM","2018/10/01 17:08:59","新北市三重區仁壽街160號","121.500073333333","25.0744933333333","6500200","三重區"
"241029","942-UM","2018/10/01 17:08:56","新北市三重區重新路三段204號","121.490033333333","25.0584983333333","6500200","三重區"
"241033","AAC-255","2018/10/01 17:09:00","新北市三重區中興北街275號","121.469381666667","25.060735","6500200","三重區"
"247012","KEA-2869","2018/10/01 17:08:46","新北市蘆洲區信義路353號","121.477665","25.0874333333333","6501400","蘆洲區"
"247002","893-R6","2018/10/01 17:09:04","新北市蘆洲區永樂街45號","121.457086666667","25.0884083333333","6501400","蘆洲區"
"247016","546-UM","2018/10/01 17:09:05","新北市蘆洲區光華路73巷3號","121.46819","25.0824733333333","6501400","蘆洲區"
"247024","500-BY","2018/10/01 17:08:57","新北市蘆洲區光復路13號","121.462516666667","25.084535","6501400","蘆洲區"
"247014","339-TH","2018/10/01 17:09:04","新北市蘆洲區得勝街30號","121.473621666667","25.0838516666667","6501400","蘆洲區"
"247006","337-TH","2018/10/01 17:08:50","新北市蘆洲區長安街102巷26號","121.462875","25.08209","6501400","蘆洲區"
"247008","336-TH","2018/10/01 17:08:45","新北市蘆洲區信義路30巷30號","121.474481666667","25.07854","6501400","蘆洲區"
"247020","057-VK","2018/10/01 17:08:47","新北市蘆洲區民族路422巷57弄8號","121.472076666667","25.0943616666667","6501400","蘆洲區"
"247010","056-VK","2018/10/01 17:09:01","新北市蘆洲區民族路34號","121.476458333333","25.0844183333333","6501400","蘆洲區"
"247018","007-UY","2018/10/01 17:08:52","新北市蘆洲區復興路87巷8號","121.476288333333","25.0877283333333","6501400","蘆洲區"
"247004","002-UY","2018/10/01 17:08:41","新北市蘆洲區長安街193巷37號","121.45931","25.081165","6501400","蘆洲區"
"247022","001-UY","2018/10/01 17:08:50","新北市蘆洲區三民路251號","121.468516666667","25.089405","6501400","蘆洲區"
"228003","097-TW","2018/10/01 17:08:52","新北市貢寮區福隆里東興街10號","121.950878333333","25.0188116666667","6502600","貢寮區"
"228002","663-BX","2018/10/01 17:08:46","新北市貢寮區龍崗里嵩陽街55號","121.907708333333","25.01658","6502600","貢寮區"
"228001","670-TC","2018/10/01 17:08:59","新北市貢寮區仁理村研海街45號","121.926768333333","25.03991","6502600","貢寮區"
"224006","676-BX","2018/10/01 17:09:01","新北市瑞芳區大寮路91號","121.780833333333","25.0975916666667","6501200","瑞芳區"
"224008","285-BY","2018/10/01 17:08:52","新北市瑞芳區九芎橋路4號","121.831831666667","25.09065","6501200","瑞芳區"
"224009","273-VK","2018/10/01 17:09:06","新北市瑞芳區八號巷20號","121.842843333333","25.1106366666667","6501200","瑞芳區"
"224005","271-BY","2018/10/01 17:08:54","新北市瑞芳區鼻頭路247號","121.908031666667","25.1214566666667","6501200","瑞芳區"
"227001","642-TC","2018/10/01 17:08:57","新北市雙溪區長源里柑腳13號","121.805706666667","25.014535","6502500","雙溪區"
"227008","400-TW","2018/10/01 17:09:01","新北市雙溪區牡丹里下坑29號","121.850135","25.0567883333333","6502500","雙溪區"
"251009","008-UM","2018/10/01 17:08:53","新北市淡水區三民街22號","121.439056666667","25.17179","6501000","淡水區"
"251005","010-UM","2018/10/01 17:08:53","新北市淡水區水源街一段150號","121.448128333333","25.1714883333333","6501000","淡水區"
"251013","KEA-2871","2018/10/01 17:08:47","新北市淡水區大埤頭2號","121.488906666667","25.1954033333333","6501000","淡水區"
"251008","179-VK","2018/10/01 17:08:58","新北市淡水區樹梅坑7-6號","121.4717","25.1441216666667","6501000","淡水區"
"251015","180-VK","2018/10/01 17:08:55","新北市淡水區樹林口41號","121.472621666667","25.16805","6501000","淡水區"
"251010","413-VK","2018/10/01 17:09:03","新北市淡水區中正路二段31號","121.419466666667","25.18154","6501000","淡水區"
"251012","441-VK","2018/10/01 17:08:52","新北市淡水區中山北路一段158號","121.444251666667","25.177875","6501000","淡水區"
"251007","442-VK","2018/10/01 17:08:49","新北市淡水區中正東路二段71號","121.459441666667","25.1543983333333","6501000","淡水區"
"251004","443-VK","2018/10/01 17:08:50","新北市淡水區中正路55號","121.441726666667","25.169495","6501000","淡水區"
"251006","561-UM","2018/10/01 17:09:03","新北市淡水區真理街6號","121.43845","25.174535","6501000","淡水區"
"251016","575-R6","2018/10/01 17:08:49","新北市淡水區口湖子2-2號","121.477016666667","25.1887466666667","6501000","淡水區"
"251011","650-BX","2018/10/01 17:08:47","新北市淡水區坪頂路50號","121.457943333333","25.1625916666667","6501000","淡水區"
"251002","672-BX","2018/10/01 17:08:49","新北市淡水區中正路二段31號","121.419433333333","25.1817416666667","6501000","淡水區"
"252002","178-VK","2018/10/01 17:08:55","新北市三芝區忠孝街1-13號","121.505471666667","25.2541316666667","6502100","三芝區"
"252001","292-VK","2018/10/01 17:08:51","新北市三芝區埔頭里埔頭39-3號","121.499275","25.2609","6502100","三芝區"
"237011","KEA-2596","2018/10/01 17:08:46","新北市三峽區中山路459巷163-3號","121.349115","24.9332733333333","6500900","三峽區"
"242058","986-R7","2018/10/01 17:08:58","新北市新莊區新泰路255巷83號","121.442293333333","25.0391616666667","6500500","新莊區"
"242056","751-BX","2018/10/01 17:08:56","新北市新莊區新泰路357巷3弄1號","121.442316666667","25.04166","6500500","新莊區"
"242029","705-TV","2018/10/01 17:08:48","新北市新莊區新泰路255巷83號","121.442235","25.03908","6500500","新莊區"
"242044","566-BX","2018/10/01 17:08:47","新北市新莊區新泰路361巷23號","121.442288333333","25.0429866666667","6500500","新莊區"
"242048","497-BY","2018/10/01 17:08:43","新北市新莊區中正路612號","121.426498333333","25.03018","6500500","新莊區"
"242053","441-UM","2018/10/01 17:08:48","新北市泰山區磚雅厝3號","121.44228","25.0417716666667","6500500","新莊區"
"242002","440-UM","2018/10/01 17:08:49","新北市新莊區新泰路255巷83號","121.442356666667","25.03882","6500500","新莊區"
"242039","415-TV","2018/10/01 17:08:47","新北市新莊區新泰路369巷24號","121.44236","25.0434133333333","6500500","新莊區"
"242009","413-TV","2018/10/01 17:08:50","新北市新莊區新泰路357巷3弄57號","121.442086666667","25.0394233333333","6500500","新莊區"
"242046","400-BY","2018/10/01 17:08:46","新北市新莊區新泰路357巷3弄57號","121.442266666667","25.0395366666667","6500500","新莊區"
"242023","362-BY","2018/10/01 17:08:45","新北市新莊區新泰路255巷83號","121.442108333333","25.0390016666667","6500500","新莊區"
"242060","353-BY","2018/10/01 17:08:56","新北市新莊區新泰路357巷3弄57號","121.442116666667","25.03919","6500500","新莊區"
"242042","133-UY","2018/10/01 17:08:45","新北市新莊區中正路400號","121.441903333333","25.0344133333333","6500500","新莊區"
"242019","175-VK","2018/10/01 17:08:51","新北市新莊區三和路12-21號","121.442071666667","25.0386883333333","6500500","新莊區"
"242031","348-TH","2018/10/01 17:09:02","新北市新莊區新泰路357巷3弄57號","121.442101666667","25.0396166666667","6500500","新莊區"
"242021","350-TH","2018/10/01 17:08:49","新北市新莊區新泰路255巷83號","121.442231666667","25.0389616666667","6500500","新莊區"
"242015","351-TH","2018/10/01 17:08:58","新北市新莊區新泰路357巷3弄57號","121.442128333333","25.0395566666667","6500500","新莊區"
"238015","755-BX","2018/10/01 17:08:50","新北市樹林區八德街598巷4號","121.397565","24.9705933333333","6500700","樹林區"
"238023","601-UM","2018/10/01 17:08:50","新北市樹林區中正路433號","121.414988333333","25.0086483333333","6500700","樹林區"
"238019","599-UM","2018/10/01 17:08:58","新北市樹林區八德街1020號","121.391175","24.9684866666667","6500700","樹林區"
"238018","571-TV","2018/10/01 17:08:58","新北市樹林區博愛街215號","121.424043333333","24.986755","6500700","樹林區"
"238022","KEA-2213","2018/10/01 17:08:57","新北市樹林區國凱街82-2號","121.421345","24.9792083333333","6500700","樹林區"
"238021","KEA-2539","2018/10/01 17:08:51","新北市樹林區西圳街一段165巷20弄11號","121.395661666667","24.9602233333333","6500700","樹林區"
"238025","303-VK","2018/10/01 17:09:03","新北市樹林區中正路22-1號","121.427828333333","24.9992933333333","6500700","樹林區"
"238017","283-BY","2018/10/01 17:09:00","新北市樹林區光武街7-3號","121.41575","25.00541","6500700","樹林區"
"238001","282-BY","2018/10/01 17:08:47","新北市樹林區大慶街99-1號","121.427773333333","24.999755","6500700","樹林區"
"238020","268-VK","2018/10/01 17:08:55","新北市樹林區福德街3號","121.401736666667","24.975755","6500700","樹林區"
"238026","172-UY","2018/10/01 17:08:58","新北市樹林區中山路三段210-2號","121.380553333333","24.966915","6500700","樹林區"
"238016","169-UY","2018/10/01 17:08:50","新北市樹林區中山路二段10號","121.417353333333","24.985245","6500700","樹林區"
"239007","AAC-297","2018/10/01 17:09:02","新北市鶯歌區信義街119號","121.353488333333","24.954525","6500800","鶯歌區"
"239006","891-R6","2018/10/01 17:09:03","新北市鶯歌區八德路2巷37弄10號","121.337145","24.946435","6500800","鶯歌區"
"239008","527-UM","2018/10/01 17:08:50","新北市鶯歌區尖山路89號","121.348693333333","24.949395","6500800","鶯歌區"
"239005","526-UM","2018/10/01 17:09:06","新北市鶯歌區鶯桃路311號","121.333836666667","24.9607916666667","6500800","鶯歌區"
"239001","417-VK","2018/10/01 17:08:50","新北市鶯歌區尖山路140巷8號","121.346445","24.9490833333333","6500800","鶯歌區"
"239003","360-BY","2018/10/01 17:08:54","新北市鶯歌區八德路16號","121.331893333333","24.954935","6500800","鶯歌區"
"239002","359-BY","2018/10/01 17:08:57","新北市鶯歌區建國路224號","121.348608333333","24.95351","6500800","鶯歌區"
"239004","193-VK","2018/10/01 17:08:49","新北市鶯歌區文化路324巷3弄3號","121.349626666667","24.9450633333333","6500800","鶯歌區"
"242034","281-VK","2018/10/01 17:09:03","新北市新莊區三和路12-21號","121.442398333333","25.0383616666667","6500500","新莊區"
