"lineid","car","time","location","longitude","latitude","cityid","cityname"
"249005","172-UM","2018/10/01 17:19:02","新北市五股區中直路崩山巷36號","121.417435","25.12513","6502300","八里區"
"249001","173-UM","2018/10/01 17:18:46","新北市八里區中華路二段165巷3號","121.407703333333","25.1508066666667","6502300","八里區"
"249004","303-UY","2018/10/01 17:19:01","新北市八里區賢三街21號","121.419005","25.1591083333333","6502300","八里區"
"249002","305-UY","2018/10/01 17:18:53","新北市八里區龍米路二段117巷29-1號","121.446408333333","25.142875","6502300","八里區"
"249003","593-UM","2018/10/01 17:19:04","新北市八里區商港路48號","121.395885","25.1451283333333","6502300","八里區"
"244022","069-UM","2018/10/01 17:18:35","新北市林口區仁愛路一段647號","121.388313333333","25.0766666666667","6501700","林口區"
"244007","080-UY","2018/10/01 17:19:05","新北市林口區中湖48-16號","121.380526666667","25.09366","6501700","林口區"
"244019","403-UM","2018/10/01 17:19:00","新北市林口區文化一路一段190巷7弄2-1號","121.380251666667","25.0748766666667","6501700","林口區"
"244013","KEA-2802","2018/10/01 17:18:53","新北市林口區粉寮路二段88巷100-12號","121.409556666667","25.0901816666667","6501700","林口區"
"244017","485-VK","2018/10/01 17:19:01","新北市林口區粉寮路二段66-1號","121.404005","25.0876933333333","6501700","林口區"
"244009","656-BX","2018/10/01 17:18:52","新北市林口區中北二街19巷18號","121.383601666667","25.088075","6501700","林口區"
"244011","701-TV","2018/10/01 17:18:46","新北市林口區粉寮路一段77-2號","121.397091666667","25.0793366666667","6501700","林口區"
"244025","837-TS","2018/10/01 17:18:52","新北市林口區中山路581號","121.380166666667","25.0822883333333","6501700","林口區"
"244021","838-TS","2018/10/01 17:18:51","新北市林口區粉寮路二段160巷23號","121.40573","25.09195","6501700","林口區"
"231046","107-UY","2018/10/01 17:18:57","新北市新店區直潭路92號","121.530915","24.9375616666667","6500600","新店區"
"241011","013-R5","2018/10/01 17:18:51","新北市三重區龍濱路169-1號","121.50245","25.07011","6500200","三重區"
"241028","022-UY","2018/10/01 17:18:54","新北市三重區仁化街63-2號","121.493856666667","25.05892","6500200","三重區"
"241008","059-VK","2018/10/01 17:19:03","新北市三重區下竹圍街8號","121.480895","25.0759066666667","6500200","三重區"
"241022","060-VK","2018/10/01 17:18:49","新北市三重區重陽路二段34巷37號","121.485608333333","25.0639516666667","6500200","三重區"
"241015","062-VK","2018/10/01 17:18:54","新北市三重區長元街82-1號","121.501865","25.0663416666667","6500200","三重區"
"241017","063-VK","2018/10/01 17:18:46","新北市三重區大同北路55號","121.49514","25.0632333333333","6500200","三重區"
"241024","065-VK","2018/10/01 17:18:51","新北市三重區中正北路193巷11弄22號","121.477763333333","25.070395","6500200","三重區"
"241026","066-VK","2018/10/01 17:18:51","新北市三重區正義南路15-2號","121.497976666667","25.0614166666667","6500200","三重區"
"241002","090-VK","2018/10/01 17:18:52","新北市三重區自強路五段60號","121.49377","25.0813616666667","6500200","三重區"
"251014","742-BX","2018/10/01 17:19:05","新北市淡水區公埔子5-1號","121.465715","25.226645","6501000","淡水區"
"241005","262-UM","2018/10/01 17:18:57","新北市三重區永安北路二段23號","121.48237","25.0815566666667","6500200","三重區"
"241016","266-UM","2018/10/01 17:18:43","新北市三重區大同北路97-2號","121.494465","25.0635433333333","6500200","三重區"
"241009","267-UM","2018/10/01 17:19:05","新北市三重區仁美街112號","121.485573333333","25.08098","6500200","三重區"
"241018","268-UM","2018/10/01 17:18:52","新北市三重區安慶街145號","121.49447","25.0688316666667","6500200","三重區"
"241032","269-UM","2018/10/01 17:18:59","新北市三重區興華街148號","121.4828","25.0598566666667","6500200","三重區"
"241013","270-UM","2018/10/01 17:18:55","新北市三重區仁福街26號","121.496721666667","25.0746116666667","6500200","三重區"
"241025","271-UM","2018/10/01 17:18:58","新北市三重區中正北路335號","121.473341666667","25.0715783333333","6500200","三重區"
"241007","398-BY","2018/10/01 17:19:06","新北市三重區慈愛街9號","121.485036666667","25.0786483333333","6500200","三重區"
"241004","475-VK","2018/10/01 17:19:02","新北市三重區五華街110巷3號","121.491903333333","25.0827666666667","6500200","三重區"
"241020","478-VK","2018/10/01 17:18:46","新北市三重區忠孝路一段155號","121.487915","25.0721366666667","6500200","三重區"
"241030","480-VK","2018/10/01 17:18:47","新北市三重區環河南路254巷45號","121.489008333333","25.051735","6500200","三重區"
"241014","543-UM","2018/10/01 17:18:50","新北市三重區長榮路8號","121.500206666667","25.0685066666667","6500200","三重區"
"241023","545-UM","2018/10/01 17:18:51","新北市三重區三民街174號","121.482065","25.06561","6500200","三重區"
"241001","547-UM","2018/10/01 17:18:56","新北市三重區仁愛街269巷34號","121.494006666667","25.0793433333333","6500200","三重區"
"241019","KEA-2593","2018/10/01 17:18:54","新北市三重區忠孝路二段1號","121.487105","25.0715466666667","6500200","三重區"
"241012","941-UM","2018/10/01 17:19:00","新北市三重區河邊北街256巷21號","121.500885","25.075955","6500200","三重區"
"241029","942-UM","2018/10/01 17:18:50","新北市三重區重新路四段28號","121.488073333333","25.057375","6500200","三重區"
"241033","AAC-255","2018/10/01 17:19:00","新北市三重區中興北街152號","121.468986666667","25.0566133333333","6500200","三重區"
"247012","KEA-2869","2018/10/01 17:19:06","新北市蘆洲區信義路321號","121.478193333333","25.0863933333333","6501400","蘆洲區"
"247002","893-R6","2018/10/01 17:19:04","新北市蘆洲區永樂街38巷31號","121.458128333333","25.089375","6501400","蘆洲區"
"247016","546-UM","2018/10/01 17:19:05","新北市蘆洲區正和街104號","121.46795","25.080615","6501400","蘆洲區"
"247024","500-BY","2018/10/01 17:18:57","新北市蘆洲區長榮路207號","121.46106","25.084895","6501400","蘆洲區"
"247014","339-TH","2018/10/01 17:19:04","新北市蘆洲區得勝街98號","121.471356666667","25.0831616666667","6501400","蘆洲區"
"247006","337-TH","2018/10/01 17:18:59","新北市蘆洲區長安街73巷9號","121.462391666667","25.0795783333333","6501400","蘆洲區"
"247008","336-TH","2018/10/01 17:19:05","新北市蘆洲區永安北路一段72巷30號","121.476513333333","25.0770366666667","6501400","蘆洲區"
"247020","057-VK","2018/10/01 17:18:47","新北市蘆洲區民族路341號","121.472686666667","25.0919083333333","6501400","蘆洲區"
"247010","056-VK","2018/10/01 17:19:04","新北市蘆洲區中山一路120巷7弄26號","121.477295","25.0819266666667","6501400","蘆洲區"
"247018","007-UY","2018/10/01 17:18:52","新北市蘆洲區民權路96巷5弄1號","121.474716666667","25.08856","6501400","蘆洲區"
"247004","002-UY","2018/10/01 17:19:01","新北市蘆洲區永安南路二段282-1號","121.457768333333","25.0811983333333","6501400","蘆洲區"
"247022","001-UY","2018/10/01 17:18:50","新北市蘆洲區三民路128巷29-2號","121.470093333333","25.089395","6501400","蘆洲區"
"228003","097-TW","2018/10/01 17:18:52","新北市貢寮區福隆里東興街98號","121.946266666667","25.01692","6502600","貢寮區"
"228002","663-BX","2018/10/01 17:18:46","新北市貢寮區雙玉里下雙溪街28號","121.924956666667","25.0117","6502600","貢寮區"
"228001","670-TC","2018/10/01 17:18:59","新北市貢寮區仁理村仁和路90號","121.922846666667","25.050285","6502600","貢寮區"
"224006","676-BX","2018/10/01 17:18:56","新北市瑞芳區傑魚坑路278號","121.78775","25.10685","6501200","瑞芳區"
"224008","285-BY","2018/10/01 17:18:52","新北市瑞芳區侯硐路48號","121.825771666667","25.08301","6501200","瑞芳區"
"224007","275-VK","2018/10/01 17:19:04","新北市瑞芳區靜安路四段4-2號","121.792558333333","25.1010516666667","6501200","瑞芳區"
"224009","273-VK","2018/10/01 17:19:06","新北市瑞芳區輕便路212號","121.844713333333","25.110235","6501200","瑞芳區"
"224005","271-BY","2018/10/01 17:18:54","新北市瑞芳區鼻頭路127號","121.916631666667","25.12187","6501200","瑞芳區"
"227001","642-TC","2018/10/01 17:18:57","新北市雙溪區上林里內平林90號","121.827591666667","25.02751","6502500","雙溪區"
"251009","008-UM","2018/10/01 17:18:53","新北市淡水區三民街22號","121.439056666667","25.17179","6501000","淡水區"
"251005","010-UM","2018/10/01 17:18:53","新北市淡水區鄧公路19-1號","121.45032","25.16994","6501000","淡水區"
"251013","KEA-2871","2018/10/01 17:18:47","新北市淡水區竹圍子5號","121.482536666667","25.193215","6501000","淡水區"
"251008","179-VK","2018/10/01 17:18:58","新北市淡水區大同路287號","121.468166666667","25.1425266666667","6501000","淡水區"
"251015","180-VK","2018/10/01 17:18:36","新北市淡水區樹林口9號","121.479316666667","25.1679383333333","6501000","淡水區"
"251010","413-VK","2018/10/01 17:19:03","新北市淡水區新民街一段117號","121.428026666667","25.1877766666667","6501000","淡水區"
"251012","441-VK","2018/10/01 17:18:52","新北市淡水區北新路9號","121.444423333333","25.1780033333333","6501000","淡水區"
"251007","442-VK","2018/10/01 17:18:49","新北市淡水區民生路47-4號","121.461968333333","25.13803","6501000","淡水區"
"251004","443-VK","2018/10/01 17:18:50","新北市淡水區中正東路二段103號","121.458983333333","25.15138","6501000","淡水區"
"251006","561-UM","2018/10/01 17:18:43","新北市淡水區新生街29號","121.4395","25.1749233333333","6501000","淡水區"
"251016","575-R6","2018/10/01 17:18:50","新北市淡水區埤島64-2號","121.461673333333","25.1905716666667","6501000","淡水區"
"251011","650-BX","2018/10/01 17:18:47","新北市淡水區坪頂路128號","121.465141666667","25.1610766666667","6501000","淡水區"
"251002","672-BX","2018/10/01 17:18:49","新北市淡水區中正路二段31號","121.419338333333","25.1816783333333","6501000","淡水區"
"251003","766-UM","2018/10/01 17:18:58","新北市淡水區中正路二段31號","121.419463333333","25.18153","6501000","淡水區"
"207003","550-UM","2018/10/01 17:19:01","新北市萬里區萬里里獅頭路23號","121.69331","25.1782616666667","6502800","萬里區"
"252002","178-VK","2018/10/01 17:18:55","新北市三芝區忠孝街1-14號","121.505498333333","25.2539633333333","6502100","三芝區"
"252001","292-VK","2018/10/01 17:18:51","新北市三芝區淡金路一段3號","121.498138333333","25.2596383333333","6502100","三芝區"
"237011","KEA-2596","2018/10/01 17:19:06","新北市三峽區中山路459巷163-3號","121.349118333333","24.93329","6500900","三峽區"
"242058","986-R7","2018/10/01 17:18:58","新北市新莊區中正路400號","121.441663333333","25.0339566666667","6500500","新莊區"
"242056","751-BX","2018/10/01 17:18:56","新北市新莊區新莊路767號","121.44237","25.0326133333333","6500500","新莊區"
"242029","705-TV","2018/10/01 17:18:49","新北市新莊區幸福路639號","121.451755","25.0491933333333","6500500","新莊區"
"242027","615-BX","2018/10/01 17:19:02","新北市新莊區中平路82巷24號","121.445821666667","25.0448933333333","6500500","新莊區"
"242025","613-BX","2018/10/01 17:18:50","新北市新莊區中平路77號","121.444701666667","25.0450866666667","6500500","新莊區"
"242044","566-BX","2018/10/01 17:18:47","新北市新莊區福營路349號","121.42463","25.028305","6500500","新莊區"
"242048","497-BY","2018/10/01 17:19:03","新北市新莊區龍安路252-2號","121.421235","25.0195333333333","6500500","新莊區"
"242053","441-UM","2018/10/01 17:18:48","新北市新莊區環河路636-7號","121.436671666667","25.01084","6500500","新莊區"
"242002","440-UM","2018/10/01 17:18:48","新北市新莊區瓊林路35號","121.445265","25.0285633333333","6500500","新莊區"
"242039","415-TV","2018/10/01 17:18:47","新北市新莊區民安路309號","121.42976","25.022625","6500500","新莊區"
"242009","413-TV","2018/10/01 17:18:50","新北市新莊區新泰路500號","121.44232","25.045865","6500500","新莊區"
"242046","400-BY","2018/10/01 17:19:06","新北市新莊區中環路一段287號","121.442105","25.0319933333333","6500500","新莊區"
"242023","362-BY","2018/10/01 17:18:45","新北市新莊區中平路71巷4號","121.44447","25.045135","6500500","新莊區"
"242060","353-BY","2018/10/01 17:18:56","新北市新莊區中正路400號","121.441913333333","25.0342033333333","6500500","新莊區"
"242011","132-UY","2018/10/01 17:19:03","新北市新莊區新泰路484號","121.442578333333","25.0456966666667","6500500","新莊區"
"242042","133-UY","2018/10/01 17:19:05","新北市新莊區新樹路113巷33號","121.439526666667","25.0263983333333","6500500","新莊區"
"242050","172-VK","2018/10/01 17:18:05","新北市新莊區瓊林南路73-30號","121.434901666667","25.0147933333333","6500500","新莊區"
"242019","175-VK","2018/10/01 17:18:51","新北市新莊區中平路82巷1號","121.444975","25.0449366666667","6500500","新莊區"
"242031","348-TH","2018/10/01 17:19:02","新北市新莊區新泰路462號","121.443265","25.0448316666667","6500500","新莊區"
"242004","349-TH","2018/10/01 17:18:44","新北市新莊區中和街9號","121.448325","25.0433066666667","6500500","新莊區"
"242021","350-TH","2018/10/01 17:18:49","新北市新莊區中港路137號","121.45503","25.04048","6500500","新莊區"
"242015","351-TH","2018/10/01 17:18:58","新北市新莊區新泰路357巷3弄1號","121.442308333333","25.0414483333333","6500500","新莊區"
"238015","755-BX","2018/10/01 17:18:51","新北市樹林區大安路269號","121.419043333333","24.9936383333333","6500700","樹林區"
"238023","601-UM","2018/10/01 17:18:50","新北市樹林區中正路439-1號","121.414941666667","25.0086783333333","6500700","樹林區"
"238019","599-UM","2018/10/01 17:18:58","新北市樹林區太平路273巷23號","121.421128333333","24.9762233333333","6500700","樹林區"
"238018","571-TV","2018/10/01 17:18:58","新北市樹林區鎮前街269巷32號","121.419365","24.9850416666667","6500700","樹林區"
"238024","5061-A6","2018/10/01 17:18:58","新北市樹林區樹新路79巷11號","121.427131666667","24.9956216666667","6500700","樹林區"
"238022","KEA-2213","2018/10/01 17:18:57","新北市樹林區仁愛街81號","121.423823333333","24.9829433333333","6500700","樹林區"
"238021","KEA-2539","2018/10/01 17:18:51","新北市樹林區西圳街一段114號","121.399758333333","24.964175","6500700","樹林區"
"238025","303-VK","2018/10/01 17:19:03","新北市樹林區保安二街8-1號","121.425018333333","24.9941516666667","6500700","樹林區"
"238017","283-BY","2018/10/01 17:19:00","新北市樹林區光武街32-2號","121.416561666667","25.0061833333333","6500700","樹林區"
"238014","282-BY","2018/10/01 17:18:47","新北市樹林區保安二街55號","121.42466","24.9944466666667","6500700","樹林區"
"238020","268-VK","2018/10/01 17:18:54","新北市樹林區中正路22-1號","121.42798","24.999255","6500700","樹林區"
"238026","172-UY","2018/10/01 17:18:58","新北市樹林區東大街166號","121.409493333333","24.9756983333333","6500700","樹林區"
"238016","169-UY","2018/10/01 17:18:50","新北市樹林區中山路二段10號","121.417533333333","24.9851983333333","6500700","樹林區"
"239007","AAC-297","2018/10/01 17:19:02","新北市鶯歌區行政路1-6號","121.350738333333","24.9552033333333","6500800","鶯歌區"
"239006","891-R6","2018/10/01 17:19:04","新北市鶯歌區德昌街9號","121.333635","24.9603383333333","6500800","鶯歌區"
"239008","527-UM","2018/10/01 17:18:50","新北市鶯歌區中山路292號","121.343728333333","24.9569583333333","6500800","鶯歌區"
"239005","526-UM","2018/10/01 17:19:06","新北市鶯歌區福德三街15號","121.32968","24.96743","6500800","鶯歌區"
"239001","417-VK","2018/10/01 17:18:50","新北市鶯歌區尖山路246號","121.34257","24.9464066666667","6500800","鶯歌區"
"239003","360-BY","2018/10/01 17:18:54","新北市鶯歌區德昌二街47號","121.333343333333","24.9585833333333","6500800","鶯歌區"
"239002","359-BY","2018/10/01 17:18:57","新北市鶯歌區建國路154號","121.35078","24.9538816666667","6500800","鶯歌區"
"239004","193-VK","2018/10/01 17:18:49","新北市鶯歌區文化路266號","121.352745","24.9475166666667","6500800","鶯歌區"
"242034","281-VK","2018/10/01 17:19:03","新北市新莊區中正路471號","121.441951666667","25.0338683333333","6500500","新莊區"
"242007","280-VK","2018/10/01 17:19:05","新北市新莊區中和街20號","121.448316666667","25.043365","6500500","新莊區"
