"lineid","car","time","location","longitude","latitude","cityid","cityname"
"249005","172-UM","2018/10/01 17:29:02","新北市八里區荖阡坑路69號","121.406748333333","25.126375","6502300","八里區"
"249001","173-UM","2018/10/01 17:28:46","新北市八里區中華路一段5-2號","121.422591666667","25.1583516666667","6502300","八里區"
"249004","303-UY","2018/10/01 17:29:01","新北市八里區賢三街145號","121.414825","25.156915","6502300","八里區"
"249002","305-UY","2018/10/01 17:28:53","新北市八里區龍米路一段438號","121.450768333333","25.1339883333333","6502300","八里區"
"249003","593-UM","2018/10/01 17:28:45","新北市八里區中山路二段315號","121.400601666667","25.1477416666667","6502300","八里區"
"232011","375-UM","2018/10/01 17:28:46","新北市坪林區北宜路八段558號","121.718015","24.9092616666667","6502000","坪林區"
"244022","069-UM","2018/10/01 17:28:55","新北市林口區東明一街35巷2號","121.39213","25.0720366666667","6501700","林口區"
"244007","080-UY","2018/10/01 17:28:45","新北市林口區湖子8-2號","121.392","25.0921416666667","6501700","林口區"
"244019","403-UM","2018/10/01 17:28:59","新北市林口區公園路233-4號","121.375963333333","25.0754383333333","6501700","林口區"
"244013","KEA-2802","2018/10/01 17:28:53","新北市林口區粉寮路二段20號","121.40237","25.0859166666667","6501700","林口區"
"244017","485-VK","2018/10/01 17:29:01","新北市林口區中山路154-1號","121.39091","25.0788233333333","6501700","林口區"
"244009","656-BX","2018/10/01 17:28:52","新北市林口區文化北路二段550巷8號","121.379033333333","25.0918683333333","6501700","林口區"
"244011","701-TV","2018/10/01 17:29:06","新北市林口區仁愛路一段386巷2號","121.38792","25.07718","6501700","林口區"
"244025","837-TS","2018/10/01 17:28:52","新北市林口區民族路61巷11號","121.36429","25.074885","6501700","林口區"
"244021","838-TS","2018/10/01 17:28:51","新北市林口區粉寮路二段221號","121.404191666667","25.0906016666667","6501700","林口區"
"231046","107-UY","2018/10/01 17:28:57","新北市新店區直潭路92號","121.530915","24.9375666666667","6500600","新店區"
"241015","062-VK","2018/10/01 17:28:55","新北市三重區長元街65巷16弄15號","121.503491666667","25.06621","6500200","三重區"
"241017","063-VK","2018/10/01 17:28:46","新北市三重區重新路三段47巷5弄1號","121.492858333333","25.0618516666667","6500200","三重區"
"241024","065-VK","2018/10/01 17:28:51","新北市三重區中正北路191巷3弄13號","121.478035","25.069655","6500200","三重區"
"251014","742-BX","2018/10/01 17:27:25","新北市淡水區北勢子16號","121.473681666667","25.2278133333333","6501000","淡水區"
"241005","262-UM","2018/10/01 17:28:55","新北市三重區仁華街28巷16號","121.482838333333","25.0829133333333","6500200","三重區"
"241016","266-UM","2018/10/01 17:28:43","新北市三重區大同北路54巷1號","121.494258333333","25.06348","6500200","三重區"
"241018","268-UM","2018/10/01 17:28:52","新北市三重區國隆路30號","121.4923","25.06436","6500200","三重區"
"241032","269-UM","2018/10/01 17:28:59","新北市三重區名源街31號","121.481736666667","25.0604283333333","6500200","三重區"
"241025","271-UM","2018/10/01 17:28:58","新北市三重區三民街315號","121.477811666667","25.06908","6500200","三重區"
"241007","398-BY","2018/10/01 17:28:46","新北市三重區三和路四段145巷99號","121.48686","25.07897","6500200","三重區"
"241020","478-VK","2018/10/01 17:28:46","新北市三重區忠孝路二段2-1號","121.486975","25.0713416666667","6500200","三重區"
"241030","480-VK","2018/10/01 17:28:47","新北市三重區集美街178號","121.49061","25.0533283333333","6500200","三重區"
"241014","543-UM","2018/10/01 17:28:50","新北市三重區安和路15號","121.501201666667","25.0684","6500200","三重區"
"241023","545-UM","2018/10/01 17:28:51","新北市三重區三民街146巷3弄2號","121.48167","25.0646266666667","6500200","三重區"
"241019","KEA-2593","2018/10/01 17:29:04","新北市三重區自強路二段26巷29號","121.488586666667","25.06903","6500200","三重區"
"241012","941-UM","2018/10/01 17:28:59","新北市三重區仁興街28巷46號","121.498328333333","25.0748633333333","6500200","三重區"
"241029","942-UM","2018/10/01 17:28:50","新北市三重區三寧街1號","121.488766666667","25.059285","6500200","三重區"
"241033","AAC-255","2018/10/01 17:29:00","新北市三重區興德路133號","121.470111666667","25.0527083333333","6500200","三重區"
"247012","KEA-2869","2018/10/01 17:28:46","新北市蘆洲區民族路39號","121.478181666667","25.085175","6501400","蘆洲區"
"247002","893-R6","2018/10/01 17:29:04","新北市蘆洲區永樂街38巷67弄17號","121.457921666667","25.0906466666667","6501400","蘆洲區"
"247016","546-UM","2018/10/01 17:29:05","新北市蘆洲區光華路22巷26號","121.468725","25.08442","6501400","蘆洲區"
"247024","500-BY","2018/10/01 17:28:57","新北市蘆洲區長榮路703號","121.461045","25.0928516666667","6501400","蘆洲區"
"247014","339-TH","2018/10/01 17:29:04","新北市蘆洲區三民路101號","121.472441666667","25.0854383333333","6501400","蘆洲區"
"247006","337-TH","2018/10/01 17:28:50","新北市蘆洲區長安街22巷31弄27號","121.463733333333","25.0807116666667","6501400","蘆洲區"
"247008","336-TH","2018/10/01 17:29:05","新北市蘆洲區民生街53號","121.474801666667","25.0787933333333","6501400","蘆洲區"
"247020","057-VK","2018/10/01 17:28:47","新北市蘆洲區水湳街397號","121.470091666667","25.093855","6501400","蘆洲區"
"247010","056-VK","2018/10/01 17:29:04","新北市蘆洲區信義路132-1號","121.47943","25.0829283333333","6501400","蘆洲區"
"247018","007-UY","2018/10/01 17:28:52","新北市蘆洲區民義街22巷24號","121.471918333333","25.08798","6501400","蘆洲區"
"247004","002-UY","2018/10/01 17:29:01","新北市蘆洲區中原路16號","121.460873333333","25.083245","6501400","蘆洲區"
"247022","001-UY","2018/10/01 17:28:50","新北市蘆洲區三民路341-3號","121.464836666667","25.0909616666667","6501400","蘆洲區"
"228003","097-TW","2018/10/01 17:28:52","新北市貢寮區仁理村研海街45號","121.925965","25.04205","6502600","貢寮區"
"228002","663-BX","2018/10/01 17:28:46","新北市貢寮區福隆里福隆街14號","121.944871666667","25.0163266666667","6502600","貢寮區"
"228001","670-TC","2018/10/01 17:28:59","新北市貢寮區仁理村仁愛路39號","121.925153333333","25.053345","6502600","貢寮區"
"224010","AGQ-8101","2018/10/01 17:28:26","新北市瑞芳區明燈路二段2巷14號","121.814425","25.10884","6501200","瑞芳區"
"224006","676-BX","2018/10/01 17:28:55","新北市瑞芳區靜安路四段63-1號","121.793386666667","25.10855","6501200","瑞芳區"
"224008","285-BY","2018/10/01 17:28:52","新北市瑞芳區侯硐路220號","121.830525","25.088325","6501200","瑞芳區"
"224007","275-VK","2018/10/01 17:28:44","新北市瑞芳區靜安路四段5號","121.795993333333","25.0785466666667","6501200","瑞芳區"
"224009","273-VK","2018/10/01 17:28:46","新北市瑞芳區汽車路5號","121.847638333333","25.1116766666667","6501200","瑞芳區"
"224005","271-BY","2018/10/01 17:28:18","新北市瑞芳區南雅路91號","121.885248333333","25.122675","6501200","瑞芳區"
"227001","642-TC","2018/10/01 17:28:57","新北市雙溪區平林里外平林62號","121.844416666667","25.0348483333333","6502500","雙溪區"
"251009","008-UM","2018/10/01 17:28:53","新北市淡水區新生街30巷66號","121.439728333333","25.1732333333333","6501000","淡水區"
"251005","010-UM","2018/10/01 17:28:53","新北市淡水區鄧公路31巷6號","121.451531666667","25.1707216666667","6501000","淡水區"
"251013","KEA-2871","2018/10/01 17:28:47","新北市淡水區大竹圍5-1號","121.466148333333","25.1945783333333","6501000","淡水區"
"251008","179-VK","2018/10/01 17:28:58","新北市淡水區大同路122巷17號","121.463251666667","25.1396783333333","6501000","淡水區"
"251015","180-VK","2018/10/01 17:28:55","新北市淡水區三空泉16-10號","121.471731666667","25.164835","6501000","淡水區"
"251010","413-VK","2018/10/01 17:29:03","新北市淡水區中正路二段206號","121.426436666667","25.189055","6501000","淡水區"
"251012","441-VK","2018/10/01 17:28:52","新北市淡水區北新路100號","121.447601666667","25.1785333333333","6501000","淡水區"
"251007","442-VK","2018/10/01 17:28:56","新北市淡水區民生路47-4號","121.461846666667","25.1381","6501000","淡水區"
"251004","443-VK","2018/10/01 17:20:28","新北市淡水區中正東路二段88巷15號","121.45907","25.1504633333333","6501000","淡水區"
"251006","561-UM","2018/10/01 17:28:43","新北市淡水區大仁街9號","121.442223333333","25.1749166666667","6501000","淡水區"
"251016","575-R6","2018/10/01 17:28:49","新北市淡水區埤島72號","121.456028333333","25.1930533333333","6501000","淡水區"
"251011","650-BX","2018/10/01 17:28:47","新北市淡水區坪頂路718號","121.48257","25.1584983333333","6501000","淡水區"
"251002","672-BX","2018/10/01 17:28:49","新北市淡水區中正路一段8巷1弄11號","121.428336666667","25.1755166666667","6501000","淡水區"
"251003","766-UM","2018/10/01 17:28:58","新北市淡水區中山路159-1號","121.440741666667","25.1729416666667","6501000","淡水區"
"207003","550-UM","2018/10/01 17:29:01","新北市萬里區龜吼里美崙路96號","121.683718333333","25.1858666666667","6502800","萬里區"
"207004","225-TW","2018/10/01 17:29:00","新北市萬里區萬里里景美路11-3號","121.686005","25.1728983333333","6502800","萬里區"
"252002","178-VK","2018/10/01 17:28:55","新北市三芝區忠孝街1-14號","121.505455","25.2540083333333","6502100","三芝區"
"252001","292-VK","2018/10/01 17:28:51","新北市三芝區淡金路一段3號","121.498161666667","25.2596516666667","6502100","三芝區"
"237012","275-BY","2018/10/01 17:29:01","新北市三峽區中山路459巷163-3號","121.348938333333","24.93327","6500900","三峽區"
"237011","KEA-2596","2018/10/01 17:28:46","新北市三峽區中山路459巷163-3號","121.349158333333","24.9332566666667","6500900","三峽區"
"237015","649-BX","2018/10/01 17:28:51","新北市三峽區中山路323號","121.360593333333","24.9381033333333","6500900","三峽區"
"242036","AAC-296","2018/10/01 17:28:48","新北市新莊區建國二路1號","121.435005","25.02367","6500500","新莊區"
"242058","986-R7","2018/10/01 17:28:58","新北市新莊區中正路530號","121.43098","25.0315816666667","6500500","新莊區"
"242056","751-BX","2018/10/01 17:28:56","新北市新莊區景德路206號","121.449186666667","25.033845","6500500","新莊區"
"242029","705-TV","2018/10/01 17:28:48","新北市新莊區復興路二段196巷2弄4號","121.459183333333","25.04424","6500500","新莊區"
"242027","615-BX","2018/10/01 17:29:02","新北市新莊區思源路33號","121.46003","25.0395166666667","6500500","新莊區"
"242025","613-BX","2018/10/01 17:28:50","新北市新莊區復興路二段29-1號","121.454193333333","25.0440766666667","6500500","新莊區"
"242044","566-BX","2018/10/01 17:28:47","新北市新莊區富國路101-1號","121.421358333333","25.0255266666667","6500500","新莊區"
"242048","497-BY","2018/10/01 17:29:03","新北市新莊區四維路212巷13號","121.420966666667","25.0202533333333","6500500","新莊區"
"242053","441-UM","2018/10/01 17:28:48","新北市新莊區新樹路392號","121.432263333333","25.002625","6500500","新莊區"
"242002","440-UM","2018/10/01 17:28:48","新北市新莊區碧江街11號","121.455858333333","25.034955","6500500","新莊區"
"242039","415-TV","2018/10/01 17:28:47","新北市新莊區民安路276號","121.427638333333","25.0215416666667","6500500","新莊區"
"242009","413-TV","2018/10/01 17:28:56","新北市新莊區中原路84號","121.455715","25.054405","6500500","新莊區"
"242046","400-BY","2018/10/01 17:29:05","新北市新莊區新樹路65-5號","121.439345","25.03085","6500500","新莊區"
"242023","362-BY","2018/10/01 17:28:45","新北市新莊區公園路39號","121.453155","25.040135","6500500","新莊區"
"242060","353-BY","2018/10/01 17:28:56","新北市新莊區瓊林南路12-6號","121.436165","25.01852","6500500","新莊區"
"242011","132-UY","2018/10/01 17:29:03","新北市新莊區中華路二段83號","121.452708333333","25.0481416666667","6500500","新莊區"
"242042","133-UY","2018/10/01 17:28:45","新北市新莊區新樹路113巷32號","121.438655","25.0267083333333","6500500","新莊區"
"242050","172-VK","2018/10/01 17:29:05","新北市新莊區新樹路449巷9號","121.433263333333","25.0137616666667","6500500","新莊區"
"242019","175-VK","2018/10/01 17:28:51","新北市新莊區中港路72號","121.455503333333","25.0389116666667","6500500","新莊區"
"242031","348-TH","2018/10/01 17:29:02","新北市新莊區新泰路401巷24號","121.442658333333","25.0440116666667","6500500","新莊區"
"242004","349-TH","2018/10/01 17:29:04","新北市新莊區中港路297號","121.452898333333","25.0443066666667","6500500","新莊區"
"242021","350-TH","2018/10/01 17:28:49","新北市新莊區中華路一段31號","121.45185","25.03748","6500500","新莊區"
"242015","351-TH","2018/10/01 17:28:58","新北市新莊區新泰路154號","121.447661666667","25.0373716666667","6500500","新莊區"
"238015","755-BX","2018/10/01 17:28:50","新北市樹林區大安路267號","121.419051666667","24.99372","6500700","樹林區"
"238023","601-UM","2018/10/01 17:28:50","新北市樹林區中正路439-1號","121.415046666667","25.0089666666667","6500700","樹林區"
"238019","599-UM","2018/10/01 17:28:58","新北市樹林區八德街99號","121.420278333333","24.98103","6500700","樹林區"
"238018","571-TV","2018/10/01 17:29:02","新北市樹林區鎮前街93號","121.424998333333","24.9897183333333","6500700","樹林區"
"238024","5061-A6","2018/10/01 17:28:58","新北市樹林區博愛街248號","121.423915","24.9887683333333","6500700","樹林區"
"238022","KEA-2213","2018/10/01 17:28:57","新北市樹林區仁愛街51號","121.422506666667","24.9821966666667","6500700","樹林區"
"238021","KEA-2539","2018/10/01 17:28:51","新北市樹林區民權街5巷21號","121.395718333333","24.958345","6500700","樹林區"
"238025","303-VK","2018/10/01 17:29:03","新北市樹林區保安街一段358號","121.417691666667","24.998365","6500700","樹林區"
"238017","283-BY","2018/10/01 17:29:00","新北市樹林區中正路236號","121.418313333333","25.007","6500700","樹林區"
"238014","282-BY","2018/10/01 17:29:07","新北市樹林區大安路221號","121.420318333333","24.9951716666667","6500700","樹林區"
"238020","268-VK","2018/10/01 17:28:55","新北市樹林區俊英街24-1號","121.429295","25.0015566666667","6500700","樹林區"
"238026","172-UY","2018/10/01 17:28:58","新北市樹林區味王街8號","121.4029","24.9761666666667","6500700","樹林區"
"238016","169-UY","2018/10/01 17:28:50","新北市樹林區長壽街16-1號","121.423421666667","24.9936383333333","6500700","樹林區"
"239007","AAC-297","2018/10/01 17:29:02","新北市鶯歌區中正一路214號","121.353525","24.95665","6500800","鶯歌區"
"239006","891-R6","2018/10/01 17:29:03","新北市鶯歌區鳳鳴路73號","121.334021666667","24.9657983333333","6500800","鶯歌區"
"239008","527-UM","2018/10/01 17:28:50","新北市鶯歌區大湖路590巷11號","121.336091666667","24.974255","6500800","鶯歌區"
"239005","526-UM","2018/10/01 17:29:06","新北市鶯歌區福隆一街42巷12號","121.325395","24.9713833333333","6500800","鶯歌區"
"239001","417-VK","2018/10/01 17:28:51","新北市鶯歌區高職西街101號","121.335963333333","24.9407183333333","6500800","鶯歌區"
"239003","360-BY","2018/10/01 17:28:54","新北市鶯歌區德昌街78號","121.332776666667","24.9599883333333","6500800","鶯歌區"
"239002","359-BY","2018/10/01 17:28:57","新北市鶯歌區南雅路25號","121.349426666667","24.9542983333333","6500800","鶯歌區"
"239004","193-VK","2018/10/01 17:28:49","新北市三峽區隆恩街250號","121.357115","24.940835","6500800","鶯歌區"
"221010","269-BY","2018/10/01 17:28:54","新北市汐止區汐萬路一段256巷3號","121.652136666667","25.0747466666667","6501100","汐止區"
"242034","281-VK","2018/10/01 17:29:03","新北市新莊區瓊林路46-2號","121.447305","25.0294683333333","6500500","新莊區"
"242007","280-VK","2018/10/01 17:28:53","新北市新莊區自強街38號","121.454741666667","25.0463733333333","6500500","新莊區"
"235061","KEA-2875","2018/10/01 17:22:53","新北市中和區員山路36巷16-2號","121.48528","24.9916833333333","6500300","中和區"
