"lineid","car","time","location","longitude","latitude","cityid","cityname"
"234026","9371-KE","2018/10/01 17:39:02","新北市永和區中正路700號","121.516315","25.009885","6500400","永和區"
"249005","172-UM","2018/10/01 17:39:02","新北市八里區荖阡坑路34-1號","121.402733333333","25.1297283333333","6502300","八里區"
"249001","173-UM","2018/10/01 17:39:07","新北市八里區龍米路二段181號","121.434421666667","25.1581016666667","6502300","八里區"
"249004","303-UY","2018/10/01 17:39:01","新北市八里區賢二街43號","121.419093333333","25.1576266666667","6502300","八里區"
"249002","305-UY","2018/10/01 17:38:53","新北市八里區坪子頂1號","121.4419","25.1260733333333","6502300","八里區"
"249003","593-UM","2018/10/01 17:38:46","新北市八里區中山路二段171號","121.404968333333","25.1506033333333","6502300","八里區"
"232011","375-UM","2018/10/01 17:38:46","新北市坪林區北宜路八段157號","121.707291666667","24.9345716666667","6502000","坪林區"
"244022","069-UM","2018/10/01 17:38:54","新北市林口區東明三街334號","121.390165","25.0698983333333","6501700","林口區"
"244007","080-UY","2018/10/01 17:39:05","新北市林口區中湖46號","121.382923333333","25.09526","6501700","林口區"
"244019","403-UM","2018/10/01 17:38:59","新北市林口區文化一路一段133號","121.37382","25.0716233333333","6501700","林口區"
"244013","KEA-2802","2018/10/01 17:38:53","新北市林口區文化一路二段202號","121.38335","25.0806916666667","6501700","林口區"
"244017","485-VK","2018/10/01 17:39:01","新北市林口區文化一路一段89-5號","121.371961666667","25.070255","6501700","林口區"
"244009","656-BX","2018/10/01 17:38:52","新北市林口區中北三街188號","121.382896666667","25.0823666666667","6501700","林口區"
"244011","701-TV","2018/10/01 17:38:46","新北市林口區佳林路211號","121.38423","25.0771483333333","6501700","林口區"
"244025","837-TS","2018/10/01 17:38:52","新北市林口區忠孝路308巷21號","121.367173333333","25.0719816666667","6501700","林口區"
"244021","838-TS","2018/10/01 17:38:56","新北市林口區粉寮路一段40號","121.396425","25.0763366666667","6501700","林口區"
"222003","436-BY","2018/10/01 17:38:47","新北市深坑區深南路49號","121.62146","25.0094433333333","6501800","深坑區"
"222002","659-BX","2018/10/01 17:38:45","新北市深坑區深南路49號","121.621081666667","25.0092783333333","6501800","深坑區"
"231046","107-UY","2018/10/01 17:38:57","新北市新店區直潭路92號","121.53093","24.9375616666667","6500600","新店區"
"241017","063-VK","2018/10/01 17:39:06","新北市三重區大同北路27號","121.495355","25.06263","6500200","三重區"
"241003","091-VK","2018/10/01 17:39:00","新北市五股區成泰路四段22巷16-2號","121.456791666667","25.1035266666667","6500200","三重區"
"251014","742-BX","2018/10/01 17:39:05","新北市淡水區公埔子16-6號","121.480985","25.22457","6501000","淡水區"
"241005","262-UM","2018/10/01 17:38:55","新北市三重區永安北路二段5巷23號","121.48234","25.0810716666667","6500200","三重區"
"241016","266-UM","2018/10/01 17:39:03","新北市三重區正義北路49號","121.49735","25.06402","6500200","三重區"
"241007","398-BY","2018/10/01 17:38:46","新北市三重區力行路二段202號","121.483595","25.077835","6500200","三重區"
"241024","462-BY","2018/10/01 17:38:49","新北市三重區國道路一段58巷17號","121.481475","25.0719366666667","6500200","三重區"
"241014","543-UM","2018/10/01 17:38:50","新北市三重區河邊北街80號","121.504395","25.06874","6500200","三重區"
"241023","545-UM","2018/10/01 17:38:52","新北市三重區三民街169號","121.48337","25.0648333333333","6500200","三重區"
"241012","941-UM","2018/10/01 17:38:59","新北市三重區仁興街39巷14號","121.499671666667","25.0759766666667","6500200","三重區"
"241033","AAC-255","2018/10/01 17:39:00","新北市三重區興德路139號","121.46974","25.05262","6500200","三重區"
"247012","KEA-2869","2018/10/01 17:39:06","新北市蘆洲區民權路29號","121.476158333333","25.0864016666667","6501400","蘆洲區"
"247002","893-R6","2018/10/01 17:39:04","新北市蘆洲區永平街32巷11弄21號","121.458018333333","25.091545","6501400","蘆洲區"
"247016","546-UM","2018/10/01 17:39:05","新北市蘆洲區光華路44號","121.468795","25.0831083333333","6501400","蘆洲區"
"247024","500-BY","2018/10/01 17:38:57","新北市蘆洲區長興路258號","121.460576666667","25.0877666666667","6501400","蘆洲區"
"247014","339-TH","2018/10/01 17:39:04","新北市蘆洲區中山二路47號","121.473858333333","25.0820116666667","6501400","蘆洲區"
"247006","337-TH","2018/10/01 17:38:50","新北市蘆洲區長安街68巷8弄1號","121.463221666667","25.0803266666667","6501400","蘆洲區"
"247008","336-TH","2018/10/01 17:38:45","新北市蘆洲區和平路15號","121.472576666667","25.0793566666667","6501400","蘆洲區"
"247020","057-VK","2018/10/01 17:38:47","新北市蘆洲區民族路351號","121.472165","25.0918283333333","6501400","蘆洲區"
"247010","056-VK","2018/10/01 17:39:03","新北市蘆洲區集賢路416號","121.479716666667","25.0813166666667","6501400","蘆洲區"
"247018","007-UY","2018/10/01 17:38:52","新北市蘆洲區三民路102號","121.47193","25.0867116666667","6501400","蘆洲區"
"247004","002-UY","2018/10/01 17:39:01","新北市蘆洲區永安南路二段306號","121.457253333333","25.0823516666667","6501400","蘆洲區"
"247022","001-UY","2018/10/01 17:38:50","新北市蘆洲區民族路443號","121.46774","25.0888433333333","6501400","蘆洲區"
"228003","097-TW","2018/10/01 17:38:52","新北市貢寮區仁理村仁和路200號","121.923605","25.0528183333333","6502600","貢寮區"
"228002","663-BX","2018/10/01 17:39:06","新北市貢寮區福隆里龜壽谷街13號","121.957251666667","25.0053816666667","6502600","貢寮區"
"228001","670-TC","2018/10/01 17:38:59","新北市貢寮區仁理村仁愛路95-1號","121.927661666667","25.0554533333333","6502600","貢寮區"
"224010","AGQ-8101","2018/10/01 17:37:26","新北市瑞芳區岳王路10-3號","121.80729","25.110925","6501200","瑞芳區"
"224006","676-BX","2018/10/01 17:38:59","新北市瑞芳區傑魚坑路26號","121.794273333333","25.1105383333333","6501200","瑞芳區"
"224008","285-BY","2018/10/01 17:38:52","新北市瑞芳區坪林路7號","121.833966666667","25.10064","6501200","瑞芳區"
"224007","275-VK","2018/10/01 17:39:04","新北市平溪區新寮里五分寮10-2號","121.800336666667","25.0756933333333","6501200","瑞芳區"
"224009","273-VK","2018/10/01 17:39:06","新北市瑞芳區山尖路209號","121.849685","25.1120933333333","6501200","瑞芳區"
"224005","271-BY","2018/10/01 17:38:54","新北市瑞芳區海濱路8-6號","121.8317","25.1261816666667","6501200","瑞芳區"
"227001","642-TC","2018/10/01 17:38:57","新北市雙溪區共和里東榮街52號","121.866365","25.033725","6502500","雙溪區"
"208002","KEA-2872","2018/10/01 17:38:49","新北市金山區磺清路135號","121.639395","25.2276333333333","6502700","金山區"
"251009","008-UM","2018/10/01 17:38:53","新北市淡水區中正路32號","121.443851666667","25.16922","6501000","淡水區"
"251005","010-UM","2018/10/01 17:38:53","新北市淡水區鄧公路35巷12號","121.451918333333","25.1710983333333","6501000","淡水區"
"251001","011-UM","2018/10/01 17:38:53","新北市淡水區自強路201巷35號","121.462286666667","25.1267066666667","6501000","淡水區"
"251013","KEA-2871","2018/10/01 17:38:47","新北市淡水區大竹圍2-3號","121.467205","25.1954666666667","6501000","淡水區"
"251008","179-VK","2018/10/01 17:38:58","新北市淡水區八勢路50巷68號","121.462105","25.1494316666667","6501000","淡水區"
"251015","180-VK","2018/10/01 17:38:55","新北市淡水區糞箕湖50號","121.485373333333","25.1709583333333","6501000","淡水區"
"251010","413-VK","2018/10/01 17:39:03","新北市淡水區淡海路280巷23號","121.419756666667","25.1899533333333","6501000","淡水區"
"251012","441-VK","2018/10/01 17:38:52","新北市淡水區北新路200巷8號","121.45176","25.1796766666667","6501000","淡水區"
"251007","442-VK","2018/10/01 17:38:48","新北市淡水區民生路124巷22號","121.46409","25.13775","6501000","淡水區"
"251004","443-VK","2018/10/01 17:38:54","新北市淡水區中正東路二段145號","121.459245","25.1470166666667","6501000","淡水區"
"251006","561-UM","2018/10/01 17:39:03","新北市淡水區大信街32號","121.442075","25.177105","6501000","淡水區"
"251016","575-R6","2018/10/01 17:38:50","新北市淡水區埤島39-15號","121.452731666667","25.1958533333333","6501000","淡水區"
"251011","650-BX","2018/10/01 17:38:47","新北市淡水區小坪頂20-1號","121.4847","25.15767","6501000","淡水區"
"251002","672-BX","2018/10/01 17:38:49","新北市淡水區重建街96號","121.440048333333","25.17244","6501000","淡水區"
"251003","766-UM","2018/10/01 17:38:58","新北市淡水區中山北路一段50號","121.441828333333","25.1755783333333","6501000","淡水區"
"207003","550-UM","2018/10/01 17:39:01","新北市萬里區龜吼里漁澳路10號","121.686253333333","25.194715","6502800","萬里區"
"207004","225-TW","2018/10/01 17:39:00","新北市萬里區中幅里中福路19-1號","121.682816666667","25.164855","6502800","萬里區"
"252002","178-VK","2018/10/01 17:38:55","新北市三芝區中正路二段2號","121.504996666667","25.2557216666667","6502100","三芝區"
"252001","292-VK","2018/10/01 17:38:51","新北市三芝區淡金路二段4號","121.502386666667","25.2591666666667","6502100","三芝區"
"237013","252-BX","2018/10/01 17:38:58","新北市三峽區愛國路33-9號","121.37491","24.9329466666667","6500900","三峽區"
"237012","275-BY","2018/10/01 17:39:01","新北市三峽區中山路459巷163-3號","121.348871666667","24.9332283333333","6500900","三峽區"
"237011","KEA-2596","2018/10/01 17:39:06","新北市三峽區中山路459巷163-3號","121.349148333333","24.93328","6500900","三峽區"
"237015","649-BX","2018/10/01 17:38:51","新北市三峽區正義街5號","121.37001","24.9201166666667","6500900","三峽區"
"237010","706-TV","2018/10/01 17:39:03","新北市三峽區中山路153號","121.364813333333","24.9362766666667","6500900","三峽區"
"236078","166-UM","2018/10/01 17:38:59","新北市土城區城林路6巷80號","121.438628333333","24.979735","6501300","土城區"
"236014","270-VK","2018/10/01 17:38:48","新北市土城區城林路6巷80號","121.43859","24.9795683333333","6501300","土城區"
"236039","271-VK","2018/10/01 17:38:48","新北市土城區城林路6巷80號","121.438521666667","24.979735","6501300","土城區"
"236042","752-BX","2018/10/01 17:38:47","新北市土城區城林路6巷80號","121.438468333333","24.979765","6501300","土城區"
"236055","AAC-216","2018/10/01 17:38:53","新北市土城區城林路6巷80號","121.438473333333","24.97966","6501300","土城區"
"242036","AAC-296","2018/10/01 17:38:48","新北市新莊區建福路59巷45號","121.42856","25.0279316666667","6500500","新莊區"
"242058","986-R7","2018/10/01 17:38:58","新北市新莊區中正路690號","121.42015","25.028275","6500500","新莊區"
"242056","751-BX","2018/10/01 17:38:59","新北市新莊區瓊林路13-3號","121.448968333333","25.0310266666667","6500500","新莊區"
"242029","705-TV","2018/10/01 17:38:48","新北市新莊區復興路一段177號","121.451411666667","25.0433483333333","6500500","新莊區"
"242027","615-BX","2018/10/01 17:39:02","新北市新莊區福壽街122號","121.457841666667","25.05111","6500500","新莊區"
"242025","613-BX","2018/10/01 17:39:04","新北市新莊區思源路86號","121.460283333333","25.044925","6500500","新莊區"
"242044","566-BX","2018/10/01 17:39:07","新北市新莊區中正路871巷9弄1號","121.418606666667","25.0268266666667","6500500","新莊區"
"242048","497-BY","2018/10/01 17:39:03","新北市新莊區萬安街100號","121.420631666667","25.02244","6500500","新莊區"
"242053","441-UM","2018/10/01 17:38:48","新北市新莊區新樹路362號","121.43266","25.0032816666667","6500500","新莊區"
"242002","440-UM","2018/10/01 17:39:02","新北市新莊區新莊路280號","121.45159","25.033875","6500500","新莊區"
"242039","415-TV","2018/10/01 17:38:47","新北市新莊區民安路336號","121.429001666667","25.022105","6500500","新莊區"
"242009","413-TV","2018/10/01 17:38:56","新北市新莊區福壽街169巷9號","121.456983333333","25.05373","6500500","新莊區"
"242046","400-BY","2018/10/01 17:38:52","新北市新莊區福營路75號","121.434898333333","25.0323483333333","6500500","新莊區"
"242023","362-BY","2018/10/01 17:38:45","新北市新莊區民樂街36號","121.4578","25.041065","6500500","新莊區"
"242060","353-BY","2018/10/01 17:38:56","新北市新莊區瓊林南路219號","121.434623333333","25.0088933333333","6500500","新莊區"
"242011","132-UY","2018/10/01 17:38:49","新北市新莊區中榮街1號","121.451435","25.05277","6500500","新莊區"
"242042","133-UY","2018/10/01 17:39:05","新北市新莊區中正路514巷15號","121.433078333333","25.03296","6500500","新莊區"
"242050","172-VK","2018/10/01 17:38:25","新北市新莊區西盛街216號","121.42785","25.0174133333333","6500500","新莊區"
"242019","175-VK","2018/10/01 17:38:57","新北市新莊區中港路182號","121.454865","25.0420816666667","6500500","新莊區"
"242017","346-TH","2018/10/01 17:38:49","新北市新莊區復興路一段149巷22弄2號","121.45035","25.0441066666667","6500500","新莊區"
"242031","348-TH","2018/10/01 17:39:06","新北市新莊區新泰路361巷3號","121.4436","25.043135","6500500","新莊區"
"242004","349-TH","2018/10/01 17:39:04","新北市新莊區自立街198號","121.45664","25.0455716666667","6500500","新莊區"
"242021","350-TH","2018/10/01 17:38:50","新北市新莊區中華路一段180號","121.452675","25.0420333333333","6500500","新莊區"
"242015","351-TH","2018/10/01 17:38:58","新北市新莊區新泰路330號","121.445005","25.0418483333333","6500500","新莊區"
"238015","755-BX","2018/10/01 17:38:51","新北市樹林區樹德街90號","121.42031","24.9925433333333","6500700","樹林區"
"238023","601-UM","2018/10/01 17:38:50","新北市樹林區三福街114號","121.406526666667","25.0162566666667","6500700","樹林區"
"238019","599-UM","2018/10/01 17:38:58","新北市樹林區太平路52巷1號","121.418983333333","24.9822016666667","6500700","樹林區"
"238018","571-TV","2018/10/01 17:38:58","新北市樹林區保安街一段1號","121.427281666667","24.99335","6500700","樹林區"
"238022","KEA-2213","2018/10/01 17:38:57","新北市樹林區太元街32號","121.418058333333","24.980185","6500700","樹林區"
"238021","KEA-2539","2018/10/01 17:38:51","新北市樹林區柑園街一段271號","121.394198333333","24.9564383333333","6500700","樹林區"
"238025","303-VK","2018/10/01 17:39:03","新北市樹林區保安街三段16號","121.412525","25.0111666666667","6500700","樹林區"
"238017","283-BY","2018/10/01 17:39:00","新北市樹林區三德街21號","121.41349","25.012985","6500700","樹林區"
"238014","282-BY","2018/10/01 17:39:05","新北市樹林區保安街一段328號","121.418295","24.9977966666667","6500700","樹林區"
"238020","268-VK","2018/10/01 17:38:54","新北市樹林區俊英街116巷41弄33號","121.428146666667","25.0073683333333","6500700","樹林區"
"238026","172-UY","2018/10/01 17:38:58","新北市樹林區新興街19巷11號","121.40066","24.9730366666667","6500700","樹林區"
"238016","169-UY","2018/10/01 17:38:50","新北市樹林區日新街148巷2號","121.420345","24.9886516666667","6500700","樹林區"
"239007","AAC-297","2018/10/01 17:39:01","新北市鶯歌區國光街72號","121.341518333333","24.9579983333333","6500800","鶯歌區"
"239006","891-R6","2018/10/01 17:39:03","新北市鶯歌區永和街30號","121.333046666667","24.9676183333333","6500800","鶯歌區"
"239008","527-UM","2018/10/01 17:38:51","新北市鶯歌區大湖路732巷5號","121.33286","24.97746","6500800","鶯歌區"
"239005","526-UM","2018/10/01 17:39:06","新北市鶯歌區鶯桃路二段24號","121.325966666667","24.972325","6500800","鶯歌區"
"239001","417-VK","2018/10/01 17:38:49","新北市鶯歌區中正三路236-8號","121.330421666667","24.9369166666667","6500800","鶯歌區"
"239003","360-BY","2018/10/01 17:38:54","新北市鶯歌區鶯桃路206巷6號","121.33748","24.9592783333333","6500800","鶯歌區"
"239002","359-BY","2018/10/01 17:38:57","新北市鶯歌區育智路84-1號","121.345118333333","24.9547083333333","6500800","鶯歌區"
"239004","193-VK","2018/10/01 17:38:49","新北市鶯歌區三鶯路135-1號","121.36135","24.9456233333333","6500800","鶯歌區"
"221008","489-VK","2018/10/01 17:38:51","新北市汐止區康寧街901號","121.651361666667","25.0749833333333","6501100","汐止區"
"221015","131-UY","2018/10/01 17:39:00","新北市汐止區汐萬路一段256巷1號","121.651971666667","25.074925","6501100","汐止區"
"221010","269-BY","2018/10/01 17:38:54","新北市汐止區汐萬路一段418巷30號","121.650046666667","25.0788533333333","6501100","汐止區"
"221023","279-VK","2018/10/01 17:38:48","新北市汐止區康寧街901號","121.65169","25.0749733333333","6501100","汐止區"
"221032","280-BY","2018/10/01 17:38:47","新北市汐止區康寧街901號","121.650858333333","25.0752366666667","6501100","汐止區"
"221021","299-VK","2018/10/01 17:38:46","新北市汐止區汐萬路一段256巷1號","121.651898333333","25.0748816666667","6501100","汐止區"
"221031","353-TW","2018/10/01 17:39:04","新北市汐止區汐萬路一段256巷1號","121.651698333333","25.074825","6501100","汐止區"
"221018","753-BX","2018/10/01 17:38:49","新北市汐止區汐萬路一段256巷1號","121.652001666667","25.0747916666667","6501100","汐止區"
"242034","281-VK","2018/10/01 17:39:03","新北市新莊區新莊路506號","121.44605","25.03327","6500500","新莊區"
"242007","280-VK","2018/10/01 17:38:45","新北市新莊區福樂街120號","121.457108333333","25.0478416666667","6500500","新莊區"
"235061","KEA-2875","2018/10/01 17:22:53","新北市中和區員山路36巷16-2號","121.48528","24.9916833333333","6500300","中和區"
