"lineid","car","time","location","longitude","latitude","cityid","cityname"
"234026","9371-KE","2018/10/01 18:09:02","新北市永和區秀朗路一段10巷21號","121.513325","25.0062933333333","6500400","永和區"
"249005","172-UM","2018/10/01 18:09:02","新北市八里區荖阡坑路17-11號","121.401625","25.1383433333333","6502300","八里區"
"249001","173-UM","2018/10/01 18:08:46","新北市八里區龍米路二段39號","121.448358333333","25.14011","6502300","八里區"
"249004","303-UY","2018/10/01 18:09:01","新北市八里區龍米路二段159巷2-10號","121.438863333333","25.153195","6502300","八里區"
"249002","305-UY","2018/10/01 18:08:53","新北市八里區龍米路一段356巷40號","121.452175","25.13051","6502300","八里區"
"249003","593-UM","2018/10/01 18:08:45","新北市八里區松子腳2-2號","121.403286666667","25.1449033333333","6502300","八里區"
"248014","025-BX","2018/10/01 18:08:56","新北市五股區成泰路一段220-1號","121.436386666667","25.079555","6501500","五股區"
"248016","026-BX","2018/10/01 18:08:50","新北市五股區新五路三段1號","121.444463333333","25.0890783333333","6501500","五股區"
"248006","077-UY","2018/10/01 18:09:08","新北市五股區中興路二段91號","121.460406666667","25.077415","6501500","五股區"
"248008","095-VK","2018/10/01 18:09:06","新北市五股區更洲路32巷8弄14號","121.459235","25.0796316666667","6501500","五股區"
"248018","225-UY","2018/10/01 18:09:07","新北市五股區成泰路三段74號","121.444313333333","25.089755","6501500","五股區"
"248012","247-BX","2018/10/01 18:08:51","新北市五股區新五路三段38號","121.44428","25.0879166666667","6501500","五股區"
"248004","677-BX","2018/10/01 18:08:54","新北市五股區成泰路二段108號","121.437903333333","25.083215","6501500","五股區"
"248002","678-BX","2018/10/01 18:08:49","新北市五股區新五路二段258號","121.440926666667","25.08237","6501500","五股區"
"248010","682-TV","2018/10/01 18:08:51","新北市五股區成泰路一段223號","121.434365","25.0776616666667","6501500","五股區"
"232011","375-UM","2018/10/01 18:09:06","新北市坪林區坪林街16-1號","121.712601666667","24.9364066666667","6502000","坪林區"
"244022","069-UM","2018/10/01 18:08:54","新北市林口區東湖路120號","121.384738333333","25.07378","6501700","林口區"
"244007","080-UY","2018/10/01 18:08:45","新北市林口區竹林路560號","121.387171666667","25.0841683333333","6501700","林口區"
"244019","403-UM","2018/10/01 18:08:59","新北市林口區文化一路一段126號","121.375335","25.072575","6501700","林口區"
"244013","KEA-2802","2018/10/01 18:08:53","新北市林口區中山路144-1號","121.391428333333","25.078715","6501700","林口區"
"244017","485-VK","2018/10/01 18:09:01","新北市林口區文化一路一段19號","121.369828333333","25.06858","6501700","林口區"
"244009","656-BX","2018/10/01 18:08:52","新北市林口區佳林路70號","121.386106666667","25.081195","6501700","林口區"
"244011","701-TV","2018/10/01 18:09:06","新北市林口區中山路11號","121.396235","25.0782083333333","6501700","林口區"
"244025","837-TS","2018/10/01 18:08:52","新北市林口區文化北路一段178號","121.357108333333","25.0697216666667","6501700","林口區"
"244021","838-TS","2018/10/01 18:08:51","新北市林口區粉寮路一段3號","121.3964","25.0757966666667","6501700","林口區"
"243013","AAD-798","2018/10/01 18:08:54","新北市泰山區南林路99巷8-1號","121.416585","25.04951","6501600","泰山區"
"222003","436-BY","2018/10/01 18:08:47","新北市深坑區腳坑2-3號","121.611281666667","24.996195","6501800","深坑區"
"222002","659-BX","2018/10/01 18:09:05","新北市深坑區文化街52號","121.61904","25.0016866666667","6501800","深坑區"
"231059","001-UM","2018/10/01 18:08:59","新北市新店區安華路28-1號","121.519421666667","24.960715","6500600","新店區"
"231041","002-UM","2018/10/01 18:08:55","新北市新店區安華路28-1號","121.519793333333","24.960775","6500600","新店區"
"231044","106-UY","2018/10/01 18:08:46","新北市新店區安華路28-1號","121.519605","24.96081","6500600","新店區"
"231046","107-UY","2018/10/01 18:08:57","新北市新店區直潭路113號","121.531185","24.9352783333333","6500600","新店區"
"231052","110-UY","2018/10/01 18:08:52","新北市新店區安華路28-1號","121.519391666667","24.960955","6500600","新店區"
"231047","187-VK","2018/10/01 18:08:48","新北市新店區安一路一段1-1號","121.51952","24.96109","6500600","新店區"
"231057","256-BX","2018/10/01 18:08:58","新北市新店區安一路一段1-1號","121.519696666667","24.96114","6500600","新店區"
"231042","268-BY","2018/10/01 18:08:52","新北市新店區安華路28-1號","121.519375","24.9605533333333","6500600","新店區"
"231050","AAD-862","2018/10/01 18:08:46","新北市新店區安一路一段1-1號","121.520048333333","24.9611233333333","6500600","新店區"
"231058","3713-VJ","2018/10/01 18:08:50","新北市新店區安華路28-1號","121.519281666667","24.9607016666667","6500600","新店區"
"231066","4716-K9","2018/10/01 18:08:52","新北市新店區安一路一段1-1號","121.519325","24.961205","6500600","新店區"
"231056","4715-K9","2018/10/01 18:08:58","新北市新店區安康路一段229號","121.52549","24.9631366666667","6500600","新店區"
"231065","512-UM","2018/10/01 18:08:53","新北市新店區安華路28-1號","121.519276666667","24.96084","6500600","新店區"
"231049","513-UM","2018/10/01 18:09:02","新北市新店區安一路一段1-1號","121.519653333333","24.9610516666667","6500600","新店區"
"231063","616-UM","2018/10/01 18:08:49","新北市新店區安華路1-1號","121.519426666667","24.9604666666667","6500600","新店區"
"231045","617-UM","2018/10/01 18:09:03","新北市新店區安華路28-1號","121.519383333333","24.9609416666667","6500600","新店區"
"231043","618-UM","2018/10/01 18:03:30","新北市新店區安華路28-1號","121.519466666667","24.9605416666667","6500600","新店區"
"231061","619-UM","2018/10/01 18:09:00","新北市新店區安華路28-1號","121.519468333333","24.960775","6500600","新店區"
"231064","719-UM","2018/10/01 18:08:51","新北市新店區安一路一段1-1號","121.519525","24.96121","6500600","新店區"
"231054","719-UY","2018/10/01 18:08:58","新北市新店區安一路一段1-1號","121.519728333333","24.9612916666667","6500600","新店區"
"231060","897-TW","2018/10/01 18:08:57","新北市新店區安華路28-1號","121.519666666667","24.9607566666667","6500600","新店區"
"231055","AKT-0513","2018/10/01 18:09:02","新北市新店區安一路一段1-1號","121.519708333333","24.961555","6500600","新店區"
"251014","742-BX","2018/10/01 18:09:05","新北市淡水區南平15號","121.488528333333","25.2189683333333","6501000","淡水區"
"241024","462-BY","2018/10/01 18:08:49","新北市三重區中正北路193巷35弄17號","121.476841666667","25.070885","6500200","三重區"
"241033","AAC-255","2018/10/01 18:09:00","新北市三重區中興北街52-5號","121.469315","25.05056","6500200","三重區"
"235064","005-UY","2018/10/01 18:08:48","新北市中和區中正路175號","121.497456666667","24.993675","6500300","中和區"
"235063","006-UY","2018/10/01 18:08:58","新北市中和區員山路36巷16-3號","121.48505","24.9913083333333","6500300","中和區"
"235065","031-BX","2018/10/01 18:08:59","新北市中和區連城路339號","121.488365","24.996155","6500300","中和區"
"235056","096-UM","2018/10/01 18:08:54","新北市中和區連城路469巷79弄2號","121.483473333333","24.9936716666667","6500300","中和區"
"235039","097-UM","2018/10/01 18:08:58","新北市中和區和城路一段271巷1號","121.485508333333","24.9916733333333","6500300","中和區"
"235040","150-BY","2018/10/01 18:08:10","新北市中和區和城路一段271巷1號","121.485541666667","24.9917966666667","6500300","中和區"
"235058","151-BY","2018/10/01 18:08:54","新北市中和區圓通路367巷33弄15號","121.495031666667","24.985195","6500300","中和區"
"235038","185-VK","2018/10/01 18:09:06","新北市中和區景平路155號","121.513608333333","24.99231","6500300","中和區"
"235067","255-BX","2018/10/01 18:08:54","新北市中和區和城路一段271巷1號","121.485766666667","24.99181","6500300","中和區"
"235042","KEA-2878","2018/10/01 18:08:57","新北市中和區中正路277號","121.495383333333","24.993775","6500300","中和區"
"247012","KEA-2869","2018/10/01 18:08:46","新北市蘆洲區民族路39號","121.478276666667","25.0852966666667","6501400","蘆洲區"
"235070","558-UM","2018/10/01 18:08:57","新北市中和區圓通路208號","121.496071666667","24.9940266666667","6500300","中和區"
"235045","565-BX","2018/10/01 18:09:05","新北市中和區錦和路350-1號","121.490496666667","24.9935316666667","6500300","中和區"
"235054","640-BX","2018/10/01 18:08:51","新北市中和區連城路569巷9弄24號","121.479728333333","24.9934466666667","6500300","中和區"
"235047","732-UM","2018/10/01 18:08:57","新北市中和區中正路273號","121.495718333333","24.99382","6500300","中和區"
"235057","801-TS","2018/10/01 18:09:02","新北市中和區員山路36巷16-2號","121.485218333333","24.9914033333333","6500300","中和區"
"235052","805-TS","2018/10/01 18:08:56","新北市中和區中正路275-1號","121.495543333333","24.9936233333333","6500300","中和區"
"235053","900-TW","2018/10/01 18:08:51","新北市中和區員山路36巷16-3號","121.484913333333","24.9917216666667","6500300","中和區"
"235051","157-BY","2018/10/01 18:08:56","新北市中和區中正路213號","121.497026666667","24.9937666666667","6500300","中和區"
"235037","AAC-213","2018/10/01 18:08:48","新北市中和區景平路147號","121.514026666667","24.9922333333333","6500300","中和區"
"226004","312-R5","2018/10/01 18:09:01","新北市平溪區白石里中埔127號","121.723055","25.0230216666667","6502400","平溪區"
"235043","251-BX","2018/10/01 18:09:05","新北市中和區員山路36巷16-2號","121.485261666667","24.991355","6500300","中和區"
"228003","097-TW","2018/10/01 18:08:52","新北市貢寮區真理里美艷山街6-2號","121.928878333333","25.0607533333333","6502600","貢寮區"
"228002","663-BX","2018/10/01 18:08:46","新北市貢寮區福連里福興街39-3號","121.99332","25.0126716666667","6502600","貢寮區"
"228001","670-TC","2018/10/01 18:08:59","新北市貢寮區真理里新港街26巷55弄2-1號","121.927365","25.0528616666667","6502600","貢寮區"
"224006","676-BX","2018/10/01 18:08:55","新北市瑞芳區中山路56號","121.803113333333","25.1064116666667","6501200","瑞芳區"
"224002","639-TC","2018/10/01 18:08:56","新北市瑞芳區三爪子坑路165-1號","121.810668333333","25.1058266666667","6501200","瑞芳區"
"224008","285-BY","2018/10/01 18:08:52","新北市瑞芳區員山子路23號","121.821375","25.1030083333333","6501200","瑞芳區"
"224007","275-VK","2018/10/01 18:09:04","新北市瑞芳區四腳亭坑路9號","121.77762","25.1096483333333","6501200","瑞芳區"
"224009","273-VK","2018/10/01 18:09:06","新北市瑞芳區金光路250號","121.855223333333","25.10656","6501200","瑞芳區"
"224005","271-BY","2018/10/01 18:08:54","新北市瑞芳區深澳路87-1號","121.818168333333","25.1301916666667","6501200","瑞芳區"
"227001","642-TC","2018/10/01 18:08:57","新北市雙溪區共和里東榮街52號","121.866276666667","25.0336283333333","6502500","雙溪區"
"253006","032-BX","2018/10/01 18:09:05","新北市石門區老梅路52巷25弄2-1號","121.546853333333","25.286685","6502200","石門區"
"253005","295-VK","2018/10/01 18:08:56","新北市石門區福安街49號","121.568418333333","25.291775","6502200","石門區"
"222001","KEA-2212","2018/10/01 18:09:07","新北市深坑區北深路二段186號","121.614011666667","25.0022833333333","6501800","深坑區"
"208002","KEA-2872","2018/10/01 18:09:03","新北市金山區三界壇路99巷9號","121.620718333333","25.2278416666667","6502700","金山區"
"208003","665-BX","2018/10/01 18:09:03","新北市金山區磺港里磺港路24-6號","121.649721666667","25.23022","6502700","金山區"
"251009","008-UM","2018/10/01 18:08:53","新北市淡水區大忠街34巷14號","121.443603333333","25.175425","6501000","淡水區"
"251005","010-UM","2018/10/01 18:08:53","新北市淡水區水源街一段160號","121.448931666667","25.17111","6501000","淡水區"
"251001","011-UM","2018/10/01 18:08:53","新北市淡水區自立路10號","121.463053333333","25.129725","6501000","淡水區"
"251013","KEA-2871","2018/10/01 18:08:47","新北市淡水區竹圍子19-2號","121.477208333333","25.19147","6501000","淡水區"
"251008","179-VK","2018/10/01 18:08:58","新北市淡水區中正東路二段7號","121.458113333333","25.1583833333333","6501000","淡水區"
"251015","180-VK","2018/10/01 18:08:55","新北市淡水區興福寮88巷1號","121.48541","25.164975","6501000","淡水區"
"251010","413-VK","2018/10/01 18:09:03","新北市淡水區淡海路160號","121.420926666667","25.1832333333333","6501000","淡水區"
"251012","441-VK","2018/10/01 18:08:52","新北市淡水區北新路三段171-1號","121.491588333333","25.1912933333333","6501000","淡水區"
"251004","443-VK","2018/10/01 18:08:54","新北市淡水區民權路187巷34號","121.460683333333","25.13338","6501000","淡水區"
"251006","561-UM","2018/10/01 18:09:03","新北市淡水區真理街3巷24-1號","121.437913333333","25.1765416666667","6501000","淡水區"
"251016","575-R6","2018/10/01 18:08:51","新北市淡水區淡金路三段46巷62號","121.450685","25.2002533333333","6501000","淡水區"
"251011","650-BX","2018/10/01 18:08:47","新北市淡水區三空泉9-2號","121.47411","25.1635083333333","6501000","淡水區"
"251002","672-BX","2018/10/01 18:08:49","新北市淡水區中正東路一段127巷2號","121.455558333333","25.1591833333333","6501000","淡水區"
"251003","766-UM","2018/10/01 18:08:59","新北市淡水區大忠街113巷24號","121.447388333333","25.17744","6501000","淡水區"
"207003","550-UM","2018/10/01 18:09:01","新北市萬里區野柳里港西路65-1號","121.685128333333","25.204125","6502800","萬里區"
"207004","225-TW","2018/10/01 18:09:00","新北市萬里區中幅里中福路106號","121.676815","25.1693066666667","6502800","萬里區"
"252002","178-VK","2018/10/01 18:08:55","新北市三芝區中山路二段39號","121.502943333333","25.2551633333333","6502100","三芝區"
"252003","249-BX","2018/10/01 18:08:46","新北市三芝區北海路二段167號","121.502423333333","25.2615933333333","6502100","三芝區"
"252001","292-VK","2018/10/01 18:08:51","新北市三芝區中興街二段2號","121.498456666667","25.256625","6502100","三芝區"
"237007","153-BY","2018/10/01 18:09:04","新北市三峽區中正路二段272號","121.365956666667","24.9119216666667","6500900","三峽區"
"237009","210-TH","2018/10/01 18:09:01","新北市三峽區大仁路50巷20號","121.365318333333","24.938215","6500900","三峽區"
"237013","252-BX","2018/10/01 18:08:58","新北市三峽區介壽路一段191號","121.377678333333","24.93103","6500900","三峽區"
"237012","275-BY","2018/10/01 18:09:01","新北市三峽區民生街1巷1-43號","121.377458333333","24.9359666666667","6500900","三峽區"
"237008","302-VK","2018/10/01 18:09:02","新北市三峽區白雞44-18號","121.378196666667","24.90962","6500900","三峽區"
"237014","433-BY","2018/10/01 18:08:48","新北市三峽區和平街103號","121.370356666667","24.9381033333333","6500900","三峽區"
"237006","5529-G3","2018/10/01 18:08:56","新北市三峽區介壽路二段167號","121.394728333333","24.935915","6500900","三峽區"
"237011","KEA-2596","2018/10/01 18:09:06","新北市三峽區大同路34號","121.377495","24.9289833333333","6500900","三峽區"
"237015","649-BX","2018/10/01 18:08:51","新北市三峽區紫微路23-1號","121.423335","24.9201433333333","6500900","三峽區"
"237010","706-TV","2018/10/01 18:09:03","新北市三峽區中園街3號","121.368598333333","24.9274816666667","6500900","三峽區"
"237005","AKY-6261","2018/10/01 18:08:50","新北市三峽區民生街152-3號","121.371933333333","24.935295","6500900","三峽區"
"236069","105-UM","2018/10/01 18:08:47","新北市土城區明德路一段369-2號","121.453176666667","24.9793833333333","6501300","土城區"
"236078","166-UM","2018/10/01 18:08:59","新北市土城區永寧路29號","121.430453333333","24.963215","6501300","土城區"
"236030","253-BX","2018/10/01 18:09:08","新北市土城區城林路6巷80號","121.438668333333","24.9796566666667","6501300","土城區"
"236026","269-VK","2018/10/01 18:08:50","新北市土城區承天路67號","121.439613333333","24.9635316666667","6501300","土城區"
"236014","270-VK","2018/10/01 18:09:08","新北市土城區學府路一段175號","121.45246","24.9852383333333","6501300","土城區"
"236039","271-VK","2018/10/01 18:08:48","新北市土城區明德路一段385-1號","121.452711666667","24.9797583333333","6501300","土城區"
"236020","401-BY","2018/10/01 18:09:01","新北市土城區城林路6巷80號","121.438528333333","24.9795733333333","6501300","土城區"
"236042","752-BX","2018/10/01 18:06:27","新北市土城區城林路6巷80號","121.438493333333","24.9797366666667","6501300","土城區"
"236059","912-UM","2018/10/01 18:09:02","新北市土城區中央路四段139-2號","121.415735","24.957245","6501300","土城區"
"236048","913-UM","2018/10/01 18:08:45","新北市土城區金城路二段2巷5號","121.447776666667","24.976185","6501300","土城區"
"236063","915-UM","2018/10/01 18:08:48","新北市土城區中正路65號","121.444506666667","24.9757233333333","6501300","土城區"
"236055","AAC-216","2018/10/01 18:08:53","新北市土城區中華路二段56號","121.439073333333","24.9773","6501300","土城區"
"242036","AAC-296","2018/10/01 18:09:02","新北市新莊區後港一路49巷2號","121.42609","25.0265866666667","6500500","新莊區"
"242058","986-R7","2018/10/01 18:08:58","新北市新莊區壽山路49-3號","121.41438","25.0308866666667","6500500","新莊區"
"242056","751-BX","2018/10/01 18:08:56","新北市新莊區瓊林路40巷27號","121.446705","25.03017","6500500","新莊區"
"242029","705-TV","2018/10/01 18:09:08","新北市新莊區中平路156號","121.444746666667","25.0473533333333","6500500","新莊區"
"242027","615-BX","2018/10/01 18:09:05","新北市新莊區幸福路85號","121.456195","25.04917","6500500","新莊區"
"242025","613-BX","2018/10/01 18:08:50","新北市新莊區五權一路94號","121.459541666667","25.0674166666667","6500500","新莊區"
"242044","566-BX","2018/10/01 18:08:57","新北市新莊區雙鳳路135號","121.412885","25.0274666666667","6500500","新莊區"
"242048","497-BY","2018/10/01 18:09:03","新北市新莊區民安路56號","121.423181666667","25.0274416666667","6500500","新莊區"
"242053","441-UM","2018/10/01 18:08:48","新北市新莊區民安西路412-3號","121.428788333333","25.0098166666667","6500500","新莊區"
"242002","440-UM","2018/10/01 18:08:48","新北市新莊區新莊路113號","121.457298333333","25.0364883333333","6500500","新莊區"
"242039","415-TV","2018/10/01 18:09:07","新北市新莊區民安西路88巷3弄2號","121.426438333333","25.0199416666667","6500500","新莊區"
"242009","413-TV","2018/10/01 18:09:05","新北市新莊區中華路二段150號","121.453285","25.050315","6500500","新莊區"
"242046","400-BY","2018/10/01 18:08:59","新北市新莊區福營路227巷8號","121.430101666667","25.029465","6500500","新莊區"
"242060","353-BY","2018/10/01 18:08:56","新北市新莊區新樹路79號","121.437788333333","25.02753","6500500","新莊區"
"242011","132-UY","2018/10/01 18:09:03","新北市新莊區中信街94巷11號","121.44851","25.0536483333333","6500500","新莊區"
"242042","133-UY","2018/10/01 18:08:45","新北市新莊區壽山路31號","121.42007","25.0287783333333","6500500","新莊區"
"242050","172-VK","2018/10/01 18:09:05","新北市新莊區民本街11巷22號","121.428741666667","25.0202816666667","6500500","新莊區"
"242019","175-VK","2018/10/01 18:08:51","新北市新莊區中港路132巷12號","121.455856666667","25.0405816666667","6500500","新莊區"
"242031","348-TH","2018/10/01 18:09:02","新北市新莊區新泰路277巷17號","121.445116666667","25.0402033333333","6500500","新莊區"
"242021","350-TH","2018/10/01 18:09:07","新北市新莊區新興街80號","121.450716666667","25.0382566666667","6500500","新莊區"
"242015","351-TH","2018/10/01 18:08:58","新北市新莊區中平路152巷46號","121.446721666667","25.0473716666667","6500500","新莊區"
"238015","755-BX","2018/10/01 18:08:50","新北市樹林區文德街21號","121.41861","24.9918033333333","6500700","樹林區"
"238023","601-UM","2018/10/01 18:08:50","新北市樹林區三福街85巷10號","121.406981666667","25.0155383333333","6500700","樹林區"
"238019","599-UM","2018/10/01 18:08:58","新北市樹林區水源街44號","121.425605","24.98129","6500700","樹林區"
"238018","571-TV","2018/10/01 18:08:58","新北市樹林區博愛街115號","121.426466666667","24.9908133333333","6500700","樹林區"
"238024","5061-A6","2018/10/01 18:09:05","新北市樹林區豐林街64號","121.42213","24.9979616666667","6500700","樹林區"
"238022","KEA-2213","2018/10/01 18:08:57","新北市樹林區福順街75-1號","121.416078333333","24.9779916666667","6500700","樹林區"
"238021","KEA-2539","2018/10/01 18:09:02","新北市樹林區柑園街一段373號","121.388465","24.9559083333333","6500700","樹林區"
"238025","303-VK","2018/10/01 18:09:03","新北市樹林區保安街二段2-1號","121.41618","25.0004466666667","6500700","樹林區"
"238017","283-BY","2018/10/01 18:09:00","新北市樹林區中正路592號","121.410508333333","25.0154066666667","6500700","樹林區"
"238014","282-BY","2018/10/01 18:09:08","新北市樹林區千歲街61巷40弄2號","121.425816666667","24.9987733333333","6500700","樹林區"
"238020","268-VK","2018/10/01 18:08:54","新北市樹林區三龍街150號","121.417091666667","25.0182533333333","6500700","樹林區"
"238026","172-UY","2018/10/01 18:08:58","新北市樹林區育德街40-1號","121.390116666667","24.96934","6500700","樹林區"
"238016","169-UY","2018/10/01 18:08:50","新北市樹林區中山路一段276號","121.420671666667","24.98689","6500700","樹林區"
"239007","AAC-297","2018/10/01 18:09:01","新北市鶯歌區尖山埔路127號","121.346928333333","24.9511316666667","6500800","鶯歌區"
"239006","891-R6","2018/10/01 18:09:03","新北市鶯歌區鶯桃路385號","121.333426666667","24.9636216666667","6500800","鶯歌區"
"239008","527-UM","2018/10/01 18:08:50","新北市鶯歌區朝陽街4號","121.336248333333","24.9765883333333","6500800","鶯歌區"
"239005","526-UM","2018/10/01 18:08:46","新北市鶯歌區鶯桃路668巷73號","121.329925","24.971815","6500800","鶯歌區"
"239001","417-VK","2018/10/01 18:08:49","新北市鶯歌區國中街87號","121.34197","24.9417816666667","6500800","鶯歌區"
"239003","360-BY","2018/10/01 18:09:05","新北市鶯歌區鶯桃路392號","121.333973333333","24.963735","6500800","鶯歌區"
"239002","359-BY","2018/10/01 18:08:57","新北市鶯歌區中山路329巷3號","121.343756666667","24.9565916666667","6500800","鶯歌區"
"239004","193-VK","2018/10/01 18:08:49","新北市鶯歌區中正一路374-3號","121.3588","24.9567516666667","6500800","鶯歌區"
"221008","489-VK","2018/10/01 18:08:51","新北市汐止區康寧街315號","121.626938333333","25.06789","6501100","汐止區"
"221036","130-UY","2018/10/01 18:09:03","新北市汐止區大同路三段109號","121.668481666667","25.0775716666667","6501100","汐止區"
"221015","131-UY","2018/10/01 18:09:00","新北市汐止區長江街349號","121.667401666667","25.08201","6501100","汐止區"
"221010","269-BY","2018/10/01 18:08:54","新北市汐止區汐萬路二段265號","121.646186666667","25.0887733333333","6501100","汐止區"
"221012","278-VK","2018/10/01 18:08:49","新北市汐止區保一街39號","121.674261666667","25.080005","6501100","汐止區"
"221023","279-VK","2018/10/01 18:08:48","新北市汐止區民族六街2巷23號","121.628451666667","25.0701183333333","6501100","汐止區"
"221032","280-BY","2018/10/01 18:08:47","新北市汐止區橫科路19號","121.617796666667","25.0512833333333","6501100","汐止區"
"221027","281-BY","2018/10/01 18:09:04","新北市汐止區大同路二段542號","121.661563333333","25.06876","6501100","汐止區"
"221029","298-VK","2018/10/01 18:09:07","新北市汐止區樟樹二路134號","121.639986666667","25.065625","6501100","汐止區"
"221021","299-VK","2018/10/01 18:08:58","新北市汐止區龍安路173號","121.653685","25.06303","6501100","汐止區"
"221031","353-TW","2018/10/01 18:09:04","新北市汐止區中興路155號","121.631268333333","25.0660066666667","6501100","汐止區"
"221035","622-UM","2018/10/01 18:08:54","新北市汐止區大同路二段341-1號","121.656155","25.0671683333333","6501100","汐止區"
"221025","623-UM","2018/10/01 18:08:57","新北市汐止區秀峰路139號","121.660265","25.0623866666667","6501100","汐止區"
"221038","646-BX","2018/10/01 18:08:45","新北市汐止區南興路83巷1號","121.653013333333","25.059165","6501100","汐止區"
"221033","647-BX","2018/10/01 18:05:47","新北市汐止區宜興街18號","121.621513333333","25.0415066666667","6501100","汐止區"
"221002","707-TV","2018/10/01 18:08:48","新北市汐止區福德一路195號","121.635505","25.0656266666667","6501100","汐止區"
"221018","753-BX","2018/10/01 18:08:49","新北市汐止區忠孝東路341號","121.665363333333","25.069975","6501100","汐止區"
"242034","281-VK","2018/10/01 18:09:03","新北市新莊區新豐街68巷1號","121.446346666667","25.033735","6500500","新莊區"
"242007","280-VK","2018/10/01 18:08:46","新北市新莊區自強街37巷14弄13號","121.454138333333","25.046935","6500500","新莊區"
"235061","KEA-2875","2018/10/01 18:09:04","新北市中和區連城路559號","121.47997","24.994715","6500300","中和區"
"235060","KEA-2876","2018/10/01 18:08:57","新北市中和區員山路36巷16-3號","121.484788333333","24.9914866666667","6500300","中和區"
