"lineid","car","time","location","longitude","latitude","cityid","cityname"
"234007","207-UY","2018/10/01 18:19:03","新北市永和區環河西路二段179號","121.50471","25.0125166666667","6500400","永和區"
"234086","338-UY","2018/10/01 18:18:58","新北市永和區福和路1號","121.5264","25.0097516666667","6500400","永和區"
"234026","9371-KE","2018/10/01 18:19:02","新北市永和區豫溪街28巷1號","121.515321666667","25.00973","6500400","永和區"
"249005","172-UM","2018/10/01 18:19:02","新北市八里區荖阡坑路15-40號","121.40173","25.139815","6502300","八里區"
"249001","173-UM","2018/10/01 18:18:46","新北市八里區龍米路一段197號","121.451383333333","25.1311966666667","6502300","八里區"
"249004","303-UY","2018/10/01 18:19:01","新北市八里區龍米路二段206巷2號","121.433298333333","25.1588433333333","6502300","八里區"
"249002","305-UY","2018/10/01 18:19:08","新北市八里區龍形二街18號","121.4506","25.1326716666667","6502300","八里區"
"248014","025-BX","2018/10/01 18:18:56","新北市五股區自強路21號","121.434386666667","25.07407","6501500","五股區"
"248016","026-BX","2018/10/01 18:18:50","新北市五股區成泰路三段477巷18號","121.449888333333","25.0988866666667","6501500","五股區"
"248006","077-UY","2018/10/01 18:18:48","新北市五股區中興路一段164-1號","121.464136666667","25.073965","6501500","五股區"
"248008","095-VK","2018/10/01 18:18:46","新北市五股區更洲路32巷8弄14號","121.459246666667","25.0796316666667","6501500","五股區"
"248018","225-UY","2018/10/01 18:19:07","新北市五股區御史路205-1號","121.431365","25.1005066666667","6501500","五股區"
"248012","247-BX","2018/10/01 18:18:51","新北市五股區御史路1巷101弄2號","121.440988333333","25.0912233333333","6501500","五股區"
"248004","677-BX","2018/10/01 18:18:54","新北市五股區成泰路二段222-2號","121.43912","25.0854283333333","6501500","五股區"
"248002","678-BX","2018/10/01 18:18:51","新北市五股區西雲路28號","121.443355","25.090685","6501500","五股區"
"248010","682-TV","2018/10/01 18:18:51","新北市五股區成泰路一段139巷2弄2號","121.435093333333","25.0729316666667","6501500","五股區"
"232011","375-UM","2018/10/01 18:19:06","新北市坪林區坪雙路一段41號","121.711693333333","24.9424466666667","6502000","坪林區"
"244022","069-UM","2018/10/01 18:18:54","新北市林口區東湖路153巷121號","121.382378333333","25.0729183333333","6501700","林口區"
"244007","080-UY","2018/10/01 18:19:05","新北市林口區佳林路101巷50號","121.387555","25.0793866666667","6501700","林口區"
"244019","403-UM","2018/10/01 18:18:59","新北市林口區忠孝路551號","121.372473333333","25.068635","6501700","林口區"
"244013","KEA-2802","2018/10/01 18:18:53","新北市林口區佳林路101巷36號","121.386991666667","25.0799816666667","6501700","林口區"
"244017","485-VK","2018/10/01 18:19:01","新北市林口區公園路41號","121.367248333333","25.06819","6501700","林口區"
"244009","656-BX","2018/10/01 18:18:52","新北市林口區文林二街12號","121.376935","25.0890116666667","6501700","林口區"
"244011","701-TV","2018/10/01 18:19:06","新北市林口區新生街19號","121.394146666667","25.076605","6501700","林口區"
"244025","837-TS","2018/10/01 18:18:52","新北市林口區南勢六街18號","121.35692","25.0708666666667","6501700","林口區"
"244021","838-TS","2018/10/01 18:18:51","新北市林口區自強一街61號","121.39963","25.0772783333333","6501700","林口區"
"243013","AAD-798","2018/10/01 18:15:14","新北市泰山區南林路109號","121.415725","25.0471333333333","6501600","泰山區"
"222003","436-BY","2018/10/01 18:18:47","新北市深坑區旺耽路67號","121.62628","25.003005","6501800","深坑區"
"222002","659-BX","2018/10/01 18:19:05","新北市深坑區雲鄉路64號","121.621631666667","24.999355","6501800","深坑區"
"231059","001-UM","2018/10/01 18:18:59","新北市新店區安華路28-1號","121.519551666667","24.960955","6500600","新店區"
"231041","002-UM","2018/10/01 18:18:55","新北市新店區安華路28-1號","121.519695","24.9608883333333","6500600","新店區"
"231040","047-UY","2018/10/01 18:19:03","新北市新店區安一路一段1-1號","121.518955","24.96097","6500600","新店區"
"231044","106-UY","2018/10/01 18:19:06","新北市新店區安華路28-1號","121.519646666667","24.9607866666667","6500600","新店區"
"231046","107-UY","2018/10/01 18:18:57","新北市新店區直潭七街60號","121.532276666667","24.9398033333333","6500600","新店區"
"231052","110-UY","2018/10/01 18:18:52","新北市新店區安康路一段323-1號","121.52175","24.9637816666667","6500600","新店區"
"231047","187-VK","2018/10/01 18:18:48","新北市新店區安一路一段1-1號","121.519673333333","24.96117","6500600","新店區"
"231057","256-BX","2018/10/01 18:18:58","新北市新店區安一路一段1-1號","121.519685","24.9611133333333","6500600","新店區"
"231042","268-BY","2018/10/01 18:18:52","新北市新店區安華路28-1號","121.519391666667","24.9606016666667","6500600","新店區"
"231050","AAD-862","2018/10/01 18:18:46","新北市新店區安一路一段1-1號","121.519856666667","24.9611133333333","6500600","新店區"
"231058","3713-VJ","2018/10/01 18:18:50","新北市新店區安康路一段44號","121.530711666667","24.961025","6500600","新店區"
"231066","4716-K9","2018/10/01 18:18:52","新北市新店區安一路一段1-1號","121.51929","24.9612533333333","6500600","新店區"
"231056","4715-K9","2018/10/01 18:18:58","新北市新店區中央路57號","121.53276","24.97738","6500600","新店區"
"231065","512-UM","2018/10/01 18:18:53","新北市新店區安一路一段1-1號","121.519381666667","24.961195","6500600","新店區"
"231049","513-UM","2018/10/01 18:19:02","新北市新店區安一路一段1-1號","121.519646666667","24.9610916666667","6500600","新店區"
"231063","616-UM","2018/10/01 18:18:49","新北市新店區安華路1-1號","121.519471666667","24.9604833333333","6500600","新店區"
"231045","617-UM","2018/10/01 18:19:03","新北市新店區安華路28-1號","121.519415","24.9608516666667","6500600","新店區"
"231043","618-UM","2018/10/01 18:16:09","新北市新店區安華路28-1號","121.519418333333","24.9608866666667","6500600","新店區"
"231061","619-UM","2018/10/01 18:19:00","新北市新店區安華路28-1號","121.519451666667","24.9607466666667","6500600","新店區"
"231064","719-UM","2018/10/01 18:18:51","新北市新店區安一路一段1-1號","121.519531666667","24.9612233333333","6500600","新店區"
"231054","719-UY","2018/10/01 18:18:58","新北市新店區安一路一段1-1號","121.519725","24.9612916666667","6500600","新店區"
"231060","897-TW","2018/10/01 18:18:57","新北市新店區安華路28-1號","121.519661666667","24.96078","6500600","新店區"
"231055","AKT-0513","2018/10/01 18:19:02","新北市新店區北新路一段341號","121.541938333333","24.9688416666667","6500600","新店區"
"251014","742-BX","2018/10/01 18:18:45","新北市淡水區南平18號","121.491671666667","25.2193033333333","6501000","淡水區"
"235066","003-UY","2018/10/01 18:18:52","新北市中和區南山路59號","121.502096666667","24.99833","6500300","中和區"
"235064","005-UY","2018/10/01 18:18:48","新北市中和區圓通路167巷7號","121.498111666667","24.9950466666667","6500300","中和區"
"235063","006-UY","2018/10/01 18:18:58","新北市中和區中正路525號","121.48786","24.9935533333333","6500300","中和區"
"235065","031-BX","2018/10/01 18:18:49","新北市中和區建康路200號","121.491195","25.0001283333333","6500300","中和區"
"235056","096-UM","2018/10/01 18:18:54","新北市中和區員山路552號","121.478688333333","25.010305","6500300","中和區"
"235039","097-UM","2018/10/01 18:18:58","新北市中和區中正路22號","121.502683333333","24.993625","6500300","中和區"
"235040","150-BY","2018/10/01 18:18:51","新北市中和區中正路171號","121.497785","24.9934983333333","6500300","中和區"
"235058","151-BY","2018/10/01 18:18:54","新北市中和區圓通路367巷5號","121.492213333333","24.9881533333333","6500300","中和區"
"235055","183-VK","2018/10/01 18:19:02","新北市中和區連城路469巷70弄4號","121.483336666667","24.993655","6500300","中和區"
"235038","185-VK","2018/10/01 18:19:06","新北市中和區大智街42巷1-6號","121.521931666667","24.9921883333333","6500300","中和區"
"235049","186-VK","2018/10/01 18:18:54","新北市中和區員山路36巷16-2號","121.485338333333","24.99173","6500300","中和區"
"235067","255-BX","2018/10/01 18:18:54","新北市中和區和城路一段271巷1號","121.485758333333","24.991805","6500300","中和區"
"235072","301-VK","2018/10/01 18:18:50","新北市中和區連城路249-1號","121.493223333333","24.996915","6500300","中和區"
"235042","KEA-2878","2018/10/01 18:18:57","新北市中和區景平路123號","121.515308333333","24.9922133333333","6500300","中和區"
"235050","4979-A6","2018/10/01 18:18:58","新北市中和區捷運路61巷7號","121.50896","24.9894533333333","6500300","中和區"
"235069","4980-A6","2018/10/01 18:18:55","新北市中和區錦和路107號","121.490188333333","24.9952383333333","6500300","中和區"
"235070","558-UM","2018/10/01 18:18:57","新北市中和區圓通路135號","121.499031666667","24.9958783333333","6500300","中和區"
"235045","565-BX","2018/10/01 18:19:05","新北市中和區景安路200巷5號","121.503535","24.99157","6500300","中和區"
"235054","640-BX","2018/10/01 18:18:51","新北市中和區莒光路200號","121.47225","24.9985216666667","6500300","中和區"
"235047","732-UM","2018/10/01 18:18:57","新北市中和區南山路260號","121.507858333333","24.98847","6500300","中和區"
"235046","733-UM","2018/10/01 18:18:48","新北市中和區員山路36巷13號","121.48444","24.9912483333333","6500300","中和區"
"235062","800-TS","2018/10/01 18:19:00","新北市中和區橋和路108號","121.491101666667","25.0055583333333","6500300","中和區"
"235057","801-TS","2018/10/01 18:19:02","新北市中和區員山路130號","121.481125","24.9962966666667","6500300","中和區"
"235041","802-TS","2018/10/01 18:18:49","新北市中和區和城路一段271巷1號","121.485405","24.9919733333333","6500300","中和區"
"235052","805-TS","2018/10/01 18:18:56","新北市中和區興南路一段137號","121.50886","24.9875283333333","6500300","中和區"
"235048","896-TW","2018/10/01 18:18:56","新北市中和區中正路523號","121.488088333333","24.9934983333333","6500300","中和區"
"235053","900-TW","2018/10/01 18:18:51","新北市中和區中正路637巷52弄1號","121.485433333333","24.9933983333333","6500300","中和區"
"235051","157-BY","2018/10/01 18:18:56","新北市中和區信義街53號","121.511316666667","24.9887583333333","6500300","中和區"
"235037","AAC-213","2018/10/01 18:18:48","新北市中和區景德街91號","121.51611","24.9913233333333","6500300","中和區"
"220065","072-UY","2018/10/01 18:19:07","新北市板橋區南雅南路二段144巷88號","121.450035","24.99563","6500100","板橋區"
"220069","AAD-861","2018/10/01 18:18:48","新北市板橋區華東街1-10號","121.44832","24.995045","6500100","板橋區"
"226004","312-R5","2018/10/01 18:19:01","新北市平溪區靜安路二段11巷7號","121.710041666667","25.0193633333333","6502400","平溪區"
"235043","251-BX","2018/10/01 18:18:45","新北市中和區景平路381號","121.504011666667","24.9934583333333","6500300","中和區"
"228003","097-TW","2018/10/01 18:18:52","新北市貢寮區和美里和美街63號","121.922501666667","25.0708733333333","6502600","貢寮區"
"228002","663-BX","2018/10/01 18:18:46","新北市貢寮區福連里馬崗街2-7號","121.999825","25.0153433333333","6502600","貢寮區"
"228001","670-TC","2018/10/01 18:18:59","新北市貢寮區真理里新港街26巷55弄2-1號","121.92736","25.0528683333333","6502600","貢寮區"
"224006","676-BX","2018/10/01 18:18:55","新北市瑞芳區三爪子坑路106巷110號","121.808198333333","25.104445","6501200","瑞芳區"
"224002","639-TC","2018/10/01 18:18:56","新北市瑞芳區三爪子坑路95號","121.81125","25.10729","6501200","瑞芳區"
"224008","285-BY","2018/10/01 18:18:56","新北市瑞芳區逢甲路38號","121.811316666667","25.1083466666667","6501200","瑞芳區"
"224007","275-VK","2018/10/01 18:19:04","新北市瑞芳區大埔路有勝新村4號","121.764826666667","25.1012533333333","6501200","瑞芳區"
"224009","273-VK","2018/10/01 18:18:45","新北市瑞芳區祈堂路184號","121.857616666667","25.1095283333333","6501200","瑞芳區"
"224005","271-BY","2018/10/01 18:18:54","新北市瑞芳區建基路二段7號","121.807565","25.1327033333333","6501200","瑞芳區"
"227001","642-TC","2018/10/01 18:18:57","新北市雙溪區共和里中山路2號","121.86382","25.0337816666667","6502500","雙溪區"
"227008","400-TW","2018/10/01 18:19:08","新北市雙溪區牡丹里牡丹73號","121.851705","25.0593533333333","6502500","雙溪區"
"253006","032-BX","2018/10/01 18:19:05","新北市石門區老梅路99號","121.546785","25.28928","6502200","石門區"
"253005","295-VK","2018/10/01 18:18:56","新北市石門區中央路37-2號","121.568263333333","25.2950583333333","6502200","石門區"
"222001","KEA-2212","2018/10/01 18:19:07","新北市深坑區北深路二段56號","121.619091666667","25.0044666666667","6501800","深坑區"
"208002","KEA-2872","2018/10/01 18:18:59","新北市金山區清泉里清水路60巷18號","121.633783333333","25.2340833333333","6502700","金山區"
"208003","665-BX","2018/10/01 18:18:54","新北市金山區民生路128號","121.647486666667","25.2236733333333","6502700","金山區"
"251005","010-UM","2018/10/01 18:18:53","新北市淡水區水源街一段122巷37號","121.447156666667","25.17044","6501000","淡水區"
"251001","011-UM","2018/10/01 18:18:53","新北市淡水區自強路108-19號","121.461631666667","25.1313666666667","6501000","淡水區"
"251013","KEA-2871","2018/10/01 18:18:47","新北市淡水區破瓦厝子1-7號","121.475726666667","25.1995133333333","6501000","淡水區"
"251008","179-VK","2018/10/01 18:18:58","新北市淡水區淡金路16巷22號","121.458976666667","25.1608266666667","6501000","淡水區"
"251015","180-VK","2018/10/01 18:18:55","新北市淡水區興福寮88巷1號","121.485386666667","25.16496","6501000","淡水區"
"251010","413-VK","2018/10/01 18:19:04","新北市淡水區淡海路223號","121.420196666667","25.1853983333333","6501000","淡水區"
"251012","441-VK","2018/10/01 18:18:52","新北市淡水區北新路二段77-5號","121.48055","25.1855766666667","6501000","淡水區"
"251004","443-VK","2018/10/01 18:18:54","新北市淡水區民族路102號","121.462516666667","25.135275","6501000","淡水區"
"251006","561-UM","2018/10/01 18:19:03","新北市淡水區新民街76巷47-1號","121.439273333333","25.17794","6501000","淡水區"
"251016","575-R6","2018/10/01 18:18:55","新北市淡水區淡金路三段226號","121.449106666667","25.204995","6501000","淡水區"
"251011","650-BX","2018/10/01 18:19:07","新北市淡水區坪頂路57號","121.458793333333","25.1626666666667","6501000","淡水區"
"251002","672-BX","2018/10/01 18:18:49","新北市淡水區中正東路一段69號","121.452715","25.1622433333333","6501000","淡水區"
"251003","766-UM","2018/10/01 18:18:58","新北市淡水區北新路180號","121.449438333333","25.1786566666667","6501000","淡水區"
"207003","550-UM","2018/10/01 18:19:01","新北市萬里區野柳里港東新村1號","121.686196666667","25.20312","6502800","萬里區"
"207004","225-TW","2018/10/01 18:19:00","新北市萬里區中幅里中福路39-2號","121.676845","25.1658383333333","6502800","萬里區"
"252002","178-VK","2018/10/01 18:18:55","新北市三芝區中山路二段39號","121.502901666667","25.255155","6502100","三芝區"
"252003","249-BX","2018/10/01 18:19:06","新北市三芝區錫板里南勢崗5-3號","121.479971666667","25.2625583333333","6502100","三芝區"
"252001","292-VK","2018/10/01 18:18:51","新北市三芝區中興街二段2號","121.498428333333","25.2566033333333","6502100","三芝區"
"237007","153-BY","2018/10/01 18:19:04","新北市三峽區中正路二段375號","121.365201666667","24.9084083333333","6500900","三峽區"
"237009","210-TH","2018/10/01 18:19:01","新北市三峽區大勇路36巷3號","121.366783333333","24.937195","6500900","三峽區"
"237013","252-BX","2018/10/01 18:18:58","新北市三峽區永安街9巷66號","121.375736666667","24.9294683333333","6500900","三峽區"
"237012","275-BY","2018/10/01 18:19:01","新北市三峽區民生街1巷6-11號","121.377055","24.936025","6500900","三峽區"
"237008","302-VK","2018/10/01 18:19:02","新北市三峽區白雞68-341號","121.392706666667","24.9088966666667","6500900","三峽區"
"237014","433-BY","2018/10/01 18:19:07","新北市三峽區復興路110巷1弄9號","121.372478333333","24.938165","6500900","三峽區"
"237006","5529-G3","2018/10/01 18:18:56","新北市三峽區溪東路235號","121.406511666667","24.9325966666667","6500900","三峽區"
"237011","KEA-2596","2018/10/01 18:18:46","新北市三峽區橫溪路132號","121.398876666667","24.93533","6500900","三峽區"
"237015","649-BX","2018/10/01 18:18:51","新北市三峽區紫新路28號","121.422538333333","24.921635","6500900","三峽區"
"237010","706-TV","2018/10/01 18:19:03","新北市三峽區民權街147號","121.368886666667","24.931635","6500900","三峽區"
"237005","AKY-6261","2018/10/01 18:18:50","新北市三峽區清水街342號","121.370886666667","24.9337433333333","6500900","三峽區"
"236069","105-UM","2018/10/01 18:18:47","新北市土城區明德路一段97號","121.465535","24.98286","6501300","土城區"
"236078","166-UM","2018/10/01 18:19:05","新北市土城區中央路三段281巷11弄2號","121.42642","24.962815","6501300","土城區"
"236030","253-BX","2018/10/01 18:19:08","新北市土城區順風路31號","121.440746666667","24.9767383333333","6501300","土城區"
"236026","269-VK","2018/10/01 18:18:50","新北市土城區承天路18號","121.439501666667","24.9635083333333","6501300","土城區"
"236014","270-VK","2018/10/01 18:18:48","新北市土城區青雲路39巷7號","121.46031","24.9873866666667","6501300","土城區"
"236039","271-VK","2018/10/01 18:18:48","新北市土城區青雲路451巷8弄10號","121.459488333333","24.974205","6501300","土城區"
"236020","401-BY","2018/10/01 18:19:01","新北市土城區明德路二段65號","121.452068333333","24.9805133333333","6501300","土城區"
"236042","752-BX","2018/10/01 18:18:47","新北市土城區裕生路21巷1弄2號","121.448715","24.9871266666667","6501300","土城區"
"236059","912-UM","2018/10/01 18:19:02","新北市土城區中央路四段464號","121.40992","24.9505183333333","6501300","土城區"
"236048","913-UM","2018/10/01 18:19:05","新北市土城區明德路一段375-1號","121.454868333333","24.9781133333333","6501300","土城區"
"236063","915-UM","2018/10/01 18:19:08","新北市土城區金城路三段191-1號","121.469951666667","24.9889316666667","6501300","土城區"
"236055","AAC-216","2018/10/01 18:18:52","新北市土城區中華路二段92號","121.438303333333","24.9747366666667","6501300","土城區"
"242058","986-R7","2018/10/01 18:18:58","新北市新莊區新北大道七段842號","121.413696666667","25.0236483333333","6500500","新莊區"
"242056","751-BX","2018/10/01 18:18:56","新北市新莊區豐年街124巷25號","121.445678333333","25.0297716666667","6500500","新莊區"
"242027","615-BX","2018/10/01 18:19:02","新北市新莊區幸福路699號","121.450033333333","25.049135","6500500","新莊區"
"242025","613-BX","2018/10/01 18:18:50","新北市新莊區五權一路12巷9弄24號","121.458023333333","25.0653166666667","6500500","新莊區"
"242044","566-BX","2018/10/01 18:19:06","新北市新莊區鳳山街48號","121.41436","25.025795","6500500","新莊區"
"242053","441-UM","2018/10/01 18:18:48","新北市樹林區樹新路98號","121.42963","24.9977","6500500","新莊區"
"242002","440-UM","2018/10/01 18:19:05","新北市新莊區碧江街31號","121.452245","25.0330783333333","6500500","新莊區"
"242009","413-TV","2018/10/01 18:18:50","新北市新莊區中港一街63號","121.450161666667","25.0454","6500500","新莊區"
"242046","400-BY","2018/10/01 18:19:05","新北市新莊區福營路336號","121.421633333333","25.0268083333333","6500500","新莊區"
"242060","353-BY","2018/10/01 18:18:56","新北市新莊區後港一路122號","121.429051666667","25.0271583333333","6500500","新莊區"
"242011","132-UY","2018/10/01 18:19:03","新北市新莊區中港路591巷24號","121.449965","25.05241","6500500","新莊區"
"242042","133-UY","2018/10/01 18:19:05","新北市新莊區雙鳳路116巷13弄2號","121.413436666667","25.02886","6500500","新莊區"
"242050","172-VK","2018/10/01 18:18:45","新北市新莊區民安東路191號","121.433351666667","25.0204866666667","6500500","新莊區"
"242031","348-TH","2018/10/01 18:19:02","新北市新莊區新泰路255巷49號","121.444195","25.0394433333333","6500500","新莊區"
"242021","350-TH","2018/10/01 18:18:49","新北市新莊區中正路170號","121.450738333333","25.0358966666667","6500500","新莊區"
"242015","351-TH","2018/10/01 18:18:58","新北市新莊區中和街67號","121.447495","25.04729","6500500","新莊區"
"238015","755-BX","2018/10/01 18:18:50","新北市樹林區文化街79巷1號","121.416815","24.9891066666667","6500700","樹林區"
"238023","601-UM","2018/10/01 18:18:56","新北市樹林區忠義街16號","121.409558333333","25.0145833333333","6500700","樹林區"
"238019","599-UM","2018/10/01 18:19:01","新北市樹林區國凱街136巷30弄9號","121.423603333333","24.979415","6500700","樹林區"
"238018","571-TV","2018/10/01 18:18:58","新北市樹林區保安街一段16巷25號","121.428285","24.9941633333333","6500700","樹林區"
"238024","5061-A6","2018/10/01 18:18:58","新北市樹林區育英街1號","121.422713333333","24.989005","6500700","樹林區"
"238025","303-VK","2018/10/01 18:19:03","新北市樹林區保安街一段90號","121.42428","24.9946566666667","6500700","樹林區"
"238017","283-BY","2018/10/01 18:19:00","新北市樹林區保安街二段337巷31號","121.411085","25.0082083333333","6500700","樹林區"
"238020","268-VK","2018/10/01 18:18:54","新北市樹林區三俊街63號","121.413571666667","25.0158483333333","6500700","樹林區"
"238026","172-UY","2018/10/01 18:18:58","新北市樹林區佳園路一段77號","121.39334","24.96996","6500700","樹林區"
"238016","169-UY","2018/10/01 18:18:50","新北市樹林區文化街28號","121.419441666667","24.98781","6500700","樹林區"
"239007","AAC-297","2018/10/01 18:19:01","新北市鶯歌區尖山埔路52號","121.348796666667","24.9510533333333","6500800","鶯歌區"
"239006","891-R6","2018/10/01 18:19:03","新北市鶯歌區德昌街140巷22號","121.332178333333","24.9613633333333","6500800","鶯歌區"
"239008","527-UM","2018/10/01 18:18:50","新北市鶯歌區國際一路179號","121.336248333333","24.97654","6500800","鶯歌區"
"239005","526-UM","2018/10/01 18:19:06","新北市鶯歌區鶯桃路668巷73號","121.329893333333","24.9717783333333","6500800","鶯歌區"
"239001","417-VK","2018/10/01 18:18:49","新北市鶯歌區國中街116號","121.339795","24.9401333333333","6500800","鶯歌區"
"239003","360-BY","2018/10/01 18:18:54","新北市鶯歌區福安街58號","121.335576666667","24.965205","6500800","鶯歌區"
"239002","359-BY","2018/10/01 18:18:57","新北市鶯歌區重慶街29號","121.351575","24.95238","6500800","鶯歌區"
"239004","193-VK","2018/10/01 18:18:49","新北市鶯歌區尖山路166巷25號","121.345","24.9489283333333","6500800","鶯歌區"
"221008","489-VK","2018/10/01 18:18:51","新北市汐止區康寧街706-1號","121.63798","25.0726583333333","6501100","汐止區"
"221036","130-UY","2018/10/01 18:19:03","新北市汐止區長興街一段41號","121.669855","25.0795983333333","6501100","汐止區"
"221015","131-UY","2018/10/01 18:19:00","新北市汐止區鄉長路二段168號","121.663231666667","25.085305","6501100","汐止區"
"221010","269-BY","2018/10/01 18:18:54","新北市汐止區祥雲街18巷1號","121.646458333333","25.0899866666667","6501100","汐止區"
"221012","278-VK","2018/10/01 18:18:49","新北市汐止區長興街二段4巷20號","121.673545","25.08048","6501100","汐止區"
"221023","279-VK","2018/10/01 18:19:08","新北市汐止區中興路244號","121.629488333333","25.068145","6501100","汐止區"
"221032","280-BY","2018/10/01 18:18:47","新北市汐止區力行街2號","121.617096666667","25.0513066666667","6501100","汐止區"
"221027","281-BY","2018/10/01 18:18:59","新北市汐止區和平街9號","121.663196666667","25.0706633333333","6501100","汐止區"
"221029","298-VK","2018/10/01 18:18:46","新北市汐止區汐萬路一段312號","121.650153333333","25.075535","6501100","汐止區"
"221021","299-VK","2018/10/01 18:18:46","新北市汐止區連興街120號","121.653685","25.0624683333333","6501100","汐止區"
"221031","353-TW","2018/10/01 18:19:04","新北市汐止區大同路一段160號","121.63322","25.0569983333333","6501100","汐止區"
"221035","622-UM","2018/10/01 18:18:54","新北市汐止區大同路二段187巷8弄1號","121.652583333333","25.065625","6501100","汐止區"
"221025","623-UM","2018/10/01 18:18:57","新北市汐止區勤進路12巷29號","121.659226666667","25.062365","6501100","汐止區"
"221038","646-BX","2018/10/01 18:19:05","新北市汐止區仁愛路199號","121.66474","25.0658583333333","6501100","汐止區"
"221033","647-BX","2018/10/01 18:18:27","新北市汐止區宜興街20巷15號","121.622035","25.0410483333333","6501100","汐止區"
"221002","707-TV","2018/10/01 18:18:48","新北市汐止區福德一路201巷25號","121.635933333333","25.0647966666667","6501100","汐止區"
"221018","753-BX","2018/10/01 18:18:49","新北市汐止區茄苳路72巷5號","121.666688333333","25.070355","6501100","汐止區"
"242034","281-VK","2018/10/01 18:19:03","新北市新莊區瓊林路13-3號","121.448956666667","25.0310016666667","6500500","新莊區"
"235061","KEA-2875","2018/10/01 18:19:04","新北市中和區國光街215巷24弄10號","121.466731666667","25.0000933333333","6500300","中和區"
"235060","KEA-2876","2018/10/01 18:18:57","新北市中和區連城路469-1號","121.483566666667","24.99573","6500300","中和區"
