"lineid","car","time","location","longitude","latitude","cityid","cityname"
"234046","148-BY","2018/10/01 18:59:02","新北市永和區得和路373巷16弄3號","121.525293333333","25.000175","6500400","永和區"
"234007","207-UY","2018/10/01 18:59:03","新北市永和區中山路一段19號","121.513836666667","25.010465","6500400","永和區"
"234081","298-R6","2018/10/01 18:59:08","新北市永和區永貞路39巷13號","121.5224","25.0064233333333","6500400","永和區"
"234038","336-UY","2018/10/01 18:58:56","新北市中和區秀朗路三段38號","121.526491666667","24.9959566666667","6500400","永和區"
"234064","337-UY","2018/10/01 18:59:02","新北市永和區中正路478號","121.51757","25.0035016666667","6500400","永和區"
"234086","338-UY","2018/10/01 18:59:08","新北市永和區永利路15號","121.51777","25.006155","6500400","永和區"
"234070","552-UM","2018/10/01 18:59:04","新北市永和區中興街84巷8號","121.518546666667","25.0116166666667","6500400","永和區"
"234017","745-BX","2018/10/01 18:58:49","新北市永和區永和路二段297號","121.516008333333","25.016065","6500400","永和區"
"234030","746-BX","2018/10/01 18:58:53","新北市永和區秀朗路二段262號","121.526111666667","24.9984483333333","6500400","永和區"
"234054","KEA-2590","2018/10/01 18:58:52","新北市永和區竹林路66巷4號","121.518195","25.0133683333333","6500400","永和區"
"234013","KEA-2591","2018/10/01 18:59:09","新北市永和區中山路一段60巷8號","121.513048333333","25.0109783333333","6500400","永和區"
"234061","AAD-866","2018/10/01 18:58:54","新北市永和區福和路309巷3號","121.516316666667","25.0069283333333","6500400","永和區"
"234067","748-BX","2018/10/01 18:58:51","新北市永和區中和路625號","121.512966666667","25.0049366666667","6500400","永和區"
"234042","862-TW","2018/10/01 18:58:55","新北市永和區永貞路306號","121.511906666667","25.00488","6500400","永和區"
"234050","863-TW","2018/10/01 18:58:51","新北市永和區文化路147號","121.510745","25.0161516666667","6500400","永和區"
"234026","9371-KE","2018/10/01 18:59:02","新北市永和區安樂路473巷6號","121.5141","25.0056666666667","6500400","永和區"
"234011","9373-KE","2018/10/01 18:59:05","新北市永和區信義路77號","121.512453333333","25.0131833333333","6500400","永和區"
"249005","172-UM","2018/10/01 18:59:02","新北市八里區長道坑6號","121.396933333333","25.123465","6502300","八里區"
"249001","173-UM","2018/10/01 18:58:46","新北市八里區龍米路二段192號","121.433811666667","25.1584683333333","6502300","八里區"
"248016","026-BX","2018/10/01 18:58:50","新北市五股區成泰路三段543巷1號","121.450898333333","25.10218","6501500","五股區"
"248006","077-UY","2018/10/01 18:58:48","新北市五股區四維路78號","121.467638333333","25.07281","6501500","五股區"
"248008","095-VK","2018/10/01 18:59:06","新北市五股區中興路一段118巷6弄15號","121.46626","25.0748033333333","6501500","五股區"
"248018","225-UY","2018/10/01 18:59:07","新北市五股區民義路二段37號","121.413228333333","25.1003316666667","6501500","五股區"
"248012","247-BX","2018/10/01 18:58:51","新北市五股區工商路38號","121.439398333333","25.0837516666667","6501500","五股區"
"248004","677-BX","2018/10/01 18:58:54","新北市五股區民義路二段97-1號","121.406601666667","25.107085","6501500","五股區"
"248002","678-BX","2018/10/01 18:58:49","新北市五股區凌雲路一段87號","121.450688333333","25.1014083333333","6501500","五股區"
"248010","682-TV","2018/10/01 18:58:51","新北市五股區水碓一路23號","121.43059","25.071315","6501500","五股區"
"234023","9380-KE","2018/10/01 18:58:49","新北市永和區竹林路39巷28弄39號","121.52006","25.0140516666667","6500400","永和區"
"234077","969-R7","2018/10/01 18:58:56","新北市永和區中正路286巷7號","121.517578333333","24.9986316666667","6500400","永和區"
"234074","AAC-211","2018/10/01 18:59:07","新北市永和區環河東路二段98號","121.524083333333","25.01035","6500400","永和區"
"234003","AAC-295","2018/10/01 18:59:07","新北市永和區和平街33號","121.513065","25.0098416666667","6500400","永和區"
"232011","375-UM","2018/10/01 18:58:46","新北市坪林區水聳淒坑19-1號","121.712711666667","24.9350583333333","6502000","坪林區"
"244022","069-UM","2018/10/01 18:58:54","新北市林口區文化三路二段41巷49號","121.372451666667","25.07947","6501700","林口區"
"244007","080-UY","2018/10/01 18:59:05","新北市林口區太平嶺22號","121.375866666667","25.11637","6501700","林口區"
"244019","403-UM","2018/10/01 18:58:59","新北市林口區麗園二街42巷24號","121.381431666667","25.0667983333333","6501700","林口區"
"244013","KEA-2802","2018/10/01 18:58:53","新北市林口區麗園二街23巷15-9號","121.379203333333","25.07016","6501700","林口區"
"244017","485-VK","2018/10/01 18:59:01","新北市林口區文化二路一段20巷25弄4號","121.366038333333","25.0677316666667","6501700","林口區"
"244009","656-BX","2018/10/01 18:58:52","新北市林口區台電新村4-2號","121.388256666667","25.0866716666667","6501700","林口區"
"244011","701-TV","2018/10/01 18:59:06","新北市林口區仁愛路一段285巷90號","121.394955","25.0749783333333","6501700","林口區"
"244025","837-TS","2018/10/01 18:58:52","新北市林口區南勢街196號","121.360431666667","25.0747866666667","6501700","林口區"
"243013","AAD-798","2018/10/01 18:58:50","新北市泰山區明志路三段206巷9號","121.42297","25.038045","6501600","泰山區"
"243009","297-R6","2018/10/01 18:58:55","新北市泰山區泰林路二段353號","121.428301666667","25.0636666666667","6501600","泰山區"
"243016","KEA-2801","2018/10/01 18:58:46","新北市泰山區明志路二段152-1號","121.427491666667","25.0506666666667","6501600","泰山區"
"243015","421-VK","2018/10/01 18:59:07","新北市泰山區泰林路二段232號","121.432448333333","25.061975","6501600","泰山區"
"243011","KEA-2215","2018/10/01 18:58:52","新北市泰山區明志路二段246-1號","121.4271","25.0481966666667","6501600","泰山區"
"243010","KEA-2216","2018/10/01 18:59:01","新北市泰山區辭修路34巷1號","121.428883333333","25.0581466666667","6501600","泰山區"
"243012","646-TV","2018/10/01 18:59:01","新北市泰山區仁德路106號","121.432605","25.0568633333333","6501600","泰山區"
"243014","680-BX","2018/10/01 18:59:01","新北市泰山區黎明路13號","121.42105","25.0632166666667","6501600","泰山區"
"222003","436-BY","2018/10/01 18:59:07","新北市深坑區深南路51-1號","121.621331666667","25.01017","6501800","深坑區"
"222002","659-BX","2018/10/01 18:59:05","新北市深坑區文山路一段31巷2號","121.629821666667","25.0033766666667","6501800","深坑區"
"231059","001-UM","2018/10/01 18:58:59","新北市新店區安華路28-1號","121.519575","24.9608733333333","6500600","新店區"
"231041","002-UM","2018/10/01 18:58:55","新北市新店區環河路62號","121.536993333333","24.96264","6500600","新店區"
"231040","047-UY","2018/10/01 18:59:03","新北市新店區中央路11號","121.533375","24.9784933333333","6500600","新店區"
"231044","106-UY","2018/10/01 18:59:06","新北市新店區寶中路72號","121.547868333333","24.9805716666667","6500600","新店區"
"231046","107-UY","2018/10/01 18:59:05","新北市新店區直潭七街8號","121.534608333333","24.9402416666667","6500600","新店區"
"231052","110-UY","2018/10/01 18:58:52","新北市新店區屈尺路22號","121.548663333333","24.9226233333333","6500600","新店區"
"231047","187-VK","2018/10/01 18:59:08","新北市新店區德正街23巷12-1號","121.544658333333","24.972205","6500600","新店區"
"231062","188-VK","2018/10/01 18:59:08","新北市新店區安豐路60號","121.498346666667","24.9539133333333","6500600","新店區"
"231042","268-BY","2018/10/01 18:58:52","新北市新店區北新路一段126巷27號","121.543248333333","24.969575","6500600","新店區"
"231051","278-BY","2018/10/01 18:58:58","新北市新店區百忍街17巷2號","121.534315","24.975655","6500600","新店區"
"231050","AAD-862","2018/10/01 18:58:46","新北市新店區北宜路二段56巷3弄1號","121.549231666667","24.950955","6500600","新店區"
"231058","3713-VJ","2018/10/01 18:58:50","新北市新店區檳榔路29巷2號","121.542023333333","24.9635683333333","6500600","新店區"
"231066","4716-K9","2018/10/01 18:58:52","新北市新店區安豐路45號","121.500336666667","24.9554183333333","6500600","新店區"
"231056","4715-K9","2018/10/01 18:58:58","新北市新店區二十張路33巷22號","121.539236666667","24.980675","6500600","新店區"
"231067","4772-VM","2018/10/01 18:58:56","新北市新店區安華路28-1號","121.519208333333","24.960595","6500600","新店區"
"231065","512-UM","2018/10/01 18:58:53","新北市新店區安祥路160號","121.477176666667","24.95615","6500600","新店區"
"231049","513-UM","2018/10/01 18:59:02","新北市新店區中正路450號","121.534403333333","24.979015","6500600","新店區"
"231063","616-UM","2018/10/01 18:58:49","新北市新店區安華路30巷1號","121.519175","24.9594083333333","6500600","新店區"
"231045","617-UM","2018/10/01 18:59:03","新北市新店區光明街57號","121.538708333333","24.9603066666667","6500600","新店區"
"231043","618-UM","2018/10/01 18:58:50","新北市新店區中正路111號","121.542486666667","24.970635","6500600","新店區"
"231061","619-UM","2018/10/01 18:59:00","新北市新店區安一路一段1-1號","121.519626666667","24.9610566666667","6500600","新店區"
"231064","719-UM","2018/10/01 18:58:51","新北市新店區安一路一段1-1號","121.519538333333","24.9611716666667","6500600","新店區"
"231054","719-UY","2018/10/01 18:58:58","新北市新店區新店路13號","121.540261666667","24.95284","6500600","新店區"
"231060","897-TW","2018/10/01 18:58:57","新北市新店區安一路一段1-1號","121.519596666667","24.9611983333333","6500600","新店區"
"231055","AKT-0513","2018/10/01 18:59:02","新北市新店區力行路14巷6號","121.539323333333","24.96494","6500600","新店區"
"241026","066-VK","2018/10/01 18:58:51","新北市三重區泉州街106號","121.494895","25.053695","6500200","三重區"
"251014","742-BX","2018/10/01 18:59:05","新北市淡水區小中寮37號","121.489228333333","25.2285683333333","6501000","淡水區"
"241035","KEA-2210","2018/10/01 18:58:53","新北市三重區民生街61巷1號","121.489273333333","25.062655","6500200","三重區"
"235066","003-UY","2018/10/01 18:58:52","新北市中和區中山路二段131巷5弄3號","121.502865","25.0028883333333","6500300","中和區"
"235064","005-UY","2018/10/01 18:59:08","新北市中和區泰和街44巷35號","121.49795","25.0013283333333","6500300","中和區"
"235063","006-UY","2018/10/01 18:58:58","新北市中和區連城路319巷8號","121.48915","24.9952933333333","6500300","中和區"
"235065","031-BX","2018/10/01 18:58:49","新北市中和區中山路二段2巷35號","121.50287","25.0069533333333","6500300","中和區"
"235056","096-UM","2018/10/01 18:58:54","新北市中和區員山路466巷25號","121.481205","25.0064783333333","6500300","中和區"
"235039","097-UM","2018/10/01 18:58:58","新北市中和區安樂路245號","121.514185","24.9995283333333","6500300","中和區"
"235040","150-BY","2018/10/01 18:58:51","新北市中和區安樂路81號","121.512633333333","24.99445","6500300","中和區"
"235058","151-BY","2018/10/01 18:58:54","新北市中和區連城路583巷1號","121.47883","24.994105","6500300","中和區"
"235055","183-VK","2018/10/01 18:59:02","新北市中和區民德路23號","121.46895","25.0026816666667","6500300","中和區"
"235038","185-VK","2018/10/01 18:59:06","新北市中和區自強路52號","121.520125","24.9948233333333","6500300","中和區"
"235049","186-VK","2018/10/01 18:58:54","新北市中和區景安路167巷25號","121.506711666667","24.99498","6500300","中和區"
"235067","255-BX","2018/10/01 18:58:54","新北市中和區新生街189號","121.483708333333","25.00033","6500300","中和區"
"235044","293-VK","2018/10/01 18:58:58","新北市中和區中興街161巷10弄2號","121.501183333333","24.9909233333333","6500300","中和區"
"235072","301-VK","2018/10/01 18:58:58","新北市中和區景平路675號","121.496478333333","25.0027983333333","6500300","中和區"
"235042","KEA-2878","2018/10/01 18:58:56","新北市中和區秀朗路三段22巷4號","121.526096666667","24.9963366666667","6500300","中和區"
"235050","4979-A6","2018/10/01 18:58:57","新北市中和區華新街91號","121.508543333333","24.983285","6500300","中和區"
"235069","4980-A6","2018/10/01 18:58:54","新北市中和區景平路459巷2弄1號","121.500258333333","24.9963833333333","6500300","中和區"
"235070","558-UM","2018/10/01 18:59:02","新北市中和區中和路257號","121.505063333333","24.9997616666667","6500300","中和區"
"235045","565-BX","2018/10/01 18:59:05","新北市中和區景新街467巷20弄92號","121.514341666667","24.9877333333333","6500300","中和區"
"235054","640-BX","2018/10/01 18:58:51","新北市中和區民享街5號","121.473928333333","25.005675","6500300","中和區"
"235047","732-UM","2018/10/01 18:58:57","新北市中和區興南路二段75號","121.506713333333","24.985035","6500300","中和區"
"235046","733-UM","2018/10/01 18:58:48","新北市中和區興南路一段135巷22弄12號","121.50897","24.9866533333333","6500300","中和區"
"235071","783-BX","2018/10/01 18:59:05","新北市中和區員山路36巷16-3號","121.485213333333","24.991205","6500300","中和區"
"235062","800-TS","2018/10/01 18:59:03","新北市中和區中山路二段356號","121.492751666667","25.00291","6500300","中和區"
"235057","801-TS","2018/10/01 18:59:02","新北市中和區民安街63號","121.478711666667","24.99957","6500300","中和區"
"235041","802-TS","2018/10/01 18:58:49","新北市中和區宜安路66號","121.51145","24.9971116666667","6500300","中和區"
"235052","805-TS","2018/10/01 18:58:56","新北市中和區興南路二段347號","121.500116666667","24.9801033333333","6500300","中和區"
"235048","896-TW","2018/10/01 18:58:56","新北市中和區華新街82號","121.508255","24.98338","6500300","中和區"
"235053","900-TW","2018/10/01 18:58:51","新北市中和區壽德街26號","121.466621666667","24.99439","6500300","中和區"
"235051","157-BY","2018/10/01 18:58:56","新北市中和區忠孝街5巷4號","121.509651666667","24.9830816666667","6500300","中和區"
"235037","AAC-213","2018/10/01 18:58:48","新北市中和區自立路41號","121.522075","24.9951533333333","6500300","中和區"
"235059","AAC-215","2018/10/01 18:59:01","新北市中和區圓通路369巷2-1號","121.49108","24.98933","6500300","中和區"
"220068","013-TV","2018/10/01 18:59:03","新北市板橋區中山路二段443巷82號","121.481093333333","25.0225583333333","6500100","板橋區"
"220065","072-UY","2018/10/01 18:59:06","新北市板橋區漢生東路340巷13號","121.471323333333","25.007265","6500100","板橋區"
"220086","073-UY","2018/10/01 18:59:07","新北市板橋區中正路80巷11號","121.457333333333","25.0145833333333","6500100","板橋區"
"220106","075-UY","2018/10/01 18:59:05","新北市板橋區文化路二段124巷28-2號","121.471211666667","25.025665","6500100","板橋區"
"220069","AAD-861","2018/10/01 18:59:08","新北市板橋區華興街81號","121.456875","25.0051733333333","6500100","板橋區"
"226004","312-R5","2018/10/01 18:59:01","新北市平溪區平溪里平溪街32號","121.73874","25.0257333333333","6502400","平溪區"
"235043","251-BX","2018/10/01 18:59:05","新北市中和區秀朗路三段103號","121.526451666667","24.9947366666667","6500300","中和區"
"228003","097-TW","2018/10/01 18:58:52","新北市貢寮區和美里龍洞街60-1號","121.9144","25.116445","6502600","貢寮區"
"228002","663-BX","2018/10/01 18:59:06","新北市貢寮區福隆里東興街106巷21弄2號","121.946136666667","25.0179633333333","6502600","貢寮區"
"228001","670-TC","2018/10/01 18:58:59","新北市貢寮區仁理村研海街12-1號","121.923778333333","25.051715","6502600","貢寮區"
"224010","AGQ-8101","2018/10/01 18:59:06","新北市瑞芳區基山街9號","121.845321666667","25.10964","6501200","瑞芳區"
"224006","676-BX","2018/10/01 18:58:55","新北市瑞芳區民權街6巷27號","121.806805","25.10674","6501200","瑞芳區"
"224008","285-BY","2018/10/01 18:58:52","新北市瑞芳區逢甲路343-9號","121.799598333333","25.1123633333333","6501200","瑞芳區"
"224007","275-VK","2018/10/01 18:59:04","新北市瑞芳區中央路48巷180號","121.758378333333","25.1029916666667","6501200","瑞芳區"
"224009","273-VK","2018/10/01 18:59:06","新北市瑞芳區洞頂路81號","121.863158333333","25.1186833333333","6501200","瑞芳區"
"224005","271-BY","2018/10/01 18:59:03","新北市瑞芳區瑞濱路32-6號","121.823246666667","25.1209183333333","6501200","瑞芳區"
"227001","642-TC","2018/10/01 18:58:57","新北市雙溪區平林里康福家園10號","121.85876","25.0373583333333","6502500","雙溪區"
"227008","400-TW","2018/10/01 18:58:48","新北市雙溪區牡丹里中正路58巷23號","121.866436666667","25.0416133333333","6502500","雙溪區"
"253006","032-BX","2018/10/01 18:59:05","新北市石門區下員坑42號","121.517986666667","25.2776316666667","6502200","石門區"
"253005","295-VK","2018/10/01 18:58:56","新北市石門區中央路6號","121.566603333333","25.291305","6502200","石門區"
"222001","KEA-2212","2018/10/01 18:58:59","新北市深坑區北深路一段280號","121.628868333333","25.0084633333333","6501800","深坑區"
"208002","KEA-2872","2018/10/01 18:58:48","新北市金山區信義路72號","121.635111666667","25.2195483333333","6502700","金山區"
"208003","665-BX","2018/10/01 18:58:54","新北市金山區中正路20號","121.635928333333","25.22228","6502700","金山區"
"251009","008-UM","2018/10/01 18:58:53","新北市淡水區文化路20號","121.439586666667","25.17266","6501000","淡水區"
"251005","010-UM","2018/10/01 18:58:53","新北市淡水區中正路18巷6號","121.437648333333","25.17284","6501000","淡水區"
"251001","011-UM","2018/10/01 18:58:53","新北市淡水區自強路58號","121.463176666667","25.1274966666667","6501000","淡水區"
"251013","KEA-2871","2018/10/01 18:59:07","新北市淡水區小坑子頭10號","121.482241666667","25.21283","6501000","淡水區"
"251015","180-VK","2018/10/01 18:58:55","新北市淡水區糞箕湖60號","121.485205","25.1722933333333","6501000","淡水區"
"251010","413-VK","2018/10/01 18:59:03","新北市淡水區中正路二段22巷22號","121.420803333333","25.1819833333333","6501000","淡水區"
"251007","442-VK","2018/10/01 18:58:48","新北市淡水區民生路113巷1弄40號","121.46306","25.13871","6501000","淡水區"
"251004","443-VK","2018/10/01 18:58:54","新北市淡水區八勢二街51巷27號","121.461656666667","25.1496266666667","6501000","淡水區"
"251016","575-R6","2018/10/01 18:58:51","新北市淡水區淡金路三段333號","121.448836666667","25.20632","6501000","淡水區"
"251002","672-BX","2018/10/01 18:59:05","新北市淡水區中正東路63號","121.447065","25.1677066666667","6501000","淡水區"
"251003","766-UM","2018/10/01 18:58:58","新北市淡水區中山北路一段149巷24號","121.442903333333","25.1780283333333","6501000","淡水區"
"207003","550-UM","2018/10/01 18:59:01","新北市萬里區大鵬里頂社29號","121.656556666667","25.21077","6502800","萬里區"
"207004","225-TW","2018/10/01 18:59:00","新北市萬里區萬里里獅頭路23號","121.693335","25.1782416666667","6502800","萬里區"
"252002","178-VK","2018/10/01 18:58:55","新北市三芝區中正路一段68號","121.503806666667","25.2576616666667","6502100","三芝區"
"252003","249-BX","2018/10/01 18:59:06","新北市三芝區後厝里北勢子42-11號","121.471546666667","25.2520466666667","6502100","三芝區"
"252001","292-VK","2018/10/01 18:58:51","新北市三芝區中興街二段260號","121.501718333333","25.253095","6502100","三芝區"
"237007","153-BY","2018/10/01 18:59:05","新北市三峽區大埔路66號","121.366436666667","24.9078133333333","6500900","三峽區"
"237013","252-BX","2018/10/01 18:58:58","新北市三峽區光明路69巷25號","121.376586666667","24.9291533333333","6500900","三峽區"
"237012","275-BY","2018/10/01 18:59:01","新北市三峽區三樹路222巷192-1號","121.388498333333","24.942535","6500900","三峽區"
"237008","302-VK","2018/10/01 18:59:02","新北市三峽區中正路一段415號","121.370143333333","24.920455","6500900","三峽區"
"237014","433-BY","2018/10/01 18:59:07","新北市三峽區隆恩街158巷68號","121.365153333333","24.9453966666667","6500900","三峽區"
"237006","5529-G3","2018/10/01 18:58:56","新北市三峽區溪東路211巷37號","121.40536","24.934715","6500900","三峽區"
"237011","KEA-2596","2018/10/01 18:59:06","新北市三峽區介壽路三段54-1號","121.395695","24.937235","6500900","三峽區"
"237015","649-BX","2018/10/01 18:58:51","新北市三峽區建安112-1號","121.458588333333","24.92203","6500900","三峽區"
"237010","706-TV","2018/10/01 18:59:03","新北市三峽區復興路279號","121.36625","24.9389066666667","6500900","三峽區"
"237005","AKY-6261","2018/10/01 18:58:50","新北市三峽區中山路459巷163-3號","121.348658333333","24.9329233333333","6500900","三峽區"
"236069","105-UM","2018/10/01 18:59:07","新北市土城區裕民路267-1號","121.455295","24.9822016666667","6501300","土城區"
"236078","166-UM","2018/10/01 18:58:59","新北市土城區中央路四段285號","121.41159","24.9527466666667","6501300","土城區"
"236030","253-BX","2018/10/01 18:59:08","新北市土城區興城路79號","121.439958333333","24.97076","6501300","土城區"
"236026","269-VK","2018/10/01 18:58:50","新北市土城區光明街26號","121.442086666667","24.97394","6501300","土城區"
"236014","270-VK","2018/10/01 18:58:48","新北市土城區永豐路29巷1號","121.463085","24.9883033333333","6501300","土城區"
"236039","271-VK","2018/10/01 18:58:48","新北市土城區仁愛路17巷1號","121.460436666667","24.9805716666667","6501300","土城區"
"236020","401-BY","2018/10/01 18:59:01","新北市土城區延吉街168巷9號","121.468028333333","24.9857616666667","6501300","土城區"
"236042","752-BX","2018/10/01 18:58:25","新北市土城區學府路一段225號","121.451261666667","24.9842416666667","6501300","土城區"
"236059","912-UM","2018/10/01 18:59:02","新北市土城區金城路二段236號","121.45668","24.9830116666667","6501300","土城區"
"236048","913-UM","2018/10/01 18:59:05","新北市土城區青雲路263號","121.459096666667","24.9806516666667","6501300","土城區"
"236063","915-UM","2018/10/01 18:59:08","新北市土城區延和路41巷15號","121.46595","24.989785","6501300","土城區"
"236055","AAC-216","2018/10/01 18:58:52","新北市土城區裕民路45-1號","121.448505","24.9881966666667","6501300","土城區"
"242056","751-BX","2018/10/01 18:58:56","新北市新莊區新泰路357巷2-2號","121.441935","25.041345","6500500","新莊區"
"238023","601-UM","2018/10/01 18:58:50","新北市樹林區大慶街122號","121.396","25.0133783333333","6500700","樹林區"
"238019","599-UM","2018/10/01 18:58:58","新北市樹林區東榮街180號","121.414335","24.9819716666667","6500700","樹林區"
"238018","571-TV","2018/10/01 18:49:21","新北市樹林區太平路48號","121.419031666667","24.9825383333333","6500700","樹林區"
"238022","KEA-2213","2018/10/01 18:58:57","新北市樹林區東興街8-1號","121.409773333333","24.97895","6500700","樹林區"
"238021","KEA-2539","2018/10/01 18:58:51","新北市樹林區柑園街二段276巷26號","121.372558333333","24.95332","6500700","樹林區"
"238025","303-VK","2018/10/01 18:59:03","新北市樹林區中山路三段22號","121.39562","24.972955","6500700","樹林區"
"238017","283-BY","2018/10/01 18:59:00","新北市樹林區中山路二段185-4號","121.404961666667","24.9779583333333","6500700","樹林區"
"238014","282-BY","2018/10/01 18:59:07","新北市樹林區潭興街141巷1號","121.425426666667","24.9993983333333","6500700","樹林區"
"238020","268-VK","2018/10/01 18:58:54","新北市樹林區俊英街183號","121.424076666667","25.0123116666667","6500700","樹林區"
"238026","172-UY","2018/10/01 18:58:58","新北市樹林區中和街28號","121.390058333333","24.973445","6500700","樹林區"
"238016","169-UY","2018/10/01 18:58:50","新北市樹林區文化街28號","121.419298333333","24.98773","6500700","樹林區"
"239007","AAC-297","2018/10/01 18:59:01","新北市鶯歌區中正一路345巷1號","121.357503333333","24.9573483333333","6500800","鶯歌區"
"239006","891-R6","2018/10/01 18:59:03","新北市鶯歌區鶯桃路296巷53號","121.335893333333","24.9613233333333","6500800","鶯歌區"
"239008","527-UM","2018/10/01 18:58:50","新北市鶯歌區國際二路38號","121.335766666667","24.97542","6500800","鶯歌區"
"239005","526-UM","2018/10/01 18:58:46","新北市鶯歌區鳳吉一街105號","121.327468333333","24.974545","6500800","鶯歌區"
"239001","417-VK","2018/10/01 18:58:49","新北市鶯歌區永明街68號","121.340891666667","24.9559733333333","6500800","鶯歌區"
"239003","360-BY","2018/10/01 18:58:54","新北市鶯歌區鶯桃路433號","121.332476666667","24.9651266666667","6500800","鶯歌區"
"239004","193-VK","2018/10/01 18:58:48","新北市鶯歌區中正三路302巷17號","121.327868333333","24.936055","6500800","鶯歌區"
"221008","489-VK","2018/10/01 18:58:47","新北市汐止區翠峰街21巷3弄22號","121.64475","25.0758333333333","6501100","汐止區"
"221036","130-UY","2018/10/01 18:59:03","新北市汐止區南興路8號","121.651876666667","25.0629683333333","6501100","汐止區"
"221015","131-UY","2018/10/01 18:59:00","新北市汐止區鄉長路一段297號","121.669343333333","25.0793633333333","6501100","汐止區"
"221010","269-BY","2018/10/01 18:58:54","新北市汐止區康寧街901號","121.651515","25.0750033333333","6501100","汐止區"
"221012","278-VK","2018/10/01 18:58:49","新北市汐止區康寧街901號","121.65081","25.075255","6501100","汐止區"
"221023","279-VK","2018/10/01 18:58:48","新北市汐止區康寧街901號","121.650973333333","25.075205","6501100","汐止區"
"221032","280-BY","2018/10/01 18:58:47","新北市汐止區橫科路407巷81弄5號","121.62873","25.0480733333333","6501100","汐止區"
"221027","281-BY","2018/10/01 18:58:54","新北市汐止區康寧街901號","121.651461666667","25.0749966666667","6501100","汐止區"
"221029","298-VK","2018/10/01 18:58:46","新北市汐止區樟樹一路228號","121.642253333333","25.0666616666667","6501100","汐止區"
"221021","299-VK","2018/10/01 18:58:46","新北市汐止區康寧街901號","121.651423333333","25.0750466666667","6501100","汐止區"
"221031","353-TW","2018/10/01 18:59:04","新北市汐止區中興路181巷29弄6號","121.629758333333","25.0657166666667","6501100","汐止區"
"221035","622-UM","2018/10/01 18:58:54","新北市汐止區汐萬路一段142號","121.65325","25.0711216666667","6501100","汐止區"
"221025","623-UM","2018/10/01 18:58:57","新北市汐止區汐萬路一段37號","121.655383333333","25.0686133333333","6501100","汐止區"
"221038","646-BX","2018/10/01 18:59:05","新北市汐止區汐萬路一段312號","121.650701666667","25.0752283333333","6501100","汐止區"
"221033","647-BX","2018/10/01 18:59:07","新北市汐止區南勢街16號","121.62731","25.038035","6501100","汐止區"
"221002","707-TV","2018/10/01 18:58:47","台北市南港區南港路一段30巷30-4號","121.61952","25.05631","6501100","汐止區"
"221018","753-BX","2018/10/01 18:58:54","新北市汐止區茄苳路55號","121.66634","25.0707966666667","6501100","汐止區"
"220079","145-BY","2018/10/01 18:59:02","新北市板橋區民權路202巷9弄16號","121.459798333333","25.0155966666667","6500100","板橋區"
"220080","200-UY","2018/10/01 18:59:05","新北市板橋區合宜一路173號","121.44501","24.9957716666667","6500100","板橋區"
"220082","610-BX","2018/10/01 18:58:57","新北市板橋區溪北路52號","121.427455","24.98984","6500100","板橋區"
"220101","245-BX","2018/10/01 18:58:55","新北市板橋區文化路二段182巷5弄1號","121.471631666667","25.0268733333333","6500100","板橋區"
"220091","267-BY","2018/10/01 18:58:51","新北市板橋區莒光路158-2號","121.473955","25.023965","6500100","板橋區"
"220056","276-BY","2018/10/01 18:59:07","新北市板橋區信義路147號","121.458155","24.9928466666667","6500100","板橋區"
"220072","277-BY","2018/10/01 18:58:49","新北市板橋區溪北路152號","121.430351666667","24.9882766666667","6500100","板橋區"
"220071","283-VK","2018/10/01 18:58:56","新北市板橋區忠孝路132巷1號","121.463426666667","25.0022016666667","6500100","板橋區"
"220094","285-UM","2018/10/01 18:58:47","新北市板橋區文化路二段76號","121.469421666667","25.0250466666667","6500100","板橋區"
"220053","285-VK","2018/10/01 18:58:51","新北市板橋區成功路10號","121.475515","25.0169383333333","6500100","板橋區"
"220083","286-VK","2018/10/01 18:58:58","新北市板橋區大觀路一段38巷156弄10號","121.44243","25.0048216666667","6500100","板橋區"
"220081","287-VK","2018/10/01 18:58:53","新北市板橋區光華街19巷36號","121.453246666667","25.0120266666667","6500100","板橋區"
"220090","288-VK","2018/10/01 18:58:55","新北市板橋區四維路139號","121.465005","25.0254233333333","6500100","板橋區"
"220061","293-UM","2018/10/01 18:58:55","新北市板橋區富山街109巷118號","121.474711666667","25.02085","6500100","板橋區"
"220084","296-UM","2018/10/01 18:58:58","新北市板橋區大觀路二段271號","121.442808333333","24.9990133333333","6500100","板橋區"
"220097","299-UM","2018/10/01 18:58:49","新北市板橋區國光路208號","121.462073333333","25.0185683333333","6500100","板橋區"
"220075","303-R5","2018/10/01 18:58:53","新北市板橋區茶館街13號","121.45671","25.0106566666667","6500100","板橋區"
"220062","305-R5","2018/10/01 18:59:01","新北市板橋區民享街55號","121.476098333333","25.01515","6500100","板橋區"
"220092","307-R5","2018/10/01 18:58:59","新北市板橋區漢生東路21號","121.464895","25.017135","6500100","板橋區"
"220098","317-R6","2018/10/01 18:58:50","新北市板橋區民有街10號","121.466431666667","25.024745","6500100","板橋區"
"220064","486-VK","2018/10/01 18:59:07","新北市板橋區板新路165號","121.469453333333","25.01572","6500100","板橋區"
"220089","487-VK","2018/10/01 18:59:09","新北市板橋區文化路二段410巷2號","121.47393","25.0315633333333","6500100","板橋區"
"220088","491-VK","2018/10/01 18:59:07","新北市板橋區民生路二段198號","121.469801666667","25.0208516666667","6500100","板橋區"
"220035","560-BX","2018/10/01 18:58:56","新北市板橋區中正路325巷6號","121.454575","25.0199433333333","6500100","板橋區"
"220063","609-BX","2018/10/01 18:58:58","新北市板橋區中山路二段125號","121.475053333333","25.016375","6500100","板橋區"
"220057","686-BX","2018/10/01 18:58:54","新北市板橋區重慶路159號","121.462625","25.0028783333333","6500100","板橋區"
"220077","687-BX","2018/10/01 18:58:49","新北市板橋區龍興街28號","121.443013333333","25.0003016666667","6500100","板橋區"
"220093","689-BX","2018/10/01 18:58:58","新北市板橋區民生路三段64號","121.467078333333","25.025225","6500100","板橋區"
"220054","741-BX","2018/10/01 18:59:06","新北市板橋區重慶路93巷51號","121.463558333333","25.006015","6500100","板橋區"
"220102","KEA-2699","2018/10/01 18:58:48","新北市板橋區萬板路512號","121.480453333333","25.0263166666667","6500100","板橋區"
"220055","827-TW","2018/10/01 18:58:47","新北市板橋區中山路一段158巷20號","121.466433333333","25.0110916666667","6500100","板橋區"
"220067","830-TW","2018/10/01 18:58:59","新北市板橋區三民路二段正隆巷12弄19號","121.477491666667","25.0136366666667","6500100","板橋區"
"220096","831-TW","2018/10/01 18:59:00","新北市板橋區莒光路103號","121.47262","25.024105","6500100","板橋區"
"220074","895-R6","2018/10/01 18:59:09","新北市板橋區文昌街22號","121.455915","25.0108283333333","6500100","板橋區"
"220073","985-R7","2018/10/01 18:59:00","新北市板橋區民權路219號","121.457661666667","25.0152166666667","6500100","板橋區"
"220070","AAC-253","2018/10/01 18:59:00","新北市板橋區四川路一段265號","121.459535","25.0021833333333","6500100","板橋區"
"235068","KEA-2873","2018/10/01 18:58:47","新北市中和區圓通路289號","121.495083333333","24.9926866666667","6500300","中和區"
"235061","KEA-2875","2018/10/01 18:59:04","新北市中和區民治街130巷8號","121.474845","25.0026283333333","6500300","中和區"
"235060","KEA-2876","2018/10/01 18:58:57","新北市中和區民治街3巷1號","121.474935","25.0053516666667","6500300","中和區"
