"lineid","car","time","location","longitude","latitude","cityid","cityname"
"234046","148-BY","2018/10/01 19:19:02","新北市永和區得和路373巷16弄1號","121.525163333333","25.0004133333333","6500400","永和區"
"234007","207-UY","2018/10/01 19:19:03","新北市永和區保生路22巷8號","121.507293333333","25.0079316666667","6500400","永和區"
"234081","298-R6","2018/10/01 19:18:56","新北市永和區福和路52號","121.523385","25.00815","6500400","永和區"
"234038","336-UY","2018/10/01 19:18:56","新北市永和區民樂街55巷2號","121.52748","24.9984766666667","6500400","永和區"
"234064","337-UY","2018/10/01 19:18:55","新北市永和區永元路17巷6弄1號","121.521341666667","25.0007466666667","6500400","永和區"
"234086","338-UY","2018/10/01 19:18:58","新北市永和區永利路37號","121.518791666667","25.0056616666667","6500400","永和區"
"234070","552-UM","2018/10/01 19:19:04","新北市永和區豫溪街82-2號","121.517823333333","25.0099516666667","6500400","永和區"
"234017","745-BX","2018/10/01 19:19:09","新北市永和區文化路144巷31弄6號","121.512471666667","25.0167716666667","6500400","永和區"
"234030","746-BX","2018/10/01 19:18:53","新北市永和區厚德街82號","121.523756666667","24.998945","6500400","永和區"
"234054","KEA-2590","2018/10/01 19:18:52","新北市永和區中興街49號","121.516561666667","25.0118266666667","6500400","永和區"
"234013","KEA-2591","2018/10/01 19:18:49","新北市永和區信義路62號","121.512868333333","25.01274","6500400","永和區"
"234061","AAD-866","2018/10/01 19:18:54","新北市永和區秀朗路一段175號","121.517076666667","25.0036383333333","6500400","永和區"
"234067","748-BX","2018/10/01 19:18:50","新北市永和區保平路30巷1號","121.511738333333","25.007455","6500400","永和區"
"234042","862-TW","2018/10/01 19:18:55","新北市永和區保平路177巷6弄2號","121.509801666667","25.0048983333333","6500400","永和區"
"234050","863-TW","2018/10/01 19:18:51","新北市永和區仁愛路148號","121.510696666667","25.0133533333333","6500400","永和區"
"234026","9371-KE","2018/10/01 19:19:02","新北市永和區安樂路144巷21-2號","121.514798333333","24.9999866666667","6500400","永和區"
"234011","9373-KE","2018/10/01 19:19:05","新北市永和區保福路二段15巷29號","121.510175","25.0110066666667","6500400","永和區"
"249005","172-UM","2018/10/01 19:19:02","新北市八里區中華路三段51號","121.395183333333","25.1415716666667","6502300","八里區"
"249001","173-UM","2018/10/01 19:19:06","新北市八里區中華路一段333-1號","121.41312","25.154085","6502300","八里區"
"248008","095-VK","2018/10/01 19:19:06","新北市五股區中興路二段57-6號","121.460503333333","25.07545","6501500","五股區"
"248018","225-UY","2018/10/01 19:19:07","新北市五股區民義路一段220巷32號","121.428493333333","25.0941616666667","6501500","五股區"
"248012","247-BX","2018/10/01 19:18:51","新北市五股區中興路四段48巷16號","121.438625","25.08341","6501500","五股區"
"248004","677-BX","2018/10/01 19:18:54","新北市五股區五福路53號","121.432971666667","25.0897433333333","6501500","五股區"
"248002","678-BX","2018/10/01 19:18:49","新北市五股區凌雲路一段158巷6號","121.447861666667","25.1030533333333","6501500","五股區"
"248010","682-TV","2018/10/01 19:18:51","新北市五股區水碓二路1號","121.430613333333","25.07128","6501500","五股區"
"234023","9380-KE","2018/10/01 19:18:49","新北市永和區竹林路109巷9號","121.52044","25.012065","6500400","永和區"
"234077","969-R7","2018/10/01 19:18:56","新北市永和區民權路36巷22號","121.519118333333","24.9990466666667","6500400","永和區"
"234074","AAC-211","2018/10/01 19:18:51","新北市永和區竹林路89號","121.519623333333","25.0122016666667","6500400","永和區"
"234003","AAC-295","2018/10/01 19:19:00","新北市永和區中山路一段147號","121.510161666667","25.0095166666667","6500400","永和區"
"244022","069-UM","2018/10/01 19:18:54","新北市林口區文化三路一段555巷50號","121.369695","25.07684","6501700","林口區"
"244019","403-UM","2018/10/01 19:18:59","新北市林口區仁愛路二段201-1號","121.37697","25.0751366666667","6501700","林口區"
"244017","485-VK","2018/10/01 19:19:01","新北市林口區頂福里82號","121.370793333333","25.0828816666667","6501700","林口區"
"244011","701-TV","2018/10/01 19:18:46","新北市林口區竹林路82號","121.387963333333","25.0787416666667","6501700","林口區"
"244025","837-TS","2018/10/01 19:18:52","新北市林口區文化北路一段542巷13弄75號","121.3698","25.079555","6501700","林口區"
"243013","AAD-798","2018/10/01 19:18:50","新北市泰山區明志路三段145巷2弄12號","121.425083333333","25.0395833333333","6501600","泰山區"
"243009","297-R6","2018/10/01 19:19:05","新北市泰山區明志路一段94號","121.433476666667","25.06406","6501600","泰山區"
"243016","KEA-2801","2018/10/01 19:19:06","新北市泰山區工專路8號","121.423968333333","25.03951","6501600","泰山區"
"243015","421-VK","2018/10/01 19:19:07","新北市泰山區公園路16號","121.429575","25.0541666666667","6501600","泰山區"
"243011","KEA-2215","2018/10/01 19:18:52","新北市泰山區中央路36巷3號","121.426248333333","25.0427633333333","6501600","泰山區"
"243010","KEA-2216","2018/10/01 19:19:01","新北市泰山區明志路一段492巷5號","121.430151666667","25.054705","6501600","泰山區"
"243012","646-TV","2018/10/01 19:18:56","新北市泰山區仁愛路100巷26號","121.43348","25.05486","6501600","泰山區"
"243014","680-BX","2018/10/01 19:19:01","新北市泰山區泰林路二段118號","121.434575","25.059315","6501600","泰山區"
"222003","436-BY","2018/10/01 19:19:07","新北市深坑區深南路91號","121.626418333333","25.0159983333333","6501800","深坑區"
"222002","659-BX","2018/10/01 19:19:05","新北市深坑區北深路一段177號","121.632558333333","25.0108933333333","6501800","深坑區"
"231059","001-UM","2018/10/01 19:19:04","新北市新店區安和路二段166-10號","121.519093333333","24.97418","6500600","新店區"
"231041","002-UM","2018/10/01 19:18:55","新北市新店區溪園路247號","121.525443333333","24.9832816666667","6500600","新店區"
"231040","047-UY","2018/10/01 19:19:03","新北市新店區三民路24號","121.5371","24.97099","6500600","新店區"
"231044","106-UY","2018/10/01 19:19:06","新北市新店區中興路三段321號","121.542","24.986285","6500600","新店區"
"231046","107-UY","2018/10/01 19:18:57","新北市新店區華城路5-3號","121.529271666667","24.957905","6500600","新店區"
"231052","110-UY","2018/10/01 19:18:52","新北市新店區自強路254號","121.548015","24.918785","6500600","新店區"
"231047","187-VK","2018/10/01 19:19:01","新北市新店區中興路二段67巷4號","121.546423333333","24.9709783333333","6500600","新店區"
"231062","188-VK","2018/10/01 19:18:48","新北市新店區安康路一段222號","121.523785","24.9636083333333","6500600","新店區"
"231042","268-BY","2018/10/01 19:18:52","新北市新店區中興路一段123號","121.54161","24.9631166666667","6500600","新店區"
"231051","278-BY","2018/10/01 19:18:58","新北市新店區中央路192號","121.530936666667","24.9748316666667","6500600","新店區"
"231050","AAD-862","2018/10/01 19:19:06","新北市新店區竹林路25巷10號","121.552323333333","24.9513483333333","6500600","新店區"
"231058","3713-VJ","2018/10/01 19:18:50","新北市新店區北新路二段96號","121.542921666667","24.9730883333333","6500600","新店區"
"231066","4716-K9","2018/10/01 19:18:52","新北市新店區安康路三段359巷12弄5-1號","121.484083333333","24.9493566666667","6500600","新店區"
"231056","4715-K9","2018/10/01 19:18:58","新北市新店區安民街133巷26號","121.515493333333","24.96964","6500600","新店區"
"231067","4772-VM","2018/10/01 19:18:56","新北市新店區安康路一段247巷31號","121.524818333333","24.9619083333333","6500600","新店區"
"231065","512-UM","2018/10/01 19:18:53","新北市新店區安祥路110巷25號","121.473625","24.9563466666667","6500600","新店區"
"231049","513-UM","2018/10/01 19:19:01","新北市新店區明德路64號","121.541553333333","24.9794616666667","6500600","新店區"
"231063","616-UM","2018/10/01 19:18:49","新北市新店區達觀路14巷1-3號","121.504083333333","24.9421333333333","6500600","新店區"
"231045","617-UM","2018/10/01 19:19:03","新北市新店區北宜路一段260號","121.545728333333","24.9527666666667","6500600","新店區"
"231043","618-UM","2018/10/01 19:18:59","新北市新店區北新路二段141-1號","121.54282","24.9756716666667","6500600","新店區"
"231061","619-UM","2018/10/01 19:19:00","新北市新店區安康路一段48號","121.530356666667","24.9611383333333","6500600","新店區"
"231064","719-UM","2018/10/01 19:18:51","新北市新店區安忠路82號","121.51205","24.9586283333333","6500600","新店區"
"231054","719-UY","2018/10/01 19:18:58","新北市新店區國校路45-1號","121.537955","24.95498","6500600","新店區"
"231060","897-TW","2018/10/01 19:18:57","新北市新店區安康路二段156號","121.512315","24.9608983333333","6500600","新店區"
"241011","013-R5","2018/10/01 19:19:02","新北市三重區河邊北街108號","121.503726666667","25.070775","6500200","三重區"
"241022","060-VK","2018/10/01 19:18:52","新北市三重區重陽路二段72號","121.487283333333","25.0640566666667","6500200","三重區"
"241031","061-VK","2018/10/01 19:18:53","新北市三重區重新路四段242-1號","121.48565","25.053745","6500200","三重區"
"241017","063-VK","2018/10/01 19:19:06","新北市三重區大同北路217號","121.491526666667","25.0659966666667","6500200","三重區"
"241026","066-VK","2018/10/01 19:18:51","新北市三重區正義南路183號","121.498935","25.0567066666667","6500200","三重區"
"251014","742-BX","2018/10/01 19:19:05","新北市淡水區小中寮19-7號","121.484751666667","25.2295933333333","6501000","淡水區"
"241009","267-UM","2018/10/01 19:18:54","新北市三重區溪尾街230巷75號","121.485861666667","25.0811","6500200","三重區"
"241032","269-UM","2018/10/01 19:18:55","新北市三重區三陽路137巷3號","121.482915","25.0592166666667","6500200","三重區"
"241013","270-UM","2018/10/01 19:18:59","新北市三重區仁愛街94號","121.495205","25.0738066666667","6500200","三重區"
"241025","271-UM","2018/10/01 19:18:53","新北市三重區中正北路406號","121.475326666667","25.0704866666667","6500200","三重區"
"241007","398-BY","2018/10/01 19:19:06","新北市三重區慈愛街40號","121.485458333333","25.07892","6500200","三重區"
"241035","KEA-2210","2018/10/01 19:18:53","新北市三重區信義西街138號","121.495523333333","25.0643416666667","6500200","三重區"
"241020","478-VK","2018/10/01 19:18:54","新北市三重區忠孝路一段87號","121.489871666667","25.07221","6500200","三重區"
"241030","480-VK","2018/10/01 19:19:07","新北市三重區新興路42號","121.4915","25.0534566666667","6500200","三重區"
"241029","942-UM","2018/10/01 19:18:50","新北市三重區重安街13巷8號","121.490765","25.0572416666667","6500200","三重區"
"235066","003-UY","2018/10/01 19:18:52","新北市中和區中和路102號","121.502691666667","24.9997433333333","6500300","中和區"
"235064","005-UY","2018/10/01 19:19:08","新北市中和區中和路139號","121.502008333333","24.9997983333333","6500300","中和區"
"235063","006-UY","2018/10/01 19:18:58","新北市中和區中正路700號","121.486153333333","24.9964433333333","6500300","中和區"
"235065","031-BX","2018/10/01 19:18:49","新北市中和區中山路二段136巷37號","121.50117","25.0044116666667","6500300","中和區"
"235056","096-UM","2018/10/01 19:18:54","新北市中和區中山路二段648號","121.480733333333","25.005695","6500300","中和區"
"235039","097-UM","2018/10/01 19:18:58","新北市中和區秀峰街79巷2號","121.521896666667","24.99023","6500300","中和區"
"235040","150-BY","2018/10/01 19:18:52","新北市中和區安平路55號","121.509415","24.9954283333333","6500300","中和區"
"235058","151-BY","2018/10/01 19:18:54","新北市中和區連城路523巷11弄17號","121.482093333333","24.9942633333333","6500300","中和區"
"235055","183-VK","2018/10/01 19:19:02","新北市中和區德光路85號","121.46915","25.0036416666667","6500300","中和區"
"235038","185-VK","2018/10/01 19:19:06","新北市中和區自強路27巷1號","121.520591666667","24.99295","6500300","中和區"
"235049","186-VK","2018/10/01 19:18:54","新北市中和區景新街235號","121.508105","24.9945683333333","6500300","中和區"
"235067","255-BX","2018/10/01 19:18:54","新北市中和區民樂路33號","121.483178333333","25.0013733333333","6500300","中和區"
"235044","293-VK","2018/10/01 19:18:58","新北市中和區中興街191號","121.500548333333","24.98999","6500300","中和區"
"235072","301-VK","2018/10/01 19:18:50","新北市中和區連城路196號","121.491973333333","24.9966033333333","6500300","中和區"
"235042","KEA-2878","2018/10/01 19:18:56","新北市中和區安樂路143巷2弄5號","121.514025","24.9977433333333","6500300","中和區"
"235050","4979-A6","2018/10/01 19:18:57","新北市中和區景安路208巷4號","121.503756666667","24.991065","6500300","中和區"
"235069","4980-A6","2018/10/01 19:18:54","新北市中和區中山路二段136巷3弄2號","121.501635","25.003655","6500300","中和區"
"235070","558-UM","2018/10/01 19:18:57","新北市中和區中山路二段225號","121.498493333333","25.0025316666667","6500300","中和區"
"235045","565-BX","2018/10/01 19:19:04","新北市中和區景新街423巷35弄23號","121.513896666667","24.990545","6500300","中和區"
"235054","640-BX","2018/10/01 19:18:51","新北市中和區國光街111號","121.46993","25.0005416666667","6500300","中和區"
"235047","732-UM","2018/10/01 19:19:08","新北市中和區和平街52號","121.508621666667","24.990735","6500300","中和區"
"235046","733-UM","2018/10/01 19:18:48","新北市中和區華新街134號","121.508206666667","24.9826366666667","6500300","中和區"
"235071","783-BX","2018/10/01 19:19:05","新北市中和區中正路637巷46號","121.485496666667","24.99426","6500300","中和區"
"235062","800-TS","2018/10/01 19:18:59","新北市中和區中山路二段550號","121.48411","25.0053466666667","6500300","中和區"
"235057","801-TS","2018/10/01 19:19:02","新北市中和區員山路263號","121.481181666667","24.999225","6500300","中和區"
"235041","802-TS","2018/10/01 19:18:49","新北市中和區景安路2號","121.507878333333","24.999175","6500300","中和區"
"235052","805-TS","2018/10/01 19:18:56","新北市中和區興南路二段124號","121.504315","24.983695","6500300","中和區"
"235048","896-TW","2018/10/01 19:18:56","新北市中和區忠孝街66號","121.511903333333","24.9839866666667","6500300","中和區"
"235053","900-TW","2018/10/01 19:18:51","新北市中和區民德路260號","121.467816666667","24.9968833333333","6500300","中和區"
"235051","157-BY","2018/10/01 19:18:56","新北市中和區和平街34巷6號","121.509581666667","24.9905233333333","6500300","中和區"
"235037","AAC-213","2018/10/01 19:19:08","新北市中和區秀朗路三段10巷37弄4號","121.524003333333","24.9957816666667","6500300","中和區"
"235059","AAC-215","2018/10/01 19:19:01","新北市中和區錦和路408號","121.491075","24.98976","6500300","中和區"
"220068","013-TV","2018/10/01 19:19:03","新北市板橋區翠華街6巷53號","121.481375","25.0246983333333","6500100","板橋區"
"220065","072-UY","2018/10/01 19:18:48","新北市板橋區國泰街76巷34號","121.46716","25.007165","6500100","板橋區"
"220086","073-UY","2018/10/01 19:18:47","新北市板橋區中正路216巷102號","121.45888","25.0191933333333","6500100","板橋區"
"220106","075-UY","2018/10/01 19:19:05","新北市板橋區宏國路109號","121.470325","25.0322283333333","6500100","板橋區"
"220069","AAD-861","2018/10/01 19:18:57","新北市板橋區貴興路35號","121.457601666667","25.0039316666667","6500100","板橋區"
"226004","312-R5","2018/10/01 19:19:00","新北市平溪區靜安路三段98號","121.770796666667","25.0358","6502400","平溪區"
"235043","251-BX","2018/10/01 19:19:05","新北市中和區景平路370號","121.51097","24.992815","6500300","中和區"
"228003","097-TW","2018/10/01 19:18:52","新北市貢寮區和美里和美街22-1號","121.912811666667","25.08262","6502600","貢寮區"
"228002","663-BX","2018/10/01 19:19:06","新北市貢寮區龍門里復興街46-1號","121.928241666667","25.02946","6502600","貢寮區"
"228001","670-TC","2018/10/01 19:18:59","新北市貢寮區真理里新港街10號","121.92552","25.0543716666667","6502600","貢寮區"
"224010","AGQ-8101","2018/10/01 19:14:46","新北市瑞芳區烏勢巷145號","121.847491666667","25.1086583333333","6501200","瑞芳區"
"224008","285-BY","2018/10/01 19:18:52","新北市瑞芳區明燈路三段143號","121.803223333333","25.1092766666667","6501200","瑞芳區"
"227001","642-TC","2018/10/01 19:18:57","新北市雙溪區平林里梅竹蹊66-1號","121.860156666667","25.0358216666667","6502500","雙溪區"
"227008","400-TW","2018/10/01 19:18:48","新北市雙溪區新基里新基北街40號","121.868513333333","25.038025","6502500","雙溪區"
"253006","032-BX","2018/10/01 19:19:05","新北市石門區崁子腳18-10號","121.534493333333","25.2903016666667","6502200","石門區"
"253005","295-VK","2018/10/01 19:18:56","新北市石門區阿里荖18-2號","121.607535","25.28054","6502200","石門區"
"222001","KEA-2212","2018/10/01 19:19:06","新北市深坑區北深路二段103號","121.617376666667","25.0034333333333","6501800","深坑區"
"208002","KEA-2872","2018/10/01 19:19:08","新北市金山區中正路67號","121.633868333333","25.2217483333333","6502700","金山區"
"208003","665-BX","2018/10/01 19:18:54","新北市金山區中山路112號","121.639633333333","25.2195316666667","6502700","金山區"
"208001","761-BX","2018/10/01 19:18:59","新北市金山區金包里街51號","121.639011666667","25.221345","6502700","金山區"
"251009","008-UM","2018/10/01 19:18:53","新北市淡水區清水街136號","121.441471666667","25.1702566666667","6501000","淡水區"
"251005","010-UM","2018/10/01 19:18:53","新北市淡水區水源街一段31號","121.44324","25.1725683333333","6501000","淡水區"
"251001","011-UM","2018/10/01 19:18:53","新北市淡水區民權路92巷35-1號","121.462013333333","25.1268166666667","6501000","淡水區"
"251013","KEA-2871","2018/10/01 19:18:47","新北市淡水區安子內12-1號","121.481586666667","25.219115","6501000","淡水區"
"251015","180-VK","2018/10/01 19:18:55","新北市淡水區山子邊1-2號","121.484716666667","25.18366","6501000","淡水區"
"251010","413-VK","2018/10/01 19:19:03","新北市淡水區沙崙路30號","121.421478333333","25.18145","6501000","淡水區"
"251007","442-VK","2018/10/01 19:18:48","新北市淡水區民生路145巷46號","121.467056666667","25.1389183333333","6501000","淡水區"
"251006","561-UM","2018/10/01 19:19:03","新北市淡水區大信街40-8號","121.44203","25.1773816666667","6501000","淡水區"
"251016","575-R6","2018/10/01 19:18:51","新北市淡水區下圭柔山90-8號","121.431611666667","25.21185","6501000","淡水區"
"251003","766-UM","2018/10/01 19:18:58","新北市淡水區中山北路一段229號","121.444536666667","25.1795316666667","6501000","淡水區"
"207003","550-UM","2018/10/01 19:19:01","新北市萬里區大鵬里萬里加投79-3號","121.647335","25.21236","6502800","萬里區"
"207004","225-TW","2018/10/01 19:19:00","新北市萬里區萬里里成功新村63號","121.688266666667","25.1745533333333","6502800","萬里區"
"252002","178-VK","2018/10/01 19:18:55","新北市三芝區淡金路二段18-1號","121.502678333333","25.2594983333333","6502100","三芝區"
"252001","292-VK","2018/10/01 19:18:51","新北市三芝區長勤街9巷11弄1號","121.501755","25.254755","6502100","三芝區"
"237007","153-BY","2018/10/01 19:19:04","新北市三峽區麻園9-10號","121.362718333333","24.9180516666667","6500900","三峽區"
"237009","210-TH","2018/10/01 19:19:01","新北市三峽區民生街221號","121.37138","24.9348016666667","6500900","三峽區"
"237013","252-BX","2018/10/01 19:18:58","新北市三峽區光明路75巷25號","121.377573333333","24.9282566666667","6500900","三峽區"
"237012","275-BY","2018/10/01 19:16:41","新北市三峽區三樹路222巷236弄23號","121.391391666667","24.9430266666667","6500900","三峽區"
"237008","302-VK","2018/10/01 19:19:02","新北市三峽區大同路90號","121.375698333333","24.9277616666667","6500900","三峽區"
"237014","433-BY","2018/10/01 19:19:07","新北市三峽區中山路257巷39號","121.362043333333","24.9363466666667","6500900","三峽區"
"237006","5529-G3","2018/10/01 19:18:56","新北市三峽區溪東路205巷25號","121.405186666667","24.9341383333333","6500900","三峽區"
"237011","KEA-2596","2018/10/01 19:18:46","新北市三峽區介壽路三段71號","121.39555","24.9381866666667","6500900","三峽區"
"237015","649-BX","2018/10/01 19:18:51","新北市三峽區建安83號","121.453668333333","24.9205116666667","6500900","三峽區"
"237010","706-TV","2018/10/01 19:19:03","新北市三峽區國光街37巷3弄3號","121.375101666667","24.9370983333333","6500900","三峽區"
"237005","AKY-6261","2018/10/01 19:18:50","新北市三峽區中山路459巷42號","121.357081666667","24.93746","6500900","三峽區"
"236069","105-UM","2018/10/01 19:19:07","新北市土城區學成路76巷1號","121.451151666667","24.98835","6501300","土城區"
"236078","166-UM","2018/10/01 19:18:59","新北市土城區中央路四段293巷21號","121.411616666667","24.9514216666667","6501300","土城區"
"236030","253-BX","2018/10/01 19:19:08","新北市土城區城林路6巷80號","121.43854","24.9796016666667","6501300","土城區"
"236026","269-VK","2018/10/01 19:18:59","新北市土城區中央路二段177巷50號","121.444125","24.9761716666667","6501300","土城區"
"236014","270-VK","2018/10/01 19:18:48","新北市土城區學府路一段23巷25弄46號","121.457643333333","24.986185","6501300","土城區"
"236059","912-UM","2018/10/01 19:19:02","新北市土城區中央路二段274號","121.441151666667","24.9741683333333","6501300","土城區"
"236048","913-UM","2018/10/01 19:19:05","新北市土城區明德路一段365-1號","121.45369","24.9790483333333","6501300","土城區"
"242048","497-BY","2018/10/01 19:18:54","新北市新莊區後港一路3號","121.424116666667","25.0263566666667","6500500","新莊區"
"242013","173-VK","2018/10/01 19:19:04","新北市新莊區三和路12-21號","121.441953333333","25.0387133333333","6500500","新莊區"
"242031","348-TH","2018/10/01 19:18:59","新北市新莊區新泰路357巷3弄57號","121.442111666667","25.0393616666667","6500500","新莊區"
"238015","755-BX","2018/10/01 19:19:04","新北市樹林區備內街150-1號","121.407983333333","24.9892066666667","6500700","樹林區"
"238023","601-UM","2018/10/01 19:19:10","桃園市龜山區萬壽路一段420號","121.399636666667","25.0163416666667","6500700","樹林區"
"238019","599-UM","2018/10/01 19:18:58","新北市樹林區鎮前街347巷3弄28號","121.417586666667","24.9836083333333","6500700","樹林區"
"238018","571-TV","2018/10/01 19:19:06","新北市樹林區太元街2巷7號","121.417123333333","24.98101","6500700","樹林區"
"238024","5061-A6","2018/10/01 19:10:38","新北市樹林區中山路二段249巷13號","121.402536666667","24.9758116666667","6500700","樹林區"
"238022","KEA-2213","2018/10/01 19:18:57","新北市樹林區中山路二段131號","121.40725","24.9794283333333","6500700","樹林區"
"238021","KEA-2539","2018/10/01 19:19:00","新北市樹林區柑園街二段247巷18號","121.375101666667","24.9501783333333","6500700","樹林區"
"238025","303-VK","2018/10/01 19:19:03","新北市樹林區中山路三段125-5號","121.398451666667","24.9739833333333","6500700","樹林區"
"238017","283-BY","2018/10/01 19:19:00","新北市樹林區光興街372號","121.406621666667","25.0057233333333","6500700","樹林區"
"238014","282-BY","2018/10/01 19:19:07","新北市樹林區千歲街57號","121.42568","24.99678","6500700","樹林區"
"238020","268-VK","2018/10/01 19:18:54","新北市樹林區俊英街121巷29號","121.423368333333","25.0100616666667","6500700","樹林區"
"238026","172-UY","2018/10/01 19:18:58","新北市樹林區地政街33號","121.39457","24.97181","6500700","樹林區"
"238016","169-UY","2018/10/01 19:18:55","新北市樹林區中山路一段306巷18號","121.41936","24.986565","6500700","樹林區"
"239007","AAC-297","2018/10/01 19:19:01","新北市鶯歌區國光街98號","121.341201666667","24.9574933333333","6500800","鶯歌區"
"239006","891-R6","2018/10/01 19:19:03","新北市鶯歌區鶯桃路91巷12號","121.338926666667","24.953255","6500800","鶯歌區"
"239008","527-UM","2018/10/01 19:18:50","新北市鶯歌區國際二路4巷1號","121.33855","24.973215","6500800","鶯歌區"
"239005","526-UM","2018/10/01 19:18:46","新北市鶯歌區中湖街94-1號","121.348436666667","24.9728116666667","6500800","鶯歌區"
"239001","417-VK","2018/10/01 19:18:49","新北市鶯歌區鶯桃路95巷15號","121.338523333333","24.9535833333333","6500800","鶯歌區"
"239003","360-BY","2018/10/01 19:18:54","新北市鶯歌區重慶街10巷2號","121.351896666667","24.9527133333333","6500800","鶯歌區"
"239004","193-VK","2018/10/01 19:18:48","新北市鶯歌區國中街178號","121.338361666667","24.9392383333333","6500800","鶯歌區"
"221008","489-VK","2018/10/01 19:19:03","新北市汐止區康寧街357號","121.62838","25.0676466666667","6501100","汐止區"
"221036","130-UY","2018/10/01 19:19:02","新北市汐止區康寧街901號","121.65164","25.074925","6501100","汐止區"
"221015","131-UY","2018/10/01 19:19:00","新北市汐止區信義路7號","121.661933333333","25.06933","6501100","汐止區"
"221010","269-BY","2018/10/01 19:18:54","新北市汐止區康寧街901號","121.651505","25.0749683333333","6501100","汐止區"
"221012","278-VK","2018/10/01 19:18:49","新北市汐止區汐萬路一段266號","121.651335","25.073865","6501100","汐止區"
"221023","279-VK","2018/10/01 19:19:08","新北市汐止區康寧街901號","121.650996666667","25.0752316666667","6501100","汐止區"
"221027","281-BY","2018/10/01 19:18:54","新北市汐止區康寧街901號","121.650886666667","25.0752216666667","6501100","汐止區"
"221029","298-VK","2018/10/01 19:19:07","新北市汐止區康寧街901號","121.65161","25.07499","6501100","汐止區"
"221021","299-VK","2018/10/01 19:18:46","新北市汐止區康寧街901號","121.651285","25.0750283333333","6501100","汐止區"
"221031","353-TW","2018/10/01 19:19:04","新北市汐止區汐萬路一段256巷3號","121.652615","25.0745483333333","6501100","汐止區"
"221025","623-UM","2018/10/01 19:18:57","新北市汐止區康寧街901號","121.651618333333","25.074985","6501100","汐止區"
"221038","646-BX","2018/10/01 19:19:05","新北市汐止區汐萬路一段312號","121.650661666667","25.0752716666667","6501100","汐止區"
"221033","647-BX","2018/10/01 19:19:07","新北市汐止區南勢街3號","121.627088333333","25.0373316666667","6501100","汐止區"
"221002","707-TV","2018/10/01 19:19:08","新北市汐止區大同路一段335號","121.638368333333","25.0594483333333","6501100","汐止區"
"220079","145-BY","2018/10/01 19:19:02","新北市板橋區民權路202巷17弄55號","121.458753333333","25.016615","6500100","板橋區"
"220080","200-UY","2018/10/01 19:19:05","新北市板橋區大觀路二段3巷28號","121.448135","25.003635","6500100","板橋區"
"220082","610-BX","2018/10/01 19:18:57","新北市板橋區金門街262號","121.429975","24.9865666666667","6500100","板橋區"
"220101","245-BX","2018/10/01 19:18:55","新北市板橋區莊敬路45號","121.473168333333","25.0269283333333","6500100","板橋區"
"220103","257-TC","2018/10/01 19:18:56","新北市板橋區介壽街26號","121.467826666667","25.0200683333333","6500100","板橋區"
"220091","267-BY","2018/10/01 19:18:51","新北市板橋區雙十路一段36-3號","121.477521666667","25.0246966666667","6500100","板橋區"
"220056","276-BY","2018/10/01 19:19:02","新北市板橋區信義路201號","121.459208333333","24.991675","6500100","板橋區"
"220072","277-BY","2018/10/01 19:18:49","新北市板橋區篤行路二段161巷2號","121.429668333333","24.987605","6500100","板橋區"
"220071","283-VK","2018/10/01 19:18:57","新北市板橋區大豐街44號","121.46161","25.0013016666667","6500100","板橋區"
"220094","285-UM","2018/10/01 19:18:53","新北市板橋區吳鳳路17巷26弄20號","121.466755","25.0298383333333","6500100","板橋區"
"220053","285-VK","2018/10/01 19:18:51","新北市板橋區富山街53巷1弄1號","121.477488333333","25.0207616666667","6500100","板橋區"
"220083","286-VK","2018/10/01 19:18:56","新北市板橋區大觀路二段174巷186弄5號","121.442675","25.003565","6500100","板橋區"
"220081","287-VK","2018/10/01 19:18:53","新北市板橋區南雅西路一段88號","121.453273333333","25.005875","6500100","板橋區"
"220090","288-VK","2018/10/01 19:19:06","新北市板橋區長江路一段106巷13弄26號","121.46105","25.0295266666667","6500100","板橋區"
"220061","293-UM","2018/10/01 19:18:53","新北市板橋區中山路二段326-5號","121.481265","25.0194383333333","6500100","板橋區"
"220084","296-UM","2018/10/01 19:18:58","新北市板橋區滿平街136巷6弄11號","121.427585","24.987795","6500100","板橋區"
"220097","299-UM","2018/10/01 19:18:49","新北市板橋區幸福路60巷31-2號","121.460576666667","25.0210033333333","6500100","板橋區"
"220075","303-R5","2018/10/01 19:18:53","新北市板橋區南雅西路二段235號","121.45099","25.013955","6500100","板橋區"
"220062","305-R5","2018/10/01 19:19:01","新北市板橋區三民路二段153巷36弄2號","121.481085","25.0141183333333","6500100","板橋區"
"220092","307-R5","2018/10/01 19:18:59","新北市板橋區光武街65號","121.467311666667","25.0259816666667","6500100","板橋區"
"220098","317-R6","2018/10/01 19:18:50","新北市板橋區四維路115-3號","121.465461666667","25.0247866666667","6500100","板橋區"
"220064","486-VK","2018/10/01 19:19:01","新北市板橋區民權路27號","121.462413333333","25.0108066666667","6500100","板橋區"
"220089","487-VK","2018/10/01 19:18:49","新北市板橋區民生路二段250號","121.46818","25.0233933333333","6500100","板橋區"
"220088","491-VK","2018/10/01 19:19:06","新北市板橋區雙十路一段1號","121.478341666667","25.0238833333333","6500100","板橋區"
"220035","560-BX","2018/10/01 19:19:09","新北市板橋區中正路360巷32號","121.455588333333","25.0232116666667","6500100","板橋區"
"220063","609-BX","2018/10/01 19:18:58","新北市板橋區三民路二段136-4號","121.47918","25.01604","6500100","板橋區"
"220057","686-BX","2018/10/01 19:18:54","新北市板橋區五權街30巷1號","121.46474","24.9934283333333","6500100","板橋區"
"220077","687-BX","2018/10/01 19:19:09","新北市板橋區大觀路一段28巷60號","121.449801666667","25.0102566666667","6500100","板橋區"
"220093","689-BX","2018/10/01 19:18:58","新北市板橋區文化路一段321號","121.466305","25.02044","6500100","板橋區"
"220054","741-BX","2018/10/01 19:19:06","新北市板橋區重慶路155巷41號","121.463593333333","25.004225","6500100","板橋區"
"220102","KEA-2699","2018/10/01 19:18:48","新北市板橋區萬板路558-1號","121.480645","25.0268333333333","6500100","板橋區"
"220055","827-TW","2018/10/01 19:19:07","新北市板橋區民族路57號","121.464575","25.0088716666667","6500100","板橋區"
"220067","830-TW","2018/10/01 19:18:59","新北市板橋區長安街138巷1弄54號","121.473983333333","25.0102083333333","6500100","板橋區"
"220096","831-TW","2018/10/01 19:19:00","新北市板橋區大同街26巷36號","121.478513333333","25.0262766666667","6500100","板橋區"
"220074","895-R6","2018/10/01 19:18:48","新北市板橋區中正路自強新村78號","121.454811666667","25.0127933333333","6500100","板橋區"
"220073","985-R7","2018/10/01 19:19:00","新北市板橋區新生街16號","121.455618333333","25.0211416666667","6500100","板橋區"
"220070","AAC-253","2018/10/01 19:19:00","新北市板橋區忠孝路173號","121.464061666667","25.0024966666667","6500100","板橋區"
"235068","KEA-2873","2018/10/01 19:18:47","新北市中和區連勝街26巷8號","121.498118333333","24.9982366666667","6500300","中和區"
"235061","KEA-2875","2018/10/01 19:19:04","新北市中和區員山路335號","121.481276666667","25.0014866666667","6500300","中和區"
"235060","KEA-2876","2018/10/01 19:18:57","新北市中和區民有街4號","121.475438333333","25.0057383333333","6500300","中和區"
