"lineid","car","time","location","longitude","latitude","cityid","cityname"
"234046","148-BY","2018/10/01 19:49:02","新北市永和區永亨路203號","121.526128333333","25.00269","6500400","永和區"
"234007","207-UY","2018/10/01 19:49:03","新北市中和區中和路212號","121.5057","24.9996766666667","6500400","永和區"
"234081","298-R6","2018/10/01 19:48:47","新北市永和區永亨路100號","121.523148333333","25.0048466666667","6500400","永和區"
"234038","336-UY","2018/10/01 19:48:56","新北市永和區民樂街59巷5號","121.52791","24.9984216666667","6500400","永和區"
"234064","337-UY","2018/10/01 19:48:55","新北市永和區中正路368巷4號","121.518023333333","25.0008433333333","6500400","永和區"
"234086","338-UY","2018/10/01 19:48:58","新北市永和區永亨路67-1號","121.521181666667","25.0060583333333","6500400","永和區"
"234070","552-UM","2018/10/01 19:49:04","新北市永和區竹林路80號","121.519316666667","25.0126916666667","6500400","永和區"
"234017","745-BX","2018/10/01 19:49:09","新北市永和區永和路二段299號","121.516043333333","25.0160983333333","6500400","永和區"
"234030","746-BX","2018/10/01 19:48:53","新北市永和區民生路67巷22號","121.523825","24.9971433333333","6500400","永和區"
"234054","KEA-2590","2018/10/01 19:48:52","新北市永和區竹林路75巷25弄5號","121.520088333333","25.0143966666667","6500400","永和區"
"234013","KEA-2591","2018/10/01 19:49:08","新北市永和區永平路304號","121.507283333333","25.0124166666667","6500400","永和區"
"234061","AAD-866","2018/10/01 19:48:54","新北市永和區中正路164號","121.514925","24.9965833333333","6500400","永和區"
"234067","748-BX","2018/10/01 19:48:50","新北市永和區永貞路418-3號","121.508706666667","25.0080766666667","6500400","永和區"
"234042","862-TW","2018/10/01 19:48:55","新北市永和區中和路389巷32號","121.508215","25.001605","6500400","永和區"
"234050","863-TW","2018/10/01 19:48:51","新北市永和區保安路46號","121.510335","25.0168333333333","6500400","永和區"
"234026","9371-KE","2018/10/01 19:49:02","新北市永和區雙和街25巷4號","121.50891","25.001895","6500400","永和區"
"234011","9373-KE","2018/10/01 19:49:05","新北市永和區仁愛路352巷94號","121.501155","25.0079883333333","6500400","永和區"
"249001","173-UM","2018/10/01 19:48:50","新北市八里區中華路二段252號","121.405396666667","25.14969","6502300","八里區"
"249004","303-UY","2018/10/01 19:48:58","新北市八里區仁愛路79號","121.41169","25.1598716666667","6502300","八里區"
"249002","305-UY","2018/10/01 19:48:53","新北市八里區頂寮三街46號","121.451266666667","25.1259033333333","6502300","八里區"
"248014","025-BX","2018/10/01 19:48:56","新北市五股區五福路42巷12號","121.434391666667","25.0896366666667","6501500","五股區"
"248016","026-BX","2018/10/01 19:48:50","新北市五股區成泰路四段24-5號","121.453675","25.1068166666667","6501500","五股區"
"248008","095-VK","2018/10/01 19:49:06","新北市五股區四維路171巷16號","121.467106666667","25.0753516666667","6501500","五股區"
"248018","225-UY","2018/10/01 19:49:07","新北市五股區外寮路1-5號","121.425933333333","25.0768433333333","6501500","五股區"
"248012","247-BX","2018/10/01 19:48:51","新北市五股區蓬萊路1-3號","121.434458333333","25.07967","6501500","五股區"
"248004","677-BX","2018/10/01 19:48:54","新北市五股區成泰路一段137號","121.43549","25.0729266666667","6501500","五股區"
"248002","678-BX","2018/10/01 19:49:09","新北市五股區成泰路三段613號","121.452791666667","25.1036283333333","6501500","五股區"
"248010","682-TV","2018/10/01 19:48:57","新北市五股區登林路76-9號","121.429946666667","25.0693416666667","6501500","五股區"
"234077","969-R7","2018/10/01 19:49:05","新北市永和區民權路56號","121.520013333333","24.9983283333333","6500400","永和區"
"234074","AAC-211","2018/10/01 19:49:07","新北市永和區竹林路213巷7號","121.521391666667","25.008905","6500400","永和區"
"234003","AAC-295","2018/10/01 19:49:00","新北市永和區福和路310-1號","121.516216666667","25.0074366666667","6500400","永和區"
"244017","485-VK","2018/10/01 19:49:01","新北市八里區中山路三段382號","121.368691666667","25.1359033333333","6501700","林口區"
"243013","AAD-798","2018/10/01 19:40:06","新北市泰山區應化街7號","121.42386","25.0437383333333","6501600","泰山區"
"243009","297-R6","2018/10/01 19:49:05","新北市泰山區美寧街68號","121.431095","25.06466","6501600","泰山區"
"243016","KEA-2801","2018/10/01 19:45:16","新北市泰山區明志路三段517號","121.421188333333","25.031855","6501600","泰山區"
"243015","421-VK","2018/10/01 19:49:07","新北市泰山區明志路二段214巷9號","121.42669","25.048745","6501600","泰山區"
"243011","KEA-2215","2018/10/01 19:48:52","新北市泰山區明志路三段204巷10弄15號","121.422953333333","25.0387183333333","6501600","泰山區"
"243010","KEA-2216","2018/10/01 19:49:00","新北市泰山區民生路33號","121.430775","25.0521316666667","6501600","泰山區"
"243012","646-TV","2018/10/01 19:48:56","新北市泰山區全興路13號","121.432333333333","25.0589783333333","6501600","泰山區"
"243014","680-BX","2018/10/01 19:49:01","新北市泰山區泰林路二段33-7號","121.435288333333","25.0564766666667","6501600","泰山區"
"222003","436-BY","2018/10/01 19:34:09","新北市深坑區深南路51-1號","121.6212","25.0098466666667","6501800","深坑區"
"222002","659-BX","2018/10/01 19:49:05","新北市深坑區北深路二段2巷1號","121.621383333333","25.004595","6501800","深坑區"
"231059","001-UM","2018/10/01 19:49:04","新北市新店區安和路二段187號","121.518108333333","24.97478","6500600","新店區"
"231041","002-UM","2018/10/01 19:48:55","新北市新店區中央路151號","121.529256666667","24.9722383333333","6500600","新店區"
"231040","047-UY","2018/10/01 19:49:03","新北市新店區大新街7巷1號","121.543243333333","24.9685283333333","6500600","新店區"
"231044","106-UY","2018/10/01 19:49:06","新北市新店區復興路44-1號","121.53861","24.9868533333333","6500600","新店區"
"231046","107-UY","2018/10/01 19:48:57","新北市新店區三民路159巷19弄46號","121.532176666667","24.9732133333333","6500600","新店區"
"231052","110-UY","2018/10/01 19:49:06","新北市新店區新烏路三段88號","121.553638333333","24.90385","6500600","新店區"
"231047","187-VK","2018/10/01 19:49:08","新北市新店區五峰路61巷1號","121.548641666667","24.969685","6500600","新店區"
"231062","188-VK","2018/10/01 19:48:48","新北市新店區永業路51巷1號","121.532053333333","24.9548733333333","6500600","新店區"
"231057","256-BX","2018/10/01 19:49:02","新北市新店區花園二路三段21-3號","121.557256666667","24.9313333333333","6500600","新店區"
"231042","268-BY","2018/10/01 19:48:52","新北市新店區中興路一段255號","121.544663333333","24.9672166666667","6500600","新店區"
"231051","278-BY","2018/10/01 19:48:58","新北市新店區中央三街38號","121.528023333333","24.9742633333333","6500600","新店區"
"231050","AAD-862","2018/10/01 19:49:06","新北市新店區郵政路1巷2號","121.557406666667","24.9521583333333","6500600","新店區"
"231058","3713-VJ","2018/10/01 19:48:50","新北市新店區柴埕路52巷1-6號","121.51279","24.9647366666667","6500600","新店區"
"231066","4716-K9","2018/10/01 19:48:52","新北市新店區安康路二段341巷21號","121.497116666667","24.9545583333333","6500600","新店區"
"231056","4715-K9","2018/10/01 19:48:58","新北市新店區民權路74號","121.53816","24.9832783333333","6500600","新店區"
"231067","4772-VM","2018/10/01 19:48:56","新北市新店區精忠路10-1號","121.532705","24.9590466666667","6500600","新店區"
"231065","512-UM","2018/10/01 19:48:53","新北市新店區安祥路109巷110號","121.477196666667","24.95878","6500600","新店區"
"231049","513-UM","2018/10/01 19:49:01","新北市新店區民權路127巷3號","121.535315","24.98186","6500600","新店區"
"231063","616-UM","2018/10/01 19:48:49","新北市新店區車子路11號","121.503046666667","24.95203","6500600","新店區"
"231045","617-UM","2018/10/01 19:49:03","新北市新店區北宜路二段360-1號","121.564658333333","24.9525666666667","6500600","新店區"
"231043","618-UM","2018/10/01 19:48:50","新北市新店區中正路263-3號","121.538385","24.9738783333333","6500600","新店區"
"231061","619-UM","2018/10/01 19:49:04","新北市新店區安民街153號","121.516558333333","24.9698366666667","6500600","新店區"
"231068","718-UY","2018/10/01 19:49:09","新北市新店區安一路一段1-1號","121.519305","24.9611416666667","6500600","新店區"
"231064","719-UM","2018/10/01 19:48:51","新北市新店區安和路二段113巷3弄5號","121.518021666667","24.9699033333333","6500600","新店區"
"231054","719-UY","2018/10/01 19:49:04","新北市新店區光明街103號","121.539183333333","24.9611516666667","6500600","新店區"
"231060","897-TW","2018/10/01 19:48:57","新北市新店區安康路二段203號","121.509041666667","24.95897","6500600","新店區"
"231055","AKT-0513","2018/10/01 19:49:02","新北市新店區中華路83巷67號","121.538411666667","24.9672683333333","6500600","新店區"
"241011","013-R5","2018/10/01 19:49:02","新北市三重區仁愛街12號","121.496821666667","25.0711083333333","6500200","三重區"
"241028","022-UY","2018/10/01 19:48:54","新北市三重區中正南路145號","121.49389","25.0566533333333","6500200","三重區"
"241008","059-VK","2018/10/01 19:49:00","新北市三重區永福街113號","121.479313333333","25.07733","6500200","三重區"
"241022","060-VK","2018/10/01 19:48:52","新北市三重區新北大道一段11號","121.488628333333","25.0606216666667","6500200","三重區"
"241031","061-VK","2018/10/01 19:48:53","新北市三重區重新路四段248號","121.486118333333","25.0534733333333","6500200","三重區"
"241015","062-VK","2018/10/01 19:48:55","新北市三重區重新路一段1號","121.503826666667","25.0643333333333","6500200","三重區"
"241017","063-VK","2018/10/01 19:49:06","新北市三重區重陽路三段5巷8弄27號","121.489555","25.06657","6500200","三重區"
"241024","065-VK","2018/10/01 19:48:51","新北市三重區大勇街82巷15弄30號","121.48125","25.07199","6500200","三重區"
"241026","066-VK","2018/10/01 19:48:51","新北市三重區文化南路42號","121.500416666667","25.0602816666667","6500200","三重區"
"241003","091-VK","2018/10/01 19:22:21","新北市三重區五華街141巷57號","121.49359","25.0866183333333","6500200","三重區"
"251014","742-BX","2018/10/01 19:49:05","新北市淡水區番社前1-7號","121.468303333333","25.2360966666667","6501000","淡水區"
"241016","266-UM","2018/10/01 19:49:04","新北市三重區正義北路16巷30號","121.496511666667","25.0628216666667","6500200","三重區"
"241009","267-UM","2018/10/01 19:49:04","新北市三重區三和路四段396巷4號","121.48111","25.0791216666667","6500200","三重區"
"241018","268-UM","2018/10/01 19:48:52","新北市三重區雙園街57巷23-3號","121.494643333333","25.0681866666667","6500200","三重區"
"241032","269-UM","2018/10/01 19:48:55","新北市三重區重陽路一段44巷9號","121.486008333333","25.0578666666667","6500200","三重區"
"241013","270-UM","2018/10/01 19:48:59","新北市三重區仁愛街129巷3號","121.495711666667","25.0749933333333","6500200","三重區"
"241025","271-UM","2018/10/01 19:48:51","新北市三重區忠孝路三段52號","121.480668333333","25.0656633333333","6500200","三重區"
"241007","398-BY","2018/10/01 19:49:06","新北市三重區三和路四段137號","121.4845","25.0780316666667","6500200","三重區"
"241035","KEA-2210","2018/10/01 19:48:53","新北市三重區中央北路18巷41號","121.49954","25.0638133333333","6500200","三重區"
"241004","475-VK","2018/10/01 19:49:07","新北市三重區自強路五段43號","121.494248333333","25.08133","6500200","三重區"
"241020","478-VK","2018/10/01 19:49:09","新北市三重區後竹圍街34號","121.491143333333","25.0734533333333","6500200","三重區"
"241030","480-VK","2018/10/01 19:49:07","新北市三重區環河南路254巷10號","121.490723333333","25.0507416666667","6500200","三重區"
"241014","543-UM","2018/10/01 19:49:10","新北市三重區長元街98巷18弄31號","121.501783333333","25.0674833333333","6500200","三重區"
"241023","545-UM","2018/10/01 19:48:51","新北市三重區大有街1-9號","121.477546666667","25.066","6500200","三重區"
"241001","547-UM","2018/10/01 19:48:49","新北市三重區仁愛街327巷31號","121.493025","25.079985","6500200","三重區"
"241019","KEA-2593","2018/10/01 19:49:05","新北市三重區自強路二段91號","121.488233333333","25.0704016666667","6500200","三重區"
"241006","AAD-863","2018/10/01 19:48:56","新北市三重區永福街263號","121.48157","25.07418","6500200","三重區"
"241029","942-UM","2018/10/01 19:49:10","新北市三重區光明路15號","121.491116666667","25.0587383333333","6500200","三重區"
"241033","AAC-255","2018/10/01 19:49:03","新北市三重區中興南街64號","121.470595","25.044015","6500200","三重區"
"235066","003-UY","2018/10/01 19:48:52","新北市中和區南工路40號","121.505813333333","25.001335","6500300","中和區"
"235064","005-UY","2018/10/01 19:49:08","新北市中和區永和路52號","121.499131666667","25.0041683333333","6500300","中和區"
"235063","006-UY","2018/10/01 19:48:58","新北市中和區連城路203巷10弄2號","121.494995","24.997375","6500300","中和區"
"235065","031-BX","2018/10/01 19:48:49","新北市中和區永和路9巷2號","121.499133333333","25.0040516666667","6500300","中和區"
"235056","096-UM","2018/10/01 19:48:54","新北市中和區民富街4號","121.477073333333","25.00593","6500300","中和區"
"235039","097-UM","2018/10/01 19:48:58","新北市中和區大勇街27巷2號","121.517225","24.9936766666667","6500300","中和區"
"235040","150-BY","2018/10/01 19:48:51","新北市中和區安平路59號","121.50967","24.99497","6500300","中和區"
"235058","151-BY","2018/10/01 19:48:54","新北市中和區員山路132巷12號","121.481865","24.9962216666667","6500300","中和區"
"235055","183-VK","2018/10/01 19:49:02","新北市中和區中山路三段181巷30號","121.4731","25.0050183333333","6500300","中和區"
"235038","185-VK","2018/10/01 19:49:06","新北市永和區民族街81巷62號","121.520423333333","24.9963816666667","6500300","中和區"
"235049","186-VK","2018/10/01 19:48:54","新北市中和區中正路2號","121.503366666667","24.993845","6500300","中和區"
"235067","255-BX","2018/10/01 19:48:54","新北市中和區新生街264號","121.48361","24.9972","6500300","中和區"
"235044","293-VK","2018/10/01 19:48:58","新北市中和區南山路176-1號","121.505143333333","24.99112","6500300","中和區"
"235072","301-VK","2018/10/01 19:48:50","新北市土城區和平路73號","121.444238333333","24.9705583333333","6500300","中和區"
"235050","4979-A6","2018/10/01 19:48:57","新北市中和區和平街164巷2號","121.505988333333","24.9923116666667","6500300","中和區"
"235069","4980-A6","2018/10/01 19:48:54","新北市中和區和城路一段271巷1號","121.485453333333","24.9916783333333","6500300","中和區"
"235070","558-UM","2018/10/01 19:48:57","新北市中和區景平路483號","121.500261666667","24.9975083333333","6500300","中和區"
"235054","640-BX","2018/10/01 19:48:51","新北市中和區德光路58號","121.469753333333","25.0039516666667","6500300","中和區"
"235047","732-UM","2018/10/01 19:48:57","新北市中和區興南路一段86號","121.50989","24.9893016666667","6500300","中和區"
"235046","733-UM","2018/10/01 19:49:08","新北市中和區仁愛街59-3號","121.511348333333","24.98773","6500300","中和區"
"235057","801-TS","2018/10/01 19:49:02","新北市中和區員山路150-1號","121.481285","24.99728","6500300","中和區"
"235041","802-TS","2018/10/01 19:49:09","新北市中和區中安街40巷2號","121.51279","25.002945","6500300","中和區"
"235052","805-TS","2018/10/01 19:48:56","新北市中和區華新街30巷16號","121.506836666667","24.9844433333333","6500300","中和區"
"235048","896-TW","2018/10/01 19:48:55","新北市中和區興南路一段146號","121.508413333333","24.98703","6500300","中和區"
"235053","900-TW","2018/10/01 19:48:50","新北市中和區國光街180號","121.4674","25.00186","6500300","中和區"
"235051","157-BY","2018/10/01 19:48:55","新北市中和區中興街180巷52弄1號","121.498505","24.9883966666667","6500300","中和區"
"235037","AAC-213","2018/10/01 19:48:47","新北市中和區自立路193號","121.52438","24.9913033333333","6500300","中和區"
"235059","AAC-215","2018/10/01 19:49:01","新北市中和區圓通路305巷6號","121.494138333333","24.98978","6500300","中和區"
"220068","013-TV","2018/10/01 19:49:03","新北市板橋區中山路二段416巷32弄1號","121.483293333333","25.0202","6500100","板橋區"
"220065","072-UY","2018/10/01 19:48:56","新北市板橋區民族路69巷16弄2號","121.465755","25.00968","6500100","板橋區"
"220086","073-UY","2018/10/01 19:49:07","新北市板橋區南雅西路二段7巷25號","121.45194","25.0094983333333","6500100","板橋區"
"220106","075-UY","2018/10/01 19:49:07","新北市板橋區文化路二段608巷35號","121.478488333333","25.0347183333333","6500100","板橋區"
"220069","AAD-861","2018/10/01 19:49:08","新北市板橋區貴興路119巷1弄1號","121.455695","25.0022816666667","6500100","板橋區"
"247002","893-R6","2018/10/01 19:49:09","新北市蘆洲區永平街24號","121.458921666667","25.0907566666667","6501400","蘆洲區"
"247014","339-TH","2018/10/01 19:49:04","新北市蘆洲區中央路103號","121.472203333333","25.0840316666667","6501400","蘆洲區"
"247008","336-TH","2018/10/01 19:49:05","新北市蘆洲區中山一路49號","121.47884","25.0810016666667","6501400","蘆洲區"
"247004","002-UY","2018/10/01 19:49:06","新北市蘆洲區中原路24號","121.460255","25.0828666666667","6501400","蘆洲區"
"226004","312-R5","2018/10/01 19:49:00","新北市平溪區靜安路三段392巷3號","121.784413333333","25.0495583333333","6502400","平溪區"
"235043","251-BX","2018/10/01 19:49:05","新北市中和區華新街230號","121.50603","24.9817","6500300","中和區"
"228003","097-TW","2018/10/01 19:48:52","新北市貢寮區真理里美艷山街13-1號","121.928266666667","25.0606783333333","6502600","貢寮區"
"228001","670-TC","2018/10/01 19:48:59","新北市貢寮區真理里新港街56號","121.92606","25.0565283333333","6502600","貢寮區"
"224010","AGQ-8101","2018/10/01 19:48:46","新北市瑞芳區烏勢巷145號","121.847666666667","25.108915","6501200","瑞芳區"
"224002","639-TC","2018/10/01 19:48:56","新北市瑞芳區民享新村21號","121.81704","25.1056783333333","6501200","瑞芳區"
"227001","642-TC","2018/10/01 19:48:57","新北市雙溪區雙溪里內挖路36號","121.863196666667","25.0367816666667","6502500","雙溪區"
"227008","400-TW","2018/10/01 19:48:48","新北市雙溪區新基里中華路83號","121.865788333333","25.0384966666667","6502500","雙溪區"
"253006","032-BX","2018/10/01 19:46:05","新北市石門區小坑9號","121.59368","25.2880866666667","6502200","石門區"
"222001","KEA-2212","2018/10/01 19:49:06","新北市深坑區北深路三段112號","121.606745","25.001505","6501800","深坑區"
"208002","KEA-2872","2018/10/01 19:48:48","新北市金山區三民街32號","121.634861666667","25.2234216666667","6502700","金山區"
"208003","665-BX","2018/10/01 19:48:54","新北市金山區清泉里清水路32號","121.629953333333","25.2305633333333","6502700","金山區"
"208001","761-BX","2018/10/01 19:49:02","新北市金山區重和里六股林口14-6號","121.605445","25.2221033333333","6502700","金山區"
"251009","008-UM","2018/10/01 19:48:53","新北市淡水區中正路32號","121.44384","25.16923","6501000","淡水區"
"251005","010-UM","2018/10/01 19:48:53","新北市淡水區中山路108巷3號","121.442018333333","25.1710316666667","6501000","淡水區"
"251001","011-UM","2018/10/01 19:49:05","新北市淡水區淡金路42-1號","121.456505","25.1611066666667","6501000","淡水區"
"251013","KEA-2871","2018/10/01 19:49:07","新北市淡水區頂田寮11-6號","121.465835","25.2138066666667","6501000","淡水區"
"251008","179-VK","2018/10/01 19:48:58","新北市淡水區中正路一段62巷16號","121.426238333333","25.17723","6501000","淡水區"
"251015","180-VK","2018/10/01 19:48:55","新北市淡水區商工路381號","121.472936666667","25.1853433333333","6501000","淡水區"
"251010","413-VK","2018/10/01 19:49:03","新北市淡水區下圭柔山91-3號","121.430966666667","25.2098633333333","6501000","淡水區"
"251012","441-VK","2018/10/01 19:48:52","新北市淡水區淡金路三段66號","121.44823","25.199875","6501000","淡水區"
"251007","442-VK","2018/10/01 19:48:48","新北市淡水區中正東路一段113號","121.454181666667","25.1599583333333","6501000","淡水區"
"251006","561-UM","2018/10/01 19:49:03","新北市淡水區水碓街15號","121.443471666667","25.1769533333333","6501000","淡水區"
"251016","575-R6","2018/10/01 19:48:51","新北市淡水區下圭柔山122號","121.455976666667","25.2089133333333","6501000","淡水區"
"251011","650-BX","2018/10/01 19:48:57","新北市淡水區北投子14-3號","121.449291666667","25.1830966666667","6501000","淡水區"
"251003","766-UM","2018/10/01 19:48:58","新北市淡水區崁頂51-1號","121.4418","25.197625","6501000","淡水區"
"207003","550-UM","2018/10/01 19:49:00","新北市萬里區大鵬里萬里加投239號","121.642435","25.2166833333333","6502800","萬里區"
"207004","225-TW","2018/10/01 19:49:00","新北市萬里區萬里里瑪鋉路261號","121.689848333333","25.17979","6502800","萬里區"
"252002","178-VK","2018/10/01 19:48:55","新北市三芝區三民街24號","121.504641666667","25.258645","6502100","三芝區"
"252001","292-VK","2018/10/01 19:48:51","新北市三芝區公正街9號","121.499705","25.2575466666667","6502100","三芝區"
"237004","KEA-2597","2018/10/01 19:48:57","新北市三峽區添福295-1號","121.378178333333","24.8844516666667","6500900","三峽區"
"237007","153-BY","2018/10/01 19:49:04","新北市三峽區二鬮路136巷22弄1號","121.356223333333","24.9102","6500900","三峽區"
"237009","210-TH","2018/10/01 19:49:01","新北市三峽區中園街13-1號","121.368645","24.9270616666667","6500900","三峽區"
"237013","252-BX","2018/10/01 19:48:58","新北市三峽區橫溪路67號","121.397445","24.93531","6500900","三峽區"
"237012","275-BY","2018/10/01 19:49:01","新北市三峽區中華路5-1號","121.37446","24.9326666666667","6500900","三峽區"
"237008","302-VK","2018/10/01 19:49:02","新北市三峽區永安街179號","121.373191666667","24.9270083333333","6500900","三峽區"
"237014","433-BY","2018/10/01 19:48:47","新北市三峽區嘉添11號","121.368683333333","24.9119716666667","6500900","三峽區"
"237006","5529-G3","2018/10/01 19:48:56","新北市三峽區中正路一段336巷15弄2號","121.369946666667","24.9249416666667","6500900","三峽區"
"237011","KEA-2596","2018/10/01 19:49:05","新北市三峽區介壽路三段37號","121.395706666667","24.9371433333333","6500900","三峽區"
"237015","649-BX","2018/10/01 19:48:51","新北市三峽區成福路49號","121.418025","24.9288933333333","6500900","三峽區"
"237005","AKY-6261","2018/10/01 19:48:50","新北市三峽區長泰街79-2號","121.375655","24.933095","6500900","三峽區"
"236069","105-UM","2018/10/01 19:49:07","新北市土城區中央路二段346巷12-2號","121.439568333333","24.9722583333333","6501300","土城區"
"236078","166-UM","2018/10/01 19:48:59","新北市土城區溪頭路131號","121.409716666667","24.9513266666667","6501300","土城區"
"236030","253-BX","2018/10/01 19:48:48","新北市土城區中央路一段290號","121.443336666667","24.9824233333333","6501300","土城區"
"236026","269-VK","2018/10/01 19:48:50","新北市土城區中央路二段61巷26號","121.443343333333","24.9788133333333","6501300","土城區"
"236039","271-VK","2018/10/01 19:48:48","新北市土城區國際路158巷57號","121.468096666667","24.9751416666667","6501300","土城區"
"236042","752-BX","2018/10/01 19:49:01","新北市土城區清水路83號","121.455773333333","24.9817666666667","6501300","土城區"
"236059","912-UM","2018/10/01 19:49:03","新北市土城區中央路一段179號","121.446183333333","24.9874033333333","6501300","土城區"
"236048","913-UM","2018/10/01 19:49:05","新北市土城區青雲路309號","121.459071666667","24.9792033333333","6501300","土城區"
"236063","915-UM","2018/10/01 19:48:48","新北市土城區延和路105巷1弄2號","121.467393333333","24.990465","6501300","土城區"
"236055","AAC-216","2018/10/01 19:48:52","新北市土城區延和路109號","121.467781666667","24.9902683333333","6501300","土城區"
"242036","AAC-296","2018/10/01 19:49:05","新北市新莊區建安街101巷1弄1號","121.426846666667","25.024025","6500500","新莊區"
"242029","705-TV","2018/10/01 19:49:07","新北市新莊區中平路301號","121.444681666667","25.0512366666667","6500500","新莊區"
"242048","497-BY","2018/10/01 19:48:54","新北市新莊區建安街92巷7號","121.425906666667","25.0242216666667","6500500","新莊區"
"242002","440-UM","2018/10/01 19:48:56","新北市新莊區新泰路2-11號","121.450145","25.03252","6500500","新莊區"
"242039","415-TV","2018/10/01 19:49:04","新北市新莊區民安路299巷37號","121.429341666667","25.02324","6500500","新莊區"
"242009","413-TV","2018/10/01 19:48:57","新北市新莊區新泰路500號","121.442468333333","25.0461883333333","6500500","新莊區"
"242023","362-BY","2018/10/01 19:48:54","新北市新莊區化成路222號","121.465591666667","25.0466933333333","6500500","新莊區"
"242060","353-BY","2018/10/01 19:48:56","新北市新莊區中環路一段10號","121.442853333333","25.0257866666667","6500500","新莊區"
"242013","173-VK","2018/10/01 19:49:04","新北市新莊區中誠街88號","121.45018","25.0478816666667","6500500","新莊區"
"242017","346-TH","2018/10/01 19:48:54","新北市新莊區中港路304號","121.452666666667","25.0448733333333","6500500","新莊區"
"242031","348-TH","2018/10/01 19:48:58","新北市新莊區忠孝街26號","121.443961666667","25.0355183333333","6500500","新莊區"
"242004","349-TH","2018/10/01 19:48:57","新北市新莊區化成路63巷24弄17號","121.462666666667","25.04593","6500500","新莊區"
"242021","350-TH","2018/10/01 19:49:00","新北市新莊區新泰路153號","121.447945","25.03685","6500500","新莊區"
"242015","351-TH","2018/10/01 19:48:58","新北市新莊區中平路82巷36-2號","121.446568333333","25.0448616666667","6500500","新莊區"
"238015","755-BX","2018/10/01 19:49:04","新北市樹林區日新街101號","121.421476666667","24.9899633333333","6500700","樹林區"
"238023","601-UM","2018/10/01 19:48:50","新北市樹林區中正路163號","121.424101666667","25.0021983333333","6500700","樹林區"
"238019","599-UM","2018/10/01 19:48:58","新北市樹林區中山路三段202-1號","121.386255","24.9685066666667","6500700","樹林區"
"238024","5061-A6","2018/10/01 19:46:58","新北市樹林區八德街1022號","121.391053333333","24.9685416666667","6500700","樹林區"
"238021","KEA-2539","2018/10/01 19:49:04","新北市樹林區佳園路三段101巷80弄20號","121.394201666667","24.9495933333333","6500700","樹林區"
"238025","303-VK","2018/10/01 19:49:03","新北市樹林區中山路二段62-1號","121.416155","24.9844233333333","6500700","樹林區"
"238017","283-BY","2018/10/01 19:49:00","新北市樹林區保安街二段107巷1弄2號","121.415118333333","25.0008366666667","6500700","樹林區"
"238014","282-BY","2018/10/01 19:49:06","新北市樹林區千歲街63-8號","121.426723333333","24.9982516666667","6500700","樹林區"
"238026","172-UY","2018/10/01 19:48:57","新北市樹林區佳園路二段65巷1號","121.39108","24.96077","6500700","樹林區"
"239006","891-R6","2018/10/01 19:49:03","新北市鶯歌區文化路124號","121.35181","24.952","6500800","鶯歌區"
"239004","193-VK","2018/10/01 19:48:48","新北市鶯歌區中正一路478號","121.366655","24.9570033333333","6500800","鶯歌區"
"221008","489-VK","2018/10/01 19:49:07","新北市汐止區康寧街83巷2-1號","121.619916666667","25.066805","6501100","汐止區"
"221036","130-UY","2018/10/01 19:49:02","新北市汐止區汐萬路一段81號","121.654626666667","25.0701183333333","6501100","汐止區"
"221015","131-UY","2018/10/01 19:49:00","新北市汐止區忠孝東路399號","121.665648333333","25.0709516666667","6501100","汐止區"
"221010","269-BY","2018/10/01 19:48:54","新北市汐止區汐萬路一段420號","121.649863333333","25.078105","6501100","汐止區"
"221012","278-VK","2018/10/01 19:48:49","新北市汐止區保長路271巷2號","121.680913333333","25.0743233333333","6501100","汐止區"
"221023","279-VK","2018/10/01 19:48:48","新北市汐止區明峰街151號","121.629278333333","25.07047","6501100","汐止區"
"221032","280-BY","2018/10/01 19:49:07","新北市汐止區橫科路403巷18號","121.625016666667","25.0475816666667","6501100","汐止區"
"221027","281-BY","2018/10/01 19:48:54","新北市汐止區南昌街35號","121.662738333333","25.0689416666667","6501100","汐止區"
"221029","298-VK","2018/10/01 19:48:46","新北市汐止區康寧街901號","121.651456666667","25.0749233333333","6501100","汐止區"
"221021","299-VK","2018/10/01 19:49:06","新北市汐止區莊敬街1號","121.657865","25.061625","6501100","汐止區"
"221031","353-TW","2018/10/01 19:49:04","新北市汐止區福德二路54巷2弄3號","121.633973333333","25.0676366666667","6501100","汐止區"
"221035","622-UM","2018/10/01 19:48:54","新北市汐止區長江街13巷5弄1號","121.6547","25.0715733333333","6501100","汐止區"
"221025","623-UM","2018/10/01 19:48:57","新北市汐止區秀峰路81巷17號","121.660891666667","25.0646666666667","6501100","汐止區"
"221038","646-BX","2018/10/01 19:49:05","新北市汐止區忠孝東路427號","121.665768333333","25.0718116666667","6501100","汐止區"
"221033","647-BX","2018/10/01 19:41:27","新北市汐止區東勢街22號","121.624875","25.0385666666667","6501100","汐止區"
"221002","707-TV","2018/10/01 19:48:47","新北市汐止區大同路一段219巷27號","121.633215","25.0583833333333","6501100","汐止區"
"220079","145-BY","2018/10/01 19:49:02","新北市板橋區建國街52號","121.458793333333","25.0171283333333","6500100","板橋區"
"220080","200-UY","2018/10/01 19:48:45","新北市板橋區大觀路二段153巷39弄1號","121.446986666667","25.0004683333333","6500100","板橋區"
"220082","610-BX","2018/10/01 19:48:57","新北市板橋區篤行路二段102號","121.431361666667","24.99129","6500100","板橋區"
"220101","245-BX","2018/10/01 19:48:55","新北市板橋區縣民大道三段103巷22號","121.475203333333","25.0228016666667","6500100","板橋區"
"220103","257-TC","2018/10/01 19:48:56","新北市板橋區陽明街46-2號","121.465673333333","25.021895","6500100","板橋區"
"220091","267-BY","2018/10/01 19:48:51","新北市板橋區懷德街127巷58號","121.480528333333","25.031905","6500100","板橋區"
"220056","276-BY","2018/10/01 19:49:02","新北市板橋區四川路二段99巷4弄2號","121.452818333333","24.9941916666667","6500100","板橋區"
"220072","277-BY","2018/10/01 19:48:49","新北市板橋區篤行路二段81號","121.431696666667","24.9918366666667","6500100","板橋區"
"220071","283-VK","2018/10/01 19:48:56","新北市板橋區五權街32巷6號","121.464673333333","24.993155","6500100","板橋區"
"220094","285-UM","2018/10/01 19:49:07","新北市板橋區長江路一段371號","121.461626666667","25.0306116666667","6500100","板橋區"
"220053","285-VK","2018/10/01 19:48:51","新北市板橋區民享街64號","121.476355","25.0152966666667","6500100","板橋區"
"220083","286-VK","2018/10/01 19:48:56","新北市板橋區龍興街63巷8號","121.44289","25.0014","6500100","板橋區"
"220081","287-VK","2018/10/01 19:49:03","新北市板橋區大觀路一段35巷7弄18號","121.45025","25.007235","6500100","板橋區"
"220090","288-VK","2018/10/01 19:48:55","新北市板橋區龍泉街72巷6號","121.456328333333","25.026325","6500100","板橋區"
"220061","293-UM","2018/10/01 19:48:53","新北市板橋區板新路238號","121.468048333333","25.0162566666667","6500100","板橋區"
"220084","296-UM","2018/10/01 19:48:58","新北市板橋區滿平街9號","121.426283333333","24.9901616666667","6500100","板橋區"
"220097","299-UM","2018/10/01 19:49:04","新北市板橋區文化路一段285巷2弄19號","121.464315","25.019545","6500100","板橋區"
"242034","281-VK","2018/10/01 19:49:02","新北市新莊區新泰路199巷20號","121.445711666667","25.03787","6500500","新莊區"
"220075","303-R5","2018/10/01 19:48:53","新北市板橋區金華街10巷25號","121.456758333333","25.02023","6500100","板橋區"
"220062","305-R5","2018/10/01 19:49:01","新北市板橋區中山路318巷20弄134號","121.4821","25.0183166666667","6500100","板橋區"
"220092","307-R5","2018/10/01 19:49:00","新北市板橋區陽明街164巷31號","121.46464","25.0247933333333","6500100","板橋區"
"220098","317-R6","2018/10/01 19:48:50","新北市板橋區四維路269巷80號","121.460138333333","25.0268966666667","6500100","板橋區"
"220064","486-VK","2018/10/01 19:49:04","新北市板橋區實踐路82號","121.463956666667","25.005335","6500100","板橋區"
"220089","487-VK","2018/10/01 19:49:10","新北市板橋區龍泉街71號","121.456553333333","25.025385","6500100","板橋區"
"242007","280-VK","2018/10/01 19:49:05","新北市新莊區新北大道三段5號","121.458416666667","25.0600366666667","6500500","新莊區"
"220088","491-VK","2018/10/01 19:49:02","新北市板橋區民治街42巷1號","121.478991666667","25.0337","6500100","板橋區"
"220035","560-BX","2018/10/01 19:48:56","新北市板橋區金華街47號","121.4567","25.02046","6500100","板橋區"
"220063","609-BX","2018/10/01 19:49:06","新北市板橋區三民路一段140號","121.479218333333","25.0203683333333","6500100","板橋區"
"220057","686-BX","2018/10/01 19:48:54","新北市板橋區信義路184號","121.459596666667","24.99131","6500100","板橋區"
"220077","687-BX","2018/10/01 19:48:49","新北市板橋區僑中一街122號","121.445915","25.0117766666667","6500100","板橋區"
"220093","689-BX","2018/10/01 19:48:58","新北市板橋區長江路二段219號","121.468035","25.0325","6500100","板橋區"
"220054","741-BX","2018/10/01 19:49:06","新北市板橋區忠孝路忠義巷15弄1號","121.465855","25.0038116666667","6500100","板橋區"
"220102","KEA-2699","2018/10/01 19:49:08","新北市板橋區松柏街57-4號","121.475683333333","25.0303","6500100","板橋區"
"220055","827-TW","2018/10/01 19:49:07","新北市板橋區國慶路149巷29弄15號","121.460245","24.9974766666667","6500100","板橋區"
"220067","830-TW","2018/10/01 19:48:59","新北市板橋區長安街138巷1弄9號","121.473158333333","25.0097833333333","6500100","板橋區"
"220096","831-TW","2018/10/01 19:49:00","新北市板橋區莊敬路168號","121.471511666667","25.0223816666667","6500100","板橋區"
"220074","895-R6","2018/10/01 19:48:48","新北市板橋區府中路29-2號","121.458473333333","25.00798","6500100","板橋區"
"220073","985-R7","2018/10/01 19:48:40","新北市板橋區大仁街93號","121.453328333333","25.0159316666667","6500100","板橋區"
"220070","AAC-253","2018/10/01 19:49:00","新北市板橋區民族路83號","121.465728333333","25.0085516666667","6500100","板橋區"
"235068","KEA-2873","2018/10/01 19:48:47","新北市中和區永和路8巷23弄3號","121.500826666667","25.003825","6500300","中和區"
"235061","KEA-2875","2018/10/01 19:49:04","新北市中和區新生街148巷27號","121.482508333333","25.000825","6500300","中和區"
"235060","KEA-2876","2018/10/01 19:48:57","新北市中和區中山路二段479號","121.483138333333","25.00482","6500300","中和區"
