"lineid","car","time","location","longitude","latitude","cityid","cityname"
"234046","148-BY","2018/10/01 19:59:02","新北市永和區永利路101號","121.523065","25.0026783333333","6500400","永和區"
"234007","207-UY","2018/10/01 19:59:03","新北市永和區保生路22巷17號","121.50715","25.0081516666667","6500400","永和區"
"234081","298-R6","2018/10/01 19:59:10","新北市永和區永利路81巷2弄3號","121.521838333333","25.003595","6500400","永和區"
"234038","336-UY","2018/10/01 19:58:56","新北市永和區成功路二段193號","121.526601666667","24.9964166666667","6500400","永和區"
"234064","337-UY","2018/10/01 19:59:00","新北市永和區中正路412巷20弄10號","121.518773333333","25.0015916666667","6500400","永和區"
"234086","338-UY","2018/10/01 19:58:58","新北市永和區福和路256號","121.51858","25.0076033333333","6500400","永和區"
"234070","552-UM","2018/10/01 19:59:04","新北市永和區國光路14號","121.519133333333","25.0083433333333","6500400","永和區"
"234017","745-BX","2018/10/01 19:58:49","新北市永和區文化路69號","121.513921666667","25.0150383333333","6500400","永和區"
"234030","746-BX","2018/10/01 19:58:53","新北市永和區民生路67巷9號","121.523095","24.9972316666667","6500400","永和區"
"234054","KEA-2590","2018/10/01 19:58:52","新北市永和區環河東路一段122號","121.520595","25.01546","6500400","永和區"
"234013","KEA-2591","2018/10/01 19:59:09","新北市永和區保生路55號","121.504756666667","25.010315","6500400","永和區"
"234061","AAD-866","2018/10/01 19:58:54","新北市永和區中正路283巷11號","121.516873333333","25.00056","6500400","永和區"
"234067","748-BX","2018/10/01 19:58:50","新北市永和區永貞路404號","121.509158333333","25.0076483333333","6500400","永和區"
"234042","862-TW","2018/10/01 19:58:55","新北市永和區中和路421巷16弄1號","121.508695","25.0011116666667","6500400","永和區"
"234050","863-TW","2018/10/01 19:58:51","新北市永和區保安路214號","121.507435","25.0135883333333","6500400","永和區"
"234026","9371-KE","2018/10/01 19:59:02","新北市永和區水源街33巷2號","121.510811666667","25.004145","6500400","永和區"
"234011","9373-KE","2018/10/01 19:59:05","新北市永和區仁愛路352巷124號","121.500273333333","25.00858","6500400","永和區"
"249005","172-UM","2018/10/01 19:59:02","新北市八里區楓林路3-1號","121.382398333333","25.1304233333333","6502300","八里區"
"249001","173-UM","2018/10/01 19:58:50","新北市八里區中華路二段310號","121.403833333333","25.1483733333333","6502300","八里區"
"249004","303-UY","2018/10/01 19:58:58","新北市八里區中華路一段333-1號","121.41329","25.1538333333333","6502300","八里區"
"249002","305-UY","2018/10/01 19:58:53","新北市八里區頂寮一街50號","121.450495","25.1242566666667","6502300","八里區"
"248014","025-BX","2018/10/01 19:59:08","新北市五股區五福路14巷17號","121.435048333333","25.0888866666667","6501500","五股區"
"248016","026-BX","2018/10/01 19:58:51","新北市五股區成泰路三段577巷80弄24號","121.449545","25.10452","6501500","五股區"
"248008","095-VK","2018/10/01 19:59:06","新北市五股區中興路一段1巷20號","121.469751666667","25.0710016666667","6501500","五股區"
"248018","225-UY","2018/10/01 19:59:07","新北市五股區登林路93-6號","121.418298333333","25.0738783333333","6501500","五股區"
"248012","247-BX","2018/10/01 19:58:51","新北市五股區民義路一段138-1號","121.434093333333","25.0865366666667","6501500","五股區"
"248004","677-BX","2018/10/01 19:58:54","新北市五股區成泰路一段8巷2-3號","121.434815","25.06691","6501500","五股區"
"248002","678-BX","2018/10/01 19:59:09","新北市五股區成泰路三段557號","121.452095","25.1019","6501500","五股區"
"248010","682-TV","2018/10/01 19:58:51","新北市五股區登林路46巷2號","121.43211","25.0687016666667","6501500","五股區"
"234023","9380-KE","2018/10/01 19:58:49","新北市永和區中正路702巷18號","121.516486666667","25.0105583333333","6500400","永和區"
"234077","969-R7","2018/10/01 19:58:56","新北市永和區智光街46號","121.517108333333","24.997955","6500400","永和區"
"234074","AAC-211","2018/10/01 19:59:07","新北市永和區豫溪街213號","121.524238333333","25.0093816666667","6500400","永和區"
"234003","AAC-295","2018/10/01 19:59:00","新北市永和區中正路625號","121.515676666667","25.0100566666667","6500400","永和區"
"244017","485-VK","2018/10/01 19:59:01","新北市八里區長道坑2號","121.393466666667","25.1241333333333","6501700","林口區"
"243013","AAD-798","2018/10/01 19:40:06","新北市泰山區應化街7號","121.42386","25.0437383333333","6501600","泰山區"
"243009","297-R6","2018/10/01 19:59:05","新北市泰山區明志路一段153號","121.43329","25.0625966666667","6501600","泰山區"
"243016","KEA-2801","2018/10/01 19:59:06","新北市泰山區貴陽街13號","121.42167","25.033385","6501600","泰山區"
"243015","421-VK","2018/10/01 19:58:47","新北市泰山區明志路二段194號","121.427428333333","25.0497533333333","6501600","泰山區"
"243011","KEA-2215","2018/10/01 19:58:52","新北市泰山區明志路三段196巷39號","121.421681666667","25.0398583333333","6501600","泰山區"
"243010","KEA-2216","2018/10/01 19:58:51","新北市泰山區中華街14巷1號","121.427701666667","25.0524166666667","6501600","泰山區"
"243012","646-TV","2018/10/01 19:58:59","新北市泰山區全興路111號","121.433861666667","25.0566283333333","6501600","泰山區"
"243014","680-BX","2018/10/01 19:59:01","新北市泰山區泰林路二段211號","121.432948333333","25.0615616666667","6501600","泰山區"
"222003","436-BY","2018/10/01 19:59:08","新北市深坑區埔新街14號","121.6207","25.0039366666667","6501800","深坑區"
"222002","659-BX","2018/10/01 19:59:05","新北市深坑區北深路二段81巷8弄6號","121.618266666667","25.0030866666667","6501800","深坑區"
"231059","001-UM","2018/10/01 19:59:04","新北市新店區安和路一段15號","121.516803333333","24.9641783333333","6500600","新店區"
"231041","002-UM","2018/10/01 19:58:55","新北市新店區中正路352號","121.535866666667","24.975525","6500600","新店區"
"231040","047-UY","2018/10/01 19:59:03","新北市新店區中正路59號","121.544286666667","24.9700133333333","6500600","新店區"
"231044","106-UY","2018/10/01 19:59:06","新北市新店區復興路38號","121.538916666667","24.986815","6500600","新店區"
"231052","110-UY","2018/10/01 19:58:52","新北市新店區新烏路三段336號","121.546658333333","24.8959816666667","6500600","新店區"
"231047","187-VK","2018/10/01 19:58:48","新北市新店區寶興路65巷2號","121.550755","24.9716016666667","6500600","新店區"
"231062","188-VK","2018/10/01 19:59:00","新北市新店區華城路36號","121.528395","24.9555216666667","6500600","新店區"
"231057","256-BX","2018/10/01 19:59:02","新北市新店區花園二路一段11號","121.555513333333","24.932455","6500600","新店區"
"231042","268-BY","2018/10/01 19:58:51","新北市新店區中興路一段278號","121.545405","24.9683433333333","6500600","新店區"
"231051","278-BY","2018/10/01 19:58:58","新北市新店區中央一街27號","121.52807","24.9733333333333","6500600","新店區"
"231050","AAD-862","2018/10/01 19:59:06","新北市新店區北宜路二段103號","121.550286666667","24.9524816666667","6500600","新店區"
"231056","4715-K9","2018/10/01 19:58:58","新北市新店區北新路二段109號","121.542886666667","24.9746883333333","6500600","新店區"
"231067","4772-VM","2018/10/01 19:58:56","新北市新店區秀山路11巷12弄2號","121.531651666667","24.9594816666667","6500600","新店區"
"231065","512-UM","2018/10/01 19:58:53","新北市新店區安祥路109巷131號","121.476926666667","24.9581533333333","6500600","新店區"
"231049","513-UM","2018/10/01 19:59:01","新北市新店區民族路57號","121.540011666667","24.9785166666667","6500600","新店區"
"231063","616-UM","2018/10/01 19:59:09","新北市新店區車子路11號","121.503056666667","24.9520316666667","6500600","新店區"
"231045","617-UM","2018/10/01 19:59:03","新北市新店區北宜路二段353-3號","121.55841","24.9542233333333","6500600","新店區"
"231043","618-UM","2018/10/01 19:58:50","新北市新店區中正路282-11號","121.538451666667","24.97388","6500600","新店區"
"231061","619-UM","2018/10/01 19:59:00","新北市新店區安民街279號","121.517536666667","24.9732033333333","6500600","新店區"
"231068","718-UY","2018/10/01 19:58:49","新北市新店區安一路一段1-1號","121.519406666667","24.9610133333333","6500600","新店區"
"231064","719-UM","2018/10/01 19:58:11","新北市新店區光華街7巷2號","121.517631666667","24.96905","6500600","新店區"
"231054","719-UY","2018/10/01 19:58:58","新北市新店區光明街137號","121.539476666667","24.9619966666667","6500600","新店區"
"231060","897-TW","2018/10/01 19:58:57","新北市新店區安康路二段393號","121.494413333333","24.95416","6500600","新店區"
"231055","AKT-0513","2018/10/01 19:59:02","新北市新店區中華路83巷67號","121.538346666667","24.967305","6500600","新店區"
"241011","013-R5","2018/10/01 19:59:02","新北市三重區三和路二段119號","121.498906666667","25.06921","6500200","三重區"
"241028","022-UY","2018/10/01 19:58:54","新北市三重區重新路三段94號","121.492548333333","25.0609633333333","6500200","三重區"
"241008","059-VK","2018/10/01 19:59:00","新北市三重區永福街124號","121.479321666667","25.075105","6500200","三重區"
"241022","060-VK","2018/10/01 19:58:52","新北市三重區新北大道一段11號","121.488606666667","25.060635","6500200","三重區"
"241031","061-VK","2018/10/01 19:58:54","新北市三重區重新路四段184巷16號","121.487145","25.0550166666667","6500200","三重區"
"241015","062-VK","2018/10/01 19:58:55","新北市三重區三和路二段17號","121.501236666667","25.0668916666667","6500200","三重區"
"241017","063-VK","2018/10/01 19:59:06","新北市三重區重陽路三段186號","121.4902","25.06821","6500200","三重區"
"241024","065-VK","2018/10/01 19:58:51","新北市三重區力行路二段2號","121.481831666667","25.0719","6500200","三重區"
"241026","066-VK","2018/10/01 19:58:51","新北市三重區仁慈街20號","121.501995","25.0631766666667","6500200","三重區"
"241002","090-VK","2018/10/01 19:58:52","新北市三重區仁愛街225巷7弄17號","121.496435","25.077915","6500200","三重區"
"251014","742-BX","2018/10/01 19:59:05","新北市淡水區石頭厝2-7號","121.459571666667","25.2363783333333","6501000","淡水區"
"241016","266-UM","2018/10/01 19:59:03","新北市三重區正義北路37號","121.49742","25.0638183333333","6500200","三重區"
"241009","267-UM","2018/10/01 19:58:54","新北市三重區三和路四段390巷27號","121.4807","25.0787166666667","6500200","三重區"
"241018","268-UM","2018/10/01 19:58:52","新北市三重區雙園街57巷9號","121.494835","25.0679066666667","6500200","三重區"
"241032","269-UM","2018/10/01 19:58:55","新北市三重區朝陽街26巷1弄1號","121.483271666667","25.0564533333333","6500200","三重區"
"241013","270-UM","2018/10/01 19:58:58","新北市三重區三和路三段125巷36號","121.493798333333","25.0737683333333","6500200","三重區"
"241025","271-UM","2018/10/01 19:58:50","新北市三重區頂崁街210巷16號","121.476481666667","25.067725","6500200","三重區"
"241007","398-BY","2018/10/01 19:59:06","新北市三重區三和路四段163巷79號","121.486073333333","25.0791666666667","6500200","三重區"
"241035","KEA-2210","2018/10/01 19:58:53","新北市三重區大榮街7號","121.498176666667","25.063085","6500200","三重區"
"241004","475-VK","2018/10/01 19:59:07","新北市三重區五華街74號","121.493358333333","25.0820183333333","6500200","三重區"
"241020","478-VK","2018/10/01 19:59:09","新北市三重區忠孝路一段101號","121.489441666667","25.0721833333333","6500200","三重區"
"241030","480-VK","2018/10/01 19:59:07","新北市三重區成功路171號","121.486118333333","25.0524583333333","6500200","三重區"
"241014","543-UM","2018/10/01 19:58:50","新北市三重區三和路二段42號","121.500003333333","25.0679633333333","6500200","三重區"
"241023","545-UM","2018/10/01 19:58:51","新北市三重區大有街1-10號","121.477623333333","25.0660966666667","6500200","三重區"
"241001","547-UM","2018/10/01 19:58:49","新北市三重區仁愛街283巷42號","121.494601666667","25.0801866666667","6500200","三重區"
"241019","KEA-2593","2018/10/01 19:59:05","新北市三重區重陽路四段18號","121.490985","25.06915","6500200","三重區"
"241006","AAD-863","2018/10/01 19:58:56","新北市三重區力行路二段134號","121.48224","25.07562","6500200","三重區"
"241029","942-UM","2018/10/01 19:58:50","新北市三重區重安街8號","121.490213333333","25.0583216666667","6500200","三重區"
"241033","AAC-255","2018/10/01 19:58:43","新北市三重區中興北街14-1號","121.46942","25.0473266666667","6500200","三重區"
"235066","003-UY","2018/10/01 19:58:52","新北市中和區中山路二段69號","121.503966666667","25.0044066666667","6500300","中和區"
"235064","005-UY","2018/10/01 19:59:08","新北市中和區莊敬路1-6號","121.499381666667","25.0043333333333","6500300","中和區"
"235063","006-UY","2018/10/01 19:58:58","新北市中和區連城路263巷7弄2號","121.492216666667","24.9958066666667","6500300","中和區"
"235056","096-UM","2018/10/01 19:58:54","新北市中和區漢民路401號","121.472205","25.00713","6500300","中和區"
"235039","097-UM","2018/10/01 19:59:00","新北市中和區景平路278巷12號","121.513998333333","24.9930283333333","6500300","中和區"
"235040","150-BY","2018/10/01 19:58:51","新北市中和區保健路10巷1弄1號","121.507923333333","24.9979316666667","6500300","中和區"
"235058","151-BY","2018/10/01 19:58:54","新北市中和區員山路152-1號","121.48133","24.99837","6500300","中和區"
"235055","183-VK","2018/10/01 19:59:02","新北市中和區民生街23巷3弄2號","121.471061666667","25.0050283333333","6500300","中和區"
"235038","185-VK","2018/10/01 19:59:05","新北市中和區立人街24-5號","121.518855","24.9941866666667","6500300","中和區"
"235049","186-VK","2018/10/01 19:58:54","新北市中和區景平路429號","121.501491666667","24.9954516666667","6500300","中和區"
"235067","255-BX","2018/10/01 19:59:01","新北市中和區中正路751巷3弄12號","121.484358333333","24.999325","6500300","中和區"
"235044","293-VK","2018/10/01 19:58:58","新北市中和區中興街110號","121.500188333333","24.9932083333333","6500300","中和區"
"235050","4979-A6","2018/10/01 19:58:57","新北市中和區景平路241巷56號","121.507938333333","24.9922866666667","6500300","中和區"
"235069","4980-A6","2018/10/01 19:58:54","新北市中和區南山路66號","121.502366666667","24.9962383333333","6500300","中和區"
"235070","558-UM","2018/10/01 19:58:57","新北市中和區圓通路225號","121.496473333333","24.99431","6500300","中和區"
"235054","640-BX","2018/10/01 19:58:51","新北市中和區國光街1號","121.472633333333","25.00017","6500300","中和區"
"235046","733-UM","2018/10/01 19:59:08","新北市中和區興南路一段93巷63號","121.51036","24.9870666666667","6500300","中和區"
"235041","802-TS","2018/10/01 19:58:49","新北市中和區中安街226號","121.512348333333","24.9987383333333","6500300","中和區"
"235052","805-TS","2018/10/01 19:58:56","新北市中和區華新街30巷20弄1-2號","121.506476666667","24.98404","6500300","中和區"
"235048","896-TW","2018/10/01 19:58:55","新北市中和區景新街367號","121.512091666667","24.9906466666667","6500300","中和區"
"235053","900-TW","2018/10/01 19:58:50","新北市板橋區廣權路113號","121.464958333333","24.9929033333333","6500300","中和區"
"235051","157-BY","2018/10/01 19:58:55","新北市中和區復興路263巷6號","121.502608333333","24.9899983333333","6500300","中和區"
"235037","AAC-213","2018/10/01 19:59:08","新北市中和區自立路18號","121.52217","24.99353","6500300","中和區"
"235059","AAC-215","2018/10/01 19:59:01","新北市中和區圓通路305巷5弄12號","121.49398","24.9902633333333","6500300","中和區"
"220068","013-TV","2018/10/01 19:59:03","新北市板橋區光復街172巷31弄5-2號","121.486285","25.0191083333333","6500100","板橋區"
"220065","072-UY","2018/10/01 19:59:07","新北市板橋區民族路69巷8-1號","121.46571","25.0094083333333","6500100","板橋區"
"220086","073-UY","2018/10/01 19:59:07","新北市五股區新五路二段99-3號","121.437378333333","25.0759266666667","6500100","板橋區"
"220106","075-UY","2018/10/01 19:59:04","新北市板橋區民治街96巷16號","121.478666666667","25.0320816666667","6500100","板橋區"
"220069","AAD-861","2018/10/01 19:58:48","新北市板橋區貴興路63號","121.457188333333","25.003105","6500100","板橋區"
"247002","893-R6","2018/10/01 19:59:09","新北市蘆洲區永樂街31巷7-1號","121.458118333333","25.08725","6501400","蘆洲區"
"247016","546-UM","2018/10/01 19:58:56","新北市蘆洲區光華路20號","121.469556666667","25.0834466666667","6501400","蘆洲區"
"247024","500-BY","2018/10/01 19:58:51","新北市蘆洲區光榮路120巷19號","121.465636666667","25.0883866666667","6501400","蘆洲區"
"247014","339-TH","2018/10/01 19:59:04","新北市蘆洲區成功路136號","121.471966666667","25.0828316666667","6501400","蘆洲區"
"247006","337-TH","2018/10/01 19:58:54","新北市蘆洲區九芎街139巷17號","121.466076666667","25.0790183333333","6501400","蘆洲區"
"247008","336-TH","2018/10/01 19:59:05","新北市蘆洲區信義路105號","121.47812","25.0801333333333","6501400","蘆洲區"
"247020","057-VK","2018/10/01 19:58:59","新北市蘆洲區民權路113號","121.472355","25.0894083333333","6501400","蘆洲區"
"247018","007-UY","2018/10/01 19:58:59","新北市蘆洲區民族路278號","121.478291666667","25.089385","6501400","蘆洲區"
"247004","002-UY","2018/10/01 19:59:06","新北市蘆洲區永康街79號","121.455718333333","25.0852016666667","6501400","蘆洲區"
"226004","312-R5","2018/10/01 19:59:00","新北市平溪區十分里十分街129號","121.776971666667","25.0432933333333","6502400","平溪區"
"235043","251-BX","2018/10/01 19:59:05","新北市中和區興南路二段159巷12號","121.50522","24.9831333333333","6500300","中和區"
"228003","097-TW","2018/10/01 19:58:52","新北市貢寮區仁理村仁和路252號","121.924135","25.0541083333333","6502600","貢寮區"
"224002","639-TC","2018/10/01 19:58:56","新北市瑞芳區員山子路員山巷39-1號","121.816673333333","25.103985","6501200","瑞芳區"
"227001","642-TC","2018/10/01 19:58:57","新北市雙溪區雙溪里長安街16號","121.864976666667","25.0347033333333","6502500","雙溪區"
"227008","400-TW","2018/10/01 19:58:48","新北市雙溪區新基里新基南街25號","121.866246666667","25.0381716666667","6502500","雙溪區"
"222001","KEA-2212","2018/10/01 19:59:07","新北市深坑區北深路三段160號","121.602441666667","25.0032566666667","6501800","深坑區"
"208002","KEA-2872","2018/10/01 19:59:05","新北市金山區中正路134-1號","121.631928333333","25.2208283333333","6502700","金山區"
"208003","665-BX","2018/10/01 19:58:54","新北市金山區香園9號","121.634685","25.2502283333333","6502700","金山區"
"208001","761-BX","2018/10/01 19:59:01","新北市金山區重和里林口24號","121.596901666667","25.2103266666667","6502700","金山區"
"251009","008-UM","2018/10/01 19:58:53","新北市淡水區英專路30號","121.445698333333","25.1699916666667","6501000","淡水區"
"251005","010-UM","2018/10/01 19:58:53","新北市淡水區學府路136巷29號","121.451525","25.1727283333333","6501000","淡水區"
"251001","011-UM","2018/10/01 19:58:53","新北市淡水區淡金路二段138號","121.446891666667","25.1876583333333","6501000","淡水區"
"251013","KEA-2871","2018/10/01 19:59:07","新北市淡水區頂田寮路43號","121.457528333333","25.21614","6501000","淡水區"
"251008","179-VK","2018/10/01 19:58:58","新北市淡水區中正路一段132巷14號","121.4227","25.1797416666667","6501000","淡水區"
"251015","180-VK","2018/10/01 19:58:55","新北市淡水區埤島76-2號","121.45188","25.1930933333333","6501000","淡水區"
"251010","413-VK","2018/10/01 19:59:03","新北市淡水區崁頂92號","121.429705","25.2031666666667","6501000","淡水區"
"251012","441-VK","2018/10/01 19:58:32","新北市淡水區下圭柔山93號","121.435978333333","25.209075","6501000","淡水區"
"251007","442-VK","2018/10/01 19:59:08","新北市淡水區竿蓁二街103巷3號","121.456198333333","25.1652","6501000","淡水區"
"251004","443-VK","2018/10/01 19:59:04","新北市淡水區民族路44號","121.461438333333","25.136","6501000","淡水區"
"251006","561-UM","2018/10/01 19:59:03","新北市淡水區北新路8號","121.444453333333","25.177405","6501000","淡水區"
"251016","575-R6","2018/10/01 19:58:51","新北市淡水區淡金路四段545號","121.451528333333","25.2296033333333","6501000","淡水區"
"251011","650-BX","2018/10/01 19:58:57","新北市淡水區崁頂55-3號","121.442181666667","25.1967066666667","6501000","淡水區"
"251003","766-UM","2018/10/01 19:58:58","新北市淡水區中山北路二段189巷15弄29號","121.443406666667","25.184225","6501000","淡水區"
"207003","550-UM","2018/10/01 19:59:00","新北市萬里區大鵬里萬里加投42-3號","121.639136666667","25.2081033333333","6502800","萬里區"
"207004","225-TW","2018/10/01 19:59:00","新北市萬里區北基里忠二街35號","121.685626666667","25.1757466666667","6502800","萬里區"
"252002","178-VK","2018/10/01 19:58:55","新北市三芝區忠孝街116-3號","121.50546","25.25756","6502100","三芝區"
"252001","292-VK","2018/10/01 19:58:51","新北市三芝區長安街89號","121.49968","25.2575216666667","6502100","三芝區"
"237004","KEA-2597","2018/10/01 19:58:57","新北市三峽區添福15-33號","121.37268","24.9044633333333","6500900","三峽區"
"237007","153-BY","2018/10/01 19:59:04","新北市三峽區二鬮路57-2號","121.361611666667","24.9096583333333","6500900","三峽區"
"237009","210-TH","2018/10/01 19:59:01","新北市三峽區民族街78巷8號","121.368636666667","24.9295283333333","6500900","三峽區"
"237012","275-BY","2018/10/01 19:59:01","新北市三峽區中華路48巷16號","121.371085","24.93011","6500900","三峽區"
"237008","302-VK","2018/10/01 19:59:02","新北市三峽區大同路209號","121.370736666667","24.927045","6500900","三峽區"
"237014","433-BY","2018/10/01 19:58:47","新北市三峽區添福139號","121.375448333333","24.9009233333333","6500900","三峽區"
"237006","5529-G3","2018/10/01 19:58:56","新北市三峽區中正路二段12號","121.367491666667","24.9198616666667","6500900","三峽區"
"237011","KEA-2596","2018/10/01 19:59:05","新北市三峽區介壽路一段207-1號","121.378871666667","24.9304216666667","6500900","三峽區"
"237015","649-BX","2018/10/01 19:58:51","新北市三峽區溪東路143-1號","121.402711666667","24.9342383333333","6500900","三峽區"
"237005","AKY-6261","2018/10/01 19:59:10","新北市三峽區民生街1巷1號","121.382681666667","24.93244","6500900","三峽區"
"236069","105-UM","2018/10/01 19:59:07","新北市土城區忠義路95號","121.443625","24.964025","6501300","土城區"
"236078","166-UM","2018/10/01 19:58:59","新北市土城區福安街88號","121.417905","24.9642","6501300","土城區"
"236030","253-BX","2018/10/01 19:58:53","新北市土城區中華路一段199號","121.44335","24.9850116666667","6501300","土城區"
"236026","269-VK","2018/10/01 19:58:50","新北市土城區員林街1號","121.442421666667","24.9781883333333","6501300","土城區"
"236014","270-VK","2018/10/01 19:59:08","新北市土城區廣福街123號","121.456231666667","24.9929366666667","6501300","土城區"
"236039","271-VK","2018/10/01 19:58:48","新北市土城區國際路57號","121.466725","24.9767616666667","6501300","土城區"
"236020","401-BY","2018/10/01 19:59:05","新北市土城區延吉街137巷2弄1號","121.470826666667","24.9858866666667","6501300","土城區"
"236042","752-BX","2018/10/01 19:59:07","新北市土城區學府路一段143巷4號","121.453833333333","24.98594","6501300","土城區"
"236059","912-UM","2018/10/01 19:59:02","新北市土城區中央路一段260號","121.444158333333","24.984095","6501300","土城區"
"236048","913-UM","2018/10/01 19:59:05","新北市土城區金城路三段182-3號","121.46805","24.9878416666667","6501300","土城區"
"236063","915-UM","2018/10/01 19:59:03","新北市土城區金城路三段73巷4弄28號","121.46629","24.98821","6501300","土城區"
"236055","AAC-216","2018/10/01 19:58:52","新北市土城區立德路103號","121.46339","24.9876283333333","6501300","土城區"
"242036","AAC-296","2018/10/01 19:58:52","新北市新莊區建安街39號","121.42904","25.0255016666667","6500500","新莊區"
"242058","986-R7","2018/10/01 19:58:54","新北市新莊區八德街56號","121.42505","25.0224983333333","6500500","新莊區"
"242029","705-TV","2018/10/01 19:58:47","新北市新莊區中榮街152巷17號","121.445913333333","25.0533833333333","6500500","新莊區"
"242025","613-BX","2018/10/01 19:59:08","新北市新莊區五工二路86巷52號","121.460985","25.0675566666667","6500500","新莊區"
"242044","566-BX","2018/10/01 19:59:06","新北市新莊區中正路746巷29號","121.410643333333","25.02461","6500500","新莊區"
"242048","497-BY","2018/10/01 19:58:54","新北市新莊區富國路160號","121.423441666667","25.02484","6500500","新莊區"
"242002","440-UM","2018/10/01 19:58:56","新北市新莊區中正路219號","121.450975","25.0358116666667","6500500","新莊區"
"242039","415-TV","2018/10/01 19:59:04","新北市新莊區民安路299巷19號","121.428935","25.023035","6500500","新莊區"
"242009","413-TV","2018/10/01 19:58:56","新北市新莊區昌盛街21號","121.45361","25.0499533333333","6500500","新莊區"
"242023","362-BY","2018/10/01 19:58:54","新北市新莊區化成路410號","121.465948333333","25.05077","6500500","新莊區"
"242060","353-BY","2018/10/01 19:58:56","新北市新莊區瓊泰路19號","121.444325","25.0286016666667","6500500","新莊區"
"242011","132-UY","2018/10/01 19:59:03","新北市新莊區中港路531巷35-1號","121.449845","25.051425","6500500","新莊區"
"242042","133-UY","2018/10/01 19:58:51","新北市新莊區青山路一段58號","121.409503333333","25.0277283333333","6500500","新莊區"
"242050","172-VK","2018/10/01 19:59:05","新北市新莊區西盛街186號","121.428148333333","25.0185783333333","6500500","新莊區"
"242013","173-VK","2018/10/01 19:59:04","新北市新莊區中華路二段83-1號","121.452633333333","25.0485716666667","6500500","新莊區"
"242019","175-VK","2018/10/01 19:58:50","新北市新莊區民生街28號","121.45635","25.042235","6500500","新莊區"
"242017","346-TH","2018/10/01 19:58:52","新北市新莊區中港路332號","121.45236","25.0457616666667","6500500","新莊區"
"242031","348-TH","2018/10/01 19:58:58","新北市新莊區忠孝街29巷36號","121.443671666667","25.037105","6500500","新莊區"
"242004","349-TH","2018/10/01 19:58:57","新北市新莊區化成路384號","121.465865","25.05018","6500500","新莊區"
"242021","350-TH","2018/10/01 19:58:59","新北市新莊區建中街32巷21號","121.448681666667","25.0382283333333","6500500","新莊區"
"242015","351-TH","2018/10/01 19:58:57","新北市新莊區泰安街46號","121.44694","25.042455","6500500","新莊區"
"238015","755-BX","2018/10/01 19:59:04","新北市樹林區中山路一段135-4號","121.422476666667","24.9898283333333","6500700","樹林區"
"238021","KEA-2539","2018/10/01 19:58:51","新北市樹林區佳園路三段99巷31號","121.390588333333","24.95226","6500700","樹林區"
"238017","283-BY","2018/10/01 19:59:00","新北市樹林區保安街二段45巷22號","121.414951666667","25.0001283333333","6500700","樹林區"
"239006","891-R6","2018/10/01 19:59:03","新北市鶯歌區文化路145巷2號","121.356501666667","24.9542516666667","6500800","鶯歌區"
"239004","193-VK","2018/10/01 19:59:08","新北市鶯歌區二甲路13-16號","121.345268333333","24.9349816666667","6500800","鶯歌區"
"221008","489-VK","2018/10/01 19:59:07","新北市汐止區康寧街39號","121.618593333333","25.06679","6501100","汐止區"
"221036","130-UY","2018/10/01 19:59:02","新北市汐止區忠孝東路258巷16弄2號","121.66366","25.0672","6501100","汐止區"
"221015","131-UY","2018/10/01 19:59:00","新北市汐止區大同路三段21巷5號","121.666296666667","25.0760233333333","6501100","汐止區"
"221010","269-BY","2018/10/01 19:58:54","新北市汐止區連峰街270號","121.644323333333","25.0814116666667","6501100","汐止區"
"221012","278-VK","2018/10/01 19:59:09","新北市汐止區大同路三段439號","121.678281666667","25.0712866666667","6501100","汐止區"
"221023","279-VK","2018/10/01 19:58:48","新北市汐止區中興路248-1號","121.629621666667","25.0687033333333","6501100","汐止區"
"221032","280-BY","2018/10/01 19:59:07","新北市汐止區橫科路18巷18號","121.617716666667","25.05018","6501100","汐止區"
"221027","281-BY","2018/10/01 19:58:54","新北市汐止區中正路71號","121.661706666667","25.069545","6501100","汐止區"
"221029","298-VK","2018/10/01 19:59:06","新北市汐止區樟樹一路137巷26號","121.641041666667","25.0659966666667","6501100","汐止區"
"221021","299-VK","2018/10/01 19:59:06","新北市汐止區水源路一段138號","121.6561","25.062425","6501100","汐止區"
"221031","353-TW","2018/10/01 19:59:04","新北市汐止區福德一路174號","121.63583","25.06619","6501100","汐止區"
"221035","622-UM","2018/10/01 19:58:54","新北市汐止區長江街39巷6號","121.655561666667","25.0716083333333","6501100","汐止區"
"221025","623-UM","2018/10/01 19:58:57","新北市汐止區秀峰路109巷26弄8號","121.660988333333","25.0634283333333","6501100","汐止區"
"221038","646-BX","2018/10/01 19:59:05","新北市汐止區忠孝東路486號","121.666206666667","25.073955","6501100","汐止區"
"221033","647-BX","2018/10/01 19:58:07","新北市汐止區東勢街76巷51弄1號","121.63378","25.038925","6501100","汐止區"
"221002","707-TV","2018/10/01 19:59:08","新北市汐止區大同路一段219巷26號","121.633236666667","25.0584483333333","6501100","汐止區"
"221018","753-BX","2018/10/01 19:58:49","新北市汐止區忠孝東路363號","121.66555","25.0707966666667","6501100","汐止區"
"220079","145-BY","2018/10/01 19:59:01","新北市板橋區中正路183巷46號","121.454973333333","25.0160716666667","6500100","板橋區"
"220080","200-UY","2018/10/01 19:59:06","新北市板橋區大觀路二段179巷25號","121.445933333333","24.9997416666667","6500100","板橋區"
"220082","610-BX","2018/10/01 19:58:57","新北市板橋區大觀路三段121號","121.432606666667","24.9944666666667","6500100","板橋區"
"220101","245-BX","2018/10/01 19:58:55","新北市板橋區莒光路180巷23號","121.473235","25.0227983333333","6500100","板橋區"
"220103","257-TC","2018/10/01 19:58:56","新北市板橋區陽明街27巷6號","121.46534","25.0216216666667","6500100","板橋區"
"220091","267-BY","2018/10/01 19:59:03","新北市板橋區文聖街101巷1號","121.478001666667","25.0296283333333","6500100","板橋區"
"220072","277-BY","2018/10/01 19:58:53","新北市板橋區金門街113-3號","121.433066666667","24.9919283333333","6500100","板橋區"
"220071","283-VK","2018/10/01 19:58:56","新北市中和區和平路200巷27號","121.464928333333","24.9947466666667","6500100","板橋區"
"220094","285-UM","2018/10/01 19:59:07","新北市板橋區雨農路27巷6-3號","121.461288333333","25.0239216666667","6500100","板橋區"
"220053","285-VK","2018/10/01 19:58:51","新北市板橋區中山路二段90巷37號","121.475981666667","25.0153016666667","6500100","板橋區"
"220083","286-VK","2018/10/01 19:58:56","新北市板橋區僑中二街8巷33號","121.445521666667","25.0114216666667","6500100","板橋區"
"220081","287-VK","2018/10/01 19:58:58","新北市板橋區僑中一街80巷1弄1號","121.447558333333","25.0118516666667","6500100","板橋區"
"220090","288-VK","2018/10/01 19:59:05","新北市板橋區幸福路32巷2弄30號","121.461001666667","25.021805","6500100","板橋區"
"220061","293-UM","2018/10/01 19:58:53","新北市板橋區板新路114號","121.471183333333","25.0154183333333","6500100","板橋區"
"220084","296-UM","2018/10/01 19:58:58","新北市樹林區博愛街181號","121.424868333333","24.9890833333333","6500100","板橋區"
"220097","299-UM","2018/10/01 19:59:09","新北市板橋區光正街45巷35號","121.461603333333","25.0159366666667","6500100","板橋區"
"242034","281-VK","2018/10/01 19:59:03","新北市新莊區新泰路159號","121.447595","25.0368983333333","6500500","新莊區"
"220075","303-R5","2018/10/01 19:58:53","新北市板橋區金華街10巷105號","121.459248333333","25.0204983333333","6500100","板橋區"
"220062","305-R5","2018/10/01 19:58:21","新北市板橋區光復街216巷16號","121.4862","25.0207416666667","6500100","板橋區"
"220092","307-R5","2018/10/01 19:58:59","新北市板橋區四維路259巷73號","121.460533333333","25.0266516666667","6500100","板橋區"
"220098","317-R6","2018/10/01 19:58:59","新北市板橋區新海路72巷61號","121.461633333333","25.0237233333333","6500100","板橋區"
"220064","486-VK","2018/10/01 19:59:01","新北市板橋區漢生東路193巷7-1號","121.470328333333","25.011805","6500100","板橋區"
"220089","487-VK","2018/10/01 19:59:05","新北市板橋區新海路403巷12號","121.458025","25.026585","6500100","板橋區"
"242007","280-VK","2018/10/01 19:59:05","新北市新莊區中原路55號","121.457993333333","25.05423","6500500","新莊區"
"220088","491-VK","2018/10/01 19:59:01","新北市板橋區仁化街150號","121.477686666667","25.03324","6500100","板橋區"
"220035","560-BX","2018/10/01 19:59:01","新北市板橋區新生街87巷8號","121.45774","25.0219116666667","6500100","板橋區"
"220063","609-BX","2018/10/01 19:59:03","新北市板橋區中山路二段88號","121.47521","25.016395","6500100","板橋區"
"220057","686-BX","2018/10/01 19:59:01","新北市板橋區四川路二段132號","121.450153333333","24.99368","6500100","板橋區"
"220077","687-BX","2018/10/01 19:58:49","新北市板橋區僑中一街102巷7弄20號","121.446056666667","25.01313","6500100","板橋區"
"220093","689-BX","2018/10/01 19:59:02","新北市板橋區長江路三段126號","121.475306666667","25.0345166666667","6500100","板橋區"
"220054","741-BX","2018/10/01 19:59:06","新北市板橋區實踐路93巷10號","121.464571666667","25.0053916666667","6500100","板橋區"
"220102","KEA-2699","2018/10/01 19:59:08","新北市板橋區文聖街20號","121.475766666667","25.031845","6500100","板橋區"
"220055","827-TW","2018/10/01 19:58:55","新北市板橋區仁愛路62巷22號","121.460075","24.9980066666667","6500100","板橋區"
"220067","830-TW","2018/10/01 19:58:59","新北市板橋區漢生東路193巷69弄2號","121.472351666667","25.01203","6500100","板橋區"
"220096","831-TW","2018/10/01 19:59:00","新北市板橋區莊敬路134-4號","121.471013333333","25.0235733333333","6500100","板橋區"
"220074","895-R6","2018/10/01 19:58:48","新北市板橋區民權路67號","121.461591666667","25.0115316666667","6500100","板橋區"
"220073","985-R7","2018/10/01 19:59:00","新北市板橋區南雅西路二段11號","121.45299","25.0093633333333","6500100","板橋區"
"220070","AAC-253","2018/10/01 19:59:00","新北市板橋區成都街51號","121.461453333333","25.005","6500100","板橋區"
"235068","KEA-2873","2018/10/01 19:58:47","新北市中和區福美路301巷12號","121.497425","25.0043916666667","6500300","中和區"
"235060","KEA-2876","2018/10/01 19:58:57","新北市中和區中山路二段523巷30號","121.481673333333","25.0037883333333","6500300","中和區"
