"lineid","car","time","location","longitude","latitude","cityid","cityname"
"234046","148-BY","2018/10/01 20:19:02","新北市永和區得和路321號","121.523295","24.9996183333333","6500400","永和區"
"234007","207-UY","2018/10/01 20:19:03","新北市永和區仁愛路306巷28號","121.502091666667","25.008835","6500400","永和區"
"234081","298-R6","2018/10/01 20:19:08","新北市永和區國中路104巷2弄1號","121.524458333333","25.00674","6500400","永和區"
"234038","336-UY","2018/10/01 20:18:56","新北市永和區成功路一段93巷20弄2號","121.528326666667","25.0026416666667","6500400","永和區"
"234064","337-UY","2018/10/01 20:18:55","新北市永和區中正路342號","121.517965","25.0001416666667","6500400","永和區"
"234086","338-UY","2018/10/01 20:19:07","新北市永和區中正路657號","121.514915","25.0101666666667","6500400","永和區"
"234070","552-UM","2018/10/01 20:19:04","新北市永和區永安街16巷16號","121.519396666667","25.0061566666667","6500400","永和區"
"234017","745-BX","2018/10/01 20:19:08","新北市永和區仁愛路23號","121.514363333333","25.013365","6500400","永和區"
"234030","746-BX","2018/10/01 20:18:53","新北市永和區民權路49巷4號","121.520408333333","24.997145","6500400","永和區"
"234054","KEA-2590","2018/10/01 20:18:52","新北市永和區光復街2巷16弄9號","121.517593333333","25.0163983333333","6500400","永和區"
"234013","KEA-2591","2018/10/01 20:19:09","新北市永和區仁愛路282巷6號","121.503523333333","25.0085966666667","6500400","永和區"
"234061","AAD-866","2018/10/01 20:18:59","新北市永和區安樂路100巷5號","121.514228333333","24.9993866666667","6500400","永和區"
"234067","748-BX","2018/10/01 20:19:10","新北市永和區保平路236巷15弄11號","121.508041666667","25.0058733333333","6500400","永和區"
"234042","862-TW","2018/10/01 20:18:55","新北市中和區中和路350巷12弄2號","121.510826666667","25.00014","6500400","永和區"
"234050","863-TW","2018/10/01 20:18:51","新北市永和區環河西路二段65號","121.506971666667","25.0152183333333","6500400","永和區"
"249005","172-UM","2018/10/01 20:19:02","新北市八里區下罟子6-3號","121.38634","25.1412716666667","6502300","八里區"
"249001","173-UM","2018/10/01 20:18:52","新北市八里區中華路二段536-2號","121.399256666667","25.1451883333333","6502300","八里區"
"249004","303-UY","2018/10/01 20:19:01","新北市八里區中山路一段127號","121.413498333333","25.1591766666667","6502300","八里區"
"249002","305-UY","2018/10/01 20:18:53","新北市八里區龍米路一段100巷3號","121.453565","25.125085","6502300","八里區"
"248014","025-BX","2018/10/01 20:18:56","新北市八里區荖阡坑路41-3號","121.40022","25.1319916666667","6501500","五股區"
"248016","026-BX","2018/10/01 20:19:10","新北市五股區凌雲路一段158巷33號","121.447081666667","25.1038083333333","6501500","五股區"
"248012","247-BX","2018/10/01 20:18:51","新北市五股區民義路一段212號","121.4306","25.0893416666667","6501500","五股區"
"248002","678-BX","2018/10/01 20:19:01","新北市五股區成泰路三段243號","121.44655","25.09324","6501500","五股區"
"234023","9380-KE","2018/10/01 20:19:09","新北市永和區永和路二段255號","121.515926666667","25.0152233333333","6500400","永和區"
"234077","969-R7","2018/10/01 20:18:56","新北市永和區民享街23巷21號","121.516575","24.995465","6500400","永和區"
"234074","AAC-211","2018/10/01 20:19:07","新北市永和區竹林路201巷22弄1號","121.522033333333","25.0093583333333","6500400","永和區"
"234003","AAC-295","2018/10/01 20:19:00","新北市永和區大新街3號","121.514503333333","25.0085916666667","6500400","永和區"
"244017","485-VK","2018/10/01 20:19:01","新北市林口區粉寮路二段88巷100號","121.407508333333","25.0901866666667","6501700","林口區"
"243013","AAD-798","2018/10/01 20:18:59","新北市泰山區新民路14巷2弄2號","121.426318333333","25.0445033333333","6501600","泰山區"
"243009","297-R6","2018/10/01 20:19:05","新北市泰山區泰林路二段115號","121.434441666667","25.0594433333333","6501600","泰山區"
"243016","KEA-2801","2018/10/01 20:19:06","新北市泰山區明志路三段12號","121.42471","25.0433566666667","6501600","泰山區"
"243015","421-VK","2018/10/01 20:18:47","新北市泰山區仁德路125號","121.432611666667","25.0561","6501600","泰山區"
"243011","KEA-2215","2018/10/01 20:18:52","新北市新莊區壽山路160巷21號","121.417435","25.0318833333333","6501600","泰山區"
"243010","KEA-2216","2018/10/01 20:19:00","新北市泰山區明志路二段254巷6號","121.426608333333","25.04762","6501600","泰山區"
"243012","646-TV","2018/10/01 20:18:56","新北市泰山區楓江路81號","121.436666666667","25.063445","6501600","泰山區"
"243014","680-BX","2018/10/01 20:19:01","新北市泰山區泰林路二段455號","121.425701666667","25.064095","6501600","泰山區"
"222003","436-BY","2018/10/01 20:19:08","新北市深坑區文化街90號","121.61748","25.0019183333333","6501800","深坑區"
"222002","659-BX","2018/10/01 20:19:05","新北市深坑區萬福路75巷48號","121.598265","25.0099766666667","6501800","深坑區"
"231059","001-UM","2018/10/01 20:19:09","新北市新店區安德街60巷17-1號","121.510768333333","24.9628216666667","6500600","新店區"
"231041","002-UM","2018/10/01 20:18:55","新北市新店區民權路43號","121.540031666667","24.98288","6500600","新店區"
"231040","047-UY","2018/10/01 20:19:03","新北市新店區中正路191號","121.54053","24.97237","6500600","新店區"
"231044","106-UY","2018/10/01 20:19:06","新北市新店區北新路三段109號","121.54135","24.9822066666667","6500600","新店區"
"231052","110-UY","2018/10/01 20:18:52","新北市新店區松林路1號","121.546898333333","24.9121316666667","6500600","新店區"
"231047","187-VK","2018/10/01 20:18:48","新北市新店區永華街33巷34號","121.54456","24.9770116666667","6500600","新店區"
"231062","188-VK","2018/10/01 20:19:07","新北市新店區安康路三段358號","121.485881666667","24.95164","6500600","新店區"
"231057","256-BX","2018/10/01 20:19:02","新北市新店區花園五路二段27號","121.554641666667","24.9346016666667","6500600","新店區"
"231042","268-BY","2018/10/01 20:18:51","新北市新店區寶興路42巷37號","121.54765","24.97185","6500600","新店區"
"231051","278-BY","2018/10/01 20:18:58","新北市新店區中央六街67號","121.527505","24.9761983333333","6500600","新店區"
"231050","AAD-862","2018/10/01 20:19:06","新北市新店區博愛街11巷1號","121.540806666667","24.9730583333333","6500600","新店區"
"231056","4715-K9","2018/10/01 20:18:58","新北市新店區中正路302巷5弄2號","121.5383","24.9754766666667","6500600","新店區"
"231067","4772-VM","2018/10/01 20:18:56","新北市新店區安康路一段198號","121.524346666667","24.9634233333333","6500600","新店區"
"231065","512-UM","2018/10/01 20:18:53","新北市新店區安祥路104-10號","121.479146666667","24.9620633333333","6500600","新店區"
"231049","513-UM","2018/10/01 20:19:01","新北市新店區北新路一段128-3號","121.542126666667","24.96964","6500600","新店區"
"231063","616-UM","2018/10/01 20:19:09","新北市新店區柴埕路116號","121.504531666667","24.9596183333333","6500600","新店區"
"231045","617-UM","2018/10/01 20:19:03","新北市新店區中興路一段178號","121.543095","24.9646983333333","6500600","新店區"
"231043","618-UM","2018/10/01 20:19:09","新北市新店區建國路131號","121.539483333333","24.9782083333333","6500600","新店區"
"231061","619-UM","2018/10/01 20:19:00","新北市新店區安興路33-1號","121.515843333333","24.97046","6500600","新店區"
"231068","718-UY","2018/10/01 20:18:49","新北市新店區寶安街31號","121.541933333333","24.98234","6500600","新店區"
"231064","719-UM","2018/10/01 20:15:31","新北市新店區安和路二段160號","121.51974","24.9736766666667","6500600","新店區"
"231054","719-UY","2018/10/01 20:18:58","新北市新店區檳榔路109號","121.544418333333","24.9617116666667","6500600","新店區"
"231060","897-TW","2018/10/01 20:18:57","新北市新店區錦秀路11巷38號","121.480828333333","24.9438016666667","6500600","新店區"
"231055","AKT-0513","2018/10/01 20:19:02","新北市新店區光明街209號","121.539946666667","24.96377","6500600","新店區"
"241011","013-R5","2018/10/01 20:19:02","新北市三重區龍濱路285號","121.501065","25.073355","6500200","三重區"
"241028","022-UY","2018/10/01 20:18:54","新北市三重區大同南路143-2號","121.496578333333","25.057435","6500200","三重區"
"241008","059-VK","2018/10/01 20:19:00","新北市三重區永福街211巷28號","121.479028333333","25.07398","6500200","三重區"
"241022","060-VK","2018/10/01 20:18:51","新北市三重區新北大道一段36號","121.488198333333","25.06149","6500200","三重區"
"241031","061-VK","2018/10/01 20:18:53","新北市三重區三寧街15號","121.489498333333","25.0598216666667","6500200","三重區"
"241015","062-VK","2018/10/01 20:18:55","新北市三重區重新路一段118號","121.500505","25.0631266666667","6500200","三重區"
"241017","063-VK","2018/10/01 20:19:06","新北市三重區大同北路217號","121.491513333333","25.0660366666667","6500200","三重區"
"241024","065-VK","2018/10/01 20:18:50","新北市三重區中正北路238號","121.481836666667","25.0678766666667","6500200","三重區"
"241026","066-VK","2018/10/01 20:18:51","新北市三重區福德南路28號","121.502785","25.062955","6500200","三重區"
"241002","090-VK","2018/10/01 20:18:52","新北市三重區環河北路二段300號","121.498973333333","25.0822016666667","6500200","三重區"
"241003","091-VK","2018/10/01 20:06:41","新北市三重區分子尾街76號","121.489141666667","25.0820533333333","6500200","三重區"
"251014","742-BX","2018/10/01 20:19:05","新北市淡水區石頭厝1號","121.458718333333","25.2355366666667","6501000","淡水區"
"241005","262-UM","2018/10/01 20:19:02","新北市三重區碧華街215號","121.488793333333","25.0827966666667","6500200","三重區"
"241016","266-UM","2018/10/01 20:19:03","新北市三重區大同北路97-3號","121.494395","25.0635783333333","6500200","三重區"
"241009","267-UM","2018/10/01 20:18:54","新北市三重區三和路四段382巷58號","121.480705","25.0782833333333","6500200","三重區"
"241018","268-UM","2018/10/01 20:18:52","新北市三重區自強路一段236號","121.493325","25.067045","6500200","三重區"
"241032","269-UM","2018/10/01 20:18:55","新北市三重區捷運路37巷18號","121.48414","25.0567966666667","6500200","三重區"
"241013","270-UM","2018/10/01 20:18:58","新北市三重區三和路三段167巷2號","121.492011666667","25.0741016666667","6500200","三重區"
"241025","271-UM","2018/10/01 20:18:50","新北市三重區三民街272巷22號","121.478745","25.0676233333333","6500200","三重區"
"241007","398-BY","2018/10/01 20:18:46","新北市三重區三和路四段117巷21號","121.486323333333","25.0777716666667","6500200","三重區"
"241035","KEA-2210","2018/10/01 20:18:53","新北市三重區正義北路33巷15號","121.498141666667","25.0637266666667","6500200","三重區"
"241004","475-VK","2018/10/01 20:19:07","新北市三重區仁政街205號","121.490625","25.0804466666667","6500200","三重區"
"241020","478-VK","2018/10/01 20:18:49","新北市三重區三和路三段170巷9號","121.492235","25.072985","6500200","三重區"
"241030","480-VK","2018/10/01 20:19:07","新北市三重區集美街89巷22號","121.488323333333","25.05256","6500200","三重區"
"241014","543-UM","2018/10/01 20:18:50","新北市三重區長樂街174號","121.503185","25.0698683333333","6500200","三重區"
"241023","545-UM","2018/10/01 20:19:11","新北市三重區忠孝路三段99巷4號","121.480186666667","25.0642916666667","6500200","三重區"
"241001","547-UM","2018/10/01 20:19:09","新北市三重區自強路四段3巷34號","121.48996","25.076495","6500200","三重區"
"241019","KEA-2593","2018/10/01 20:19:05","新北市三重區忠孝路一段30巷58號","121.490456666667","25.0712533333333","6500200","三重區"
"241006","AAD-863","2018/10/01 20:18:56","新北市三重區車路頭街139巷14號","121.484348333333","25.0762633333333","6500200","三重區"
"241029","942-UM","2018/10/01 20:19:10","新北市三重區光明路123號","121.492341666667","25.0565866666667","6500200","三重區"
"241033","AAC-255","2018/10/01 20:19:03","新北市三重區五谷王北街50巷6號","121.475775","25.05142","6500200","三重區"
"235066","003-UY","2018/10/01 20:18:52","新北市中和區光華街85號","121.506995","25.0027183333333","6500300","中和區"
"235064","005-UY","2018/10/01 20:19:08","新北市中和區永和路55號","121.497093333333","25.00538","6500300","中和區"
"235039","097-UM","2018/10/01 20:18:58","新北市中和區大勇街27巷8號","121.517106666667","24.9938383333333","6500300","中和區"
"247012","KEA-2869","2018/10/01 20:19:02","新北市蘆洲區中興街13號","121.480523333333","25.0871266666667","6501400","蘆洲區"
"235050","4979-A6","2018/10/01 20:18:57","新北市中和區景平路452號","121.506041666667","24.993445","6500300","中和區"
"235069","4980-A6","2018/10/01 20:18:54","新北市中和區圓通路202號","121.496196666667","24.9941933333333","6500300","中和區"
"235054","640-BX","2018/10/01 20:18:51","新北市土城區中央路四段67巷60號","121.419653333333","24.9560183333333","6500300","中和區"
"235059","AAC-215","2018/10/01 20:19:01","新北市中和區錦和路408號","121.491211666667","24.9896116666667","6500300","中和區"
"220086","073-UY","2018/10/01 20:18:47","新北市林口區太平里180號","121.366661666667","25.1338366666667","6500100","板橋區"
"247002","893-R6","2018/10/01 20:19:09","新北市蘆洲區長安街331巷30號","121.456145","25.086585","6501400","蘆洲區"
"247016","546-UM","2018/10/01 20:18:56","新北市蘆洲區光華路132巷41號","121.465856666667","25.083845","6501400","蘆洲區"
"247024","500-BY","2018/10/01 20:18:51","新北市蘆洲區光榮路120巷8弄41號","121.46447","25.08783","6501400","蘆洲區"
"247014","339-TH","2018/10/01 20:19:04","新北市蘆洲區中山二路133號","121.471973333333","25.081425","6501400","蘆洲區"
"247006","337-TH","2018/10/01 20:18:54","新北市蘆洲區九芎街153巷4號","121.465281666667","25.0789316666667","6501400","蘆洲區"
"247008","336-TH","2018/10/01 20:19:05","新北市蘆洲區集賢路231號","121.482045","25.08576","6501400","蘆洲區"
"247020","057-VK","2018/10/01 20:18:59","新北市蘆洲區仁愛街48號","121.471733333333","25.09359","6501400","蘆洲區"
"247010","056-VK","2018/10/01 20:18:47","新北市蘆洲區信義路188巷18弄1號","121.48044","25.08452","6501400","蘆洲區"
"247018","007-UY","2018/10/01 20:18:59","新北市蘆洲區民族路406號","121.474636666667","25.091605","6501400","蘆洲區"
"247004","002-UY","2018/10/01 20:19:06","新北市蘆洲區長安街218號","121.458476666667","25.0845483333333","6501400","蘆洲區"
"247022","001-UY","2018/10/01 20:19:09","新北市蘆洲區民族路451號","121.467398333333","25.0887333333333","6501400","蘆洲區"
"224010","AGQ-8101","2018/10/01 20:19:06","新北市瑞芳區輕便路276號","121.844376666667","25.1090883333333","6501200","瑞芳區"
"222001","KEA-2212","2018/10/01 20:18:54","新北市深坑區北深路三段258號","121.599666666667","25.0042916666667","6501800","深坑區"
"208003","665-BX","2018/10/01 20:18:54","新北市金山區南勢湖66號","121.616218333333","25.214775","6502700","金山區"
"251001","011-UM","2018/10/01 20:18:53","新北市淡水區新市二路四段265號","121.445688333333","25.1925016666667","6501000","淡水區"
"251013","KEA-2871","2018/10/01 20:19:07","新北市淡水區奎柔山路756號","121.474695","25.2035616666667","6501000","淡水區"
"251008","179-VK","2018/10/01 20:18:58","新北市淡水區沙崙路126號","121.423468333333","25.1829583333333","6501000","淡水區"
"251015","180-VK","2018/10/01 20:18:51","新北市淡水區淡金路三段446號","121.450786666667","25.2144266666667","6501000","淡水區"
"251010","413-VK","2018/10/01 20:19:03","新北市淡水區新民街一段136號","121.427698333333","25.18919","6501000","淡水區"
"251012","441-VK","2018/10/01 20:18:52","新北市淡水區下圭柔山431-1號","121.449728333333","25.2102016666667","6501000","淡水區"
"251006","561-UM","2018/10/01 20:19:03","新北市淡水區淡金路一段571號","121.452565","25.1804966666667","6501000","淡水區"
"251016","575-R6","2018/10/01 20:18:51","新北市淡水區番子田19號","121.457913333333","25.2291933333333","6501000","淡水區"
"251002","672-BX","2018/10/01 20:19:09","新北市淡水區中正路224號","121.439316666667","25.170415","6501000","淡水區"
"251003","766-UM","2018/10/01 20:18:58","新北市淡水區中山北路一段229號","121.444353333333","25.17951","6501000","淡水區"
"207004","225-TW","2018/10/01 20:19:00","新北市萬里區北基里大仁路5號","121.682081666667","25.1752866666667","6502800","萬里區"
"252002","178-VK","2018/10/01 20:18:55","新北市三芝區中正路一段21號","121.50291","25.2586666666667","6502100","三芝區"
"252001","292-VK","2018/10/01 20:18:51","新北市三芝區中山路一段14號","121.500661666667","25.2580516666667","6502100","三芝區"
"237006","5529-G3","2018/10/01 20:18:56","新北市三峽區中正路二段206-1號","121.365973333333","24.9140683333333","6500900","三峽區"
"237015","649-BX","2018/10/01 20:18:50","新北市三峽區介壽路二段138巷45-2號","121.395228333333","24.933075","6500900","三峽區"
"237005","AKY-6261","2018/10/01 20:19:10","新北市三峽區三樹路98巷171號","121.38461","24.93968","6500900","三峽區"
"236069","105-UM","2018/10/01 20:19:07","新北市土城區中山路49號","121.421201666667","24.9629266666667","6501300","土城區"
"236030","253-BX","2018/10/01 20:19:08","新北市土城區中央路一段45巷15號","121.44917","24.990005","6501300","土城區"
"236026","269-VK","2018/10/01 20:19:10","新北市土城區中央路一段249巷24號","121.446468333333","24.9853733333333","6501300","土城區"
"236014","270-VK","2018/10/01 20:19:08","新北市土城區廣明街90巷21號","121.455445","24.9945583333333","6501300","土城區"
"236020","401-BY","2018/10/01 20:19:01","新北市土城區峰廷街8號","121.468658333333","24.9877083333333","6501300","土城區"
"236042","752-BX","2018/10/01 20:15:47","新北市土城區學享街41號","121.451631666667","24.9871983333333","6501300","土城區"
"236059","912-UM","2018/10/01 20:19:02","新北市土城區大安路101-5號","121.433385","24.96846","6501300","土城區"
"242036","AAC-296","2018/10/01 20:18:52","新北市新莊區建安街76巷1弄6號","121.426278333333","25.0245283333333","6500500","新莊區"
"242058","986-R7","2018/10/01 20:18:54","新北市新莊區八德街169號","121.42328","25.019035","6500500","新莊區"
"242029","705-TV","2018/10/01 20:19:06","新北市新莊區中原路114號","121.45043","25.054325","6500500","新莊區"
"242027","615-BX","2018/10/01 20:19:00","新北市新莊區幸福路553號","121.454655","25.0492933333333","6500500","新莊區"
"242025","613-BX","2018/10/01 20:18:59","新北市新莊區五工二路70巷7號","121.46055","25.0661683333333","6500500","新莊區"
"242044","566-BX","2018/10/01 20:18:55","新北市新莊區中正路895-26號","121.412255","25.02197","6500500","新莊區"
"242048","497-BY","2018/10/01 20:18:54","新北市新莊區龍安路218號","121.420153333333","25.019835","6500500","新莊區"
"242053","441-UM","2018/10/01 20:19:08","新北市新莊區西盛街386號","121.427668333333","25.012995","6500500","新莊區"
"242002","440-UM","2018/10/01 20:18:56","新北市新莊區化成路31號","121.465135","25.0439","6500500","新莊區"
"242039","415-TV","2018/10/01 20:19:07","新北市新莊區龍安路438號","121.424315","25.0184716666667","6500500","新莊區"
"242009","413-TV","2018/10/01 20:18:56","新北市新莊區昌盛街63號","121.454863333333","25.0500583333333","6500500","新莊區"
"242046","400-BY","2018/10/01 20:19:05","新北市新莊區中正路新生巷12號","121.416788333333","25.0238933333333","6500500","新莊區"
"242023","362-BY","2018/10/01 20:18:54","新北市新莊區化成路786號","121.465136666667","25.0592066666667","6500500","新莊區"
"242060","353-BY","2018/10/01 20:19:02","新北市新莊區新樹路200號","121.434128333333","25.02075","6500500","新莊區"
"242011","132-UY","2018/10/01 20:19:03","新北市新莊區中信街18號","121.450866666667","25.0508366666667","6500500","新莊區"
"242042","133-UY","2018/10/01 20:18:51","新北市新莊區壽山路55-5號","121.41228","25.0316683333333","6500500","新莊區"
"242050","172-VK","2018/10/01 20:19:05","新北市新莊區民安西路214號","121.42595","25.0148466666667","6500500","新莊區"
"242013","173-VK","2018/10/01 20:19:04","新北市新莊區中信街63巷4弄11號","121.448533333333","25.0500833333333","6500500","新莊區"
"242019","175-VK","2018/10/01 20:19:11","新北市新莊區復興路二段196巷1號","121.459411666667","25.044145","6500500","新莊區"
"242017","346-TH","2018/10/01 20:18:52","新北市新莊區中和街72號","121.447951666667","25.0455566666667","6500500","新莊區"
"242031","348-TH","2018/10/01 20:18:58","新北市新莊區三和路54號","121.437666666667","25.0382766666667","6500500","新莊區"
"242004","349-TH","2018/10/01 20:18:57","新北市新莊區頭前路60-1號","121.466875","25.0524233333333","6500500","新莊區"
"242021","350-TH","2018/10/01 20:18:59","新北市新莊區復興路一段10號","121.445688333333","25.04149","6500500","新莊區"
"242015","351-TH","2018/10/01 20:18:57","新北市新莊區永樂街235巷4號","121.446638333333","25.0442433333333","6500500","新莊區"
"221008","489-VK","2018/10/01 20:19:07","台北市內湖區康樂街72巷1號","121.618695","25.069495","6501100","汐止區"
"221036","130-UY","2018/10/01 20:19:02","新北市汐止區福安街22巷2號","121.662791666667","25.06482","6501100","汐止區"
"221015","131-UY","2018/10/01 20:19:00","新北市汐止區建成路142巷19弄9號","121.661975","25.0736916666667","6501100","汐止區"
"221010","269-BY","2018/10/01 20:18:54","新北市汐止區八連路二段350巷2號","121.629901666667","25.10041","6501100","汐止區"
"221012","278-VK","2018/10/01 20:19:09","新北市汐止區保新街149號","121.688246666667","25.0696933333333","6501100","汐止區"
"221023","279-VK","2018/10/01 20:19:08","新北市汐止區明峰街298巷2弄2號","121.625298333333","25.0679983333333","6501100","汐止區"
"221032","280-BY","2018/10/01 20:19:07","新北市汐止區民權街二段28號","121.619398333333","25.0498616666667","6501100","汐止區"
"221027","281-BY","2018/10/01 20:19:07","新北市汐止區大同路二段403號","121.658171666667","25.06727","6501100","汐止區"
"221029","298-VK","2018/10/01 20:19:06","新北市汐止區樟樹一路99巷7弄2號","121.64114","25.06367","6501100","汐止區"
"221021","299-VK","2018/10/01 20:19:06","新北市汐止區水源路一段293號","121.654356666667","25.05823","6501100","汐止區"
"221031","353-TW","2018/10/01 20:19:04","新北市汐止區原興路51號","121.632888333333","25.0650716666667","6501100","汐止區"
"221035","622-UM","2018/10/01 20:18:54","新北市汐止區長江街101-5號","121.658663333333","25.0732033333333","6501100","汐止區"
"221025","623-UM","2018/10/01 20:18:57","新北市汐止區水源路二段28號","121.654773333333","25.0573983333333","6501100","汐止區"
"221038","646-BX","2018/10/01 20:19:05","新北市汐止區忠孝東路478號","121.666305","25.0736866666667","6501100","汐止區"
"221033","647-BX","2018/10/01 20:19:07","新北市汐止區東勢街201巷29號","121.634705","25.0435183333333","6501100","汐止區"
"221002","707-TV","2018/10/01 20:19:09","新北市汐止區福德一路86巷10號","121.637863333333","25.0688983333333","6501100","汐止區"
"221018","753-BX","2018/10/01 20:18:49","新北市汐止區茄安路25號","121.673171666667","25.0679733333333","6501100","汐止區"
"220101","245-BX","2018/10/01 20:18:55","新北市板橋區雙十路二段71號","121.476295","25.0268683333333","6500100","板橋區"
"220103","257-TC","2018/10/01 20:19:03","新北市板橋區陽明街281號","121.462011666667","25.0261966666667","6500100","板橋區"
"220083","286-VK","2018/10/01 20:18:56","新北市板橋區僑中二街92巷10號","121.445771666667","25.0089966666667","6500100","板橋區"
"220081","287-VK","2018/10/01 20:18:53","新北市板橋區僑中一街102巷5弄6號","121.446573333333","25.0126633333333","6500100","板橋區"
"220061","293-UM","2018/10/01 20:18:53","新北市板橋區四川路一段64號","121.45961","25.0055283333333","6500100","板橋區"
"220097","299-UM","2018/10/01 20:18:49","新北市板橋區光正街45巷5號","121.46175","25.0169483333333","6500100","板橋區"
"242034","281-VK","2018/10/01 20:19:02","新北市新莊區建中街90巷3弄2號","121.446836666667","25.03732","6500500","新莊區"
"220092","307-R5","2018/10/01 20:18:39","新北市板橋區民權路182號","121.459478333333","25.0134616666667","6500100","板橋區"
"220089","487-VK","2018/10/01 20:18:49","新北市板橋區四維路139號","121.465015","25.0252816666667","6500100","板橋區"
"242007","280-VK","2018/10/01 20:19:05","新北市新莊區福壽街94巷12號","121.458838333333","25.05003","6500500","新莊區"
"220088","491-VK","2018/10/01 20:19:01","新北市板橋區文化路二段516號","121.475686666667","25.033495","6500100","板橋區"
"220057","686-BX","2018/10/01 20:18:54","新北市五股區新五路三段2號","121.444621666667","25.087995","6500100","板橋區"
"220102","KEA-2699","2018/10/01 20:19:08","新北市板橋區文化路二段464號","121.475045","25.0326283333333","6500100","板橋區"
"220055","827-TW","2018/10/01 20:19:07","新北市板橋區仁愛路23號","121.458881666667","24.99946","6500100","板橋區"
"220074","895-R6","2018/10/01 20:19:08","新北市板橋區南雅南路一段7巷20號","121.456193333333","25.004995","6500100","板橋區"
"220070","AAC-253","2018/10/01 20:19:00","新北市板橋區四川路二段245巷14號","121.45105","24.9930616666667","6500100","板橋區"
"235068","KEA-2873","2018/10/01 20:18:47","新北市中和區勝利路35巷1弄13號","121.49947","25.0076566666667","6500300","中和區"
