"lineid","car","time","location","longitude","latitude","cityid","cityname"
"234054","KEA-2590","2018/10/02 07:19:03","台北市內湖區安康路226巷2號","121.602868333333","25.0638933333333","6500400","永和區"
"248005","653-BX","2018/10/02 07:19:08","新北市五股區水碓路5巷1號","121.433445","25.0720516666667","6501500","五股區"
"232002","290-BY","2018/10/02 07:18:58","新北市坪林區大粗坑27-1號","121.706816666667","24.9635116666667","6502000","坪林區"
"232013","291-BY","2018/10/02 07:19:07","新北市坪林區北宜路七段336號","121.69671","24.9347966666667","6502000","坪林區"
"244002","248-BX","2018/10/02 07:19:13","新北市林口區頂福里71-68號","121.35422","25.08124","6501700","林口區"
"235001","611-BX","2018/10/02 07:19:00","新北市中和區圓通路367巷6號","121.491425","24.9892433333333","6500300","中和區"
"235001","157-BY","2018/10/02 07:19:13","新北市中和區和平街29-1號","121.50743","24.99106","6500300","中和區"
"226005","5620-A6","2018/10/02 07:19:03","新北市平溪區菁桐里二坑路1號","121.721221666667","25.02418","6502400","平溪區"
"226002","7418-A5","2018/10/02 07:19:00","新北市平溪區南山里南山坪5號","121.761865","25.0328816666667","6502400","平溪區"
"226006","AGD-0702","2018/10/02 07:19:02","新北市平溪區嶺腳里嶺腳寮64號","121.747285","25.0317233333333","6502400","平溪區"
"223006","022-BY","2018/10/02 07:18:56","新北市石碇區崩山24-2號","121.679745","24.9679066666667","6501900","石碇區"
"223002","KEA-2673","2018/10/02 07:18:53","新北市石碇區北宜路六段十三股巷1號","121.648588333333","24.94964","6501900","石碇區"
"223003","205-TH","2018/10/02 07:17:06","新北市石碇區蓬菜寮11號","121.650838333333","24.97348","6501900","石碇區"
"223008","406-TH","2018/10/02 07:19:01","新北市石碇區西勢坑6-1號","121.702995","24.9940383333333","6501900","石碇區"
"223004","437-BY","2018/10/02 07:19:15","新北市石碇區新興坑3號","121.654855","25.0165166666667","6501900","石碇區"
"223001","592-UM","2018/10/02 07:18:57","新北市石碇區內楒仔腳4-1號","121.643398333333","24.9706416666667","6501900","石碇區"
"223007","661-BX","2018/10/02 07:19:08","新北市石碇區蚯蚓坑19-2號","121.687363333333","25.0026533333333","6501900","石碇區"
"223005","677-TV","2018/10/02 07:18:56","新北市石碇區新興坑1號","121.653936666667","25.015555","6501900","石碇區"
"227006","282-VK","2018/10/02 07:19:06","新北市雙溪區新基里自強路5號","121.866335","25.0390316666667","6502500","雙溪區"
"252005","073-UM","2018/10/02 07:19:00","新北市三芝區中正路三段3號","121.503108333333","25.2542083333333","6502100","三芝區"
"252004","249-BX","2018/10/02 07:18:55","新北市三芝區錫板里棟板頭32號","121.505588333333","25.226495","6502100","三芝區"
"252007","AAC-283","2018/10/02 07:19:04","新北市三芝區錫板里海尾14-6號","121.477855","25.2583483333333","6502100","三芝區"
"242001","233-RS","2018/10/02 07:19:07","新北市新莊區中港路301號","121.452951666667","25.044495","6500500","新莊區"
