"lineid","car","time","location","longitude","latitude","cityid","cityname"
"248005","653-BX","2018/10/22 06:59:25","新北市五股區更洲路70號","121.45308","25.0786466666667","6501500","五股區"
"232001","290-BY","2018/10/22 06:59:22","新北市坪林區桶盤嶼7-1號","121.709496666667","24.9530933333333","6502000","坪林區"
"232012","291-BY","2018/10/22 06:59:22","新北市坪林區黃舉皮寮2-1號","121.688826666667","24.9425033333333","6502000","坪林區"
"232017","705-BZ","2018/10/22 06:59:26","新北市坪林區九芎坑13號","121.736155","24.9516783333333","6502000","坪林區"
"232005","758-BX","2018/10/22 06:59:22","新北市坪林區魚堀17號","121.703618333333","24.9176816666667","6502000","坪林區"
"244001","248-BX","2018/10/22 06:59:28","新北市林口區竹林路412巷2號","121.389733333333","25.084675","6501700","林口區"
"222005","289-BY","2018/10/22 06:59:20","新北市深坑區文化街110號","121.616198333333","25.0020183333333","6501800","深坑區"
"235001","611-BX","2018/10/22 06:59:27","新北市中和區圓通路367巷4號","121.491338333333","24.9892283333333","6500300","中和區"
"223006","022-BY","2018/10/22 06:59:30","新北市石碇區八分寮56-1號","121.645068333333","25.0176683333333","6501900","石碇區"
"223003","205-TH","2018/10/22 06:59:32","新北市石碇區石崁37號","121.65851","24.9931216666667","6501900","石碇區"
"223008","406-TH","2018/10/22 06:59:16","新北市石碇區排寮1-2號","121.668833333333","25.0066433333333","6501900","石碇區"
"223004","437-BY","2018/10/22 06:59:28","新北市石碇區碇坪路一段58號","121.657058333333","24.99136","6501900","石碇區"
"223001","592-UM","2018/10/22 06:59:05","新北市石碇區石崁35-3號","121.657928333333","24.99283","6501900","石碇區"
"223007","661-BX","2018/10/22 06:59:29","新北市石碇區靜安路一段121號","121.669818333333","25.0068833333333","6501900","石碇區"
"223005","677-TV","2018/10/22 06:59:14","新北市石碇區碇坪路一段62號","121.65715","24.9914233333333","6501900","石碇區"
"227005","282-VK","2018/10/22 06:59:20","新北市雙溪區新基里自強路5-1號","121.866383333333","25.03911","6502500","雙溪區"
"252006","073-UM","2018/10/22 06:59:20","新北市三芝區中興街一段31號","121.497396666667","25.2582016666667","6502100","三芝區"
"252004","249-BX","2018/10/22 06:59:11","新北市三芝區埔坪里埔頭坑41號","121.50449","25.2644716666667","6502100","三芝區"
"242001","233-RS","2018/10/22 06:59:24","新北市新莊區中港路303號","121.452913333333","25.04455","6500500","新莊區"
