"lineid","car","time","location","longitude","latitude","cityid","cityname"
"248005","653-BX","2018/10/22 07:39:25","新北市五股區明德路12巷3號","121.433266666667","25.0717333333333","6501500","五股區"
"232001","290-BY","2018/10/22 07:39:22","新北市坪林區上坑子口1-2號","121.697423333333","24.955685","6502000","坪林區"
"232012","291-BY","2018/10/22 07:39:28","新北市坪林區金瓜寮14號","121.682713333333","24.9175766666667","6502000","坪林區"
"232010","375-UM","2018/10/22 07:39:30","新北市坪林區水聳淒坑29號","121.711251666667","24.9334183333333","6502000","坪林區"
"232017","705-BZ","2018/10/22 07:39:25","新北市坪林區大舌湖9號","121.733856666667","24.97506","6502000","坪林區"
"232005","758-BX","2018/10/22 07:39:17","新北市坪林區魚堀37-17號","121.699735","24.9274116666667","6502000","坪林區"
"244001","248-BX","2018/10/22 07:39:28","新北市林口區頂福里73號","121.342111666667","25.0937216666667","6501700","林口區"
"222005","289-BY","2018/10/22 07:39:20","新北市深坑區文化街39巷1號","121.618885","25.00111","6501800","深坑區"
"231008","192-VK","2018/10/22 07:39:20","新北市新店區安一路一段1-1號","121.519256666667","24.961355","6500600","新店區"
"235001","611-BX","2018/10/22 07:39:27","新北市中和區圓通路367巷4號","121.491423333333","24.9892633333333","6500300","中和區"
"226005","5620-A6","2018/10/22 07:39:30","新北市平溪區石底里石底街93-1號","121.731786666667","25.0227983333333","6502400","平溪區"
"226001","7418-A5","2018/10/22 07:39:34","新北市平溪區靜安路三段130號","121.774071666667","25.037795","6502400","平溪區"
"226003","AGD-0702","2018/10/22 07:35:26","新北市平溪區嶺腳里嶺腳寮83-2號","121.750285","25.03496","6502400","平溪區"
"223006","022-BY","2018/10/22 07:37:41","新北市石碇區碇坪路一段10號","121.651625","25.0060183333333","6501900","石碇區"
"223003","205-TH","2018/10/22 07:39:20","新北市石碇區中楒子腳2-1號","121.638343333333","24.9720216666667","6501900","石碇區"
"223004","437-BY","2018/10/22 07:39:28","新北市石碇區八分寮47-1號","121.642036666667","25.01356","6501900","石碇區"
"223001","592-UM","2018/10/22 07:39:25","新北市石碇區中楒子腳1-1號","121.643995","24.9705183333333","6501900","石碇區"
"223007","661-BX","2018/10/22 07:39:29","新北市石碇區大溪墘7-3號","121.697148333333","25.0074366666667","6501900","石碇區"
"223005","677-TV","2018/10/22 07:39:14","新北市石碇區八分寮47-1號","121.642506666667","25.013825","6501900","石碇區"
"227005","282-VK","2018/10/22 07:39:20","新北市雙溪區雙溪里太平路54號","121.864765","25.0355383333333","6502500","雙溪區"
"252006","073-UM","2018/10/22 07:39:20","新北市三芝區古庄里古庄76號","121.490751666667","25.2660166666667","6502100","三芝區"
"252004","249-BX","2018/10/22 07:39:31","新北市三芝區店子里菜公坑77-1號","121.511141666667","25.2061516666667","6502100","三芝區"
"237001","159-UY","2018/10/22 07:39:33","新北市三峽區學成路398號","121.378571666667","24.9443766666667","6500900","三峽區"
"242057","986-R7","2018/10/22 07:39:26","新北市新莊區新泰路357巷3弄57號","121.442203333333","25.03917","6500500","新莊區"
"242055","751-BX","2018/10/22 07:39:21","新北市新莊區新泰路357巷3弄51號","121.442288333333","25.0399416666667","6500500","新莊區"
"242026","705-TV","2018/10/22 07:39:15","新北市新莊區新泰路357巷3弄57號","121.442105","25.0391516666667","6500500","新莊區"
"242028","612-BX","2018/10/22 07:39:35","新北市新莊區新泰路357巷3弄57號","121.442195","25.0392066666667","6500500","新莊區"
"242043","566-BX","2018/10/22 07:39:23","新北市新莊區新泰路357巷3弄57號","121.442261666667","25.0392416666667","6500500","新莊區"
"242047","497-BY","2018/10/22 07:39:16","新北市新莊區中正路400號","121.441948333333","25.0344483333333","6500500","新莊區"
"242014","442-UM","2018/10/22 07:39:29","新北市新莊區三和路12-21號","121.442088333333","25.0387583333333","6500500","新莊區"
"242038","415-TV","2018/10/22 07:39:16","新北市新莊區新樹路13號","121.440773333333","25.0330266666667","6500500","新莊區"
"242008","413-TV","2018/10/22 07:39:16","新北市新莊區新泰路357巷3弄57號","121.442111666667","25.03942","6500500","新莊區"
"242045","400-BY","2018/10/22 07:39:17","新北市新莊區新泰路357巷3弄57號","121.442201666667","25.0395483333333","6500500","新莊區"
"242022","362-BY","2018/10/22 07:39:19","新北市新莊區新泰路357巷3弄57號","121.442108333333","25.0391966666667","6500500","新莊區"
"242059","353-BY","2018/10/22 07:39:22","新北市新莊區新泰路357巷3弄57號","121.442096666667","25.0391316666667","6500500","新莊區"
"242033","135-UY","2018/10/22 07:39:25","新北市新莊區三和路12-21號","121.442005","25.03864","6500500","新莊區"
"242012","173-VK","2018/10/22 07:39:30","新北市新莊區三和路12-21號","121.442086666667","25.0386566666667","6500500","新莊區"
"242018","175-VK","2018/10/22 07:39:22","新北市新莊區三和路12-21號","121.442086666667","25.03866","6500500","新莊區"
"242006","176-VK","2018/10/22 07:39:25","新北市新莊區三和路12-21號","121.442045","25.0386116666667","6500500","新莊區"
"242001","233-RS","2018/10/22 07:39:23","新北市新莊區中港路290號","121.452965","25.0445383333333","6500500","新莊區"
"242016","346-TH","2018/10/22 07:39:16","新北市新莊區三和路12-21號","121.442223333333","25.0381466666667","6500500","新莊區"
"242030","348-TH","2018/10/22 07:39:13","新北市新莊區新泰路357巷3弄57號","121.442058333333","25.0393933333333","6500500","新莊區"
"242003","349-TH","2018/10/22 07:39:27","新北市新莊區三和路12-21號","121.442211666667","25.0383016666667","6500500","新莊區"
"242020","350-TH","2018/10/22 07:39:26","新北市新莊區三和路12-21號","121.442188333333","25.0382966666667","6500500","新莊區"
"242001","281-VK","2018/10/22 07:39:16","新北市新莊區三和路12-21號","121.442235","25.0382866666667","6500500","新莊區"
"242052","280-VK","2018/10/22 07:39:21","新北市新莊區三和路12-21號","121.442273333333","25.0383766666667","6500500","新莊區"
