"lineid","car","time","location","longitude","latitude","cityid","cityname"
"248005","653-BX","2018/10/22 07:49:25","新北市五股區明德路12巷3號","121.433265","25.0717416666667","6501500","五股區"
"232001","290-BY","2018/10/22 07:49:22","新北市坪林區下坑子口6-15號","121.710975","24.94393","6502000","坪林區"
"232012","291-BY","2018/10/22 07:49:22","新北市坪林區金瓜寮7-7號","121.681035","24.9151216666667","6502000","坪林區"
"232010","375-UM","2018/10/22 07:49:30","新北市坪林區水聳淒坑4號","121.71434","24.9377783333333","6502000","坪林區"
"232017","705-BZ","2018/10/22 07:49:25","新北市坪林區乾溪5號","121.7425","24.97249","6502000","坪林區"
"232005","758-BX","2018/10/22 07:49:17","新北市坪林區魚堀49號","121.701433333333","24.9299083333333","6502000","坪林區"
"244022","069-UM","2018/10/22 07:49:20","新北市林口區粉寮路二段88巷100-12號","121.409661666667","25.0901983333333","6501700","林口區"
"244001","248-BX","2018/10/22 07:49:28","新北市林口區頂福里8鄰82號","121.328543333333","25.10361","6501700","林口區"
"244012","KEA-2802","2018/10/22 07:49:22","新北市林口區粉寮路二段88巷100-12號","121.409588333333","25.090165","6501700","林口區"
"222005","289-BY","2018/10/22 07:49:19","新北市深坑區文化街68號","121.618555","25.0017433333333","6501800","深坑區"
"231008","192-VK","2018/10/22 07:49:20","新北市新店區安一路一段1-1號","121.51926","24.96129","6500600","新店區"
"235001","611-BX","2018/10/22 07:49:27","新北市中和區圓通路367巷6號","121.491571666667","24.9893116666667","6500300","中和區"
"226005","5620-A6","2018/10/22 07:49:30","新北市平溪區靜安路二段424號","121.739706666667","25.0246383333333","6502400","平溪區"
"226001","7418-A5","2018/10/22 07:49:16","新北市平溪區平湖里坑頭3號","121.782936666667","25.026195","6502400","平溪區"
"226003","AGD-0702","2018/10/22 07:35:26","新北市平溪區嶺腳里嶺腳寮83-2號","121.750285","25.03496","6502400","平溪區"
"223006","022-BY","2018/10/22 07:49:14","新北市石碇區番子坑25-1號","121.677621666667","25.0025716666667","6501900","石碇區"
"223003","205-TH","2018/10/22 07:45:20","新北市石碇區烏塗窟46-1號","121.65589","24.9726833333333","6501900","石碇區"
"223004","437-BY","2018/10/22 07:49:28","新北市石碇區楓子林30號","121.6423","25.00952","6501900","石碇區"
"223001","592-UM","2018/10/22 07:49:25","新北市石碇區蛇舌子8-6號","121.660863333333","24.971235","6501900","石碇區"
"223007","661-BX","2018/10/22 07:49:29","新北市石碇區靜安路一段337號","121.698855","25.014515","6501900","石碇區"
"223005","677-TV","2018/10/22 07:49:14","新北市石碇區楓子林30號","121.64232","25.0096183333333","6501900","石碇區"
"227005","282-VK","2018/10/22 07:49:20","新北市雙溪區雙溪里太平路50號","121.86461","25.03537","6502500","雙溪區"
"252006","073-UM","2018/10/22 07:49:20","新北市三芝區古庄里四棧橋53-1號","121.4848","25.26504","6502100","三芝區"
"252004","249-BX","2018/10/22 07:49:31","新北市三芝區店子里菜公坑99-4號","121.513973333333","25.2071616666667","6502100","三芝區"
"237001","159-UY","2018/10/22 07:49:13","新北市三峽區國慶路148-4號","121.375453333333","24.93978","6500900","三峽區"
"242057","986-R7","2018/10/22 07:49:26","新北市新莊區新泰路357巷3弄57號","121.442225","25.0392633333333","6500500","新莊區"
"242055","751-BX","2018/10/22 07:49:21","新北市新莊區新莊路664號","121.442385","25.0327883333333","6500500","新莊區"
"242026","705-TV","2018/10/22 07:49:35","新北市新莊區中港一街157號","121.4475","25.0449883333333","6500500","新莊區"
"242028","612-BX","2018/10/22 07:49:15","新北市新莊區幸福路764號","121.447165","25.0491416666667","6500500","新莊區"
"242043","566-BX","2018/10/22 07:49:23","新北市新莊區中正路685號","121.426033333333","25.0300166666667","6500500","新莊區"
"242047","497-BY","2018/10/22 07:49:16","新北市新莊區裕民街85巷20號","121.419613333333","25.02321","6500500","新莊區"
"242014","442-UM","2018/10/22 07:49:29","新北市新莊區新泰路225巷1號","121.446336666667","25.0390716666667","6500500","新莊區"
"242038","415-TV","2018/10/22 07:49:16","新北市新莊區民安路304號","121.428273333333","25.0219216666667","6500500","新莊區"
"242008","413-TV","2018/10/22 07:49:16","新北市新莊區三和路12-19號","121.442175","25.0377816666667","6500500","新莊區"
"242045","400-BY","2018/10/22 07:49:17","新北市新莊區中正路471號","121.44195","25.0333933333333","6500500","新莊區"
"242022","362-BY","2018/10/22 07:49:19","新北市新莊區中港一街142號","121.446835","25.0449016666667","6500500","新莊區"
"242059","353-BY","2018/10/22 07:49:22","新北市新莊區中正路471號","121.441981666667","25.0334833333333","6500500","新莊區"
"242010","132-UY","2018/10/22 07:49:15","新北市新莊區新泰路498號","121.442631666667","25.0459833333333","6500500","新莊區"
"242040","133-UY","2018/10/22 07:49:27","新北市新莊區新樹路113巷33號","121.439533333333","25.0264416666667","6500500","新莊區"
"242033","135-UY","2018/10/22 07:49:25","新北市新莊區中正路400號","121.441958333333","25.0343716666667","6500500","新莊區"
"242049","172-VK","2018/10/22 07:49:30","新北市新莊區瓊林南路75-2號","121.435005","25.0142516666667","6500500","新莊區"
"242012","173-VK","2018/10/22 07:49:30","新北市新莊區三和路12-21號","121.442041666667","25.0386833333333","6500500","新莊區"
"242018","175-VK","2018/10/22 07:49:22","新北市新莊區中港路97號","121.455413333333","25.03936","6500500","新莊區"
"242006","176-VK","2018/10/22 07:49:25","新北市新莊區三和路12-9號","121.44226","25.0367116666667","6500500","新莊區"
"242001","233-RS","2018/10/22 07:49:23","新北市新莊區中華路二段2號","121.452976666667","25.04452","6500500","新莊區"
"242016","346-TH","2018/10/22 07:49:15","新北市新莊區中港路349號","121.452015","25.0457166666667","6500500","新莊區"
"242030","348-TH","2018/10/22 07:49:33","新北市新莊區新泰路476巷12號","121.443505","25.045475","6500500","新莊區"
"242003","349-TH","2018/10/22 07:49:27","新北市新莊區復興路一段15號","121.445885","25.0416166666667","6500500","新莊區"
"242020","350-TH","2018/10/22 07:49:26","新北市新莊區中港路50號","121.455418333333","25.0384683333333","6500500","新莊區"
"242001","281-VK","2018/10/22 07:49:16","新北市新莊區瓊林路21號","121.445556666667","25.0286616666667","6500500","新莊區"
"242052","280-VK","2018/10/22 07:49:21","新北市新莊區中正路473-1號","121.442041666667","25.0330116666667","6500500","新莊區"
