"lineid","car","time","location","longitude","latitude","cityid","cityname"
"248005","653-BX","2018/10/15 07:59:44","新北市五股區明德路12巷3號","121.433303333333","25.07182","6501500","五股區"
"248011","655-BX","2018/10/15 07:59:35","新北市五股區中興路二段11號","121.462833333333","25.0741666666667","6501500","五股區"
"232001","290-BY","2018/10/15 07:59:44","新北市坪林區坪雙路一段82號","121.71794","24.944365","6502000","坪林區"
"232012","291-BY","2018/10/15 07:59:40","新北市坪林區金瓜寮32號","121.677498333333","24.90736","6502000","坪林區"
"232010","375-UM","2018/10/15 07:59:28","新北市坪林區厚德岡坑8-5號","121.733176666667","24.9409433333333","6502000","坪林區"
"232017","705-BZ","2018/10/15 07:59:37","新北市坪林區乾溪6-1號","121.745468333333","24.96794","6502000","坪林區"
"232005","758-BX","2018/10/15 07:59:29","新北市坪林區九芎林25-2號","121.704068333333","24.9251016666667","6502000","坪林區"
"244001","248-BX","2018/10/15 07:59:28","新北市林口區頂福66號","121.332416666667","25.1049283333333","6501700","林口區"
"244012","KEA-2802","2018/10/15 07:59:42","新北市林口區粉寮路二段88巷100-12號","121.409605","25.09021","6501700","林口區"
"244008","656-BX","2018/10/15 07:59:31","新北市林口區粉寮路二段88巷100-12號","121.409493333333","25.090245","6501700","林口區"
"244010","701-TV","2018/10/15 07:59:27","新北市林口區粉寮路二段88巷7號","121.404935","25.088495","6501700","林口區"
"244024","837-TS","2018/10/15 07:59:37","新北市林口區粉寮路二段88巷100-12號","121.409635","25.0902416666667","6501700","林口區"
"222005","289-BY","2018/10/15 07:59:30","新北市深坑區文化街45號","121.616936666667","25.0017766666667","6501800","深坑區"
"231007","189-VK","2018/10/15 07:59:45","新北市新店區安華路8號","121.51986","24.962485","6500600","新店區"
"231008","192-VK","2018/10/15 07:59:47","新北市新店區安康路一段94-2號","121.527833333333","24.9620783333333","6500600","新店區"
"235001","611-BX","2018/10/15 07:59:27","新北市中和區圓通路367巷4號","121.491393333333","24.9892783333333","6500300","中和區"
"235010","733-UM","2018/10/15 07:59:34","新北市中和區和平街88號","121.507451666667","24.9911266666667","6500300","中和區"
"226005","5620-A6","2018/10/15 07:59:41","新北市平溪區石底里公園街18-3號","121.733456666667","25.0255833333333","6502400","平溪區"
"226001","7418-A5","2018/10/15 07:59:31","新北市平溪區南山里乾坑11號","121.782678333333","25.0472183333333","6502400","平溪區"
"226003","8452-VL","2018/10/15 07:59:31","新北市平溪區新寮里頂寮子3號","121.770458333333","25.0510716666667","6502400","平溪區"
"223006","022-BY","2018/10/15 07:57:40","新北市石碇區番子坑17號","121.673796666667","25.0011283333333","6501900","石碇區"
"223002","KEA-2673","2018/10/15 07:59:36","新北市石碇區北宜路五段濕水子巷6號","121.634996666667","24.9497183333333","6501900","石碇區"
"223004","437-BY","2018/10/15 07:59:31","新北市石碇區碇坪路一段10號","121.651626666667","25.0060583333333","6501900","石碇區"
"223001","592-UM","2018/10/15 07:58:26","新北市石碇區樟空子10-2號","121.666831666667","24.961315","6501900","石碇區"
"223007","661-BX","2018/10/15 07:59:36","新北市石碇區靜安路一段337號","121.698876666667","25.0144733333333","6501900","石碇區"
"223005","677-TV","2018/10/15 07:59:29","新北市石碇區外按6-1號","121.648833333333","24.9950966666667","6501900","石碇區"
"227005","282-VK","2018/10/15 07:59:30","新北市雙溪區平林里梅竹蹊16號","121.861973333333","25.0359833333333","6502500","雙溪區"
"252006","073-UM","2018/10/15 07:59:28","新北市三芝區海景三街14號","121.470145","25.248335","6502100","三芝區"
"252004","249-BX","2018/10/15 07:59:29","新北市三芝區店子里店子72-6號","121.509513333333","25.20201","6502100","三芝區"
"237001","159-UY","2018/10/15 07:59:40","新北市三峽區大學路77號","121.37614","24.9416466666667","6500900","三峽區"
"242035","AAC-296","2018/10/15 07:59:39","新北市新莊區新樹路132-4號","121.43516","25.024085","6500500","新莊區"
"242057","986-R7","2018/10/15 07:59:27","新北市新莊區中正路715-1號","121.424291666667","25.02952","6500500","新莊區"
"242008","751-BX","2018/10/15 07:59:40","新北市新莊區中原路189號","121.452615","25.0544016666667","6500500","新莊區"
"242026","705-TV","2018/10/15 07:59:34","新北市新莊區思源路32號","121.460261666667","25.0410666666667","6500500","新莊區"
"242024","613-BX","2018/10/15 07:59:44","新北市新莊區復興路二段31號","121.454408333333","25.0440866666667","6500500","新莊區"
"242028","612-BX","2018/10/15 07:59:28","新北市新莊區復興路二段172號","121.458386666667","25.0442716666667","6500500","新莊區"
"242043","566-BX","2018/10/15 07:59:33","新北市新莊區富國路99號","121.421023333333","25.0256166666667","6500500","新莊區"
"242047","497-BY","2018/10/15 07:59:37","新北市新莊區四維路212巷2號","121.421245","25.0201066666667","6500500","新莊區"
"242014","442-UM","2018/10/15 07:59:48","新北市新莊區新泰路207號","121.446936666667","25.0383916666667","6500500","新莊區"
"242052","441-UM","2018/10/15 07:59:26","新北市新莊區環河路48-6號","121.436451666667","25.0094683333333","6500500","新莊區"
"242045","400-BY","2018/10/15 07:59:41","新北市新莊區新樹路65-7號","121.439376666667","25.030775","6500500","新莊區"
"242022","362-BY","2018/10/15 07:59:41","新北市新莊區公園路152號","121.453181666667","25.0400716666667","6500500","新莊區"
"242059","353-BY","2018/10/15 07:59:31","新北市新莊區瓊林路188-1號","121.440536666667","25.0223716666667","6500500","新莊區"
"242010","132-UY","2018/10/15 07:59:35","新北市新莊區中港路469號","121.452371666667","25.049045","6500500","新莊區"
"242040","133-UY","2018/10/15 07:59:36","新北市新莊區建國一路138號","121.434963333333","25.0268566666667","6500500","新莊區"
"242033","135-UY","2018/10/15 07:59:44","新北市新莊區新泰路49號","121.449481666667","25.0337183333333","6500500","新莊區"
"242049","172-VK","2018/10/15 07:59:30","新北市新莊區新樹路447號","121.432716666667","25.0135116666667","6500500","新莊區"
"242012","173-VK","2018/10/15 07:59:31","新北市新莊區中誠街128號","121.449123333333","25.0476083333333","6500500","新莊區"
"242018","175-VK","2018/10/15 07:59:30","新北市新莊區中港路104號","121.455433333333","25.0396116666667","6500500","新莊區"
"242006","176-VK","2018/10/15 07:59:31","新北市新莊區福樂街118巷2號","121.457291666667","25.0479933333333","6500500","新莊區"
"242001","233-RS","2018/10/15 07:59:41","新北市新莊區中華路二段2號","121.452961666667","25.0445116666667","6500500","新莊區"
"242016","346-TH","2018/10/15 07:59:46","新北市新莊區德豐街6號","121.451635","25.0439883333333","6500500","新莊區"
"242001","347-TH","2018/10/15 07:59:37","新北市新莊區新莊路154號","121.455258333333","25.0354416666667","6500500","新莊區"
"242030","348-TH","2018/10/15 07:59:35","新北市新莊區新泰路381巷38號","121.442326666667","25.043715","6500500","新莊區"
"242003","349-TH","2018/10/15 07:59:39","新北市新莊區中港路288巷22號","121.453695","25.0446266666667","6500500","新莊區"
"242020","350-TH","2018/10/15 07:59:28","新北市新莊區中華路一段18號","121.45196","25.037105","6500500","新莊區"
"242038","281-VK","2018/10/15 07:59:42","新北市新莊區民安路262號","121.427391666667","25.0212416666667","6500500","新莊區"
"242055","280-VK","2018/10/15 07:59:36","新北市新莊區新泰路51號","121.449476666667","25.0338166666667","6500500","新莊區"
