"lineid","car","time","location","longitude","latitude","cityid","cityname"
"248005","653-BX","2018/10/15 08:09:44","新北市五股區明德路12巷3號","121.4333","25.0717966666667","6501500","五股區"
"248011","655-BX","2018/10/15 08:09:35","新北市五股區中興路二段11號","121.462901666667","25.0741983333333","6501500","五股區"
"232001","290-BY","2018/10/15 08:09:44","新北市坪林區坪雙路一段100號","121.729278333333","24.94804","6502000","坪林區"
"232012","291-BY","2018/10/15 08:09:40","新北市坪林區九芎根3-1號","121.66677","24.8864933333333","6502000","坪林區"
"232017","705-BZ","2018/10/15 08:09:37","新北市坪林區坪雙路二段148號","121.75968","24.9595316666667","6502000","坪林區"
"232005","758-BX","2018/10/15 08:09:29","新北市坪林區北宜路八段477號","121.706818333333","24.921645","6502000","坪林區"
"244001","248-BX","2018/10/15 08:09:28","新北市林口區下福34號","121.309443333333","25.1115716666667","6501700","林口區"
"244012","KEA-2802","2018/10/15 08:09:42","新北市林口區粉寮62號","121.407316666667","25.0894833333333","6501700","林口區"
"244016","485-VK","2018/10/15 08:09:38","新北市林口區粉寮62號","121.407296666667","25.0897583333333","6501700","林口區"
"244008","656-BX","2018/10/15 08:09:31","新北市林口區竹林路326巷50號","121.393185","25.0808216666667","6501700","林口區"
"244020","657-BX","2018/10/15 08:09:34","新北市林口區粉寮一街15號","121.405155","25.08583","6501700","林口區"
"244010","701-TV","2018/10/15 08:09:27","新北市林口區仁愛路一段410號","121.386543333333","25.0766983333333","6501700","林口區"
"244024","837-TS","2018/10/15 08:09:38","新北市林口區粉寮路二段24號","121.402785","25.0862883333333","6501700","林口區"
"222005","289-BY","2018/10/15 08:09:30","新北市深坑區深坑街3巷10號","121.616848333333","25.002105","6501800","深坑區"
"231007","189-VK","2018/10/15 08:09:25","新北市新店區新潭路一段22巷2號","121.523018333333","24.9429816666667","6500600","新店區"
"231008","192-VK","2018/10/15 08:09:27","新北市新店區新烏路一段9-1號","121.547066666667","24.9515633333333","6500600","新店區"
"235001","611-BX","2018/10/15 08:09:27","新北市中和區圓通路367巷33弄74號","121.495","24.9838916666667","6500300","中和區"
"235010","733-UM","2018/10/15 08:09:34","新北市中和區中興街116號","121.499901666667","24.9929383333333","6500300","中和區"
"226005","5620-A6","2018/10/15 08:09:40","新北市平溪區靜安路三段10號","121.751851666667","25.0265716666667","6502400","平溪區"
"226001","7418-A5","2018/10/15 08:09:31","新北市平溪區望古里石灼坑2-3號","121.769198333333","25.0356583333333","6502400","平溪區"
"226003","8452-VL","2018/10/15 08:09:31","新北市平溪區新寮里頂寮子62-1號","121.77497","25.050825","6502400","平溪區"
"223006","022-BY","2018/10/15 08:09:42","新北市石碇區靜安路一段252號","121.67769","25.0102583333333","6501900","石碇區"
"223002","KEA-2673","2018/10/15 08:09:36","新北市石碇區北宜路五段80號","121.646573333333","24.9517416666667","6501900","石碇區"
"223008","406-TH","2018/10/15 08:09:29","新北市石碇區靜安路一段253號","121.692851666667","25.0066333333333","6501900","石碇區"
"223004","437-BY","2018/10/15 08:09:31","新北市石碇區外按16-1號","121.650628333333","24.9975616666667","6501900","石碇區"
"223001","592-UM","2018/10/15 08:09:26","新北市石碇區北宜路五段崙尾寮巷2-1號","121.648748333333","24.95329","6501900","石碇區"
"223007","661-BX","2018/10/15 08:09:36","新北市石碇區靜安路一段253號","121.692715","25.006635","6501900","石碇區"
"223005","677-TV","2018/10/15 08:09:29","新北市石碇區外按16-1號","121.650688333333","24.9974883333333","6501900","石碇區"
"227005","282-VK","2018/10/15 08:09:30","新北市雙溪區上林里內平林111號","121.82625","25.026995","6502500","雙溪區"
"252006","073-UM","2018/10/15 08:09:28","新北市三芝區海景四街8號","121.474411666667","25.2471266666667","6502100","三芝區"
"252004","249-BX","2018/10/15 08:09:29","新北市三芝區興華里車埕36-21號","121.505796666667","25.19313","6502100","三芝區"
"237001","159-UY","2018/10/15 08:09:32","新北市三峽區大學路33號","121.377205","24.9404233333333","6500900","三峽區"
"242035","AAC-296","2018/10/15 08:09:38","新北市新莊區福營路227巷22號","121.429901666667","25.0281433333333","6500500","新莊區"
"242057","986-R7","2018/10/15 08:09:27","新北市新莊區中正路726-5號","121.415713333333","25.0241166666667","6500500","新莊區"
"242008","751-BX","2018/10/15 08:09:40","新北市新莊區昌明街14巷22號","121.457413333333","25.0535716666667","6500500","新莊區"
"242026","705-TV","2018/10/15 08:09:43","新北市新莊區福壽街128號","121.457631666667","25.0514333333333","6500500","新莊區"
"242024","613-BX","2018/10/15 08:09:44","新北市新莊區頭前路151號","121.460915","25.052435","6500500","新莊區"
"242028","612-BX","2018/10/15 08:09:28","新北市新莊區復興路一段103號","121.449086666667","25.0428783333333","6500500","新莊區"
"242043","566-BX","2018/10/15 08:09:33","新北市新莊區中正路871巷9弄42號","121.419781666667","25.0267133333333","6500500","新莊區"
"242047","497-BY","2018/10/15 08:09:38","新北市新莊區萬安街123號","121.420751666667","25.0224683333333","6500500","新莊區"
"242014","442-UM","2018/10/15 08:09:28","新北市新莊區中平路39號","121.444623333333","25.043975","6500500","新莊區"
"242052","441-UM","2018/10/15 08:09:46","新北市樹林區樹新路120巷13號","121.43035","24.9971183333333","6500500","新莊區"
"242045","400-BY","2018/10/15 08:09:41","新北市新莊區福營路101號","121.434111666667","25.0322583333333","6500500","新莊區"
"242022","362-BY","2018/10/15 08:09:41","新北市新莊區民樂街67號","121.457938333333","25.0419133333333","6500500","新莊區"
"242059","353-BY","2018/10/15 08:09:37","新北市新莊區瓊林南路118-16號","121.434653333333","25.0085933333333","6500500","新莊區"
"242010","132-UY","2018/10/15 08:09:35","新北市新莊區中港路570號","121.451498333333","25.0533","6500500","新莊區"
"242040","133-UY","2018/10/15 08:09:38","新北市新莊區中正路614巷8弄1號","121.425191666667","25.0309483333333","6500500","新莊區"
"242033","135-UY","2018/10/15 08:09:44","新北市新莊區新莊路637號","121.44517","25.0328583333333","6500500","新莊區"
"242049","172-VK","2018/10/15 08:09:31","新北市新莊區西盛街311巷4號","121.428265","25.01524","6500500","新莊區"
"242012","173-VK","2018/10/15 08:09:31","新北市新莊區中誠街96號","121.449996666667","25.0477716666667","6500500","新莊區"
"242018","175-VK","2018/10/15 08:09:30","新北市新莊區中港路257號","121.453846666667","25.0432083333333","6500500","新莊區"
"242006","176-VK","2018/10/15 08:09:43","新北市新莊區福樂街132巷16號","121.456945","25.0484916666667","6500500","新莊區"
"242001","233-RS","2018/10/15 08:09:41","新北市新莊區新泰路61號","121.449515","25.034125","6500500","新莊區"
"242016","346-TH","2018/10/15 08:09:25","新北市新莊區復興路一段149巷21弄15號","121.449368333333","25.0439933333333","6500500","新莊區"
"242001","347-TH","2018/10/15 08:09:37","新北市新莊區新莊路435號","121.450141666667","25.0335683333333","6500500","新莊區"
"242030","348-TH","2018/10/15 08:09:35","新北市新莊區新泰路321巷4弄5號","121.444416666667","25.0414883333333","6500500","新莊區"
"242003","349-TH","2018/10/15 08:09:39","新北市新莊區自立街214巷7號","121.457161666667","25.0450683333333","6500500","新莊區"
"242020","350-TH","2018/10/15 08:09:28","新北市新莊區中華路一段230號","121.452605","25.0432583333333","6500500","新莊區"
"242038","281-VK","2018/10/15 08:09:43","新北市新莊區民全街11號","121.428965","25.0214466666667","6500500","新莊區"
"242055","280-VK","2018/10/15 08:09:36","新北市新莊區瓊林路13-2號","121.449148333333","25.0312866666667","6500500","新莊區"
