"lineid","car","time","location","longitude","latitude","cityid","cityname"
"248005","653-BX","2018/10/15 08:49:36","新北市五股區明德路12巷1號","121.43326","25.07163","6501500","五股區"
"248011","655-BX","2018/10/15 08:49:35","新北市五股區中興路二段9巷1號","121.463135","25.0738733333333","6501500","五股區"
"232001","290-BY","2018/10/15 08:49:44","新北市坪林區虎寮潭1-5號","121.745753333333","24.9550033333333","6502000","坪林區"
"232012","291-BY","2018/10/15 08:49:40","新北市坪林區仁里13號","121.687863333333","24.9287183333333","6502000","坪林區"
"232017","705-BZ","2018/10/15 08:49:37","新北市坪林區鷺鶿岫4-2號","121.785736666667","24.9557566666667","6502000","坪林區"
"232005","758-BX","2018/10/15 08:49:29","新北市坪林區魚堀13-1號","121.705275","24.9087433333333","6502000","坪林區"
"244022","069-UM","2018/10/15 08:49:41","新北市林口區興林路440號","121.389048333333","25.06806","6501700","林口區"
"244006","080-UY","2018/10/15 08:49:32","新北市林口區林口路178號","121.38772","25.08273","6501700","林口區"
"244001","248-BX","2018/10/15 08:49:48","新北市林口區竹林路438號","121.388511666667","25.0852116666667","6501700","林口區"
"244018","403-UM","2018/10/15 08:49:39","新北市林口區忠孝路512巷47號","121.371645","25.0683516666667","6501700","林口區"
"244012","KEA-2802","2018/10/15 08:49:42","新北市林口區中山路158號","121.390588333333","25.0788316666667","6501700","林口區"
"244016","485-VK","2018/10/15 08:49:38","新北市林口區忠孝路504巷56號","121.369353333333","25.0695666666667","6501700","林口區"
"244008","656-BX","2018/10/15 08:49:31","新北市林口區佳林路56巷6弄18號","121.385443333333","25.0822716666667","6501700","林口區"
"244020","657-BX","2018/10/15 08:49:34","新北市林口區自強三街1-1號","121.397243333333","25.0781533333333","6501700","林口區"
"244010","701-TV","2018/10/15 08:49:27","新北市林口區仁愛路一段288-1號","121.39278","25.0761733333333","6501700","林口區"
"244024","837-TS","2018/10/15 08:49:38","新北市林口區南勢六街18號","121.35688","25.0708483333333","6501700","林口區"
"222005","289-BY","2018/10/15 08:49:29","新北市深坑區風格街2號","121.626793333333","25.0166733333333","6501800","深坑區"
"231007","189-VK","2018/10/15 08:49:25","新北市新店區新潭路三段275-1號","121.50205","24.902515","6500600","新店區"
"231008","192-VK","2018/10/15 08:49:27","新北市新店區廣興路松碧巷1號","121.546725","24.9118966666667","6500600","新店區"
"235001","611-BX","2018/10/15 08:49:27","新北市中和區民德路77號","121.468968333333","25.0012916666667","6500300","中和區"
"226005","5620-A6","2018/10/15 08:49:38","新北市平溪區十分里十分街114號","121.776903333333","25.0430616666667","6502400","平溪區"
"226001","7418-A5","2018/10/15 08:45:11","新北市平溪區東勢里番仔坑16號","121.754958333333","24.99124","6502400","平溪區"
"226003","8452-VL","2018/10/15 08:49:31","新北市平溪區十分里十分街246號","121.777643333333","25.0444666666667","6502400","平溪區"
"223006","022-BY","2018/10/15 08:49:39","新北市深坑區文山路一段69號","121.626971666667","25.0020183333333","6501900","石碇區"
"223002","KEA-2673","2018/10/15 08:49:36","新北市石碇區碇坪路一段92號","121.658065","24.9914083333333","6501900","石碇區"
"223008","406-TH","2018/10/15 08:49:46","新北市石碇區十八重溪68-1號","121.67321","25.0163433333333","6501900","石碇區"
"223004","437-BY","2018/10/15 08:49:31","新北市石碇區崩山51-2號","121.680853333333","24.96906","6501900","石碇區"
"223001","592-UM","2018/10/15 08:49:46","新北市石碇區北宜路六段柑腳巷2號","121.659616666667","24.9380966666667","6501900","石碇區"
"223007","661-BX","2018/10/15 08:49:36","新北市石碇區十八重溪68-2號","121.672346666667","25.0179566666667","6501900","石碇區"
"223005","677-TV","2018/10/15 08:49:29","新北市石碇區崩山43-2號","121.68069","24.966485","6501900","石碇區"
"227005","282-VK","2018/10/15 08:49:30","新北市雙溪區泰平里泰平5號","121.844871666667","24.9875216666667","6502500","雙溪區"
"252006","073-UM","2018/10/15 08:49:28","新北市三芝區錫板里海尾14-32號","121.477453333333","25.2597383333333","6502100","三芝區"
"252004","249-BX","2018/10/15 08:49:29","新北市三芝區興華里田心子15-14號","121.492833333333","25.2043166666667","6502100","三芝區"
"237001","159-UY","2018/10/15 08:49:32","新北市三峽區學勤路38號","121.37435","24.9459416666667","6500900","三峽區"
"242035","AAC-296","2018/10/15 08:49:38","新北市新莊區建安街101巷2弄7號","121.426601666667","25.0237733333333","6500500","新莊區"
"242057","986-R7","2018/10/15 08:49:28","新北市新莊區中正路887-13號","121.416366666667","25.02433","6500500","新莊區"
"242008","751-BX","2018/10/15 08:49:40","新北市新莊區昌盛街24號","121.453901666667","25.0499083333333","6500500","新莊區"
"242026","705-TV","2018/10/15 08:49:34","新北市新莊區立信三街35巷17號","121.442888333333","25.0510233333333","6500500","新莊區"
"242024","613-BX","2018/10/15 08:49:44","新北市新莊區五工二路78巷2號","121.460095","25.06612","6500500","新莊區"
"242028","612-BX","2018/10/15 08:49:28","新北市新莊區中榮街97號","121.445015","25.052805","6500500","新莊區"
"242043","566-BX","2018/10/15 08:49:33","新北市新莊區中正路891-27號","121.415081666667","25.0229083333333","6500500","新莊區"
"242047","497-BY","2018/10/15 08:49:33","新北市新莊區建安街92巷9號","121.42585","25.0242616666667","6500500","新莊區"
"242014","442-UM","2018/10/15 08:49:28","新北市新莊區復興路一段37號","121.44669","25.0419133333333","6500500","新莊區"
"242052","441-UM","2018/10/15 08:49:46","新北市新莊區民安西路337號","121.427895","25.010815","6500500","新莊區"
"242045","400-BY","2018/10/15 08:49:40","新北市新莊區中正路855巷23弄4號","121.420718333333","25.0268616666667","6500500","新莊區"
"242022","362-BY","2018/10/15 08:49:21","新北市新莊區化成路606號","121.466125","25.0546266666667","6500500","新莊區"
"242059","353-BY","2018/10/15 08:49:31","新北市新莊區四維路11號","121.424065","25.024125","6500500","新莊區"
"242010","132-UY","2018/10/15 08:49:35","新北市新莊區中榮街47號","121.449426666667","25.0526983333333","6500500","新莊區"
"242040","133-UY","2018/10/15 08:49:36","新北市新莊區天祥街92巷14號","121.415605","25.030055","6500500","新莊區"
"242033","135-UY","2018/10/15 08:49:44","新北市新莊區建中街90巷7弄17號","121.445545","25.0374333333333","6500500","新莊區"
"242049","172-VK","2018/10/15 08:49:34","新北市新莊區民安西路196巷14弄2號","121.425178333333","25.015635","6500500","新莊區"
"242012","173-VK","2018/10/15 08:49:31","新北市新莊區幸福路678巷2號","121.450755","25.0497033333333","6500500","新莊區"
"242018","175-VK","2018/10/15 08:49:30","新北市新莊區長青街2號","121.45824","25.0423416666667","6500500","新莊區"
"242006","176-VK","2018/10/15 08:49:31","新北市新莊區福壽街142巷38號","121.45923","25.0518133333333","6500500","新莊區"
"242001","233-RS","2018/10/15 08:49:41","新北市樹林區八德街584號","121.398888333333","24.969265","6500500","新莊區"
"242016","346-TH","2018/10/15 08:49:46","新北市新莊區中港二街124號","121.448566666667","25.0456816666667","6500500","新莊區"
"242001","347-TH","2018/10/15 08:49:37","新北市新莊區中正路173號","121.454151666667","25.0364733333333","6500500","新莊區"
"242030","348-TH","2018/10/15 08:49:35","新北市新莊區新泰路225巷7號","121.446013333333","25.03917","6500500","新莊區"
"242003","349-TH","2018/10/15 08:49:39","新北市新莊區思源路52號","121.460576666667","25.0440216666667","6500500","新莊區"
"242020","350-TH","2018/10/15 08:49:28","新北市新莊區建中街16巷27號","121.449118333333","25.0387133333333","6500500","新莊區"
"242038","281-VK","2018/10/15 08:49:42","新北市新莊區民安路280號","121.427736666667","25.021545","6500500","新莊區"
"242055","280-VK","2018/10/15 08:49:36","新北市新莊區瓊林路32號","121.44914","25.0313116666667","6500500","新莊區"
