"lineid","car","time","location","longitude","latitude","cityid","cityname"
"248005","653-BX","2018/10/15 09:58:56","新北市五股區成泰路一段187號","121.435063333333","25.0763416666667","6501500","五股區"
"248011","655-BX","2018/10/15 09:59:15","新北市五股區西雲路147號","121.444726666667","25.0940483333333","6501500","五股區"
"244022","069-UM","2018/10/15 09:59:01","新北市林口區民權路153號","121.373925","25.0836533333333","6501700","林口區"
"244018","403-UM","2018/10/15 09:59:19","新北市林口區麗園二街1巷1-2號","121.377013333333","25.0695683333333","6501700","林口區"
"244016","485-VK","2018/10/15 09:58:58","新北市林口區民族路276號","121.369773333333","25.0784966666667","6501700","林口區"
"231007","189-VK","2018/10/15 09:59:05","新北市新店區新潭路三段215巷25號","121.508093333333","24.9040883333333","6500600","新店區"
"231008","192-VK","2018/10/15 09:59:06","新北市新店區小坑一路7號","121.5355","24.91187","6500600","新店區"
"223008","406-TH","2018/10/15 09:59:08","新北市石碇區南勢坑2-6號","121.701243333333","24.9931116666667","6501900","石碇區"
"223007","661-BX","2018/10/15 09:59:16","新北市石碇區南勢坑12號","121.698986666667","24.9822666666667","6501900","石碇區"
"227005","282-VK","2018/10/15 09:59:10","新北市雙溪區泰平里灣潭路34號","121.810985","24.9288733333333","6502500","雙溪區"
"252004","249-BX","2018/10/15 09:59:08","新北市三芝區福德里埔尾29-1號","121.506806666667","25.2412266666667","6502100","三芝區"
"252006","AAC-283","2018/10/15 09:59:03","新北市三芝區新庄里新庄子51-16號","121.507298333333","25.27789","6502100","三芝區"
"237001","159-UY","2018/10/15 09:59:12","新北市三峽區國際一街19號","121.373736666667","24.9427166666667","6500900","三峽區"
"242040","133-UY","2018/10/15 09:59:15","新北市樹林區八德街367-1號","121.41646","24.97244","6500500","新莊區"
"242030","348-TH","2018/10/15 09:59:15","新北市新莊區中正路541號","121.435416666667","25.0327833333333","6500500","新莊區"
"242003","349-TH","2018/10/15 09:58:58","新北市板橋區大觀路三段36巷54弄20號","121.435213333333","24.996825","6500500","新莊區"
