"lineid","car","time","location","longitude","latitude","cityid","cityname"
"234078","298-R6","2018/10/15 13:09:16","新北市永和區國中路156號","121.522586666667","25.0067766666667","6500400","永和區"
"234036","336-UY","2018/10/15 13:09:10","新北市永和區民樂街69巷1號","121.52745","24.99783","6500400","永和區"
"234062","337-UY","2018/10/15 13:09:03","新北市永和區秀朗路二段33號","121.52126","25.0024533333333","6500400","永和區"
"234084","338-UY","2018/10/15 13:09:18","新北市永和區永貞路89號","121.518406666667","25.0044183333333","6500400","永和區"
"234068","552-UM","2018/10/15 13:09:06","新北市永和區豫溪街137巷1弄22號","121.518475","25.010415","6500400","永和區"
"234015","745-BX","2018/10/15 13:09:20","新北市永和區文化路90巷12號","121.513855","25.015805","6500400","永和區"
"234028","746-BX","2018/10/15 13:09:20","新北市永和區四維街80號","121.523355","24.998385","6500400","永和區"
"234012","KEA-2591","2018/10/15 13:08:58","新北市永和區保福路二段37號","121.510936666667","25.0115833333333","6500400","永和區"
"234060","AAD-866","2018/10/15 13:09:09","新北市永和區安樂路306號","121.514395","25.0054333333333","6500400","永和區"
"234010","9373-KE","2018/10/15 13:09:12","新北市永和區仁愛路31巷2弄2號","121.514188333333","25.0130183333333","6500400","永和區"
"248005","077-UY","2018/10/15 13:09:13","新北市五股區中興路二段82號","121.460788333333","25.0773016666667","6501500","五股區"
"248019","225-UY","2018/10/15 13:09:20","新北市五股區凌雲路一段21號","121.455201666667","25.0977933333333","6501500","五股區"
"248013","261-SL","2018/10/15 13:09:11","新北市五股區中興路四段56號","121.437895","25.083055","6501500","五股區"
"234022","9380-KE","2018/10/15 13:09:17","新北市永和區中興街10巷29號","121.516518333333","25.0110416666667","6500400","永和區"
"234076","969-R7","2018/10/15 13:09:10","新北市永和區智光街115號","121.515676666667","24.996105","6500400","永和區"
"243005","AAD-798","2018/10/15 13:09:02","新北市泰山區南林路99巷23號","121.417785","25.0497666666667","6501600","泰山區"
"231028","001-UM","2018/10/15 13:09:12","新北市新店區安華路28-1號","121.51963","24.9608483333333","6500600","新店區"
"231011","187-VK","2018/10/15 13:09:05","新北市新店區安一路一段1-1號","121.519646666667","24.9611583333333","6500600","新店區"
"231003","268-BY","2018/10/15 13:09:06","新北市新店區安華路1-1號","121.519385","24.96051","6500600","新店區"
"231018","278-BY","2018/10/15 13:09:12","新北市新店區安一路一段1-1號","121.519515","24.9611833333333","6500600","新店區"
"231025","4715-K9","2018/10/15 13:09:08","新北市新店區安康路一段238號","121.521921666667","24.9637833333333","6500600","新店區"
"231035","719-UM","2018/10/15 13:09:01","新北市新店區安一路一段1-1號","121.519906666667","24.9612","6500600","新店區"
"231031","720-UM","2018/10/15 13:09:14","新北市新店區安一路一段1-1號","121.519153333333","24.9612666666667","6500600","新店區"
"235028","005-UY","2018/10/15 13:09:06","新北市中和區中正路215號","121.496691666667","24.9936583333333","6500300","中和區"
"235029","098-UM","2018/10/15 13:09:22","新北市中和區莊敬路49巷20弄22號","121.502775","25.0058633333333","6500300","中和區"
"235004","150-BY","2018/10/15 13:08:14","新北市中和區員山路36巷16-2號","121.485331666667","24.991095","6500300","中和區"
"235022","151-BY","2018/10/15 13:09:18","新北市中和區圓通路367巷62-5號","121.492375","24.9829383333333","6500300","中和區"
"235002","185-VK","2018/10/15 13:09:05","新北市中和區立人街41號","121.520778333333","24.9942216666667","6500300","中和區"
"235031","255-BX","2018/10/15 13:09:10","新北市中和區中正路851號","121.484636666667","25.0028683333333","6500300","中和區"
"235006","KEA-2878","2018/10/15 13:09:13","新北市中和區錦和路350-1號","121.490556666667","24.9936066666667","6500300","中和區"
"235034","558-UM","2018/10/15 13:09:08","新北市中和區圓通路207號","121.497113333333","24.9944483333333","6500300","中和區"
"235026","800-TS","2018/10/15 13:09:04","新北市中和區建一路120號","121.488131666667","25.00014","6500300","中和區"
"235005","802-TS","2018/10/15 13:09:13","新北市中和區錦和路350-1號","121.490428333333","24.9935933333333","6500300","中和區"
"235016","805-TS","2018/10/15 13:09:16","新北市中和區中正路273號","121.495725","24.9936816666667","6500300","中和區"
"235023","AAC-215","2018/10/15 13:09:08","新北市中和區員山路36巷16-3號","121.485073333333","24.991405","6500300","中和區"
"227005","282-VK","2018/10/15 13:08:50","新北市雙溪區三貂里政光路3-1號","121.850846666667","25.0634","6502500","雙溪區"
"253003","6232-TK","2018/10/15 13:09:11","新北市石門區石崩山27-2號","121.56532","25.279785","6502200","石門區"
"253004","6251-TK","2018/10/15 13:09:08","新北市石門區阿里荖1號","121.615821666667","25.278285","6502200","石門區"
"207002","749-BX","2018/10/15 13:09:11","新北市萬里區雙興里大坪路21號","121.6359","25.16369","6502800","萬里區"
"207001","662-BX","2018/10/15 13:09:13","新北市萬里區萬里里獅頭路22-1號","121.692993333333","25.17824","6502800","萬里區"
"237001","159-UY","2018/10/15 13:09:04","新北市樹林區柑園街二段363巷15號","121.3687","24.9461266666667","6500900","三峽區"
"239004","193-VK","2018/10/15 13:08:54","新北市鶯歌區永和街34巷6號","121.33326","24.9674333333333","6500800","鶯歌區"
"235025","KEA-2875","2018/10/15 13:09:20","新北市中和區連城路523巷13弄16號","121.482061666667","24.9935983333333","6500300","中和區"
