"lineid","car","time","location","longitude","latitude","cityid","cityname"
"234078","298-R6","2018/10/15 13:19:16","新北市永和區福和路38號","121.52377","25.0083016666667","6500400","永和區"
"234036","336-UY","2018/10/15 13:19:10","新北市永和區民樂街60巷1號","121.52745","24.99889","6500400","永和區"
"234062","337-UY","2018/10/15 13:19:03","新北市永和區永元路17巷6弄2號","121.521345","25.000705","6500400","永和區"
"234084","338-UY","2018/10/15 13:19:18","新北市永和區永利路2號","121.517386666667","25.00586","6500400","永和區"
"234068","552-UM","2018/10/15 13:19:06","新北市永和區豫溪街55號","121.517213333333","25.00994","6500400","永和區"
"234015","745-BX","2018/10/15 13:19:00","新北市永和區文化路144巷31弄7號","121.512001666667","25.016905","6500400","永和區"
"234028","746-BX","2018/10/15 13:19:20","新北市永和區厚德街68號","121.523986666667","24.9988583333333","6500400","永和區"
"234012","KEA-2591","2018/10/15 13:19:18","新北市永和區信義路58號","121.51304","25.0126166666667","6500400","永和區"
"234060","AAD-866","2018/10/15 13:19:09","新北市永和區秀朗路一段175號","121.517033333333","25.0038283333333","6500400","永和區"
"234010","9373-KE","2018/10/15 13:19:12","新北市永和區文化路90巷32弄9號","121.513488333333","25.01678","6500400","永和區"
"248005","077-UY","2018/10/15 13:19:13","新北市五股區中興路一段169號","121.4647","25.0736983333333","6501500","五股區"
"248019","225-UY","2018/10/15 13:19:00","新北市五股區孝義路52號","121.45429","25.1105283333333","6501500","五股區"
"248013","261-SL","2018/10/15 13:19:11","新北市五股區自強路19巷5-1號","121.434625","25.0737916666667","6501500","五股區"
"248011","655-BX","2018/10/15 13:19:15","新北市五股區御史路1巷101弄2號","121.440986666667","25.091235","6501500","五股區"
"248001","678-BX","2018/10/15 13:19:22","新北市五股區西雲路29號","121.443126666667","25.0905083333333","6501500","五股區"
"234022","9380-KE","2018/10/15 13:19:17","新北市永和區竹林路105號","121.519803333333","25.0118883333333","6500400","永和區"
"234076","969-R7","2018/10/15 13:19:10","新北市永和區民有街23巷1號","121.51676","24.9964433333333","6500400","永和區"
"243005","AAD-798","2018/10/15 13:19:02","新北市泰山區錢厝坑13號","121.416216666667","25.0373716666667","6501600","泰山區"
"231028","001-UM","2018/10/15 13:19:12","新北市新店區安華路28-1號","121.519653333333","24.9608783333333","6500600","新店區"
"231011","187-VK","2018/10/15 13:19:05","新北市新店區安一路一段1-1號","121.519553333333","24.961185","6500600","新店區"
"231003","268-BY","2018/10/15 13:19:06","新北市新店區安華路1-1號","121.519395","24.9605183333333","6500600","新店區"
"231018","278-BY","2018/10/15 13:19:12","新北市新店區環河路118號","121.536658333333","24.9679166666667","6500600","新店區"
"231025","4715-K9","2018/10/15 13:19:07","新北市新店區中央七街58號","121.528096666667","24.976095","6500600","新店區"
"231036","512-UM","2018/10/15 13:19:23","新北市新店區安忠路205巷8號","121.509946666667","24.9553233333333","6500600","新店區"
"231035","719-UM","2018/10/15 13:19:21","新北市新店區安一路一段1-1號","121.51957","24.96124","6500600","新店區"
"231031","720-UM","2018/10/15 13:19:14","新北市新店區安一路一段1-1號","121.51925","24.96134","6500600","新店區"
"235028","005-UY","2018/10/15 13:19:06","新北市中和區圓通路172號","121.497231666667","24.994575","6500300","中和區"
"235029","098-UM","2018/10/15 13:19:02","新北市中和區莊敬路49巷20弄22號","121.502751666667","25.0058466666667","6500300","中和區"
"235004","150-BY","2018/10/15 13:19:13","新北市中和區景新街170號","121.505893333333","24.9965183333333","6500300","中和區"
"235022","151-BY","2018/10/15 13:19:18","新北市中和區圓通路369巷39-20號","121.49017","24.9851033333333","6500300","中和區"
"235019","183-VK","2018/10/15 13:19:06","新北市中和區連城路523巷13弄16號","121.482058333333","24.9936366666667","6500300","中和區"
"235002","185-VK","2018/10/15 13:19:10","新北市中和區大智街42巷1-5號","121.522093333333","24.992095","6500300","中和區"
"235031","255-BX","2018/10/15 13:19:10","新北市中和區民樂路77號","121.484393333333","25.0012766666667","6500300","中和區"
"235036","301-VK","2018/10/15 13:19:19","新北市中和區連城路263巷4弄4號","121.491575","24.9957916666667","6500300","中和區"
"235006","KEA-2878","2018/10/15 13:19:13","新北市中和區景平路159巷29弄3號","121.512918333333","24.9912733333333","6500300","中和區"
"235034","558-UM","2018/10/15 13:19:03","新北市中和區圓通路115號","121.499325","24.9964583333333","6500300","中和區"
"235026","800-TS","2018/10/15 13:19:24","新北市中和區景平路999巷1號","121.495385","25.0059316666667","6500300","中和區"
"235005","802-TS","2018/10/15 13:19:13","新北市中和區景安路30-5號","121.507201666667","24.9985233333333","6500300","中和區"
"235016","805-TS","2018/10/15 13:19:16","新北市中和區興南路二段94號","121.50524","24.9842366666667","6500300","中和區"
"235012","896-TW","2018/10/15 13:19:04","新北市中和區員山路36巷16-5號","121.484903333333","24.99198","6500300","中和區"
"235023","AAC-215","2018/10/15 13:19:08","新北市中和區員山路36巷16-3號","121.484936666667","24.991395","6500300","中和區"
"247021","001-UY","2018/10/15 13:19:10","新北市五股區中興路三段2巷10號","121.449018333333","25.08096","6501400","蘆洲區"
"227008","400-TW","2018/10/15 13:19:05","新北市雙溪區三貂里政光路3-1號","121.850803333333","25.0630683333333","6502500","雙溪區"
"227005","282-VK","2018/10/15 13:19:09","新北市雙溪區三貂里政光路3-1號","121.850865","25.0633833333333","6502500","雙溪區"
"253003","6232-TK","2018/10/15 13:19:11","新北市石門區內石門81-10號","121.566648333333","25.26544","6502200","石門區"
"253004","6251-TK","2018/10/15 13:19:08","新北市石門區竹子湖3號","121.616188333333","25.2626866666667","6502200","石門區"
"253001","KEC-0718","2018/10/15 13:19:14","新北市石門區楓林7號","121.537576666667","25.294925","6502200","石門區"
"207002","749-BX","2018/10/15 13:19:11","新北市萬里區崁腳里崁腳路166號","121.645146666667","25.1560816666667","6502800","萬里區"
"207001","662-BX","2018/10/15 13:19:13","新北市萬里區龜吼里玉田路62-1號","121.680055","25.1917516666667","6502800","萬里區"
"237001","159-UY","2018/10/15 13:19:04","新北市三峽區學府路126號","121.374733333333","24.9491016666667","6500900","三峽區"
"239004","193-VK","2018/10/15 13:08:54","新北市鶯歌區永和街34巷6號","121.33326","24.9674333333333","6500800","鶯歌區"
"220022","895-R6","2018/10/15 13:19:12","新北市板橋區華東街1-10號","121.448195","24.9950483333333","6500100","板橋區"
"235025","KEA-2875","2018/10/15 13:19:20","新北市中和區國光街215巷24弄4號","121.466681666667","25.0002133333333","6500300","中和區"
