"lineid","car","time","location","longitude","latitude","cityid","cityname"
"234036","336-UY","2018/10/15 14:49:10","新北市新店區薏仁坑路自強巷1號","121.496855","24.958095","6500400","永和區"
"234084","338-UY","2018/10/15 14:49:18","新北市新店區薏仁坑路2-1號","121.500611666667","24.9580966666667","6500400","永和區"
"234068","552-UM","2018/10/15 14:49:06","新北市新店區薏仁坑路自強巷1號","121.497171666667","24.95787","6500400","永和區"
"234060","AAD-866","2018/10/15 14:49:09","新北市永和區民樂街39巷23號","121.528958333333","25.0006733333333","6500400","永和區"
"234025","9371-KE","2018/10/15 14:49:21","新北市永和區雙和街7巷8號","121.509495","25.0015183333333","6500400","永和區"
"234010","9373-KE","2018/10/15 14:45:12","新北市永和區福和路1號","121.52677","25.0100733333333","6500400","永和區"
"248019","225-UY","2018/10/15 14:49:17","新北市五股區凌雲路三段84巷2-15號","121.429691666667","25.1205933333333","6501500","五股區"
"248013","261-SL","2018/10/15 14:49:08","新北市五股區五福路22巷3號","121.434496666667","25.0889966666667","6501500","五股區"
"248011","655-BX","2018/10/15 14:49:15","新北市五股區六合街70號","121.431836666667","25.0900883333333","6501500","五股區"
"248001","678-BX","2018/10/15 14:49:09","新北市五股區成泰路三段149號","121.44499","25.091415","6501500","五股區"
"234022","9380-KE","2018/10/15 14:35:18","新北市永和區保生路55-1號","121.504516666667","25.01097","6500400","永和區"
"243005","AAD-798","2018/10/15 14:49:16","新北市泰山區明志路三段72號","121.424895","25.0418516666667","6501600","泰山區"
"243008","KEA-2801","2018/10/15 14:49:15","新北市泰山區新北大道六段287號","121.424435","25.0342216666667","6501600","泰山區"
"243015","421-VK","2018/10/15 14:49:20","新北市泰山區明志路一段418號","121.4307","25.0566216666667","6501600","泰山區"
"243003","KEA-2215","2018/10/15 14:48:49","新北市泰山區明志路三段166號","121.424268333333","25.0394233333333","6501600","泰山區"
"243002","KEA-2216","2018/10/15 14:49:10","新北市泰山區明志路二段254號","121.42691","25.0476483333333","6501600","泰山區"
"243004","646-TV","2018/10/15 14:49:07","新北市泰山區楓江路86巷16-1號","121.437338333333","25.0624766666667","6501600","泰山區"
"243006","680-BX","2018/10/15 14:49:18","新北市泰山區明志路一段35號","121.433725","25.0654366666667","6501600","泰山區"
"231028","001-UM","2018/10/15 14:49:12","新北市新店區安德街70號","121.5105","24.961725","6500600","新店區"
"231011","187-VK","2018/10/15 14:49:25","新北市新店區寶宏路38號","121.549555","24.9756516666667","6500600","新店區"
"231026","256-BX","2018/10/15 14:48:54","新北市新店區安一路一段1-1號","121.519811666667","24.961295","6500600","新店區"
"231003","268-BY","2018/10/15 14:49:06","新北市新店區中興路二段196號","121.548555","24.974025","6500600","新店區"
"231018","278-BY","2018/10/15 14:49:12","新北市新店區中央路137號","121.530213333333","24.9736316666667","6500600","新店區"
"231025","4715-K9","2018/10/15 14:49:07","新北市新店區建國路192號","121.537933333333","24.9804583333333","6500600","新店區"
"231036","512-UM","2018/10/15 14:49:23","新北市新店區安祥路104-10號","121.479155","24.96212","6500600","新店區"
"231006","617-UM","2018/10/15 14:49:18","新北市新店區北宜路一段121-3號","121.540351666667","24.9538216666667","6500600","新店區"
"231005","618-UM","2018/10/15 14:49:15","新北市新店區復興路2號","121.532443333333","24.98827","6500600","新店區"
"231035","719-UM","2018/10/15 14:48:41","新北市新店區安和路二段166號","121.519741666667","24.9737183333333","6500600","新店區"
"231031","720-UM","2018/10/15 14:49:14","新北市新店區薏仁坑路自強巷1號","121.49783","24.9578016666667","6500600","新店區"
"235028","005-UY","2018/10/15 14:49:06","新北市中和區圓通路296巷1號","121.4873","24.9883716666667","6500300","中和區"
"235027","006-UY","2018/10/15 14:49:05","新北市中和區連城路263巷16號","121.492536666667","24.9949466666667","6500300","中和區"
"235029","098-UM","2018/10/15 14:49:22","新北市中和區永和路90巷7號","121.497486666667","25.00608","6500300","中和區"
"235004","150-BY","2018/10/15 14:49:13","新北市中和區安平路59號","121.509675","24.9949533333333","6500300","中和區"
"235022","151-BY","2018/10/15 14:49:18","新北市中和區員山路150巷2弄39號","121.4818","24.9974266666667","6500300","中和區"
"235019","183-VK","2018/10/15 14:49:06","新北市中和區民德路6號","121.468795","25.0031133333333","6500300","中和區"
"235002","185-VK","2018/10/15 14:49:05","新北市中和區更生街1號","121.521426666667","24.99626","6500300","中和區"
"235031","255-BX","2018/10/15 14:49:10","新北市中和區中正路751巷3弄1號","121.484411666667","24.9996316666667","6500300","中和區"
"235008","293-VK","2018/10/15 14:49:05","新北市中和區南山路231號","121.50368","24.993435","6500300","中和區"
"235036","301-VK","2018/10/15 14:49:19","新北市中和區板南路399巷2號","121.493463333333","24.9990783333333","6500300","中和區"
"235007","352-BY","2018/10/15 14:49:05","新北市中和區安平路30號","121.509533333333","24.994675","6500300","中和區"
"247011","KEA-2869","2018/10/15 14:49:21","新北市蘆洲區中山一路198號","121.473671666667","25.0808383333333","6501400","蘆洲區"
"235034","558-UM","2018/10/15 14:49:23","新北市中和區連勝街59號","121.497505","24.9970666666667","6500300","中和區"
"235026","800-TS","2018/10/15 14:49:04","新北市中和區中山路二段417號","121.485923333333","25.0048183333333","6500300","中和區"
"235005","802-TS","2018/10/15 14:49:13","新北市中和區景平路396-2號","121.509775","24.993265","6500300","中和區"
"235016","805-TS","2018/10/15 14:49:16","新北市中和區興南路二段79-2號","121.506673333333","24.98471","6500300","中和區"
"235012","896-TW","2018/10/15 14:49:24","新北市中和區忠孝街182號","121.512866666667","24.988035","6500300","中和區"
"235017","900-TW","2018/10/15 14:49:10","新北市中和區國光街213號","121.466411666667","25.0018516666667","6500300","中和區"
"235024","911-UM","2018/10/15 14:49:09","新北市中和區新生街30巷26號","121.482321666667","25.0038833333333","6500300","中和區"
"235023","AAC-215","2018/10/15 14:49:08","新北市中和區圓通路305巷5弄42號","121.494796666667","24.990295","6500300","中和區"
"220104","015-TV","2018/10/15 14:49:10","新北市板橋區新生街25號","121.456196666667","25.021265","6500100","板橋區"
"247019","057-VK","2018/10/15 14:49:18","新北市蘆洲區民義街71巷6號","121.472953333333","25.090305","6501400","蘆洲區"
"247021","001-UY","2018/10/15 14:49:10","新北市蘆洲區中正路418號","121.462978333333","25.0938466666667","6501400","蘆洲區"
"227008","400-TW","2018/10/15 14:49:05","新北市雙溪區三貂里政光路3-1號","121.850885","25.0630633333333","6502500","雙溪區"
"253003","6232-TK","2018/10/15 14:49:11","新北市石門區尖子鹿10-2號","121.577235","25.281455","6502200","石門區"
"253004","6251-TK","2018/10/15 14:49:19","新北市石門區茂林社區78號","121.592253333333","25.2698433333333","6502200","石門區"
"253002","637-UY","2018/10/15 14:49:21","新北市石門區大丘田51號","121.550171666667","25.271715","6502200","石門區"
"253001","KEC-0718","2018/10/15 14:49:13","新北市石門區崁子腳66-1號","121.530665","25.28312","6502200","石門區"
"207002","749-BX","2018/10/15 14:49:11","新北市萬里區崁腳里崁腳路73號","121.64765","25.1596133333333","6502800","萬里區"
"207001","662-BX","2018/10/15 14:44:33","新北市萬里區雙興里豐稟路22-1號","121.640101666667","25.1846483333333","6502800","萬里區"
"236064","105-UM","2018/10/15 14:49:12","新北市土城區明德路二段99巷2弄4號","121.450316666667","24.9811133333333","6501300","土城區"
"236040","107-UM","2018/10/15 14:49:10","新北市土城區裕民路136巷4弄1號","121.450963333333","24.9856183333333","6501300","土城區"
"236074","166-UM","2018/10/15 14:49:21","新北市土城區中央路四段67巷60-13號","121.416901666667","24.9560183333333","6501300","土城區"
"236029","253-BX","2018/10/15 14:49:16","新北市土城區忠義路26巷10號","121.439775","24.96989","6501300","土城區"
"236024","269-VK","2018/10/15 14:49:10","新北市土城區中央路二段252號","121.441791666667","24.9747766666667","6501300","土城區"
"236012","270-VK","2018/10/15 14:49:17","新北市土城區金城路二段354巷20號","121.460793333333","24.98413","6501300","土城區"
"236016","401-BY","2018/10/15 14:49:08","新北市土城區延安街42-1號","121.467416666667","24.9854216666667","6501300","土城區"
"236057","912-UM","2018/10/15 14:49:21","新北市土城區金城路一段66號","121.442941666667","24.9713116666667","6501300","土城區"
"236060","915-UM","2018/10/15 14:49:21","新北市土城區延和路89號","121.466955","24.989985","6501300","土城區"
"236054","970-R7","2018/10/15 14:49:24","新北市土城區裕民路107號","121.45102","24.9868366666667","6501300","土城區"
"239004","193-VK","2018/10/15 14:48:28","新北市鶯歌區環河路177-3號","121.346005","24.9353583333333","6500800","鶯歌區"
"221032","280-BY","2018/10/15 14:49:03","新北市汐止區連興街73號","121.654095","25.062945","6501100","汐止區"
"220027","145-BY","2018/10/15 14:49:14","新北市板橋區建國街38-2號","121.45841","25.0170566666667","6500100","板橋區"
"220050","245-BX","2018/10/15 14:49:21","新北市板橋區莒光路200-1號","121.474201666667","25.0220883333333","6500100","板橋區"
"220040","267-BY","2018/10/15 14:49:24","新北市板橋區懷德街127巷38-3號","121.480106666667","25.0315066666667","6500100","板橋區"
"220004","276-BY","2018/10/15 14:49:12","新北市板橋區四川路二段99巷2弄1號","121.452811666667","24.9942666666667","6500100","板橋區"
"220020","277-BY","2018/10/15 14:49:16","新北市板橋區金門街173號","121.432635","24.99009","6500100","板橋區"
"220043","283-UM","2018/10/15 14:49:11","新北市板橋區長江路一段121號","121.460096666667","25.0300116666667","6500100","板橋區"
"220001","285-VK","2018/10/15 14:49:21","新北市板橋區民享街41-1號","121.47558","25.0149033333333","6500100","板橋區"
"220029","287-VK","2018/10/15 14:49:19","新北市板橋區大觀路一段27號","121.450076666667","25.008375","6500100","板橋區"
"220009","293-UM","2018/10/15 14:49:19","新北市板橋區板新路136號","121.470811666667","25.0155733333333","6500100","板橋區"
"220032","296-UM","2018/10/15 14:49:20","新北市板橋區溪崑二街92巷8號","121.426553333333","24.9894416666667","6500100","板橋區"
"220047","317-R6","2018/10/15 14:49:20","新北市板橋區漢生西路165巷16號","121.462786666667","25.023425","6500100","板橋區"
"220012","486-VK","2018/10/15 14:49:18","新北市板橋區館前東路112號","121.463368333333","25.007635","6500100","板橋區"
"220052","561-BX","2018/10/15 14:49:21","新北市板橋區陽明街29巷24號","121.464113333333","25.0224516666667","6500100","板橋區"
"220005","686-BX","2018/10/15 14:49:21","新北市板橋區廣權路9號","121.460686666667","24.9913366666667","6500100","板橋區"
"220042","689-BX","2018/10/15 14:49:16","新北市板橋區長江路一段46號","121.45873","25.0291416666667","6500100","板橋區"
"220002","741-BX","2018/10/15 14:49:19","新北市板橋區忠孝路忠義巷22弄1號","121.467015","25.0039516666667","6500100","板橋區"
"220003","827-TW","2018/10/15 14:49:19","新北市板橋區國慶路149巷29弄15號","121.460296666667","24.9976016666667","6500100","板橋區"
"220014","829-TW","2018/10/15 14:49:14","新北市板橋區長安街138巷1弄83號","121.474778333333","25.0112066666667","6500100","板橋區"
"220045","831-TW","2018/10/15 14:49:23","新北市板橋區莒光路64號","121.471043333333","25.0241116666667","6500100","板橋區"
"220022","895-R6","2018/10/15 14:49:12","新北市板橋區府中路15號","121.459561666667","25.009645","6500100","板橋區"
"220018","AAC-253","2018/10/15 14:49:20","新北市板橋區民族路170號","121.46755","25.0078633333333","6500100","板橋區"
"235032","KEA-2873","2018/10/15 14:49:22","新北市中和區中山路二段250巷1號","121.497541666667","25.002865","6500300","中和區"
"235025","KEA-2875","2018/10/15 14:49:20","新北市中和區員山路174巷1號","121.481625","24.9999783333333","6500300","中和區"
