"lineid","car","time","location","longitude","latitude","cityid","cityname"
"234036","336-UY","2018/10/15 15:19:10","新北市新店區薏仁坑路10-1號","121.499278333333","24.9590216666667","6500400","永和區"
"234084","338-UY","2018/10/15 15:19:18","新北市永和區成功路一段47巷50號","121.528646666667","25.0039583333333","6500400","永和區"
"234068","552-UM","2018/10/15 15:19:06","新北市新店區薏仁坑路2-2號","121.501345","24.9583333333333","6500400","永和區"
"234060","AAD-866","2018/10/15 15:19:09","新北市新店區薏仁坑路8-2號","121.499346666667","24.9589483333333","6500400","永和區"
"248019","225-UY","2018/10/15 15:19:17","新北市五股區凌雲路三段24巷16號","121.434763333333","25.1058516666667","6501500","五股區"
"248012","655-BX","2018/10/15 15:10:15","新北市五股區中興路二段83巷26-3號","121.46009","25.0754333333333","6501500","五股區"
"243008","KEA-2801","2018/10/15 15:19:05","新北市泰山區文程路58號","121.43015","25.0484683333333","6501600","泰山區"
"243003","KEA-2215","2018/10/15 15:19:09","新北市泰山區台麗街57號","121.425538333333","25.0378266666667","6501600","泰山區"
"231028","001-UM","2018/10/15 15:19:12","新北市新店區僑信路120巷40號","121.499328333333","24.9459333333333","6500600","新店區"
"231011","187-VK","2018/10/15 15:19:05","新北市新店區中興路三段328號","121.542105","24.98638","6500600","新店區"
"231026","256-BX","2018/10/15 15:19:06","新北市新店區中正路263巷6號","121.538335","24.9732766666667","6500600","新店區"
"231003","268-BY","2018/10/15 15:19:26","新北市新店區寶橋路238號","121.551538333333","24.9789816666667","6500600","新店區"
"231018","278-BY","2018/10/15 15:19:12","新北市新店區中央六街12號","121.530038333333","24.97459","6500600","新店區"
"231037","4716-K9","2018/10/15 15:19:13","新北市新店區安民街341-1號","121.516661666667","24.9749333333333","6500600","新店區"
"231025","4715-K9","2018/10/15 15:19:07","新北市新店區環河路105-8號","121.532116666667","24.969945","6500600","新店區"
"231036","512-UM","2018/10/15 15:19:03","新北市新店區安祥路69巷65號","121.482596666667","24.9597166666667","6500600","新店區"
"231006","617-UM","2018/10/15 15:19:18","新北市新店區中興路一段216號","121.544263333333","24.9656216666667","6500600","新店區"
"231005","618-UM","2018/10/15 15:19:22","新北市新店區建國路116號","121.539253333333","24.9785166666667","6500600","新店區"
"231035","719-UM","2018/10/15 15:19:21","新北市新店區永平街23巷6號","121.516678333333","24.9832","6500600","新店區"
"231039","719-UY","2018/10/15 15:19:11","新北市新店區寶元路一段65號","121.542285","24.985875","6500600","新店區"
"231031","720-UM","2018/10/15 15:19:14","新北市新店區安泰路17號","121.485198333333","24.9499083333333","6500600","新店區"
"241015","062-VK","2018/10/15 15:19:17","新北市三重區重新路四段121號","121.484813333333","25.05244","6500200","三重區"
"241026","066-VK","2018/10/15 15:19:12","新北市三重區重新路四段121號","121.485096666667","25.0524916666667","6500200","三重區"
"241020","478-VK","2018/10/15 15:19:10","新北市三重區重新路四段121號","121.484951666667","25.0524433333333","6500200","三重區"
"241002","887-TS","2018/10/15 15:19:16","新北市三重區重新路四段121號","121.485095","25.052445","6500200","三重區"
"235028","005-UY","2018/10/15 15:19:06","新北市中和區興南路三段20巷46-1號","121.496678333333","24.981505","6500300","中和區"
"235027","006-UY","2018/10/15 15:19:05","新北市新店區薏仁坑路自強巷6號","121.496856666667","24.9586466666667","6500300","中和區"
"235019","183-VK","2018/10/15 15:19:06","新北市新店區薏仁坑路自強巷1號","121.497253333333","24.9578933333333","6500300","中和區"
"235002","185-VK","2018/10/15 15:19:25","新北市新店區薏仁坑路自強巷6號","121.49679","24.958335","6500300","中和區"
"235031","255-BX","2018/10/15 15:19:10","新北市新店區薏仁坑路自強巷1號","121.497893333333","24.9577516666667","6500300","中和區"
"235008","293-VK","2018/10/15 15:19:25","新北市樹林區佳園路三段99巷31-1號","121.390883333333","24.9520716666667","6500300","中和區"
"247011","KEA-2869","2018/10/15 15:19:22","新北市林口區太平里180號","121.366511666667","25.134615","6501400","蘆洲區"
"235034","558-UM","2018/10/15 15:19:03","新北市中和區中正路406號","121.492466666667","24.9942983333333","6500300","中和區"
"235026","800-TS","2018/10/15 15:19:24","新北市新店區安德街60巷13-1號","121.510116666667","24.9630833333333","6500300","中和區"
"235005","802-TS","2018/10/15 15:19:13","新北市新店區車子路15號","121.504128333333","24.954335","6500300","中和區"
"235016","805-TS","2018/10/15 15:19:16","新北市新店區薏仁坑路自強巷1號","121.497343333333","24.9578916666667","6500300","中和區"
"235012","896-TW","2018/10/15 15:19:24","新北市中和區景新街379號","121.512328333333","24.99028","6500300","中和區"
"235023","AAC-215","2018/10/15 15:19:08","新北市中和區圓通路435巷3-5號","121.488276666667","24.9862083333333","6500300","中和區"
"220104","015-TV","2018/10/15 15:19:08","新北市樹林區八德街666號","121.395531666667","24.968865","6500100","板橋區"
"227008","400-TW","2018/10/15 15:19:05","新北市雙溪區三貂里政光路3-1號","121.850846666667","25.06303","6502500","雙溪區"
"253003","6232-TK","2018/10/15 15:19:11","新北市石門區小坑9號","121.594478333333","25.2892233333333","6502200","石門區"
"253004","6251-TK","2018/10/15 15:18:48","新北市石門區小坑29-1號","121.598308333333","25.2701566666667","6502200","石門區"
"253002","637-UY","2018/10/15 15:19:21","新北市石門區七股10-5號","121.544948333333","25.2691883333333","6502200","石門區"
"253001","KEC-0718","2018/10/15 15:19:13","新北市石門區崁子腳28-3號","121.537238333333","25.2893266666667","6502200","石門區"
"207002","749-BX","2018/10/15 15:19:11","新北市萬里區崁腳里內中福路38號","121.659265","25.1644933333333","6502800","萬里區"
"207001","662-BX","2018/10/15 15:19:13","新北市萬里區大鵬里萬里加投28-1號","121.647636666667","25.20337","6502800","萬里區"
"236064","105-UM","2018/10/15 15:19:12","新北市土城區裕民路185巷36弄10號","121.454413333333","24.984505","6501300","土城區"
"236040","107-UM","2018/10/15 15:19:10","新北市土城區裕民路185巷7號","121.453865","24.9848183333333","6501300","土城區"
"236074","166-UM","2018/10/15 15:19:21","新北市土城區溪頭路151號","121.409171666667","24.950835","6501300","土城區"
"236029","253-BX","2018/10/15 15:19:16","新北市土城區中華路一段201號","121.44298","24.9849733333333","6501300","土城區"
"236024","269-VK","2018/10/15 15:19:10","新北市土城區員林街5號","121.442526666667","24.9781416666667","6501300","土城區"
"236012","270-VK","2018/10/15 15:19:19","新北市土城區廣福街32-1號","121.456785","24.98993","6501300","土城區"
"236016","401-BY","2018/10/15 15:19:14","新北市土城區峰廷街2號","121.468628333333","24.9878166666667","6501300","土城區"
"236057","912-UM","2018/10/15 15:19:21","新北市土城區中央路二段274號","121.441211666667","24.97431","6501300","土城區"
"236060","915-UM","2018/10/15 15:19:21","新北市土城區延和路123號","121.468673333333","24.990435","6501300","土城區"
"236054","970-R7","2018/10/15 15:19:09","新北市土城區學府路一段203號","121.451803333333","24.984675","6501300","土城區"
"238010","601-UM","2018/10/15 15:19:10","新北市樹林區三福街25號","121.408676666667","25.016755","6500700","樹林區"
"238018","571-TV","2018/10/15 15:19:21","新北市樹林區樹新路86號","121.429311666667","24.9974683333333","6500700","樹林區"
"238011","5061-A6","2018/10/15 15:19:15","新北市樹林區鎮前街163號","121.42251","24.9876016666667","6500700","樹林區"
"238009","KEA-2213","2018/10/15 15:19:18","新北市樹林區仁愛街81號","121.423848333333","24.9829533333333","6500700","樹林區"
"238008","KEA-2539","2018/10/15 15:19:24","新北市樹林區西圳街一段165巷20弄11號","121.395641666667","24.9602033333333","6500700","樹林區"
"238012","303-VK","2018/10/15 15:19:20","新北市樹林區保安二街12號","121.42501","24.9940033333333","6500700","樹林區"
"238004","283-BY","2018/10/15 15:19:13","新北市樹林區保安街二段27號","121.416413333333","24.9998616666667","6500700","樹林區"
"238013","172-UY","2018/10/15 15:19:04","新北市樹林區味王街46巷30號","121.403293333333","24.97376","6500700","樹林區"
"238003","169-UY","2018/10/15 15:19:13","新北市樹林區中山路二段34號","121.417385","24.9849116666667","6500700","樹林區"
"220027","145-BY","2018/10/15 15:19:14","新北市樹林區環河路2號","121.427808333333","24.9787383333333","6500100","板橋區"
"220050","245-BX","2018/10/15 15:19:21","新北市板橋區莊敬路75巷35號","121.47402","25.0262333333333","6500100","板橋區"
"220029","287-VK","2018/10/15 15:19:11","新北市板橋區僑中一街82號","121.447426666667","25.011635","6500100","板橋區"
"220052","561-BX","2018/10/15 15:16:19","新北市板橋區新海路162號","121.460633333333","25.02363","6500100","板橋區"
"220005","686-BX","2018/10/15 15:19:21","新北市五股區新五路二段265號","121.441823333333","25.0841283333333","6500100","板橋區"
"220042","689-BX","2018/10/15 15:19:16","新北市板橋區長江路二段216-1號","121.468055","25.0323333333333","6500100","板橋區"
"220045","831-TW","2018/10/15 15:19:22","新北市五股區孝義路9-10號","121.450231666667","25.1068683333333","6500100","板橋區"
"220022","895-R6","2018/10/15 15:18:40","新北市樹林區八德街395號","121.415436666667","24.9714333333333","6500100","板橋區"
"220018","AAC-253","2018/10/15 15:19:20","新北市板橋區四川路二段245巷71號","121.452768333333","24.9920566666667","6500100","板橋區"
"235025","KEA-2875","2018/10/15 15:19:19","新北市新店區薏仁坑路自強巷1號","121.497258333333","24.9577833333333","6500300","中和區"
