"lineid","car","time","location","longitude","latitude","cityid","cityname"
"234036","336-UY","2018/10/15 15:24:50","新北市新店區薏仁坑路8-2號","121.499288333333","24.95897","6500400","永和區"
"234084","338-UY","2018/10/15 15:24:38","新北市永和區成功路一段47巷50號","121.528651666667","25.0039566666667","6500400","永和區"
"234068","552-UM","2018/10/15 15:24:46","新北市新店區安興路137-1號","121.51612","24.9793016666667","6500400","永和區"
"234060","AAD-866","2018/10/15 15:24:49","新北市新店區薏仁坑路2-2號","121.501416666667","24.9583466666667","6500400","永和區"
"248012","655-BX","2018/10/15 15:10:15","新北市五股區中興路二段83巷26-3號","121.46009","25.0754333333333","6501500","五股區"
"234022","9380-KE","2018/10/15 15:24:41","新北市永和區保生路55號","121.504628333333","25.010765","6500400","永和區"
"231028","001-UM","2018/10/15 15:24:52","新北市新店區僑信路100號","121.500036666667","24.9473483333333","6500600","新店區"
"231011","187-VK","2018/10/15 15:24:44","新北市新店區寶慶街5號","121.54428","24.9866783333333","6500600","新店區"
"231026","256-BX","2018/10/15 15:24:46","新北市新店區三民路20巷28號","121.538008333333","24.9712716666667","6500600","新店區"
"231003","268-BY","2018/10/15 15:24:46","新北市新店區寶高路21號","121.553011666667","24.9775216666667","6500600","新店區"
"231018","278-BY","2018/10/15 15:24:52","新北市新店區中央八街112號","121.52591","24.9780566666667","6500600","新店區"
"231037","4716-K9","2018/10/15 15:24:53","新北市新店區安興路91巷27號","121.514073333333","24.9744666666667","6500600","新店區"
"231025","4715-K9","2018/10/15 15:24:47","新北市新店區安康路一段35-1號","121.531975","24.9606266666667","6500600","新店區"
"231036","512-UM","2018/10/15 15:24:47","新北市新店區安祥路69巷54弄65號","121.483743333333","24.9586133333333","6500600","新店區"
"231006","617-UM","2018/10/15 15:24:38","新北市新店區安康路一段3-1號","121.535208333333","24.9609916666667","6500600","新店區"
"231005","618-UM","2018/10/15 15:24:35","新北市新店區建國路249號","121.537533333333","24.9824616666667","6500600","新店區"
"231035","719-UM","2018/10/15 15:24:41","新北市新店區安興路81號","121.51557","24.975435","6500600","新店區"
"231039","719-UY","2018/10/15 15:24:51","新北市新店區寶慶街45號","121.542626666667","24.9866216666667","6500600","新店區"
"231031","720-UM","2018/10/15 15:24:54","新北市新店區和成街16巷1號","121.487745","24.9470566666667","6500600","新店區"
"241011","013-R5","2018/10/15 15:24:43","新北市三重區環河南路257-1號","121.491368333333","25.0496283333333","6500200","三重區"
"241015","062-VK","2018/10/15 15:24:37","新北市三重區重新路四段121號","121.484895","25.0524933333333","6500200","三重區"
"241017","063-VK","2018/10/15 15:24:52","新北市三重區成功路110-10號","121.485438333333","25.0504283333333","6500200","三重區"
"241026","066-VK","2018/10/15 15:24:52","新北市三重區重新路四段121號","121.485106666667","25.052465","6500200","三重區"
"241018","268-UM","2018/10/15 15:24:38","新北市三重區重新路四段121號","121.484978333333","25.0528033333333","6500200","三重區"
"241013","270-UM","2018/10/15 15:24:47","新北市三重區重新路四段121號","121.48482","25.0526083333333","6500200","三重區"
"241007","398-BY","2018/10/15 15:24:42","新北市三重區重新路四段121號","121.485105","25.05253","6500200","三重區"
"241020","478-VK","2018/10/15 15:24:50","新北市三重區重新路四段121號","121.48497","25.05243","6500200","三重區"
"241002","887-TS","2018/10/15 15:24:36","新北市三重區重新路四段121號","121.485116666667","25.0524283333333","6500200","三重區"
"235027","006-UY","2018/10/15 15:24:46","新北市新店區安忠路57巷11弄14號","121.514843333333","24.957765","6500300","中和區"
"235019","183-VK","2018/10/15 15:24:46","新北市新店區吉安街8號","121.516933333333","24.9656733333333","6500300","中和區"
"235002","185-VK","2018/10/15 15:24:45","新北市新店區安忠路205巷8號","121.50927","24.95465","6500300","中和區"
"235031","255-BX","2018/10/15 15:24:50","新北市新店區薏仁坑路6號","121.500266666667","24.95804","6500300","中和區"
"235008","293-VK","2018/10/15 15:24:45","新北市鶯歌區中正一路113-1號","121.370358333333","24.958855","6500300","中和區"
"247011","KEA-2869","2018/10/15 15:24:41","新北市八里區下罟子5-6號","121.387558333333","25.1423083333333","6501400","蘆洲區"
"235026","800-TS","2018/10/15 15:24:44","新北市新店區薏仁坑路自強巷1號","121.497225","24.9577566666667","6500300","中和區"
"235005","802-TS","2018/10/15 15:24:53","新北市新店區安業街213-2號","121.522151666667","24.9727133333333","6500300","中和區"
"235016","805-TS","2018/10/15 15:24:36","新北市新店區薏仁坑路自強巷1號","121.497078333333","24.9579766666667","6500300","中和區"
"235012","896-TW","2018/10/15 15:24:44","新北市中和區景新街385號","121.512441666667","24.9901366666667","6500300","中和區"
"235023","AAC-215","2018/10/15 15:24:48","新北市中和區圓通路356-10號","121.485281666667","24.98682","6500300","中和區"
"220104","015-TV","2018/10/15 15:23:48","新北市樹林區中山路三段210-2號","121.380876666667","24.9671116666667","6500100","板橋區"
"227008","400-TW","2018/10/15 15:24:45","新北市雙溪區三貂里政光路3-1號","121.850823333333","25.0630416666667","6502500","雙溪區"
"253003","6232-TK","2018/10/15 15:24:51","新北市石門區小坑9號","121.594311666667","25.28865","6502200","石門區"
"253002","637-UY","2018/10/15 15:24:41","新北市石門區楓林46號","121.543021666667","25.2786983333333","6502200","石門區"
"253001","KEC-0718","2018/10/15 15:24:53","新北市石門區中央路56號","121.568193333333","25.29331","6502200","石門區"
"207002","749-BX","2018/10/15 15:24:51","新北市萬里區崁腳里內中福路2-1號","121.669383333333","25.1654516666667","6502800","萬里區"
"207001","662-BX","2018/10/15 15:24:53","新北市萬里區野柳里八斗60號","121.659871666667","25.2070783333333","6502800","萬里區"
"236064","105-UM","2018/10/15 15:24:52","新北市土城區學士路14號","121.453475","24.98287","6501300","土城區"
"236040","107-UM","2018/10/15 15:24:50","新北市土城區學府路一段98巷15號","121.455721666667","24.9885166666667","6501300","土城區"
"236074","166-UM","2018/10/15 15:24:41","新北市土城區中央路四段321巷32-2號","121.411858333333","24.9512466666667","6501300","土城區"
"236029","253-BX","2018/10/15 15:24:36","新北市土城區中華路一段201號","121.442955","24.9849933333333","6501300","土城區"
"236024","269-VK","2018/10/15 15:24:49","新北市土城區裕生路102巷24號","121.446186666667","24.9849016666667","6501300","土城區"
"236012","270-VK","2018/10/15 15:24:41","新北市土城區廣明街48巷35號","121.456013333333","24.9934783333333","6501300","土城區"
"236016","401-BY","2018/10/15 15:24:48","新北市土城區延吉街165巷16號","121.4701","24.9855116666667","6501300","土城區"
"236057","912-UM","2018/10/15 15:24:41","新北市土城區中華路二段2號","121.438776666667","24.9799633333333","6501300","土城區"
"236060","915-UM","2018/10/15 15:24:46","新北市土城區金城路三段73巷9弄17號","121.465705","24.98733","6501300","土城區"
"236054","970-R7","2018/10/15 15:24:49","新北市土城區學府路一段212號","121.45233","24.9853566666667","6501300","土城區"
"238010","601-UM","2018/10/15 15:24:51","新北市樹林區三福街46號","121.407448333333","25.0164883333333","6500700","樹林區"
"238018","571-TV","2018/10/15 15:24:52","新北市樹林區保安街一段20巷4號","121.427618333333","24.993615","6500700","樹林區"
"238011","5061-A6","2018/10/15 15:24:55","新北市樹林區太平路237號","121.418365","24.97641","6500700","樹林區"
"238009","KEA-2213","2018/10/15 15:24:38","新北市樹林區信義街4號","121.42222","24.9816883333333","6500700","樹林區"
"238008","KEA-2539","2018/10/15 15:24:44","新北市樹林區西圳街一段116巷1號","121.399606666667","24.9645","6500700","樹林區"
"238012","303-VK","2018/10/15 15:24:40","新北市樹林區中山路一段183-1號","121.42145","24.9879533333333","6500700","樹林區"
"238004","283-BY","2018/10/15 15:24:33","新北市樹林區保安街二段333巷2號","121.412308333333","25.00764","6500700","樹林區"
"238013","172-UY","2018/10/15 15:24:56","新北市樹林區新興街19巷34弄5號","121.402091666667","24.9732783333333","6500700","樹林區"
"238003","169-UY","2018/10/15 15:24:33","新北市樹林區日新街89號","121.421766666667","24.9902366666667","6500700","樹林區"
"220027","145-BY","2018/10/15 15:24:54","新北市樹林區八德街630號","121.397325","24.969265","6500100","板橋區"
"220050","245-BX","2018/10/15 15:24:41","新北市板橋區莊敬路78-2號","121.471551666667","25.025095","6500100","板橋區"
"220052","561-BX","2018/10/15 15:24:53","新北市板橋區漢生東路45號","121.465663333333","25.0167433333333","6500100","板橋區"
"220005","686-BX","2018/10/15 15:24:21","新北市五股區孝義路13-1號","121.450841666667","25.10682","6500100","板橋區"
"220042","689-BX","2018/10/15 15:24:36","新北市板橋區長江路二段8號","121.464733333333","25.031265","6500100","板橋區"
"220045","831-TW","2018/10/15 15:24:42","新北市八里區荖阡坑路7-2號","121.398603333333","25.141395","6500100","板橋區"
"220022","895-R6","2018/10/15 15:24:41","新北市樹林區八德街437-1號","121.405483333333","24.969435","6500100","板橋區"
"235025","KEA-2875","2018/10/15 15:24:49","新北市新店區薏仁坑路自強巷1號","121.497073333333","24.95816","6500300","中和區"
