"lineid","car","time","location","longitude","latitude","cityid","cityname"
"234022","9380-KE","2018/10/15 16:19:21","新北市永和區福和路1號","121.526768333333","25.0100033333333","6500400","永和區"
"231011","187-VK","2018/10/15 16:19:25","新北市新店區薏仁坑路自強巷1號","121.497558333333","24.9575233333333","6500600","新店區"
"231018","278-BY","2018/10/15 16:19:12","新北市新店區中正路700巷82號","121.53598","24.9932916666667","6500600","新店區"
"241011","013-R5","2018/10/15 16:19:23","新北市三重區三和路三段58號","121.495275","25.0712683333333","6500200","三重區"
"241028","022-UY","2018/10/15 16:19:28","新北市三重區同安東街74號","121.498518333333","25.05749","6500200","三重區"
"241022","060-VK","2018/10/15 16:18:52","新北市三重區過圳街31巷2號","121.489033333333","25.0606516666667","6500200","三重區"
"241031","061-VK","2018/10/15 16:19:15","新北市三重區捷運路11-2號","121.48565","25.0561833333333","6500200","三重區"
"241015","062-VK","2018/10/15 16:19:17","新北市三重區福德北路83號","121.50194","25.0659433333333","6500200","三重區"
"241017","063-VK","2018/10/15 16:19:12","新北市三重區大同北路91號","121.494725","25.0636116666667","6500200","三重區"
"241024","065-VK","2018/10/15 16:19:18","新北市三重區中正北路145巷3弄2號","121.483478333333","25.0675966666667","6500200","三重區"
"241026","066-VK","2018/10/15 16:19:11","新北市三重區正義南路60-5號","121.498345","25.0603483333333","6500200","三重區"
"241003","091-VK","2018/10/15 16:19:09","新北市三重區五華街57巷6號","121.49319","25.0826233333333","6500200","三重區"
"241012","265-UM","2018/10/15 16:19:15","新北市三重區河邊北街311號","121.50247","25.074845","6500200","三重區"
"241016","266-UM","2018/10/15 16:19:17","新北市三重區大仁街35號","121.492958333333","25.06531","6500200","三重區"
"241009","267-UM","2018/10/15 16:19:18","新北市三重區溪尾街188號","121.488321666667","25.0809383333333","6500200","三重區"
"241018","268-UM","2018/10/15 16:19:18","新北市三重區重陽路三段142-1號","121.4894","25.0670983333333","6500200","三重區"
"241032","269-UM","2018/10/15 16:19:13","新北市三重區三陽路100巷3弄15號","121.482903333333","25.05821","6500200","三重區"
"241013","270-UM","2018/10/15 16:19:07","新北市三重區仁愛街67號","121.496233333333","25.0727116666667","6500200","三重區"
"241025","271-UM","2018/10/15 16:19:18","新北市三重區中正北路560巷100弄17-1號","121.472665","25.0682666666667","6500200","三重區"
"241007","398-BY","2018/10/15 16:19:22","新北市三重區三和路四段163巷64號","121.486626666667","25.0796066666667","6500200","三重區"
"241020","478-VK","2018/10/15 16:19:10","新北市三重區車路頭街17巷11號","121.484468333333","25.0705416666667","6500200","三重區"
"241014","543-UM","2018/10/15 16:19:16","新北市三重區河邊北街96-1號","121.504015","25.0699433333333","6500200","三重區"
"241023","545-UM","2018/10/15 16:18:47","新北市三重區忠孝路二段148號","121.482503333333","25.0681516666667","6500200","三重區"
"241001","547-UM","2018/10/15 16:19:22","新北市三重區仁愛街367號","121.491793333333","25.0800683333333","6500200","三重區"
"241006","AAD-863","2018/10/15 16:19:11","新北市三重區力行路二段162巷53號","121.481121666667","25.0764816666667","6500200","三重區"
"241002","887-TS","2018/10/15 16:19:16","新北市三重區仁義街91號","121.499756666667","25.07956","6500200","三重區"
"241033","AAC-255","2018/10/15 16:19:26","新北市三重區重新路五段440號","121.474905","25.0472883333333","6500200","三重區"
"235026","800-TS","2018/10/15 16:19:24","新北市中和區永和路163號","121.492691666667","25.0073933333333","6500300","中和區"
"224007","272-VK","2018/10/15 16:19:28","新北市瑞芳區大埔路132-4號","121.761686666667","25.1005683333333","6501200","瑞芳區"
"224005","271-BY","2018/10/15 16:19:12","新北市瑞芳區中正路2號","121.809388333333","25.1071","6501200","瑞芳區"
"227001","642-TC","2018/10/15 16:19:17","新北市雙溪區上林里內平林82-1號","121.828471666667","25.0279933333333","6502500","雙溪區"
"227008","400-TW","2018/10/15 16:19:25","新北市雙溪區三港里雙澳路80號","121.883818333333","25.053875","6502500","雙溪區"
"251013","KEA-2871","2018/10/15 16:19:17","新北市淡水區新市一路三段151號","121.448413333333","25.1835333333333","6501000","淡水區"
"251008","181-VK","2018/10/15 16:18:56","新北市淡水區中正東路36-1號","121.449128333333","25.16588","6501000","淡水區"
"236029","253-BX","2018/10/15 16:19:16","新北市土城區自由街4號","121.421126666667","24.9664633333333","6501300","土城區"
"236060","915-UM","2018/10/15 16:19:21","新北市樹林區育德街113號","121.38964","24.968245","6501300","土城區"
"238002","755-BX","2018/10/15 16:19:10","新北市樹林區中山路三段88號","121.393393333333","24.9723133333333","6500700","樹林區"
"238011","5061-A6","2018/10/15 16:19:15","新北市樹林區中山路三段166號","121.38925","24.9702233333333","6500700","樹林區"
"238025","303-VK","2018/10/15 16:12:08","新北市樹林區中正路17號","121.427836666667","24.999245","6500700","樹林區"
"238004","283-BY","2018/10/15 16:19:13","新北市樹林區中正路433-2號","121.4148","25.0082433333333","6500700","樹林區"
"220050","245-BX","2018/10/15 16:19:21","新北市八里區中山路三段195號","121.383605","25.1408533333333","6500100","板橋區"
"220052","561-BX","2018/10/15 16:19:13","新北市八里區下罟子30-35號","121.367381666667","25.13515","6500100","板橋區"
"220005","686-BX","2018/10/15 16:19:21","新北市板橋區大觀路二段266號","121.448676666667","24.9971266666667","6500100","板橋區"
"220022","895-R6","2018/10/15 16:19:15","新北市板橋區篤行路二段3-3號","121.431831666667","24.993425","6500100","板橋區"
