"lineid","car","time","location","longitude","latitude","cityid","cityname"
"249005","172-UM","2018/10/15 16:39:13","新北市八里區挖子尾街6號","121.415426666667","25.1641733333333","6502300","八里區"
"241011","013-R5","2018/10/15 16:39:23","新北市三重區仁愛街43巷21號","121.497598333333","25.0719466666667","6500200","三重區"
"241028","022-UY","2018/10/15 16:39:27","新北市三重區重新路三段82號","121.493141666667","25.060935","6500200","三重區"
"241022","060-VK","2018/10/15 16:39:12","新北市三重區新北大道一段86巷7號","121.485803333333","25.0619066666667","6500200","三重區"
"241031","061-VK","2018/10/15 16:39:15","新北市三重區重新路四段41巷24號","121.487361666667","25.0584366666667","6500200","三重區"
"241015","062-VK","2018/10/15 16:39:17","新北市三重區信義街1號","121.499318333333","25.0647566666667","6500200","三重區"
"241017","063-VK","2018/10/15 16:39:12","新北市三重區中正北路25巷9號","121.492691666667","25.062155","6500200","三重區"
"241024","065-VK","2018/10/15 16:39:18","新北市三重區中正北路315巷6弄56號","121.475638333333","25.07243","6500200","三重區"
"241026","066-VK","2018/10/15 16:39:11","新北市三重區和平街45號","121.501648333333","25.0625716666667","6500200","三重區"
"241003","091-VK","2018/10/15 16:39:09","新北市三重區五華街71巷3號","121.492745","25.08296","6500200","三重區"
"241012","265-UM","2018/10/15 16:39:14","新北市三重區仁興街4巷25號","121.499316666667","25.0737333333333","6500200","三重區"
"241016","266-UM","2018/10/15 16:39:16","新北市三重區大智街17-2號","121.494445","25.0654566666667","6500200","三重區"
"241009","267-UM","2018/10/15 16:39:18","新北市三重區三和路四段203巷34號","121.482838333333","25.079705","6500200","三重區"
"241018","268-UM","2018/10/15 16:39:18","新北市三重區正義北路338巷50號","121.493056666667","25.0702216666667","6500200","三重區"
"241032","269-UM","2018/10/15 16:39:13","新北市三重區新北大道一段57巷1號","121.485445","25.06122","6500200","三重區"
"241013","270-UM","2018/10/15 16:39:27","新北市三重區三和路三段101巷66號","121.496311666667","25.07309","6500200","三重區"
"241025","271-UM","2018/10/15 16:39:18","新北市三重區中正北路426號","121.474648333333","25.0707116666667","6500200","三重區"
"241007","398-BY","2018/10/15 16:39:22","新北市三重區三和路四段167巷57號","121.485633333333","25.0795533333333","6500200","三重區"
"241020","478-VK","2018/10/15 16:39:10","新北市三重區車路頭街51巷8號","121.48474","25.0724583333333","6500200","三重區"
"241030","480-VK","2018/10/15 16:39:24","新北市三重區成功路50巷56號","121.487838333333","25.0495166666667","6500200","三重區"
"241014","543-UM","2018/10/15 16:39:16","新北市三重區龍濱路28號","121.502913333333","25.068025","6500200","三重區"
"241023","545-UM","2018/10/15 16:39:07","新北市三重區忠孝路三段50巷43號","121.48284","25.0643633333333","6500200","三重區"
"241001","547-UM","2018/10/15 16:39:13","新北市三重區仁政街95號","121.492491666667","25.0778566666667","6500200","三重區"
"241006","AAD-863","2018/10/15 16:39:11","新北市三重區力行路二段136巷23弄35號","121.4813","25.0763366666667","6500200","三重區"
"241008","743-BX","2018/10/15 16:35:58","新北市三重區永安北路一段33巷27號","121.477403333333","25.0758266666667","6500200","三重區"
"241002","887-TS","2018/10/15 16:39:16","新北市三重區自強路五段109號","121.495855","25.0822933333333","6500200","三重區"
"241033","AAC-255","2018/10/15 16:39:06","新北市三重區光復路二段43號","121.472153333333","25.0553683333333","6500200","三重區"
"247011","KEA-2869","2018/10/15 16:39:07","新北市五股區中興路三段163號","121.449161666667","25.08073","6501400","蘆洲區"
"235026","800-TS","2018/10/15 16:39:24","新北市中和區建八路139巷9弄1號","121.490111666667","24.9996066666667","6500300","中和區"
"247008","336-TH","2018/10/15 16:39:23","新北市五股區中興路三段163號","121.447736666667","25.0800883333333","6501400","蘆洲區"
"247010","056-VK","2018/10/15 16:39:18","新北市五股區中興路三段163號","121.449145","25.0807466666667","6501400","蘆洲區"
"228002","663-BX","2018/10/15 16:39:26","新北市貢寮區貢寮里朝陽街20號","121.911445","25.021545","6502600","貢寮區"
"224006","676-BX","2018/10/15 16:39:19","新北市瑞芳區大寮路356-1號","121.78459","25.1032233333333","6501200","瑞芳區"
"224009","273-VK","2018/10/15 16:39:20","新北市瑞芳區中山路265號","121.797153333333","25.1098516666667","6501200","瑞芳區"
"224007","272-VK","2018/10/15 16:39:11","新北市瑞芳區中央路49巷18號","121.762961666667","25.1026666666667","6501200","瑞芳區"
"224005","271-BY","2018/10/15 16:39:19","新北市瑞芳區瑞濱路1-8號","121.82809","25.1215516666667","6501200","瑞芳區"
"227001","642-TC","2018/10/15 16:39:17","新北市雙溪區外柑里外柑腳56號","121.807946666667","25.0178533333333","6502500","雙溪區"
"227008","400-TW","2018/10/15 16:39:25","新北市雙溪區牡丹里中正路59號","121.865936666667","25.0409616666667","6502500","雙溪區"
"251013","KEA-2871","2018/10/15 16:39:17","新北市淡水區楓樹湖13號","121.498848333333","25.1877283333333","6501000","淡水區"
"251008","181-VK","2018/10/15 16:39:08","新北市淡水區民生路169號","121.469688333333","25.1421516666667","6501000","淡水區"
"252002","178-VK","2018/10/15 16:39:12","新北市三芝區芝柏二街2號","121.511596666667","25.2561233333333","6502100","三芝區"
"238011","5061-A6","2018/10/15 16:31:04","新北市樹林區鎮前街77-21號","121.424861666667","24.9901816666667","6500700","樹林區"
"238025","303-VK","2018/10/15 16:35:42","新北市樹林區中正路22-1號","121.42786","24.9994333333333","6500700","樹林區"
"238004","283-BY","2018/10/15 16:39:13","新北市樹林區中正路433-2號","121.414678333333","25.0083516666667","6500700","樹林區"
"239007","AAC-297","2018/10/15 16:39:15","新北市鶯歌區二甲路13-16號","121.345365","24.93513","6500800","鶯歌區"
"220050","245-BX","2018/10/15 16:39:21","新北市板橋區民生路三段267號","121.464383333333","25.02963","6500100","板橋區"
"220052","561-BX","2018/10/15 16:39:13","新北市板橋區文化路二段656號","121.48058","25.0396666666667","6500100","板橋區"
