"lineid","car","time","location","longitude","latitude","cityid","cityname"
"234026","9371-KE","2018/10/15 17:59:23","新北市永和區永和路一段41號","121.512741666667","25.006225","6500400","永和區"
"234010","9373-KE","2018/10/15 17:37:20","新北市永和區福和路1號","121.525646666667","25.00942","6500400","永和區"
"249005","172-UM","2018/10/15 17:59:13","新北市八里區荖阡坑路22-7號","121.399306666667","25.1359483333333","6502300","八里區"
"249001","173-UM","2018/10/15 17:59:23","新北市八里區龍米路二段37號","121.448341666667","25.1400283333333","6502300","八里區"
"249004","303-UY","2018/10/15 17:59:22","新北市八里區中山路一段1號","121.423166666667","25.15896","6502300","八里區"
"249002","305-UY","2018/10/15 17:59:11","新北市八里區龍米路一段257號","121.450701666667","25.1335483333333","6502300","八里區"
"249003","593-UM","2018/10/15 17:59:17","新北市八里區中山路二段96號","121.408033333333","25.1553033333333","6502300","八里區"
"248006","077-UY","2018/10/15 17:59:14","新北市五股區中興路二段83巷26-6號","121.45994","25.0753733333333","6501500","五股區"
"248008","095-VK","2018/10/15 17:59:13","新北市五股區更洲路18號","121.458248333333","25.078865","6501500","五股區"
"248018","225-UY","2018/10/15 17:59:09","新北市五股區中興路二段83巷26-6號","121.45997","25.07525","6501500","五股區"
"248012","655-BX","2018/10/15 17:59:19","新北市五股區中興路二段83巷26-3號","121.459986666667","25.0754433333333","6501500","五股區"
"248004","677-BX","2018/10/15 17:59:09","新北市五股區中興路二段83巷26號","121.45915","25.0756483333333","6501500","五股區"
"248002","678-BX","2018/10/15 17:59:12","新北市五股區中興路二段83巷26-6號","121.459936666667","25.0749916666667","6501500","五股區"
"248010","682-TV","2018/10/15 17:59:27","新北市五股區中興路二段163號","121.457611666667","25.0776616666667","6501500","五股區"
"232011","375-UM","2018/10/15 17:59:25","新北市坪林區北宜路八段216號","121.708628333333","24.9348283333333","6502000","坪林區"
"244023","069-UM","2018/10/15 17:59:15","新北市林口區隆林街101巷6號","121.38521","25.0743833333333","6501700","林口區"
"244007","080-UY","2018/10/15 17:59:26","新北市林口區林口路178號","121.387605","25.0826383333333","6501700","林口區"
"244019","403-UM","2018/10/15 17:59:24","新北市林口區文化一路一段24號","121.370215","25.0687","6501700","林口區"
"244017","485-VK","2018/10/15 17:59:11","新北市林口區忠孝路502號","121.370698333333","25.0701466666667","6501700","林口區"
"244009","656-BX","2018/10/15 17:59:21","新北市林口區竹林路606巷36號","121.385076666667","25.0830866666667","6501700","林口區"
"244021","657-BX","2018/10/15 17:59:15","新北市林口區新寮45-13號","121.404105","25.0648533333333","6501700","林口區"
"244011","701-TV","2018/10/15 17:59:23","新北市林口區中正路130號","121.393121666667","25.077245","6501700","林口區"
"244025","837-TS","2018/10/15 17:59:11","新北市林口區文化三路一段39巷189號","121.359378333333","25.0682833333333","6501700","林口區"
"222003","436-BY","2018/10/15 17:59:10","新北市深坑區炮子崙24號","121.60482","24.987195","6501800","深坑區"
"222002","659-BX","2018/10/15 17:59:12","新北市深坑區深坑街35號","121.616071666667","25.0018116666667","6501800","深坑區"
"231054","KEA-2219","2018/10/15 17:59:12","新北市新店區安一路一段1-1號","121.519935","24.961175","6500600","新店區"
"231058","3713-VJ","2018/10/15 17:59:25","新北市新店區安華路28-1號","121.519166666667","24.9606383333333","6500600","新店區"
"231043","899-TW","2018/10/15 17:59:16","新北市新店區安康路一段359-27號","121.517215","24.9605033333333","6500600","新店區"
"231055","AKT-0513","2018/10/15 17:59:18","新北市新店區安華路28-1號","121.519605","24.960515","6500600","新店區"
"241011","013-R5","2018/10/15 17:59:23","新北市三重區光復路二段129巷2號","121.474738333333","25.0595183333333","6500200","三重區"
"241015","062-VK","2018/10/15 17:59:17","新北市三重區頂崁街23號","121.475996666667","25.0573066666667","6500200","三重區"
"251014","742-BX","2018/10/15 17:59:25","新北市淡水區南平6-1號","121.480838333333","25.2236633333333","6501000","淡水區"
"241016","266-UM","2018/10/15 17:59:16","新北市五股區五工一路107號","121.457148333333","25.0703716666667","6500200","三重區"
"241024","KEA-2210","2018/10/15 17:59:16","新北市三重區國道路一段42號","121.483233333333","25.0730566666667","6500200","三重區"
"241001","547-UM","2018/10/15 17:59:12","新北市林口區太平里180號","121.367028333333","25.1336666666667","6500200","三重區"
"241033","AAC-255","2018/10/15 17:59:26","新北市三重區重新路五段625號","121.467848333333","25.0440916666667","6500200","三重區"
"235064","005-UY","2018/10/15 17:59:17","新北市中和區員山路36巷16-3號","121.485106666667","24.99141","6500300","中和區"
"235063","006-UY","2018/10/15 17:59:23","新北市中和區員山路36巷16-3號","121.484931666667","24.991385","6500300","中和區"
"235038","185-VK","2018/10/15 17:59:16","新北市中和區中正路305號","121.492463333333","24.9939433333333","6500300","中和區"
"235067","255-BX","2018/10/15 17:59:19","新北市中和區和城路一段271巷1號","121.485726666667","24.9917566666667","6500300","中和區"
"235042","KEA-2878","2018/10/15 17:59:24","新北市中和區和城路一段271巷1號","121.485385","24.9917266666667","6500300","中和區"
"247012","KEA-2869","2018/10/15 17:59:27","新北市蘆洲區民族路167巷2弄2號","121.4789","25.088215","6501400","蘆洲區"
"235054","640-BX","2018/10/15 17:59:20","新北市中和區員山路36巷16-2號","121.485045","24.991865","6500300","中和區"
"235071","783-BX","2018/10/15 17:59:14","新北市中和區員山路36巷16-3號","121.485208333333","24.9912433333333","6500300","中和區"
"235057","801-TS","2018/10/15 17:59:12","新北市中和區員山路36巷16-2號","121.485166666667","24.991435","6500300","中和區"
"235052","805-TS","2018/10/15 17:59:21","新北市中和區員山路36巷13號","121.484313333333","24.9914716666667","6500300","中和區"
"235053","900-TW","2018/10/15 17:59:23","新北市中和區員山路36巷16-3號","121.484951666667","24.991735","6500300","中和區"
"235051","157-BY","2018/10/15 17:59:17","新北市中和區員山路36巷12號","121.484038333333","24.9907716666667","6500300","中和區"
"235037","AAC-213","2018/10/15 17:59:25","新北市中和區錦和路350-1號","121.490266666667","24.9935783333333","6500300","中和區"
"247002","893-R6","2018/10/15 17:59:20","新北市蘆洲區永平街32巷57弄18號","121.459151666667","25.0933016666667","6501400","蘆洲區"
"247016","546-UM","2018/10/15 17:59:23","新北市蘆洲區中正路185巷78弄1號","121.466121666667","25.0842716666667","6501400","蘆洲區"
"247024","500-BY","2018/10/15 17:59:23","新北市蘆洲區光復路30巷16號","121.463716666667","25.0842933333333","6501400","蘆洲區"
"247014","339-TH","2018/10/15 17:59:18","新北市蘆洲區復興路11號","121.472035","25.085325","6501400","蘆洲區"
"247006","337-TH","2018/10/15 17:59:23","新北市蘆洲區長榮路197號","121.461135","25.0845316666667","6501400","蘆洲區"
"247020","057-VK","2018/10/15 17:59:09","新北市蘆洲區民權路188-3號","121.471475","25.0907666666667","6501400","蘆洲區"
"247010","056-VK","2018/10/15 17:59:17","新北市蘆洲區三民路26巷2弄2號","121.476041666667","25.0826216666667","6501400","蘆洲區"
"226004","312-R5","2018/10/15 17:59:20","新北市平溪區石底里公園街18-3號","121.733275","25.025775","6502400","平溪區"
"228002","663-BX","2018/10/15 17:59:21","新北市貢寮區福連里香蘭街5號","121.972966666667","25.0244533333333","6502600","貢寮區"
"228001","670-TC","2018/10/15 17:59:13","新北市貢寮區仁理村仁愛路106巷36號","121.929143333333","25.0538","6502600","貢寮區"
"224006","676-BX","2018/10/15 17:59:19","新北市瑞芳區大寮路356-1號","121.784878333333","25.103225","6501200","瑞芳區"
"224002","639-TC","2018/10/15 17:59:24","新北市瑞芳區三爪子坑路32巷132號","121.809361666667","25.1059283333333","6501200","瑞芳區"
"224008","285-BY","2018/10/15 17:59:10","新北市瑞芳區明燈路一段45巷61-5號","121.821816666667","25.1051083333333","6501200","瑞芳區"
"224009","273-VK","2018/10/15 17:59:17","新北市瑞芳區金光路115號","121.853636666667","25.10627","6501200","瑞芳區"
"224005","271-BY","2018/10/15 17:59:11","新北市瑞芳區深澳路12-3號","121.819171666667","25.1307633333333","6501200","瑞芳區"
"227001","642-TC","2018/10/15 17:39:41","新北市雙溪區共和里東榮街52號","121.866285","25.0336783333333","6502500","雙溪區"
"253006","032-BX","2018/10/15 17:59:22","新北市石門區大丘田45-2號","121.549775","25.2748333333333","6502200","石門區"
"253005","295-VK","2018/10/15 17:59:28","新北市石門區中山路62-11號","121.567556666667","25.28965","6502200","石門區"
"222001","KEA-2212","2018/10/15 17:59:17","新北市深坑區北深路三段20號","121.609431666667","25.0010583333333","6501800","深坑區"
"208002","KEA-2872","2018/10/15 17:59:27","新北市金山區三界壇路52號","121.62285","25.22923","6502700","金山區"
"208003","665-BX","2018/10/15 17:59:21","新北市金山區磺港里磺港路314號","121.644745","25.22774","6502700","金山區"
"208001","761-BX","2018/10/15 17:59:23","新北市金山區磺港里青年路1號","121.639735","25.2254716666667","6502700","金山區"
"251009","008-UM","2018/10/15 17:59:15","新北市淡水區大仁街6巷1號","121.44243","25.1745916666667","6501000","淡水區"
"251005","010-UM","2018/10/15 17:59:26","新北市淡水區英專路120號","121.44588","25.17244","6501000","淡水區"
"251013","KEA-2871","2018/10/15 17:59:17","新北市淡水區泉洲厝31號","121.479573333333","25.1910566666667","6501000","淡水區"
"251016","179-VK","2018/10/15 17:59:19","新北市淡水區埤島30-12號","121.447808333333","25.19828","6501000","淡水區"
"251015","180-VK","2018/10/15 17:59:08","新北市淡水區興福寮88巷1號","121.485241666667","25.164875","6501000","淡水區"
"251008","181-VK","2018/10/15 17:59:08","新北市淡水區八勢一街32巷3號","121.461783333333","25.1558416666667","6501000","淡水區"
"251010","413-VK","2018/10/15 17:59:27","新北市淡水區中正路一段87巷1號","121.421766666667","25.179125","6501000","淡水區"
"251012","441-VK","2018/10/15 17:59:20","新北市淡水區北新路三段40號","121.484345","25.1872533333333","6501000","淡水區"
"251007","442-VK","2018/10/15 17:59:23","新北市淡水區中正東路二段161巷11弄10號","121.461466666667","25.1460716666667","6501000","淡水區"
"251004","443-VK","2018/10/15 17:59:24","新北市淡水區民權路20號","121.45959","25.1380116666667","6501000","淡水區"
"251001","559-UM","2018/10/15 17:59:20","新北市淡水區民權路94巷1號","121.46315","25.124935","6501000","淡水區"
"251006","561-UM","2018/10/15 17:59:09","新北市淡水區真理街2-1號","121.438596666667","25.1729433333333","6501000","淡水區"
"251011","650-BX","2018/10/15 17:59:29","新北市淡水區三空泉9號","121.475423333333","25.1628616666667","6501000","淡水區"
"251002","672-BX","2018/10/15 17:59:26","新北市淡水區中正東路6號","121.447141666667","25.167245","6501000","淡水區"
"251003","766-UM","2018/10/15 17:59:23","新北市淡水區大忠街47號","121.444733333333","25.1763766666667","6501000","淡水區"
"207003","550-UM","2018/10/15 17:59:25","新北市萬里區港東路野柳風景區攤販54號","121.691568333333","25.2058983333333","6502800","萬里區"
"207004","225-TW","2018/10/15 17:59:19","新北市萬里區中幅里中福路48號","121.683378333333","25.174115","6502800","萬里區"
"252002","178-VK","2018/10/15 17:59:11","新北市三芝區中山路二段29號","121.502786666667","25.2553416666667","6502100","三芝區"
"252001","292-VK","2018/10/15 17:59:25","新北市三芝區中興街二段2號","121.498405","25.2566566666667","6502100","三芝區"
"237004","KEA-2597","2018/10/15 17:59:22","新北市三峽區中園街213號","121.366996666667","24.9203866666667","6500900","三峽區"
"237007","153-BY","2018/10/15 17:59:08","新北市三峽區中園街88號","121.36745","24.9238383333333","6500900","三峽區"
"237009","210-TH","2018/10/15 17:59:10","新北市三峽區文化路266-13號","121.366038333333","24.9357633333333","6500900","三峽區"
"237013","252-BX","2018/10/15 17:59:08","新北市三峽區介壽路一段71-1號","121.3758","24.93241","6500900","三峽區"
"237012","275-BY","2018/10/15 17:59:22","新北市三峽區民生街27巷28號","121.375908333333","24.935935","6500900","三峽區"
"237008","302-VK","2018/10/15 17:59:19","新北市三峽區正義街138號","121.368491666667","24.9166366666667","6500900","三峽區"
"237014","433-BY","2018/10/15 17:59:26","新北市三峽區復興路101巷1弄79號","121.370998333333","24.9376566666667","6500900","三峽區"
"237006","5529-G3","2018/10/15 17:59:10","新北市三峽區介壽路二段138巷26號","121.3943","24.933195","6500900","三峽區"
"237015","649-BX","2018/10/15 17:59:20","新北市三峽區紫微路139號","121.407113333333","24.9115083333333","6500900","三峽區"
"237010","706-TV","2018/10/15 17:59:27","新北市三峽區民權街132號","121.368545","24.9319633333333","6500900","三峽區"
"237005","AKY-6261","2018/10/15 17:59:27","新北市三峽區復興路235號","121.36819","24.9387583333333","6500900","三峽區"
"236069","105-UM","2018/10/15 17:59:12","新北市土城區城林路6巷80號","121.438451666667","24.9797366666667","6501300","土城區"
"236042","107-UM","2018/10/15 17:59:06","新北市土城區城林路6巷80號","121.43857","24.9797683333333","6501300","土城區"
"236078","166-UM","2018/10/15 17:59:11","新北市土城區永寧路32巷10弄3號","121.428883333333","24.96101","6501300","土城區"
"236030","253-BX","2018/10/15 17:59:14","新北市土城區城林路6巷80號","121.438695","24.9796683333333","6501300","土城區"
"236026","269-VK","2018/10/15 17:59:15","新北市土城區承天路18號","121.439381666667","24.9635183333333","6501300","土城區"
"236014","270-VK","2018/10/15 17:59:26","新北市土城區城林路6巷80號","121.438478333333","24.9795983333333","6501300","土城區"
"236039","271-VK","2018/10/15 17:59:14","新北市土城區城林路6巷80號","121.438451666667","24.9797566666667","6501300","土城區"
"236059","912-UM","2018/10/15 17:59:23","新北市土城區中央路三段250號","121.427658333333","24.9641616666667","6501300","土城區"
"236048","913-UM","2018/10/15 17:59:09","新北市土城區中央路二段276-1號","121.440783333333","24.9742866666667","6501300","土城區"
"236063","915-UM","2018/10/15 17:59:20","新北市土城區城林路6巷80號","121.438558333333","24.9795983333333","6501300","土城區"
"242036","AAC-296","2018/10/15 17:59:28","新北市新莊區建福路38號","121.426453333333","25.0283333333333","6500500","新莊區"
"242058","986-R7","2018/10/15 17:59:22","新北市新莊區壽山路160巷21號","121.417426666667","25.0319316666667","6500500","新莊區"
"242009","751-BX","2018/10/15 17:59:19","新北市新莊區中華路二段260號","121.452613333333","25.0531833333333","6500500","新莊區"
"242027","705-TV","2018/10/15 17:59:16","新北市新莊區思源路391號","121.459885","25.0515733333333","6500500","新莊區"
"242025","613-BX","2018/10/15 17:59:26","新北市新莊區五工路58號","121.458786666667","25.062835","6500500","新莊區"
"242029","612-BX","2018/10/15 17:59:18","新北市新莊區中平路110巷11號","121.445631666667","25.0459816666667","6500500","新莊區"
"242044","566-BX","2018/10/15 17:59:21","新北市新莊區雙鳳路80號","121.415","25.0277116666667","6500500","新莊區"
"242048","497-BY","2018/10/15 17:59:16","新北市新莊區後港二路10號","121.422818333333","25.02403","6500500","新莊區"
"242015","442-UM","2018/10/15 17:59:17","新北市新莊區中平路87巷3號","121.44432","25.045655","6500500","新莊區"
"242053","441-UM","2018/10/15 17:59:24","新北市新莊區光華街20號","121.428695","25.0110016666667","6500500","新莊區"
"242046","400-BY","2018/10/15 17:59:22","新北市新莊區福營路165巷16號","121.432448333333","25.0303583333333","6500500","新莊區"
"242023","362-BY","2018/10/15 17:59:27","新北市新莊區福壽街65號","121.458218333333","25.049315","6500500","新莊區"
"242060","353-BY","2018/10/15 17:59:22","新北市新莊區新樹路262號","121.432756666667","25.014695","6500500","新莊區"
"242011","132-UY","2018/10/15 17:59:23","新北市新莊區中港路687號","121.450685","25.0565316666667","6500500","新莊區"
"242042","133-UY","2018/10/15 17:59:15","新北市新莊區中正路723-9號","121.423025","25.0290683333333","6500500","新莊區"
"242034","135-UY","2018/10/15 17:59:23","新北市新莊區景德路384號","121.446148333333","25.033545","6500500","新莊區"
"242050","172-VK","2018/10/15 17:59:13","新北市新莊區西盛街169號","121.428315","25.0175133333333","6500500","新莊區"
"242013","173-VK","2018/10/15 17:59:19","新北市新莊區幸福路819號","121.445508333333","25.048945","6500500","新莊區"
"242019","175-VK","2018/10/15 17:59:14","新北市新莊區明中街30號","121.457361666667","25.0394516666667","6500500","新莊區"
"242007","176-VK","2018/10/15 17:59:24","新北市新莊區自信街67號","121.455445","25.0482883333333","6500500","新莊區"
"242017","346-TH","2018/10/15 17:59:14","新北市新莊區中和街60巷7號","121.44833","25.0447983333333","6500500","新莊區"
"242002","347-TH","2018/10/15 17:59:17","新北市新莊區大觀街42巷5號","121.454245","25.035835","6500500","新莊區"
"242031","348-TH","2018/10/15 17:59:09","新北市新莊區新泰路300號","121.445408333333","25.0409983333333","6500500","新莊區"
"242004","349-TH","2018/10/15 17:59:11","新北市新莊區環河路48-7號","121.436981666667","25.01024","6500500","新莊區"
"242021","350-TH","2018/10/15 17:59:10","新北市新莊區建興街32號","121.450053333333","25.03725","6500500","新莊區"
"238015","755-BX","2018/10/15 17:59:14","新北市樹林區文德街2巷17號","121.41972","24.9917633333333","6500700","樹林區"
"238023","601-UM","2018/10/15 17:59:10","新北市樹林區龍興街33號","121.403096666667","25.0158583333333","6500700","樹林區"
"238019","599-UM","2018/10/15 17:59:26","新北市樹林區八德街225號","121.421613333333","24.9794816666667","6500700","樹林區"
"238018","571-TV","2018/10/15 17:59:17","新北市樹林區樹新路122號","121.430051666667","24.9983366666667","6500700","樹林區"
"238024","5061-A6","2018/10/15 17:59:26","新北市樹林區中山路三段107號","121.399756666667","24.9745783333333","6500700","樹林區"
"238022","KEA-2213","2018/10/15 17:59:18","新北市樹林區國凱街21-1號","121.419013333333","24.9782666666667","6500700","樹林區"
"238021","KEA-2539","2018/10/15 17:59:10","新北市樹林區田尾街56-1號","121.40917","24.96024","6500700","樹林區"
"238025","303-VK","2018/10/15 17:59:09","新北市樹林區三俊街71-2號","121.415035","25.015535","6500700","樹林區"
"238017","283-BY","2018/10/15 17:59:13","新北市樹林區中正路644號","121.409913333333","25.0162066666667","6500700","樹林區"
"238014","282-BY","2018/10/15 17:59:18","新北市樹林區大安路121號","121.422348333333","24.9976816666667","6500700","樹林區"
"238020","268-VK","2018/10/15 17:59:26","新北市樹林區三俊街173號","121.419418333333","25.0155916666667","6500700","樹林區"
"238026","172-UY","2018/10/15 17:59:18","新北市樹林區中洲街30巷13弄15號","121.398058333333","24.971955","6500700","樹林區"
"238016","169-UY","2018/10/15 17:58:53","新北市樹林區育英街137號","121.419605","24.9891266666667","6500700","樹林區"
"239007","AAC-297","2018/10/15 17:59:15","新北市鶯歌區尖山埔路114號","121.344193333333","24.950205","6500800","鶯歌區"
"239006","891-R6","2018/10/15 17:59:18","新北市鶯歌區鶯桃路455巷10弄10號","121.33117","24.9641033333333","6500800","鶯歌區"
"239008","527-UM","2018/10/15 17:59:27","新北市鶯歌區朝陽街46巷7號","121.336785","24.9777783333333","6500800","鶯歌區"
"239005","526-UM","2018/10/15 17:59:19","新北市鶯歌區鶯桃路668巷74-1號","121.330323333333","24.9720566666667","6500800","鶯歌區"
"239001","417-VK","2018/10/15 17:59:26","新北市鶯歌區中正三路234-4號","121.33064","24.93705","6500800","鶯歌區"
"239003","360-BY","2018/10/15 17:59:11","新北市鶯歌區永吉街11巷1號","121.33637","24.9581466666667","6500800","鶯歌區"
"239002","359-BY","2018/10/15 17:59:21","新北市鶯歌區光明街46號","121.348053333333","24.95606","6500800","鶯歌區"
"221008","489-VK","2018/10/15 17:59:25","新北市汐止區明峰街19號","121.634641666667","25.0714183333333","6501100","汐止區"
"221036","130-UY","2018/10/15 17:59:19","新北市汐止區大同路三段116號","121.672183333333","25.0766866666667","6501100","汐止區"
"221010","269-BY","2018/10/15 17:59:17","新北市汐止區汐萬路二段245巷56號","121.645316666667","25.0875616666667","6501100","汐止區"
"221012","278-VK","2018/10/15 17:59:12","新北市汐止區長興街二段50巷1號","121.674121666667","25.0816933333333","6501100","汐止區"
"221023","279-VK","2018/10/15 17:59:12","新北市汐止區明峰街129-3號","121.63018","25.070765","6501100","汐止區"
"221032","280-BY","2018/10/15 17:59:27","新北市汐止區橫科路73巷2-2號","121.619393333333","25.050735","6501100","汐止區"
"221027","281-BY","2018/10/15 17:59:28","新北市汐止區大同路二段374號","121.657848333333","25.0671666666667","6501100","汐止區"
"221029","298-VK","2018/10/15 17:59:17","新北市汐止區樟樹二路336號","121.641511666667","25.0704466666667","6501100","汐止區"
"221021","299-VK","2018/10/15 17:59:16","新北市汐止區新興路12號","121.656311666667","25.0647316666667","6501100","汐止區"
"221031","353-TW","2018/10/15 17:59:29","新北市汐止區中興路161號","121.631008333333","25.0660766666667","6501100","汐止區"
"221025","623-UM","2018/10/15 17:59:15","新北市汐止區仁愛路10號","121.65942","25.0635466666667","6501100","汐止區"
"221038","646-BX","2018/10/15 17:59:22","新北市汐止區連興街128巷7弄8號","121.653428333333","25.0613583333333","6501100","汐止區"
"221033","647-BX","2018/10/15 17:59:18","新北市汐止區合順街27號","121.620295","25.0431616666667","6501100","汐止區"
"221002","707-TV","2018/10/15 17:59:25","新北市汐止區中興路31號","121.634763333333","25.0618383333333","6501100","汐止區"
"221018","753-BX","2018/10/15 17:59:09","新北市汐止區招商街11巷1號","121.666515","25.0688416666667","6501100","汐止區"
"242039","281-VK","2018/10/15 17:59:18","新北市新莊區民安路179號","121.425716666667","25.0232266666667","6500500","新莊區"
"242056","280-VK","2018/10/15 17:59:28","新北市新莊區豐年街124巷22號","121.44546","25.029915","6500500","新莊區"
"235061","KEA-2875","2018/10/15 17:59:20","新北市中和區員山路36巷16-2號","121.485333333333","24.9917266666667","6500300","中和區"
