"lineid","car","time","location","longitude","latitude","cityid","cityname"
"234007","207-UY","2018/10/15 18:19:21","新北市永和區保生路55號","121.50469","25.0099633333333","6500400","永和區"
"234042","862-TW","2018/10/15 18:19:16","新北市永和區福和路1號","121.52555","25.0094283333333","6500400","永和區"
"234026","9371-KE","2018/10/15 18:19:23","新北市永和區豫溪街28巷7號","121.515231666667","25.0095116666667","6500400","永和區"
"234011","9373-KE","2018/10/15 18:19:09","新北市永和區環河西路一段99號","121.511391666667","25.0178483333333","6500400","永和區"
"249005","172-UM","2018/10/15 18:19:13","新北市八里區荖阡坑路15-40號","121.401808333333","25.1398883333333","6502300","八里區"
"249001","173-UM","2018/10/15 18:19:23","新北市八里區龍米路一段135號","121.45206","25.1269683333333","6502300","八里區"
"249004","303-UY","2018/10/15 18:19:11","新北市八里區龍米路二段232巷3號","121.431548333333","25.1589816666667","6502300","八里區"
"249002","305-UY","2018/10/15 18:19:14","新北市八里區龍形二街33號","121.450391666667","25.132675","6502300","八里區"
"249003","593-UM","2018/10/15 18:19:17","新北市八里區松子腳4-3號","121.402995","25.1442566666667","6502300","八里區"
"248016","026-BX","2018/10/15 18:19:23","新北市五股區成泰路三段477巷18號","121.44991","25.09891","6501500","五股區"
"248006","077-UY","2018/10/15 18:19:15","新北市五股區中興路一段142-2號","121.464751666667","25.0738833333333","6501500","五股區"
"248008","095-VK","2018/10/15 18:19:13","新北市五股區更洲路32巷8弄14號","121.459263333333","25.07964","6501500","五股區"
"248018","225-UY","2018/10/15 18:19:29","新北市五股區御史路150號","121.431406666667","25.1023816666667","6501500","五股區"
"248014","261-SL","2018/10/15 18:19:15","新北市五股區自強路19巷5-1號","121.434598333333","25.0738133333333","6501500","五股區"
"248012","655-BX","2018/10/15 18:19:25","新北市五股區御史路9號","121.44181","25.0905516666667","6501500","五股區"
"248004","677-BX","2018/10/15 18:19:29","新北市五股區成泰路二段149號","121.439156666667","25.0855266666667","6501500","五股區"
"248002","678-BX","2018/10/15 18:19:12","新北市五股區西雲路45號","121.44341","25.0908666666667","6501500","五股區"
"248010","682-TV","2018/10/15 18:19:27","新北市五股區成泰路一段139巷2弄2號","121.435093333333","25.0729316666667","6501500","五股區"
"244023","069-UM","2018/10/15 18:19:15","新北市林口區東湖路153巷121號","121.382363333333","25.07297","6501700","林口區"
"244007","080-UY","2018/10/15 18:19:26","新北市林口區林口路296號","121.386273333333","25.085395","6501700","林口區"
"244019","403-UM","2018/10/15 18:19:24","新北市林口區忠孝路580巷16號","121.374991666667","25.0669083333333","6501700","林口區"
"244017","485-VK","2018/10/15 18:19:11","新北市林口區公園路17號","121.366673333333","25.0674366666667","6501700","林口區"
"244009","656-BX","2018/10/15 18:19:21","新北市林口區文林一街115巷20號","121.378905","25.0876866666667","6501700","林口區"
"244021","657-BX","2018/10/15 18:19:15","新北市林口區自強一街22號","121.398411666667","25.0780916666667","6501700","林口區"
"244011","701-TV","2018/10/15 18:19:24","新北市林口區仁愛路一段272巷18號","121.39327","25.0762633333333","6501700","林口區"
"244025","837-TS","2018/10/15 18:19:11","新北市林口區南勢二街85巷1號","121.35599","25.0697483333333","6501700","林口區"
"243013","AAD-798","2018/10/15 18:19:23","新北市泰山區錢厝坑13號","121.414853333333","25.0405483333333","6501600","泰山區"
"222003","436-BY","2018/10/15 18:19:11","新北市深坑區旺耽路67號","121.626161666667","25.003005","6501800","深坑區"
"222002","659-BX","2018/10/15 18:19:12","新北市深坑區雲鄉路1號","121.620973333333","24.9997133333333","6501800","深坑區"
"231059","001-UM","2018/10/15 18:19:28","新北市新店區安華路28-1號","121.51949","24.9609033333333","6500600","新店區"
"231001","047-UY","2018/10/15 18:19:11","新北市新店區安一路一段1-1號","121.519226666667","24.9610116666667","6500600","新店區"
"231052","108-UY","2018/10/15 18:19:22","新北市新店區安康路一段11號","121.5333","24.9603966666667","6500600","新店區"
"231047","187-VK","2018/10/15 18:19:22","新北市新店區安一路一段1-1號","121.519613333333","24.9612566666667","6500600","新店區"
"231054","KEA-2219","2018/10/15 18:19:12","新北市新店區安華路28-1號","121.519856666667","24.96095","6500600","新店區"
"231057","256-BX","2018/10/15 18:19:26","新北市新店區安一路一段1-1號","121.519651666667","24.9610933333333","6500600","新店區"
"231042","268-BY","2018/10/15 18:19:23","新北市新店區安華路28-1號","121.519386666667","24.960645","6500600","新店區"
"231051","278-BY","2018/10/15 18:19:12","新北市新店區安一路一段1-1號","121.5198","24.96122","6500600","新店區"
"231050","AAD-862","2018/10/15 18:19:10","新北市新店區安華路28-1號","121.519833333333","24.9610533333333","6500600","新店區"
"231061","355-BY","2018/10/15 18:19:23","新北市新店區安華路28-1號","121.519148333333","24.9609366666667","6500600","新店區"
"231058","3713-VJ","2018/10/15 18:19:25","新北市新店區安康路一段11號","121.533536666667","24.9604683333333","6500600","新店區"
"231066","4716-K9","2018/10/15 18:19:18","新北市新店區安一路一段1-1號","121.519418333333","24.9613666666667","6500600","新店區"
"231056","4715-K9","2018/10/15 18:19:08","新北市新店區中央路3號","121.533681666667","24.9788116666667","6500600","新店區"
"231065","512-UM","2018/10/15 18:19:29","新北市新店區安一路一段1-1號","121.519065","24.96136","6500600","新店區"
"231049","513-UM","2018/10/15 18:19:17","新北市新店區安一路一段1-1號","121.519625","24.9612366666667","6500600","新店區"
"231063","616-UM","2018/10/15 18:19:13","新北市新店區安華路28-1號","121.519506666667","24.9606383333333","6500600","新店區"
"231045","617-UM","2018/10/15 18:19:14","新北市新店區安華路28-1號","121.519536666667","24.96102","6500600","新店區"
"231044","618-UM","2018/10/15 18:19:13","新北市新店區安華路28-1號","121.519491666667","24.960935","6500600","新店區"
"231064","719-UM","2018/10/15 18:19:21","新北市新店區安一路一段1-1號","121.519553333333","24.9614583333333","6500600","新店區"
"231062","720-UM","2018/10/15 18:19:20","新北市新店區安一路一段1-1號","121.519396666667","24.9613266666667","6500600","新店區"
"231060","897-TW","2018/10/15 18:19:15","新北市新店區安華路28-1號","121.519588333333","24.96092","6500600","新店區"
"231043","899-TW","2018/10/15 18:19:16","新北市新店區安華路28-1號","121.519226666667","24.9609616666667","6500600","新店區"
"231055","AKT-0513","2018/10/15 18:19:18","新北市新店區北新路一段341號","121.541946666667","24.96884","6500600","新店區"
"241011","013-R5","2018/10/15 18:19:23","新北市林口區汕頭32號","121.366355","25.134905","6500200","三重區"
"241015","062-VK","2018/10/15 18:17:37","新北市八里區中山路三段323號","121.377763333333","25.1414933333333","6500200","三重區"
"251014","742-BX","2018/10/15 18:19:25","新北市淡水區崙頂14號","121.491175","25.2218116666667","6501000","淡水區"
"241024","KEA-2210","2018/10/15 18:19:16","新北市蘆洲區永安南路一段178號","121.475308333333","25.07475","6500200","三重區"
"241001","547-UM","2018/10/15 18:19:12","新北市八里區中山路三段305號","121.379256666667","25.13917","6500200","三重區"
"241033","AAC-255","2018/10/15 18:19:26","新北市三重區中興北街42巷56號","121.46774","25.0492916666667","6500200","三重區"
"235066","003-UY","2018/10/15 18:19:21","新北市中和區中山路二段119號","121.502815","25.0036666666667","6500300","中和區"
"235064","005-UY","2018/10/15 18:19:17","新北市中和區中正路122號","121.499718333333","24.9937783333333","6500300","中和區"
"235063","006-UY","2018/10/15 18:19:22","新北市中和區中正路571巷2弄11號","121.4862","24.9937383333333","6500300","中和區"
"235039","097-UM","2018/10/15 18:19:21","新北市中和區宜安路62號","121.51163","24.9970933333333","6500300","中和區"
"235065","098-UM","2018/10/15 18:19:25","新北市中和區莊敬路49巷18號","121.501756666667","25.0061316666667","6500300","中和區"
"235055","183-VK","2018/10/15 18:19:24","新北市中和區員山路82巷6-3號","121.481233333333","24.9935883333333","6500300","中和區"
"235038","185-VK","2018/10/15 18:19:24","新北市中和區大智街109巷5號","121.52329","24.992535","6500300","中和區"
"235067","255-BX","2018/10/15 18:19:19","新北市中和區和城路一段271巷1號","121.485705","24.9917483333333","6500300","中和區"
"235072","301-VK","2018/10/15 18:19:18","新北市中和區連城路261-4號","121.492256666667","24.99658","6500300","中和區"
"235043","352-BY","2018/10/15 18:19:25","新北市中和區景平路502號","121.504226666667","24.9935733333333","6500300","中和區"
"235042","KEA-2878","2018/10/15 18:19:24","新北市中和區景平路298號","121.512736666667","24.9925216666667","6500300","中和區"
"247012","KEA-2869","2018/10/15 18:19:27","新北市蘆洲區永安南路二段294號","121.45712","25.0817333333333","6501400","蘆洲區"
"235069","4980-A6","2018/10/15 18:19:26","新北市中和區連城路127巷32號","121.496826666667","24.9979466666667","6500300","中和區"
"235070","558-UM","2018/10/15 18:19:11","新北市中和區圓通路176-1號","121.497153333333","24.994515","6500300","中和區"
"235045","565-BX","2018/10/15 18:19:13","新北市中和區景安路200巷1弄2號","121.503745","24.9914916666667","6500300","中和區"
"235054","640-BX","2018/10/15 18:19:20","新北市中和區莒光路185號","121.472635","24.9990816666667","6500300","中和區"
"235047","732-UM","2018/10/15 18:19:11","新北市中和區中正路169號","121.498113333333","24.9937016666667","6500300","中和區"
"235046","733-UM","2018/10/15 18:19:24","新北市中和區中正路637巷60弄61號","121.485518333333","24.9931866666667","6500300","中和區"
"235071","783-BX","2018/10/15 18:19:14","新北市中和區員山路36巷16-3號","121.485246666667","24.9911733333333","6500300","中和區"
"235062","800-TS","2018/10/15 18:19:13","新北市中和區橋和路150號","121.493813333333","25.006135","6500300","中和區"
"235057","801-TS","2018/10/15 18:19:12","新北市中和區民安街133號","121.476035","24.9999166666667","6500300","中和區"
"235041","802-TS","2018/10/15 18:19:13","新北市中和區中正路501號","121.488848333333","24.9935383333333","6500300","中和區"
"235052","805-TS","2018/10/15 18:19:21","新北市中和區興南路二段5號","121.508043333333","24.9864016666667","6500300","中和區"
"235048","896-TW","2018/10/15 18:19:15","新北市中和區錦和路350-1號","121.490298333333","24.9935566666667","6500300","中和區"
"235053","900-TW","2018/10/15 18:19:23","新北市中和區中正路637巷52弄1號","121.485418333333","24.9936166666667","6500300","中和區"
"235060","911-UM","2018/10/15 18:19:14","新北市中和區連城路378號","121.481018333333","24.9952116666667","6500300","中和區"
"235051","157-BY","2018/10/15 18:19:17","新北市中和區忠孝街114號","121.51216","24.98551","6500300","中和區"
"235037","AAC-213","2018/10/15 18:19:25","新北市中和區景德街63號","121.517153333333","24.9914366666667","6500300","中和區"
"220065","072-UY","2018/10/15 18:19:11","新北市板橋區華東街1-9號","121.44815","24.9949316666667","6500100","板橋區"
"247002","893-R6","2018/10/15 18:19:20","新北市八里區商港路105巷15-1號","121.39159","25.149475","6501400","蘆洲區"
"247006","337-TH","2018/10/15 18:19:23","新北市林口區太平里180號","121.366435","25.1346033333333","6501400","蘆洲區"
"247010","056-VK","2018/10/15 18:19:17","新北市八里區商港路105巷15號","121.391258333333","25.1491566666667","6501400","蘆洲區"
"226004","312-R5","2018/10/15 18:19:20","新北市平溪區薯榔里雙菁路101號","121.71201","25.0198983333333","6502400","平溪區"
"228002","663-BX","2018/10/15 18:19:21","新北市貢寮區福連里福興街39-3號","121.993275","25.0127233333333","6502600","貢寮區"
"228001","670-TC","2018/10/15 18:19:13","新北市貢寮區真理里新港街26巷55弄2-1號","121.927371666667","25.052885","6502600","貢寮區"
"224006","676-BX","2018/10/15 18:19:19","新北市瑞芳區三爪子坑路106巷1-8號","121.808371666667","25.1052583333333","6501200","瑞芳區"
"224002","639-TC","2018/10/15 18:19:25","新北市瑞芳區三爪子坑路91巷46號","121.811976666667","25.1060633333333","6501200","瑞芳區"
"224008","285-BY","2018/10/15 18:19:10","新北市瑞芳區逢甲路15號","121.809815","25.1087083333333","6501200","瑞芳區"
"224007","275-VK","2018/10/15 18:19:13","新北市瑞芳區頂埔巷1弄2號","121.766076666667","25.10243","6501200","瑞芳區"
"224009","273-VK","2018/10/15 18:19:17","新北市瑞芳區五號路42號","121.855425","25.109765","6501200","瑞芳區"
"224005","271-BY","2018/10/15 18:19:11","新北市瑞芳區建基路二段9號","121.807478333333","25.13283","6501200","瑞芳區"
"227001","642-TC","2018/10/15 18:19:12","新北市雙溪區共和里中山路2號","121.863833333333","25.0338216666667","6502500","雙溪區"
"253006","032-BX","2018/10/15 18:19:22","新北市石門區老梅路78號","121.547018333333","25.2891733333333","6502200","石門區"
"253005","295-VK","2018/10/15 18:19:28","新北市石門區中央路29號","121.567966666667","25.2937366666667","6502200","石門區"
"222001","KEA-2212","2018/10/15 18:19:17","新北市深坑區北深路二段51號","121.618988333333","25.0039933333333","6501800","深坑區"
"208002","KEA-2872","2018/10/15 18:19:27","新北市金山區磺清路135號","121.639398333333","25.2273183333333","6502700","金山區"
"208003","665-BX","2018/10/15 18:19:21","新北市金山區民生路128號","121.647465","25.2236783333333","6502700","金山區"
"208001","761-BX","2018/10/15 18:19:23","新北市金山區民生路51巷1-2號","121.641863333333","25.2203483333333","6502700","金山區"
"251005","010-UM","2018/10/15 18:19:26","新北市淡水區水源街一段122巷37號","121.447051666667","25.1705183333333","6501000","淡水區"
"251013","KEA-2871","2018/10/15 18:19:17","新北市淡水區行忠路657號","121.470248333333","25.1991933333333","6501000","淡水區"
"251016","179-VK","2018/10/15 18:19:21","新北市淡水區淡金路三段228巷9號","121.449463333333","25.2049883333333","6501000","淡水區"
"251015","180-VK","2018/10/15 18:19:08","新北市淡水區興福寮88巷1號","121.485223333333","25.1649033333333","6501000","淡水區"
"251008","181-VK","2018/10/15 18:19:28","新北市淡水區淡金路12-3號","121.458268333333","25.1603683333333","6501000","淡水區"
"251010","413-VK","2018/10/15 18:19:27","新北市淡水區淡海路188號","121.420383333333","25.185035","6501000","淡水區"
"251012","441-VK","2018/10/15 18:19:20","新北市淡水區北新路二段77-5號","121.48054","25.1855483333333","6501000","淡水區"
"251007","442-VK","2018/10/15 18:19:23","新北市淡水區中正東路二段143巷2弄1號","121.460606666667","25.1473083333333","6501000","淡水區"
"251004","443-VK","2018/10/15 18:19:24","新北市淡水區民族路45號","121.462691666667","25.135355","6501000","淡水區"
"251001","559-UM","2018/10/15 18:19:20","新北市淡水區自立路1巷29號","121.462246666667","25.1292833333333","6501000","淡水區"
"251006","561-UM","2018/10/15 18:19:29","新北市淡水區新民街74號","121.43866","25.1764066666667","6501000","淡水區"
"251011","650-BX","2018/10/15 18:19:09","新北市淡水區坪頂路51巷2號","121.458171666667","25.162595","6501000","淡水區"
"251002","672-BX","2018/10/15 18:19:26","新北市淡水區中正東路一段77號","121.45276","25.1620866666667","6501000","淡水區"
"251003","766-UM","2018/10/15 18:19:23","新北市淡水區北新路180號","121.449448333333","25.1787166666667","6501000","淡水區"
"207003","550-UM","2018/10/15 18:19:25","新北市萬里區野柳里港東路6號","121.686466666667","25.2031583333333","6502800","萬里區"
"207004","225-TW","2018/10/15 18:19:19","新北市萬里區中幅里中福路125號","121.675886666667","25.16596","6502800","萬里區"
"252002","178-VK","2018/10/15 18:19:11","新北市三芝區中山路二段39號","121.502976666667","25.2551033333333","6502100","三芝區"
"252003","249-BX","2018/10/15 18:19:28","新北市三芝區錫板里南勢崗5-5號","121.480485","25.2629583333333","6502100","三芝區"
"252001","292-VK","2018/10/15 18:19:25","新北市三芝區中興街二段2號","121.498471666667","25.2566533333333","6502100","三芝區"
"237004","KEA-2597","2018/10/15 18:19:22","新北市三峽區圳頭40號","121.376306666667","24.8853583333333","6500900","三峽區"
"237007","153-BY","2018/10/15 18:19:28","新北市三峽區中正路二段530號","121.360763333333","24.9066466666667","6500900","三峽區"
"237009","210-TH","2018/10/15 18:19:30","新北市三峽區大勇路22-2號","121.36695","24.93772","6500900","三峽區"
"237013","252-BX","2018/10/15 18:19:28","新北市三峽區永安街68號","121.376165","24.9301716666667","6500900","三峽區"
"237012","275-BY","2018/10/15 18:18:22","新北市三峽區民生街19巷7弄10-1號","121.376601666667","24.935405","6500900","三峽區"
"237008","302-VK","2018/10/15 18:19:19","新北市三峽區白雞57-16號","121.390183333333","24.9114616666667","6500900","三峽區"
"237014","433-BY","2018/10/15 18:19:26","新北市三峽區復興路110巷2弄1號","121.372886666667","24.9381366666667","6500900","三峽區"
"237006","5529-G3","2018/10/15 18:19:30","新北市三峽區溪東路235號","121.406481666667","24.932595","6500900","三峽區"
"237015","649-BX","2018/10/15 18:19:20","新北市三峽區紫微路42-1號","121.422238333333","24.91993","6500900","三峽區"
"237010","706-TV","2018/10/15 18:19:27","新北市三峽區民族街15號","121.369291666667","24.930965","6500900","三峽區"
"237005","AKY-6261","2018/10/15 18:19:10","新北市三峽區清水街342號","121.37086","24.93371","6500900","三峽區"
"236069","105-UM","2018/10/15 18:19:12","新北市土城區明德路一段95號","121.465645","24.9831966666667","6501300","土城區"
"236042","107-UM","2018/10/15 18:19:26","新北市土城區裕民路3巷32號","121.448568333333","24.9865416666667","6501300","土城區"
"236078","166-UM","2018/10/15 18:19:11","新北市土城區中央路三段281巷23弄19號","121.426383333333","24.9615183333333","6501300","土城區"
"236030","253-BX","2018/10/15 18:19:29","新北市土城區順風路44號","121.440416666667","24.9769766666667","6501300","土城區"
"236026","269-VK","2018/10/15 18:19:15","新北市土城區承天路20號","121.439541666667","24.96336","6501300","土城區"
"236014","270-VK","2018/10/15 18:19:26","新北市土城區青雲路39巷7號","121.460303333333","24.9875166666667","6501300","土城區"
"236039","271-VK","2018/10/15 18:19:14","新北市土城區青雲路483巷9號","121.459395","24.9736366666667","6501300","土城區"
"236055","752-BX","2018/10/15 18:08:43","新北市土城區中華路二段92號","121.43826","24.9747433333333","6501300","土城區"
"236059","912-UM","2018/10/15 18:19:23","新北市土城區中央路四段464號","121.409918333333","24.950585","6501300","土城區"
"236048","913-UM","2018/10/15 18:19:29","新北市土城區明德路一段375-2號","121.454571666667","24.978295","6501300","土城區"
"236063","915-UM","2018/10/15 18:19:20","新北市土城區金城路二段266號","121.458465","24.98419","6501300","土城區"
"242036","AAC-296","2018/10/15 18:19:08","新北市新莊區民安路176號","121.425101666667","25.02389","6500500","新莊區"
"242058","986-R7","2018/10/15 18:19:22","新北市新莊區中正路897-10號","121.411593333333","25.0216483333333","6500500","新莊區"
"242009","751-BX","2018/10/15 18:19:19","新北市新莊區中華路二段27號","121.4537","25.046205","6500500","新莊區"
"242027","705-TV","2018/10/15 18:19:16","新北市新莊區幸福路818號","121.445523333333","25.049065","6500500","新莊區"
"242025","613-BX","2018/10/15 18:19:26","新北市新莊區五權一路12巷10號","121.457171666667","25.0645166666667","6500500","新莊區"
"242029","612-BX","2018/10/15 18:19:18","新北市新莊區新泰路357巷3弄57號","121.442208333333","25.0392933333333","6500500","新莊區"
"242044","566-BX","2018/10/15 18:19:21","新北市新莊區天泉二街26巷1號","121.414461666667","25.0256916666667","6500500","新莊區"
"242015","442-UM","2018/10/15 18:19:16","新北市新莊區中平路1號","121.444686666667","25.0428483333333","6500500","新莊區"
"242053","441-UM","2018/10/15 18:19:08","新北市新莊區新樹路663號","121.432556666667","25.0029633333333","6500500","新莊區"
"242046","400-BY","2018/10/15 18:19:28","新北市新莊區福營路334號","121.421783333333","25.0268683333333","6500500","新莊區"
"242060","353-BY","2018/10/15 18:19:17","新北市新莊區新樹路207-7號","121.435833333333","25.02389","6500500","新莊區"
"242011","132-UY","2018/10/15 18:19:20","新北市新莊區中信街87號","121.447865","25.053175","6500500","新莊區"
"242042","133-UY","2018/10/15 18:19:22","新北市新莊區雙鳳路120號","121.413325","25.028525","6500500","新莊區"
"242050","172-VK","2018/10/15 18:19:15","新北市新莊區民安西路44號","121.42741","25.0208866666667","6500500","新莊區"
"242007","176-VK","2018/10/15 18:19:24","新北市新莊區中華路二段82號","121.453728333333","25.0469583333333","6500500","新莊區"
"242017","346-TH","2018/10/15 18:19:14","新北市新莊區中平路82巷4號","121.445026666667","25.0448183333333","6500500","新莊區"
"242002","347-TH","2018/10/15 18:19:17","新北市新莊區碧江街18-7號","121.455433333333","25.0346116666667","6500500","新莊區"
"242031","348-TH","2018/10/15 18:19:09","新北市新莊區新泰路255巷64號","121.44356","25.0395016666667","6500500","新莊區"
"242004","349-TH","2018/10/15 18:19:11","新北市新莊區中港路288巷53號","121.454406666667","25.0451183333333","6500500","新莊區"
"242021","350-TH","2018/10/15 18:19:09","新北市新莊區中正路267號","121.449416666667","25.0353783333333","6500500","新莊區"
"238015","755-BX","2018/10/15 18:19:13","新北市樹林區文化街116巷12號","121.416626666667","24.9897066666667","6500700","樹林區"
"238023","601-UM","2018/10/15 18:19:23","新北市樹林區中正路787號","121.409653333333","25.0158466666667","6500700","樹林區"
"238019","599-UM","2018/10/15 18:19:26","新北市樹林區國凱街136巷27號","121.423753333333","24.9795216666667","6500700","樹林區"
"238018","571-TV","2018/10/15 18:19:17","新北市樹林區保安街一段20巷19號","121.427946666667","24.9941316666667","6500700","樹林區"
"238024","5061-A6","2018/10/15 18:19:26","新北市樹林區中山路一段135-4號","121.422385","24.9897283333333","6500700","樹林區"
"238021","KEA-2539","2018/10/15 18:19:16","新北市樹林區柑園街二段169號","121.380903333333","24.9534766666667","6500700","樹林區"
"238025","303-VK","2018/10/15 18:19:09","新北市樹林區保安街一段92號","121.42416","24.9947583333333","6500700","樹林區"
"238017","283-BY","2018/10/15 18:19:20","新北市樹林區保安街二段335號","121.412223333333","25.0078583333333","6500700","樹林區"
"238020","268-VK","2018/10/15 18:19:26","新北市樹林區三俊街21號","121.411881666667","25.01553","6500700","樹林區"
"238026","172-UY","2018/10/15 18:19:18","新北市樹林區佳園路一段41巷28弄14號","121.394683333333","24.9703716666667","6500700","樹林區"
"238016","169-UY","2018/10/15 18:19:12","新北市樹林區文化街28號","121.419291666667","24.9876883333333","6500700","樹林區"
"239007","AAC-297","2018/10/15 18:19:15","新北市鶯歌區文昌街27-9號","121.349668333333","24.9517316666667","6500800","鶯歌區"
"239006","891-R6","2018/10/15 18:19:18","新北市鶯歌區德昌街140巷28號","121.33229","24.9614283333333","6500800","鶯歌區"
"239008","527-UM","2018/10/15 18:19:27","新北市鶯歌區國際一路179號","121.336248333333","24.97652","6500800","鶯歌區"
"239005","526-UM","2018/10/15 18:19:19","新北市鶯歌區鶯桃路668巷73號","121.329891666667","24.9717766666667","6500800","鶯歌區"
"239001","417-VK","2018/10/15 18:19:25","新北市鶯歌區中正三路福德巷21號","121.339681666667","24.9406366666667","6500800","鶯歌區"
"239003","360-BY","2018/10/15 18:19:31","新北市鶯歌區福安街58號","121.335608333333","24.9652083333333","6500800","鶯歌區"
"239002","359-BY","2018/10/15 18:19:21","新北市鶯歌區文化路333號","121.352138333333","24.9519283333333","6500800","鶯歌區"
"221008","489-VK","2018/10/15 18:19:05","新北市汐止區康寧街706-1號","121.638221666667","25.0728916666667","6501100","汐止區"
"221036","130-UY","2018/10/15 18:19:19","新北市汐止區長興街一段20號","121.669656666667","25.0789733333333","6501100","汐止區"
"221010","269-BY","2018/10/15 18:19:17","新北市汐止區祥雲街16號","121.646313333333","25.089985","6501100","汐止區"
"221012","278-VK","2018/10/15 18:19:12","新北市汐止區長興街二段4巷20號","121.673555","25.0805333333333","6501100","汐止區"
"221023","279-VK","2018/10/15 18:19:12","新北市汐止區中興路201號","121.6292","25.068465","6501100","汐止區"
"221032","280-BY","2018/10/15 18:19:17","新北市汐止區橫科路2巷3號","121.61677","25.05125","6501100","汐止區"
"221027","281-BY","2018/10/15 18:19:28","新北市汐止區和平街2巷1號","121.66349","25.0709666666667","6501100","汐止區"
"221029","298-VK","2018/10/15 18:19:17","新北市汐止區汐萬路一段312號","121.650415","25.075445","6501100","汐止區"
"221021","299-VK","2018/10/15 18:19:21","新北市汐止區連興街52號","121.653823333333","25.0629783333333","6501100","汐止區"
"221031","353-TW","2018/10/15 18:19:19","新北市汐止區新台五路一段35號","121.636243333333","25.05555","6501100","汐止區"
"221025","623-UM","2018/10/15 18:19:15","新北市汐止區勤進路12巷37號","121.659076666667","25.0626","6501100","汐止區"
"221038","646-BX","2018/10/15 18:19:19","新北市汐止區仁愛路316巷7號","121.664758333333","25.0676833333333","6501100","汐止區"
"221033","647-BX","2018/10/15 18:19:21","新北市汐止區宜興街40巷3號","121.622068333333","25.0419433333333","6501100","汐止區"
"221002","707-TV","2018/10/15 18:19:25","新北市汐止區福德一路201巷29號","121.635831666667","25.06466","6501100","汐止區"
"221018","753-BX","2018/10/15 18:19:09","新北市汐止區茄苳路124號","121.668115","25.070175","6501100","汐止區"
"220083","286-VK","2018/10/15 18:19:13","新北市板橋區華東街1-10號","121.448398333333","24.9950716666667","6500100","板橋區"
"220062","295-UM","2018/10/15 18:19:21","新北市板橋區民生路二段120號","121.470378333333","25.0195366666667","6500100","板橋區"
"242039","281-VK","2018/10/15 18:19:18","新北市新莊區新樹路210號","121.433771666667","25.020405","6500500","新莊區"
"220064","486-VK","2018/10/15 18:19:13","新北市板橋區華東街1-10號","121.448396666667","24.9949416666667","6500100","板橋區"
"242056","280-VK","2018/10/15 18:19:09","新北市新莊區瓊林路34號","121.448951666667","25.03108","6500500","新莊區"
"220054","741-BX","2018/10/15 18:19:20","新北市板橋區華東街1-9號","121.4481","24.99494","6500100","板橋區"
"235068","KEA-2873","2018/10/15 18:19:21","新北市中和區員山路36巷16-3號","121.485078333333","24.9911516666667","6500300","中和區"
"235061","KEA-2875","2018/10/15 18:19:20","新北市中和區國光街215巷44號","121.467421666667","24.999975","6500300","中和區"
