"lineid","car","time","location","longitude","latitude","cityid","cityname"
"234046","148-BY","2018/10/15 18:29:10","新北市永和區豫溪街217巷11號","121.524571666667","25.0097483333333","6500400","永和區"
"234007","207-UY","2018/10/15 18:29:21","新北市永和區環河西路二段223號","121.501098333333","25.0101483333333","6500400","永和區"
"234081","298-R6","2018/10/15 18:29:21","新北市永和區環河東路二段92號","121.524393333333","25.0106483333333","6500400","永和區"
"234086","338-UY","2018/10/15 18:29:24","新北市永和區福和路8巷3號","121.52494","25.0091683333333","6500400","永和區"
"234017","745-BX","2018/10/15 18:29:13","新北市永和區福和路1號","121.5265","25.0096683333333","6500400","永和區"
"234061","AAD-866","2018/10/15 18:29:10","新北市永和區福和路1號","121.526071666667","25.009665","6500400","永和區"
"234026","9371-KE","2018/10/15 18:29:23","新北市永和區中正路736號","121.515255","25.0102433333333","6500400","永和區"
"234011","9373-KE","2018/10/15 18:29:29","新北市永和區保安路73號","121.50888","25.0151116666667","6500400","永和區"
"249005","172-UM","2018/10/15 18:29:13","新北市八里區中華路三段128號","121.392423333333","25.136085","6502300","八里區"
"249001","173-UM","2018/10/15 18:29:22","新北市八里區龍米路一段122號","121.453123333333","25.1252766666667","6502300","八里區"
"249004","303-UY","2018/10/15 18:29:11","新北市八里區文心街138號","121.425651666667","25.16124","6502300","八里區"
"249002","305-UY","2018/10/15 18:29:11","新北市八里區龍形三街26號","121.447941666667","25.1316483333333","6502300","八里區"
"249003","593-UM","2018/10/15 18:29:17","新北市八里區商港六路55號","121.396376666667","25.149235","6502300","八里區"
"248016","026-BX","2018/10/15 18:29:23","新北市五股區凌雲路一段83巷22弄1號","121.449881666667","25.100795","6501500","五股區"
"248006","077-UY","2018/10/15 18:29:15","新北市五股區四維路44號","121.467286666667","25.0719366666667","6501500","五股區"
"248008","095-VK","2018/10/15 18:29:13","新北市五股區四維路185巷42弄1號","121.463608333333","25.0768816666667","6501500","五股區"
"248018","225-UY","2018/10/15 18:29:09","新北市五股區御史路300號","121.417035","25.1089533333333","6501500","五股區"
"248014","261-SL","2018/10/15 18:29:15","新北市五股區自強路142號","121.432231666667","25.07088","6501500","五股區"
"248012","655-BX","2018/10/15 18:29:20","新北市五股區御成路145號","121.440796666667","25.0943366666667","6501500","五股區"
"248004","677-BX","2018/10/15 18:29:29","新北市五股區工商路150號","121.433206666667","25.0874416666667","6501500","五股區"
"248002","678-BX","2018/10/15 18:29:12","新北市五股區西雲路116-3號","121.444596666667","25.0936733333333","6501500","五股區"
"248010","682-TV","2018/10/15 18:29:27","新北市五股區明德路8號","121.433328333333","25.0716183333333","6501500","五股區"
"234067","AAC-212","2018/10/15 18:29:17","新北市永和區福和路1號","121.526443333333","25.0097533333333","6500400","永和區"
"234003","AAC-295","2018/10/15 18:29:25","新北市永和區福和路1號","121.526581666667","25.0100916666667","6500400","永和區"
"244023","069-UM","2018/10/15 18:29:15","新北市林口區仁愛路二段32號","121.385308333333","25.0759633333333","6501700","林口區"
"244007","080-UY","2018/10/15 18:29:26","新北市林口區後湖5-1號","121.388778333333","25.0981716666667","6501700","林口區"
"244019","403-UM","2018/10/15 18:29:24","新北市林口區忠孝路622巷1弄1號","121.377846666667","25.0679183333333","6501700","林口區"
"244017","485-VK","2018/10/15 18:29:11","新北市林口區八德路78號","121.365645","25.0656216666667","6501700","林口區"
"244009","656-BX","2018/10/15 18:29:21","新北市林口區寶林路123號","121.38299","25.0854633333333","6501700","林口區"
"244021","657-BX","2018/10/15 18:29:15","新北市林口區自強二街49號","121.399015","25.0772933333333","6501700","林口區"
"244010","701-TV","2018/10/15 18:29:23","新北市林口區中山路156號","121.390855","25.0788166666667","6501700","林口區"
"244025","837-TS","2018/10/15 18:29:21","新北市林口區南勢四街192號","121.356393333333","25.0729116666667","6501700","林口區"
"243013","AAD-798","2018/10/15 18:29:05","新北市泰山區明志路三段206巷3號","121.423308333333","25.0379183333333","6501600","泰山區"
"222003","436-BY","2018/10/15 18:29:10","新北市深坑區文山路一段28-1號","121.630781666667","25.00539","6501800","深坑區"
"222002","659-BX","2018/10/15 18:29:12","新北市深坑區雲鄉路178號","121.622323333333","24.998295","6501800","深坑區"
"231059","001-UM","2018/10/15 18:29:28","新北市新店區安華路28-1號","121.519523333333","24.960925","6500600","新店區"
"231040","047-UY","2018/10/15 18:29:11","新北市新店區安華路28-1號","121.51924","24.9609116666667","6500600","新店區"
"231052","108-UY","2018/10/15 18:29:22","新北市新店區新烏路一段58-1號","121.545885","24.9498116666667","6500600","新店區"
"231047","187-VK","2018/10/15 18:29:22","新北市新店區安一路一段1-1號","121.519628333333","24.961185","6500600","新店區"
"231054","KEA-2219","2018/10/15 18:29:12","新北市新店區安一路一段1-1號","121.519878333333","24.9611333333333","6500600","新店區"
"231057","256-BX","2018/10/15 18:29:26","新北市新店區北宜路一段116號","121.539188333333","24.9552383333333","6500600","新店區"
"231042","268-BY","2018/10/15 18:29:23","新北市新店區安華路28-1號","121.51943","24.9605716666667","6500600","新店區"
"231051","278-BY","2018/10/15 18:29:12","新北市新店區安一路一段1-1號","121.519545","24.9610583333333","6500600","新店區"
"231050","AAD-862","2018/10/15 18:29:30","新北市新店區安華路28-1號","121.519896666667","24.9607733333333","6500600","新店區"
"231061","355-BY","2018/10/15 18:29:23","新北市新店區安華路28-1號","121.519256666667","24.9609666666667","6500600","新店區"
"231058","3713-VJ","2018/10/15 18:29:25","新北市新店區國校路10號","121.537793333333","24.955895","6500600","新店區"
"231066","4716-K9","2018/10/15 18:29:18","新北市新店區安一路一段1-1號","121.519448333333","24.96131","6500600","新店區"
"231056","4715-K9","2018/10/15 18:29:28","新北市新店區二十張路125號","121.535855","24.97938","6500600","新店區"
"231067","4772-VM","2018/10/15 18:29:19","新北市新店區安華路1-1號","121.519311666667","24.9605216666667","6500600","新店區"
"231065","512-UM","2018/10/15 18:29:09","新北市新店區安一路一段1-1號","121.519233333333","24.96121","6500600","新店區"
"231049","513-UM","2018/10/15 18:29:17","新北市新店區安一路一段1-1號","121.519661666667","24.9611516666667","6500600","新店區"
"231063","616-UM","2018/10/15 18:29:13","新北市新店區安華路1-1號","121.519458333333","24.960485","6500600","新店區"
"231045","617-UM","2018/10/15 18:29:14","新北市新店區安華路28-1號","121.519501666667","24.96098","6500600","新店區"
"231044","618-UM","2018/10/15 18:29:13","新北市新店區安華路28-1號","121.519626666667","24.9610166666667","6500600","新店區"
"231064","719-UM","2018/10/15 18:29:21","新北市新店區安一路一段1-1號","121.519581666667","24.9614616666667","6500600","新店區"
"231062","720-UM","2018/10/15 18:29:20","新北市新店區安一路一段1-1號","121.519343333333","24.96133","6500600","新店區"
"231060","897-TW","2018/10/15 18:29:15","新北市新店區安華路28-1號","121.519588333333","24.9609266666667","6500600","新店區"
"231043","899-TW","2018/10/15 18:29:16","新北市新店區安華路28-1號","121.519281666667","24.9609","6500600","新店區"
"231055","AKT-0513","2018/10/15 18:29:18","新北市新店區華興街17號","121.53773","24.9694116666667","6500600","新店區"
"241011","013-R5","2018/10/15 18:29:23","新北市八里區中山路三段382號","121.368706666667","25.1358716666667","6500200","三重區"
"241015","062-VK","2018/10/15 18:29:17","新北市八里區中山路三段409號","121.368676666667","25.1353933333333","6500200","三重區"
"251014","742-BX","2018/10/15 18:29:25","新北市淡水區南平26-2號","121.493381666667","25.2149383333333","6501000","淡水區"
"241024","KEA-2210","2018/10/15 18:29:16","新北市五股區新城三路61號","121.449258333333","25.0941233333333","6500200","三重區"
"241001","547-UM","2018/10/15 18:29:12","新北市八里區下罟子1-7號","121.391816666667","25.1413833333333","6500200","三重區"
"235066","003-UY","2018/10/15 18:29:21","新北市中和區中山路二段119號","121.502915","25.0037883333333","6500300","中和區"
"235064","005-UY","2018/10/15 18:29:17","新北市中和區圓通路141巷41-6號","121.498901666667","24.994465","6500300","中和區"
"235063","006-UY","2018/10/15 18:29:22","新北市中和區連城路347巷16弄14號","121.487795","24.99514","6500300","中和區"
"235039","097-UM","2018/10/15 18:29:21","新北市中和區安平路192號","121.513116666667","24.99923","6500300","中和區"
"235065","098-UM","2018/10/15 18:29:25","新北市中和區中山路二段64巷9號","121.50321","25.0050383333333","6500300","中和區"
"235055","183-VK","2018/10/15 18:29:24","新北市中和區民享街86巷31號","121.472731666667","25.00041","6500300","中和區"
"235038","185-VK","2018/10/15 18:29:16","新北市中和區立人街43號","121.520725","24.994275","6500300","中和區"
"235067","255-BX","2018/10/15 18:29:19","新北市中和區連城路469-1號","121.483536666667","24.9957383333333","6500300","中和區"
"235044","293-VK","2018/10/15 18:29:21","新北市中和區復興路301巷1號","121.501585","24.98999","6500300","中和區"
"235072","301-VK","2018/10/15 18:29:18","新北市中和區景平路597號","121.497096666667","25.0007866666667","6500300","中和區"
"235043","352-BY","2018/10/15 18:29:25","新北市中和區景平路438號","121.50692","24.9933016666667","6500300","中和區"
"235042","KEA-2878","2018/10/15 18:29:24","新北市中和區自立路193號","121.524255","24.9913516666667","6500300","中和區"
"247012","KEA-2869","2018/10/15 18:29:07","新北市八里區荖阡坑路41-3號","121.400531666667","25.1315433333333","6501400","蘆洲區"
"235069","4980-A6","2018/10/15 18:29:26","新北市中和區連城路89巷36號","121.497381666667","24.99869","6500300","中和區"
"235070","558-UM","2018/10/15 18:29:09","新北市中和區景平路455號","121.500626666667","24.9964133333333","6500300","中和區"
"235045","565-BX","2018/10/15 18:29:13","新北市中和區南山路236巷24弄48號","121.504721666667","24.9887066666667","6500300","中和區"
"235054","640-BX","2018/10/15 18:29:20","新北市中和區民享街88巷2號","121.474545","25.0007733333333","6500300","中和區"
"235047","732-UM","2018/10/15 18:29:11","新北市中和區南山路250巷2號","121.507731666667","24.9889233333333","6500300","中和區"
"235046","733-UM","2018/10/15 18:29:24","新北市中和區南山路273號","121.503966666667","24.9924133333333","6500300","中和區"
"235071","783-BX","2018/10/15 18:29:14","新北市中和區員山路36巷16-3號","121.48523","24.99115","6500300","中和區"
"235062","800-TS","2018/10/15 18:29:13","新北市中和區景平路989巷6號","121.495101666667","25.0051716666667","6500300","中和區"
"235057","801-TS","2018/10/15 18:29:12","新北市中和區民安街43號","121.479836666667","25.00025","6500300","中和區"
"235041","802-TS","2018/10/15 18:29:13","新北市中和區景安路84號","121.50558","24.9961766666667","6500300","中和區"
"235052","805-TS","2018/10/15 18:29:21","新北市中和區興南路二段94號","121.505221666667","24.9842833333333","6500300","中和區"
"235048","896-TW","2018/10/15 18:29:15","新北市中和區中正路81號","121.500751666667","24.9935483333333","6500300","中和區"
"235053","900-TW","2018/10/15 18:29:23","新北市中和區民享街463號","121.469966666667","24.9927483333333","6500300","中和區"
"235060","911-UM","2018/10/15 18:29:14","新北市中和區員山路477巷4號","121.480046666667","25.005155","6500300","中和區"
"235051","157-BY","2018/10/15 18:29:17","新北市中和區興南路二段142巷24弄2號","121.502293333333","24.984705","6500300","中和區"
"235037","AAC-213","2018/10/15 18:29:25","新北市中和區景德街95號","121.515683333333","24.9913233333333","6500300","中和區"
"220065","072-UY","2018/10/15 18:29:31","新北市板橋區四川路一段387號","121.457896666667","24.99893","6500100","板橋區"
"220086","073-UY","2018/10/15 18:29:17","新北市板橋區南雅南路二段40號","121.454151666667","25.0027366666667","6500100","板橋區"
"247006","337-TH","2018/10/15 18:29:23","新北市八里區中山路三段380號","121.369823333333","25.1365333333333","6501400","蘆洲區"
"247010","056-VK","2018/10/15 18:29:17","新北市八里區下罟子30-35號","121.36744","25.135185","6501400","蘆洲區"
"226004","312-R5","2018/10/15 18:29:20","新北市平溪區白石里白石腳211號","121.728173333333","25.0226766666667","6502400","平溪區"
"228002","663-BX","2018/10/15 18:29:21","新北市貢寮區福連里香蘭街16-2號","121.98127","25.022555","6502600","貢寮區"
"228001","670-TC","2018/10/15 18:29:13","新北市貢寮區仁理村仁和路164號","121.923293333333","25.0520633333333","6502600","貢寮區"
"224006","676-BX","2018/10/15 18:29:26","新北市瑞芳區明燈路二段40-1號","121.809995","25.1076916666667","6501200","瑞芳區"
"224002","639-TC","2018/10/15 18:29:24","新北市瑞芳區三爪子坑路29巷38號","121.813633333333","25.1068116666667","6501200","瑞芳區"
"224008","285-BY","2018/10/15 18:29:29","新北市瑞芳區岳王路1巷39號","121.805701666667","25.1105016666667","6501200","瑞芳區"
"224007","275-VK","2018/10/15 18:29:13","新北市瑞芳區大埔路吉慶公園城57號","121.765193333333","25.0996533333333","6501200","瑞芳區"
"224009","273-VK","2018/10/15 18:29:17","新北市瑞芳區五號路278號","121.856326666667","25.1103866666667","6501200","瑞芳區"
"224005","271-BY","2018/10/15 18:29:11","新北市瑞芳區台電新村50號","121.811818333333","25.12719","6501200","瑞芳區"
"227001","642-TC","2018/10/15 18:29:12","新北市雙溪區魚行里坤溪21號","121.870351666667","25.0288316666667","6502500","雙溪區"
"227008","400-TW","2018/10/15 18:29:25","新北市雙溪區牡丹里牡丹147號","121.851413333333","25.05894","6502500","雙溪區"
"253006","032-BX","2018/10/15 18:29:22","新北市石門區公地16號","121.545725","25.290315","6502200","石門區"
"253005","295-VK","2018/10/15 18:29:28","新北市石門區老崩山2號","121.553013333333","25.2915","6502200","石門區"
"222001","KEA-2212","2018/10/15 18:29:17","新北市深坑區北深路一段210號","121.632711666667","25.01086","6501800","深坑區"
"208002","KEA-2872","2018/10/15 18:29:27","新北市金山區民生路202號","121.644463333333","25.2223633333333","6502700","金山區"
"208003","665-BX","2018/10/15 18:29:21","新北市金山區中山路116號","121.639346666667","25.2199366666667","6502700","金山區"
"208001","761-BX","2018/10/15 18:29:23","新北市金山區中山路190巷2號","121.637938333333","25.2214416666667","6502700","金山區"
"251005","010-UM","2018/10/15 18:29:26","新北市淡水區中正東路35巷22號","121.4466","25.1687833333333","6501000","淡水區"
"251013","KEA-2871","2018/10/15 18:29:17","新北市淡水區椿子林20號","121.479963333333","25.203815","6501000","淡水區"
"251016","179-VK","2018/10/15 18:29:18","新北市淡水區下圭柔山105-5號","121.445201666667","25.2103916666667","6501000","淡水區"
"251015","180-VK","2018/10/15 18:29:08","新北市淡水區興福寮88巷216號","121.485988333333","25.1666083333333","6501000","淡水區"
"251008","181-VK","2018/10/15 18:29:08","新北市淡水區水源街二段346巷1弄1號","121.464411666667","25.1756166666667","6501000","淡水區"
"251010","413-VK","2018/10/15 18:29:27","新北市淡水區沙崙路181巷2-2號","121.42422","25.1842266666667","6501000","淡水區"
"251012","441-VK","2018/10/15 18:29:20","新北市淡水區北新路一段157號","121.45871","25.1822916666667","6501000","淡水區"
"251007","442-VK","2018/10/15 18:29:23","新北市淡水區中正東路二段143巷2弄1號","121.460605","25.1473183333333","6501000","淡水區"
"251004","443-VK","2018/10/15 18:29:25","新北市淡水區民族路80號","121.462368333333","25.1356066666667","6501000","淡水區"
"251001","559-UM","2018/10/15 18:29:20","新北市淡水區自強路341號","121.463811666667","25.1326816666667","6501000","淡水區"
"251006","561-UM","2018/10/15 18:29:29","新北市淡水區新生街51巷32號","121.440821666667","25.1759266666667","6501000","淡水區"
"251011","650-BX","2018/10/15 18:29:29","新北市淡水區中正東路一段11號","121.451178333333","25.1638483333333","6501000","淡水區"
"251002","672-BX","2018/10/15 18:29:26","新北市淡水區竿蓁二街17號","121.453268333333","25.162845","6501000","淡水區"
"251003","766-UM","2018/10/15 18:29:23","新北市淡水區北新路169巷19號","121.449638333333","25.1799716666667","6501000","淡水區"
"207003","550-UM","2018/10/15 18:29:29","新北市萬里區野柳里港東路65號","121.687766666667","25.2040783333333","6502800","萬里區"
"207004","225-TW","2018/10/15 18:29:28","新北市萬里區萬里里瑪鋉路252號","121.689043333333","25.1807066666667","6502800","萬里區"
"252002","178-VK","2018/10/15 18:29:11","新北市三芝區中山路二段41號","121.502915","25.2550616666667","6502100","三芝區"
"252003","249-BX","2018/10/15 18:29:28","新北市三芝區後厝里北勢子45-32號","121.469436666667","25.2509033333333","6502100","三芝區"
"252001","292-VK","2018/10/15 18:29:25","新北市三芝區中興街二段6號","121.498545","25.256405","6502100","三芝區"
"237004","KEA-2597","2018/10/15 18:29:22","新北市三峽區五寮89-10號","121.3593","24.8571316666667","6500900","三峽區"
"237007","153-BY","2018/10/15 18:29:08","新北市三峽區中正路三段76-1號","121.356086666667","24.9037","6500900","三峽區"
"237009","210-TH","2018/10/15 18:29:10","新北市三峽區民權街231號","121.3681","24.9279166666667","6500900","三峽區"
"237013","252-BX","2018/10/15 18:29:08","新北市三峽區光明路69巷25號","121.376623333333","24.92924","6500900","三峽區"
"237012","275-BY","2018/10/15 18:29:22","新北市三峽區三樹路168巷11號","121.379243333333","24.94066","6500900","三峽區"
"237008","302-VK","2018/10/15 18:29:18","新北市三峽區白雞68-153號","121.390411666667","24.9085916666667","6500900","三峽區"
"237014","433-BY","2018/10/15 18:29:26","新北市三峽區文化路41-1號","121.372515","24.9360866666667","6500900","三峽區"
"237006","5529-G3","2018/10/15 18:29:10","新北市三峽區溪東路473巷14號","121.4142","24.9286383333333","6500900","三峽區"
"237015","649-BX","2018/10/15 18:29:20","新北市三峽區竹崙路137號","121.434518333333","24.9096166666667","6500900","三峽區"
"237010","706-TV","2018/10/15 18:29:27","新北市三峽區中山路271號","121.3621","24.9374433333333","6500900","三峽區"
"237005","AKY-6261","2018/10/15 18:29:10","新北市三峽區秀川街59號","121.370416666667","24.93333","6500900","三峽區"
"236069","105-UM","2018/10/15 18:29:11","新北市土城區永豐路255巷27弄31號","121.476453333333","24.9734083333333","6501300","土城區"
"236042","107-UM","2018/10/15 18:29:26","新北市土城區學成路99巷9號","121.449998333333","24.9884766666667","6501300","土城區"
"236078","166-UM","2018/10/15 18:29:11","新北市土城區大暖路19號","121.42279","24.9610583333333","6501300","土城區"
"236030","253-BX","2018/10/15 18:29:14","新北市土城區福仁街30巷10號","121.439401666667","24.9759583333333","6501300","土城區"
"236026","269-VK","2018/10/15 18:29:15","新北市土城區南天母路135巷14號","121.448085","24.95453","6501300","土城區"
"236014","270-VK","2018/10/15 18:29:26","新北市土城區青雲路39巷7號","121.460305","24.9875483333333","6501300","土城區"
"236039","271-VK","2018/10/15 18:29:14","新北市土城區明德路一段323號","121.458908333333","24.9769566666667","6501300","土城區"
"236020","401-BY","2018/10/15 18:29:23","新北市土城區永豐路202巷14號","121.466318333333","24.98344","6501300","土城區"
"236055","752-BX","2018/10/15 18:29:23","新北市土城區中華路二段61號","121.439411666667","24.9786366666667","6501300","土城區"
"236059","912-UM","2018/10/15 18:29:23","新北市土城區中央路四段76-3號","121.41903","24.9594833333333","6501300","土城區"
"236048","913-UM","2018/10/15 18:29:16","新北市土城區青雲路364號","121.458688333333","24.9739016666667","6501300","土城區"
"236063","915-UM","2018/10/15 18:29:20","新北市土城區延壽路111巷18號","121.468608333333","24.99366","6501300","土城區"
"242058","986-R7","2018/10/15 18:29:22","新北市新莊區中正路887-17號","121.416141666667","25.0241833333333","6500500","新莊區"
"242009","751-BX","2018/10/15 18:29:19","新北市新莊區新泰路357巷3弄1號","121.442261666667","25.0415333333333","6500500","新莊區"
"242025","613-BX","2018/10/15 18:29:26","新北市新莊區立信一街39號","121.442311666667","25.049365","6500500","新莊區"
"242029","612-BX","2018/10/15 18:29:18","新北市新莊區新泰路357巷3弄57號","121.442206666667","25.0392783333333","6500500","新莊區"
"242044","566-BX","2018/10/15 18:29:21","新北市新莊區中正路新旺巷41號","121.41648","25.02264","6500500","新莊區"
"242053","441-UM","2018/10/15 18:29:08","新北市板橋區大觀路三段50巷103號","121.430883333333","24.9967933333333","6500500","新莊區"
"242046","400-BY","2018/10/15 18:29:25","新北市新莊區中正路801號","121.42133","25.0282933333333","6500500","新莊區"
"242060","353-BY","2018/10/15 18:29:17","新北市新莊區富國路176巷5號","121.424133333333","25.0241766666667","6500500","新莊區"
"242011","132-UY","2018/10/15 18:29:14","新北市新莊區中榮街49巷1號","121.44948","25.0526133333333","6500500","新莊區"
"242042","133-UY","2018/10/15 18:29:15","新北市新莊區天祥街71巷21號","121.415603333333","25.0285883333333","6500500","新莊區"
"242017","346-TH","2018/10/15 18:27:13","新北市新莊區三和路12-21號","121.442215","25.03816","6500500","新莊區"
"242002","347-TH","2018/10/15 18:29:17","新北市新莊區瓊林路13-8號","121.448073333333","25.0301733333333","6500500","新莊區"
"242031","348-TH","2018/10/15 18:29:09","新北市新莊區新泰路289巷28號","121.444215","25.0406066666667","6500500","新莊區"
"242004","349-TH","2018/10/15 18:29:11","新北市新莊區思源路177巷5弄12號","121.458818333333","25.0450166666667","6500500","新莊區"
"238015","755-BX","2018/10/15 18:29:13","新北市樹林區復興路390巷21-4號","121.414888333333","24.9855466666667","6500700","樹林區"
"238023","601-UM","2018/10/15 18:29:10","新北市樹林區三福街114號","121.406505","25.0163266666667","6500700","樹林區"
"238019","599-UM","2018/10/15 18:29:25","新北市樹林區中華路190-16號","121.411766666667","24.98066","6500700","樹林區"
"238018","571-TV","2018/10/15 18:29:17","新北市樹林區樹新路50巷28號","121.429605","24.9968866666667","6500700","樹林區"
"238024","5061-A6","2018/10/15 18:29:26","新北市樹林區中山路一段176-1號","121.421833333333","24.98884","6500700","樹林區"
"238021","KEA-2539","2018/10/15 18:28:50","新北市樹林區中山路三段214號","121.379966666667","24.9677783333333","6500700","樹林區"
"238025","303-VK","2018/10/15 18:29:09","新北市樹林區中山路二段145號","121.40641","24.97902","6500700","樹林區"
"238020","268-VK","2018/10/15 18:29:26","新北市樹林區三龍街21號","121.413218333333","25.019045","6500700","樹林區"
"238026","172-UY","2018/10/15 18:29:18","新北市樹林區八德街626號","121.397015","24.9697166666667","6500700","樹林區"
"238016","169-UY","2018/10/15 18:29:12","新北市樹林區文化街28號","121.419235","24.98776","6500700","樹林區"
"239007","AAC-297","2018/10/15 18:29:15","新北市鶯歌區國慶街35號","121.349408333333","24.9558883333333","6500800","鶯歌區"
"239006","891-R6","2018/10/15 18:29:22","新北市鶯歌區鶯桃路240號","121.336283333333","24.959525","6500800","鶯歌區"
"239008","527-UM","2018/10/15 18:29:27","新北市鶯歌區國際一路179號","121.336256666667","24.9765216666667","6500800","鶯歌區"
"239005","526-UM","2018/10/15 18:29:19","新北市鶯歌區鶯桃路668巷23號","121.32902","24.9702533333333","6500800","鶯歌區"
"239001","417-VK","2018/10/15 18:29:25","新北市鶯歌區國中街178號","121.33827","24.9391983333333","6500800","鶯歌區"
"239003","360-BY","2018/10/15 18:29:31","新北市鶯歌區永和街119號","121.333818333333","24.9685216666667","6500800","鶯歌區"
"239002","359-BY","2018/10/15 18:29:21","新北市鶯歌區中正一路305號","121.356575","24.9570466666667","6500800","鶯歌區"
"239004","193-VK","2018/10/15 18:29:12","新北市鶯歌區尖山路166巷32號","121.345008333333","24.9491016666667","6500800","鶯歌區"
"221008","489-VK","2018/10/15 18:29:25","新北市汐止區康寧街901號","121.651366666667","25.0750516666667","6501100","汐止區"
"221036","130-UY","2018/10/15 18:29:19","新北市汐止區大同路二段585號","121.663738333333","25.0703783333333","6501100","汐止區"
"221010","269-BY","2018/10/15 18:29:26","新北市汐止區汐萬路三段252巷25號","121.644923333333","25.1050766666667","6501100","汐止區"
"221012","278-VK","2018/10/15 18:29:12","新北市汐止區保長路19巷9號","121.672525","25.0802033333333","6501100","汐止區"
"221023","279-VK","2018/10/15 18:29:12","新北市汐止區康寧街406號","121.630208333333","25.0679716666667","6501100","汐止區"
"221032","280-BY","2018/10/15 18:29:17","新北市汐止區民權街二段97巷10-1號","121.61923","25.0468333333333","6501100","汐止區"
"221027","281-BY","2018/10/15 18:29:28","新北市汐止區建成路37巷8號","121.662645","25.0723833333333","6501100","汐止區"
"221029","298-VK","2018/10/15 18:26:57","新北市汐止區連峰街1巷2號","121.64692","25.0761383333333","6501100","汐止區"
"221021","299-VK","2018/10/15 18:29:16","新北市汐止區新台五路一段91-2號","121.650146666667","25.061465","6501100","汐止區"
"221031","353-TW","2018/10/15 18:29:19","新北市汐止區光復街8巷3號","121.638623333333","25.05795","6501100","汐止區"
"221025","623-UM","2018/10/15 18:29:20","新北市汐止區仁愛路121巷1號","121.662891666667","25.0638616666667","6501100","汐止區"
"221038","646-BX","2018/10/15 18:29:19","新北市汐止區忠孝東路303號","121.664268333333","25.0690133333333","6501100","汐止區"
"221033","647-BX","2018/10/15 18:29:18","新北市汐止區宜興街86號","121.622486666667","25.043055","6501100","汐止區"
"221002","707-TV","2018/10/15 18:29:25","新北市汐止區福德一路148號","121.63658","25.0669216666667","6501100","汐止區"
"221018","753-BX","2018/10/15 18:29:09","新北市汐止區茄苳路213號","121.670658333333","25.068915","6501100","汐止區"
"220079","145-BY","2018/10/15 18:29:10","新北市板橋區華東街1-10號","121.448653333333","24.9949766666667","6500100","板橋區"
"220072","277-BY","2018/10/15 18:29:13","新北市板橋區華東街1-10號","121.448313333333","24.9950716666667","6500100","板橋區"
"220071","283-VK","2018/10/15 18:29:27","新北市板橋區華東街1-9號","121.448081666667","24.994915","6500100","板橋區"
"220083","286-VK","2018/10/15 18:29:13","新北市板橋區華東街1-10號","121.448376666667","24.9950883333333","6500100","板橋區"
"220081","287-VK","2018/10/15 18:29:19","新北市板橋區華東街1-10號","121.448266666667","24.99504","6500100","板橋區"
"220062","295-UM","2018/10/15 18:29:21","新北市板橋區民生路二段120號","121.470343333333","25.0195833333333","6500100","板橋區"
"220075","303-R5","2018/10/15 18:29:20","新北市板橋區華東街1-10號","121.4482","24.9950366666667","6500100","板橋區"
"220064","486-VK","2018/10/15 18:29:13","新北市板橋區南雅南路二段4巷18號","121.45356","25.0037133333333","6500100","板橋區"
"220054","741-BX","2018/10/15 18:29:20","新北市板橋區華東街1-9號","121.448091666667","24.9949266666667","6500100","板橋區"
"220074","895-R6","2018/10/15 18:29:15","新北市板橋區華東街1-10號","121.448226666667","24.9949883333333","6500100","板橋區"
"220070","AAC-253","2018/10/15 18:29:14","新北市板橋區華東街1-9號","121.448245","24.9948666666667","6500100","板橋區"
"235068","KEA-2873","2018/10/15 18:29:21","新北市中和區錦和路350-1號","121.490336666667","24.9935316666667","6500300","中和區"
"235061","KEA-2875","2018/10/15 18:29:20","新北市中和區民享街97巷9號","121.47514","24.9992966666667","6500300","中和區"
