"lineid","car","time","location","longitude","latitude","cityid","cityname"
"234046","148-BY","2018/10/15 18:39:10","新北市永和區永元路68號","121.52256","25.00157","6500400","永和區"
"234007","207-UY","2018/10/15 18:39:21","新北市永和區文化路170號","121.511838333333","25.0156416666667","6500400","永和區"
"234081","298-R6","2018/10/15 18:39:21","新北市永和區林森路77號","121.523948333333","25.0039316666667","6500400","永和區"
"234086","338-UY","2018/10/15 18:39:24","新北市永和區中正路79號","121.515156666667","24.9968766666667","6500400","永和區"
"234070","552-UM","2018/10/15 18:39:24","新北市永和區豫溪街217巷1號","121.525371666667","25.00979","6500400","永和區"
"234017","745-BX","2018/10/15 18:39:13","新北市永和區福和路1號","121.52649","25.0096016666667","6500400","永和區"
"234013","KEA-2591","2018/10/15 18:39:23","新北市永和區保安路46號","121.510376666667","25.0169066666667","6500400","永和區"
"234061","AAD-866","2018/10/15 18:39:10","新北市永和區福和路1號","121.526025","25.009335","6500400","永和區"
"234026","9371-KE","2018/10/15 18:39:23","新北市永和區仁愛路273號","121.505898333333","25.0098516666667","6500400","永和區"
"234011","9373-KE","2018/10/15 18:39:09","新北市永和區文化路9巷22弄1號","121.51526","25.0145466666667","6500400","永和區"
"249005","172-UM","2018/10/15 18:39:13","新北市八里區中華路三段210號","121.38816","25.125515","6502300","八里區"
"249001","173-UM","2018/10/15 18:39:26","新北市八里區龍米路一段348號","121.451463333333","25.1308483333333","6502300","八里區"
"249004","303-UY","2018/10/15 18:39:11","新北市八里區忠四街9號","121.424963333333","25.160725","6502300","八里區"
"249002","305-UY","2018/10/15 18:39:11","新北市八里區頂寮二街138號","121.449321666667","25.129455","6502300","八里區"
"249003","593-UM","2018/10/15 18:39:17","新北市八里區中山路三段409號","121.369041666667","25.1334283333333","6502300","八里區"
"248016","026-BX","2018/10/15 18:39:23","新北市五股區凌雲路一段133巷27-3號","121.448636666667","25.100905","6501500","五股區"
"248008","095-VK","2018/10/15 18:39:13","新北市五股區中興路一段150巷11號","121.4646","25.0743966666667","6501500","五股區"
"248018","225-UY","2018/10/15 18:39:29","新北市五股區民義路二段52巷27號","121.411195","25.1141566666667","6501500","五股區"
"248014","261-SL","2018/10/15 18:39:15","新北市五股區蓬萊路24號","121.434176666667","25.0798233333333","6501500","五股區"
"248012","655-BX","2018/10/15 18:39:19","新北市五股區御史路55號","121.441958333333","25.0935","6501500","五股區"
"248004","677-BX","2018/10/15 18:39:29","新北市五股區民義路一段236-6號","121.42749","25.0912666666667","6501500","五股區"
"248002","678-BX","2018/10/15 18:39:12","新北市五股區西雲路203巷3號","121.44806","25.0962433333333","6501500","五股區"
"248010","682-TV","2018/10/15 18:39:27","新北市五股區水碓一路92號","121.431768333333","25.073675","6501500","五股區"
"234023","9380-KE","2018/10/15 18:39:25","新北市永和區福和路76巷5弄12號","121.52245","25.0084333333333","6500400","永和區"
"234077","969-R7","2018/10/15 18:39:22","新北市永和區中正路199號","121.51743","24.9994516666667","6500400","永和區"
"234067","AAC-212","2018/10/15 18:39:16","新北市永和區福和路95號","121.522071666667","25.0078116666667","6500400","永和區"
"234003","AAC-295","2018/10/15 18:39:25","新北市永和區福和路1號","121.52666","25.0099816666667","6500400","永和區"
"244023","069-UM","2018/10/15 18:39:15","新北市林口區四維路251號","121.381381666667","25.0748","6501700","林口區"
"244007","080-UY","2018/10/15 18:39:26","新北市林口區中湖62號","121.38447","25.100985","6501700","林口區"
"244019","403-UM","2018/10/15 18:39:24","新北市林口區麗園二街36巷1號","121.38047","25.069115","6501700","林口區"
"244017","485-VK","2018/10/15 18:39:11","新北市林口區文化二路一段70號","121.365956666667","25.0692316666667","6501700","林口區"
"244009","656-BX","2018/10/15 18:39:21","新北市林口區竹林路332號","121.391281666667","25.0832833333333","6501700","林口區"
"244021","657-BX","2018/10/15 18:39:15","新北市林口區工六路76號","121.400328333333","25.0773366666667","6501700","林口區"
"244010","701-TV","2018/10/15 18:39:24","新北市林口區仁愛路一段348號","121.39057","25.07652","6501700","林口區"
"244025","837-TS","2018/10/15 18:39:12","新北市林口區南勢六街242號","121.355831666667","25.074645","6501700","林口區"
"243013","AAD-798","2018/10/15 18:29:05","新北市泰山區明志路三段206巷3號","121.423308333333","25.0379183333333","6501600","泰山區"
"243016","KEA-2801","2018/10/15 18:39:16","新北市泰山區黎明路15號","121.420895","25.0631566666667","6501600","泰山區"
"222003","436-BY","2018/10/15 18:39:10","新北市深坑區翠谷街41-1號","121.626933333333","25.009375","6501800","深坑區"
"222002","659-BX","2018/10/15 18:39:12","新北市深坑區雲鄉路2號","121.620956666667","24.9997266666667","6501800","深坑區"
"231059","001-UM","2018/10/15 18:39:28","新北市新店區安華路28-1號","121.519558333333","24.96093","6500600","新店區"
"231040","047-UY","2018/10/15 18:39:11","新北市新店區安華路28-1號","121.519268333333","24.9609066666667","6500600","新店區"
"231052","108-UY","2018/10/15 18:39:22","新北市新店區永興路12號","121.545138333333","24.9399433333333","6500600","新店區"
"231047","187-VK","2018/10/15 18:39:22","新北市新店區安一路一段1-1號","121.519711666667","24.9612166666667","6500600","新店區"
"231054","KEA-2219","2018/10/15 18:39:12","新北市新店區安一路一段1-1號","121.519736666667","24.9612583333333","6500600","新店區"
"231057","256-BX","2018/10/15 18:39:26","新北市新店區新烏路一段215號","121.549283333333","24.931375","6500600","新店區"
"231042","268-BY","2018/10/15 18:39:23","新北市新店區安華路28-1號","121.519423333333","24.9605733333333","6500600","新店區"
"231051","278-BY","2018/10/15 18:39:12","新北市新店區中央路171號","121.53389","24.9701733333333","6500600","新店區"
"231050","AAD-862","2018/10/15 18:39:10","新北市新店區安一路一段1-1號","121.519726666667","24.961205","6500600","新店區"
"231061","355-BY","2018/10/15 18:39:23","新北市新店區安華路28-1號","121.519271666667","24.9609516666667","6500600","新店區"
"231058","3713-VJ","2018/10/15 18:39:25","新北市新店區新店後街6-2號","121.53806","24.95278","6500600","新店區"
"231066","4716-K9","2018/10/15 18:39:18","新北市新店區安一路一段1-1號","121.519411666667","24.9612433333333","6500600","新店區"
"231056","4715-K9","2018/10/15 18:39:28","新北市新店區建國路166號","121.53847","24.9796166666667","6500600","新店區"
"231067","4772-VM","2018/10/15 18:39:19","新北市新店區安華路28-1號","121.519296666667","24.9606033333333","6500600","新店區"
"231065","512-UM","2018/10/15 18:39:29","新北市新店區安一路一段1-1號","121.519273333333","24.9612733333333","6500600","新店區"
"231049","513-UM","2018/10/15 18:39:17","新北市新店區安一路一段1-1號","121.51975","24.96117","6500600","新店區"
"231063","616-UM","2018/10/15 18:39:13","新北市新店區安華路28-1號","121.519455","24.96057","6500600","新店區"
"231045","617-UM","2018/10/15 18:39:14","新北市新店區安一路一段1-1號","121.519505","24.9610516666667","6500600","新店區"
"231044","618-UM","2018/10/15 18:39:12","新北市新店區安康路一段355號","121.51984","24.96302","6500600","新店區"
"231064","719-UM","2018/10/15 18:39:21","新北市新店區安一路一段1-1號","121.519563333333","24.96142","6500600","新店區"
"231062","720-UM","2018/10/15 18:39:20","新北市新店區安一路一段1-1號","121.519356666667","24.9611916666667","6500600","新店區"
"231060","897-TW","2018/10/15 18:39:15","新北市新店區安華路28-1號","121.51955","24.9609116666667","6500600","新店區"
"231043","899-TW","2018/10/15 18:39:16","新北市新店區安華路28-1號","121.519298333333","24.9609033333333","6500600","新店區"
"231055","AKT-0513","2018/10/15 18:39:18","新北市新店區中華路40號","121.53988","24.9682366666667","6500600","新店區"
"241011","013-R5","2018/10/15 18:39:23","新北市八里區中山路三段331號","121.377565","25.1388866666667","6500200","三重區"
"241015","062-VK","2018/10/15 18:39:17","新北市八里區下罟子23號","121.376708333333","25.1387433333333","6500200","三重區"
"251014","742-BX","2018/10/15 18:39:25","新北市淡水區崙頂12-8號","121.495573333333","25.2172633333333","6501000","淡水區"
"241024","KEA-2210","2018/10/15 18:39:16","新北市八里區商港路120號","121.392895","25.14999","6500200","三重區"
"241001","547-UM","2018/10/15 18:38:52","新北市八里區荖阡坑路34號","121.402621666667","25.1282916666667","6500200","三重區"
"235066","003-UY","2018/10/15 18:39:21","新北市中和區水源路45號","121.504816666667","25.003615","6500300","中和區"
"235064","005-UY","2018/10/15 18:39:17","新北市中和區連城路139巷18號","121.496135","24.998205","6500300","中和區"
"235063","006-UY","2018/10/15 18:39:22","新北市中和區連城路347巷4弄2號","121.488196666667","24.9956133333333","6500300","中和區"
"235039","097-UM","2018/10/15 18:39:20","新北市永和區中正路1號","121.513668333333","24.9953866666667","6500300","中和區"
"235065","098-UM","2018/10/15 18:39:25","新北市中和區莊敬路49巷18號","121.501616666667","25.0060966666667","6500300","中和區"
"235055","183-VK","2018/10/15 18:39:24","新北市中和區中山路三段229巷49號","121.469218333333","25.0055","6500300","中和區"
"235038","185-VK","2018/10/15 18:39:16","新北市中和區大勇街45巷1號","121.518155","24.9948216666667","6500300","中和區"
"235049","186-VK","2018/10/15 18:39:28","新北市中和區景安路143號","121.505615","24.9954683333333","6500300","中和區"
"235067","255-BX","2018/10/15 18:39:19","新北市中和區新生街2號","121.483148333333","25.0047533333333","6500300","中和區"
"235044","293-VK","2018/10/15 18:39:22","新北市中和區復興路280巷6號","121.502278333333","24.9910733333333","6500300","中和區"
"235072","301-VK","2018/10/15 18:39:18","新北市中和區中山路二段94號","121.50335","25.0042216666667","6500300","中和區"
"235043","352-BY","2018/10/15 18:39:25","新北市中和區景平路123號","121.515411666667","24.9919883333333","6500300","中和區"
"235042","KEA-2878","2018/10/15 18:39:24","新北市中和區成功路107巷6號","121.526293333333","24.9912383333333","6500300","中和區"
"247012","KEA-2869","2018/10/15 18:38:27","新北市八里區中山路三段390號","121.368258333333","25.134895","6501400","蘆洲區"
"235069","4980-A6","2018/10/15 18:39:26","新北市中和區泰和街38巷32號","121.498505","25.0013016666667","6500300","中和區"
"235070","558-UM","2018/10/15 18:39:29","新北市中和區景新街131號","121.505878333333","24.9973133333333","6500300","中和區"
"235045","565-BX","2018/10/15 18:39:13","新北市中和區南山路236巷30弄5號","121.505211666667","24.9884283333333","6500300","中和區"
"235054","640-BX","2018/10/15 18:39:26","新北市中和區莒光路132號","121.472548333333","25.0014333333333","6500300","中和區"
"235047","732-UM","2018/10/15 18:39:11","新北市中和區南山路320巷10弄21號","121.506836666667","24.9866766666667","6500300","中和區"
"235046","733-UM","2018/10/15 18:39:24","新北市中和區忠孝街103號","121.512075","24.9862916666667","6500300","中和區"
"235071","783-BX","2018/10/15 18:39:14","新北市中和區員山路36巷16-2號","121.485323333333","24.9910883333333","6500300","中和區"
"235062","800-TS","2018/10/15 18:39:12","新北市中和區景平路718號","121.496781666667","25.0028833333333","6500300","中和區"
"235057","801-TS","2018/10/15 18:39:12","新北市中和區員山路327巷40號","121.480565","25.0017116666667","6500300","中和區"
"235041","802-TS","2018/10/15 18:39:13","新北市中和區宜安路137號","121.509488333333","24.9984583333333","6500300","中和區"
"235052","805-TS","2018/10/15 18:39:21","新北市中和區興南路三段42-3號","121.495708333333","24.9771633333333","6500300","中和區"
"235048","896-TW","2018/10/15 18:39:15","新北市中和區南山路164號","121.504771666667","24.9914816666667","6500300","中和區"
"235053","900-TW","2018/10/15 18:39:23","新北市中和區民享街488號","121.469558333333","24.9923016666667","6500300","中和區"
"235060","911-UM","2018/10/15 18:39:22","新北市中和區中山路三段27號","121.47921","25.0060183333333","6500300","中和區"
"235051","157-BY","2018/10/15 18:39:17","新北市中和區華新街143巷106弄34號","121.506175","24.9784916666667","6500300","中和區"
"235037","AAC-213","2018/10/15 18:39:25","新北市中和區景德街56號","121.517441666667","24.9916083333333","6500300","中和區"
"220065","072-UY","2018/10/15 18:39:11","新北市板橋區區運路23號","121.465883333333","25.0101766666667","6500100","板橋區"
"220086","073-UY","2018/10/15 18:39:26","新北市板橋區南雅西路二段235號","121.451531666667","25.014055","6500100","板橋區"
"247006","337-TH","2018/10/15 18:39:23","新北市八里區中山路三段275號","121.378446666667","25.13888","6501400","蘆洲區"
"247010","056-VK","2018/10/15 18:39:17","新北市八里區下罟子23號","121.375903333333","25.1385683333333","6501400","蘆洲區"
"226004","312-R5","2018/10/15 18:39:20","新北市平溪區石底里公園街18-3號","121.733265","25.02579","6502400","平溪區"
"228002","663-BX","2018/10/15 18:39:21","新北市貢寮區福隆里東興街6-11號","121.950741666667","25.021105","6502600","貢寮區"
"228001","670-TC","2018/10/15 18:39:13","新北市貢寮區仁理村研海街12-1號","121.92385","25.0517016666667","6502600","貢寮區"
"224010","AGQ-8101","2018/10/15 18:39:09","新北市瑞芳區崙頂路9-2號","121.84625","25.1065466666667","6501200","瑞芳區"
"224006","676-BX","2018/10/15 18:39:19","新北市瑞芳區明燈路三段97號","121.804265","25.10855","6501200","瑞芳區"
"224002","639-TC","2018/10/15 18:39:24","新北市瑞芳區三爪子坑路64-36號","121.80898","25.105975","6501200","瑞芳區"
"224008","285-BY","2018/10/15 18:39:29","新北市瑞芳區瑞芳街31號","121.806501666667","25.10949","6501200","瑞芳區"
"224007","275-VK","2018/10/15 18:39:13","新北市瑞芳區大埔路67巷3-1號","121.764421666667","25.1015333333333","6501200","瑞芳區"
"224009","273-VK","2018/10/15 18:39:17","新北市瑞芳區祈堂路1號","121.859793333333","25.1111733333333","6501200","瑞芳區"
"224005","271-BY","2018/10/15 18:39:11","新北市瑞芳區瑞濱路34-2號","121.819323333333","25.1196733333333","6501200","瑞芳區"
"227001","642-TC","2018/10/15 18:39:12","新北市雙溪區魚行里坤溪3-5號","121.876196666667","25.0208366666667","6502500","雙溪區"
"227008","400-TW","2018/10/15 18:39:25","新北市雙溪區牡丹里下坑11號","121.851026666667","25.0561766666667","6502500","雙溪區"
"253006","032-BX","2018/10/15 18:39:22","新北市石門區楓林28-1號","121.541645","25.289395","6502200","石門區"
"253005","295-VK","2018/10/15 18:39:28","新北市石門區石門街37號","121.566273333333","25.2905416666667","6502200","石門區"
"222001","KEA-2212","2018/10/15 18:39:17","新北市深坑區北深路一段82號","121.636366666667","25.0108533333333","6501800","深坑區"
"208002","KEA-2872","2018/10/15 18:39:07","新北市金山區忠孝一路19巷17號","121.637403333333","25.217795","6502700","金山區"
"208003","665-BX","2018/10/15 18:39:21","新北市金山區中山路270號","121.635325","25.2242733333333","6502700","金山區"
"208001","761-BX","2018/10/15 18:39:29","新北市金山區文化三路24號","121.635793333333","25.2245516666667","6502700","金山區"
"251005","010-UM","2018/10/15 18:39:26","新北市淡水區中正路18巷6號","121.437641666667","25.172835","6501000","淡水區"
"251013","KEA-2871","2018/10/15 18:39:17","新北市淡水區椿子林10號","121.486806666667","25.2033566666667","6501000","淡水區"
"251016","179-VK","2018/10/15 18:39:18","新北市淡水區下圭柔山84號","121.437765","25.2058616666667","6501000","淡水區"
"251015","180-VK","2018/10/15 18:39:28","新北市淡水區樹林口58號","121.484716666667","25.1631166666667","6501000","淡水區"
"251008","181-VK","2018/10/15 18:39:28","新北市淡水區北投子73-1號","121.453395","25.182695","6501000","淡水區"
"251010","413-VK","2018/10/15 18:39:27","新北市淡水區沙崙路141號","121.423266666667","25.1829283333333","6501000","淡水區"
"251012","441-VK","2018/10/15 18:39:20","新北市淡水區北新路117號","121.44892","25.1786166666667","6501000","淡水區"
"251007","442-VK","2018/10/15 18:39:23","新北市淡水區中正東路二段143巷2弄1號","121.460596666667","25.147295","6501000","淡水區"
"251004","443-VK","2018/10/15 18:39:24","新北市淡水區民族路33巷2-7號","121.464098333333","25.1371466666667","6501000","淡水區"
"251001","559-UM","2018/10/15 18:39:20","新北市淡水區自強路166號","121.465561666667","25.1341183333333","6501000","淡水區"
"251006","561-UM","2018/10/15 18:39:29","新北市淡水區崁頂53號","121.441058333333","25.1963016666667","6501000","淡水區"
"251011","650-BX","2018/10/15 18:39:09","新北市淡水區鄧公路266號","121.459175","25.168675","6501000","淡水區"
"251002","672-BX","2018/10/15 18:39:26","新北市淡水區中正東路一段3巷14弄1號","121.45092","25.1641233333333","6501000","淡水區"
"251003","766-UM","2018/10/15 18:39:23","新北市淡水區北新路69巷26號","121.446716666667","25.18012","6501000","淡水區"
"207003","550-UM","2018/10/15 18:39:27","新北市萬里區野柳里港東路87-1號","121.688045","25.20388","6502800","萬里區"
"207004","225-TW","2018/10/15 18:39:19","新北市萬里區萬里里獅頭路7號","121.69199","25.17836","6502800","萬里區"
"252002","178-VK","2018/10/15 18:39:11","新北市三芝區民生街64巷4號","121.503551666667","25.2553533333333","6502100","三芝區"
"252003","249-BX","2018/10/15 18:39:28","新北市三芝區後厝里土地公坑56-1號","121.464085","25.2489283333333","6502100","三芝區"
"252001","292-VK","2018/10/15 18:39:25","新北市三芝區中興街二段260號","121.50191","25.2529066666667","6502100","三芝區"
"237004","KEA-2597","2018/10/15 18:39:22","新北市三峽區金敏5號","121.386953333333","24.8733883333333","6500900","三峽區"
"237007","153-BY","2018/10/15 18:39:28","新北市三峽區柑樹路2巷3號","121.362255","24.9056016666667","6500900","三峽區"
"237009","210-TH","2018/10/15 18:39:10","新北市三峽區大同路240巷1號","121.36604","24.92584","6500900","三峽區"
"237013","252-BX","2018/10/15 18:39:28","新北市三峽區光明路69巷25號","121.376658333333","24.929255","6500900","三峽區"
"237012","275-BY","2018/10/15 18:39:22","新北市三峽區三樹路340號","121.383988333333","24.94334","6500900","三峽區"
"237008","302-VK","2018/10/15 18:39:18","新北市三峽區白雞89號","121.401991666667","24.9082366666667","6500900","三峽區"
"237014","433-BY","2018/10/15 18:39:26","新北市三峽區復興路179號","121.369621666667","24.938725","6500900","三峽區"
"237006","5529-G3","2018/10/15 18:39:10","新北市三峽區溪東路315巷48弄2號","121.411753333333","24.930885","6500900","三峽區"
"237015","649-BX","2018/10/15 18:39:20","新北市三峽區竹崙路61號","121.431323333333","24.9216466666667","6500900","三峽區"
"237010","706-TV","2018/10/15 18:39:27","新北市三峽區復興路487號","121.361271666667","24.9384383333333","6500900","三峽區"
"237005","AKY-6261","2018/10/15 18:39:29","新北市三峽區新興街13號","121.372726666667","24.93565","6500900","三峽區"
"236069","105-UM","2018/10/15 18:39:11","新北市土城區永豐路157巷29弄6-1號","121.468353333333","24.98148","6501300","土城區"
"236042","107-UM","2018/10/15 18:39:26","新北市土城區學成路114號","121.449656666667","24.9892983333333","6501300","土城區"
"236078","166-UM","2018/10/15 18:39:10","新北市土城區頂埔街95-1號","121.417965","24.95981","6501300","土城區"
"236030","253-BX","2018/10/15 18:39:21","新北市土城區慶利街21號","121.439078333333","24.974205","6501300","土城區"
"236026","269-VK","2018/10/15 18:39:15","新北市土城區忠義路45巷2號","121.441155","24.96957","6501300","土城區"
"236014","270-VK","2018/10/15 18:39:26","新北市土城區清水路207巷11號","121.459855","24.9823283333333","6501300","土城區"
"236039","271-VK","2018/10/15 18:39:14","新北市土城區明德路一段202號","121.461498333333","24.9777583333333","6501300","土城區"
"236020","401-BY","2018/10/15 18:39:22","新北市土城區延吉街327-1號","121.465536666667","24.984195","6501300","土城區"
"236055","752-BX","2018/10/15 18:39:23","新北市土城區中華路一段23號","121.446755","24.98922","6501300","土城區"
"236059","912-UM","2018/10/15 18:39:23","新北市土城區中央路三段155號","121.432065","24.965355","6501300","土城區"
"236048","913-UM","2018/10/15 18:39:27","新北市土城區明德路一段69巷7號","121.465503333333","24.9837633333333","6501300","土城區"
"236063","915-UM","2018/10/15 18:39:20","新北市土城區延壽路13巷38號","121.469971666667","24.9913933333333","6501300","土城區"
"242058","986-R7","2018/10/15 18:39:22","新北市泰山區新北大道六段385號","121.421793333333","25.032515","6500500","新莊區"
"242029","612-BX","2018/10/15 18:39:18","新北市新莊區新泰路357巷3弄57號","121.442198333333","25.0393016666667","6500500","新莊區"
"242046","400-BY","2018/10/15 18:39:22","新北市新莊區福營路346號","121.421493333333","25.0266916666667","6500500","新莊區"
"242060","353-BY","2018/10/15 18:39:17","新北市新莊區民安西路2號","121.426435","25.0220133333333","6500500","新莊區"
"242011","132-UY","2018/10/15 18:39:14","新北市新莊區中平路377巷17弄50號","121.443001666667","25.0516233333333","6500500","新莊區"
"242042","133-UY","2018/10/15 18:39:15","新北市新莊區中正路694巷132號","121.415993333333","25.0300466666667","6500500","新莊區"
"242017","346-TH","2018/10/15 18:27:13","新北市新莊區三和路12-21號","121.442215","25.03816","6500500","新莊區"
"242004","349-TH","2018/10/15 18:39:24","新北市新莊區思源路177巷17號","121.459118333333","25.0462783333333","6500500","新莊區"
"238023","601-UM","2018/10/15 18:39:10","新北市樹林區三福街114號","121.40651","25.0163433333333","6500700","樹林區"
"238019","599-UM","2018/10/15 18:39:26","新北市樹林區中華路190-16號","121.411715","24.9806383333333","6500700","樹林區"
"238018","571-TV","2018/10/15 18:39:17","新北市樹林區鎮前街158號","121.424486666667","24.990155","6500700","樹林區"
"238024","5061-A6","2018/10/15 18:39:26","新北市樹林區太順街49巷20弄22號","121.41748","24.978305","6500700","樹林區"
"238021","KEA-2539","2018/10/15 18:39:10","新北市樹林區西圳街二段21號","121.388803333333","24.961765","6500700","樹林區"
"238025","303-VK","2018/10/15 18:39:29","新北市樹林區中山路三段210-2號","121.381493333333","24.9655616666667","6500700","樹林區"
"238020","268-VK","2018/10/15 18:39:26","新北市樹林區三俊街250-1號","121.421303333333","25.0147183333333","6500700","樹林區"
"238026","172-UY","2018/10/15 18:39:18","新北市樹林區育德街78-1號","121.38801","24.96809","6500700","樹林區"
"238016","169-UY","2018/10/15 18:39:12","新北市樹林區文化街23號","121.419213333333","24.9876133333333","6500700","樹林區"
"239007","AAC-297","2018/10/15 18:39:15","新北市鶯歌區中正一路461-2號","121.363215","24.9566716666667","6500800","鶯歌區"
"239008","527-UM","2018/10/15 18:39:27","新北市鶯歌區國際一路179號","121.336205","24.976495","6500800","鶯歌區"
"239005","526-UM","2018/10/15 18:39:19","新北市鶯歌區鳳吉二街33號","121.326125","24.97319","6500800","鶯歌區"
"239001","417-VK","2018/10/15 18:39:25","新北市鶯歌區二橋街7號","121.336763333333","24.9394583333333","6500800","鶯歌區"
"239003","360-BY","2018/10/15 18:39:11","新北市鶯歌區永和街57號","121.332733333333","24.9675383333333","6500800","鶯歌區"
"239004","193-VK","2018/10/15 18:39:12","新北市鶯歌區尖山路240巷30號","121.34254","24.94757","6500800","鶯歌區"
"221008","489-VK","2018/10/15 18:39:25","新北市汐止區康寧街901號","121.651316666667","25.0749683333333","6501100","汐止區"
"221036","130-UY","2018/10/15 18:39:19","新北市汐止區水碓街55號","121.665145","25.06922","6501100","汐止區"
"221010","269-BY","2018/10/15 18:39:17","新北市汐止區汐萬路三段213-1號","121.64273","25.10107","6501100","汐止區"
"221012","278-VK","2018/10/15 18:39:12","新北市汐止區保長路151號","121.676728333333","25.0762583333333","6501100","汐止區"
"221023","279-VK","2018/10/15 18:39:12","新北市汐止區康寧街541巷9號","121.633783333333","25.06933","6501100","汐止區"
"221032","280-BY","2018/10/15 18:39:17","新北市汐止區福山街56巷19號","121.618013333333","25.0456516666667","6501100","汐止區"
"221027","281-BY","2018/10/15 18:39:08","新北市汐止區大同路二段585號","121.663606666667","25.0704866666667","6501100","汐止區"
"221029","298-VK","2018/10/15 18:39:17","新北市汐止區樟樹一路133巷1號","121.642213333333","25.0650466666667","6501100","汐止區"
"221021","299-VK","2018/10/15 18:39:16","新北市汐止區復興路72號","121.657156666667","25.0621366666667","6501100","汐止區"
"221031","353-TW","2018/10/15 18:39:19","新北市汐止區中興路130-1號","121.632976666667","25.0641766666667","6501100","汐止區"
"221025","623-UM","2018/10/15 18:39:15","新北市汐止區仁愛路119巷9號","121.662353333333","25.0639216666667","6501100","汐止區"
"221038","646-BX","2018/10/15 18:39:19","新北市汐止區汐萬路一段115巷1號","121.654398333333","25.070655","6501100","汐止區"
"221033","647-BX","2018/10/15 18:39:18","新北市汐止區南勢街2號","121.627263333333","25.0373966666667","6501100","汐止區"
"221002","707-TV","2018/10/15 18:39:25","新北市汐止區大同路一段301號","121.637328333333","25.0589533333333","6501100","汐止區"
"221018","753-BX","2018/10/15 18:39:29","新北市汐止區茄苳路255號","121.67182","25.0682783333333","6501100","汐止區"
"220079","145-BY","2018/10/15 18:39:30","新北市板橋區大觀路一段31號","121.449828333333","25.0084633333333","6500100","板橋區"
"220082","610-BX","2018/10/15 18:39:20","新北市板橋區大觀路三段5-4號","121.432606666667","24.995895","6500100","板橋區"
"220072","277-BY","2018/10/15 18:39:12","新北市板橋區大觀路三段50巷47號","121.432766666667","24.99584","6500100","板橋區"
"220094","283-UM","2018/10/15 18:39:10","新北市板橋區民生路二段182號","121.470961666667","25.020395","6500100","板橋區"
"220071","283-VK","2018/10/15 18:39:26","新北市板橋區四川路二段119號","121.451371666667","24.9943216666667","6500100","板橋區"
"220083","286-VK","2018/10/15 18:39:13","新北市板橋區大觀路二段107號","121.446203333333","25.0016516666667","6500100","板橋區"
"220081","287-VK","2018/10/15 18:39:19","新北市板橋區大觀路一段43號","121.448128333333","25.0078516666667","6500100","板橋區"
"220090","288-VK","2018/10/15 18:39:21","新北市板橋區民生路二段120號","121.47042","25.0197066666667","6500100","板橋區"
"220062","295-UM","2018/10/15 18:39:21","新北市板橋區民生路二段161巷7號","121.47026","25.019695","6500100","板橋區"
"220075","303-R5","2018/10/15 18:39:20","新北市板橋區華東街298號","121.452615","25.0024833333333","6500100","板橋區"
"220064","486-VK","2018/10/15 18:39:13","新北市板橋區民生路二段36-1號","121.472105","25.0167466666667","6500100","板橋區"
"220103","561-BX","2018/10/15 18:39:26","新北市板橋區民生路二段161巷1號","121.470278333333","25.019885","6500100","板橋區"
"220063","609-BX","2018/10/15 18:39:18","新北市板橋區民生路二段175號","121.469778333333","25.0202166666667","6500100","板橋區"
"220057","686-BX","2018/10/15 18:39:21","新北市板橋區大觀路2段435-7號","121.447748333333","24.995455","6500100","板橋區"
"220077","687-BX","2018/10/15 18:39:16","新北市板橋區大觀路二段174巷104弄1號","121.441008333333","25.0013916666667","6500100","板橋區"
"220054","741-BX","2018/10/15 18:39:20","新北市板橋區南雅南路二段120-1號","121.452285","24.9997383333333","6500100","板橋區"
"220055","827-TW","2018/10/15 18:39:23","新北市板橋區華東街11號","121.450666666667","24.9977866666667","6500100","板橋區"
"220067","829-TW","2018/10/15 18:39:23","新北市板橋區民生路二段120號","121.470461666667","25.0196733333333","6500100","板橋區"
"220074","895-R6","2018/10/15 18:39:15","新北市板橋區南雅南路二段30號","121.454365","25.0030766666667","6500100","板橋區"
"220070","AAC-253","2018/10/15 18:39:14","新北市板橋區大觀路二段266號","121.449061666667","24.9964266666667","6500100","板橋區"
"235068","KEA-2873","2018/10/15 18:39:21","新北市中和區中正路194號","121.49724","24.99388","6500300","中和區"
"235061","KEA-2875","2018/10/15 18:39:20","新北市中和區民享街92巷6號","121.474666666667","24.9999416666667","6500300","中和區"
