"lineid","car","time","location","longitude","latitude","cityid","cityname"
"234046","148-BY","2018/10/15 19:09:30","新北市永和區永元路18巷18號","121.52314","25.0002083333333","6500400","永和區"
"234007","207-UY","2018/10/15 19:09:25","新北市永和區中山路一段177號","121.509343333333","25.0090233333333","6500400","永和區"
"234081","298-R6","2018/10/15 19:09:21","新北市永和區福和路57巷14弄1號","121.522805","25.0069116666667","6500400","永和區"
"234038","336-UY","2018/10/15 19:09:20","新北市永和區民樂街71巷1號","121.527355","24.997525","6500400","永和區"
"234064","337-UY","2018/10/15 19:09:15","新北市永和區秀朗路二段17號","121.521021666667","25.00267","6500400","永和區"
"234086","338-UY","2018/10/15 19:09:24","新北市永和區永貞路134號","121.518323333333","25.00451","6500400","永和區"
"234070","552-UM","2018/10/15 19:09:24","新北市永和區豫溪街137巷1弄22號","121.51848","25.0104833333333","6500400","永和區"
"234017","745-BX","2018/10/15 19:09:13","新北市永和區文化路90巷15弄1號","121.513798333333","25.0159033333333","6500400","永和區"
"234030","746-BX","2018/10/15 19:09:26","新北市永和區民生路29號","121.522815","24.9985666666667","6500400","永和區"
"234054","KEA-2590","2018/10/15 19:09:21","新北市永和區中興街133巷14號","121.518413333333","25.0126","6500400","永和區"
"234013","KEA-2591","2018/10/15 19:09:23","新北市永和區永和路二段94號","121.51501","25.0116116666667","6500400","永和區"
"234061","AAD-866","2018/10/15 19:09:10","新北市永和區自由街37號","121.514335","25.00613","6500400","永和區"
"234050","863-TW","2018/10/15 19:09:24","新北市永和區文化路135巷26弄2號","121.510556666667","25.0145083333333","6500400","永和區"
"234026","9371-KE","2018/10/15 19:09:23","新北市永和區安樂路272巷9弄7號","121.515088333333","25.0045566666667","6500400","永和區"
"234011","9373-KE","2018/10/15 19:09:09","新北市永和區仁愛路141巷30弄5號","121.511965","25.0115016666667","6500400","永和區"
"249005","172-UM","2018/10/15 19:09:13","新北市八里區中華路三段65號","121.394703333333","25.1409533333333","6502300","八里區"
"249001","173-UM","2018/10/15 19:09:22","新北市八里區龍米路二段228-1號","121.4327","25.15847","6502300","八里區"
"249003","593-UM","2018/10/15 19:09:17","新北市八里區商港路48號","121.394741666667","25.1445883333333","6502300","八里區"
"248016","026-BX","2018/10/15 19:09:23","新北市五股區成泰路三段543巷41-1號","121.449673333333","25.103035","6501500","五股區"
"248006","077-UY","2018/10/15 19:09:14","新北市五股區中興路一段75號","121.467333333333","25.0726116666667","6501500","五股區"
"248008","095-VK","2018/10/15 19:09:13","新北市五股區中興路二段9巷29-1號","121.462851666667","25.0722933333333","6501500","五股區"
"248018","225-UY","2018/10/15 19:09:09","新北市五股區民義路二段22巷35-2號","121.424201666667","25.1006016666667","6501500","五股區"
"248012","655-BX","2018/10/15 19:09:19","新北市五股區中興路四段48巷16號","121.438638333333","25.083455","6501500","五股區"
"248004","677-BX","2018/10/15 19:09:29","新北市五股區六合街3號","121.431903333333","25.088555","6501500","五股區"
"248002","678-BX","2018/10/15 19:09:12","新北市五股區凌雲路一段158巷6號","121.447768333333","25.1029766666667","6501500","五股區"
"248010","682-TV","2018/10/15 19:09:27","新北市五股區水碓二路1號","121.430608333333","25.0712583333333","6501500","五股區"
"234023","9380-KE","2018/10/15 19:09:16","新北市永和區中興街10巷9號","121.515483333333","25.01127","6500400","永和區"
"234077","969-R7","2018/10/15 19:09:22","新北市永和區民權路34號","121.520216666667","24.9988516666667","6500400","永和區"
"234074","AAC-211","2018/10/15 19:09:19","新北市永和區竹林路222號","121.520785","25.00793","6500400","永和區"
"234067","AAC-212","2018/10/15 19:09:16","新北市永和區永和路一段112-1號","121.513455","25.0073416666667","6500400","永和區"
"234003","AAC-295","2018/10/15 19:09:25","新北市永和區保福路一段35巷6號","121.512281666667","25.00924","6500400","永和區"
"244023","069-UM","2018/10/15 19:09:15","新北市林口區文林六街2-1號","121.370735","25.0802166666667","6501700","林口區"
"244019","403-UM","2018/10/15 19:09:24","新北市林口區仁愛路二段235號","121.375546666667","25.07619","6501700","林口區"
"244017","485-VK","2018/10/15 19:09:11","新北市林口區公園路96號","121.369605","25.0706666666667","6501700","林口區"
"244021","657-BX","2018/10/15 19:09:15","新北市八里區下罟子1-7號","121.391091666667","25.1418933333333","6501700","林口區"
"244010","701-TV","2018/10/15 19:09:23","新北市林口區竹林路71號","121.387876666667","25.0786833333333","6501700","林口區"
"244025","837-TS","2018/10/15 19:09:11","新北市林口區文化三路一段447巷55號","121.366535","25.0750183333333","6501700","林口區"
"243013","AAD-798","2018/10/15 19:09:18","新北市泰山區明志路三段231巷2弄1號","121.424076666667","25.0377083333333","6501600","泰山區"
"243009","297-R6","2018/10/15 19:09:24","新北市泰山區楓樹街15巷3號","121.434961666667","25.0630383333333","6501600","泰山區"
"243016","KEA-2801","2018/10/15 19:09:16","新北市泰山區明志路二段341號","121.425578333333","25.044635","6501600","泰山區"
"243015","421-VK","2018/10/15 19:09:11","新北市泰山區明志路一段440號","121.430731666667","25.0559466666667","6501600","泰山區"
"243011","KEA-2215","2018/10/15 19:09:26","新北市泰山區明志路二段366號","121.425478333333","25.044975","6501600","泰山區"
"243010","KEA-2216","2018/10/15 19:09:22","新北市泰山區明志路一段483巷1弄1號","121.431068333333","25.0554333333333","6501600","泰山區"
"243014","680-BX","2018/10/15 19:09:17","新北市泰山區泰林路二段330號","121.429936666667","25.063195","6501600","泰山區"
"222003","436-BY","2018/10/15 19:09:12","新北市深坑區深南路162號","121.626145","25.014755","6501800","深坑區"
"222002","659-BX","2018/10/15 19:09:12","新北市深坑區北深路一段254號","121.62959","25.0087483333333","6501800","深坑區"
"231059","001-UM","2018/10/15 19:09:28","新北市新店區安康路一段351-1號","121.519485","24.9640833333333","6500600","新店區"
"231040","047-UY","2018/10/15 19:09:11","新北市新店區三民路98-2號","121.5339","24.9734933333333","6500600","新店區"
"231052","108-UY","2018/10/15 19:09:22","新北市新店區自強路94號","121.54631","24.9237916666667","6500600","新店區"
"231047","187-VK","2018/10/15 19:09:22","新北市新店區德正街27巷29弄123號","121.545751666667","24.9728983333333","6500600","新店區"
"231054","KEA-2219","2018/10/15 19:09:12","新北市新店區新店路157號","121.5371","24.9551416666667","6500600","新店區"
"231042","268-BY","2018/10/15 19:09:23","新北市新店區中興路一段203號","121.543708333333","24.9657083333333","6500600","新店區"
"231051","278-BY","2018/10/15 19:09:12","新北市新店區中正路398號","121.534723333333","24.9775016666667","6500600","新店區"
"231050","AAD-862","2018/10/15 19:09:30","新北市新店區竹林路26巷50號","121.551681666667","24.95048","6500600","新店區"
"231061","355-BY","2018/10/15 19:09:23","新北市新店區安康路一段355-10號","121.520461666667","24.9638316666667","6500600","新店區"
"231058","3713-VJ","2018/10/15 19:09:25","新北市新店區光明街168巷5弄2-1號","121.540453333333","24.9618883333333","6500600","新店區"
"231066","4716-K9","2018/10/15 19:09:18","新北市新店區安康路二段454號","121.494355","24.954315","6500600","新店區"
"231056","4715-K9","2018/10/15 19:09:08","新北市新店區民權路115-1號","121.53623","24.9824283333333","6500600","新店區"
"231067","4772-VM","2018/10/15 19:09:19","新北市新店區安康路一段291巷50號","121.523043333333","24.9614416666667","6500600","新店區"
"231065","512-UM","2018/10/15 19:09:28","新北市新店區安祥路145巷2號","121.474803333333","24.9553983333333","6500600","新店區"
"231049","513-UM","2018/10/15 19:09:17","新北市新店區二十張路25巷10號","121.538951666667","24.98207","6500600","新店區"
"231063","616-UM","2018/10/15 19:09:13","新北市新店區車子路144號","121.50526","24.9475883333333","6500600","新店區"
"231045","617-UM","2018/10/15 19:09:14","新北市新店區北宜路一段144-2號","121.540135","24.9540483333333","6500600","新店區"
"231044","618-UM","2018/10/15 19:09:14","新北市新店區中興路三段172號","121.544201666667","24.980955","6500600","新店區"
"231064","719-UM","2018/10/15 19:09:21","新北市新店區安忠路56巷6號","121.512935","24.95942","6500600","新店區"
"231062","720-UM","2018/10/15 19:09:20","新北市新店區安平路53號","121.519771666667","24.9683933333333","6500600","新店區"
"231060","897-TW","2018/10/15 19:09:15","新北市新店區車子路1-1號","121.504663333333","24.9579533333333","6500600","新店區"
"231043","899-TW","2018/10/15 19:09:16","新北市新店區寶橋路98號","121.546878333333","24.97601","6500600","新店區"
"241011","013-R5","2018/10/15 19:09:23","新北市蘆洲區復興路355巷11-5號","121.480703333333","25.0957416666667","6500200","三重區"
"241022","060-VK","2018/10/15 19:09:12","新北市三重區三民街153-1號","121.484188333333","25.0645333333333","6500200","三重區"
"241015","062-VK","2018/10/15 19:09:17","新北市三重區泉州街106號","121.495356666667","25.05318","6500200","三重區"
"241026","066-VK","2018/10/15 19:09:11","新北市三重區泉州街61巷1號","121.494655","25.0545533333333","6500200","三重區"
"251014","742-BX","2018/10/15 19:09:25","新北市淡水區小中寮19-2號","121.484448333333","25.2295116666667","6501000","淡水區"
"241024","KEA-2210","2018/10/15 19:09:15","新北市八里區中華路三段45號","121.395611666667","25.142005","6500200","三重區"
"241001","547-UM","2018/10/15 19:02:43","新北市三重區溪尾街124-1號","121.489435","25.0793216666667","6500200","三重區"
"241029","942-UM","2018/10/15 19:09:18","新北市三重區重安街53巷13號","121.491413333333","25.0561366666667","6500200","三重區"
"235066","003-UY","2018/10/15 19:09:21","新北市中和區廣福路34號","121.504565","25.0023066666667","6500300","中和區"
"235064","005-UY","2018/10/15 19:09:17","新北市中和區泰和街30巷10號","121.499206666667","25.0008333333333","6500300","中和區"
"235063","006-UY","2018/10/15 19:09:22","新北市中和區中正路636號","121.485725","24.996245","6500300","中和區"
"235039","097-UM","2018/10/15 19:09:24","新北市中和區自立路58巷8號","121.523316666667","24.9914583333333","6500300","中和區"
"235065","098-UM","2018/10/15 19:09:25","新北市中和區中山路二段136巷66號","121.500605","25.0043166666667","6500300","中和區"
"235040","150-BY","2018/10/15 19:09:19","新北市中和區宜安路23巷39號","121.511955","24.9944716666667","6500300","中和區"
"235055","183-VK","2018/10/15 19:09:24","新北市中和區德光路66號","121.46951","25.00385","6500300","中和區"
"235038","185-VK","2018/10/15 19:09:16","新北市中和區大仁街20巷34號","121.519288333333","24.9930916666667","6500300","中和區"
"235049","186-VK","2018/10/15 19:09:28","新北市中和區景安路100號","121.505511666667","24.9955516666667","6500300","中和區"
"235067","255-BX","2018/10/15 19:09:18","新北市中和區新生街176巷22號","121.482583333333","24.9999333333333","6500300","中和區"
"235044","293-VK","2018/10/15 19:09:21","新北市中和區中興街222-6號","121.500681666667","24.9896683333333","6500300","中和區"
"235072","301-VK","2018/10/15 19:09:18","新北市中和區連城路71號","121.497338333333","25.0010883333333","6500300","中和區"
"235043","352-BY","2018/10/15 19:09:25","新北市中和區景平路148號","121.518373333333","24.991845","6500300","中和區"
"235042","KEA-2878","2018/10/15 19:09:24","新北市中和區自立路16巷9號","121.521421666667","24.9935916666667","6500300","中和區"
"247012","KEA-2869","2018/10/15 19:09:27","新北市五股區新城八路26號","121.447978333333","25.0900666666667","6501400","蘆洲區"
"235069","4980-A6","2018/10/15 19:09:26","新北市中和區中山路二段181巷5號","121.50111","25.00201","6500300","中和區"
"235070","558-UM","2018/10/15 19:09:29","新北市中和區中和路171號","121.503086666667","24.999795","6500300","中和區"
"235045","565-BX","2018/10/15 19:09:13","新北市中和區景新街449號","121.513286666667","24.988595","6500300","中和區"
"235054","640-BX","2018/10/15 19:09:20","新北市中和區民德路132號","121.468766666667","25.0007766666667","6500300","中和區"
"235047","732-UM","2018/10/15 19:09:31","新北市中和區興南路一段129號","121.508916666667","24.9876533333333","6500300","中和區"
"235046","733-UM","2018/10/15 19:09:24","新北市中和區興南路二段33號","121.50778","24.9857683333333","6500300","中和區"
"235071","783-BX","2018/10/15 19:09:14","新北市中和區連城路467-5號","121.483531666667","24.995985","6500300","中和區"
"235062","800-TS","2018/10/15 19:09:12","新北市中和區中山路二段526巷15弄2號","121.48567","25.0055083333333","6500300","中和區"
"235057","801-TS","2018/10/15 19:09:11","新北市中和區民利街87號","121.478213333333","24.9981466666667","6500300","中和區"
"235041","802-TS","2018/10/15 19:09:13","新北市永和區中和路331號","121.507491666667","24.999735","6500300","中和區"
"235052","805-TS","2018/10/15 19:09:21","新北市中和區興南路二段142巷19弄3號","121.503151666667","24.9835333333333","6500300","中和區"
"235048","896-TW","2018/10/15 19:09:15","新北市中和區華新街97號","121.508781666667","24.9829883333333","6500300","中和區"
"235053","900-TW","2018/10/15 19:09:23","新北市中和區和平路244號","121.464486666667","24.9968666666667","6500300","中和區"
"235060","911-UM","2018/10/15 19:09:14","新北市中和區民有街82號","121.476088333333","25.00424","6500300","中和區"
"235051","157-BY","2018/10/15 19:09:17","新北市中和區興南路一段86號","121.510028333333","24.989325","6500300","中和區"
"235037","AAC-213","2018/10/15 19:09:25","新北市中和區秀朗路三段60巷22號","121.525663333333","24.9950933333333","6500300","中和區"
"235059","AAC-215","2018/10/15 19:09:28","新北市中和區圓通路296巷4弄1號","121.488083333333","24.98942","6500300","中和區"
"220035","015-TV","2018/10/15 19:09:09","新北市板橋區中正路377-2號","121.454373333333","25.0215516666667","6500100","板橋區"
"220065","072-UY","2018/10/15 19:09:11","新北市板橋區民族路219巷68號","121.468776666667","25.0086333333333","6500100","板橋區"
"220086","073-UY","2018/10/15 19:09:16","新北市板橋區公館街134號","121.461318333333","25.0184933333333","6500100","板橋區"
"220106","075-UY","2018/10/15 19:09:17","新北市板橋區雙十路三段9號","121.471628333333","25.0303033333333","6500100","板橋區"
"226004","312-R5","2018/10/15 19:09:29","新北市平溪區嶺腳里嶺腳寮9-1號","121.74772","25.02979","6502400","平溪區"
"228002","663-BX","2018/10/15 19:09:21","新北市貢寮區雙玉里田寮洋街21號","121.926358333333","25.0249083333333","6502600","貢寮區"
"228001","670-TC","2018/10/15 19:09:13","新北市貢寮區真理里新港街10號","121.925515","25.054385","6502600","貢寮區"
"224010","AGQ-8101","2018/10/15 19:09:09","新北市瑞芳區基山街34號","121.844898333333","25.108335","6501200","瑞芳區"
"224006","676-BX","2018/10/15 19:09:19","新北市瑞芳區中山路143-3號","121.802816666667","25.1064116666667","6501200","瑞芳區"
"224008","285-BY","2018/10/15 19:09:29","新北市瑞芳區明燈路三段285號","121.798508333333","25.1122016666667","6501200","瑞芳區"
"224007","275-VK","2018/10/15 19:09:13","新北市瑞芳區瑞竹路46號","121.7635","25.1033666666667","6501200","瑞芳區"
"224009","273-VK","2018/10/15 19:09:17","新北市瑞芳區洞頂路8-1號","121.86305","25.121215","6501200","瑞芳區"
"227001","642-TC","2018/10/15 19:09:12","新北市雙溪區平林里外平林9-5號","121.859153333333","25.0380133333333","6502500","雙溪區"
"227008","400-TW","2018/10/15 19:09:25","新北市雙溪區牡丹里中正路46-4號","121.865051666667","25.0390166666667","6502500","雙溪區"
"253006","032-BX","2018/10/15 19:09:22","新北市石門區八甲4-3號","121.520895","25.2833683333333","6502200","石門區"
"253005","295-VK","2018/10/15 19:09:28","新北市石門區阿里荖41-1號","121.605595","25.2805266666667","6502200","石門區"
"222001","KEA-2212","2018/10/15 19:09:17","新北市深坑區北深路一段300號","121.624198333333","25.00577","6501800","深坑區"
"208002","KEA-2872","2018/10/15 19:09:27","新北市金山區環金路251號","121.633541666667","25.22124","6502700","金山區"
"208003","665-BX","2018/10/15 19:09:21","新北市金山區中正路135號","121.63241","25.221545","6502700","金山區"
"208001","761-BX","2018/10/15 19:09:23","新北市金山區金包里街14巷21號","121.640538333333","25.2212983333333","6502700","金山區"
"251005","010-UM","2018/10/15 19:09:26","新北市淡水區原德路13號","121.442076666667","25.171365","6501000","淡水區"
"251013","KEA-2871","2018/10/15 19:09:17","新北市淡水區安子內12-1號","121.481543333333","25.2190816666667","6501000","淡水區"
"251016","179-VK","2018/10/15 19:09:18","新北市淡水區淡金路三段348號","121.44966","25.208865","6501000","淡水區"
"251015","180-VK","2018/10/15 19:09:08","新北市淡水區南勢埔27-2號","121.483481666667","25.1805433333333","6501000","淡水區"
"251010","413-VK","2018/10/15 19:09:27","新北市淡水區中正路一段156巷3號","121.421215","25.1803066666667","6501000","淡水區"
"251007","442-VK","2018/10/15 19:09:23","新北市淡水區民生路137號","121.465625","25.1387233333333","6501000","淡水區"
"251001","559-UM","2018/10/15 19:09:20","新北市淡水區自強路201巷39號","121.46213","25.1268016666667","6501000","淡水區"
"251002","672-BX","2018/10/15 19:09:26","新北市淡水區中山路88號","121.442911666667","25.1704916666667","6501000","淡水區"
"251003","766-UM","2018/10/15 19:09:23","新北市淡水區中山北路一段99號","121.442405","25.176465","6501000","淡水區"
"207003","550-UM","2018/10/15 19:09:25","新北市萬里區大鵬里萬里加投25號","121.648588333333","25.206835","6502800","萬里區"
"207004","225-TW","2018/10/15 19:09:19","新北市萬里區萬里里瑪鋉下街52號","121.691598333333","25.1795383333333","6502800","萬里區"
"252002","178-VK","2018/10/15 19:09:11","新北市三芝區中正路一段68號","121.503721666667","25.2576683333333","6502100","三芝區"
"252003","249-BX","2018/10/15 19:09:27","新北市三芝區錫板里南勢崗6號","121.479571666667","25.261965","6502100","三芝區"
"252001","292-VK","2018/10/15 19:09:05","新北市三芝區長勤街80號","121.500226666667","25.25513","6502100","三芝區"
"237004","KEA-2597","2018/10/15 19:09:22","新北市三峽區有木206號","121.439106666667","24.85149","6500900","三峽區"
"237007","153-BY","2018/10/15 19:09:08","新北市三峽區中正路二段42巷84號","121.364326666667","24.9205383333333","6500900","三峽區"
"237013","252-BX","2018/10/15 19:09:28","新北市三峽區光明路69巷10號","121.376296666667","24.928645","6500900","三峽區"
"237012","275-BY","2018/10/15 19:09:22","新北市三峽區三樹路222巷236弄8-1號","121.391321666667","24.9429766666667","6500900","三峽區"
"237008","302-VK","2018/10/15 19:09:18","新北市三峽區中正路一段191巷4號","121.372866666667","24.9276533333333","6500900","三峽區"
"237014","433-BY","2018/10/15 19:09:26","新北市三峽區復興路480巷30號","121.359666666667","24.93878","6500900","三峽區"
"237006","5529-G3","2018/10/15 19:09:30","新北市三峽區橫溪路99巷18-3號","121.400716666667","24.9359583333333","6500900","三峽區"
"237015","649-BX","2018/10/15 19:09:20","新北市三峽區建安80-3號","121.452613333333","24.922625","6500900","三峽區"
"237010","706-TV","2018/10/15 19:09:27","新北市三峽區國光街350巷12號","121.371658333333","24.940055","6500900","三峽區"
"237005","AKY-6261","2018/10/15 19:09:09","新北市三峽區中山路459巷163-3號","121.34866","24.932915","6500900","三峽區"
"236069","105-UM","2018/10/15 19:09:11","新北市土城區裕生路84巷2號","121.447351666667","24.985435","6501300","土城區"
"236042","107-UM","2018/10/15 19:09:26","新北市土城區學府路一段239號","121.4504","24.9833433333333","6501300","土城區"
"236078","166-UM","2018/10/15 19:09:10","新北市土城區龍泉路15-1號","121.411245","24.9474716666667","6501300","土城區"
"236030","253-BX","2018/10/15 19:09:14","新北市土城區城林路6巷80號","121.43852","24.97958","6501300","土城區"
"236026","269-VK","2018/10/15 19:09:15","新北市土城區中央路二段193號","121.44214","24.9752216666667","6501300","土城區"
"236014","270-VK","2018/10/15 19:09:26","新北市土城區學府路一段37巷30號","121.45736","24.9875666666667","6501300","土城區"
"236020","401-BY","2018/10/15 19:09:22","新北市土城區延峰街33巷1號","121.469721666667","24.9847133333333","6501300","土城區"
"236055","752-BX","2018/10/15 19:09:23","新北市土城區學府路一段165號","121.453008333333","24.9857733333333","6501300","土城區"
"236059","912-UM","2018/10/15 19:09:23","新北市土城區金城路一段141號","121.44553","24.974415","6501300","土城區"
"236048","913-UM","2018/10/15 19:09:29","新北市土城區明德路一段365-1號","121.453655","24.9790733333333","6501300","土城區"
"236063","915-UM","2018/10/15 19:09:20","新北市土城區金城路三段120號","121.466548333333","24.9871066666667","6501300","土城區"
"242029","612-BX","2018/10/15 18:48:17","新北市新莊區新泰路357巷3弄57號","121.44221","25.0392783333333","6500500","新莊區"
"242013","173-VK","2018/10/15 19:09:19","新北市新莊區三和路12-21號","121.44203","25.0387183333333","6500500","新莊區"
"242004","349-TH","2018/10/15 19:09:11","新北市新莊區思源路48號","121.460555","25.0438233333333","6500500","新莊區"
"238023","601-UM","2018/10/15 19:09:16","新北市樹林區三興路51號","121.395443333333","25.0144916666667","6500700","樹林區"
"238019","599-UM","2018/10/15 19:09:25","新北市樹林區東榮街102號","121.415603333333","24.9824066666667","6500700","樹林區"
"238018","571-TV","2018/10/15 18:59:42","新北市樹林區太平路48號","121.418963333333","24.9824833333333","6500700","樹林區"
"238024","5061-A6","2018/10/15 19:09:26","新北市樹林區中山路二段249巷30號","121.403548333333","24.975475","6500700","樹林區"
"238022","KEA-2213","2018/10/15 19:09:18","新北市樹林區中山路二段151巷12號","121.406803333333","24.9783233333333","6500700","樹林區"
"238021","KEA-2539","2018/10/15 19:09:25","新北市樹林區柑園街二段363巷6號","121.368696666667","24.94865","6500700","樹林區"
"238025","303-VK","2018/10/15 19:09:29","新北市樹林區中山路三段206號","121.382916666667","24.9664216666667","6500700","樹林區"
"238017","283-BY","2018/10/15 19:09:13","新北市樹林區大安路84-4號","121.420468333333","24.9956766666667","6500700","樹林區"
"238014","282-BY","2018/10/15 19:09:18","新北市樹林區千歲街61巷2號","121.426466666667","24.9979283333333","6500700","樹林區"
"238020","268-VK","2018/10/15 19:09:26","新北市樹林區俊英街133巷13號","121.423555","25.0110433333333","6500700","樹林區"
"238026","172-UY","2018/10/15 19:09:18","新北市樹林區佳園路一段37-1號","121.392996666667","24.9708466666667","6500700","樹林區"
"238016","169-UY","2018/10/15 19:09:12","新北市樹林區復興路335巷6弄15號","121.417818333333","24.98705","6500700","樹林區"
"239007","AAC-297","2018/10/15 19:09:15","新北市鶯歌區中山路138巷19-1號","121.351721666667","24.9601916666667","6500800","鶯歌區"
"239006","891-R6","2018/10/15 19:09:18","新北市鶯歌區鶯桃路296巷84弄15號","121.337133333333","24.9615983333333","6500800","鶯歌區"
"239008","527-UM","2018/10/15 19:09:27","新北市鶯歌區國際二路10巷15號","121.3383","24.9743783333333","6500800","鶯歌區"
"239005","526-UM","2018/10/15 19:09:19","新北市鶯歌區大湖路361巷24弄2-1號","121.330363333333","24.9780683333333","6500800","鶯歌區"
"239001","417-VK","2018/10/15 19:09:25","新北市鶯歌區永智街33號","121.33669","24.9544516666667","6500800","鶯歌區"
"239003","360-BY","2018/10/15 19:09:31","新北市鶯歌區中正二路165號","121.344546666667","24.94942","6500800","鶯歌區"
"239004","193-VK","2018/10/15 19:09:12","新北市鶯歌區中正三路302巷15號","121.328021666667","24.93611","6500800","鶯歌區"
"221008","489-VK","2018/10/15 19:09:25","新北市汐止區康寧街480號","121.632278333333","25.0683566666667","6501100","汐止區"
"221036","130-UY","2018/10/15 19:09:19","新北市汐止區汐萬路一段256巷3號","121.652365","25.0746066666667","6501100","汐止區"
"221010","269-BY","2018/10/15 19:09:17","新北市汐止區康寧街901號","121.651348333333","25.0750866666667","6501100","汐止區"
"221012","278-VK","2018/10/15 19:09:12","新北市汐止區康寧街901號","121.650825","25.0752483333333","6501100","汐止區"
"221023","279-VK","2018/10/15 19:09:11","新北市汐止區康寧街901號","121.650968333333","25.0752666666667","6501100","汐止區"
"221032","280-BY","2018/10/15 19:09:16","新北市汐止區橫科路241-5號","121.622471666667","25.0487216666667","6501100","汐止區"
"221027","281-BY","2018/10/15 19:09:28","新北市汐止區康寧街901號","121.651353333333","25.0749716666667","6501100","汐止區"
"221029","298-VK","2018/10/15 19:09:17","新北市汐止區汐萬路一段256巷3號","121.652428333333","25.074565","6501100","汐止區"
"221021","299-VK","2018/10/15 19:09:16","新北市汐止區康寧街901號","121.651486666667","25.0749966666667","6501100","汐止區"
"221031","353-TW","2018/10/15 19:09:19","新北市汐止區福德三路127號","121.633496666667","25.06761","6501100","汐止區"
"221025","623-UM","2018/10/15 19:09:15","新北市汐止區康寧街901號","121.651473333333","25.074995","6501100","汐止區"
"221038","646-BX","2018/10/15 19:09:19","新北市汐止區汐萬路一段312號","121.650688333333","25.0753116666667","6501100","汐止區"
"221033","647-BX","2018/10/15 19:09:18","新北市汐止區南勢街3號","121.627075","25.0374133333333","6501100","汐止區"
"221002","707-TV","2018/10/15 19:09:25","新北市汐止區大同路一段161號","121.632533333333","25.0563333333333","6501100","汐止區"
"220079","145-BY","2018/10/15 19:09:30","新北市板橋區民權路260巷31號","121.458946666667","25.0153316666667","6500100","板橋區"
"220082","610-BX","2018/10/15 19:09:20","新北市板橋區大觀路三段265號","121.429035","24.9923916666667","6500100","板橋區"
"220101","245-BX","2018/10/15 19:09:10","新北市板橋區萬板路15號","121.470696666667","25.02091","6500100","板橋區"
"220091","267-BY","2018/10/15 19:09:26","新北市板橋區八德路二段62號","121.482013333333","25.0272166666667","6500100","板橋區"
"220072","277-BY","2018/10/15 19:09:13","新北市板橋區溪城路95號","121.427265","24.98296","6500100","板橋區"
"220094","283-UM","2018/10/15 19:09:26","新北市板橋區光武街106號","121.465858333333","25.0290216666667","6500100","板橋區"
"220071","283-VK","2018/10/15 19:09:26","新北市板橋區重慶路353巷7號","121.46477","24.9981433333333","6500100","板橋區"
"220053","285-VK","2018/10/15 19:09:32","新北市板橋區懷仁街10巷30號","121.474811666667","25.0194266666667","6500100","板橋區"
"220083","286-VK","2018/10/15 19:09:12","新北市板橋區龍興街97巷6號","121.443898333333","25.0027383333333","6500100","板橋區"
"220081","287-VK","2018/10/15 19:09:20","新北市板橋區南雅西路二段156巷1號","121.451943333333","25.013415","6500100","板橋區"
"220090","288-VK","2018/10/15 19:09:26","新北市板橋區裕民街48號","121.461675","25.0288183333333","6500100","板橋區"
"220061","293-UM","2018/10/15 19:09:28","新北市板橋區懷仁街91號","121.47749","25.0182033333333","6500100","板橋區"
"220062","295-UM","2018/10/15 19:09:21","新北市板橋區三民路二段居仁巷1弄36號","121.480495","25.0136183333333","6500100","板橋區"
"220075","303-R5","2018/10/15 19:09:20","新北市板橋區南雅南路一段4巷2號","121.455291666667","25.005445","6500100","板橋區"
"220092","307-R5","2018/10/15 19:09:25","新北市板橋區文化路二段107號","121.469411666667","25.025925","6500100","板橋區"
"220098","317-R6","2018/10/15 19:09:21","新北市板橋區自由路51巷14弄10號","121.464671666667","25.0238233333333","6500100","板橋區"
"220064","486-VK","2018/10/15 19:09:14","新北市板橋區板新路84號","121.472706666667","25.0144833333333","6500100","板橋區"
"220089","487-VK","2018/10/15 19:09:24","新北市板橋區文化路二段389號","121.473583333333","25.0315266666667","6500100","板橋區"
"220088","491-VK","2018/10/15 19:09:25","新北市板橋區文化路二段182巷1弄6號","121.471241666667","25.027595","6500100","板橋區"
"220103","561-BX","2018/10/15 19:09:06","新北市板橋區文化路一段188巷9弄33號","121.469001666667","25.0192216666667","6500100","板橋區"
"220063","609-BX","2018/10/15 19:09:22","新北市板橋區三民路二段146號","121.479148333333","25.0153833333333","6500100","板橋區"
"220057","686-BX","2018/10/15 19:08:41","新北市板橋區重慶路308-1號","121.463705","24.9980133333333","6500100","板橋區"
"220077","687-BX","2018/10/15 19:09:15","新北市板橋區大觀路一段65號","121.447125","25.004855","6500100","板橋區"
"220093","689-BX","2018/10/15 19:09:12","新北市板橋區民生路三段183號","121.46548","25.0273916666667","6500100","板橋區"
"220054","741-BX","2018/10/15 19:09:20","新北市板橋區重慶路69巷18號","121.462803333333","25.0069783333333","6500100","板橋區"
"220102","KEA-2699","2018/10/15 19:09:23","新北市板橋區田單街51號","121.482645","25.0278866666667","6500100","板橋區"
"220055","827-TW","2018/10/15 19:09:23","新北市板橋區新民街7巷25號","121.463576666667","25.0104633333333","6500100","板橋區"
"220067","829-TW","2018/10/15 19:09:23","新北市板橋區三民路二段正隆巷44號","121.476906666667","25.013855","6500100","板橋區"
"220096","831-TW","2018/10/15 19:09:12","新北市板橋區雙十路二段33巷1-1號","121.476628333333","25.025695","6500100","板橋區"
"220074","895-R6","2018/10/15 19:09:15","新北市板橋區中正路自強新村91-1號","121.454825","25.0131433333333","6500100","板橋區"
"220097","AAC-210","2018/10/15 19:09:25","新北市板橋區新生街89巷2號","121.458273333333","25.022255","6500100","板橋區"
"220070","AAC-253","2018/10/15 19:09:14","新北市板橋區忠孝路52號","121.460823333333","25.001915","6500100","板橋區"
"235068","KEA-2873","2018/10/15 19:09:21","新北市中和區圓通路171號","121.49757","24.99525","6500300","中和區"
"235061","KEA-2875","2018/10/15 19:09:20","新北市中和區中山路三段63巷9號","121.476953333333","25.0047","6500300","中和區"
