"lineid","car","time","location","longitude","latitude","cityid","cityname"
"234046","148-BY","2018/10/15 19:49:10","新北市永和區永利路173號","121.52547","25.00343","6500400","永和區"
"234007","207-UY","2018/10/15 19:49:01","新北市中和區中和路232號","121.506635","24.9995916666667","6500400","永和區"
"234081","298-R6","2018/10/15 19:49:01","新北市永和區永亨路98號","121.523005","25.0048583333333","6500400","永和區"
"234038","336-UY","2018/10/15 19:49:00","新北市永和區民樂街57巷6號","121.527985","24.998525","6500400","永和區"
"234064","337-UY","2018/10/15 19:48:55","新北市永和區中正路368巷2號","121.517955","25.0008683333333","6500400","永和區"
"234086","338-UY","2018/10/15 19:49:04","新北市永和區永亨路67-1號","121.521211666667","25.0060166666667","6500400","永和區"
"234070","552-UM","2018/10/15 19:49:04","新北市永和區竹林路88號","121.51946","25.01262","6500400","永和區"
"234017","745-BX","2018/10/15 19:48:53","新北市永和區永和路二段299號","121.516025","25.0161466666667","6500400","永和區"
"234030","746-BX","2018/10/15 19:49:11","新北市永和區民生路67巷28號","121.524243333333","24.9973016666667","6500400","永和區"
"234054","KEA-2590","2018/10/15 19:49:01","新北市永和區竹林路75巷1-1號","121.519088333333","25.0132566666667","6500400","永和區"
"234013","KEA-2591","2018/10/15 19:49:03","新北市永和區仁愛路247號","121.508683333333","25.011845","6500400","永和區"
"234061","AAD-866","2018/10/15 19:48:50","新北市永和區安樂路30號","121.514528333333","24.9966333333333","6500400","永和區"
"234050","863-TW","2018/10/15 19:49:04","新北市永和區環河西路一段109號","121.511033333333","25.0173233333333","6500400","永和區"
"234026","9371-KE","2018/10/15 19:49:03","新北市永和區雙和街20巷1號","121.50915","25.0021883333333","6500400","永和區"
"234011","9373-KE","2018/10/15 19:49:09","新北市永和區仁愛路352巷80號","121.501833333333","25.00754","6500400","永和區"
"249001","173-UM","2018/10/15 19:48:52","新北市八里區中華路二段252號","121.405385","25.1496883333333","6502300","八里區"
"249004","303-UY","2018/10/15 19:48:49","新北市八里區仁愛路63號","121.412151666667","25.1601483333333","6502300","八里區"
"249002","305-UY","2018/10/15 19:49:11","新北市八里區頂寮五街20號","121.451296666667","25.1262283333333","6502300","八里區"
"249003","593-UM","2018/10/15 19:48:57","新北市八里區中華路二段552號","121.398665","25.14535","6502300","八里區"
"248016","026-BX","2018/10/15 19:49:03","新北市五股區成泰路三段577巷82號","121.449641666667","25.103815","6501500","五股區"
"248008","095-VK","2018/10/15 19:48:53","新北市五股區四維路171巷11號","121.467325","25.0752166666667","6501500","五股區"
"248018","225-UY","2018/10/15 19:49:09","新北市五股區外寮路1-5號","121.425975","25.0768833333333","6501500","五股區"
"248014","261-SL","2018/10/15 19:48:57","新北市五股區五福路32巷12號","121.434518333333","25.0893516666667","6501500","五股區"
"248012","655-BX","2018/10/15 19:49:00","新北市五股區成泰路一段237-22號","121.435926666667","25.0805266666667","6501500","五股區"
"248004","677-BX","2018/10/15 19:49:11","新北市五股區成泰路一段142-1號","121.435068333333","25.0761933333333","6501500","五股區"
"248002","678-BX","2018/10/15 19:49:12","新北市五股區成泰路四段14號","121.453421666667","25.106735","6501500","五股區"
"248010","682-TV","2018/10/15 19:49:06","新北市五股區登林路76-5號","121.430495","25.0695733333333","6501500","五股區"
"234077","969-R7","2018/10/15 19:49:02","新北市永和區民權路82號","121.519871666667","24.9971416666667","6500400","永和區"
"234074","AAC-211","2018/10/15 19:48:59","新北市永和區竹林路213巷13號","121.521648333333","25.0089466666667","6500400","永和區"
"234067","AAC-212","2018/10/15 19:48:56","新北市永和區中山路一段255巷22號","121.508435","25.007105","6500400","永和區"
"234003","AAC-295","2018/10/15 19:49:05","新北市永和區福和路310-1號","121.516198333333","25.00738","6500400","永和區"
"244023","069-UM","2018/10/15 19:48:54","新北市林口區文林四街35號","121.374311666667","25.0852566666667","6501700","林口區"
"244010","701-TV","2018/10/15 19:49:03","新北市林口區汕頭32號","121.366283333333","25.134825","6501700","林口區"
"243013","AAD-798","2018/10/15 19:37:48","新北市泰山區應化街7號","121.423858333333","25.04373","6501600","泰山區"
"243009","297-R6","2018/10/15 19:49:04","新北市泰山區美寧街60號","121.430975","25.06468","6501600","泰山區"
"243016","KEA-2801","2018/10/15 19:48:56","新北市泰山區貴鳳街1號","121.421516666667","25.0317266666667","6501600","泰山區"
"243015","421-VK","2018/10/15 19:49:11","新北市泰山區明志路二段214巷11號","121.42668","25.048875","6501600","泰山區"
"243011","KEA-2215","2018/10/15 19:48:56","新北市泰山區明志路三段204巷10弄20號","121.422976666667","25.03873","6501600","泰山區"
"243010","KEA-2216","2018/10/15 19:49:02","新北市泰山區民生路33號","121.430581666667","25.052165","6501600","泰山區"
"243014","680-BX","2018/10/15 19:48:57","新北市泰山區泰林路二段33-8號","121.43523","25.05656","6501600","泰山區"
"222003","436-BY","2018/10/15 19:38:53","新北市深坑區深南路51-1號","121.621243333333","25.0098733333333","6501800","深坑區"
"222002","659-BX","2018/10/15 19:48:58","新北市深坑區北深路二段43巷6號","121.61935","25.003985","6501800","深坑區"
"231059","001-UM","2018/10/15 19:49:07","新北市新店區安和路二段193號","121.518121666667","24.975035","6500600","新店區"
"231040","047-UY","2018/10/15 19:48:51","新北市新店區中正路75巷71號","121.543141666667","24.9688516666667","6500600","新店區"
"231052","108-UY","2018/10/15 19:49:02","新北市新店區新烏路三段133號","121.551456666667","24.9021483333333","6500600","新店區"
"231047","187-VK","2018/10/15 19:49:02","新北市新店區中興路二段100巷2號","121.547543333333","24.971295","6500600","新店區"
"231054","KEA-2219","2018/10/15 19:48:52","新北市新店區光明街73號","121.538855","24.9605933333333","6500600","新店區"
"231042","268-BY","2018/10/15 19:49:06","新北市新店區中興路一段266-5號","121.544951666667","24.9674733333333","6500600","新店區"
"231051","278-BY","2018/10/15 19:49:12","新北市新店區中央三街44號","121.527735","24.9744783333333","6500600","新店區"
"231050","AAD-862","2018/10/15 19:49:10","新北市新店區北宜路二段461號","121.56165","24.95415","6500600","新店區"
"231061","355-BY","2018/10/15 19:49:03","新北市新店區安民街162號","121.516763333333","24.9703466666667","6500600","新店區"
"231058","3713-VJ","2018/10/15 19:49:05","新北市新店區光華街38巷11號","121.515895","24.9702766666667","6500600","新店區"
"231066","4716-K9","2018/10/15 19:48:58","新北市新店區安康路二段341巷14號","121.496356666667","24.9547116666667","6500600","新店區"
"231056","4715-K9","2018/10/15 19:49:08","新北市新店區民權路42巷59弄3-1號","121.5383","24.9835766666667","6500600","新店區"
"231067","4772-VM","2018/10/15 19:48:59","新北市新店區精忠路10-1號","121.532638333333","24.959085","6500600","新店區"
"231065","512-UM","2018/10/15 19:49:09","新北市新店區安祥路109巷90弄28號","121.477241666667","24.9593316666667","6500600","新店區"
"231049","513-UM","2018/10/15 19:48:58","新北市新店區民權路90巷20號","121.536131666667","24.983565","6500600","新店區"
"231063","616-UM","2018/10/15 19:48:53","新北市新店區車子路11號","121.50302","24.9520033333333","6500600","新店區"
"231045","617-UM","2018/10/15 19:48:54","新北市新店區中生路66號","121.564598333333","24.9526816666667","6500600","新店區"
"231044","618-UM","2018/10/15 19:48:52","新北市新店區復興路67-1號","121.535245","24.9876816666667","6500600","新店區"
"231064","719-UM","2018/10/15 19:49:01","新北市新店區安和路二段113巷3弄5號","121.518045","24.969935","6500600","新店區"
"231068","719-UY","2018/10/15 19:49:01","新北市新店區安華路28-1號","121.519143333333","24.9608716666667","6500600","新店區"
"231062","720-UM","2018/10/15 19:49:00","新北市新店區永業路49巷2號","121.532161666667","24.9549883333333","6500600","新店區"
"231060","897-TW","2018/10/15 19:48:55","新北市新店區安康路二段199號","121.509116666667","24.9590066666667","6500600","新店區"
"231043","899-TW","2018/10/15 19:49:01","新北市新店區中正路263號","121.538665","24.9736733333333","6500600","新店區"
"231055","AKT-0513","2018/10/15 19:48:58","新北市新店區中華路83巷67號","121.538233333333","24.9671","6500600","新店區"
"241011","013-R5","2018/10/15 19:49:03","新北市三重區介壽路20號","121.498583333333","25.07005","6500200","三重區"
"241028","022-UY","2018/10/15 19:49:07","新北市三重區中正南路147號","121.493951666667","25.0566166666667","6500200","三重區"
"241022","060-VK","2018/10/15 19:48:52","新北市三重區重新路三段157號","121.48955","25.058635","6500200","三重區"
"241031","061-VK","2018/10/15 19:48:55","新北市三重區重新路四段248-1號","121.486213333333","25.0534766666667","6500200","三重區"
"241015","062-VK","2018/10/15 19:48:57","新北市三重區三和路一段2號","121.503846666667","25.0642866666667","6500200","三重區"
"241017","063-VK","2018/10/15 19:49:12","新北市三重區重陽路三段27巷1號","121.489638333333","25.066535","6500200","三重區"
"241024","065-VK","2018/10/15 19:48:58","新北市三重區國道路一段58巷20號","121.481266666667","25.0720466666667","6500200","三重區"
"241026","066-VK","2018/10/15 19:48:51","新北市三重區文化南路42號","121.500406666667","25.0602583333333","6500200","三重區"
"241003","091-VK","2018/10/15 19:48:49","新北市三重區五華街93巷13號","121.492266666667","25.083845","6500200","三重區"
"251014","742-BX","2018/10/15 19:49:05","新北市淡水區番社前1號","121.468076666667","25.236275","6501000","淡水區"
"241012","265-UM","2018/10/15 19:48:54","新北市三重區仁興街56巷20號","121.498545","25.0756016666667","6500200","三重區"
"241016","266-UM","2018/10/15 19:48:56","新北市三重區正義北路16巷30號","121.496525","25.0628366666667","6500200","三重區"
"241009","267-UM","2018/10/15 19:48:57","新北市三重區三和路四段396巷2-1號","121.481396666667","25.0792083333333","6500200","三重區"
"241018","268-UM","2018/10/15 19:48:58","新北市三重區雙園街57巷34弄17號","121.494056666667","25.0683016666667","6500200","三重區"
"241032","269-UM","2018/10/15 19:48:53","新北市三重區重陽路一段44巷10號","121.485933333333","25.0577766666667","6500200","三重區"
"241007","398-BY","2018/10/15 19:49:01","新北市三重區三和路四段135巷5號","121.485128333333","25.0781183333333","6500200","三重區"
"241035","KEA-2210","2018/10/15 19:48:56","新北市三重區長元西街30號","121.498103333333","25.065675","6500200","三重區"
"241004","475-VK","2018/10/15 19:49:06","新北市三重區仁愛街377巷132號","121.493538333333","25.0819316666667","6500200","三重區"
"241020","478-VK","2018/10/15 19:48:50","新北市三重區三和路4段20巷26-1號","121.490223333333","25.07332","6500200","三重區"
"241030","480-VK","2018/10/15 19:49:04","新北市三重區昌隆街71號","121.490836666667","25.0507333333333","6500200","三重區"
"241023","545-UM","2018/10/15 19:49:06","新北市三重區大有街1-1號","121.47754","25.06561","6500200","三重區"
"241001","547-UM","2018/10/15 19:49:06","新北市三重區仁愛街327巷51號","121.493456666667","25.0802166666667","6500200","三重區"
"241006","AAD-863","2018/10/15 19:48:51","新北市三重區永福街263號","121.481493333333","25.074125","6500200","三重區"
"241008","743-BX","2018/10/15 19:48:31","新北市三重區永福街111巷10號","121.478921666667","25.0776266666667","6500200","三重區"
"241029","942-UM","2018/10/15 19:48:58","新北市三重區重安街70-20號","121.492178333333","25.0568933333333","6500200","三重區"
"241033","AAC-255","2018/10/15 19:49:06","新北市三重區中興南街66號","121.470653333333","25.04398","6500200","三重區"
"235066","003-UY","2018/10/15 19:49:01","新北市中和區南工路56號","121.506093333333","25.0016116666667","6500300","中和區"
"235064","005-UY","2018/10/15 19:48:57","新北市中和區圓通路16號","121.50132","24.9979333333333","6500300","中和區"
"235063","006-UY","2018/10/15 19:49:02","新北市中和區連城路263巷7弄2號","121.492221666667","24.9958166666667","6500300","中和區"
"235039","097-UM","2018/10/15 19:49:00","新北市中和區大勇街25巷15弄1號","121.515858333333","24.993705","6500300","中和區"
"235065","098-UM","2018/10/15 19:49:05","新北市中和區莊敬路1-6號","121.499555","25.0043483333333","6500300","中和區"
"235040","150-BY","2018/10/15 19:48:58","新北市中和區安平路59號","121.509666666667","24.9949516666667","6500300","中和區"
"235055","183-VK","2018/10/15 19:49:04","新北市中和區德光路23號","121.470785","25.004175","6500300","中和區"
"235038","185-VK","2018/10/15 19:48:56","新北市中和區自立路10號","121.522465","24.996425","6500300","中和區"
"235049","186-VK","2018/10/15 19:49:09","新北市中和區中興街47號","121.500658333333","24.9941266666667","6500300","中和區"
"235067","255-BX","2018/10/15 19:48:58","新北市中和區新生街220巷3號","121.483318333333","24.99832","6500300","中和區"
"235044","293-VK","2018/10/15 19:49:01","新北市中和區南山路176-20號","121.50545","24.990865","6500300","中和區"
"235072","301-VK","2018/10/15 19:48:58","新北市樹林區田尾街147巷23號","121.404811666667","24.9505533333333","6500300","中和區"
"235043","352-BY","2018/10/15 19:49:05","新北市中和區華新街230號","121.505963333333","24.9817","6500300","中和區"
"235042","KEA-2878","2018/10/15 19:49:04","新北市永和區中正路8號","121.512526666667","24.993735","6500300","中和區"
"235050","4979-A6","2018/10/15 19:48:54","新北市中和區和平街164巷4號","121.506015","24.9923866666667","6500300","中和區"
"235069","4980-A6","2018/10/15 19:49:06","新北市中和區圓通路33號","121.501043333333","24.997705","6500300","中和區"
"235070","558-UM","2018/10/15 19:49:09","新北市中和區連勝街50號","121.497863333333","24.9973716666667","6500300","中和區"
"235045","565-BX","2018/10/15 19:48:53","新北市中和區景新街467巷13號","121.51382","24.988225","6500300","中和區"
"235054","640-BX","2018/10/15 19:49:00","新北市中和區莒光路65號","121.472321666667","25.003485","6500300","中和區"
"235047","732-UM","2018/10/15 19:49:11","新北市中和區興南路一段86號","121.509998333333","24.9893916666667","6500300","中和區"
"235046","733-UM","2018/10/15 19:49:04","新北市中和區仁愛街112號","121.511638333333","24.9869983333333","6500300","中和區"
"235071","783-BX","2018/10/15 19:48:54","新北市中和區環中路120號","121.481905","25.0124316666667","6500300","中和區"
"235057","801-TS","2018/10/15 19:48:52","新北市中和區員山路106號","121.481096666667","24.9955233333333","6500300","中和區"
"235041","802-TS","2018/10/15 19:48:53","新北市中和區中安街58號","121.512558333333","25.0022466666667","6500300","中和區"
"235052","805-TS","2018/10/15 19:48:40","新北市中和區興南路二段77號","121.506666666667","24.98492","6500300","中和區"
"235048","896-TW","2018/10/15 19:48:55","新北市中和區興南路二段32巷1號","121.507283333333","24.9855216666667","6500300","中和區"
"235053","900-TW","2018/10/15 19:49:03","新北市中和區民德路146巷14號","121.467746666667","25.00053","6500300","中和區"
"235060","911-UM","2018/10/15 19:48:54","新北市中和區新生街163號","121.483791666667","25.0011666666667","6500300","中和區"
"235051","157-BY","2018/10/15 19:48:57","新北市中和區中興街180巷45號","121.498196666667","24.9896533333333","6500300","中和區"
"235037","AAC-213","2018/10/15 19:49:05","新北市中和區秀朗路三段171號","121.524526666667","24.9915766666667","6500300","中和區"
"235059","AAC-215","2018/10/15 19:49:08","新北市中和區圓通路305巷5弄2號","121.493536666667","24.9902333333333","6500300","中和區"
"220035","015-TV","2018/10/15 19:49:09","新北市板橋區新生街20巷9號","121.456228333333","25.0208566666667","6500100","板橋區"
"220065","072-UY","2018/10/15 19:48:51","新北市板橋區海山路39號","121.467198333333","25.0097","6500100","板橋區"
"220106","075-UY","2018/10/15 19:48:57","新北市板橋區文化路608巷50-1號","121.479568333333","25.03447","6500100","板橋區"
"247002","893-R6","2018/10/15 19:49:08","新北市蘆洲區永平街27號","121.45864","25.09078","6501400","蘆洲區"
"247014","339-TH","2018/10/15 19:48:57","新北市蘆洲區中央路91號","121.472668333333","25.0842366666667","6501400","蘆洲區"
"247008","336-TH","2018/10/15 19:49:03","新北市蘆洲區中山一路1號","121.478576666667","25.08012","6501400","蘆洲區"
"226004","312-R5","2018/10/15 19:49:00","新北市平溪區靜安路三段392巷3號","121.784421666667","25.0495616666667","6502400","平溪區"
"228001","670-TC","2018/10/15 19:48:53","新北市貢寮區真理里新港街113-1號","121.926461666667","25.056675","6502600","貢寮區"
"224010","AGQ-8101","2018/10/15 19:43:49","新北市瑞芳區金光路334號","121.848378333333","25.1097383333333","6501200","瑞芳區"
"224002","639-TC","2018/10/15 19:49:06","新北市瑞芳區三爪子坑路303-2號","121.818301666667","25.1056883333333","6501200","瑞芳區"
"227001","642-TC","2018/10/15 19:48:52","新北市雙溪區雙溪里內挖路36號","121.86318","25.0367716666667","6502500","雙溪區"
"227008","400-TW","2018/10/15 19:49:05","新北市雙溪區新基里中華路76號","121.865838333333","25.03834","6502500","雙溪區"
"222001","KEA-2212","2018/10/15 19:48:57","新北市深坑區北深路三段64號","121.607945","25.0013383333333","6501800","深坑區"
"208002","KEA-2872","2018/10/15 19:49:07","新北市金山區中華路366-1號","121.63323","25.224535","6502700","金山區"
"208003","665-BX","2018/10/15 19:49:01","新北市金山區清泉里清水路36號","121.629911666667","25.23094","6502700","金山區"
"208001","761-BX","2018/10/15 19:49:03","新北市金山區重和里六股林口55號","121.60198","25.2198283333333","6502700","金山區"
"251005","010-UM","2018/10/15 19:49:06","新北市淡水區中山路108巷3號","121.441996666667","25.1710266666667","6501000","淡水區"
"251013","KEA-2871","2018/10/15 19:49:01","新北市淡水區頂田寮11-9號","121.464116666667","25.2142016666667","6501000","淡水區"
"251016","179-VK","2018/10/15 19:48:59","新北市淡水區三塊厝3-2號","121.45625","25.2093533333333","6501000","淡水區"
"251015","180-VK","2018/10/15 19:49:08","新北市淡水區北新路二段58號","121.478453333333","25.1856733333333","6501000","淡水區"
"251010","413-VK","2018/10/15 19:49:07","新北市淡水區崁頂128號","121.43212","25.20501","6501000","淡水區"
"251012","441-VK","2018/10/15 19:49:00","新北市淡水區淡金路三段66號","121.44824","25.1999066666667","6501000","淡水區"
"251007","442-VK","2018/10/15 19:49:02","新北市淡水區中正東路一段87-1號","121.453033333333","25.16165","6501000","淡水區"
"251001","559-UM","2018/10/15 19:49:00","新北市淡水區淡金路42-1號","121.456495","25.1610666666667","6501000","淡水區"
"251006","561-UM","2018/10/15 19:49:09","新北市淡水區水碓街15號","121.443516666667","25.17695","6501000","淡水區"
"251011","650-BX","2018/10/15 19:49:05","新北市淡水區北投子14-6號","121.447475","25.184835","6501000","淡水區"
"251003","766-UM","2018/10/15 19:49:03","新北市淡水區崁頂61號","121.439793333333","25.2013133333333","6501000","淡水區"
"207003","550-UM","2018/10/15 19:49:05","新北市萬里區大鵬里萬里加投239號","121.64243","25.21668","6502800","萬里區"
"207004","225-TW","2018/10/15 19:48:59","新北市萬里區萬里里瑪鋉路120號","121.690621666667","25.1790233333333","6502800","萬里區"
"252002","178-VK","2018/10/15 19:49:11","新北市三芝區三民街31號","121.50457","25.2585416666667","6502100","三芝區"
"252001","292-VK","2018/10/15 19:49:04","新北市三芝區公正街9號","121.499725","25.25748","6502100","三芝區"
"237004","KEA-2597","2018/10/15 19:49:02","新北市三峽區添福26號","121.375796666667","24.8972633333333","6500900","三峽區"
"237007","153-BY","2018/10/15 19:49:08","新北市三峽區二鬮路136巷22弄51號","121.357575","24.91045","6500900","三峽區"
"237013","252-BX","2018/10/15 19:49:08","新北市三峽區橫溪路96號","121.397898333333","24.9354383333333","6500900","三峽區"
"237012","275-BY","2018/10/15 19:49:02","新北市三峽區中華路40號","121.372988333333","24.931485","6500900","三峽區"
"237008","302-VK","2018/10/15 19:49:04","新北市三峽區永安街208號","121.373135","24.9272133333333","6500900","三峽區"
"237014","433-BY","2018/10/15 19:49:06","新北市三峽區添福141-13號","121.374311666667","24.9010233333333","6500900","三峽區"
"237006","5529-G3","2018/10/15 19:48:50","新北市三峽區中正路一段336巷15弄2號","121.369951666667","24.9249616666667","6500900","三峽區"
"237015","649-BX","2018/10/15 19:49:00","新北市三峽區溪東路218巷5弄1號","121.407366666667","24.9313183333333","6500900","三峽區"
"237010","706-TV","2018/10/15 19:49:07","新北市三峽區復興路38號","121.37376","24.93678","6500900","三峽區"
"237005","AKY-6261","2018/10/15 19:48:49","新北市三峽區長泰街80號","121.376546666667","24.9331716666667","6500900","三峽區"
"236069","105-UM","2018/10/15 19:48:51","新北市土城區中央路二段346巷12-2號","121.43959","24.9722333333333","6501300","土城區"
"236042","107-UM","2018/10/15 19:49:06","新北市土城區裕民路284號","121.455561666667","24.9819516666667","6501300","土城區"
"236078","166-UM","2018/10/15 19:49:00","新北市土城區溪頭路45號","121.411988333333","24.9549966666667","6501300","土城區"
"236030","253-BX","2018/10/15 19:48:53","新北市土城區中央路一段290號","121.443265","24.98243","6501300","土城區"
"236026","269-VK","2018/10/15 19:48:55","新北市土城區中央路二段61巷26號","121.443333333333","24.9787833333333","6501300","土城區"
"236039","271-VK","2018/10/15 19:48:54","新北市土城區國際路158巷49號","121.468226666667","24.97533","6501300","土城區"
"236020","401-BY","2018/10/15 19:49:03","新北市土城區峰廷街36號","121.469381666667","24.98666","6501300","土城區"
"236055","752-BX","2018/10/15 19:49:03","新北市土城區延和路104號","121.466916666667","24.9897366666667","6501300","土城區"
"236059","912-UM","2018/10/15 19:49:02","新北市土城區中央路一段175號","121.44629","24.98748","6501300","土城區"
"236048","913-UM","2018/10/15 19:49:08","新北市土城區青雲路303號","121.459038333333","24.9794083333333","6501300","土城區"
"236063","915-UM","2018/10/15 19:49:00","新北市土城區延和路146巷25號","121.468388333333","24.989365","6501300","土城區"
"242036","AAC-296","2018/10/15 19:49:05","新北市新莊區建安街60號","121.427198333333","25.0246733333333","6500500","新莊區"
"242058","986-R7","2018/10/15 19:49:08","新北市新莊區新樹路40號","121.437963333333","25.0285833333333","6500500","新莊區"
"242029","612-BX","2018/10/15 19:49:06","新北市新莊區中平路267號","121.444775","25.0497083333333","6500500","新莊區"
"242048","497-BY","2018/10/15 19:48:56","新北市新莊區建安街76巷5弄15號","121.425583333333","25.024965","6500500","新莊區"
"242015","442-UM","2018/10/15 19:49:01","新北市新莊區中平路82巷36-2號","121.44655","25.0448783333333","6500500","新莊區"
"242023","362-BY","2018/10/15 19:49:02","新北市新莊區化成路69號","121.465571666667","25.046105","6500500","新莊區"
"242034","135-UY","2018/10/15 19:48:50","新北市新莊區公園一路126號","121.445611666667","25.0379383333333","6500500","新莊區"
"242050","172-VK","2018/10/15 19:48:53","新北市新莊區民安路292號","121.428035","25.021695","6500500","新莊區"
"242013","173-VK","2018/10/15 19:48:59","新北市新莊區中誠街71號","121.450633333333","25.0478","6500500","新莊區"
"242007","176-VK","2018/10/15 19:49:04","新北市新莊區新北大道三段5號","121.458246666667","25.0600816666667","6500500","新莊區"
"242017","346-TH","2018/10/15 19:49:01","新北市新莊區中華路一段226號","121.452663333333","25.0430033333333","6500500","新莊區"
"242002","347-TH","2018/10/15 19:49:07","新北市新莊區武前街29號","121.450225","25.03251","6500500","新莊區"
"242004","349-TH","2018/10/15 19:49:11","新北市新莊區化成路63巷24弄16號","121.46211","25.0460616666667","6500500","新莊區"
"242021","350-TH","2018/10/15 19:48:56","新北市新莊區中正路423-1號","121.444476666667","25.03442","6500500","新莊區"
"238015","755-BX","2018/10/15 19:49:10","新北市樹林區日新街70巷2號","121.421668333333","24.9908333333333","6500700","樹林區"
"238023","601-UM","2018/10/15 19:49:10","新北市樹林區中正路161號","121.424123333333","25.0021833333333","6500700","樹林區"
"238022","KEA-2213","2018/10/15 19:48:58","新北市樹林區國凱街72巷3號","121.421","24.9788566666667","6500700","樹林區"
"238021","KEA-2539","2018/10/15 19:49:04","新北市樹林區佳園路三段181巷110弄1-8號","121.392301666667","24.9485233333333","6500700","樹林區"
"238025","303-VK","2018/10/15 19:49:09","新北市樹林區中山路一段398號","121.418356666667","24.9854266666667","6500700","樹林區"
"238017","283-BY","2018/10/15 19:48:55","新北市樹林區保安街二段45巷7號","121.41571","25.00003","6500700","樹林區"
"238014","282-BY","2018/10/15 19:48:57","新北市樹林區千歲街136號","121.427246666667","24.9987866666667","6500700","樹林區"
"238026","172-UY","2018/10/15 19:48:58","新北市樹林區佳園路二段15巷2號","121.393478333333","24.9635","6500700","樹林區"
"239006","891-R6","2018/10/15 19:48:58","新北市鶯歌區鶯桃路33巷16號","121.342973333333","24.95009","6500800","鶯歌區"
"239005","526-UM","2018/10/15 19:48:59","新北市鶯歌區中正一路350號","121.357893333333","24.9570283333333","6500800","鶯歌區"
"239003","360-BY","2018/10/15 19:49:11","新北市鶯歌區二甲路12-2號","121.345736666667","24.9348783333333","6500800","鶯歌區"
"221008","489-VK","2018/10/15 19:49:05","新北市汐止區康寧街83巷113號","121.620341666667","25.0671116666667","6501100","汐止區"
"221036","130-UY","2018/10/15 19:48:59","新北市汐止區汐萬路一段160號","121.652631666667","25.071455","6501100","汐止區"
"221015","131-UY","2018/10/15 19:49:02","新北市汐止區忠孝東路397號","121.66573","25.070865","6501100","汐止區"
"221010","269-BY","2018/10/15 19:49:01","新北市汐止區八連路一段11號","121.648466666667","25.08055","6501100","汐止區"
"221012","278-VK","2018/10/15 19:48:52","新北市汐止區大同路三段456號","121.683401666667","25.073145","6501100","汐止區"
"221023","279-VK","2018/10/15 19:48:51","新北市汐止區民族六街4巷1號","121.62957","25.0701116666667","6501100","汐止區"
"221032","280-BY","2018/10/15 19:48:56","新北市汐止區橫科路403巷18號","121.625008333333","25.04758","6501100","汐止區"
"221027","281-BY","2018/10/15 19:49:08","新北市汐止區南昌街35號","121.662961666667","25.0688866666667","6501100","汐止區"
"221029","298-VK","2018/10/15 19:48:57","新北市汐止區康寧街901號","121.651438333333","25.0749933333333","6501100","汐止區"
"221021","299-VK","2018/10/15 19:48:56","新北市汐止區連興街122號","121.653663333333","25.0621683333333","6501100","汐止區"
"221031","353-TW","2018/10/15 19:48:59","新北市汐止區福德二路54巷2弄11號","121.634195","25.06774","6501100","汐止區"
"221035","622-UM","2018/10/15 19:49:05","新北市汐止區長江街13巷12弄2號","121.654626666667","25.072075","6501100","汐止區"
"221025","623-UM","2018/10/15 19:48:55","新北市汐止區新台五路二段20巷8號","121.660755","25.06469","6501100","汐止區"
"221038","646-BX","2018/10/15 19:48:58","新北市汐止區忠孝東路308號","121.664408333333","25.068755","6501100","汐止區"
"221033","647-BX","2018/10/15 19:48:58","新北市汐止區東勢街170-1號","121.633521666667","25.0401833333333","6501100","汐止區"
"221002","707-TV","2018/10/15 19:49:05","新北市汐止區康寧街901號","121.65088","25.07529","6501100","汐止區"
"221018","753-BX","2018/10/15 19:49:09","新北市汐止區汐萬路一段81號","121.654713333333","25.0698633333333","6501100","汐止區"
"220079","145-BY","2018/10/15 19:49:10","新北市板橋區中正路183巷20-3號","121.455886666667","25.0164116666667","6500100","板橋區"
"220082","610-BX","2018/10/15 19:49:00","新北市板橋區存德街27號","121.430526666667","24.99166","6500100","板橋區"
"220101","245-BX","2018/10/15 19:48:50","新北市板橋區莊敬路261號","121.473811666667","25.021505","6500100","板橋區"
"220091","267-BY","2018/10/15 19:49:03","新北市板橋區懷德街191巷26弄13號","121.480665","25.02954","6500100","板橋區"
"220072","277-BY","2018/10/15 19:49:04","新北市板橋區篤行路二段77巷12弄2號","121.432246666667","24.9917366666667","6500100","板橋區"
"220094","283-UM","2018/10/15 19:49:10","新北市板橋區長江路一段351號","121.461173333333","25.0304666666667","6500100","板橋區"
"220071","283-VK","2018/10/15 19:49:07","新北市板橋區五權街30巷6-4號","121.464518333333","24.99342","6500100","板橋區"
"220053","285-VK","2018/10/15 19:49:03","新北市板橋區中山路二段60巷1弄2號","121.474443333333","25.0153466666667","6500100","板橋區"
"220083","286-VK","2018/10/15 19:48:53","新北市板橋區龍興街63巷51號","121.441551666667","25.001975","6500100","板橋區"
"220081","287-VK","2018/10/15 19:48:59","新北市板橋區大觀路一段28巷88號","121.449763333333","25.0109783333333","6500100","板橋區"
"220090","288-VK","2018/10/15 19:49:01","新北市板橋區龍泉街54巷7弄2號","121.45684","25.026625","6500100","板橋區"
"220061","293-UM","2018/10/15 19:49:08","新北市板橋區漢生東路113巷25號","121.468346666667","25.0156366666667","6500100","板橋區"
"220062","295-UM","2018/10/15 19:49:01","新北市板橋區光復街20號","121.481525","25.0188433333333","6500100","板橋區"
"242039","281-VK","2018/10/15 19:48:58","新北市新莊區民安路299巷55弄18號","121.428981666667","25.0236383333333","6500500","新莊區"
"220075","303-R5","2018/10/15 19:49:10","新北市板橋區金華街10巷48弄20號","121.457616666667","25.0199166666667","6500100","板橋區"
"220092","307-R5","2018/10/15 19:49:05","新北市板橋區四維路106號","121.465696666667","25.0246016666667","6500100","板橋區"
"220098","317-R6","2018/10/15 19:49:08","新北市板橋區裕民街133巷3號","121.459233333333","25.02707","6500100","板橋區"
"220064","486-VK","2018/10/15 19:49:05","新北市板橋區實踐路60號","121.463871666667","25.0059633333333","6500100","板橋區"
"220089","487-VK","2018/10/15 19:48:58","新北市板橋區龍泉街82巷11-4號","121.45585","25.0255283333333","6500100","板橋區"
"242056","280-VK","2018/10/15 19:49:08","新北市新莊區新豐街22號","121.44827","25.03425","6500500","新莊區"
"220088","491-VK","2018/10/15 19:49:05","新北市板橋區仁化街93號","121.47631","25.032015","6500100","板橋區"
"220103","561-BX","2018/10/15 19:49:06","新北市板橋區陽明街27巷4號","121.465353333333","25.0217033333333","6500100","板橋區"
"220063","609-BX","2018/10/15 19:48:58","新北市板橋區縣民大道三段153號","121.478581666667","25.0237883333333","6500100","板橋區"
"220057","686-BX","2018/10/15 19:49:01","新北市板橋區信義路201號","121.459313333333","24.9915716666667","6500100","板橋區"
"220077","687-BX","2018/10/15 19:48:56","新北市板橋區僑中一街102巷3弄20號","121.445963333333","25.0125133333333","6500100","板橋區"
"220093","689-BX","2018/10/15 19:49:08","新北市板橋區長江路二段245號","121.46917","25.0327483333333","6500100","板橋區"
"220054","741-BX","2018/10/15 19:49:00","新北市板橋區忠孝路忠義巷15弄25號","121.465681666667","25.0042833333333","6500100","板橋區"
"220102","KEA-2699","2018/10/15 19:49:11","新北市板橋區松柏街35號","121.475318333333","25.0302416666667","6500100","板橋區"
"220055","827-TW","2018/10/15 19:49:02","新北市板橋區重慶路346巷8-2號","121.463561666667","24.997285","6500100","板橋區"
"220067","829-TW","2018/10/15 19:49:03","新北市板橋區長安街138巷1弄1號","121.472906666667","25.0096733333333","6500100","板橋區"
"220096","831-TW","2018/10/15 19:49:12","新北市板橋區莊敬路167號","121.471","25.023985","6500100","板橋區"
"220074","895-R6","2018/10/15 19:49:05","新北市板橋區民權路87號","121.460991666667","25.0119283333333","6500100","板橋區"
"220097","AAC-210","2018/10/15 19:49:05","新北市板橋區文化路一段285巷50號","121.463233333333","25.0198133333333","6500100","板橋區"
"220070","AAC-253","2018/10/15 19:48:54","新北市板橋區民族路67號","121.465336666667","25.008675","6500100","板橋區"
"235068","KEA-2873","2018/10/15 19:48:57","新北市中和區中和路61號","121.500716666667","25.0013916666667","6500300","中和區"
"235061","KEA-2875","2018/10/15 19:48:59","新北市中和區民利街11號","121.480598333333","24.9990133333333","6500300","中和區"
