"lineid","car","time","location","longitude","latitude","cityid","cityname"
"241031","061-VK","2018/10/15 22:24:35","新北市五股區新五路二段258號","121.440963333333","25.0821583333333","6500200","三重區"
"241017","063-VK","2018/10/15 22:24:52","新北市五股區更洲路70號","121.456608333333","25.0799966666667","6500200","三重區"
"241024","065-VK","2018/10/15 22:24:38","新北市五股區中直路17-4號","121.422395","25.1112566666667","6500200","三重區"
"241007","398-BY","2018/10/15 22:24:41","新北市五股區中興路三段2巷10號","121.448848333333","25.0813766666667","6500200","三重區"
"241004","475-VK","2018/10/15 22:24:46","新北市五股區中興路三段2巷10號","121.44914","25.08087","6500200","三重區"
"241030","480-VK","2018/10/15 22:24:43","新北市三重區重新路四段121號","121.485108333333","25.05249","6500200","三重區"
"241001","547-UM","2018/10/15 22:24:46","新北市五股區中興路三段2巷10號","121.448963333333","25.08124","6500200","三重區"
"247007","336-TH","2018/10/15 22:24:43","新北市五股區中興路三段2巷10號","121.449175","25.0808933333333","6501400","蘆洲區"
"251008","181-VK","2018/10/15 22:24:49","新北市淡水區學府路104號","121.449838333333","25.171795","6501000","淡水區"
"251012","441-VK","2018/10/15 22:24:40","新北市淡水區下圭柔山90-8號","121.431561666667","25.2106866666667","6501000","淡水區"
"251011","650-BX","2018/10/15 22:24:45","新北市淡水區水碓街7號","121.44322","25.1771233333333","6501000","淡水區"
"251003","766-UM","2018/10/15 22:24:42","新北市淡水區下圭柔山90-8號","121.431235","25.21033","6501000","淡水區"
"242013","173-VK","2018/10/15 22:24:38","新北市新莊區三和路12-21號","121.441956666667","25.0386833333333","6500500","新莊區"
