"lineid","car","time","location","longitude","latitude","cityid","cityname"
"248005","653-BX","2018/06/29 08:49:46","新北市五股區明德路12巷30號","121.432906666667","25.0722716666667","6501500","五股區"
"231009","110-UY","2018/06/29 08:49:33","新北市新店區廣興路5巷19號","121.545845","24.9135533333333","6500600","新店區"
"231007","189-VK","2018/06/29 08:49:35","新北市新店區小坑二路102號","121.51871","24.9122233333333","6500600","新店區"
"235001","611-BX","2018/06/29 08:49:32","新北市中和區華安街16巷12-2號","121.466271666667","24.9979133333333","6500300","中和區"
"226005","5620-A6","2018/06/29 08:49:39","新北市平溪區十分里十分街144號","121.777626666667","25.043315","6502400","平溪區"
"226001","7418-A5","2018/06/29 08:47:47","新北市平溪區東勢里番仔坑16號","121.755138333333","24.9912216666667","6502400","平溪區"
"226006","AGD-0702","2018/06/29 08:49:30","新北市平溪區望古里望古坑26號","121.763385","25.0343466666667","6502400","平溪區"
"223006","022-BY","2018/06/29 08:49:35","新北市石碇區摸乳巷20號","121.661486666667","24.9818666666667","6501900","石碇區"
"223003","205-TH","2018/06/29 08:49:27","新北市石碇區北宜路六段水底寮巷2號","121.658155","24.9488266666667","6501900","石碇區"
"223008","406-TH","2018/06/29 08:49:44","新北市石碇區光明路頂紙寮坑巷1號","121.681328333333","25.0278533333333","6501900","石碇區"
"223001","592-UM","2018/06/29 08:49:26","新北市石碇區北宜路六段水底寮巷2號","121.65789","24.9479216666667","6501900","石碇區"
"223004","660-BX","2018/06/29 08:49:33","新北市石碇區崩山53號","121.682351666667","24.9688933333333","6501900","石碇區"
"223007","661-BX","2018/06/29 08:47:26","新北市石碇區光明路17-2號","121.6843","25.0320366666667","6501900","石碇區"
"223005","677-TV","2018/06/29 08:49:34","新北市石碇區崩山42-1號","121.679708333333","24.9652233333333","6501900","石碇區"
"227005","282-VK","2018/06/29 08:49:30","新北市雙溪區泰平里泰平45-5號","121.830956666667","24.9777166666667","6502500","雙溪區"
"237001","159-UY","2018/06/29 08:49:41","新北市三峽區學勤路86號","121.374591666667","24.9456966666667","6500900","三峽區"
"236010","165-UM","2018/06/29 08:32:52","新北市土城區石門路85-3號","121.460138333333","24.9543166666667","6501300","土城區"
"236006","498-BY","2018/06/29 08:49:29","新北市土城區承天路4巷45號","121.435675","24.9594383333333","6501300","土城區"
