"lineid","car","time","location","longitude","latitude","cityid","cityname"
"248005","653-BX","2018/06/29 10:29:26","新北市五股區中興路二段37巷26號","121.460528333333","25.0749716666667","6501500","五股區"
"231009","110-UY","2018/06/29 10:29:33","新北市新店區成功路230巷2號","121.528746666667","24.886455","6500600","新店區"
"231007","189-VK","2018/06/29 10:29:35","新北市新店區新潭路三段181號","121.508708333333","24.9053616666667","6500600","新店區"
"226001","7418-A5","2018/06/29 10:15:53","新北市平溪區石底里公園街18-3號","121.734251666667","25.025585","6502400","平溪區"
"227005","282-VK","2018/06/29 10:08:09","新北市雙溪區泰平里灣潭路20-1號","121.813415","24.9289966666667","6502500","雙溪區"
"237001","159-UY","2018/06/29 10:29:41","新北市三峽區大勇路1號","121.367131666667","24.93904","6500900","三峽區"
"236010","165-UM","2018/06/29 10:29:31","新北市土城區城林路6巷80號","121.438393333333","24.979525","6501300","土城區"
