"lineid","car","time","location","longitude","latitude","cityid","cityname"
"231009","110-UY","2018/06/29 10:39:13","新北市新店區成功路80巷1號","121.538293333333","24.8953316666667","6500600","新店區"
"231007","189-VK","2018/06/29 10:39:44","新北市新店區新潭路三段130-1號","121.509775","24.9110283333333","6500600","新店區"
"226001","7418-A5","2018/06/29 10:15:53","新北市平溪區石底里公園街18-3號","121.734251666667","25.025585","6502400","平溪區"
"237001","159-UY","2018/06/29 10:39:41","新北市三峽區中山路459巷163-1號","121.34934","24.9334333333333","6500900","三峽區"
"236010","165-UM","2018/06/29 10:39:31","新北市土城區中央路二段350號","121.440096666667","24.971885","6501300","土城區"
