"lineid","car","time","location","longitude","latitude","cityid","cityname"
"234084","338-UY","2018/06/29 14:49:37","新北市永和區中和路573號","121.511803333333","25.0035216666667","6500400","永和區"
"234028","746-BX","2018/06/29 14:49:35","新北市永和區中和路573號","121.511585","25.00345","6500400","永和區"
"234025","9371-KE","2018/06/29 14:49:44","新北市永和區雙和街43號","121.508915","25.0029116666667","6500400","永和區"
"248019","225-UY","2018/06/29 14:49:48","新北市五股區中直路65-3號","121.418181666667","25.1181483333333","6501500","五股區"
"244004","248-BX","2018/06/29 14:49:26","新北市林口區竹林路266號","121.389666666667","25.0807516666667","6501700","林口區"
"231002","002-UM","2018/06/29 14:49:34","新北市新店區民權路72號","121.538171666667","24.9829783333333","6500600","新店區"
"231027","0293-UT","2018/06/29 14:49:35","新北市新店區安和路三段1號","121.51744","24.9797433333333","6500600","新店區"
"231028","046-UY","2018/06/29 14:49:49","新北市新店區安德街120巷6號","121.5091","24.960815","6500600","新店區"
"231001","047-UY","2018/06/29 14:49:54","新北市新店區三民路99號","121.535293333333","24.9719366666667","6500600","新店區"
"231005","106-UY","2018/06/29 14:49:37","新北市新店區復興路2號","121.532523333333","24.9882716666667","6500600","新店區"
"231022","108-UY","2018/06/29 14:49:13","新北市新店區桂山路121號","121.569545","24.8916533333333","6500600","新店區"
"231012","187-VK","2018/06/29 14:49:49","新北市新店區寶橋路69-1號","121.545375","24.9750266666667","6500600","新店區"
"231023","KEA-2219","2018/06/29 14:49:54","新北市新店區檳榔路109號","121.544508333333","24.961655","6500600","新店區"
"231026","256-BX","2018/06/29 14:49:44","新北市新店區安康路一段355-10號","121.520463333333","24.963815","6500600","新店區"
"231003","268-BY","2018/06/29 14:49:47","新北市新店區中興路二段55號","121.546436666667","24.9702233333333","6500600","新店區"
"231018","278-BY","2018/06/29 14:49:39","新北市新店區中央五街5號","121.53012","24.9742233333333","6500600","新店區"
"231016","AAD-862","2018/06/29 14:49:38","新北市新店區北宜路三段262-1號","121.598938333333","24.9534783333333","6500600","新店區"
"231038","3712-VJ","2018/06/29 14:49:39","新北市新店區溪洲路61-1號","121.533473333333","24.9610283333333","6500600","新店區"
"231037","4716-K9","2018/06/29 14:47:34","新北市新店區柴埕路60巷32號","121.506353333333","24.9674116666667","6500600","新店區"
"231025","4715-K9","2018/06/29 14:49:44","新北市新店區建國路194號","121.537956666667","24.980525","6500600","新店區"
"231036","512-UM","2018/06/29 14:49:41","新北市新店區安祥路104-5號","121.479933333333","24.96228","6500600","新店區"
"231013","513-UM","2018/06/29 14:49:52","新北市新店區北新路二段35號","121.54282","24.9725216666667","6500600","新店區"
"231006","617-UM","2018/06/29 14:49:43","新北市新店區北宜路一段107號","121.539333333333","24.9552283333333","6500600","新店區"
"231030","619-UM","2018/06/29 14:49:37","新北市新店區安民街382號","121.516241666667","24.9767933333333","6500600","新店區"
"231034","641-BX","2018/06/29 14:49:37","新北市新店區玫瑰路4-1號","121.493578333333","24.9514083333333","6500600","新店區"
"231039","718-UY","2018/06/29 14:49:43","新北市新店區安一路一段1-1號","121.519441666667","24.9611083333333","6500600","新店區"
"231035","719-UM","2018/06/29 14:49:44","新北市新店區安利街30號","121.519068333333","24.9747833333333","6500600","新店區"
"231032","720-UM","2018/06/29 14:49:48","新北市新店區安康路三段132號","121.490928333333","24.9517816666667","6500600","新店區"
"231029","897-TW","2018/06/29 14:49:44","新北市新店區錦秀路68巷1號","121.478875","24.9425483333333","6500600","新店區"
"231004","899-TW","2018/06/29 14:49:40","新北市新店區建國路131號","121.539406666667","24.9781533333333","6500600","新店區"
"231024","AKT-0513","2018/06/29 14:49:40","新北市新店區新生街4號","121.540266666667","24.9659983333333","6500600","新店區"
"235030","003-UY","2018/06/29 14:49:52","新北市中和區南工路20號","121.505448333333","25.0004716666667","6500300","中和區"
"235027","006-UY","2018/06/29 14:49:48","新北市中和區連城路263巷20號","121.492571666667","24.9948383333333","6500300","中和區"
"235020","096-UM","2018/06/29 14:49:42","新北市中和區中山路三段114巷10號","121.475986666667","25.0066666666667","6500300","中和區"
"235003","097-UM","2018/06/29 14:49:38","新北市中和區宜安路18巷3-4號","121.513488333333","24.9959183333333","6500300","中和區"
"235029","098-UM","2018/06/29 14:49:51","新北市中和區橋和路284號","121.496476666667","25.0068","6500300","中和區"
"235004","150-BY","2018/06/29 14:49:38","新北市中和區安平路31號","121.509363333333","24.9948016666667","6500300","中和區"
"235022","151-BY","2018/06/29 14:49:48","新北市中和區員山路108號","121.48107","24.9955983333333","6500300","中和區"
"235002","185-VK","2018/06/29 14:49:44","新北市中和區自強路20號","121.52024","24.995375","6500300","中和區"
"235013","186-VK","2018/06/29 14:49:39","新北市中和區景平路552號","121.502325","24.994785","6500300","中和區"
"235031","255-BX","2018/06/29 14:49:40","新北市中和區中正路804號","121.485035","25.0018766666667","6500300","中和區"
"235008","293-VK","2018/06/29 14:49:32","新北市中和區南山路261號","121.503833333333","24.9927033333333","6500300","中和區"
"235036","301-VK","2018/06/29 14:49:47","新北市中和區中山路二段3巷22弄7號","121.506295","25.0050883333333","6500300","中和區"
"235007","352-BY","2018/06/29 14:49:41","新北市中和區安和路33號","121.510101666667","24.994535","6500300","中和區"
"235014","4979-A6","2018/06/29 14:49:39","新北市中和區景平路241巷82弄22號","121.506936666667","24.9922016666667","6500300","中和區"
"235033","4980-A6","2018/06/29 14:49:46","新北市中和區南山路37巷3弄1號","121.502768333333","24.9988533333333","6500300","中和區"
"235034","558-UM","2018/06/29 14:49:38","新北市中和區連勝街7號","121.499046666667","24.9984133333333","6500300","中和區"
"235018","640-BX","2018/06/29 14:49:34","新北市中和區莒光路222-1號","121.469343333333","24.9951233333333","6500300","中和區"
"235024","647-TV","2018/06/29 14:49:29","新北市中和區員山路394巷10號","121.48115","25.0045733333333","6500300","中和區"
"235010","733-UM","2018/06/29 14:49:39","新北市中和區仁愛街40號","121.511046666667","24.9882466666667","6500300","中和區"
"235035","783-BX","2018/06/29 14:49:39","新北市中和區建六路55號","121.486258333333","25.0021833333333","6500300","中和區"
"235005","802-TS","2018/06/29 14:49:48","新北市中和區宜安路80號","121.511035","24.997435","6500300","中和區"
"235016","805-TS","2018/06/29 14:49:50","新北市中和區華新街122號","121.508263333333","24.9825916666667","6500300","中和區"
"235012","896-TW","2018/06/29 14:49:35","新北市中和區四維街40號","121.512386666667","24.98698","6500300","中和區"
"235017","900-TW","2018/06/29 14:49:46","新北市中和區國光街189巷12弄8號","121.467338333333","25.0013916666667","6500300","中和區"
"235015","157-BY","2018/06/29 14:49:45","新北市中和區景安路220巷4弄1號","121.503341666667","24.9909716666667","6500300","中和區"
"235001","AAC-213","2018/06/29 14:49:43","新北市中和區自立路60號","121.523678333333","24.9914916666667","6500300","中和區"
"235023","AAC-215","2018/06/29 14:49:39","新北市中和區圓通路305巷5弄32號","121.494313333333","24.9902266666667","6500300","中和區"
"220105","075-UY","2018/06/29 14:49:47","新北市板橋區民治街52巷1號","121.479545","25.0331116666667","6500100","板橋區"
"220017","AAD-861","2018/06/29 14:49:39","新北市板橋區大明街13號","121.45894","25.0024666666667","6500100","板橋區"
"247023","893-R6","2018/06/29 14:49:34","新北市蘆洲區和平路79號","121.468976666667","25.0792283333333","6501400","蘆洲區"
"247001","002-UY","2018/06/29 14:49:44","新北市蘆洲區永康街52號","121.459103333333","25.0862216666667","6501400","蘆洲區"
"235011","251-BX","2018/06/29 14:49:50","新北市中和區景平路239巷38號","121.508221666667","24.992305","6500300","中和區"
"207002","749-BX","2018/06/29 14:49:34","新北市萬里區崁腳里崁腳路73號","121.64755","25.159655","6502800","萬里區"
"207001","662-BX","2018/06/29 14:49:35","新北市萬里區雙興里豐稟路16號","121.648525","25.18086","6502800","萬里區"
"236067","105-UM","2018/06/29 14:49:37","新北市土城區明德路一段385-1號","121.452658333333","24.9802516666667","6501300","土城區"
"236040","107-UM","2018/06/29 14:49:54","新北市土城區學府路一段227號","121.451316666667","24.9839933333333","6501300","土城區"
"236077","166-UM","2018/06/29 14:49:46","新北市土城區中央路四段185巷36號","121.415968333333","24.9558","6501300","土城區"
"236029","253-BX","2018/06/29 14:49:50","新北市土城區忠義路26巷10號","121.439863333333","24.969955","6501300","土城區"
"236024","269-VK","2018/06/29 14:49:42","新北市土城區慶安街58號","121.440926666667","24.9730716666667","6501300","土城區"
"236013","270-VK","2018/06/29 14:49:54","新北市土城區金城路二段356號","121.461593333333","24.985045","6501300","土城區"
"236032","271-VK","2018/06/29 14:49:47","新北市土城區仁愛路25號","121.462625","24.9784683333333","6501300","土城區"
"236016","401-BY","2018/06/29 14:49:34","新北市土城區德峰街39號","121.467441666667","24.9855583333333","6501300","土城區"
"236006","498-BY","2018/06/29 14:49:48","新北市土城區城林路6巷80號","121.438638333333","24.9796833333333","6501300","土城區"
"236057","912-UM","2018/06/29 14:49:34","新北市土城區金城路一段141號","121.445553333333","24.97414","6501300","土城區"
"236045","913-UM","2018/06/29 14:49:43","新北市土城區青雲路35號","121.460041666667","24.9885166666667","6501300","土城區"
"236060","915-UM","2018/06/29 14:49:49","新北市土城區金城路三段139巷22號","121.46766","24.9890183333333","6501300","土城區"
"236054","AAC-216","2018/06/29 14:49:40","新北市土城區裕民路191號","121.453618333333","24.9843083333333","6501300","土城區"
"221036","130-UY","2018/06/29 14:49:50","新北市汐止區芳園街4號","121.624985","25.0378116666667","6501100","汐止區"
"220027","145-BY","2018/06/29 14:49:54","新北市板橋區中正路135巷12弄1號","121.455638333333","25.015565","6500100","板橋區"
"220028","200-UY","2018/06/29 14:49:49","新北市板橋區大觀路二段179巷26號","121.445906666667","24.9996033333333","6500100","板橋區"
"220030","610-BX","2018/06/29 14:49:46","新北市板橋區存德街3號","121.429935","24.9918616666667","6500100","板橋區"
"220050","245-BX","2018/06/29 14:49:52","新北市板橋區縣民大道三段97巷9號","121.475766666667","25.0225466666667","6500100","板橋區"
"220040","267-BY","2018/06/29 14:49:39","新北市板橋區懷德街127巷25號","121.479666666667","25.031295","6500100","板橋區"
"220004","276-BY","2018/06/29 14:49:36","新北市板橋區四川路二段99巷1號","121.452726666667","24.9946316666667","6500100","板橋區"
"220020","277-BY","2018/06/29 14:49:38","新北市板橋區篤行路二段1巷6-2號","121.432173333333","24.9929466666667","6500100","板橋區"
"220019","283-VK","2018/06/29 14:49:48","新北市板橋區五權街1-9號","121.463625","24.9952033333333","6500100","板橋區"
"220043","285-UM","2018/06/29 14:49:39","新北市板橋區長江路一段133號","121.460528333333","25.03017","6500100","板橋區"
"220001","285-VK","2018/06/29 14:49:50","新北市板橋區民生路一段46號","121.474471666667","25.01487","6500100","板橋區"
"220031","286-VK","2018/06/29 14:49:34","新北市板橋區僑中二街10巷10號","121.446621666667","25.01103","6500100","板橋區"
"220029","287-VK","2018/06/29 14:49:45","新北市板橋區僑中一街124巷20弄36號","121.447581666667","25.01381","6500100","板橋區"
"220039","288-VK","2018/06/29 14:49:52","新北市板橋區新海路109巷1弄2號","121.4608","25.0224683333333","6500100","板橋區"
"220009","293-UM","2018/06/29 14:49:49","新北市板橋區觀光街26號","121.471438333333","25.0162516666667","6500100","板橋區"
"220010","295-UM","2018/06/29 14:49:54","新北市板橋區中山路二段416巷66弄7號","121.482511666667","25.0184883333333","6500100","板橋區"
"220032","296-UM","2018/06/29 14:49:46","新北市板橋區篤行路三段玉平巷76弄18號","121.427298333333","24.9860583333333","6500100","板橋區"
"220023","303-R5","2018/06/29 14:49:36","新北市板橋區金華街10巷48弄41號","121.458458333333","25.0200983333333","6500100","板橋區"
"220041","307-R5","2018/06/29 14:49:43","新北市板橋區四維路259巷18號","121.462515","25.0278466666667","6500100","板橋區"
"220047","317-R6","2018/06/29 14:49:47","新北市板橋區新海路392號","121.458851666667","25.02652","6500100","板橋區"
"220013","461-BY","2018/06/29 14:49:49","新北市板橋區民族路61號","121.465168333333","25.008605","6500100","板橋區"
"220012","486-VK","2018/06/29 14:49:45","新北市板橋區實踐路72-4號","121.463881666667","25.005645","6500100","板橋區"
"220037","491-VK","2018/06/29 14:49:46","新北市板橋區仁化街76號","121.476173333333","25.03169","6500100","板橋區"
"220104","560-BX","2018/06/29 14:49:41","新北市板橋區中正路316號","121.454846666667","25.02085","6500100","板橋區"
"220052","561-BX","2018/06/29 14:49:47","新北市板橋區陽明街29巷5號","121.465033333333","25.0216216666667","6500100","板橋區"
"220011","609-BX","2018/06/29 14:49:39","新北市板橋區林森街3巷1弄6號","121.48259","25.0235866666667","6500100","板橋區"
"220005","686-BX","2018/06/29 14:49:49","新北市板橋區廣權路9號","121.460701666667","24.9913533333333","6500100","板橋區"
"220042","689-BX","2018/06/29 14:49:32","新北市板橋區長江路二段59號","121.464686666667","25.0315566666667","6500100","板橋區"
"220002","741-BX","2018/06/29 14:49:35","新北市板橋區實踐路93巷86號","121.467048333333","25.0046733333333","6500100","板橋區"
"220051","KEA-2699","2018/06/29 14:49:38","新北市板橋區仁化街7號","121.474851666667","25.0317333333333","6500100","板橋區"
"220025","806-UM","2018/06/29 14:49:39","新北市板橋區僑中二街52號","121.446688333333","25.0101416666667","6500100","板橋區"
"220003","827-TW","2018/06/29 14:49:48","新北市板橋區仁愛路76巷10號","121.460616666667","24.9990833333333","6500100","板橋區"
"220014","829-TW","2018/06/29 14:49:46","新北市板橋區長安街210號","121.47454","25.0120416666667","6500100","板橋區"
"220016","830-TW","2018/06/29 14:49:50","新北市板橋區光復街192巷16弄24號","121.486316666667","25.019365","6500100","板橋區"
"220045","831-TW","2018/06/29 14:49:50","新北市板橋區民生路二段226巷31弄1號","121.47102","25.022135","6500100","板橋區"
"220038","833-TW","2018/06/29 14:49:39","新北市板橋區英士路192-1號","121.458341666667","25.0235983333333","6500100","板橋區"
"220022","895-R6","2018/06/29 14:49:42","新北市板橋區府後街1巷1號","121.45909","25.0107283333333","6500100","板橋區"
"220021","985-R7","2018/06/29 14:49:37","新北市板橋區大觀路一段51號","121.447473333333","25.00625","6500100","板橋區"
"220046","AAC-210","2018/06/29 14:49:35","新北市板橋區漢生西路52號","121.463105","25.018635","6500100","板橋區"
"220018","AAC-253","2018/06/29 14:49:42","新北市板橋區成都街97號","121.463231666667","25.0053666666667","6500100","板橋區"
"235032","KEA-2873","2018/06/29 14:49:43","新北市中和區福祥路85巷2弄5號","121.498625","25.006035","6500300","中和區"
