"lineid","car","time","location","longitude","latitude","cityid","cityname"
"234084","338-UY","2018/06/29 14:59:37","新北市永和區福和路1號","121.52559","25.0094583333333","6500400","永和區"
"234028","746-BX","2018/06/29 14:59:47","新北市永和區福和路139號","121.520903333333","25.007515","6500400","永和區"
"248019","225-UY","2018/06/29 14:59:48","新北市五股區凌雲路三段7號","121.430956666667","25.1065","6501500","五股區"
"244004","248-BX","2018/06/29 14:59:46","新北市林口區竹林路266號","121.389661666667","25.0808166666667","6501700","林口區"
"231002","002-UM","2018/06/29 14:59:41","新北市新店區中正路499號","121.533646666667","24.9834966666667","6500600","新店區"
"231027","0293-UT","2018/06/29 14:59:35","新北市新店區安康路二段414巷2號","121.495833333333","24.9578766666667","6500600","新店區"
"231028","046-UY","2018/06/29 14:59:49","新北市新店區安康路二段309-1號","121.501465","24.9570766666667","6500600","新店區"
"231001","047-UY","2018/06/29 14:59:54","新北市新店區中正路255號","121.538886666667","24.9735183333333","6500600","新店區"
"231005","106-UY","2018/06/29 14:59:37","新北市新店區復興路32號","121.539085","24.9867583333333","6500600","新店區"
"231022","108-UY","2018/06/29 14:59:33","新北市新店區桂山路121號","121.568681666667","24.8925133333333","6500600","新店區"
"231012","187-VK","2018/06/29 14:59:49","新北市新店區中興路三段1號","121.54638","24.9774016666667","6500600","新店區"
"231023","KEA-2219","2018/06/29 14:59:34","新北市新店區檳榔路109號","121.544451666667","24.961675","6500600","新店區"
"231026","256-BX","2018/06/29 14:59:46","新北市新店區博愛街9巷4號","121.540751666667","24.9730566666667","6500600","新店區"
"231003","268-BY","2018/06/29 14:59:47","新北市新店區中興路二段100巷2號","121.547445","24.9715066666667","6500600","新店區"
"231018","278-BY","2018/06/29 14:59:39","新北市新店區中央六街6號","121.53028","24.9743816666667","6500600","新店區"
"231016","AAD-862","2018/06/29 14:59:38","新北市新店區銀河路58號","121.576671666667","24.9573766666667","6500600","新店區"
"231038","3712-VJ","2018/06/29 14:59:39","新北市新店區安康路一段355號","121.519591666667","24.962855","6500600","新店區"
"231037","4716-K9","2018/06/29 14:59:34","新北市新店區薏仁坑路自強巷1號","121.497286666667","24.9577583333333","6500600","新店區"
"231025","4715-K9","2018/06/29 14:59:43","新北市新店區二十張路33巷22號","121.539185","24.980735","6500600","新店區"
"231036","512-UM","2018/06/29 14:59:49","新北市新店區安祥路102巷46弄89號","121.48732","24.9631633333333","6500600","新店區"
"231006","617-UM","2018/06/29 14:59:43","新北市新店區新坡一街72號","121.548953333333","24.9645416666667","6500600","新店區"
"231030","619-UM","2018/06/29 14:59:37","新北市新店區安民街339號","121.516921666667","24.974895","6500600","新店區"
"231034","641-BX","2018/06/29 14:59:37","新北市新店區玫瑰路4-1號","121.493638333333","24.951425","6500600","新店區"
"231039","718-UY","2018/06/29 14:59:43","新北市新店區寶興路45巷2-2號","121.5516","24.97352","6500600","新店區"
"231035","719-UM","2018/06/29 14:59:44","新北市新店區安和路二段240號","121.516658333333","24.9786633333333","6500600","新店區"
"231032","720-UM","2018/06/29 14:59:53","新北市新店區安泰路60巷9號","121.48389","24.9466983333333","6500600","新店區"
"231029","897-TW","2018/06/29 14:59:44","新北市新店區安康路三段716號","121.473898333333","24.9421083333333","6500600","新店區"
"231004","899-TW","2018/06/29 14:59:40","新北市新店區民族路11號","121.541526666667","24.9787983333333","6500600","新店區"
"231024","AKT-0513","2018/06/29 14:59:40","新北市新店區中華路83巷61號","121.538453333333","24.9674216666667","6500600","新店區"
"235030","003-UY","2018/06/29 14:59:32","新北市中和區光華街8號","121.50423","25.00431","6500300","中和區"
"235020","096-UM","2018/06/29 14:59:42","新北市中和區中山路三段170巷6弄1號","121.472605","25.0073033333333","6500300","中和區"
"235003","097-UM","2018/06/29 14:59:38","新北市中和區安樂路217巷60號","121.512793333333","24.99759","6500300","中和區"
"235029","098-UM","2018/06/29 14:59:51","新北市中和區福美路315號","121.496748333333","25.0047416666667","6500300","中和區"
"235004","150-BY","2018/06/29 14:59:38","新北市中和區景安路79巷23號","121.507093333333","24.996745","6500300","中和區"
"235008","293-VK","2018/06/29 14:59:53","新北市中和區中正路63號","121.501315","24.9931616666667","6500300","中和區"
"235036","301-VK","2018/06/29 14:59:47","新北市中和區中和路74號","121.500641666667","25.0001316666667","6500300","中和區"
"235007","352-BY","2018/06/29 14:59:41","新北市中和區興南路二段10-3號","121.507805","24.98612","6500300","中和區"
"235014","4979-A6","2018/06/29 14:59:39","新北市中和區景平路155巷4號","121.513446666667","24.9917116666667","6500300","中和區"
"235033","4980-A6","2018/06/29 14:59:46","新北市中和區景新街34巷1號","121.503291666667","24.9990433333333","6500300","中和區"
"235034","558-UM","2018/06/29 14:59:38","新北市中和區圓通路169號","121.49764","24.9952766666667","6500300","中和區"
"235018","640-BX","2018/06/29 14:59:54","新北市中和區莒光路4號","121.47198","25.0046666666667","6500300","中和區"
"235010","733-UM","2018/06/29 14:59:39","新北市中和區興南路一段105巷20弄5號","121.51028","24.9855166666667","6500300","中和區"
"235035","783-BX","2018/06/29 14:59:50","新北市中和區建一路173號","121.488183333333","24.9990066666667","6500300","中和區"
"235016","805-TS","2018/06/29 14:59:50","新北市中和區忠孝街91號","121.512111666667","24.9855566666667","6500300","中和區"
"235012","896-TW","2018/06/29 14:59:35","新北市中和區忠孝街1巷2-1號","121.509118333333","24.9830266666667","6500300","中和區"
"235015","157-BY","2018/06/29 14:59:44","新北市中和區中正路166號","121.498355","24.9937933333333","6500300","中和區"
"235001","AAC-213","2018/06/29 14:59:43","新北市中和區自立路99巷22弄32號","121.523183333333","24.993825","6500300","中和區"
"235023","AAC-215","2018/06/29 14:59:39","新北市中和區圓通路355號","121.491388333333","24.990025","6500300","中和區"
"220105","075-UY","2018/06/29 14:59:26","新北市板橋區文聖街13號","121.475548333333","25.032375","6500100","板橋區"
"220017","AAD-861","2018/06/29 14:59:40","新北市板橋區大明街20巷19弄13號","121.457921666667","25.0031733333333","6500100","板橋區"
"235011","251-BX","2018/06/29 14:59:49","新北市中和區南山路291號","121.50435","24.9920283333333","6500300","中和區"
"207002","749-BX","2018/06/29 14:59:34","新北市萬里區崁腳里崁腳路60-1號","121.648263333333","25.1601666666667","6502800","萬里區"
"207001","662-BX","2018/06/29 14:59:35","新北市萬里區雙興里二坪路11號","121.646366666667","25.175075","6502800","萬里區"
"236067","105-UM","2018/06/29 14:59:37","新北市土城區明德路二段209號","121.446405","24.9837316666667","6501300","土城區"
"236040","107-UM","2018/06/29 14:59:35","新北市土城區學士路24巷12號","121.452313333333","24.9833466666667","6501300","土城區"
"236077","166-UM","2018/06/29 14:59:46","新北市土城區中央路四段125巷2弄17-1號","121.416385","24.9568516666667","6501300","土城區"
"236029","253-BX","2018/06/29 14:59:50","新北市土城區慶利街18號","121.439641666667","24.97365","6501300","土城區"
"236024","269-VK","2018/06/29 14:59:42","新北市土城區中正路74巷3弄1號","121.444766666667","24.9748683333333","6501300","土城區"
"236013","270-VK","2018/06/29 14:59:55","新北市土城區延和路15號","121.463901666667","24.9880933333333","6501300","土城區"
"236032","271-VK","2018/06/29 14:59:44","新北市土城區清水路140號","121.458638333333","24.98153","6501300","土城區"
"236016","401-BY","2018/06/29 14:59:34","新北市土城區延安街33巷24號","121.468595","24.9849133333333","6501300","土城區"
"236057","912-UM","2018/06/29 14:59:34","新北市土城區金城路二段208號","121.45528","24.982055","6501300","土城區"
"236045","913-UM","2018/06/29 14:59:43","新北市土城區明德路一段365-1號","121.453663333333","24.9790683333333","6501300","土城區"
"236054","AAC-216","2018/06/29 14:59:53","新北市土城區學成路138號","121.448955","24.9896166666667","6501300","土城區"
"221036","130-UY","2018/06/29 14:59:50","新北市汐止區忠孝東路200-5號","121.661525","25.06638","6501100","汐止區"
"220027","145-BY","2018/06/29 14:59:34","新北市板橋區僑中一街124巷70-5號","121.449041666667","25.0163316666667","6500100","板橋區"
"220030","610-BX","2018/06/29 14:59:41","新北市板橋區大觀路三段100號","121.432731666667","24.9946216666667","6500100","板橋區"
"220050","245-BX","2018/06/29 14:59:32","新北市板橋區雙十路一段44巷36號","121.47754","25.024965","6500100","板橋區"
"220040","267-BY","2018/06/29 14:59:39","新北市板橋區民治街116號","121.478253333333","25.0310683333333","6500100","板橋區"
"220020","277-BY","2018/06/29 14:59:38","新北市板橋區大觀路三段108號","121.43232","24.99413","6500100","板橋區"
"220043","285-UM","2018/06/29 14:59:49","新北市板橋區文德路13號","121.462463333333","25.0243166666667","6500100","板橋區"
"220001","285-VK","2018/06/29 14:59:42","新北市板橋區永豐街69號","121.473888333333","25.0187266666667","6500100","板橋區"
"220031","286-VK","2018/06/29 14:59:34","新北市板橋區僑中二街90巷37號","121.444406666667","25.0095116666667","6500100","板橋區"
"220029","287-VK","2018/06/29 14:59:45","新北市板橋區僑中一街80巷5弄19號","121.446831666667","25.01258","6500100","板橋區"
"220039","288-VK","2018/06/29 14:59:51","新北市板橋區英士路199號","121.458848333333","25.0236166666667","6500100","板橋區"
"220009","293-UM","2018/06/29 14:59:49","新北市板橋區中山路二段21號","121.47233","25.015095","6500100","板橋區"
"220032","296-UM","2018/06/29 14:59:46","新北市板橋區溪城路90-2號","121.42949","24.980275","6500100","板橋區"
"220041","307-R5","2018/06/29 14:59:36","新北市板橋區裕民街131號","121.459225","25.0271966666667","6500100","板橋區"
"220047","317-R6","2018/06/29 14:59:47","新北市板橋區新海路72巷53號","121.461613333333","25.02342","6500100","板橋區"
"220013","461-BY","2018/06/29 14:59:49","新北市板橋區中山路一段154巷3弄2號","121.465396666667","25.010435","6500100","板橋區"
"220012","486-VK","2018/06/29 14:59:46","新北市板橋區海山路51號","121.46681","25.0102116666667","6500100","板橋區"
"220037","491-VK","2018/06/29 14:59:46","新北市板橋區懷德街127巷2號","121.478916666667","25.030775","6500100","板橋區"
"220052","561-BX","2018/06/29 14:59:44","新北市板橋區陽明街48號","121.465406666667","25.0222116666667","6500100","板橋區"
"220011","609-BX","2018/06/29 14:59:49","新北市板橋區中山路二段467號","121.481961666667","25.0204666666667","6500100","板橋區"
"220005","686-BX","2018/06/29 14:59:49","新北市板橋區四川路二段74號","121.452318333333","24.99483","6500100","板橋區"
"220042","689-BX","2018/06/29 14:59:52","新北市板橋區長江路三段31-1號","121.472915","25.0338133333333","6500100","板橋區"
"220002","741-BX","2018/06/29 14:59:35","新北市板橋區實踐路93巷26號","121.465093333333","25.005175","6500100","板橋區"
"220051","KEA-2699","2018/06/29 14:59:38","新北市板橋區懷德街69號","121.477648333333","25.0323883333333","6500100","板橋區"
"220025","806-UM","2018/06/29 14:59:39","新北市板橋區僑中一街124巷19弄1號","121.446121666667","25.013895","6500100","板橋區"
"220003","827-TW","2018/06/29 14:59:48","新北市板橋區國慶路167巷27號","121.461725","24.9978283333333","6500100","板橋區"
"220014","829-TW","2018/06/29 14:59:53","新北市板橋區漢生東路179號","121.469805","25.011855","6500100","板橋區"
"220016","830-TW","2018/06/29 14:59:50","新北市板橋區中山路二段361號","121.479736666667","25.0190366666667","6500100","板橋區"
"220045","831-TW","2018/06/29 14:59:37","新北市板橋區莒光路40巷9號","121.47029","25.0236416666667","6500100","板橋區"
"220038","833-TW","2018/06/29 14:59:39","新北市板橋區龍泉街55巷26號","121.45763","25.0251583333333","6500100","板橋區"
"220046","AAC-210","2018/06/29 14:59:54","新北市板橋區光正街18巷9號","121.462621666667","25.017555","6500100","板橋區"
"220018","AAC-253","2018/06/29 14:59:37","新北市板橋區四川路二段2號","121.456683333333","24.996635","6500100","板橋區"
"235032","KEA-2873","2018/06/29 14:59:43","新北市中和區永和路74號","121.497886666667","25.0051216666667","6500300","中和區"
