"lineid","car","time","location","longitude","latitude","cityid","cityname"
"234084","338-UY","2018/06/29 15:29:37","新北市永和區福和路1號","121.526346666667","25.0095783333333","6500400","永和區"
"234028","746-BX","2018/06/29 15:15:23","新北市永和區福和路1號","121.526305","25.0095966666667","6500400","永和區"
"231002","002-UM","2018/06/29 15:29:54","新北市新店區環河路114巷4-1號","121.535986666667","24.964765","6500600","新店區"
"231028","046-UY","2018/06/29 15:29:49","新北市新店區僑信路45號","121.499348333333","24.9498816666667","6500600","新店區"
"231005","106-UY","2018/06/29 15:29:37","新北市新店區建國路259號","121.537245","24.9836133333333","6500600","新店區"
"231022","108-UY","2018/06/29 15:29:33","新北市新店區永福路82號","121.560726666667","24.9275216666667","6500600","新店區"
"231012","187-VK","2018/06/29 15:29:49","新北市新店區寶元路一段109號","121.54566","24.9831283333333","6500600","新店區"
"231023","KEA-2219","2018/06/29 15:29:54","新北市新店區北新路一段96巷23號","121.542906666667","24.9687183333333","6500600","新店區"
"231026","256-BX","2018/06/29 15:29:44","新北市新店區三民路117巷5弄2號","121.534235","24.9711733333333","6500600","新店區"
"231003","268-BY","2018/06/29 15:29:47","新北市新店區寶高路116號","121.554556666667","24.97611","6500600","新店區"
"231018","278-BY","2018/06/29 15:29:39","新北市新店區民生路145巷32號","121.529828333333","24.980525","6500600","新店區"
"231016","AAD-862","2018/06/29 15:29:38","新北市新店區明山路45號","121.563875","24.9557816666667","6500600","新店區"
"231038","3712-VJ","2018/06/29 15:29:39","新北市新店區安華路28-1號","121.519586666667","24.9608983333333","6500600","新店區"
"231037","4716-K9","2018/06/29 15:29:54","新北市新店區安興路90號","121.514756666667","24.9761383333333","6500600","新店區"
"231025","4715-K9","2018/06/29 15:29:44","新北市新店區安德街60巷26號","121.511198333333","24.9641033333333","6500600","新店區"
"231036","512-UM","2018/06/29 15:29:41","新北市新店區安祥路69巷52弄2號","121.481945","24.9598366666667","6500600","新店區"
"231030","619-UM","2018/06/29 15:29:37","新北市新店區新和街59巷2號","121.520025","24.9855266666667","6500600","新店區"
"231034","641-BX","2018/06/29 15:29:37","新北市新店區玫瑰路28號","121.495298333333","24.9502366666667","6500600","新店區"
"231039","718-UY","2018/06/29 15:29:43","新北市新店區寶元路一段74巷1號","121.544096666667","24.9841283333333","6500600","新店區"
"231035","719-UM","2018/06/29 15:29:44","新北市新店區安興路81號","121.515635","24.9753666666667","6500600","新店區"
"231032","720-UM","2018/06/29 15:29:47","新北市新店區裕合街116號","121.49031","24.9490683333333","6500600","新店區"
"231029","897-TW","2018/06/29 15:29:44","新北市新店區安康路三段224號","121.488281666667","24.95184","6500600","新店區"
"231004","899-TW","2018/06/29 15:29:45","新北市新店區民族路91號","121.538618333333","24.9776366666667","6500600","新店區"
"241011","013-R5","2018/06/29 15:29:46","新北市三重區泉州街110號","121.495233333333","25.05305","6500200","三重區"
"241022","060-VK","2018/06/29 15:29:45","新北市三重區重新路四段121號","121.484771666667","25.05257","6500200","三重區"
"241015","062-VK","2018/06/29 15:29:33","新北市三重區重新路四段121號","121.485173333333","25.0519233333333","6500200","三重區"
"241017","063-VK","2018/06/29 15:29:42","新北市三重區重新路四段121號","121.484695","25.05192","6500200","三重區"
"241016","266-UM","2018/06/29 15:29:42","新北市三重區重新路四段121號","121.485118333333","25.052125","6500200","三重區"
"241009","267-UM","2018/06/29 15:29:47","新北市三重區重新路四段121號","121.484936666667","25.0519466666667","6500200","三重區"
"241013","270-UM","2018/06/29 15:29:41","新北市三重區重新路四段121號","121.484703333333","25.0518366666667","6500200","三重區"
"241007","398-BY","2018/06/29 15:29:47","新北市三重區重新路四段121號","121.485178333333","25.0519533333333","6500200","三重區"
"241030","480-VK","2018/06/29 15:29:46","新北市三重區重新路四段121號","121.484855","25.052465","6500200","三重區"
"241014","543-UM","2018/06/29 15:29:49","新北市三重區重新路四段121號","121.48511","25.0520066666667","6500200","三重區"
"241019","KEA-2593","2018/06/29 15:29:35","新北市三重區重新路四段121號","121.485071666667","25.0518316666667","6500200","三重區"
"241012","941-UM","2018/06/29 15:29:52","新北市三重區重新路四段121號","121.484855","25.0519566666667","6500200","三重區"
"241033","AAC-255","2018/06/29 15:29:44","新北市三重區重新路五段493號","121.472745","25.0467916666667","6500200","三重區"
"235014","4979-A6","2018/06/29 15:29:39","新北市中和區景新街129號","121.505756666667","24.99733","6500300","中和區"
"235033","4980-A6","2018/06/29 15:29:46","新北市中和區新生街226號","121.483893333333","24.9983233333333","6500300","中和區"
"235046","733-UM","2018/06/29 15:26:52","新北市中和區員山路36巷13號","121.484178333333","24.9907983333333","6500300","中和區"
"235023","AAC-215","2018/06/29 15:29:39","新北市中和區員山路36號","121.482835","24.9879333333333","6500300","中和區"
"227003","642-TC","2018/06/29 15:29:38","新北市雙溪區三貂里政光路3-1號","121.85114","25.0633033333333","6502500","雙溪區"
"236067","105-UM","2018/06/29 15:29:37","新北市土城區中正路40號","121.44351","24.97528","6501300","土城區"
"236040","107-UM","2018/06/29 15:29:54","新北市土城區學成路6號","121.453541666667","24.9865383333333","6501300","土城區"
"236077","166-UM","2018/06/29 15:29:46","新北市土城區中央路四段321巷34弄5號","121.412745","24.9508533333333","6501300","土城區"
"236029","253-BX","2018/06/29 15:29:50","新北市土城區日新街8巷7號","121.44542","24.9873333333333","6501300","土城區"
"236024","269-VK","2018/06/29 15:29:54","新北市土城區裕生路102巷19號","121.4458","24.9849366666667","6501300","土城區"
"236013","270-VK","2018/06/29 15:29:55","新北市土城區廣興街32號","121.45557","24.9916883333333","6501300","土城區"
"236032","271-VK","2018/06/29 15:29:44","新北市土城區延吉街353巷8號","121.46455","24.9835033333333","6501300","土城區"
"236016","401-BY","2018/06/29 15:29:34","新北市土城區延吉街137巷2弄1號","121.470855","24.9859133333333","6501300","土城區"
"236057","912-UM","2018/06/29 15:29:41","新北市土城區中央路一段324號","121.443206666667","24.981475","6501300","土城區"
"236045","913-UM","2018/06/29 15:29:43","新北市土城區金城路三段170號","121.46754","24.9875816666667","6501300","土城區"
"236060","915-UM","2018/06/29 15:29:34","新北市土城區立德路135巷6號","121.464753333333","24.9868483333333","6501300","土城區"
"236054","AAC-216","2018/06/29 15:29:41","新北市土城區延和路252號","121.469906666667","24.9896133333333","6501300","土城區"
"221036","130-UY","2018/06/29 15:29:50","新北市汐止區汐萬路一段256巷1號","121.651798333333","25.0748533333333","6501100","汐止區"
"220050","245-BX","2018/06/29 15:29:52","新北市板橋區漢生東路83巷1號","121.466215","25.0158916666667","6500100","板橋區"
"220052","561-BX","2018/06/29 15:29:44","新北市板橋區漢生東路73巷28號","121.46724","25.0170466666667","6500100","板橋區"
"220038","833-TW","2018/06/29 15:29:39","新北市板橋區四維路341號","121.46248","25.0297583333333","6500100","板橋區"
