"lineid","car","time","location","longitude","latitude","cityid","cityname"
"234084","338-UY","2018/06/29 16:18:37","新北市永和區福和路1號","121.526523333333","25.00989","6500400","永和區"
"234028","746-BX","2018/06/29 16:39:42","新北市永和區福和路1號","121.526325","25.0095866666667","6500400","永和區"
"234042","862-TW","2018/06/29 16:17:01","新北市永和區福和路1號","121.526225","25.0096733333333","6500400","永和區"
"249005","172-UM","2018/06/29 16:39:54","新北市八里區忠孝路175號","121.423283333333","25.1607833333333","6502300","八里區"
"231046","188-VK","2018/06/29 16:39:53","新北市新店區灣潭路55號","121.541871666667","24.9431533333333","6500600","新店區"
"231038","3712-VJ","2018/06/29 16:28:49","新北市新店區安華路28-1號","121.519238333333","24.9606433333333","6500600","新店區"
"241011","013-R5","2018/06/29 16:39:46","新北市三重區仁愛街39號","121.496561666667","25.07159","6500200","三重區"
"241028","022-UY","2018/06/29 16:39:45","新北市三重區重新路三段80號","121.493305","25.0609583333333","6500200","三重區"
"241008","059-VK","2018/06/29 16:39:38","新北市三重區永安北路一段27巷51號","121.477761666667","25.0755516666667","6500200","三重區"
"241022","060-VK","2018/06/29 16:39:45","新北市三重區新北大道一段138號","121.48466","25.0616916666667","6500200","三重區"
"241031","061-VK","2018/06/29 16:39:46","新北市三重區重新路四段41巷26號","121.487296666667","25.05847","6500200","三重區"
"241015","062-VK","2018/06/29 16:39:53","新北市三重區文化北路41-2號","121.498885","25.0652583333333","6500200","三重區"
"241017","063-VK","2018/06/29 16:39:42","新北市三重區中正北路25巷26號","121.493795","25.0632066666667","6500200","三重區"
"241024","065-VK","2018/06/29 16:39:51","新北市三重區中正北路315巷6弄58號","121.475698333333","25.0724183333333","6500200","三重區"
"241026","066-VK","2018/06/29 16:39:39","新北市三重區和平街40號","121.502091666667","25.0626883333333","6500200","三重區"
"241002","090-VK","2018/06/29 16:39:44","新北市三重區仁義街241巷22號","121.496855","25.0829633333333","6500200","三重區"
"241003","091-VK","2018/06/29 16:39:51","新北市三重區五華街89-1號","121.491965","25.0833966666667","6500200","三重區"
"241001","742-BX","2018/06/29 16:39:54","新北市三重區仁政街90號","121.49242","25.0777616666667","6500200","三重區"
"241005","262-UM","2018/06/29 16:39:44","新北市三重區仁華街118巷47號","121.485808333333","25.0839683333333","6500200","三重區"
"241016","266-UM","2018/06/29 16:39:49","新北市三重區大智街13號","121.494601666667","25.0652166666667","6500200","三重區"
"241009","267-UM","2018/06/29 16:39:46","新北市三重區三和路四段203巷74號","121.483646666667","25.079885","6500200","三重區"
"241018","268-UM","2018/06/29 16:39:36","新北市三重區正義北路338巷46號","121.49322","25.0703983333333","6500200","三重區"
"241032","269-UM","2018/06/29 16:39:53","新北市三重區新北大道一段101號","121.484296666667","25.06135","6500200","三重區"
"241013","270-UM","2018/06/29 16:39:49","新北市三重區三和路三段101巷128號","121.49812","25.0735833333333","6500200","三重區"
"241007","398-BY","2018/06/29 16:39:47","新北市三重區三和路四段167巷80號","121.48503","25.079415","6500200","三重區"
"241004","475-VK","2018/06/29 16:39:49","新北市三重區五福街2號","121.493216666667","25.081695","6500200","三重區"
"241020","478-VK","2018/06/29 16:39:36","新北市三重區車路頭街64號","121.48425","25.0726516666667","6500200","三重區"
"241030","480-VK","2018/06/29 16:39:46","新北市三重區成功路20巷12-3號","121.489615","25.04913","6500200","三重區"
"241014","543-UM","2018/06/29 16:39:49","新北市三重區龍濱路31號","121.502888333333","25.0681966666667","6500200","三重區"
"241023","545-UM","2018/06/29 16:39:48","新北市三重區忠孝路三段50巷53號","121.483333333333","25.064245","6500200","三重區"
"241019","KEA-2593","2018/06/29 16:39:55","新北市三重區力行路一段91號","121.486268333333","25.06811","6500200","三重區"
"241006","AAD-863","2018/06/29 16:39:34","新北市三重區車路頭街138-1號","121.483538333333","25.0756216666667","6500200","三重區"
"241025","743-BX","2018/06/29 16:39:41","新北市三重區中正北路428巷15號","121.474391666667","25.0700816666667","6500200","三重區"
"241012","941-UM","2018/06/29 16:39:52","新北市三重區仁興街3巷2號","121.500013333333","25.07386","6500200","三重區"
"241029","942-UM","2018/06/29 16:39:25","新北市三重區集美街112巷21號","121.489813333333","25.05422","6500200","三重區"
"241033","AAC-255","2018/06/29 16:39:44","新北市三重區重新路五段442號","121.47492","25.0471933333333","6500200","三重區"
"247006","336-TH","2018/06/29 16:39:35","新北市五股區工商路8號","121.440645","25.0826433333333","6501400","蘆洲區"
"247008","056-VK","2018/06/29 16:39:36","新北市五股區中興路三段3-8號","121.44961","25.07961","6501400","蘆洲區"
"228002","663-BX","2018/06/29 16:39:49","新北市貢寮區貢寮里朝陽街28-1號","121.911176666667","25.0216066666667","6502600","貢寮區"
"224008","285-BY","2018/06/29 16:39:43","新北市瑞芳區大寮路356-1號","121.785073333333","25.10334","6501200","瑞芳區"
"224007","275-VK","2018/06/29 16:39:54","新北市瑞芳區月眉路48號","121.760373333333","25.10992","6501200","瑞芳區"
"224009","273-VK","2018/06/29 16:39:42","新北市瑞芳區大寮路356-1號","121.78495","25.10329","6501200","瑞芳區"
"224005","271-BY","2018/06/29 16:39:52","新北市瑞芳區洞頂路210-4號","121.861336666667","25.1246016666667","6501200","瑞芳區"
"227003","642-TC","2018/06/29 16:39:38","新北市雙溪區外柑里土地公後2-3號","121.818478333333","25.0215033333333","6502500","雙溪區"
"227011","400-TW","2018/06/29 16:39:42","新北市雙溪區牡丹里中正路74號","121.863678333333","25.0451866666667","6502500","雙溪區"
"251008","181-VK","2018/06/29 16:39:47","台北市北投區中央北路四段30巷160號","121.474133333333","25.1404283333333","6501000","淡水區"
"252002","178-VK","2018/06/29 16:39:45","新北市三芝區芝柏三街2號","121.511413333333","25.2564183333333","6502100","三芝區"
