"lineid","car","time","location","longitude","latitude","cityid","cityname"
"234028","746-BX","2018/06/29 17:06:59","新北市永和區福和路1號","121.526416666667","25.009605","6500400","永和區"
"249005","172-UM","2018/06/29 17:19:54","新北市五股區中直路70號","121.415336666667","25.1229333333333","6502300","八里區"
"249001","173-UM","2018/06/29 17:19:52","新北市八里區中華路二段165巷3號","121.407641666667","25.150875","6502300","八里區"
"249004","303-UY","2018/06/29 17:19:35","新北市八里區賢三街17號","121.419063333333","25.1592533333333","6502300","八里區"
"249002","305-UY","2018/06/29 17:19:46","新北市八里區烏山頭20-1號","121.44458","25.142505","6502300","八里區"
"249003","593-UM","2018/06/29 17:19:46","新北市八里區中山路二段439號","121.396721666667","25.1457716666667","6502300","八里區"
"244007","080-UY","2018/06/29 17:19:38","新北市林口區中湖40-9號","121.383298333333","25.0911566666667","6501700","林口區"
"244019","403-UM","2018/06/29 17:19:48","新北市林口區文化二路一段342號","121.372851666667","25.0751766666667","6501700","林口區"
"244013","742-UY","2018/06/29 17:19:38","新北市林口區粉寮69號","121.404775","25.09089","6501700","林口區"
"244009","410-SL","2018/06/29 17:19:39","新北市林口區松柏路82號","121.379385","25.0903266666667","6501700","林口區"
"244023","483-VK","2018/06/29 17:19:38","新北市林口區隆林街65號","121.386996666667","25.0753716666667","6501700","林口區"
"244017","485-VK","2018/06/29 17:19:45","新北市林口區粉寮路二段221號","121.404196666667","25.0906066666667","6501700","林口區"
"244011","701-TV","2018/06/29 17:19:48","新北市林口區粉寮路二段27號","121.400756666667","25.0844983333333","6501700","林口區"
"244025","837-TS","2018/06/29 17:19:43","新北市林口區文化三路一段623號","121.371831666667","25.0773066666667","6501700","林口區"
"244021","838-TS","2018/06/29 17:19:42","新北市林口區粉寮路67-16號","121.404081666667","25.0907733333333","6501700","林口區"
"231046","188-VK","2018/06/29 17:19:53","新北市新店區直潭路92號","121.530905","24.9375766666667","6500600","新店區"
"241011","013-R5","2018/06/29 17:19:46","新北市三重區秀江街31號","121.502131666667","25.0729666666667","6500200","三重區"
"241028","022-UY","2018/06/29 17:19:45","新北市三重區仁化街77-1號","121.494183333333","25.0586416666667","6500200","三重區"
"241008","059-VK","2018/06/29 17:19:51","新北市三重區永福街72巷29號","121.480028333333","25.07639","6500200","三重區"
"241022","060-VK","2018/06/29 17:19:44","新北市三重區重陽路二段34巷2號","121.48671","25.0630266666667","6500200","三重區"
"241015","062-VK","2018/06/29 17:19:53","新北市三重區長元街82-1號","121.501856666667","25.0662816666667","6500200","三重區"
"241017","063-VK","2018/06/29 17:19:42","新北市三重區大同北路83號","121.494876666667","25.063585","6500200","三重區"
"241024","065-VK","2018/06/29 17:19:51","新北市三重區中正北路193巷21弄39號","121.478445","25.07091","6500200","三重區"
"241026","066-VK","2018/06/29 17:19:39","新北市三重區福裕街57號","121.498661666667","25.0615366666667","6500200","三重區"
"241002","090-VK","2018/06/29 17:19:44","新北市三重區自強路五段66-1號","121.49593","25.0825966666667","6500200","三重區"
"241003","091-VK","2018/06/29 17:19:51","新北市三重區富福街33號","121.490815","25.0836683333333","6500200","三重區"
"241005","262-UM","2018/06/29 17:19:44","新北市三重區永安北路二段11號","121.481945","25.081395","6500200","三重區"
"241016","266-UM","2018/06/29 17:19:42","新北市三重區大同北路97-3號","121.49441","25.0635733333333","6500200","三重區"
"241009","267-UM","2018/06/29 17:19:46","新北市三重區三和路四段145巷7號","121.48454","25.07837","6500200","三重區"
"241018","268-UM","2018/06/29 17:19:56","新北市三重區安慶街200號","121.493258333333","25.0683633333333","6500200","三重區"
"241032","269-UM","2018/06/29 17:19:39","新北市三重區中華路16號","121.483236666667","25.0606","6500200","三重區"
"241013","270-UM","2018/06/29 17:19:41","新北市三重區仁愛街82巷14號","121.494695","25.07335","6500200","三重區"
"241007","398-BY","2018/06/29 17:19:27","新北市三重區三和路四段155巷23號","121.484563333333","25.0786683333333","6500200","三重區"
"241004","475-VK","2018/06/29 17:19:49","新北市三重區仁愛街425巷54號","121.491518333333","25.0823616666667","6500200","三重區"
"241020","478-VK","2018/06/29 17:19:36","新北市三重區自強路三段9號","121.487385","25.0719833333333","6500200","三重區"
"241030","480-VK","2018/06/29 17:19:46","新北市三重區成功路73巷26號","121.489585","25.0522116666667","6500200","三重區"
"241014","543-UM","2018/06/29 17:19:49","新北市三重區三和路二段83號","121.500051666667","25.068365","6500200","三重區"
"241023","545-UM","2018/06/29 17:19:52","新北市三重區三民街160號","121.482271666667","25.06541","6500200","三重區"
"241019","KEA-2593","2018/06/29 17:19:35","新北市三重區自強路二段50巷19-1號","121.48836","25.0694416666667","6500200","三重區"
"241025","743-BX","2018/06/29 17:19:41","新北市三重區中正北路438號","121.47434","25.071275","6500200","三重區"
"241012","941-UM","2018/06/29 17:19:52","新北市三重區仁昌街112號","121.50037","25.07533","6500200","三重區"
"241033","AAC-255","2018/06/29 17:19:44","新北市三重區中興北街193巷2號","121.469108333333","25.0566383333333","6500200","三重區"
"235062","800-TS","2018/06/29 17:19:09","新北市中和區員山路36巷13號","121.484198333333","24.9916116666667","6500300","中和區"
"247024","893-R6","2018/06/29 17:19:44","新北市蘆洲區光明路1號","121.460095","25.08652","6501400","蘆洲區"
"247014","546-UM","2018/06/29 17:19:41","新北市蘆洲區中正路60號","121.470593333333","25.0830033333333","6501400","蘆洲區"
"247022","500-BY","2018/06/29 17:19:37","新北市蘆洲區民權路121巷18號","121.47042","25.0888733333333","6501400","蘆洲區"
"247010","341-TH","2018/06/29 17:19:56","新北市蘆洲區三民路26巷10號","121.476893333333","25.0826333333333","6501400","蘆洲區"
"247012","339-TH","2018/06/29 17:19:40","新北市蘆洲區信義路319巷10弄3號","121.477515","25.0863666666667","6501400","蘆洲區"
"247004","337-TH","2018/06/29 17:19:50","新北市蘆洲區中原路26號","121.460086666667","25.0827533333333","6501400","蘆洲區"
"247006","336-TH","2018/06/29 17:19:55","新北市蘆洲區長安街49巷2弄1號","121.462973333333","25.079215","6501400","蘆洲區"
"247018","057-VK","2018/06/29 17:19:39","新北市蘆洲區民權路96巷1弄2號","121.474386666667","25.0882483333333","6501400","蘆洲區"
"247008","056-VK","2018/06/29 17:19:36","新北市蘆洲區永安北路一段72巷4號","121.476908333333","25.077175","6501400","蘆洲區"
"247016","007-UY","2018/06/29 17:19:36","新北市蘆洲區正和街96巷43號","121.46731","25.08165","6501400","蘆洲區"
"247002","002-UY","2018/06/29 17:19:34","新北市蘆洲區永樂街38巷45弄49號","121.456743333333","25.0901583333333","6501400","蘆洲區"
"247020","001-UY","2018/06/29 17:19:37","新北市蘆洲區民族路448號","121.472561666667","25.09204","6501400","蘆洲區"
"228002","663-BX","2018/06/29 17:19:46","新北市貢寮區雙玉里田寮洋街26號","121.92658","25.0138683333333","6502600","貢寮區"
"228001","670-TC","2018/06/29 17:19:44","新北市貢寮區仁理村尖山腳街18-3號","121.925491666667","25.04831","6502600","貢寮區"
"228003","828-UM","2018/06/29 17:19:56","新北市貢寮區福隆里興隆街24-1號","121.944423333333","25.0166783333333","6502600","貢寮區"
"224006","676-BX","2018/06/29 17:19:44","新北市瑞芳區傑魚坑路275號","121.786848333333","25.105425","6501200","瑞芳區"
"224008","285-BY","2018/06/29 17:19:43","新北市瑞芳區侯硐路178號","121.828836666667","25.0865583333333","6501200","瑞芳區"
"224009","273-VK","2018/06/29 17:19:37","新北市瑞芳區汽車路52號","121.845033333333","25.11071","6501200","瑞芳區"
"224005","271-BY","2018/06/29 17:19:51","新北市瑞芳區鼻頭路247號","121.912613333333","25.12389","6501200","瑞芳區"
"227003","642-TC","2018/06/29 17:19:38","新北市雙溪區上林里內平林90號","121.827578333333","25.0274716666667","6502500","雙溪區"
"227011","400-TW","2018/06/29 17:19:42","新北市雙溪區三貂里政光路3-1號","121.851305","25.0632166666667","6502500","雙溪區"
"251004","009-UM","2018/06/29 17:19:54","新北市淡水區中正東路二段88巷11號","121.459003333333","25.1509716666667","6501000","淡水區"
"251005","010-UM","2018/06/29 17:19:43","新北市淡水區鄧公路29巷2號","121.451628333333","25.169915","6501000","淡水區"
"251002","012-UM","2018/06/29 17:19:45","新北市淡水區中正路二段31號","121.419303333333","25.1817283333333","6501000","淡水區"
"251008","181-VK","2018/06/29 17:19:47","新北市淡水區大同路235號","121.465766666667","25.1421433333333","6501000","淡水區"
"251010","413-VK","2018/06/29 17:19:37","新北市淡水區中正路二段305巷44號","121.423536666667","25.1915133333333","6501000","淡水區"
"251012","441-VK","2018/06/29 17:19:47","新北市淡水區水碓街81號","121.445133333333","25.17766","6501000","淡水區"
"251007","442-VK","2018/06/29 17:19:41","新北市淡水區民生路60號","121.462106666667","25.1379066666667","6501000","淡水區"
"251006","561-UM","2018/06/29 17:19:44","新北市淡水區重建街200號","121.44117","25.1744933333333","6501000","淡水區"
"251009","575-R6","2018/06/29 17:19:35","新北市淡水區三民街19號","121.438955","25.1718383333333","6501000","淡水區"
"251011","650-BX","2018/06/29 17:19:40","新北市淡水區坪頂路131號","121.464791666667","25.1614916666667","6501000","淡水區"
"251003","673-BX","2018/06/29 17:19:54","新北市淡水區中正路二段31號","121.41957","25.1817216666667","6501000","淡水區"
"207003","291-VK","2018/06/29 17:19:56","新北市萬里區萬里里瑪鋉路280號","121.688563333333","25.181225","6502800","萬里區"
"252002","178-VK","2018/06/29 17:19:45","新北市三芝區忠孝街1-14號","121.505431666667","25.25389","6502100","三芝區"
"252001","292-VK","2018/06/29 17:19:48","新北市三芝區淡金路一段3號","121.498083333333","25.2596016666667","6502100","三芝區"
"237012","275-BY","2018/06/29 17:19:37","新北市三峽區中山路459巷137號","121.349945","24.9339","6500900","三峽區"
"242034","AAC-296","2018/06/29 17:19:51","新北市新莊區中正路457巷15號","121.442311666667","25.0333583333333","6500500","新莊區"
"242058","986-R7","2018/06/29 17:19:49","新北市新莊區新泰路357巷1弄57號","121.442535","25.039645","6500500","新莊區"
"242054","751-BX","2018/06/29 17:19:39","新北市新莊區環河路636-7號","121.436863333333","25.011205","6500500","新莊區"
"242027","705-TV","2018/06/29 17:19:44","新北市新莊區中港路281號","121.453288333333","25.0437833333333","6500500","新莊區"
"242025","613-BX","2018/06/29 17:19:52","新北市新莊區中港一街149號","121.447711666667","25.0450716666667","6500500","新莊區"
"242029","612-BX","2018/06/29 17:19:57","新北市新莊區幸福路852號","121.444068333333","25.0489383333333","6500500","新莊區"
"242041","566-BX","2018/06/29 17:19:40","新北市新莊區中正路487號","121.441098333333","25.033725","6500500","新莊區"
"242046","497-BY","2018/06/29 17:19:36","新北市新莊區中正路481號","121.441411666667","25.033805","6500500","新莊區"
"242050","441-UM","2018/06/29 17:19:39","新北市新莊區瓊林路190-2號","121.439431666667","25.02089","6500500","新莊區"
"242056","440-UM","2018/06/29 17:19:41","新北市新莊區新莊路763巷12號","121.442465","25.0321933333333","6500500","新莊區"
"242037","415-TV","2018/06/29 17:19:50","新北市新莊區新樹路223號","121.43539","25.023125","6500500","新莊區"
"242007","413-TV","2018/06/29 17:19:38","新北市新莊區中平路82巷26號","121.445975","25.0448733333333","6500500","新莊區"
"242044","400-BY","2018/06/29 17:19:39","新北市新莊區中正路685號","121.426023333333","25.0300016666667","6500500","新莊區"
"242023","362-BY","2018/06/29 17:19:54","新北市新莊區中華路一段130號","121.452608333333","25.0409766666667","6500500","新莊區"
"242060","353-BY","2018/06/29 17:19:48","新北市新莊區新泰路357巷3弄49號","121.441821666667","25.0401033333333","6500500","新莊區"
"242009","132-UY","2018/06/29 17:19:55","新北市新莊區新泰路502巷26號","121.443248333333","25.0465316666667","6500500","新莊區"
"242039","133-UY","2018/06/29 17:19:43","新北市新莊區民安路318號","121.428643333333","25.0220966666667","6500500","新莊區"
"242032","135-UY","2018/06/29 17:19:52","新北市新莊區三和路12-21號","121.442235","25.0384366666667","6500500","新莊區"
"242048","172-VK","2018/06/29 17:19:51","新北市新莊區龍安路249巷1號","121.419131666667","25.0206416666667","6500500","新莊區"
"242005","176-VK","2018/06/29 17:19:54","新北市新莊區中港一街155號","121.447546666667","25.04501","6500500","新莊區"
"242015","346-TH","2018/06/29 17:19:38","新北市新莊區公園一路99號","121.444491666667","25.03795","6500500","新莊區"
"242017","347-TH","2018/06/29 17:19:40","新北市新莊區新泰路502巷4號","121.442658333333","25.0464066666667","6500500","新莊區"
"242021","348-TH","2018/06/29 17:19:36","新北市新莊區中港路132巷24號","121.456388333333","25.0406133333333","6500500","新莊區"
"242002","349-TH","2018/06/29 17:19:40","新北市新莊區新泰路50號","121.449478333333","25.0344083333333","6500500","新莊區"
"242019","350-TH","2018/06/29 17:19:54","新北市新莊區新泰路502巷2號","121.442568333333","25.0463416666667","6500500","新莊區"
"238023","601-UM","2018/06/29 17:19:52","新北市樹林區中正路439-1號","121.415125","25.0088233333333","6500700","樹林區"
"238019","599-UM","2018/06/29 17:19:51","新北市樹林區國凱街82-2號","121.421416666667","24.979105","6500700","樹林區"
"238018","571-TV","2018/06/29 17:19:54","新北市樹林區鎮前街287號","121.418263333333","24.98501","6500700","樹林區"
"238024","5061-A6","2018/06/29 17:19:45","新北市樹林區保安街一段48巷19號","121.426313333333","24.9949366666667","6500700","樹林區"
"238022","KEA-2213","2018/06/29 17:19:49","新北市樹林區忠孝街15號","121.423468333333","24.98271","6500700","樹林區"
"238021","KEA-2539","2018/06/29 17:19:48","新北市樹林區西圳街一段155號","121.396511666667","24.9629616666667","6500700","樹林區"
"238017","283-BY","2018/06/29 17:19:35","新北市樹林區保安街二段179-1號","121.415245","25.0030383333333","6500700","樹林區"
"238014","282-BY","2018/06/29 17:19:44","新北市樹林區長壽街70巷35弄8號","121.421385","24.9951333333333","6500700","樹林區"
"238020","268-VK","2018/06/29 17:19:54","新北市樹林區千歲街186號","121.429353333333","25.0013266666667","6500700","樹林區"
"238026","172-UY","2018/06/29 17:19:51","新北市樹林區味王街46巷36號","121.402368333333","24.973655","6500700","樹林區"
"238016","169-UY","2018/06/29 17:19:31","新北市樹林區中山路一段354號","121.419126666667","24.9858833333333","6500700","樹林區"
"239006","891-R6","2018/06/29 17:19:37","新北市鶯歌區德昌街7-1號","121.33367","24.960375","6500800","鶯歌區"
"239008","527-UM","2018/06/29 17:19:34","新北市鶯歌區西湖街曾厝巷19號","121.339505","24.9611533333333","6500800","鶯歌區"
"239005","526-UM","2018/06/29 17:19:55","新北市鶯歌區福德二街16號","121.329788333333","24.9673416666667","6500800","鶯歌區"
"239001","417-VK","2018/06/29 17:19:51","新北市鶯歌區尖山路246號","121.342518333333","24.946405","6500800","鶯歌區"
"239003","360-BY","2018/06/29 17:19:36","新北市鶯歌區德昌二街59號","121.333376666667","24.95839","6500800","鶯歌區"
"239002","359-BY","2018/06/29 17:19:49","新北市鶯歌區國慶街82號","121.350178333333","24.954575","6500800","鶯歌區"
"239004","193-VK","2018/06/29 17:19:51","新北市鶯歌區文化路226巷7弄2號","121.35209","24.9487016666667","6500800","鶯歌區"
"221008","489-VK","2018/06/29 17:19:43","新北市汐止區康寧街901號","121.65147","25.075045","6501100","汐止區"
"242013","280-VK","2018/06/29 17:19:42","新北市新莊區新泰路500號","121.442501666667","25.0460483333333","6500500","新莊區"
"235061","KEA-2875","2018/06/29 17:14:19","新北市中和區員山路36巷16-2號","121.485253333333","24.9916716666667","6500300","中和區"
