"lineid","car","time","location","longitude","latitude","cityid","cityname"
"234026","9371-KE","2018/06/29 17:39:46","新北市永和區中正路736號","121.515238333333","25.0101633333333","6500400","永和區"
"249005","172-UM","2018/06/29 17:39:54","新北市八里區荖阡坑路34-1號","121.402773333333","25.1297583333333","6502300","八里區"
"249001","173-UM","2018/06/29 17:39:53","新北市八里區龍米路二段189號","121.433875","25.1582866666667","6502300","八里區"
"249004","303-UY","2018/06/29 17:39:35","新北市八里區賢二街41號","121.41897","25.15776","6502300","八里區"
"249002","305-UY","2018/06/29 17:39:45","新北市八里區龍形二街17號","121.450673333333","25.13153","6502300","八里區"
"249003","593-UM","2018/06/29 17:39:46","新北市八里區中山路二段227號","121.403438333333","25.1493","6502300","八里區"
"232011","375-UM","2018/06/29 17:39:44","新北市坪林區北宜路八段157號","121.707341666667","24.9345433333333","6502000","坪林區"
"244007","080-UY","2018/06/29 17:39:38","新北市林口區文化一路二段305號","121.38583","25.0859216666667","6501700","林口區"
"244019","403-UM","2018/06/29 17:39:48","新北市林口區文化一路一段83巷14弄92號","121.372796666667","25.0716216666667","6501700","林口區"
"244013","742-UY","2018/06/29 17:39:37","新北市林口區文化一路二段200號","121.383006666667","25.0808033333333","6501700","林口區"
"244009","410-SL","2018/06/29 17:39:39","新北市林口區民享路160號","121.381988333333","25.083135","6501700","林口區"
"244023","483-VK","2018/06/29 17:39:38","新北市林口區興林路152巷15號","121.387726666667","25.071535","6501700","林口區"
"244017","485-VK","2018/06/29 17:39:45","新北市林口區忠孝路407號","121.370398333333","25.07059","6501700","林口區"
"244011","701-TV","2018/06/29 17:39:48","新北市林口區佳林路211號","121.384225","25.0770866666667","6501700","林口區"
"244025","837-TS","2018/06/29 17:39:43","新北市林口區文化三路一段394巷10號","121.36632","25.0727483333333","6501700","林口區"
"244021","838-TS","2018/06/29 17:39:42","新北市林口區仁愛路一段223號","121.39781","25.0750533333333","6501700","林口區"
"231046","188-VK","2018/06/29 17:39:53","新北市新店區直潭路92號","121.530901666667","24.937565","6500600","新店區"
"241024","065-VK","2018/06/29 17:39:51","新北市三重區大勇街20號","121.482781666667","25.0714883333333","6500200","三重區"
"241005","262-UM","2018/06/29 17:39:44","新北市三重區碧華街43號","121.484478333333","25.0813416666667","6500200","三重區"
"241016","266-UM","2018/06/29 17:39:42","新北市三重區正義北路15號","121.49772","25.06294","6500200","三重區"
"241007","398-BY","2018/06/29 17:39:47","新北市三重區車路頭街135-1號","121.484235","25.0759833333333","6500200","三重區"
"241014","543-UM","2018/06/29 17:39:48","新北市三重區河邊北街72-6號","121.504413333333","25.0684316666667","6500200","三重區"
"241023","545-UM","2018/06/29 17:39:48","新北市三重區中華路95號","121.483546666667","25.0630416666667","6500200","三重區"
"241012","941-UM","2018/06/29 17:39:52","新北市三重區龍門路300號","121.502551666667","25.0744316666667","6500200","三重區"
"241033","AAC-255","2018/06/29 17:39:44","新北市三重區光復路一段51號","121.47217","25.048865","6500200","三重區"
"235062","800-TS","2018/06/29 17:21:28","新北市中和區員山路36巷16-3號","121.484653333333","24.99158","6500300","中和區"
"247024","893-R6","2018/06/29 17:39:44","新北市蘆洲區長樂路125-1號","121.462116666667","25.08807","6501400","蘆洲區"
"247014","546-UM","2018/06/29 17:39:41","新北市蘆洲區中正路30巷3號","121.471361666667","25.0824","6501400","蘆洲區"
"247022","500-BY","2018/06/29 17:39:57","新北市蘆洲區三民路277號","121.467925","25.0897033333333","6501400","蘆洲區"
"247010","341-TH","2018/06/29 17:39:35","新北市蘆洲區中山一路124號","121.476643333333","25.0816616666667","6501400","蘆洲區"
"247012","339-TH","2018/06/29 17:39:40","新北市蘆洲區民權路3巷14弄3號","121.475631666667","25.085535","6501400","蘆洲區"
"247004","337-TH","2018/06/29 17:39:40","新北市蘆洲區中原路10號","121.461268333333","25.0836716666667","6501400","蘆洲區"
"247006","336-TH","2018/06/29 17:39:55","新北市蘆洲區長安街36-2號","121.463598333333","25.0793433333333","6501400","蘆洲區"
"247018","057-VK","2018/06/29 17:39:19","新北市蘆洲區三民路98巷21號","121.47289","25.0874783333333","6501400","蘆洲區"
"247008","056-VK","2018/06/29 17:39:56","新北市蘆洲區民生街139號","121.472348333333","25.0791933333333","6501400","蘆洲區"
"247016","007-UY","2018/06/29 17:39:56","新北市蘆洲區光華路110巷12號","121.467003333333","25.0831733333333","6501400","蘆洲區"
"247002","002-UY","2018/06/29 17:39:54","新北市蘆洲區永平街52號","121.457873333333","25.091425","6501400","蘆洲區"
"247020","001-UY","2018/06/29 17:39:57","新北市蘆洲區民族路355號","121.471858333333","25.0916783333333","6501400","蘆洲區"
"228002","663-BX","2018/06/29 17:39:46","新北市貢寮區福隆里外隆林街14-1號","121.959155","25.0036516666667","6502600","貢寮區"
"228001","670-TC","2018/06/29 17:39:44","新北市貢寮區仁理村仁愛路95-1號","121.927681666667","25.0554216666667","6502600","貢寮區"
"228003","828-UM","2018/06/29 17:39:44","新北市貢寮區仁理村仁和路260號","121.924113333333","25.0542266666667","6502600","貢寮區"
"224010","AGQ-8101","2018/06/29 17:38:16","新北市瑞芳區岳王路156-1號","121.808508333333","25.1113483333333","6501200","瑞芳區"
"224006","676-BX","2018/06/29 17:39:44","新北市瑞芳區中山路320號","121.796706666667","25.1100883333333","6501200","瑞芳區"
"224008","285-BY","2018/06/29 17:39:53","新北市瑞芳區瑞柑新村3號","121.829066666667","25.1062866666667","6501200","瑞芳區"
"224009","273-VK","2018/06/29 17:39:37","新北市瑞芳區山尖路209號","121.849646666667","25.1114933333333","6501200","瑞芳區"
"224005","271-BY","2018/06/29 17:39:51","新北市瑞芳區海濱路8-6號","121.831658333333","25.1261616666667","6501200","瑞芳區"
"227003","642-TC","2018/06/29 17:39:38","新北市雙溪區共和里東榮街52號","121.86633","25.0336983333333","6502500","雙溪區"
"208003","665-BX","2018/06/29 17:39:39","新北市金山區磺清路135號","121.63943","25.2276333333333","6502700","金山區"
"251004","009-UM","2018/06/29 17:39:42","新北市淡水區中正東路二段88巷37號","121.459283333333","25.1467516666667","6501000","淡水區"
"251005","010-UM","2018/06/29 17:39:43","新北市淡水區鄧公路32巷1號","121.451476666667","25.1713","6501000","淡水區"
"251002","012-UM","2018/06/29 17:39:45","新北市淡水區文化路15號","121.43948","25.1725766666667","6501000","淡水區"
"251008","181-VK","2018/06/29 17:39:47","新北市淡水區八勢路一段123巷10號","121.466551666667","25.1571033333333","6501000","淡水區"
"251010","413-VK","2018/06/29 17:39:48","新北市淡水區淡海路292號","121.41906","25.1888666666667","6501000","淡水區"
"251012","441-VK","2018/06/29 17:39:47","新北市淡水區北新路200巷8號","121.451753333333","25.179665","6501000","淡水區"
"251007","442-VK","2018/06/29 17:39:41","新北市淡水區民生路52巷39號","121.463321666667","25.13781","6501000","淡水區"
"251001","559-UM","2018/06/29 17:39:52","新北市淡水區民權路92巷35-1號","121.462196666667","25.1267166666667","6501000","淡水區"
"251006","561-UM","2018/06/29 17:39:44","新北市淡水區大信街24巷2號","121.441928333333","25.176765","6501000","淡水區"
"251009","575-R6","2018/06/29 17:39:56","新北市淡水區中正路28號","121.444246666667","25.1690866666667","6501000","淡水區"
"251011","650-BX","2018/06/29 17:39:40","新北市淡水區小坪頂23-6號","121.48513","25.1557666666667","6501000","淡水區"
"251003","673-BX","2018/06/29 17:39:54","新北市淡水區中山北路一段50號","121.44187","25.1756016666667","6501000","淡水區"
"207003","291-VK","2018/06/29 17:39:56","新北市萬里區野柳里東澳路64-1號","121.692026666667","25.2000816666667","6502800","萬里區"
"207004","225-TW","2018/06/29 17:39:43","新北市萬里區中幅里中福路8-1號","121.685928333333","25.1648666666667","6502800","萬里區"
"252002","178-VK","2018/06/29 17:39:45","新北市三芝區智成街83號","121.505031666667","25.25569","6502100","三芝區"
"252001","292-VK","2018/06/29 17:39:48","新北市三芝區淡金路一段83號","121.502088333333","25.2588866666667","6502100","三芝區"
"237012","275-BY","2018/06/29 17:39:57","新北市三峽區中山路459巷163-3號","121.348996666667","24.9332283333333","6500900","三峽區"
"237014","433-BY","2018/06/29 17:39:48","新北市三峽區中山路459巷163-3號","121.349238333333","24.93304","6500900","三峽區"
"237011","KEA-2596","2018/06/29 17:39:57","新北市三峽區中山路459巷163-3號","121.348846666667","24.9330216666667","6500900","三峽區"
"237016","649-BX","2018/06/29 17:39:44","新北市三峽區正義街140-1號","121.368368333333","24.9162716666667","6500900","三峽區"
"237010","706-TV","2018/06/29 17:39:54","新北市三峽區中山路119號","121.36551","24.9358583333333","6500900","三峽區"
"236079","166-UM","2018/06/29 17:39:55","新北市土城區城林路6巷80號","121.438558333333","24.97963","6501300","土城區"
"236030","253-BX","2018/06/29 17:39:48","新北市土城區城林路6巷80號","121.438688333333","24.9796266666667","6501300","土城區"
"236014","270-VK","2018/06/29 17:39:56","新北市土城區城林路6巷80號","121.438601666667","24.97963","6501300","土城區"
"236020","401-BY","2018/06/29 17:39:40","新北市土城區城林路6巷80號","121.438845","24.979605","6501300","土城區"
"236059","912-UM","2018/06/29 17:39:54","新北市土城區城林路6巷80號","121.438443333333","24.9796666666667","6501300","土城區"
"236048","913-UM","2018/06/29 17:39:39","新北市土城區城林路6巷80號","121.438751666667","24.9796916666667","6501300","土城區"
"242034","AAC-296","2018/06/29 17:39:51","新北市新莊區新莊路528號","121.445746666667","25.0330233333333","6500500","新莊區"
"242058","986-R7","2018/06/29 17:39:49","新北市新莊區中正路582號","121.427325","25.0304516666667","6500500","新莊區"
"242054","751-BX","2018/06/29 17:39:39","新北市新莊區新樹路697號","121.432333333333","25.0022433333333","6500500","新莊區"
"242027","705-TV","2018/06/29 17:39:55","新北市新莊區福壽街126-5號","121.457818333333","25.0511633333333","6500500","新莊區"
"242025","613-BX","2018/06/29 17:39:52","新北市新莊區思源路114號","121.460081666667","25.0466583333333","6500500","新莊區"
"242029","612-BX","2018/06/29 17:39:37","新北市新莊區復興路一段163號","121.450953333333","25.0433466666667","6500500","新莊區"
"242041","566-BX","2018/06/29 17:39:39","新北市新莊區中正路514巷51號","121.432226666667","25.0336366666667","6500500","新莊區"
"242046","497-BY","2018/06/29 17:39:56","新北市新莊區建國一路19號","121.433891666667","25.0316016666667","6500500","新莊區"
"242050","441-UM","2018/06/29 17:39:39","新北市新莊區西盛街216號","121.427953333333","25.01706","6500500","新莊區"
"242056","440-UM","2018/06/29 17:39:44","新北市新莊區泰豐街30巷12號","121.448788333333","25.0319766666667","6500500","新莊區"
"242037","415-TV","2018/06/29 17:39:51","新北市新莊區後港一路161號","121.431938333333","25.028095","6500500","新莊區"
"242007","413-TV","2018/06/29 17:39:39","新北市新莊區福樂街118巷17號","121.457493333333","25.0483883333333","6500500","新莊區"
"242044","400-BY","2018/06/29 17:39:47","新北市新莊區富國路65巷5號","121.419793333333","25.026415","6500500","新莊區"
"242023","362-BY","2018/06/29 17:39:35","新北市新莊區公園路238號","121.457478333333","25.0407933333333","6500500","新莊區"
"242060","353-BY","2018/06/29 17:39:48","新北市新莊區瓊林南路90號","121.434188333333","25.012235","6500500","新莊區"
"242009","132-UY","2018/06/29 17:39:35","新北市新莊區昌明街14巷12號","121.457478333333","25.05333","6500500","新莊區"
"242039","133-UY","2018/06/29 17:39:43","新北市新莊區民安東路2號","121.427815","25.020905","6500500","新莊區"
"242032","135-UY","2018/06/29 17:39:51","新北市新莊區新泰路374號","121.444155","25.0431833333333","6500500","新莊區"
"242048","172-VK","2018/06/29 17:39:51","新北市新莊區萬安街139號","121.420543333333","25.021925","6500500","新莊區"
"242011","173-VK","2018/06/29 17:39:55","新北市新莊區中港路618-5號","121.451201666667","25.0546266666667","6500500","新莊區"
"242005","176-VK","2018/06/29 17:39:54","新北市新莊區自立街214巷7號","121.457261666667","25.04502","6500500","新莊區"
"242015","346-TH","2018/06/29 17:39:38","新北市新莊區新泰路349號","121.444625","25.0421283333333","6500500","新莊區"
"242017","347-TH","2018/06/29 17:39:40","新北市新莊區復興路一段149巷22弄2號","121.450361666667","25.04409","6500500","新莊區"
"242021","348-TH","2018/06/29 17:39:36","新北市新莊區中華路一段118號","121.452498333333","25.0404966666667","6500500","新莊區"
"242002","349-TH","2018/06/29 17:39:53","新北市新莊區新莊路381號","121.451441666667","25.03375","6500500","新莊區"
"242019","350-TH","2018/06/29 17:39:54","新北市新莊區中港路203號","121.454861666667","25.0419133333333","6500500","新莊區"
"238015","755-BX","2018/06/29 17:39:41","新北市樹林區啟智街36號","121.42069","24.9932116666667","6500700","樹林區"
"238023","601-UM","2018/06/29 17:39:52","新北市樹林區三福街60號","121.40527","25.0162033333333","6500700","樹林區"
"238019","599-UM","2018/06/29 17:39:51","新北市樹林區太順街34號","121.41912","24.980105","6500700","樹林區"
"238018","571-TV","2018/06/29 17:39:43","新北市樹林區鎮前街10號","121.426216666667","24.993245","6500700","樹林區"
"238024","5061-A6","2018/06/29 17:39:56","新北市樹林區八德街395號","121.41526","24.9713166666667","6500700","樹林區"
"238022","KEA-2213","2018/06/29 17:39:48","新北市樹林區中華路68號","121.420163333333","24.9817633333333","6500700","樹林區"
"238021","KEA-2539","2018/06/29 17:39:48","新北市樹林區柑園街一段289號","121.393321666667","24.95629","6500700","樹林區"
"238025","303-VK","2018/06/29 17:39:49","新北市樹林區保安街二段154號","121.413271666667","25.0044416666667","6500700","樹林區"
"238017","283-BY","2018/06/29 17:39:55","新北市樹林區三德街10巷14號","121.413355","25.01225","6500700","樹林區"
"238014","282-BY","2018/06/29 17:39:44","新北市樹林區保安街一段313巷28號","121.416998333333","24.9973866666667","6500700","樹林區"
"238020","268-VK","2018/06/29 17:39:54","新北市樹林區俊英街200號","121.425558333333","25.008735","6500700","樹林區"
"238026","172-UY","2018/06/29 17:39:51","新北市樹林區新興街19巷2弄21號","121.401506666667","24.972885","6500700","樹林區"
"238016","169-UY","2018/06/29 17:39:51","新北市樹林區復興路236號","121.418651666667","24.9894116666667","6500700","樹林區"
"239006","891-R6","2018/06/29 17:39:38","新北市鶯歌區鶯桃路436巷61弄18號","121.33341","24.96715","6500800","鶯歌區"
"239008","527-UM","2018/06/29 17:39:54","新北市鶯歌區大湖路732巷45號","121.33341","24.9781516666667","6500800","鶯歌區"
"239005","526-UM","2018/06/29 17:39:55","新北市鶯歌區鳳吉四街9號","121.326356666667","24.9725316666667","6500800","鶯歌區"
"239001","417-VK","2018/06/29 17:39:51","新北市鶯歌區中正三路236-8號","121.330418333333","24.9369016666667","6500800","鶯歌區"
"239003","360-BY","2018/06/29 17:39:56","新北市鶯歌區鶯桃路206巷12號","121.337548333333","24.9594133333333","6500800","鶯歌區"
"239002","359-BY","2018/06/29 17:39:49","新北市鶯歌區育智路84-1號","121.345058333333","24.95476","6500800","鶯歌區"
"239004","193-VK","2018/06/29 17:39:51","新北市鶯歌區三鶯路9號","121.356215","24.9410516666667","6500800","鶯歌區"
"221008","489-VK","2018/06/29 17:39:43","新北市汐止區康寧街901號","121.651448333333","25.0750266666667","6501100","汐止區"
"221010","269-BY","2018/06/29 17:39:56","新北市汐止區汐萬路一段418巷46號","121.651125","25.079145","6501100","汐止區"
"221023","279-VK","2018/06/29 17:39:46","新北市汐止區康寧街901號","121.65164","25.07486","6501100","汐止區"
"221032","280-BY","2018/06/29 17:39:38","新北市汐止區汐萬路一段312號","121.650501666667","25.075415","6501100","汐止區"
"221021","299-VK","2018/06/29 17:39:50","新北市汐止區康寧街901號","121.65092","25.075215","6501100","汐止區"
"221031","353-TW","2018/06/29 17:39:42","新北市汐止區汐萬路一段256巷1號","121.651808333333","25.0748716666667","6501100","汐止區"
"221033","647-BX","2018/06/29 17:39:50","新北市汐止區光復街7巷9號","121.639791666667","25.0586616666667","6501100","汐止區"
"242013","280-VK","2018/06/29 17:39:42","新北市新莊區中誠街125號","121.449275","25.0475416666667","6500500","新莊區"
"235061","KEA-2875","2018/06/29 17:14:19","新北市中和區員山路36巷16-2號","121.485253333333","24.9916716666667","6500300","中和區"
