"lineid","car","time","location","longitude","latitude","cityid","cityname"
"234046","148-BY","2018/06/29 19:09:22","新北市永和區永元路18巷31號","121.523731666667","25.0002433333333","6500400","永和區"
"234007","207-UY","2018/06/29 19:09:16","新北市永和區中山路一段211-1號","121.508701666667","25.008315","6500400","永和區"
"234081","298-R6","2018/06/29 19:09:13","新北市永和區福和路57巷14弄1號","121.522746666667","25.0068483333333","6500400","永和區"
"234038","336-UY","2018/06/29 19:09:16","新北市永和區民樂街71巷1號","121.527421666667","24.9975066666667","6500400","永和區"
"234064","337-UY","2018/06/29 19:09:08","新北市永和區秀朗路二段31號","121.521265","25.0025483333333","6500400","永和區"
"234086","338-UY","2018/06/29 19:09:11","新北市永和區中正路500號","121.517456666667","25.00426","6500400","永和區"
"234070","552-UM","2018/06/29 19:09:11","新北市永和區豫溪街95巷10弄1號","121.518006666667","25.01082","6500400","永和區"
"234017","745-BX","2018/06/29 19:09:24","新北市永和區文化路90巷15號","121.51377","25.016155","6500400","永和區"
"234030","746-BX","2018/06/29 19:09:13","新北市永和區四維街64號","121.524291666667","24.99832","6500400","永和區"
"234054","KEA-2590","2018/06/29 19:09:20","新北市永和區中興街141號","121.518936666667","25.012345","6500400","永和區"
"234013","KEA-2591","2018/06/29 19:09:24","新北市永和區保福路二段30號","121.510985","25.0116516666667","6500400","永和區"
"234061","AAD-866","2018/06/29 19:09:19","新北市永和區安樂路306-8號","121.514526666667","25.00537","6500400","永和區"
"234042","862-TW","2018/06/29 19:09:11","新北市永和區永貞路305號","121.510583333333","25.0058616666667","6500400","永和區"
"234050","863-TW","2018/06/29 19:09:23","新北市永和區文化路135巷20弄2號","121.510541666667","25.0151383333333","6500400","永和區"
"234026","9371-KE","2018/06/29 19:09:26","新北市永和區安樂路268號","121.51455","25.0039783333333","6500400","永和區"
"234011","9373-KE","2018/06/29 19:09:26","新北市永和區仁愛路141巷30弄5號","121.511945","25.0115083333333","6500400","永和區"
"249005","172-UM","2018/06/29 19:09:14","新北市八里區中華路三段99巷1號","121.3938","25.13849","6502300","八里區"
"249001","173-UM","2018/06/29 19:09:11","新北市八里區龍米路二段228-2號","121.432578333333","25.1584033333333","6502300","八里區"
"248016","026-BX","2018/06/29 19:09:23","新北市五股區成泰路三段543巷30號","121.450638333333","25.102495","6501500","五股區"
"248008","095-VK","2018/06/29 19:09:28","新北市五股區中興路二段37巷28號","121.460235","25.0750366666667","6501500","五股區"
"248018","225-UY","2018/06/29 19:09:10","新北市五股區民義路一段255-5號","121.426303333333","25.0916883333333","6501500","五股區"
"248012","247-BX","2018/06/29 19:09:17","新北市五股區中興路四段48巷16號","121.438671666667","25.0834633333333","6501500","五股區"
"248004","677-BX","2018/06/29 19:09:17","新北市五股區工商路148號","121.433761666667","25.0870866666667","6501500","五股區"
"248002","678-BX","2018/06/29 19:09:22","新北市五股區凌雲路一段158巷11號","121.447751666667","25.10344","6501500","五股區"
"248010","682-TV","2018/06/29 19:09:23","新北市五股區水碓二路1號","121.43059","25.0712733333333","6501500","五股區"
"234023","9380-KE","2018/06/29 19:09:14","新北市永和區中興街64號","121.517303333333","25.0117183333333","6500400","永和區"
"234077","969-R7","2018/06/29 19:09:22","新北市永和區民權路34號","121.52023","24.9988533333333","6500400","永和區"
"234074","AAC-211","2018/06/29 19:09:24","新北市永和區福和路160號","121.52143","25.007865","6500400","永和區"
"234067","AAC-212","2018/06/29 19:09:10","新北市永和區保平路23號","121.51261","25.00741","6500400","永和區"
"234003","AAC-295","2018/06/29 19:09:13","新北市永和區保福路一段43號","121.512596666667","25.0092466666667","6500400","永和區"
"244019","403-UM","2018/06/29 19:09:28","新北市林口區麗園一街35號","121.37761","25.0687883333333","6501700","林口區"
"244013","742-UY","2018/06/29 19:09:18","新北市林口區麗園一街9巷1號","121.376578333333","25.0712116666667","6501700","林口區"
"244023","483-VK","2018/06/29 19:09:18","新北市林口區文林六街27巷23號","121.3702","25.0813533333333","6501700","林口區"
"244017","485-VK","2018/06/29 19:09:25","新北市林口區文化二路一段68巷24-3號","121.367175","25.0687783333333","6501700","林口區"
"244011","701-TV","2018/06/29 19:09:08","新北市林口區中正路315號","121.388773333333","25.0777133333333","6501700","林口區"
"244025","837-TS","2018/06/29 19:09:23","新北市林口區民族路86-99號","121.366036666667","25.0755","6501700","林口區"
"243013","AAD-798","2018/06/29 19:09:25","新北市泰山區明志路三段277號","121.423113333333","25.0367833333333","6501600","泰山區"
"243009","297-R6","2018/06/29 19:09:28","新北市泰山區楓江路25巷9號","121.434353333333","25.063565","6501600","泰山區"
"243016","380-SR","2018/06/29 19:09:23","新北市泰山區明志路二段338號","121.426075","25.0455283333333","6501600","泰山區"
"243015","421-VK","2018/06/29 19:09:19","新北市泰山區明志路一段505號","121.430676666667","25.0546016666667","6501600","泰山區"
"243011","KEA-2215","2018/06/29 19:09:14","新北市泰山區明志路二段318號","121.42619","25.0460883333333","6501600","泰山區"
"243010","KEA-2216","2018/06/29 19:09:17","新北市泰山區明志路一段485號","121.430891666667","25.0553783333333","6501600","泰山區"
"243012","646-TV","2018/06/29 19:09:22","新北市泰山區辭修路36巷8弄1號","121.427858333333","25.0585616666667","6501600","泰山區"
"243014","680-BX","2018/06/29 19:09:09","新北市泰山區泰林路二段480號","121.425115","25.064155","6501600","泰山區"
"222003","436-BY","2018/06/29 19:09:16","新北市深坑區深南路156號","121.624756666667","25.0146083333333","6501800","深坑區"
"222002","659-BX","2018/06/29 19:09:11","新北市深坑區北深路一段199號","121.630778333333","25.0093416666667","6501800","深坑區"
"231041","002-UM","2018/06/29 19:09:08","新北市新店區溪園路405號","121.52403","24.978245","6500600","新店區"
"231059","046-UY","2018/06/29 19:09:18","新北市新店區安康路一段351-1號","121.51942","24.964085","6500600","新店區"
"231040","047-UY","2018/06/29 19:09:24","新北市新店區三民路98-3號","121.533911666667","24.9733983333333","6500600","新店區"
"231044","106-UY","2018/06/29 19:09:25","新北市新店區中興路三段182號","121.544068333333","24.981285","6500600","新店區"
"231053","108-UY","2018/06/29 19:09:21","新北市新店區自強路94號","121.546411666667","24.92396","6500600","新店區"
"231048","187-VK","2018/06/29 19:09:13","新北市新店區德正街27巷29弄143號","121.545645","24.9734016666667","6500600","新店區"
"231046","188-VK","2018/06/29 19:09:13","新北市新店區永業路113號","121.528553333333","24.94817","6500600","新店區"
"231054","KEA-2219","2018/06/29 19:09:14","新北市新店區新店路157號","121.53709","24.9550916666667","6500600","新店區"
"231042","268-BY","2018/06/29 19:09:16","新北市新店區中興路一段166號","121.542721666667","24.9642983333333","6500600","新店區"
"231051","278-BY","2018/06/29 19:09:23","新北市新店區中正路382巷30號","121.53568","24.97791","6500600","新店區"
"231050","AAD-862","2018/06/29 19:09:26","新北市新店區竹林路2巷5號","121.550625","24.9517933333333","6500600","新店區"
"231058","3713-VJ","2018/06/29 19:09:12","新北市新店區光明街138巷13弄3號","121.540171666667","24.961355","6500600","新店區"
"231066","4716-K9","2018/06/29 19:09:27","新北市新店區安康路二段400號","121.497688333333","24.955645","6500600","新店區"
"231056","4715-K9","2018/06/29 19:09:21","新北市新店區民權路105號","121.536445","24.982615","6500600","新店區"
"231067","4772-VM","2018/06/29 19:09:17","新北市新店區安康路一段76號","121.528255","24.961855","6500600","新店區"
"231065","512-UM","2018/06/29 19:09:14","新北市新店區安祥路145巷29號","121.475425","24.9566033333333","6500600","新店區"
"231049","513-UM","2018/06/29 19:09:08","新北市新店區二十張路25巷12號","121.53901","24.98203","6500600","新店區"
"231045","617-UM","2018/06/29 19:09:19","新北市新店區北宜路一段146號","121.540203333333","24.9539783333333","6500600","新店區"
"231061","619-UM","2018/06/29 19:09:24","新北市新店區安康路一段355-10號","121.520398333333","24.9638433333333","6500600","新店區"
"231063","641-BX","2018/06/29 19:09:16","新北市新店區車子路134號","121.505135","24.9485583333333","6500600","新店區"
"231064","719-UM","2018/06/29 19:09:09","新北市新店區安忠路56巷6號","121.512931666667","24.9594333333333","6500600","新店區"
"231062","720-UM","2018/06/29 19:09:10","新北市新店區安平路53號","121.519763333333","24.9684033333333","6500600","新店區"
"231060","897-TW","2018/06/29 19:09:11","新北市新店區安康路二段269號","121.504426666667","24.9578633333333","6500600","新店區"
"231043","899-TW","2018/06/29 19:09:11","新北市新店區中興路三段1-20號","121.546676666667","24.9760533333333","6500600","新店區"
"241026","066-VK","2018/06/29 19:09:07","新北市三重區泉州街70巷1弄9號","121.495103333333","25.0547583333333","6500200","三重區"
"241035","KEA-2210","2018/06/29 19:09:22","新北市三重區重新路三段115巷12號","121.490158333333","25.0602466666667","6500200","三重區"
"241029","942-UM","2018/06/29 19:09:16","新北市三重區集美街235號","121.49224","25.0553333333333","6500200","三重區"
"235066","003-UY","2018/06/29 19:09:12","新北市中和區廣福路22號","121.504978333333","25.0025933333333","6500300","中和區"
"235064","005-UY","2018/06/29 19:09:20","新北市中和區泰和街30巷15號","121.499073333333","25.0008733333333","6500300","中和區"
"235063","006-UY","2018/06/29 19:09:16","新北市中和區連城路184號","121.492843333333","24.99681","6500300","中和區"
"235056","096-UM","2018/06/29 19:09:20","新北市中和區員山路570號","121.478866666667","25.011405","6500300","中和區"
"235003","097-UM","2018/06/29 19:09:24","新北市中和區自立路60號","121.523675","24.9915466666667","6500300","中和區"
"235065","098-UM","2018/06/29 19:09:15","新北市中和區中山路二段136巷4號","121.501933333333","25.003715","6500300","中和區"
"235040","150-BY","2018/06/29 19:09:22","新北市中和區保健路48巷24號","121.509616666667","24.99647","6500300","中和區"
"235058","151-BY","2018/06/29 19:09:17","新北市中和區員山路128-1號","121.481113333333","24.996165","6500300","中和區"
"235055","183-VK","2018/06/29 19:09:27","新北市中和區德光路43號","121.47031","25.0041683333333","6500300","中和區"
"235038","185-VK","2018/06/29 19:09:20","新北市中和區大仁街10巷27弄3號","121.519165","24.9926983333333","6500300","中和區"
"235049","186-VK","2018/06/29 19:09:30","新北市中和區明禮街20號","121.504758333333","24.9960183333333","6500300","中和區"
"235067","255-BX","2018/06/29 19:09:27","新北市中和區新生街176巷1號","121.483551666667","24.999885","6500300","中和區"
"235044","293-VK","2018/06/29 19:09:19","新北市中和區中興街222-5號","121.500575","24.9896316666667","6500300","中和區"
"235072","301-VK","2018/06/29 19:09:16","新北市中和區福美路269號","121.49814","25.004975","6500300","中和區"
"235043","352-BY","2018/06/29 19:09:17","新北市中和區景平路73-2號","121.518676666667","24.9917333333333","6500300","中和區"
"235042","KEA-2878","2018/06/29 19:09:13","新北市中和區自立路117巷3號","121.522365","24.9945133333333","6500300","中和區"
"235050","4979-A6","2018/06/29 19:09:26","新北市中和區復興路56號","121.50394","24.9902666666667","6500300","中和區"
"235069","4980-A6","2018/06/29 19:09:08","新北市中和區中和路217巷20號","121.504771666667","25.0005683333333","6500300","中和區"
"235070","558-UM","2018/06/29 19:09:21","新北市中和區中和路20號","121.499768333333","25.0019","6500300","中和區"
"235045","565-BX","2018/06/29 19:09:23","新北市中和區景新街449號","121.513423333333","24.9886533333333","6500300","中和區"
"235054","640-BX","2018/06/29 19:09:25","新北市中和區國光街52號","121.470778333333","25.0002766666667","6500300","中和區"
"235060","647-TV","2018/06/29 19:09:21","新北市中和區中山路三段118號","121.47573","25.0060016666667","6500300","中和區"
"235046","733-UM","2018/06/29 19:09:18","新北市中和區忠孝街1巷72號","121.508238333333","24.9847533333333","6500300","中和區"
"235071","783-BX","2018/06/29 19:09:11","新北市中和區連城路469-1號","121.483555","24.9958266666667","6500300","中和區"
"235057","801-TS","2018/06/29 19:09:09","新北市中和區民利街86號","121.47803","24.9981533333333","6500300","中和區"
"235041","802-TS","2018/06/29 19:09:17","新北市中和區中和路252巷1號","121.507628333333","24.999285","6500300","中和區"
"235052","805-TS","2018/06/29 19:09:09","新北市中和區興南路二段142巷17弄33號","121.502998333333","24.9827866666667","6500300","中和區"
"235048","896-TW","2018/06/29 19:09:23","新北市中和區忠孝街2號","121.508633333333","24.9828516666667","6500300","中和區"
"235053","900-TW","2018/06/29 19:09:20","新北市中和區華福街83號","121.467575","24.9965266666667","6500300","中和區"
"235051","157-BY","2018/06/29 19:09:06","新北市中和區興南路一段81號","121.510048333333","24.9889333333333","6500300","中和區"
"235037","AAC-213","2018/06/29 19:09:20","新北市中和區秀朗路三段60巷1號","121.526115","24.99511","6500300","中和區"
"235059","AAC-215","2018/06/29 19:09:09","新北市中和區圓通路294巷17-5號","121.488616666667","24.99043","6500300","中和區"
"220065","072-UY","2018/06/29 19:09:16","新北市板橋區民族路219巷68號","121.468793333333","25.00857","6500100","板橋區"
"220106","075-UY","2018/06/29 19:09:07","新北市板橋區雙十路三段14號","121.471676666667","25.0303983333333","6500100","板橋區"
"220069","AAD-861","2018/06/29 19:09:13","新北市板橋區華興街20號","121.459225","25.0047416666667","6500100","板橋區"
"226004","205-ST","2018/06/29 19:09:13","新北市平溪區十分里十分街106號","121.776776666667","25.0428016666667","6502400","平溪區"
"235047","251-BX","2018/06/29 19:09:22","新北市中和區興南路一段88號","121.509966666667","24.9892033333333","6500300","中和區"
"228002","663-BX","2018/06/29 19:09:26","新北市貢寮區福隆里福隆街32-1號","121.945108333333","25.0173583333333","6502600","貢寮區"
"228001","670-TC","2018/06/29 19:09:24","新北市貢寮區真理里新港街10號","121.925525","25.054365","6502600","貢寮區"
"228003","828-UM","2018/06/29 19:09:16","新北市貢寮區和美里和美街40號","121.912303333333","25.089525","6502600","貢寮區"
"224010","AGQ-8101","2018/06/29 19:07:58","新北市瑞芳區烏勢巷145號","121.847521666667","25.1088733333333","6501200","瑞芳區"
"224006","676-BX","2018/06/29 19:09:23","新北市瑞芳區中山路250號","121.799875","25.1073716666667","6501200","瑞芳區"
"224008","285-BY","2018/06/29 19:09:23","新北市瑞芳區瑞芳街102-1號","121.801763333333","25.1105216666667","6501200","瑞芳區"
"224009","273-VK","2018/06/29 19:09:17","新北市瑞芳區洞頂路188號","121.861611666667","25.1196733333333","6501200","瑞芳區"
"227003","642-TC","2018/06/29 19:09:18","新北市雙溪區平林里外平林10-4號","121.859163333333","25.0380866666667","6502500","雙溪區"
"227011","400-TW","2018/06/29 19:09:22","新北市雙溪區雙溪里中正路22號","121.864861666667","25.0370683333333","6502500","雙溪區"
"253005","032-BX","2018/06/29 19:09:25","新北市石門區阿里荖42號","121.605326666667","25.28029","6502200","石門區"
"253006","295-VK","2018/06/29 19:09:21","新北市石門區崁子腳58-18號","121.531266666667","25.287335","6502200","石門區"
"222001","KEA-2212","2018/06/29 19:09:22","新北市深坑區北深路一段300號","121.624266666667","25.0058033333333","6501800","深坑區"
"208002","KEA-2872","2018/06/29 19:09:07","新北市金山區仁愛路67巷22號","121.63418","25.2208766666667","6502700","金山區"
"208003","665-BX","2018/06/29 19:09:19","新北市金山區中正路65號","121.63404","25.2218866666667","6502700","金山區"
"208001","761-BX","2018/06/29 19:09:10","新北市金山區溫泉路4號","121.639605","25.2219516666667","6502700","金山區"
"251005","010-UM","2018/06/29 19:09:23","新北市淡水區原德路11號","121.442141666667","25.1712266666667","6501000","淡水區"
"251002","012-UM","2018/06/29 19:09:24","新北市淡水區中山路87巷1號","121.442603333333","25.1704483333333","6501000","淡水區"
"251010","413-VK","2018/06/29 19:09:17","新北市淡水區中正路一段156巷3號","121.421125","25.180285","6501000","淡水區"
"251012","441-VK","2018/06/29 19:09:26","新北市淡水區下圭柔山91-3號","121.430566666667","25.210585","6501000","淡水區"
"251007","442-VK","2018/06/29 19:09:22","新北市淡水區民生路145巷35號","121.466908333333","25.138995","6501000","淡水區"
"251001","559-UM","2018/06/29 19:09:12","新北市淡水區自強路201巷43號","121.462113333333","25.1268633333333","6501000","淡水區"
"251009","575-R6","2018/06/29 19:09:15","新北市淡水區清水街204號","121.44036","25.17116","6501000","淡水區"
"251003","673-BX","2018/06/29 19:09:13","新北市淡水區中山北路一段96號","121.442445","25.1764033333333","6501000","淡水區"
"207003","291-VK","2018/06/29 19:09:16","新北市萬里區大鵬里萬里加投24-2號","121.649126666667","25.207355","6502800","萬里區"
"207004","225-TW","2018/06/29 19:09:23","新北市萬里區萬里里瑪鋉下街50號","121.691575","25.1795016666667","6502800","萬里區"
"252002","178-VK","2018/06/29 19:09:24","新北市三芝區埔坪里埔頭坑84號","121.508103333333","25.2542616666667","6502100","三芝區"
"252003","249-BX","2018/06/29 19:09:10","新北市三芝區錫板里南勢崗7號","121.479358333333","25.2617783333333","6502100","三芝區"
"252001","292-VK","2018/06/29 19:09:28","新北市三芝區長勤街45巷2號","121.500308333333","25.2550666666667","6502100","三芝區"
"237004","KEA-2597","2018/06/29 19:09:19","新北市三峽區有木206號","121.439085","24.851505","6500900","三峽區"
"237007","153-BY","2018/06/29 19:09:12","新北市三峽區中正路二段42巷12-1號","121.364276666667","24.920715","6500900","三峽區"
"237009","210-TH","2018/06/29 19:09:13","新北市三峽區文化路131號","121.369551666667","24.9360633333333","6500900","三峽區"
"237013","252-BX","2018/06/29 19:09:08","新北市三峽區光明路69巷31號","121.376843333333","24.92918","6500900","三峽區"
"237012","275-BY","2018/06/29 19:09:17","新北市三峽區三樹路222巷236弄23號","121.391406666667","24.9431066666667","6500900","三峽區"
"237008","302-VK","2018/06/29 19:09:23","新北市三峽區大同路67號","121.375323333333","24.9273533333333","6500900","三峽區"
"237014","433-BY","2018/06/29 19:09:08","新北市三峽區中山路257巷39號","121.362106666667","24.936465","6500900","三峽區"
"237006","5529-G3","2018/06/29 19:09:08","新北市三峽區介壽路一段496-1號","121.38542","24.93209","6500900","三峽區"
"237011","KEA-2596","2018/06/29 19:09:16","新北市三峽區介壽路一段283號","121.380493333333","24.93023","6500900","三峽區"
"237016","649-BX","2018/06/29 19:09:24","新北市三峽區建安83號","121.45357","24.9205866666667","6500900","三峽區"
"237010","706-TV","2018/06/29 19:09:14","新北市三峽區復興路75號","121.372706666667","24.9374383333333","6500900","三峽區"
"237005","AKY-6261","2018/06/29 19:09:24","新北市三峽區中山路459巷163-3號","121.348693333333","24.932915","6500900","三峽區"
"236069","105-UM","2018/06/29 19:09:14","新北市土城區裕生路84巷10號","121.446835","24.9856166666667","6501300","土城區"
"236042","107-UM","2018/06/29 19:09:28","新北市土城區學府路一段276號","121.450125","24.983055","6501300","土城區"
"236079","166-UM","2018/06/29 19:09:27","新北市土城區龍泉路38-2號","121.412121666667","24.9456816666667","6501300","土城區"
"236026","269-VK","2018/06/29 19:09:13","新北市土城區中正路56巷2號","121.4438","24.9753983333333","6501300","土城區"
"236014","270-VK","2018/06/29 19:09:16","新北市土城區學府路一段97號","121.456261666667","24.9879566666667","6501300","土城區"
"236020","401-BY","2018/06/29 19:09:24","新北市土城區延峰街20號","121.468818333333","24.986125","6501300","土城區"
"236059","912-UM","2018/06/29 19:09:14","新北市土城區金城路一段139號","121.445226666667","24.97412","6501300","土城區"
"236048","913-UM","2018/06/29 19:09:19","新北市土城區明德路一段365-1號","121.453623333333","24.979105","6501300","土城區"
"236055","AAC-216","2018/06/29 19:09:23","新北市土城區學府路一段211號","121.45158","24.9845066666667","6501300","土城區"
"242039","133-UY","2018/06/29 19:09:23","新北市新莊區三和路12-21號","121.442035","25.0388316666667","6500500","新莊區"
"238015","755-BX","2018/06/29 19:09:13","新北市樹林區備內街97號","121.408053333333","24.9891466666667","6500700","樹林區"
"238023","601-UM","2018/06/29 19:09:21","新北市樹林區大慶街57號","121.395996666667","25.0138333333333","6500700","樹林區"
"238019","599-UM","2018/06/29 19:09:10","新北市樹林區東榮街71號","121.417086666667","24.9830716666667","6500700","樹林區"
"238018","571-TV","2018/06/29 19:09:23","新北市樹林區大同街3號","121.418888333333","24.98275","6500700","樹林區"
"238024","5061-A6","2018/06/29 19:09:16","新北市樹林區中山路二段249巷35號","121.403595","24.9754516666667","6500700","樹林區"
"238022","KEA-2213","2018/06/29 19:09:08","新北市樹林區中山路二段151巷8弄25號","121.406183333333","24.9775983333333","6500700","樹林區"
"238021","KEA-2539","2018/06/29 19:09:21","新北市樹林區柑園街二段384巷1號","121.36798","24.9491766666667","6500700","樹林區"
"238025","303-VK","2018/06/29 19:09:09","新北市樹林區中山路二段191號","121.404503333333","24.9776266666667","6500700","樹林區"
"238017","283-BY","2018/06/29 19:09:15","新北市樹林區光興街196號","121.407915","25.0046633333333","6500700","樹林區"
"238014","282-BY","2018/06/29 19:09:24","新北市樹林區中正路22-1號","121.42779","24.9994366666667","6500700","樹林區"
"238020","268-VK","2018/06/29 19:09:14","新北市樹林區俊英街155巷7號","121.423928333333","25.0121866666667","6500700","樹林區"
"238026","172-UY","2018/06/29 19:09:11","新北市樹林區佳園路二段86巷82號","121.390398333333","24.958845","6500700","樹林區"
"238016","169-UY","2018/06/29 19:07:11","新北市樹林區復興路373巷7弄3號","121.417411666667","24.9867633333333","6500700","樹林區"
"239006","891-R6","2018/06/29 19:09:17","新北市鶯歌區鶯桃路184號","121.33666","24.95597","6500800","鶯歌區"
"239008","527-UM","2018/06/29 19:09:14","新北市鶯歌區大湖路560號","121.336956666667","24.9733116666667","6500800","鶯歌區"
"239005","526-UM","2018/06/29 19:09:15","新北市鶯歌區東湖路13-1號","121.35356","24.972105","6500800","鶯歌區"
"239001","417-VK","2018/06/29 19:09:11","新北市鶯歌區永智街100號","121.336945","24.9534266666667","6500800","鶯歌區"
"239003","360-BY","2018/06/29 19:09:16","新北市鶯歌區八德路37號","121.334766666667","24.9528016666667","6500800","鶯歌區"
"239002","359-BY","2018/06/29 19:09:29","新北市鶯歌區湖山路64巷2號","121.339686666667","24.9766866666667","6500800","鶯歌區"
"239004","193-VK","2018/06/29 19:09:17","新北市鶯歌區鶯華新村2號","121.3299","24.93496","6500800","鶯歌區"
"221008","489-VK","2018/06/29 19:09:23","新北市汐止區康寧街418-1號","121.63054","25.06806","6501100","汐止區"
"221036","130-UY","2018/06/29 19:09:22","新北市汐止區汐萬路一段256巷3號","121.652491666667","25.0746033333333","6501100","汐止區"
"221015","131-UY","2018/06/29 19:09:13","新北市汐止區汐萬路一段282號","121.650858333333","25.0742116666667","6501100","汐止區"
"221012","278-VK","2018/06/29 19:09:25","新北市汐止區汐萬路一段256巷3號","121.652448333333","25.0746816666667","6501100","汐止區"
"221023","279-VK","2018/06/29 19:09:24","新北市汐止區康寧街901號","121.650995","25.075215","6501100","汐止區"
"221027","281-BY","2018/06/29 19:09:24","新北市汐止區康寧街901號","121.651463333333","25.07505","6501100","汐止區"
"221029","298-VK","2018/06/29 19:09:12","新北市汐止區汐萬路一段256巷3號","121.653075","25.0744533333333","6501100","汐止區"
"221021","299-VK","2018/06/29 19:09:30","新北市汐止區康寧街901號","121.651393333333","25.07508","6501100","汐止區"
"221031","353-TW","2018/06/29 19:09:22","新北市汐止區連峰街1巷1號","121.646855","25.076095","6501100","汐止區"
"221035","622-UM","2018/06/29 19:09:10","新北市汐止區康寧街901號","121.651128333333","25.0751233333333","6501100","汐止區"
"221025","623-UM","2018/06/29 19:09:22","新北市汐止區康寧街901號","121.651518333333","25.07489","6501100","汐止區"
"221038","646-BX","2018/06/29 19:09:19","新北市汐止區康寧街901號","121.650735","25.0752733333333","6501100","汐止區"
"221033","647-BX","2018/06/29 19:09:10","新北市汐止區南勢街3號","121.62712","25.0374333333333","6501100","汐止區"
"221002","707-TV","2018/06/29 19:09:13","新北市汐止區大同路一段89-3號","121.624875","25.0545233333333","6501100","汐止區"
"220079","145-BY","2018/06/29 19:09:18","新北市板橋區民權路302巷12號","121.45773","25.0164266666667","6500100","板橋區"
"220080","200-UY","2018/06/29 19:09:28","新北市板橋區大觀路二段7巷27號","121.447931666667","25.0035316666667","6500100","板橋區"
"220082","610-BX","2018/06/29 19:09:17","新北市板橋區溪崑二街110號","121.426468333333","24.988605","6500100","板橋區"
"220101","245-BX","2018/06/29 19:09:20","新北市板橋區民生路二段89-6號","121.470531666667","25.0189083333333","6500100","板橋區"
"220091","267-BY","2018/06/29 19:09:21","新北市板橋區縣民大道247巷41號","121.482103333333","25.0269633333333","6500100","板橋區"
"220056","276-BY","2018/06/29 19:09:26","新北市板橋區信義路74巷1弄1號","121.45726","24.9931416666667","6500100","板橋區"
"220072","277-BY","2018/06/29 19:09:28","新北市板橋區篤行路三段玉平巷31弄3號","121.429343333333","24.9870116666667","6500100","板橋區"
"220071","283-VK","2018/06/29 19:09:23","新北市板橋區重慶路269巷17號","121.46409","24.9995533333333","6500100","板橋區"
"220094","285-UM","2018/06/29 19:09:14","新北市板橋區光武街133號","121.465711666667","25.0290833333333","6500100","板橋區"
"220053","285-VK","2018/06/29 19:09:11","新北市板橋區懷仁街35巷1號","121.476706666667","25.0196066666667","6500100","板橋區"
"220083","286-VK","2018/06/29 19:09:22","新北市板橋區大觀路二段174巷165弄18號","121.441208333333","25.003715","6500100","板橋區"
"220081","287-VK","2018/06/29 19:09:28","新北市板橋區南雅西路二段156巷4號","121.452093333333","25.0133233333333","6500100","板橋區"
"220090","288-VK","2018/06/29 19:09:10","新北市板橋區裕民街45巷3-1號","121.461545","25.0283683333333","6500100","板橋區"
"220061","293-UM","2018/06/29 19:09:20","新北市板橋區三民路二段30號","121.479218333333","25.0180766666667","6500100","板橋區"
"220062","295-UM","2018/06/29 19:09:19","新北市板橋區三民路二段居仁巷1弄22號","121.4799","25.013575","6500100","板橋區"
"220084","296-UM","2018/06/29 19:09:12","新北市板橋區溪崑二街66巷16號","121.427578333333","24.9908633333333","6500100","板橋區"
"220075","303-R5","2018/06/29 19:09:26","新北市板橋區南雅南路一段4巷19號","121.454583333333","25.0051433333333","6500100","板橋區"
"220092","307-R5","2018/06/29 19:09:14","新北市板橋區文化路二段227號","121.470876666667","25.0283733333333","6500100","板橋區"
"220098","317-R6","2018/06/29 19:09:11","新北市板橋區自由路51巷14弄7號","121.464591666667","25.0237783333333","6500100","板橋區"
"220055","461-BY","2018/06/29 19:09:24","新北市板橋區新民街7巷14號","121.463625","25.0103733333333","6500100","板橋區"
"220064","486-VK","2018/06/29 19:09:29","新北市板橋區板新路89號","121.473178333333","25.013865","6500100","板橋區"
"220088","491-VK","2018/06/29 19:09:20","新北市板橋區文化路二段182巷1弄2號","121.471023333333","25.027335","6500100","板橋區"
"220035","560-BX","2018/06/29 19:09:23","新北市板橋區中正路379巷1弄5-3號","121.453791666667","25.0213483333333","6500100","板橋區"
"220103","561-BX","2018/06/29 19:09:27","新北市板橋區介壽街84巷23號","121.469538333333","25.0181266666667","6500100","板橋區"
"220063","609-BX","2018/06/29 19:09:13","新北市中和區板南路671號","121.483763333333","25.00795","6500100","板橋區"
"220086","630-UY","2018/06/29 19:09:10","新北市板橋區國光路189-3號","121.461246666667","25.0185416666667","6500100","板橋區"
"220057","686-BX","2018/06/29 19:09:23","新北市板橋區重慶路305號","121.463811666667","24.99884","6500100","板橋區"
"220093","689-BX","2018/06/29 19:09:21","新北市板橋區民生路三段191號","121.465233333333","25.0275033333333","6500100","板橋區"
"220054","741-BX","2018/06/29 19:09:21","新北市板橋區重慶路60-1號","121.461783333333","25.0069","6500100","板橋區"
"220102","KEA-2699","2018/06/29 19:09:19","新北市板橋區田單街51號","121.482628333333","25.0279116666667","6500100","板橋區"
"220077","806-UM","2018/06/29 19:09:25","新北市板橋區大觀路一段35巷2號","121.449181666667","25.0084116666667","6500100","板橋區"
"220067","829-TW","2018/06/29 19:09:16","新北市板橋區中山路二段90巷43弄3號","121.476488333333","25.0149733333333","6500100","板橋區"
"220068","830-TW","2018/06/29 19:09:16","新北市板橋區中山路二段465巷35號","121.481185","25.0212983333333","6500100","板橋區"
"220096","831-TW","2018/06/29 19:09:14","新北市板橋區雙十路二段4-6號","121.476936666667","25.025785","6500100","板橋區"
"220089","833-TW","2018/06/29 19:09:25","新北市板橋區文化路二段389號","121.473593333333","25.0313566666667","6500100","板橋區"
"220074","895-R6","2018/06/29 19:09:21","新北市板橋區中正路自強新村5號","121.455286666667","25.01402","6500100","板橋區"
"220073","985-R7","2018/06/29 19:09:25","新北市板橋區龍泉街108巷150號","121.456591666667","25.0231466666667","6500100","板橋區"
"220097","AAC-210","2018/06/29 19:09:22","新北市板橋區幸福路60巷73號","121.45979","25.0217216666667","6500100","板橋區"
"220070","AAC-253","2018/06/29 19:09:10","新北市板橋區忠孝路105號","121.462581666667","25.0023566666667","6500100","板橋區"
"235068","KEA-2873","2018/06/29 19:09:10","新北市中和區安邦街95號","121.497265","24.9961933333333","6500300","中和區"
"235061","KEA-2875","2018/06/29 19:09:02","新北市中和區民有街73號","121.476516666667","25.00313","6500300","中和區"
