"lineid","car","time","location","longitude","latitude","cityid","cityname"
"234046","148-BY","2018/06/29 19:29:17","新北市永和區秀朗路二段114號","121.52436","25.0015866666667","6500400","永和區"
"234007","207-UY","2018/06/29 19:29:16","新北市永和區中山路一段2號","121.514361666667","25.0104683333333","6500400","永和區"
"234081","298-R6","2018/06/29 19:29:13","新北市永和區環河東路三段54號","121.526848333333","25.00622","6500400","永和區"
"234038","336-UY","2018/06/29 19:29:16","新北市永和區成功路二段65號","121.527391666667","25.0000466666667","6500400","永和區"
"234064","337-UY","2018/06/29 19:29:28","新北市永和區得和路243巷27號","121.520715","25.0012216666667","6500400","永和區"
"234086","338-UY","2018/06/29 19:29:11","新北市永和區林森路92號","121.523275","25.003635","6500400","永和區"
"234070","552-UM","2018/06/29 19:29:11","新北市永和區警光街5號","121.519263333333","25.0091266666667","6500400","永和區"
"234017","745-BX","2018/06/29 19:29:24","新北市永和區環河西路一段63號","121.513376666667","25.0181633333333","6500400","永和區"
"234030","746-BX","2018/06/29 19:29:13","新北市永和區厚德街9巷2號","121.52565","24.998335","6500400","永和區"
"234054","KEA-2590","2018/06/29 19:29:20","新北市永和區復興街21號","121.516125","25.01303","6500400","永和區"
"234013","KEA-2591","2018/06/29 19:29:11","新北市永和區中山路一段184巷9弄19號","121.508151666667","25.0090133333333","6500400","永和區"
"234061","AAD-866","2018/06/29 19:29:14","新北市永和區中正路469號","121.517055","25.0061216666667","6500400","永和區"
"234042","862-TW","2018/06/29 19:29:11","新北市永和區水源街39巷2號","121.510361666667","25.004185","6500400","永和區"
"234050","863-TW","2018/06/29 19:29:15","新北市永和區信義路120號","121.512388333333","25.0146466666667","6500400","永和區"
"234026","9371-KE","2018/06/29 19:29:26","新北市中和區安樂路215-1號","121.514193333333","24.9988733333333","6500400","永和區"
"234011","9373-KE","2018/06/29 19:29:26","新北市永和區保福路二段163巷13弄3號","121.509196666667","25.0143666666667","6500400","永和區"
"249003","593-UM","2018/06/29 19:29:12","新北市八里區商港六路23號","121.39665","25.1485983333333","6502300","八里區"
"248016","026-BX","2018/06/29 19:29:12","新北市五股區成洲五路12號","121.452366666667","25.1017233333333","6501500","五股區"
"248008","095-VK","2018/06/29 19:29:28","新北市五股區中興路一段93號","121.466685","25.0729116666667","6501500","五股區"
"248018","225-UY","2018/06/29 19:21:10","新北市五股區壟路16號","121.41534","25.0855683333333","6501500","五股區"
"248012","247-BX","2018/06/29 19:29:17","新北市五股區成泰路二段97號","121.437928333333","25.084305","6501500","五股區"
"248014","261-SL","2018/06/29 19:29:12","新北市五股區民義路一段185-19號","121.43126","25.0874416666667","6501500","五股區"
"248004","677-BX","2018/06/29 19:29:17","新北市五股區五福路10號","121.434326666667","25.088525","6501500","五股區"
"248002","678-BX","2018/06/29 19:29:22","新北市五股區凌雲路一段158巷13號","121.44777","25.103445","6501500","五股區"
"248010","682-TV","2018/06/29 19:29:23","新北市五股區水碓一路23號","121.430636666667","25.071285","6501500","五股區"
"234023","9380-KE","2018/06/29 19:29:14","新北市永和區竹林路91巷34號","121.520961666667","25.0124583333333","6500400","永和區"
"234077","969-R7","2018/06/29 19:29:22","新北市永和區民權路80號","121.519776666667","24.997685","6500400","永和區"
"234074","AAC-211","2018/06/29 19:29:28","新北市永和區環河東路二段10號","121.52224","25.01319","6500400","永和區"
"234067","AAC-212","2018/06/29 19:29:20","新北市永和區永貞路356號","121.510325","25.0065366666667","6500400","永和區"
"234003","AAC-295","2018/06/29 19:29:13","新北市永和區永和路一段122號","121.513913333333","25.007715","6500400","永和區"
"244019","403-UM","2018/06/29 19:29:08","新北市林口區寶斗厝坑7-1號","121.357848333333","25.0986816666667","6501700","林口區"
"244023","483-VK","2018/06/29 19:29:18","新北市林口區民有街72號","121.372945","25.0768566666667","6501700","林口區"
"244017","485-VK","2018/06/29 19:29:25","新北市林口區湖南里70-9號","121.375936666667","25.0897383333333","6501700","林口區"
"243013","AAD-798","2018/06/29 19:29:25","新北市泰山區明志路三段145巷5弄19號","121.42565","25.040605","6501600","泰山區"
"243009","297-R6","2018/06/29 19:29:08","新北市泰山區半山雅3號","121.43146","25.0673466666667","6501600","泰山區"
"243016","380-SR","2018/06/29 19:29:21","新北市泰山區工專路62巷1弄1號","121.422988333333","25.0405433333333","6501600","泰山區"
"243015","421-VK","2018/06/29 19:29:19","新北市泰山區民權街27號","121.42881","25.0507333333333","6501600","泰山區"
"243011","KEA-2215","2018/06/29 19:29:14","新北市泰山區貴子路19-1號","121.428081666667","25.0407683333333","6501600","泰山區"
"243010","KEA-2216","2018/06/29 19:29:17","新北市泰山區民生路17巷38號","121.429425","25.051525","6501600","泰山區"
"243012","646-TV","2018/06/29 19:29:21","新北市泰山區明志路一段501巷19號","121.431308333333","25.05447","6501600","泰山區"
"243014","680-BX","2018/06/29 19:29:29","新北市泰山區泰林路二段21-22號","121.436005","25.0555233333333","6501600","泰山區"
"222003","436-BY","2018/06/29 19:29:16","新北市深坑區深南路51-1號","121.621243333333","25.0098366666667","6501800","深坑區"
"222002","659-BX","2018/06/29 19:29:11","新北市深坑區北深路一段177號","121.632521666667","25.0108316666667","6501800","深坑區"
"231041","002-UM","2018/06/29 19:29:28","新北市新店區中正路604號","121.534003333333","24.9882933333333","6500600","新店區"
"231059","046-UY","2018/06/29 19:29:18","新北市新店區安和路三段7號","121.5181","24.9805133333333","6500600","新店區"
"231040","047-UY","2018/06/29 19:29:24","新北市新店區北新路一段269號","121.54103","24.966545","6500600","新店區"
"231044","106-UY","2018/06/29 19:29:25","新北市新店區中興路三段134號","121.544713333333","24.979795","6500600","新店區"
"231053","108-UY","2018/06/29 19:29:21","新北市新店區新烏路二段202號","121.547471666667","24.91633","6500600","新店區"
"231048","187-VK","2018/06/29 19:29:13","新北市新店區五峰路157號","121.544918333333","24.9656566666667","6500600","新店區"
"231046","188-VK","2018/06/29 19:29:13","新北市新店區北新路一段91號","121.53877","24.9617866666667","6500600","新店區"
"231057","256-BX","2018/06/29 19:29:18","新北市新店區花園一路二段21號","121.551061666667","24.9327583333333","6500600","新店區"
"231042","268-BY","2018/06/29 19:29:16","新北市新店區中興路一段24-2號","121.538606666667","24.958315","6500600","新店區"
"231051","278-BY","2018/06/29 19:29:23","新北市新店區中央五街55號","121.527738333333","24.975495","6500600","新店區"
"231050","AAD-862","2018/06/29 19:29:26","新北市新店區竹林路97巷10號","121.554116666667","24.9495066666667","6500600","新店區"
"231058","3713-VJ","2018/06/29 19:29:12","新北市新店區中興路三段1-5號","121.54571","24.97649","6500600","新店區"
"231066","4716-K9","2018/06/29 19:29:07","新北市新店區安康路三段359巷10弄2號","121.484203333333","24.9503333333333","6500600","新店區"
"231067","4772-VM","2018/06/29 19:29:17","新北市新店區安康路一段195巷5號","121.526345","24.9624566666667","6500600","新店區"
"231065","512-UM","2018/06/29 19:29:14","新北市新店區安祥路109巷3弄12號","121.475616666667","24.9598166666667","6500600","新店區"
"231049","513-UM","2018/06/29 19:29:08","新北市新店區北新路三段105巷11號","121.540631666667","24.9820333333333","6500600","新店區"
"231045","617-UM","2018/06/29 19:29:19","新北市新店區北宜路二段219號","121.553333333333","24.9534466666667","6500600","新店區"
"231061","619-UM","2018/06/29 19:29:15","新北市新店區安康路一段122號","121.527033333333","24.96271","6500600","新店區"
"231063","641-BX","2018/06/29 19:29:16","新北市新店區達觀路16號","121.503125","24.9407283333333","6500600","新店區"
"231064","719-UM","2018/06/29 19:29:09","新北市新店區安康路二段85巷17號","121.514006666667","24.9617816666667","6500600","新店區"
"231062","720-UM","2018/06/29 19:29:30","新北市新店區安康路一段90號","121.527935","24.9620033333333","6500600","新店區"
"231060","897-TW","2018/06/29 19:29:12","新北市新店區安康路二段74號","121.514391666667","24.9635283333333","6500600","新店區"
"231043","899-TW","2018/06/29 19:29:11","新北市新店區北新路二段256號","121.542793333333","24.9781683333333","6500600","新店區"
"241028","022-UY","2018/06/29 19:29:23","新北市三重區中正南路97巷20號","121.493651666667","25.0577766666667","6500200","三重區"
"241008","059-VK","2018/06/29 19:29:21","新北市三重區永福街135巷40號","121.477071666667","25.07722","6500200","三重區"
"241022","060-VK","2018/06/29 19:29:22","新北市三重區三民街167號","121.483466666667","25.0648866666667","6500200","三重區"
"241031","061-VK","2018/06/29 19:29:26","新北市三重區集美街100號","121.48857","25.0541433333333","6500200","三重區"
"241017","063-VK","2018/06/29 19:29:21","新北市三重區大仁街12號","121.49152","25.0632416666667","6500200","三重區"
"241026","066-VK","2018/06/29 19:29:27","新北市三重區文化南路67號","121.500236666667","25.0608616666667","6500200","三重區"
"241009","267-UM","2018/06/29 19:29:26","新北市三重區仁美街123號","121.485696666667","25.081315","6500200","三重區"
"241032","269-UM","2018/06/29 19:29:28","新北市三重區三陽路25號","121.485631666667","25.0587983333333","6500200","三重區"
"241013","270-UM","2018/06/29 19:29:11","新北市三重區仁愛街129巷2號","121.495616666667","25.0749516666667","6500200","三重區"
"241007","398-BY","2018/06/29 19:29:07","新北市三重區慈愛街147號","121.489465","25.0797016666667","6500200","三重區"
"241035","KEA-2210","2018/06/29 19:29:22","新北市三重區信義西街1號","121.498161666667","25.0648683333333","6500200","三重區"
"241020","478-VK","2018/06/29 19:29:15","新北市三重區三和路四段44巷4號","121.490201666667","25.0743566666667","6500200","三重區"
"241030","480-VK","2018/06/29 19:29:26","新北市三重區成功路41巷4號","121.490171666667","25.0514233333333","6500200","三重區"
"241006","AAD-863","2018/06/29 19:29:14","新北市三重區自強路三段99號","121.48769","25.0752533333333","6500200","三重區"
"241025","743-BX","2018/06/29 19:23:17","新北市三重區中正北路378號","121.476655","25.06963","6500200","三重區"
"241029","942-UM","2018/06/29 19:29:16","新北市三重區中正南路216號","121.493815","25.055165","6500200","三重區"
"235066","003-UY","2018/06/29 19:29:12","新北市中和區中和路136號","121.503505","24.999315","6500300","中和區"
"235064","005-UY","2018/06/29 19:29:20","新北市中和區連城路4號","121.49919","25.0024183333333","6500300","中和區"
"235063","006-UY","2018/06/29 19:29:16","新北市中和區連城路219巷15號","121.494911666667","24.996365","6500300","中和區"
"235056","096-UM","2018/06/29 19:29:23","新北市中和區中山路三段108號","121.476805","25.0063016666667","6500300","中和區"
"235003","097-UM","2018/06/29 19:29:24","新北市中和區秀峰街119巷8弄14號","121.519078333333","24.9899416666667","6500300","中和區"
"235065","098-UM","2018/06/29 19:29:15","新北市中和區福美路269號","121.498156666667","25.0050933333333","6500300","中和區"
"235040","150-BY","2018/06/29 19:29:22","新北市中和區保健路44巷11號","121.509071666667","24.9967283333333","6500300","中和區"
"235058","151-BY","2018/06/29 19:29:17","新北市中和區員山路36巷16-3號","121.484555","24.9912066666667","6500300","中和區"
"235055","183-VK","2018/06/29 19:29:24","新北市中和區國光街8巷7號","121.471595","25.0006866666667","6500300","中和區"
"235038","185-VK","2018/06/29 19:29:20","新北市中和區自立路115號","121.52196","24.994515","6500300","中和區"
"235049","186-VK","2018/06/29 19:29:11","新北市中和區景新街246號","121.509376666667","24.9935633333333","6500300","中和區"
"235067","255-BX","2018/06/29 19:29:07","新北市中和區連城路332號","121.483148333333","24.9959383333333","6500300","中和區"
"235044","293-VK","2018/06/29 19:29:19","新北市中和區捷運路100-1號","121.50598","24.99143","6500300","中和區"
"235072","301-VK","2018/06/29 19:29:16","新北市中和區連城路263巷4弄10號","121.49174","24.9952866666667","6500300","中和區"
"235043","352-BY","2018/06/29 19:29:17","新北市中和區安和路159號","121.506278333333","24.997245","6500300","中和區"
"235042","KEA-2878","2018/06/29 19:29:13","新北市中和區安平路161號","121.512445","24.99845","6500300","中和區"
"235050","4979-A6","2018/06/29 19:29:25","新北市中和區中正路450號","121.490836666667","24.9940433333333","6500300","中和區"
"235069","4980-A6","2018/06/29 19:29:27","新北市中和區景平路736巷3弄12號","121.497616666667","25.0037833333333","6500300","中和區"
"235070","558-UM","2018/06/29 19:29:21","新北市中和區南山路20號","121.501968333333","24.998355","6500300","中和區"
"235045","565-BX","2018/06/29 19:29:23","新北市中和區景新街399巷8號","121.513006666667","24.98983","6500300","中和區"
"235054","640-BX","2018/06/29 19:29:14","新北市中和區國光街112巷16弄2號","121.469745","25.0013416666667","6500300","中和區"
"235060","647-TV","2018/06/29 19:29:21","新北市中和區民樂路17號","121.482166666667","25.0012833333333","6500300","中和區"
"235046","733-UM","2018/06/29 19:29:18","新北市中和區忠孝街37巷67號","121.510576666667","24.9848016666667","6500300","中和區"
"235071","783-BX","2018/06/29 19:29:11","新北市中和區連城路469巷14號","121.483578333333","24.9952833333333","6500300","中和區"
"235057","801-TS","2018/06/29 19:29:09","新北市中和區中山路三段37巷35號","121.47958","25.0047616666667","6500300","中和區"
"235041","802-TS","2018/06/29 19:29:17","新北市中和區中安街124號","121.511183333333","25.0004633333333","6500300","中和區"
"235052","805-TS","2018/06/29 19:29:08","新北市中和區華新街143巷70號","121.506336666667","24.97918","6500300","中和區"
"235048","896-TW","2018/06/29 19:29:23","新北市中和區忠孝街113巷1號","121.512413333333","24.98736","6500300","中和區"
"235053","900-TW","2018/06/29 19:29:20","新北市中和區華順街30巷7號","121.467333333333","24.9991616666667","6500300","中和區"
"235051","157-BY","2018/06/29 19:29:26","新北市中和區景新街134號","121.50532","24.9980066666667","6500300","中和區"
"235037","AAC-213","2018/06/29 19:29:20","新北市中和區秀朗路三段10巷12弄2號","121.525578333333","24.9965866666667","6500300","中和區"
"235059","AAC-215","2018/06/29 19:29:09","新北市中和區圓通路252巷5弄2號","121.493321666667","24.991475","6500300","中和區"
"220065","072-UY","2018/06/29 19:29:15","新北市板橋區國泰街109-1號","121.466205","25.00601","6500100","板橋區"
"220106","075-UY","2018/06/29 19:29:27","新北市板橋區江寧路三段117號","121.473245","25.0330216666667","6500100","板橋區"
"220069","AAD-861","2018/06/29 19:29:13","新北市板橋區稚暉街39號","121.457176666667","25.0041633333333","6500100","板橋區"
"226004","205-ST","2018/06/29 19:29:13","新北市平溪區十分里十分街88號","121.776506666667","25.04241","6502400","平溪區"
"235047","251-BX","2018/06/29 19:29:22","新北市中和區景平路259巷18號","121.507806666667","24.9926766666667","6500300","中和區"
"228001","670-TC","2018/06/29 19:29:24","新北市貢寮區真理里延平街68-1號","121.925388333333","25.0574383333333","6502600","貢寮區"
"228003","828-UM","2018/06/29 19:29:16","新北市貢寮區和美里和美街22-1號","121.912821666667","25.082605","6502600","貢寮區"
"224010","AGQ-8101","2018/06/29 19:16:17","新北市瑞芳區基山街3號","121.845226666667","25.1097416666667","6501200","瑞芳區"
"224002","639-TC","2018/06/29 19:29:11","新北市瑞芳區三爪子坑路13巷47號","121.814188333333","25.1067316666667","6501200","瑞芳區"
"227003","642-TC","2018/06/29 19:29:18","新北市雙溪區雙溪里光復街14號","121.865063333333","25.0354366666667","6502500","雙溪區"
"227011","400-TW","2018/06/29 19:29:22","新北市雙溪區新基里新基北街43號","121.868175","25.0396933333333","6502500","雙溪區"
"253005","032-BX","2018/06/29 19:29:25","新北市石門區小坑9號","121.594408333333","25.2884066666667","6502200","石門區"
"253006","295-VK","2018/06/29 19:29:09","新北市石門區中央路36號","121.567998333333","25.29261","6502200","石門區"
"222001","KEA-2212","2018/06/29 19:29:24","新北市深坑區北深路二段125-1號","121.616176666667","25.002955","6501800","深坑區"
"208002","KEA-2872","2018/06/29 19:29:27","新北市金山區仁愛路57號","121.635295","25.2206666666667","6502700","金山區"
"208003","665-BX","2018/06/29 19:29:19","新北市金山區中山路263巷14號","121.636433333333","25.2216083333333","6502700","金山區"
"208001","761-BX","2018/06/29 19:29:10","新北市金山區金包里街128號","121.637856666667","25.222245","6502700","金山區"
"251005","010-UM","2018/06/29 19:29:23","新北市淡水區水源街一段71巷18號","121.444386666667","25.1729483333333","6501000","淡水區"
"251010","413-VK","2018/06/29 19:29:17","新北市淡水區中正路二段142號","121.421965","25.1874816666667","6501000","淡水區"
"251012","441-VK","2018/06/29 19:29:26","新北市淡水區下圭柔山91-2號","121.43082","25.2094916666667","6501000","淡水區"
"251007","442-VK","2018/06/29 19:29:21","新北市淡水區八勢一街46號","121.46127","25.15497","6501000","淡水區"
"251001","559-UM","2018/06/29 19:29:12","新北市淡水區民權路141-1號","121.460126666667","25.1364066666667","6501000","淡水區"
"251006","561-UM","2018/06/29 19:29:24","新北市淡水區大義街44號","121.441961666667","25.17836","6501000","淡水區"
"251009","575-R6","2018/06/29 19:29:15","新北市淡水區大忠街5巷3號","121.443371666667","25.176655","6501000","淡水區"
"251011","650-BX","2018/06/29 19:29:17","新北市淡水區中正東路二段161巷11弄16號","121.46061","25.1465116666667","6501000","淡水區"
"251003","673-BX","2018/06/29 19:29:13","新北市淡水區中山北路三段163號","121.445235","25.1965666666667","6501000","淡水區"
"207003","291-VK","2018/06/29 19:29:29","新北市萬里區大鵬里萬里加投209號","121.644168333333","25.2155333333333","6502800","萬里區"
"207004","225-TW","2018/06/29 19:29:23","新北市萬里區萬里里瑪鋉路119號","121.68884","25.17766","6502800","萬里區"
"252002","178-VK","2018/06/29 19:29:24","新北市三芝區淡金路二段18-1號","121.50265","25.259475","6502100","三芝區"
"252001","292-VK","2018/06/29 19:29:28","新北市三芝區長勤街63-1號","121.500078333333","25.256085","6502100","三芝區"
"237004","KEA-2597","2018/06/29 19:29:19","新北市三峽區有木206號","121.439076666667","24.85149","6500900","三峽區"
"237007","153-BY","2018/06/29 19:29:11","新北市三峽區二鬮路136巷20弄83號","121.358233333333","24.908935","6500900","三峽區"
"237009","210-TH","2018/06/29 19:29:14","新北市三峽區民權街128號","121.368821666667","24.9320916666667","6500900","三峽區"
"237013","252-BX","2018/06/29 19:29:28","新北市三峽區介壽路一段276巷88弄19號","121.379128333333","24.9285883333333","6500900","三峽區"
"237012","275-BY","2018/06/29 19:29:17","新北市三峽區三樹路88號","121.3779","24.9387066666667","6500900","三峽區"
"237008","302-VK","2018/06/29 19:29:23","新北市三峽區永安街166號","121.373701666667","24.928405","6500900","三峽區"
"237014","433-BY","2018/06/29 19:29:08","新北市三峽區大同路202-2號","121.367968333333","24.9274333333333","6500900","三峽區"
"237006","5529-G3","2018/06/29 19:29:08","新北市三峽區中正路一段336巷15弄2號","121.369966666667","24.9249783333333","6500900","三峽區"
"237016","649-BX","2018/06/29 19:29:24","新北市三峽區成福路118號","121.421975","24.929775","6500900","三峽區"
"237005","AKY-6261","2018/06/29 19:29:24","新北市三峽區復興路367巷1弄2號","121.363845","24.9381216666667","6500900","三峽區"
"236069","105-UM","2018/06/29 19:29:13","新北市土城區裕民路185巷36弄10號","121.454393333333","24.984565","6501300","土城區"
"236042","107-UM","2018/06/29 19:29:28","新北市土城區學府路一段276號","121.450158333333","24.9831766666667","6501300","土城區"
"236079","166-UM","2018/06/29 19:29:22","新北市土城區中州路27巷2號","121.413583333333","24.95762","6501300","土城區"
"236026","269-VK","2018/06/29 19:29:13","新北市土城區中央路二段61巷22號","121.44317","24.9786733333333","6501300","土城區"
"236020","401-BY","2018/06/29 19:29:20","新北市土城區明峰街83號","121.468886666667","24.9874016666667","6501300","土城區"
"236059","912-UM","2018/06/29 19:29:14","新北市土城區中央路二段134號","121.441988333333","24.9773766666667","6501300","土城區"
"236048","913-UM","2018/06/29 19:29:26","新北市土城區清水路186號","121.460196666667","24.981735","6501300","土城區"
"242007","413-TV","2018/06/29 19:29:24","新北市新莊區新泰路357巷3弄57號","121.442168333333","25.0392683333333","6500500","新莊區"
"242023","362-BY","2018/06/29 19:29:09","新北市新莊區中平路82巷20號","121.445683333333","25.0447683333333","6500500","新莊區"
"242032","135-UY","2018/06/29 19:29:22","新北市新莊區新泰路225巷20號","121.445366666667","25.039135","6500500","新莊區"
"242048","172-VK","2018/06/29 19:29:11","新北市新莊區後港一路3號","121.424068333333","25.026325","6500500","新莊區"
"242005","176-VK","2018/06/29 19:29:14","新北市新莊區化成路11巷81號","121.462425","25.04349","6500500","新莊區"
"238015","755-BX","2018/06/29 19:29:15","新北市樹林區樹德街57號","121.421045","24.9918283333333","6500700","樹林區"
"238023","601-UM","2018/06/29 19:29:12","新北市樹林區三福街4-1號","121.409025","25.0168433333333","6500700","樹林區"
"238019","599-UM","2018/06/29 19:29:24","新北市樹林區八德街17號","121.418083333333","24.984285","6500700","樹林區"
"238018","571-TV","2018/06/29 19:29:23","新北市樹林區中華路6-3號","121.424318333333","24.9840866666667","6500700","樹林區"
"238024","5061-A6","2018/06/29 19:29:19","新北市樹林區山佳街31號","121.393498333333","24.9727916666667","6500700","樹林區"
"238022","KEA-2213","2018/06/29 19:29:28","新北市樹林區太平路163號","121.418735","24.9793966666667","6500700","樹林區"
"238021","KEA-2539","2018/06/29 19:29:21","新北市樹林區佳園路三段231號","121.38501","24.9458016666667","6500700","樹林區"
"238025","303-VK","2018/06/29 19:29:09","新北市樹林區中山路一段276號","121.42072","24.986995","6500700","樹林區"
"238017","283-BY","2018/06/29 19:29:15","新北市樹林區保安街二段107巷1弄5號","121.415125","25.0008833333333","6500700","樹林區"
"238014","282-BY","2018/06/29 19:29:24","新北市樹林區千歲街4號","121.425051666667","24.99566","6500700","樹林區"
"238020","268-VK","2018/06/29 19:29:13","新北市樹林區俊英街109-1號","121.42497","25.0098183333333","6500700","樹林區"
"238026","172-UY","2018/06/29 19:29:21","新北市樹林區佳園路二段15巷19號","121.394405","24.9628716666667","6500700","樹林區"
"239006","891-R6","2018/06/29 19:29:18","新北市鶯歌區永昌街123號","121.33867","24.9504933333333","6500800","鶯歌區"
"239001","417-VK","2018/06/29 19:29:10","新北市鶯歌區正義新村13號","121.342908333333","24.9493166666667","6500800","鶯歌區"
"239003","360-BY","2018/06/29 19:29:16","新北市鶯歌區中正一路428號","121.361238333333","24.9570633333333","6500800","鶯歌區"
"239002","359-BY","2018/06/29 19:29:09","新北市鶯歌區大湖路133號","121.342701666667","24.9644833333333","6500800","鶯歌區"
"239004","193-VK","2018/06/29 19:29:22","新北市鶯歌區二甲路83-23號","121.341243333333","24.9315383333333","6500800","鶯歌區"
"221008","489-VK","2018/06/29 19:29:23","新北市汐止區康寧街145號","121.621835","25.0666483333333","6501100","汐止區"
"221036","130-UY","2018/06/29 19:29:22","新北市汐止區康寧街901號","121.65072","25.075295","6501100","汐止區"
"221015","131-UY","2018/06/29 19:29:13","新北市汐止區康寧街901號","121.65149","25.0749566666667","6501100","汐止區"
"221010","269-BY","2018/06/29 19:29:16","新北市汐止區連峰街3巷1號","121.646466666667","25.0764933333333","6501100","汐止區"
"221012","278-VK","2018/06/29 19:29:25","新北市汐止區大同路三段168號","121.67382","25.0753566666667","6501100","汐止區"
"221023","279-VK","2018/06/29 19:29:24","新北市汐止區康寧街589號","121.63535","25.0701766666667","6501100","汐止區"
"221027","281-BY","2018/06/29 19:29:24","新北市汐止區忠孝東路9號","121.65841","25.0659316666667","6501100","汐止區"
"221029","298-VK","2018/06/29 19:29:12","新北市汐止區康寧街901號","121.651563333333","25.0751116666667","6501100","汐止區"
"221021","299-VK","2018/06/29 19:29:10","新北市汐止區康寧街901號","121.651401666667","25.07503","6501100","汐止區"
"221031","353-TW","2018/06/29 19:29:22","新北市汐止區康寧街901號","121.650826666667","25.0752783333333","6501100","汐止區"
"221025","623-UM","2018/06/29 19:29:22","新北市汐止區秀峰路57號","121.659775","25.0650133333333","6501100","汐止區"
"221038","646-BX","2018/06/29 19:29:19","新北市汐止區汐萬路一段22號","121.655795","25.067855","6501100","汐止區"
"221033","647-BX","2018/06/29 19:29:10","新北市汐止區南勢街1巷1號","121.627216666667","25.0377283333333","6501100","汐止區"
"221002","707-TV","2018/06/29 19:29:13","新北市汐止區大同路一段337巷16弄1號","121.637991666667","25.0601283333333","6501100","汐止區"
"220079","145-BY","2018/06/29 19:29:18","新北市板橋區復興街52號","121.458656666667","25.01747","6500100","板橋區"
"220080","200-UY","2018/06/29 19:29:28","新北市板橋區大觀路二段37巷180號","121.449586666667","25.0022033333333","6500100","板橋區"
"220082","610-BX","2018/06/29 19:29:17","新北市板橋區大觀路三段162號","121.431371666667","24.993115","6500100","板橋區"
"220101","245-BX","2018/06/29 19:29:20","新北市板橋區莊敬路261號","121.473958333333","25.021665","6500100","板橋區"
"220091","267-BY","2018/06/29 19:29:19","新北市板橋區文聖街135巷13號","121.478705","25.0287933333333","6500100","板橋區"
"220056","276-BY","2018/06/29 19:29:26","新北市板橋區信義路1巷26弄39號","121.459145","24.9967666666667","6500100","板橋區"
"220072","277-BY","2018/06/29 19:29:30","新北市板橋區金門街253巷17弄5號","121.433396666667","24.9888766666667","6500100","板橋區"
"220071","283-VK","2018/06/29 19:29:26","新北市板橋區四川路一段325巷3弄5號","121.459478333333","25.0004483333333","6500100","板橋區"
"220094","285-UM","2018/06/29 19:29:14","新北市板橋區吳鳳路50號","121.467906666667","25.030455","6500100","板橋區"
"220053","285-VK","2018/06/29 19:29:14","新北市板橋區永豐街171號","121.475775","25.0205133333333","6500100","板橋區"
"220083","286-VK","2018/06/29 19:29:28","新北市板橋區龍興街71巷46號","121.441933333333","25.0026933333333","6500100","板橋區"
"220081","287-VK","2018/06/29 19:29:24","新北市板橋區大觀路一段75巷35號","121.448745","25.00417","6500100","板橋區"
"220090","288-VK","2018/06/29 19:29:10","新北市板橋區長江路一段106巷12弄2號","121.459958333333","25.0290833333333","6500100","板橋區"
"220061","293-UM","2018/06/29 19:29:19","新北市板橋區中山路二段92號","121.475266666667","25.016415","6500100","板橋區"
"220062","295-UM","2018/06/29 19:29:19","新北市板橋區三民路二段109巷27號","121.48054","25.01599","6500100","板橋區"
"220084","296-UM","2018/06/29 19:29:26","新北市板橋區滿平街84巷102號","121.426453333333","24.98655","6500100","板橋區"
"220075","303-R5","2018/06/29 19:29:26","新北市板橋區南雅西路二段301巷50弄10-2號","121.452323333333","25.01706","6500100","板橋區"
"220092","307-R5","2018/06/29 19:29:18","新北市板橋區光武街4巷5號","121.468225","25.0253816666667","6500100","板橋區"
"220098","317-R6","2018/06/29 19:29:26","新北市板橋區四維路266巷5弄17號","121.463538333333","25.0289166666667","6500100","板橋區"
"220055","461-BY","2018/06/29 19:29:24","新北市板橋區重慶路278巷9號","121.462535","24.9996083333333","6500100","板橋區"
"220064","486-VK","2018/06/29 19:29:08","新北市板橋區中山路一段1號","121.459328333333","25.0075083333333","6500100","板橋區"
"220088","491-VK","2018/06/29 19:29:20","新北市板橋區文化路二段389號","121.473573333333","25.0313516666667","6500100","板橋區"
"220035","560-BX","2018/06/29 19:29:26","新北市板橋區中正路332號","121.454273333333","25.022195","6500100","板橋區"
"220103","561-BX","2018/06/29 19:29:17","新北市板橋區文化路一段270巷1弄2號","121.46772","25.02094","6500100","板橋區"
"220063","609-BX","2018/06/29 19:29:13","新北市板橋區三民路一段31巷89弄1號","121.48168","25.0233316666667","6500100","板橋區"
"220086","630-UY","2018/06/29 19:29:10","新北市板橋區國光路14號","121.45689","25.0173916666667","6500100","板橋區"
"220057","686-BX","2018/06/29 19:29:25","新北市板橋區和平路77號","121.461588333333","24.9948316666667","6500100","板橋區"
"220093","689-BX","2018/06/29 19:29:11","新北市板橋區新海路158號","121.460798333333","25.02406","6500100","板橋區"
"220054","741-BX","2018/06/29 19:29:30","新北市板橋區重慶路196號","121.462548333333","25.002975","6500100","板橋區"
"220102","KEA-2699","2018/06/29 19:29:24","新北市板橋區雙十路二段116號","121.474471666667","25.0289733333333","6500100","板橋區"
"220077","806-UM","2018/06/29 19:29:15","新北市板橋區僑中三街35號","121.445413333333","25.0047916666667","6500100","板橋區"
"220067","829-TW","2018/06/29 19:29:08","新北市板橋區漢生東路313巷2弄2號","121.472231666667","25.00819","6500100","板橋區"
"220068","830-TW","2018/06/29 19:29:15","新北市板橋區林森街1巷1號","121.482056666667","25.02415","6500100","板橋區"
"220096","831-TW","2018/06/29 19:29:14","新北市板橋區大同街2號","121.476828333333","25.0267016666667","6500100","板橋區"
"220089","833-TW","2018/06/29 19:29:25","新北市板橋區文化路一段27-1號","121.459878333333","25.0128683333333","6500100","板橋區"
"220074","895-R6","2018/06/29 19:29:20","新北市板橋區北門街34號","121.457206666667","25.01088","6500100","板橋區"
"220073","985-R7","2018/06/29 19:29:25","新北市板橋區國光路67巷1號","121.459073333333","25.01859","6500100","板橋區"
"220097","AAC-210","2018/06/29 19:29:22","新北市板橋區漢生西路137號","121.462778333333","25.02157","6500100","板橋區"
"220070","AAC-253","2018/06/29 19:29:16","新北市板橋區民族路197號","121.468921666667","25.007545","6500100","板橋區"
"235068","KEA-2873","2018/06/29 19:29:10","新北市中和區景平路493巷12弄21-4號","121.498781666667","24.99715","6500300","中和區"
"235061","KEA-2875","2018/06/29 19:29:02","新北市中和區連城路456巷11號","121.478453333333","24.9951783333333","6500300","中和區"
