"lineid","car","time","location","longitude","latitude","cityid","cityname"
"234046","148-BY","2018/06/29 19:39:17","新北市永和區秀朗路二段106巷2號","121.523923333333","25.0016166666667","6500400","永和區"
"234007","207-UY","2018/06/29 19:39:16","新北市永和區中和路603號","121.512501666667","25.0043316666667","6500400","永和區"
"234081","298-R6","2018/06/29 19:39:16","新北市永和區國中路104巷12弄1號","121.524781666667","25.00715","6500400","永和區"
"234038","336-UY","2018/06/29 19:39:16","新北市永和區民樂街20號","121.52759","25.0020033333333","6500400","永和區"
"234064","337-UY","2018/06/29 19:39:28","新北市永和區秀朗路一段192巷6弄12號","121.51904","25.002415","6500400","永和區"
"234086","338-UY","2018/06/29 19:39:11","新北市永和區成功路一段18巷15號","121.526241666667","25.00498","6500400","永和區"
"234070","552-UM","2018/06/29 19:39:11","新北市永和區永和路二段216號","121.515616666667","25.0140683333333","6500400","永和區"
"234017","745-BX","2018/06/29 19:39:24","新北市永和區永和路二段425巷75弄5號","121.513443333333","25.0170616666667","6500400","永和區"
"234030","746-BX","2018/06/29 19:39:13","新北市永和區民生路36號","121.52246","24.9969566666667","6500400","永和區"
"234054","KEA-2590","2018/06/29 19:39:20","新北市永和區竹林路39巷22號","121.518928333333","25.0147566666667","6500400","永和區"
"234013","KEA-2591","2018/06/29 19:39:11","新北市永和區永平路258號","121.508241666667","25.0113633333333","6500400","永和區"
"234061","AAD-866","2018/06/29 19:39:14","新北市永和區中正路476號","121.517453333333","25.003385","6500400","永和區"
"234042","862-TW","2018/06/29 19:39:11","新北市永和區中和路305巷2弄1號","121.50677","25.0000683333333","6500400","永和區"
"234050","863-TW","2018/06/29 19:39:15","新北市永和區保福路二段162巷2號","121.508956666667","25.0152083333333","6500400","永和區"
"234026","9371-KE","2018/06/29 19:39:26","新北市永和區中和路501巷5號","121.510426666667","25.0025983333333","6500400","永和區"
"234011","9373-KE","2018/06/29 19:39:26","新北市永和區保生路55-1號","121.504518333333","25.0109333333333","6500400","永和區"
"249004","303-UY","2018/06/29 19:39:28","新北市八里區中山路一段268巷2號","121.414168333333","25.1601783333333","6502300","八里區"
"249002","305-UY","2018/06/29 19:39:19","新北市八里區頂寮二街48巷1-1號","121.450245","25.1253883333333","6502300","八里區"
"249003","593-UM","2018/06/29 19:39:18","新北市八里區中華路二段526號","121.399355","25.1457016666667","6502300","八里區"
"248016","026-BX","2018/06/29 19:39:12","新北市五股區成泰路四段44號","121.455928333333","25.110455","6501500","五股區"
"248008","095-VK","2018/06/29 19:39:28","新北市五股區四維路153號","121.467636666667","25.0745866666667","6501500","五股區"
"248018","225-UY","2018/06/29 19:21:10","新北市五股區壟路16號","121.41534","25.0855683333333","6501500","五股區"
"248012","247-BX","2018/06/29 19:39:17","新北市五股區成泰路二段82號","121.437393333333","25.0823366666667","6501500","五股區"
"248014","261-SL","2018/06/29 19:39:12","新北市五股區五福路23巷8號","121.433466666667","25.088835","6501500","五股區"
"248004","677-BX","2018/06/29 19:39:17","新北市五股區成泰路二段78號","121.437455","25.0822116666667","6501500","五股區"
"248002","678-BX","2018/06/29 19:39:22","新北市五股區成泰路三段577巷45號","121.450771666667","25.10317","6501500","五股區"
"248010","682-TV","2018/06/29 19:39:23","新北市五股區自強路148號","121.432225","25.0705966666667","6501500","五股區"
"234077","969-R7","2018/06/29 19:39:22","新北市永和區民族街67巷20號","121.519581666667","24.997165","6500400","永和區"
"234074","AAC-211","2018/06/29 19:39:24","新北市永和區福和路174號","121.520891666667","25.0077683333333","6500400","永和區"
"234067","AAC-212","2018/06/29 19:39:10","新北市永和區中山路一段192號","121.50888","25.008795","6500400","永和區"
"234003","AAC-295","2018/06/29 19:39:13","新北市永和區自由街62號","121.513588333333","25.0056983333333","6500400","永和區"
"244019","403-UM","2018/06/29 19:39:08","新北市八里區中山路三段386號","121.368513333333","25.13579","6501700","林口區"
"244023","483-VK","2018/06/29 19:39:18","新北市林口區頭湖83-28號","121.371218333333","25.083355","6501700","林口區"
"244017","485-VK","2018/06/29 19:39:25","新北市林口區寶斗厝坑89-2號","121.332648333333","25.120115","6501700","林口區"
"243013","AAD-798","2018/06/29 19:39:24","新北市泰山區應化街7號","121.423928333333","25.04369","6501600","泰山區"
"243009","297-R6","2018/06/29 19:39:28","新北市泰山區美寧街68號","121.43103","25.0646466666667","6501600","泰山區"
"243016","380-SR","2018/06/29 19:39:21","新北市泰山區明志路三段222號","121.421431666667","25.0359416666667","6501600","泰山區"
"243015","421-VK","2018/06/29 19:39:19","新北市泰山區明志路二段237巷16號","121.427783333333","25.0479633333333","6501600","泰山區"
"243011","KEA-2215","2018/06/29 19:39:15","新北市泰山區貴子路67巷2號","121.43092","25.0405433333333","6501600","泰山區"
"243010","KEA-2216","2018/06/29 19:39:17","新北市泰山區明志路二段7巷4號","121.430481666667","25.0534433333333","6501600","泰山區"
"243012","646-TV","2018/06/29 19:39:21","新北市泰山區仁愛路98號","121.433176666667","25.0550383333333","6501600","泰山區"
"243014","680-BX","2018/06/29 19:39:29","新北市泰山區仁愛路43號","121.43236","25.0553633333333","6501600","泰山區"
"222003","436-BY","2018/06/29 19:30:55","新北市深坑區深南路51-1號","121.621245","25.009835","6501800","深坑區"
"222002","659-BX","2018/06/29 19:39:11","新北市深坑區北深路一段177號","121.632528333333","25.0108516666667","6501800","深坑區"
"231041","002-UM","2018/06/29 19:39:28","新北市新店區中正路485號","121.533926666667","24.9819566666667","6500600","新店區"
"231059","046-UY","2018/06/29 19:39:24","新北市新店區安和路三段89號","121.517808333333","24.9839916666667","6500600","新店區"
"231040","047-UY","2018/06/29 19:39:24","新北市新店區中正路75巷71號","121.543145","24.96885","6500600","新店區"
"231044","106-UY","2018/06/29 19:39:25","新北市新店區北新路三段236號","121.54073","24.98527","6500600","新店區"
"231053","108-UY","2018/06/29 19:39:21","新北市新店區廣興路30-1號","121.540413333333","24.911645","6500600","新店區"
"231048","187-VK","2018/06/29 19:39:13","新北市新店區中興路一段288巷8號","121.546335","24.9687566666667","6500600","新店區"
"231046","188-VK","2018/06/29 19:39:13","新北市新店區自由街13號","121.535531666667","24.97486","6500600","新店區"
"231057","256-BX","2018/06/29 19:39:18","新北市新店區橘園一路11號","121.547996666667","24.9340233333333","6500600","新店區"
"231042","268-BY","2018/06/29 19:39:16","新北市新店區中興路一段203號","121.543611666667","24.965615","6500600","新店區"
"231051","278-BY","2018/06/29 19:39:23","新北市新店區中央路131號","121.530383333333","24.973875","6500600","新店區"
"231050","AAD-862","2018/06/29 19:39:26","新北市新店區秀水路19號","121.554796666667","24.9548733333333","6500600","新店區"
"231058","3713-VJ","2018/06/29 19:39:23","新北市新店區中正路102巷4號","121.543311666667","24.9709616666667","6500600","新店區"
"231066","4716-K9","2018/06/29 19:39:27","新北市新店區安康路三段207巷19號","121.488411666667","24.9507683333333","6500600","新店區"
"231056","4715-K9","2018/06/29 19:39:21","新北市新店區柴埕路116號","121.504245","24.9596666666667","6500600","新店區"
"231067","4772-VM","2018/06/29 19:39:17","新北市新店區薏仁坑路自強巷6號","121.496621666667","24.9585466666667","6500600","新店區"
"231065","512-UM","2018/06/29 19:39:14","新北市新店區安祥路109巷61號","121.477258333333","24.9599416666667","6500600","新店區"
"231049","513-UM","2018/06/29 19:39:08","新北市新店區大豐路60號","121.539661666667","24.97966","6500600","新店區"
"231045","617-UM","2018/06/29 19:39:19","新北市新店區北宜路二段431-5號","121.560931666667","24.9543083333333","6500600","新店區"
"231061","619-UM","2018/06/29 19:39:11","新北市新店區安民街9號","121.515255","24.964465","6500600","新店區"
"231063","641-BX","2018/06/29 19:39:16","新北市新店區達觀路30號","121.502106666667","24.940305","6500600","新店區"
"231064","719-UM","2018/06/29 19:39:29","新北市新店區安和路一段52巷2-1號","121.51766","24.9662733333333","6500600","新店區"
"231062","720-UM","2018/06/29 19:39:30","新北市新店區太平路25-6號","121.533651666667","24.95802","6500600","新店區"
"231060","897-TW","2018/06/29 19:39:11","新北市新店區安康路二段165號","121.510003333333","24.959375","6500600","新店區"
"231043","899-TW","2018/06/29 19:39:25","新北市新店區北新路二段82號","121.542993333333","24.972765","6500600","新店區"
"241011","013-R5","2018/06/29 19:39:14","新北市三重區秀江街186號","121.497808333333","25.0716283333333","6500200","三重區"
"241028","022-UY","2018/06/29 19:39:23","新北市三重區中正南路163號","121.493813333333","25.055985","6500200","三重區"
"241008","059-VK","2018/06/29 19:39:21","新北市三重區永福街74號","121.47892","25.0767566666667","6500200","三重區"
"241022","060-VK","2018/06/29 19:39:12","新北市三重區中正北路154號","121.484725","25.065795","6500200","三重區"
"241031","061-VK","2018/06/29 19:39:26","新北市三重區重新路四段244巷9號","121.486316666667","25.0534416666667","6500200","三重區"
"241015","062-VK","2018/06/29 19:39:07","新北市三重區福德北路30-1號","121.502036666667","25.0650583333333","6500200","三重區"
"241017","063-VK","2018/06/29 19:39:30","新北市三重區重陽路三段5巷15號","121.491215","25.0653383333333","6500200","三重區"
"241026","066-VK","2018/06/29 19:39:27","新北市三重區文化南路67號","121.500201666667","25.060835","6500200","三重區"
"241003","091-VK","2018/06/29 19:39:23","新北市三重區五華街93巷62號","121.493955","25.085115","6500200","三重區"
"241001","742-BX","2018/06/29 19:39:14","新北市三重區仁愛街315巷21號","121.493631666667","25.0797883333333","6500200","三重區"
"241009","267-UM","2018/06/29 19:39:26","新北市三重區三和路四段400巷15號","121.480528333333","25.07927","6500200","三重區"
"241032","269-UM","2018/06/29 19:39:28","新北市三重區三陽路106號","121.483298333333","25.05883","6500200","三重區"
"241013","270-UM","2018/06/29 19:38:52","新北市三重區仁賢街8號","121.495788333333","25.0746183333333","6500200","三重區"
"241007","398-BY","2018/06/29 19:39:27","新北市三重區三和路四段125巷72號","121.4872","25.078525","6500200","三重區"
"241035","KEA-2210","2018/06/29 19:39:22","新北市三重區正義北路61-1號","121.497341666667","25.0645383333333","6500200","三重區"
"241020","478-VK","2018/06/29 19:39:15","新北市三重區三和路四段20巷124號","121.488128333333","25.073115","6500200","三重區"
"241030","480-VK","2018/06/29 19:39:26","新北市三重區新興路32號","121.491925","25.05327","6500200","三重區"
"241014","543-UM","2018/06/29 19:39:28","新北市三重區長榮路131號","121.504125","25.069395","6500200","三重區"
"241023","545-UM","2018/06/29 19:39:10","新北市三重區忠孝路三段99巷21號","121.479433333333","25.064305","6500200","三重區"
"241019","KEA-2593","2018/06/29 19:39:23","新北市三重區六張街194巷1弄1號","121.488478333333","25.0682133333333","6500200","三重區"
"241006","AAD-863","2018/06/29 19:39:14","新北市三重區自強路三段110巷15-1號","121.486335","25.0751033333333","6500200","三重區"
"241025","743-BX","2018/06/29 19:35:21","新北市三重區頂崁街206巷1弄6號","121.476868333333","25.0669916666667","6500200","三重區"
"241012","941-UM","2018/06/29 19:39:21","新北市三重區河邊北街256巷27號","121.500671666667","25.0760183333333","6500200","三重區"
"241029","942-UM","2018/06/29 19:39:26","新北市三重區同安街139號","121.49328","25.0560733333333","6500200","三重區"
"235066","003-UY","2018/06/29 19:39:12","新北市中和區景新街135號","121.505935","24.997145","6500300","中和區"
"235064","005-UY","2018/06/29 19:39:20","新北市中和區南山路62-2號","121.502116666667","24.99652","6500300","中和區"
"235063","006-UY","2018/06/29 19:39:16","新北市中和區連城路170號","121.493435","24.9973866666667","6500300","中和區"
"235056","096-UM","2018/06/29 19:39:20","新北市中和區員山路581巷31弄22號","121.476631666667","25.0104","6500300","中和區"
"235003","097-UM","2018/06/29 19:39:24","新北市中和區大勇街8號","121.517105","24.992535","6500300","中和區"
"235065","098-UM","2018/06/29 19:39:15","新北市中和區中山路二段178巷3號","121.50079","25.0030083333333","6500300","中和區"
"235040","150-BY","2018/06/29 19:39:22","新北市中和區安平路38號","121.509683333333","24.994925","6500300","中和區"
"235058","151-BY","2018/06/29 19:39:17","新北市中和區連城路525號","121.481651666667","24.99513","6500300","中和區"
"235055","183-VK","2018/06/29 19:39:24","新北市中和區中山路三段181巷2號","121.472788333333","25.00596","6500300","中和區"
"235038","185-VK","2018/06/29 19:39:19","新北市中和區自強路27巷22號","121.521716666667","24.9932333333333","6500300","中和區"
"235049","186-VK","2018/06/29 19:39:11","新北市中和區明仁街11號","121.505991666667","24.9956266666667","6500300","中和區"
"235067","255-BX","2018/06/29 19:39:27","新北市中和區新生街186巷5弄3號","121.483021666667","24.99952","6500300","中和區"
"235044","293-VK","2018/06/29 19:39:19","新北市中和區南山路304號","121.507851666667","24.987005","6500300","中和區"
"235072","301-VK","2018/06/29 19:39:16","新北市中和區中正路432巷32號","121.491023333333","24.9958283333333","6500300","中和區"
"235043","352-BY","2018/06/29 19:39:20","新北市中和區捷運路6號","121.510173333333","24.989615","6500300","中和區"
"235042","KEA-2878","2018/06/29 19:39:13","新北市中和區中和路262巷33號","121.50965","24.9994366666667","6500300","中和區"
"235050","4979-A6","2018/06/29 19:39:25","新北市中和區錦和路350-1號","121.490475","24.9935483333333","6500300","中和區"
"235070","558-UM","2018/06/29 19:39:21","新北市中和區景平路541號","121.498741666667","24.99941","6500300","中和區"
"235045","565-BX","2018/06/29 19:39:23","新北市中和區景新街487號","121.513715","24.987275","6500300","中和區"
"235054","640-BX","2018/06/29 19:39:14","新北市中和區國光街102巷6號","121.470343333333","25.0004933333333","6500300","中和區"
"235060","647-TV","2018/06/29 19:39:21","新北市中和區中山路二段523巷41號","121.482203333333","25.0031633333333","6500300","中和區"
"235046","733-UM","2018/06/29 19:39:18","新北市中和區四維街13號","121.513203333333","24.9872116666667","6500300","中和區"
"235071","783-BX","2018/06/29 19:39:11","新北市中和區中正路803號","121.484911666667","25.0012333333333","6500300","中和區"
"235057","801-TS","2018/06/29 19:39:09","新北市中和區員山路317號","121.48118","25.0004683333333","6500300","中和區"
"235041","802-TS","2018/06/29 19:39:17","新北市中和區中和路460號","121.512215","25.0038266666667","6500300","中和區"
"235052","805-TS","2018/06/29 19:39:29","新北市中和區華新街192巷19號","121.506411666667","24.9828083333333","6500300","中和區"
"235048","896-TW","2018/06/29 19:39:23","新北市中和區忠孝街1巷2-1號","121.509073333333","24.9830683333333","6500300","中和區"
"235053","900-TW","2018/06/29 19:39:20","新北市中和區國光街213號","121.466481666667","25.0017583333333","6500300","中和區"
"235051","157-BY","2018/06/29 19:39:26","新北市中和區中興街132巷28弄1號","121.498695","24.9915366666667","6500300","中和區"
"235037","AAC-213","2018/06/29 19:39:20","新北市中和區秀朗路三段60巷9號","121.525646666667","24.995015","6500300","中和區"
"235059","AAC-215","2018/06/29 19:39:09","新北市中和區圓通路282號","121.491546666667","24.99057","6500300","中和區"
"220065","072-UY","2018/06/29 19:39:15","新北市板橋區國泰街39巷5弄6號","121.46864","25.0060383333333","6500100","板橋區"
"220106","075-UY","2018/06/29 19:39:27","新北市板橋區民治街26巷21號","121.477355","25.0336166666667","6500100","板橋區"
"220069","AAD-861","2018/06/29 19:39:13","新北市板橋區貴興路106巷3號","121.45531","25.0025933333333","6500100","板橋區"
"247004","337-TH","2018/06/29 19:39:10","新北市蘆洲區長安街102巷26號","121.462883333333","25.0820383333333","6501400","蘆洲區"
"247008","056-VK","2018/06/29 19:39:27","新北市蘆洲區中山一路185號","121.474723333333","25.0812516666667","6501400","蘆洲區"
"226004","205-ST","2018/06/29 19:39:28","新北市平溪區十分里十分街306號","121.7759","25.0439283333333","6502400","平溪區"
"235047","251-BX","2018/06/29 19:39:22","新北市中和區南山路231號","121.503608333333","24.9933533333333","6500300","中和區"
"228001","670-TC","2018/06/29 19:39:24","新北市貢寮區真理里延平街49號","121.924693333333","25.05561","6502600","貢寮區"
"228003","828-UM","2018/06/29 19:39:16","新北市貢寮區真理里美艷山街15-3號","121.923723333333","25.0680183333333","6502600","貢寮區"
"224010","AGQ-8101","2018/06/29 19:37:18","新北市瑞芳區烏勢巷145號","121.847916666667","25.1091333333333","6501200","瑞芳區"
"224002","639-TC","2018/06/29 19:39:11","新北市瑞芳區民享新村23號","121.81716","25.105525","6501200","瑞芳區"
"227003","642-TC","2018/06/29 19:39:18","新北市雙溪區雙溪里太平路71號","121.865091666667","25.0359366666667","6502500","雙溪區"
"227011","400-TW","2018/06/29 19:39:22","新北市雙溪區新基里新基北街20號","121.867175","25.0388966666667","6502500","雙溪區"
"253006","295-VK","2018/06/29 19:39:09","新北市石門區小坑9號","121.594408333333","25.2883866666667","6502200","石門區"
"222001","KEA-2212","2018/06/29 19:39:22","新北市深坑區深坑街152號","121.612938333333","25.0014083333333","6501800","深坑區"
"208002","KEA-2872","2018/06/29 19:39:07","新北市金山區中山路313巷9號","121.63536","25.2232983333333","6502700","金山區"
"208003","665-BX","2018/06/29 19:39:19","新北市金山區中山路158號","121.638516666667","25.2208966666667","6502700","金山區"
"208001","761-BX","2018/06/29 19:39:10","新北市金山區南勢湖11號","121.62137","25.219385","6502700","金山區"
"251005","010-UM","2018/06/29 19:39:23","新北市淡水區原德路108巷2號","121.443305","25.1735366666667","6501000","淡水區"
"251010","413-VK","2018/06/29 19:39:17","新北市淡水區濱海路二段202巷27號","121.435178333333","25.1933533333333","6501000","淡水區"
"251012","441-VK","2018/06/29 19:39:26","新北市淡水區中山北路三段138號","121.445641666667","25.195305","6501000","淡水區"
"251007","442-VK","2018/06/29 19:39:21","新北市淡水區中正東路一段111巷16號","121.454818333333","25.160855","6501000","淡水區"
"251001","559-UM","2018/06/29 19:39:17","新北市淡水區民權路59號","121.459798333333","25.1388183333333","6501000","淡水區"
"251006","561-UM","2018/06/29 19:39:24","新北市淡水區中山北路一段247巷118號","121.44159","25.17954","6501000","淡水區"
"251009","575-R6","2018/06/29 19:39:15","新北市淡水區中山北路一段198巷15號","121.445435","25.1793433333333","6501000","淡水區"
"251011","650-BX","2018/06/29 19:39:17","新北市淡水區中正東路二段5巷17號","121.460176666667","25.159085","6501000","淡水區"
"207003","291-VK","2018/06/29 19:39:16","新北市萬里區大鵬里下社41-1號","121.649138333333","25.216395","6502800","萬里區"
"207004","225-TW","2018/06/29 19:39:23","新北市萬里區萬里里瑪鋉路11號","121.687195","25.1753433333333","6502800","萬里區"
"252002","178-VK","2018/06/29 19:39:25","新北市三芝區中正路一段18巷54號","121.504218333333","25.2587233333333","6502100","三芝區"
"252001","292-VK","2018/06/29 19:39:08","新北市三芝區公正街9號","121.499763333333","25.2574683333333","6502100","三芝區"
"237004","KEA-2597","2018/06/29 19:39:19","新北市三峽區有木2-2號","121.41878","24.8659033333333","6500900","三峽區"
"237007","153-BY","2018/06/29 19:39:12","新北市三峽區二鬮路136巷113號","121.355758333333","24.910125","6500900","三峽區"
"237009","210-TH","2018/06/29 19:39:19","新北市三峽區中園街117號","121.367645","24.9242116666667","6500900","三峽區"
"237013","252-BX","2018/06/29 19:39:08","新北市三峽區介壽路一段361號","121.382506666667","24.93056","6500900","三峽區"
"237012","275-BY","2018/06/29 19:39:17","新北市三峽區光明路35號","121.373703333333","24.9308383333333","6500900","三峽區"
"237008","302-VK","2018/06/29 19:39:23","新北市三峽區中正路一段292巷14號","121.370943333333","24.9260333333333","6500900","三峽區"
"237014","433-BY","2018/06/29 19:39:28","新北市三峽區嘉添87號","121.368935","24.90984","6500900","三峽區"
"237006","5529-G3","2018/06/29 19:39:08","新北市三峽區中正路一段336巷15弄2號","121.369968333333","24.924975","6500900","三峽區"
"237016","649-BX","2018/06/29 19:39:24","新北市三峽區溪東路218巷5弄1號","121.40717","24.9309466666667","6500900","三峽區"
"237005","AKY-6261","2018/06/29 19:39:24","新北市三峽區中山路136號","121.365326666667","24.9361166666667","6500900","三峽區"
"236069","105-UM","2018/06/29 19:39:13","新北市土城區金城路一段112號","121.446051666667","24.974925","6501300","土城區"
"236042","107-UM","2018/06/29 19:39:08","新北市土城區裕民路244號","121.454135","24.9833566666667","6501300","土城區"
"236079","166-UM","2018/06/29 19:39:15","新北市土城區中央路四段326號","121.413521666667","24.9557116666667","6501300","土城區"
"236030","253-BX","2018/06/29 19:39:28","新北市土城區福祥街64號","121.441535","24.98157","6501300","土城區"
"236026","269-VK","2018/06/29 19:39:13","新北市土城區中央路二段61巷28號","121.443396666667","24.978815","6501300","土城區"
"236039","271-VK","2018/06/29 19:39:21","新北市土城區青雲路257巷8號","121.459673333333","24.980735","6501300","土城區"
"236020","401-BY","2018/06/29 19:39:20","新北市土城區明峰街83號","121.468866666667","24.9873716666667","6501300","土城區"
"236059","912-UM","2018/06/29 19:39:14","新北市土城區中央路二段63號","121.442758333333","24.97901","6501300","土城區"
"236048","913-UM","2018/06/29 19:39:19","新北市土城區明德路一段71號","121.46552","24.98341","6501300","土城區"
"236063","915-UM","2018/06/29 19:39:14","新北市土城區延平街65號","121.467746666667","24.992775","6501300","土城區"
"236055","AAC-216","2018/06/29 19:39:16","新北市土城區學府路一段70號","121.456793333333","24.9882716666667","6501300","土城區"
"242029","612-BX","2018/06/29 19:39:26","新北市新莊區新泰路357巷3弄57號","121.44219","25.0393533333333","6500500","新莊區"
"242037","415-TV","2018/06/29 19:39:09","新北市新莊區民安路207巷10弄3號","121.426833333333","25.0228883333333","6500500","新莊區"
"242007","413-TV","2018/06/29 19:39:24","新北市新莊區中央路232號","121.454391666667","25.05881","6500500","新莊區"
"242023","362-BY","2018/06/29 19:39:09","新北市新莊區復興路三段117號","121.464461666667","25.0445283333333","6500500","新莊區"
"242039","133-UY","2018/06/29 19:39:26","新北市新莊區建國二路83-14號","121.430835","25.0255833333333","6500500","新莊區"
"242032","135-UY","2018/06/29 19:39:22","新北市新莊區公園一路140號","121.446385","25.0381433333333","6500500","新莊區"
"242048","172-VK","2018/06/29 19:39:11","新北市新莊區民安路37巷3號","121.42381","25.0269383333333","6500500","新莊區"
"242011","173-VK","2018/06/29 19:39:15","新北市新莊區新泰路255巷83號","121.442188333333","25.0388533333333","6500500","新莊區"
"242005","176-VK","2018/06/29 19:39:14","新北市新莊區化成路29巷63號","121.462356666667","25.0440016666667","6500500","新莊區"
"238015","755-BX","2018/06/29 19:39:18","新北市樹林區中山路一段108巷29號","121.421926666667","24.991295","6500700","樹林區"
"238023","601-UM","2018/06/29 19:39:12","新北市樹林區三福街166號","121.404746666667","25.0159483333333","6500700","樹林區"
"238024","5061-A6","2018/06/29 19:39:16","新北市樹林區育德街78-1號","121.388433333333","24.9682133333333","6500700","樹林區"
"238022","KEA-2213","2018/06/29 19:39:08","新北市樹林區名園街51巷6弄6號","121.420603333333","24.978235","6500700","樹林區"
"238021","KEA-2539","2018/06/29 19:39:21","新北市樹林區佳園路三段113巷2號","121.386753333333","24.9507533333333","6500700","樹林區"
"238025","303-VK","2018/06/29 19:39:29","新北市樹林區大安路593號","121.411603333333","24.9830633333333","6500700","樹林區"
"238017","283-BY","2018/06/29 19:39:15","新北市樹林區保安街二段45巷29-6號","121.413631666667","25.0001416666667","6500700","樹林區"
"238014","282-BY","2018/06/29 19:39:24","新北市樹林區千歲街46巷3號","121.426368333333","24.9967316666667","6500700","樹林區"
"238020","268-VK","2018/06/29 19:39:13","新北市樹林區中正路241號","121.430161666667","24.9988683333333","6500700","樹林區"
"239006","891-R6","2018/06/29 19:39:17","新北市鶯歌區永昌街1號","121.343173333333","24.9497483333333","6500800","鶯歌區"
"221008","489-VK","2018/06/29 19:39:23","新北市汐止區康寧街61巷47號","121.619681666667","25.067615","6501100","汐止區"
"221036","130-UY","2018/06/29 19:39:22","新北市汐止區康寧街901號","121.650738333333","25.07533","6501100","汐止區"
"221015","131-UY","2018/06/29 19:39:13","新北市汐止區康寧街901號","121.651606666667","25.0749483333333","6501100","汐止區"
"221010","269-BY","2018/06/29 19:39:16","新北市汐止區汐萬路一段357號","121.64998","25.07771","6501100","汐止區"
"221012","278-VK","2018/06/29 19:39:25","新北市汐止區大同路三段481號","121.679778333333","25.0710616666667","6501100","汐止區"
"221023","279-VK","2018/06/29 19:39:26","新北市汐止區中興路250號","121.629185","25.0685466666667","6501100","汐止區"
"221027","281-BY","2018/06/29 19:39:24","新北市汐止區忠孝東路9號","121.65838","25.065925","6501100","汐止區"
"221029","298-VK","2018/06/29 19:39:12","新北市汐止區汐萬路一段278巷5號","121.65148","25.07478","6501100","汐止區"
"221021","299-VK","2018/06/29 19:39:10","新北市汐止區新台五路一段131號","121.65227","25.062145","6501100","汐止區"
"221031","353-TW","2018/06/29 19:39:22","新北市汐止區康寧街901號","121.650856666667","25.0752683333333","6501100","汐止區"
"221025","623-UM","2018/06/29 19:39:23","新北市汐止區福安街20巷8號","121.662336666667","25.0648666666667","6501100","汐止區"
"221038","646-BX","2018/06/29 19:39:28","新北市汐止區忠孝東路227號","121.662388333333","25.067045","6501100","汐止區"
"221033","647-BX","2018/06/29 19:39:10","新北市汐止區南勢街3號","121.627051666667","25.03739","6501100","汐止區"
"221002","707-TV","2018/06/29 19:39:13","新北市汐止區大同路一段219巷27號","121.633285","25.05834","6501100","汐止區"
"220079","145-BY","2018/06/29 19:39:18","新北市板橋區建國街54巷44號","121.460093333333","25.0170216666667","6500100","板橋區"
"220080","200-UY","2018/06/29 19:39:28","新北市板橋區大觀路二段153巷46弄42號","121.449286666667","25.00021","6500100","板橋區"
"220082","610-BX","2018/06/29 19:38:57","新北市板橋區存德街40巷24弄52號","121.43045","24.9916283333333","6500100","板橋區"
"220101","245-BX","2018/06/29 19:39:20","新北市板橋區莒光路180巷23號","121.473098333333","25.0227216666667","6500100","板橋區"
"220091","267-BY","2018/06/29 19:39:18","新北市板橋區懷德街168號","121.479125","25.0303866666667","6500100","板橋區"
"220056","276-BY","2018/06/29 19:39:26","新北市板橋區四川路二段47巷3弄2號","121.454268333333","24.99459","6500100","板橋區"
"220072","277-BY","2018/06/29 19:39:26","新北市板橋區金門街151巷25號","121.434033333333","24.9902733333333","6500100","板橋區"
"220071","283-VK","2018/06/29 19:39:15","新北市板橋區廣權路79號","121.463958333333","24.9923666666667","6500100","板橋區"
"220094","285-UM","2018/06/29 19:39:14","新北市板橋區銘傳街104號","121.469886666667","25.0317833333333","6500100","板橋區"
"220053","285-VK","2018/06/29 19:39:11","新北市板橋區中山路二段253號","121.477375","25.0175233333333","6500100","板橋區"
"220083","286-VK","2018/06/29 19:39:22","新北市板橋區龍興街63巷37號","121.442043333333","25.00175","6500100","板橋區"
"220081","287-VK","2018/06/29 19:39:08","新北市板橋區大觀路一段29巷131弄21號","121.450585","25.0048183333333","6500100","板橋區"
"220090","288-VK","2018/06/29 19:39:10","新北市板橋區長江路一段127號","121.460315","25.03002","6500100","板橋區"
"220061","293-UM","2018/06/29 19:39:20","新北市板橋區漢生東路111-2號","121.46735","25.0152116666667","6500100","板橋區"
"220062","295-UM","2018/06/29 19:39:19","新北市板橋區三民路二段29巷7號","121.481643333333","25.01808","6500100","板橋區"
"220084","296-UM","2018/06/29 19:39:15","新北市板橋區溪崑二街118巷2號","121.426146666667","24.9883416666667","6500100","板橋區"
"220075","303-R5","2018/06/29 19:39:26","新北市板橋區中正路229號","121.456045","25.0178533333333","6500100","板橋區"
"220092","307-R5","2018/06/29 19:39:14","新北市板橋區文化路一段387巷1號","121.466811666667","25.0219283333333","6500100","板橋區"
"220098","317-R6","2018/06/29 19:39:26","新北市板橋區四維路269巷25號","121.46229","25.0278633333333","6500100","板橋區"
"220055","461-BY","2018/06/29 19:39:24","新北市板橋區國慶路149巷13弄2號","121.4609","24.997145","6500100","板橋區"
"220064","486-VK","2018/06/29 19:39:08","新北市板橋區民權路31號","121.462471666667","25.01101","6500100","板橋區"
"242013","280-VK","2018/06/29 19:39:22","新北市新莊區中誠街119號","121.449411666667","25.0474966666667","6500500","新莊區"
"220088","491-VK","2018/06/29 19:39:20","新北市板橋區仁化街139號","121.477396666667","25.03295","6500100","板橋區"
"220035","560-BX","2018/06/29 19:39:23","新北市板橋區金華街85巷19號","121.458323333333","25.02144","6500100","板橋區"
"220103","561-BX","2018/06/29 19:39:17","新北市板橋區陽明街27巷15號","121.465506666667","25.0212383333333","6500100","板橋區"
"220063","609-BX","2018/06/29 19:39:27","新北市板橋區中山路二段555號","121.483956666667","25.0217016666667","6500100","板橋區"
"220086","630-UY","2018/06/29 19:39:21","新北市板橋區館前西路160巷6號","121.452638333333","25.008865","6500100","板橋區"
"220057","686-BX","2018/06/29 19:39:12","新北市板橋區和平路安樂巷31號","121.461783333333","24.9934616666667","6500100","板橋區"
"220093","689-BX","2018/06/29 19:39:11","新北市板橋區長江路一段91號","121.459076666667","25.0294733333333","6500100","板橋區"
"220054","741-BX","2018/06/29 19:39:21","新北市板橋區忠孝路239巷43號","121.467411666667","25.003705","6500100","板橋區"
"220102","KEA-2699","2018/06/29 19:39:19","新北市板橋區松柏街25號","121.474891666667","25.0301666666667","6500100","板橋區"
"220077","806-UM","2018/06/29 19:39:22","新北市板橋區僑中一街125巷1號","121.445691666667","25.011695","6500100","板橋區"
"220067","829-TW","2018/06/29 19:39:28","新北市板橋區長安街138巷1弄23號","121.473501666667","25.0099016666667","6500100","板橋區"
"220068","830-TW","2018/06/29 19:39:15","新北市板橋區中山路二段541號","121.483698333333","25.0217083333333","6500100","板橋區"
"220096","831-TW","2018/06/29 19:39:17","新北市板橋區民生路二段240巷36號","121.469323333333","25.0228533333333","6500100","板橋區"
"220089","833-TW","2018/06/29 19:39:25","新北市板橋區英士路39號","121.461565","25.0249633333333","6500100","板橋區"
"220074","895-R6","2018/06/29 19:39:20","新北市板橋區大東街44號","121.456373333333","25.0084516666667","6500100","板橋區"
"220073","985-R7","2018/06/29 19:39:25","新北市板橋區中正路170號","121.456518333333","25.0172383333333","6500100","板橋區"
"220097","AAC-210","2018/06/29 19:39:22","新北市板橋區幸福路30號","121.461693333333","25.02027","6500100","板橋區"
"220070","AAC-253","2018/06/29 19:39:10","新北市板橋區民族路67號","121.465463333333","25.008625","6500100","板橋區"
"235068","KEA-2873","2018/06/29 19:39:10","新北市中和區廟美街17號","121.5002","25.0023516666667","6500300","中和區"
"235061","KEA-2875","2018/06/29 19:39:02","新北市中和區民利街50號","121.47931","24.998855","6500300","中和區"
