"lineid","car","time","location","longitude","latitude","cityid","cityname"
"234081","298-R6","2018/06/29 20:29:17","新北市永和區永貞路25號","121.521005","25.0068766666667","6500400","永和區"
"234038","336-UY","2018/06/29 20:29:16","新北市永和區民樂街31巷19弄7號","121.528258333333","25.0020166666667","6500400","永和區"
"234064","337-UY","2018/06/29 20:29:08","新北市永和區中正路526號","121.517221666667","25.0050316666667","6500400","永和區"
"234086","338-UY","2018/06/29 20:29:11","新北市永和區光復街13號","121.516421666667","25.017145","6500400","永和區"
"234070","552-UM","2018/06/29 20:29:11","新北市永和區永亨路6-1號","121.519368333333","25.0055983333333","6500400","永和區"
"234030","746-BX","2018/06/29 20:29:13","新北市永和區民有街25巷10號","121.517451666667","24.9965466666667","6500400","永和區"
"234054","KEA-2590","2018/06/29 20:29:20","新北市永和區環河東路一段80號","121.519563333333","25.0164766666667","6500400","永和區"
"234061","AAD-866","2018/06/29 20:29:14","新北市永和區安樂路194巷39弄6號","121.51634","25.0014233333333","6500400","永和區"
"234042","862-TW","2018/06/29 20:29:12","新北市永和區安樂路270號","121.514465","25.00417","6500400","永和區"
"234050","863-TW","2018/06/29 20:29:18","新北市永和區新生路118巷1弄13號","121.506733333333","25.0144666666667","6500400","永和區"
"249001","173-UM","2018/06/29 20:29:11","新北市八里區中山路三段135號","121.388168333333","25.14242","6502300","八里區"
"249004","303-UY","2018/06/29 20:29:08","新北市八里區中山路一段286號","121.413846666667","25.15965","6502300","八里區"
"249002","305-UY","2018/06/29 20:29:05","新北市八里區龍米路二段125巷23號","121.44584","25.14554","6502300","八里區"
"249003","593-UM","2018/06/29 20:29:12","新北市八里區華峰一街49號","121.398615","25.1462633333333","6502300","八里區"
"248002","678-BX","2018/06/29 20:29:25","新北市五股區新五路二段367號","121.444113333333","25.0880616666667","6501500","五股區"
"234023","9380-KE","2018/06/29 20:29:14","新北市永和區博愛街31巷2號","121.518551666667","25.0158483333333","6500400","永和區"
"234077","969-R7","2018/06/29 20:29:22","新北市中和區安平路7-2號","121.508955","24.993545","6500400","永和區"
"234074","AAC-211","2018/06/29 20:29:24","新北市永和區豫溪街191巷7弄17號","121.523348333333","25.010875","6500400","永和區"
"234067","AAC-212","2018/06/29 20:29:10","新北市永和區保平路292巷46弄2號","121.507443333333","25.0053516666667","6500400","永和區"
"243013","AAD-798","2018/06/29 20:29:24","新北市泰山區明志路二段254號","121.426976666667","25.0475883333333","6501600","泰山區"
"243009","297-R6","2018/06/29 20:29:08","新北市泰山區忠孝街16巷21號","121.428318333333","25.0650866666667","6501600","泰山區"
"243016","380-SR","2018/06/29 20:29:21","新北市泰山區明志路二段420號","121.424953333333","25.0437583333333","6501600","泰山區"
"243015","421-VK","2018/06/29 20:29:19","新北市泰山區泰林路二段244號","121.432115","25.0621433333333","6501600","泰山區"
"243011","KEA-2215","2018/06/29 20:29:14","新北市泰山區德安街9號","121.419473333333","25.0318766666667","6501600","泰山區"
"243010","KEA-2216","2018/06/29 20:29:17","新北市泰山區新生路25巷15號","121.427666666667","25.0462116666667","6501600","泰山區"
"243012","646-TV","2018/06/29 20:29:21","新北市泰山區忠孝街17巷1號","121.427548333333","25.0650583333333","6501600","泰山區"
"243014","680-BX","2018/06/29 20:29:09","新北市泰山區泰林路二段2-10號","121.41995","25.064995","6501600","泰山區"
"222003","436-BY","2018/06/29 20:29:22","新北市深坑區深坑街47號","121.615363333333","25.0018533333333","6501800","深坑區"
"222002","659-BX","2018/06/29 20:29:11","新北市深坑區萬福路55號","121.59987","25.0070266666667","6501800","深坑區"
"231041","002-UM","2018/06/29 20:29:08","新北市新店區中正路501-4號","121.5337","24.9838533333333","6500600","新店區"
"231059","046-UY","2018/06/29 20:29:18","新北市新店區安德街173號","121.508793333333","24.9589133333333","6500600","新店區"
"231040","047-UY","2018/06/29 20:29:24","新北市新店區中正路327號","121.536278333333","24.97515","6500600","新店區"
"231044","106-UY","2018/06/29 20:29:25","新北市新店區建國路139號","121.539171666667","24.978535","6500600","新店區"
"231053","108-UY","2018/06/29 20:29:21","新北市新店區松林路38號","121.5463","24.91025","6500600","新店區"
"231048","187-VK","2018/06/29 20:29:13","新北市新店區寶慶街58巷21-1號","121.541975","24.98727","6500600","新店區"
"231054","KEA-2219","2018/06/29 20:29:14","新北市新店區檳榔路109號","121.544415","24.9617233333333","6500600","新店區"
"231057","256-BX","2018/06/29 20:29:18","新北市新店區花園五路二段3號","121.553576666667","24.9341866666667","6500600","新店區"
"231042","268-BY","2018/06/29 20:29:16","新北市新店區寶橋路156-1號","121.548566666667","24.9769483333333","6500600","新店區"
"231051","278-BY","2018/06/29 20:29:23","新北市新店區中央路200號","121.530525","24.9743366666667","6500600","新店區"
"231050","AAD-862","2018/06/29 20:29:26","新北市新店區建興街9巷1號","121.539911666667","24.9763483333333","6500600","新店區"
"231058","3713-VJ","2018/06/29 20:29:12","新北市新店區自由街29號","121.53486","24.9742033333333","6500600","新店區"
"231066","4716-K9","2018/06/29 20:29:07","新北市新店區安民街121巷12號","121.5152","24.9693783333333","6500600","新店區"
"231056","4715-K9","2018/06/29 20:29:21","新北市新店區中正路457號","121.53366","24.9801516666667","6500600","新店區"
"231065","512-UM","2018/06/29 20:29:14","新北市新店區安祥路102巷30弄9號","121.48447","24.96364","6500600","新店區"
"231049","513-UM","2018/06/29 20:29:08","新北市新店區華潭街52號","121.529313333333","24.955135","6500600","新店區"
"231045","617-UM","2018/06/29 20:29:19","新北市新店區長春路21巷2號","121.548695","24.957185","6500600","新店區"
"231061","619-UM","2018/06/29 20:29:12","新北市新店區新和街33號","121.51904","24.9847333333333","6500600","新店區"
"231063","641-BX","2018/06/29 20:29:16","新北市新店區安康路三段51號","121.492453333333","24.9523183333333","6500600","新店區"
"231068","718-UY","2018/06/29 20:29:13","新北市新店區中興路三段223號","121.543071666667","24.9829733333333","6500600","新店區"
"231064","719-UM","2018/06/29 20:29:09","新北市新店區新和街82號","121.520476666667","24.9857983333333","6500600","新店區"
"231062","720-UM","2018/06/29 20:29:22","新北市新店區安泰路19巷1號","121.485401666667","24.94953","6500600","新店區"
"231060","897-TW","2018/06/29 20:29:11","新北市新店區錦秀路56號","121.479015","24.9431733333333","6500600","新店區"
"231043","899-TW","2018/06/29 20:29:11","新北市新店區建國路94號","121.540115","24.97758","6500600","新店區"
"241011","013-R5","2018/06/29 20:29:14","新北市三重區龍門路21號","121.495398333333","25.071825","6500200","三重區"
"241028","022-UY","2018/06/29 20:29:23","新北市三重區光興街89號","121.497448333333","25.059955","6500200","三重區"
"241008","059-VK","2018/06/29 20:29:21","新北市三重區聯華街143號","121.48436","25.0751033333333","6500200","三重區"
"241022","060-VK","2018/06/29 20:29:12","新北市三重區中正北路20巷9號","121.488103333333","25.0629133333333","6500200","三重區"
"241031","061-VK","2018/06/29 20:29:26","新北市三重區三寧街25號","121.48952","25.059845","6500200","三重區"
"241015","062-VK","2018/06/29 20:29:07","新北市三重區長元街2-2號","121.498753333333","25.0658233333333","6500200","三重區"
"241017","063-VK","2018/06/29 20:29:21","新北市三重區自強路一段288號","121.491603333333","25.06817","6500200","三重區"
"241024","065-VK","2018/06/29 20:29:11","新北市三重區中正北路276巷19號","121.480243333333","25.0674816666667","6500200","三重區"
"241026","066-VK","2018/06/29 20:29:27","新北市三重區環河南路9號","121.50393","25.0631","6500200","三重區"
"241002","090-VK","2018/06/29 20:29:04","新北市三重區仁義街211巷64號","121.49863","25.0829366666667","6500200","三重區"
"241003","091-VK","2018/06/29 20:29:23","新北市三重區富華街153號","121.493108333333","25.0848833333333","6500200","三重區"
"241001","742-BX","2018/06/29 20:29:14","新北市三重區自強路四段5號","121.488626666667","25.0763116666667","6500200","三重區"
"241005","262-UM","2018/06/29 20:29:24","新北市三重區五華街131號","121.491093333333","25.0843","6500200","三重區"
"241016","266-UM","2018/06/29 20:29:22","新北市三重區正義北路113號","121.496835","25.065685","6500200","三重區"
"241009","267-UM","2018/06/29 20:29:06","新北市三重區永福街87號","121.479831666667","25.07761","6500200","三重區"
"241018","268-UM","2018/06/29 20:29:27","新北市三重區正義北路185號","121.496341666667","25.0676583333333","6500200","三重區"
"241032","269-UM","2018/06/29 20:29:08","新北市三重區重陽路一段120巷48號","121.485035","25.0601366666667","6500200","三重區"
"241013","270-UM","2018/06/29 20:29:21","新北市三重區溪尾街8號","121.491481666667","25.0744533333333","6500200","三重區"
"241007","398-BY","2018/06/29 20:29:07","新北市三重區自強路四段45號","121.489536666667","25.07761","6500200","三重區"
"241035","KEA-2210","2018/06/29 20:29:22","新北市三重區正義北路32-1號","121.49747","25.0634466666667","6500200","三重區"
"241004","475-VK","2018/06/29 20:29:09","新北市三重區溪尾街253號","121.487851666667","25.0816116666667","6500200","三重區"
"241020","478-VK","2018/06/29 20:29:15","新北市三重區明德街7號","121.493011666667","25.072425","6500200","三重區"
"241030","480-VK","2018/06/29 20:29:26","新北市三重區成功路70號","121.488485","25.050905","6500200","三重區"
"241014","543-UM","2018/06/29 20:29:08","新北市三重區長興街106號","121.50189","25.0692466666667","6500200","三重區"
"241023","545-UM","2018/06/29 20:29:10","新北市三重區自由街17巷1號","121.479903333333","25.0666566666667","6500200","三重區"
"241019","KEA-2593","2018/06/29 20:29:11","新北市三重區重陽路四段77號","121.492531666667","25.0709583333333","6500200","三重區"
"241006","AAD-863","2018/06/29 20:29:14","新北市三重區車路頭街139巷12號","121.484273333333","25.0763183333333","6500200","三重區"
"241025","743-BX","2018/06/29 20:16:21","新北市三重區三民街272巷22號","121.478736666667","25.0677016666667","6500200","三重區"
"241012","941-UM","2018/06/29 20:29:21","新北市三重區龍濱路269號","121.501468333333","25.0729433333333","6500200","三重區"
"241029","942-UM","2018/06/29 20:29:16","新北市三重區集美街112巷1號","121.488891666667","25.05398","6500200","三重區"
"241033","AAC-255","2018/06/29 20:29:17","新北市三重區五谷王北街80巷59號","121.474608333333","25.0531266666667","6500200","三重區"
"235066","003-UY","2018/06/29 20:29:12","新北市中和區保平路362巷11號","121.505851666667","25.0039916666667","6500300","中和區"
"235050","4979-A6","2018/06/29 20:29:25","新北市中和區景新街162號","121.505738333333","24.9971833333333","6500300","中和區"
"235069","4980-A6","2018/06/29 20:29:18","新北市中和區連城路347巷18弄36號","121.4872","24.994735","6500300","中和區"
"235059","AAC-215","2018/06/29 20:29:09","新北市中和區員山路37-8號","121.48213","24.9902066666667","6500300","中和區"
"247024","893-R6","2018/06/29 20:29:11","新北市蘆洲區光復路70巷19號","121.464805","25.0852516666667","6501400","蘆洲區"
"247014","546-UM","2018/06/29 20:29:11","新北市蘆洲區中山二路135號","121.472015","25.08161","6501400","蘆洲區"
"247022","500-BY","2018/06/29 20:29:26","新北市蘆洲區中正路263巷2號","121.467176666667","25.087615","6501400","蘆洲區"
"247010","341-TH","2018/06/29 20:29:25","新北市蘆洲區民族路65號","121.479075","25.0857783333333","6501400","蘆洲區"
"247012","339-TH","2018/06/29 20:29:19","新北市蘆洲區復興路239號","121.480311666667","25.0899516666667","6501400","蘆洲區"
"247004","337-TH","2018/06/29 20:29:10","新北市蘆洲區長安街301號","121.458001666667","25.0849066666667","6501400","蘆洲區"
"247006","336-TH","2018/06/29 20:29:24","新北市蘆洲區光華路175巷48號","121.465478333333","25.0810416666667","6501400","蘆洲區"
"247018","057-VK","2018/06/29 20:29:28","新北市蘆洲區民族路386號","121.475353333333","25.0913683333333","6501400","蘆洲區"
"247008","056-VK","2018/06/29 20:29:27","新北市三重區永安北路二段105號","121.483176666667","25.0839916666667","6501400","蘆洲區"
"247016","007-UY","2018/06/29 20:29:14","新北市蘆洲區光華路57號","121.46838","25.082815","6501400","蘆洲區"
"247002","002-UY","2018/06/29 20:29:27","新北市蘆洲區長安街361巷32號","121.455785","25.087705","6501400","蘆洲區"
"247020","001-UY","2018/06/29 20:29:13","新北市蘆洲區水湳街395號","121.46935","25.09457","6501400","蘆洲區"
"222001","KEA-2212","2018/06/29 20:29:22","新北市深坑區北深路三段329號","121.597265","25.0051766666667","6501800","深坑區"
"251010","413-VK","2018/06/29 20:29:17","新北市淡水區沙崙路181巷15號","121.423876666667","25.1843683333333","6501000","淡水區"
"251012","441-VK","2018/06/29 20:29:26","新北市淡水區興仁路108號","121.451676666667","25.2181516666667","6501000","淡水區"
"251001","559-UM","2018/06/29 20:29:12","新北市淡水區淡金路一段571號","121.45258","25.18079","6501000","淡水區"
"251006","561-UM","2018/06/29 20:29:25","新北市淡水區商工路329號","121.464005","25.1859516666667","6501000","淡水區"
"251009","575-R6","2018/06/29 20:29:15","新北市淡水區中正東路一段43號","121.452248333333","25.1629216666667","6501000","淡水區"
"251003","673-BX","2018/06/29 20:29:13","新北市淡水區新生街108巷1號","121.440198333333","25.1747133333333","6501000","淡水區"
"252002","178-VK","2018/06/29 20:29:24","新北市三芝區淡金路二段47-2號","121.503691666667","25.2605416666667","6502100","三芝區"
"252001","292-VK","2018/06/29 20:29:08","新北市三芝區中山路一段14號","121.500761666667","25.2580983333333","6502100","三芝區"
"242034","AAC-296","2018/06/29 20:29:27","新北市新莊區公園一路148號","121.446736666667","25.0384316666667","6500500","新莊區"
"242058","986-R7","2018/06/29 20:29:11","新北市新莊區四維路213號","121.42159","25.0200283333333","6500500","新莊區"
"242054","751-BX","2018/06/29 20:29:21","新北市新莊區民安西路229巷6號","121.426436666667","25.01417","6500500","新莊區"
"242027","705-TV","2018/06/29 20:29:24","新北市新莊區幸福路9號","121.459171666667","25.04941","6500500","新莊區"
"242025","613-BX","2018/06/29 20:29:08","新北市新莊區五工三路64號","121.459546666667","25.0645116666667","6500500","新莊區"
"242029","612-BX","2018/06/29 20:29:06","新北市新莊區昌隆街3巷1弄2號","121.453846666667","25.0514","6500500","新莊區"
"242041","566-BX","2018/06/29 20:29:19","新北市新莊區天祥街54巷2弄1號","121.416645","25.029165","6500500","新莊區"
"242046","497-BY","2018/06/29 20:29:26","新北市新莊區中正路881-16號","121.417516666667","25.0246583333333","6500500","新莊區"
"242050","441-UM","2018/06/29 20:29:18","新北市新莊區民安西路252巷5號","121.425393333333","25.0135866666667","6500500","新莊區"
"242056","440-UM","2018/06/29 20:29:21","新北市新莊區瓊泰路187號","121.443085","25.0316533333333","6500500","新莊區"
"242037","415-TV","2018/06/29 20:29:09","新北市新莊區後港一路56巷5弄3號","121.426731666667","25.025895","6500500","新莊區"
"242007","413-TV","2018/06/29 20:29:24","新北市新莊區思源路279號","121.459786666667","25.048105","6500500","新莊區"
"242044","400-BY","2018/06/29 20:29:24","新北市新莊區中正路891-44號","121.413893333333","25.0229233333333","6500500","新莊區"
"242023","362-BY","2018/06/29 20:29:09","新北市新莊區化成路940號","121.464845","25.0628366666667","6500500","新莊區"
"242060","353-BY","2018/06/29 20:29:21","新北市新莊區民安路318號","121.428681666667","25.022085","6500500","新莊區"
"242009","132-UY","2018/06/29 20:29:08","新北市新莊區昌盛街81巷4弄1號","121.455531666667","25.0506716666667","6500500","新莊區"
"242039","133-UY","2018/06/29 20:29:23","新北市新莊區民安路292號","121.428051666667","25.021665","6500500","新莊區"
"242032","135-UY","2018/06/29 20:29:22","新北市新莊區三泰路32-3號","121.437905","25.0353366666667","6500500","新莊區"
"242048","172-VK","2018/06/29 20:29:11","新北市新莊區富國路16號","121.418381666667","25.0263916666667","6500500","新莊區"
"242011","173-VK","2018/06/29 20:29:15","新北市新莊區中義街17號","121.450843333333","25.0511533333333","6500500","新莊區"
"242005","176-VK","2018/06/29 20:29:25","新北市新莊區化成路371巷15號","121.464008333333","25.0570716666667","6500500","新莊區"
"242015","346-TH","2018/06/29 20:29:14","新北市新莊區中平路46巷13號","121.445466666667","25.0438583333333","6500500","新莊區"
"242017","347-TH","2018/06/29 20:29:20","新北市新莊區中港三街44號","121.449875","25.0463533333333","6500500","新莊區"
"242021","348-TH","2018/06/29 20:29:26","新北市新莊區公園路66號","121.449646666667","25.039535","6500500","新莊區"
"242002","349-TH","2018/06/29 20:29:20","新北市新莊區中正路80號","121.457623333333","25.0373183333333","6500500","新莊區"
"242019","350-TH","2018/06/29 20:29:22","新北市新莊區銘德街49巷11號","121.457331666667","25.0429966666667","6500500","新莊區"
"221008","489-VK","2018/06/29 20:29:23","新北市汐止區康寧街536號","121.63486","25.0695916666667","6501100","汐止區"
"221036","130-UY","2018/06/29 20:29:22","新北市汐止區仁愛路215號","121.665121666667","25.0667866666667","6501100","汐止區"
"221015","131-UY","2018/06/29 20:29:13","新北市汐止區建成路142巷19弄1號","121.66222","25.07374","6501100","汐止區"
"221010","269-BY","2018/06/29 20:29:16","新北市汐止區八連路二段490號","121.628758333333","25.1056383333333","6501100","汐止區"
"221012","278-VK","2018/06/29 20:29:25","新北市汐止區大同路三段61號","121.667305","25.076985","6501100","汐止區"
"221023","279-VK","2018/06/29 20:29:24","新北市汐止區湖東街21號","121.635526666667","25.0726233333333","6501100","汐止區"
"221032","280-BY","2018/06/29 20:29:17","新北市汐止區民權街二段43號","121.619423333333","25.0493116666667","6501100","汐止區"
"221027","281-BY","2018/06/29 20:29:24","新北市汐止區中正路199號","121.658573333333","25.068905","6501100","汐止區"
"221029","298-VK","2018/06/29 20:29:12","新北市汐止區樟樹一路135巷35號","121.640633333333","25.0656416666667","6501100","汐止區"
"221021","299-VK","2018/06/29 20:29:10","新北市汐止區水源路一段284號","121.654205","25.05832","6501100","汐止區"
"221031","353-TW","2018/06/29 20:29:22","新北市汐止區福德一路237號","121.634205","25.0646833333333","6501100","汐止區"
"221035","622-UM","2018/06/29 20:29:10","新北市汐止區長江街101-5號","121.658735","25.07311","6501100","汐止區"
"221025","623-UM","2018/06/29 20:29:21","新北市汐止區水源路二段88巷1弄1號","121.656365","25.0558133333333","6501100","汐止區"
"221038","646-BX","2018/06/29 20:29:19","新北市汐止區忠孝東路9號","121.657826666667","25.0655633333333","6501100","汐止區"
"221033","647-BX","2018/06/29 20:29:10","新北市汐止區林森街73巷7號","121.623575","25.04099","6501100","汐止區"
"221018","753-BX","2018/06/29 20:29:18","新北市汐止區茄苳路204號","121.670528333333","25.0690116666667","6501100","汐止區"
"220101","245-BX","2018/06/29 20:29:00","新北市五股區中直路17-3號","121.421863333333","25.1117266666667","6500100","板橋區"
"220083","286-VK","2018/06/29 20:29:22","新北市板橋區僑中二街108巷1號","121.445895","25.0072683333333","6500100","板橋區"
"242013","280-VK","2018/06/29 20:29:22","新北市新莊區中平路348號","121.445056666667","25.0528733333333","6500500","新莊區"
"220088","491-VK","2018/06/29 20:29:20","新北市八里區下罟子5-6號","121.386413333333","25.14571","6500100","板橋區"
"220103","561-BX","2018/06/29 20:29:17","新北市板橋區漢生東路45號","121.465776666667","25.0168666666667","6500100","板橋區"
"220093","689-BX","2018/06/29 20:29:11","新北市八里區商港路105巷15號","121.389696666667","25.148075","6500100","板橋區"
"220102","KEA-2699","2018/06/29 20:29:26","新北市板橋區文化路一段322-1號","121.467798333333","25.0224666666667","6500100","板橋區"
"220089","833-TW","2018/06/29 20:29:05","新北市板橋區四維路318號","121.46232","25.0300266666667","6500100","板橋區"
"235068","KEA-2873","2018/06/29 20:29:10","新北市中和區景平路597號","121.497078333333","25.0007516666667","6500300","中和區"
