"lineid","car","time","location","longitude","latitude","cityid","cityname"
"234064","337-UY","2018/06/29 20:39:08","新北市永和區環河西路二段87號","121.506558333333","25.0151183333333","6500400","永和區"
"234030","746-BX","2018/06/29 20:39:13","新北市永和區民族街81巷16號","121.51879","24.996545","6500400","永和區"
"234042","862-TW","2018/06/29 20:39:12","新北市永和區永和路一段202號","121.514275","25.009265","6500400","永和區"
"234050","863-TW","2018/06/29 20:39:15","新北市永和區保安路79號","121.508598333333","25.014835","6500400","永和區"
"249001","173-UM","2018/06/29 20:39:11","新北市八里區下罟子23號","121.376901666667","25.1386866666667","6502300","八里區"
"249004","303-UY","2018/06/29 20:39:08","新北市八里區中山路一段157號","121.412836666667","25.158535","6502300","八里區"
"234023","9380-KE","2018/06/29 20:39:14","新北市永和區竹林路25巷21號","121.518191666667","25.0149883333333","6500400","永和區"
"234077","969-R7","2018/06/29 20:39:22","新北市三重區五谷王北街181-1號","121.477546666667","25.0548","6500400","永和區"
"234074","AAC-211","2018/06/29 20:39:24","新北市永和區竹林路119巷3號","121.520171666667","25.0114966666667","6500400","永和區"
"243016","380-SR","2018/06/29 20:39:21","新北市泰山區明志路二段211號","121.427453333333","25.0486083333333","6501600","泰山區"
"243011","KEA-2215","2018/06/29 20:39:14","新北市泰山區明志路三段44號","121.424793333333","25.0425333333333","6501600","泰山區"
"243010","KEA-2216","2018/06/29 20:39:17","新北市泰山區黎明路22號","121.420905","25.0607883333333","6501600","泰山區"
"243012","646-TV","2018/06/29 20:38:22","新北市泰山區泰林路三段745巷145號","121.406253333333","25.0693266666667","6501600","泰山區"
"222003","436-BY","2018/06/29 20:39:28","新北市深坑區阿柔洋3-1號","121.612886666667","24.9999816666667","6501800","深坑區"
"222002","659-BX","2018/06/29 20:39:11","新北市深坑區萬福路43號","121.599388333333","25.0069233333333","6501800","深坑區"
"231041","002-UM","2018/06/29 20:39:08","新北市新店區中正路547號","121.533785","24.9877733333333","6500600","新店區"
"231059","046-UY","2018/06/29 20:39:18","新北市新店區僑信路104號","121.500026666667","24.9472666666667","6500600","新店區"
"231040","047-UY","2018/06/29 20:39:24","新北市新店區中正路274號","121.538841666667","24.9735983333333","6500600","新店區"
"231044","106-UY","2018/06/29 20:39:04","新北市新店區建國路293巷1號","121.536753333333","24.9861016666667","6500600","新店區"
"231053","108-UY","2018/06/29 20:39:21","新北市新店區廣興路7-7號","121.54591","24.9115966666667","6500600","新店區"
"231048","187-VK","2018/06/29 20:39:13","新北市新店區寶慶街2號","121.544311666667","24.98676","6500600","新店區"
"231054","KEA-2219","2018/06/29 20:39:14","新北市新店區行政街24號","121.543041666667","24.9656416666667","6500600","新店區"
"231057","256-BX","2018/06/29 20:39:18","新北市新店區花園六路二段9-2號","121.555716666667","24.93291","6500600","新店區"
"231042","268-BY","2018/06/29 20:39:16","新北市新店區寶橋路230號","121.551365","24.9788233333333","6500600","新店區"
"231051","278-BY","2018/06/29 20:39:23","新北市新店區中央五街27號","121.529131666667","24.9746583333333","6500600","新店區"
"231050","AAD-862","2018/06/29 20:39:26","新北市新店區中正路265號","121.538018333333","24.97387","6500600","新店區"
"231058","3713-VJ","2018/06/29 20:39:12","新北市新店區平等街17號","121.53678","24.9738933333333","6500600","新店區"
"231066","4716-K9","2018/06/29 20:39:27","新北市新店區安民街365巷7弄3號","121.51628","24.9752333333333","6500600","新店區"
"231056","4715-K9","2018/06/29 20:39:21","新北市新店區中央七街61巷10號","121.528618333333","24.9763666666667","6500600","新店區"
"231067","4772-VM","2018/06/29 20:39:17","新北市新店區安華路28-1號","121.519808333333","24.9607233333333","6500600","新店區"
"231065","512-UM","2018/06/29 20:39:14","新北市新店區安祥路102巷146號","121.48684","24.9645366666667","6500600","新店區"
"231049","513-UM","2018/06/29 20:39:22","新北市新店區永業路81巷5弄2號","121.530361666667","24.9488583333333","6500600","新店區"
"231045","617-UM","2018/06/29 20:39:19","新北市新店區長春路18巷31號","121.549516666667","24.9565916666667","6500600","新店區"
"231061","619-UM","2018/06/29 20:39:12","新北市新店區新和街36號","121.519331666667","24.98484","6500600","新店區"
"231063","641-BX","2018/06/29 20:39:16","新北市新店區玫瑰路4-1號","121.493628333333","24.9513883333333","6500600","新店區"
"231068","718-UY","2018/06/29 20:39:13","新北市新店區中興路三段330號","121.542055","24.9864","6500600","新店區"
"231064","719-UM","2018/06/29 20:39:09","新北市新店區安和路三段173號","121.515815","24.98608","6500600","新店區"
"231062","720-UM","2018/06/29 20:39:22","新北市新店區安泰路60巷55弄168號","121.484793333333","24.9456066666667","6500600","新店區"
"231060","897-TW","2018/06/29 20:39:11","新北市新店區安康路三段740號","121.473813333333","24.9419833333333","6500600","新店區"
"231043","899-TW","2018/06/29 20:39:11","新北市新店區博愛街13巷24號","121.540155","24.9738966666667","6500600","新店區"
"241011","013-R5","2018/06/29 20:39:14","新北市三重區龍濱路285號","121.501063333333","25.0734833333333","6500200","三重區"
"241028","022-UY","2018/06/29 20:39:23","新北市三重區光興街89號","121.497423333333","25.0599466666667","6500200","三重區"
"241008","059-VK","2018/06/29 20:39:21","新北市三重區下竹圍街42-1號","121.481051666667","25.0748966666667","6500200","三重區"
"241022","060-VK","2018/06/29 20:39:12","新北市三重區中正北路20巷12號","121.487978333333","25.0624766666667","6500200","三重區"
"241031","061-VK","2018/06/29 20:39:26","新北市三重區重陽路一段113巷1弄49號","121.488088333333","25.0585883333333","6500200","三重區"
"241015","062-VK","2018/06/29 20:39:07","新北市三重區雙園街1號","121.497816666667","25.0683683333333","6500200","三重區"
"241017","063-VK","2018/06/29 20:39:21","新北市三重區大同北路269號","121.490856666667","25.0673716666667","6500200","三重區"
"241024","065-VK","2018/06/29 20:39:11","新北市三重區忠孝路三段32號","121.48126","25.0667283333333","6500200","三重區"
"241026","066-VK","2018/06/29 20:39:27","新北市三重區和平街1號","121.500083333333","25.0623866666667","6500200","三重區"
"241002","090-VK","2018/06/29 20:39:24","新北市三重區仁義街167巷2號","121.497153333333","25.0816216666667","6500200","三重區"
"241003","091-VK","2018/06/29 20:39:23","新北市三重區五華街141巷60號","121.493475","25.0866966666667","6500200","三重區"
"241001","742-BX","2018/06/29 20:39:14","新北市三重區自強路三段110巷37號","121.48594","25.0745466666667","6500200","三重區"
"241005","262-UM","2018/06/29 20:39:24","新北市三重區仁義街288號","121.4935","25.0862216666667","6500200","三重區"
"241016","266-UM","2018/06/29 20:39:22","新北市三重區長壽西街143-3號","121.494293333333","25.0667466666667","6500200","三重區"
"241009","267-UM","2018/06/29 20:39:26","新北市三重區碧華街51號","121.484661666667","25.081225","6500200","三重區"
"241018","268-UM","2018/06/29 20:39:27","新北市三重區自強路一段316號","121.491143333333","25.06858","6500200","三重區"
"241032","269-UM","2018/06/29 20:39:28","新北市三重區重陽路一段120巷48號","121.48504","25.0601366666667","6500200","三重區"
"241013","270-UM","2018/06/29 20:39:11","新北市三重區三和路四段152號","121.48841","25.075725","6500200","三重區"
"241007","398-BY","2018/06/29 20:39:07","新北市三重區自強路四段22號","121.48868","25.0765133333333","6500200","三重區"
"241035","KEA-2210","2018/06/29 20:39:22","新北市三重區正義北路332號","121.494505","25.070785","6500200","三重區"
"241004","475-VK","2018/06/29 20:39:12","新北市三重區仁愛街416號","121.490608333333","25.0812683333333","6500200","三重區"
"241020","478-VK","2018/06/29 20:39:15","新北市三重區忠孝路一段52號","121.490618333333","25.0718833333333","6500200","三重區"
"241030","480-VK","2018/06/29 20:39:26","新北市三重區成功路73巷18號","121.489301666667","25.052005","6500200","三重區"
"241014","543-UM","2018/06/29 20:39:28","新北市三重區萬壽街8號","121.499151666667","25.069325","6500200","三重區"
"241023","545-UM","2018/06/29 20:39:10","新北市三重區自由街37巷1號","121.478831666667","25.0670033333333","6500200","三重區"
"241019","KEA-2593","2018/06/29 20:39:11","新北市三重區大智街125-2號","121.491408333333","25.0704033333333","6500200","三重區"
"241006","AAD-863","2018/06/29 20:39:14","新北市三重區車路頭街139巷12號","121.484266666667","25.07626","6500200","三重區"
"241025","743-BX","2018/06/29 20:16:21","新北市三重區三民街272巷22號","121.478736666667","25.0677016666667","6500200","三重區"
"241012","941-UM","2018/06/29 20:39:21","新北市三重區秀江街26號","121.502498333333","25.073015","6500200","三重區"
"241029","942-UM","2018/06/29 20:39:16","新北市三重區集美街126巷27號","121.490228333333","25.053775","6500200","三重區"
"241033","AAC-255","2018/06/29 20:39:17","新北市三重區神農街465號","121.474115","25.0578683333333","6500200","三重區"
"235069","4980-A6","2018/06/29 20:39:26","新北市中和區建八路1號","121.485463333333","24.9985533333333","6500300","中和區"
"247024","893-R6","2018/06/29 20:39:11","新北市蘆洲區長樂路125-1號","121.462285","25.0875983333333","6501400","蘆洲區"
"247014","546-UM","2018/06/29 20:39:11","新北市蘆洲區中山一路237號","121.473513333333","25.080515","6501400","蘆洲區"
"247022","500-BY","2018/06/29 20:39:21","新北市蘆洲區中正路243巷18弄7號","121.466881666667","25.0867283333333","6501400","蘆洲區"
"247010","341-TH","2018/06/29 20:39:25","新北市蘆洲區集賢路271號","121.481113333333","25.0838066666667","6501400","蘆洲區"
"247012","339-TH","2018/06/29 20:39:19","新北市蘆洲區集賢路224巷28號","121.48154","25.0875316666667","6501400","蘆洲區"
"247004","337-TH","2018/06/29 20:39:10","新北市蘆洲區長安街222號","121.45819","25.084865","6501400","蘆洲區"
"247006","336-TH","2018/06/29 20:39:24","新北市蘆洲區和平路124號","121.467365","25.0802116666667","6501400","蘆洲區"
"247008","056-VK","2018/06/29 20:39:27","新北市蘆洲區永安北路2段8巷1-1號","121.480585","25.0807283333333","6501400","蘆洲區"
"247016","007-UY","2018/06/29 20:39:14","新北市蘆洲區中山一路312號","121.469206666667","25.077115","6501400","蘆洲區"
"247002","002-UY","2018/06/29 20:39:24","新北市蘆洲區環堤大道134號","121.455671666667","25.088035","6501400","蘆洲區"
"247020","001-UY","2018/06/29 20:39:13","新北市蘆洲區民族路331號","121.473865","25.091715","6501400","蘆洲區"
"222001","KEA-2212","2018/06/29 20:39:22","新北市深坑區北深路三段228號","121.600813333333","25.0040966666667","6501800","深坑區"
"251010","413-VK","2018/06/29 20:39:17","新北市淡水區沙崙路181巷15號","121.423878333333","25.18437","6501000","淡水區"
"251012","441-VK","2018/06/29 20:39:06","新北市淡水區興仁路101巷8號","121.450921666667","25.2179916666667","6501000","淡水區"
"251007","442-VK","2018/06/29 20:39:21","新北市淡水區淡金路一段69號","121.458131666667","25.1734433333333","6501000","淡水區"
"251001","559-UM","2018/06/29 20:39:12","新北市淡水區淡金路218號","121.460536666667","25.1673733333333","6501000","淡水區"
"251006","561-UM","2018/06/29 20:39:24","新北市淡水區商工路186巷35號","121.451208333333","25.1864133333333","6501000","淡水區"
"251009","575-R6","2018/06/29 20:39:15","新北市淡水區民權路187巷15號","121.460176666667","25.1333233333333","6501000","淡水區"
"251003","673-BX","2018/06/29 20:39:13","新北市淡水區新民街152巷6弄22號","121.43876","25.178525","6501000","淡水區"
"252002","178-VK","2018/06/29 20:39:24","新北市三芝區淡金路二段47-2號","121.503676666667","25.26054","6502100","三芝區"
"252001","292-VK","2018/06/29 20:39:28","新北市三芝區育英街29-1號","121.501283333333","25.2573733333333","6502100","三芝區"
"242034","AAC-296","2018/06/29 20:39:27","新北市新莊區中正路334巷25弄4號","121.445421666667","25.0360433333333","6500500","新莊區"
"242058","986-R7","2018/06/29 20:39:11","新北市新莊區四維路149號","121.422595","25.0221516666667","6500500","新莊區"
"242054","751-BX","2018/06/29 20:39:19","新北市新莊區西盛街323巷3號","121.42828","25.0147316666667","6500500","新莊區"
"242027","705-TV","2018/06/29 20:39:24","新北市新莊區思源路63號","121.459893333333","25.0404433333333","6500500","新莊區"
"242025","613-BX","2018/06/29 20:39:28","新北市三重區重化街3號","121.46818","25.0638","6500500","新莊區"
"242029","612-BX","2018/06/29 20:39:26","新北市新莊區中華路一段226號","121.45251","25.042865","6500500","新莊區"
"242041","566-BX","2018/06/29 20:39:26","新北市新莊區中正路700-37號","121.417571666667","25.027885","6500500","新莊區"
"242046","497-BY","2018/06/29 20:39:16","新北市新莊區裕民街82號","121.418446666667","25.023755","6500500","新莊區"
"242050","441-UM","2018/06/29 20:39:18","新北市新莊區西盛街280巷3號","121.427655","25.015235","6500500","新莊區"
"242056","440-UM","2018/06/29 20:39:25","新北市新莊區瓊泰路80巷45號","121.445006666667","25.0291983333333","6500500","新莊區"
"242037","415-TV","2018/06/29 20:39:09","新北市新莊區建安街16號","121.428623333333","25.0264116666667","6500500","新莊區"
"242007","413-TV","2018/06/29 20:39:24","新北市新莊區思源路287巷19號","121.45874","25.04821","6500500","新莊區"
"242044","400-BY","2018/06/29 20:39:24","新北市新莊區龍安路108號","121.41842","25.0204866666667","6500500","新莊區"
"242023","362-BY","2018/06/29 20:39:09","新北市新莊區化成路414號","121.466076666667","25.0508516666667","6500500","新莊區"
"242060","353-BY","2018/06/29 20:39:21","新北市新莊區新樹路258巷3號","121.432186666667","25.0155716666667","6500500","新莊區"
"242009","132-UY","2018/06/29 20:39:23","新北市新莊區昌隆街67號","121.457066666667","25.0509916666667","6500500","新莊區"
"242039","133-UY","2018/06/29 20:39:23","新北市新莊區瓊林路204-13號","121.43741","25.0212733333333","6500500","新莊區"
"242032","135-UY","2018/06/29 20:39:22","新北市新莊區中正路569號","121.434755","25.032655","6500500","新莊區"
"242048","172-VK","2018/06/29 20:39:11","新北市新莊區中正路661號","121.427646666667","25.030415","6500500","新莊區"
"242011","173-VK","2018/06/29 20:38:55","新北市新莊區中榮街104巷3號","121.447076666667","25.0530316666667","6500500","新莊區"
"242015","346-TH","2018/06/29 20:39:14","新北市新莊區中和街32號","121.448265","25.04389","6500500","新莊區"
"242017","347-TH","2018/06/29 20:39:20","新北市新莊區中平路82巷6號","121.445035","25.0448416666667","6500500","新莊區"
"242021","348-TH","2018/06/29 20:39:26","新北市新莊區中華路一段73號","121.452293333333","25.0401583333333","6500500","新莊區"
"242002","349-TH","2018/06/29 20:39:20","新北市新莊區中正路96號","121.45513","25.0367066666667","6500500","新莊區"
"242019","350-TH","2018/06/29 20:39:22","新北市新莊區銘德街140號","121.454665","25.0428366666667","6500500","新莊區"
"221008","489-VK","2018/06/29 20:39:23","新北市汐止區康寧街861巷3號","121.645326666667","25.07612","6501100","汐止區"
"221036","130-UY","2018/06/29 20:39:22","新北市汐止區新昌路62號","121.66333","25.06867","6501100","汐止區"
"221015","131-UY","2018/06/29 20:39:13","新北市汐止區建成路52號","121.663665","25.0728716666667","6501100","汐止區"
"221012","278-VK","2018/06/29 20:39:25","新北市汐止區汐萬路一段39號","121.65504","25.0689933333333","6501100","汐止區"
"221023","279-VK","2018/06/29 20:39:24","新北市汐止區康寧街629號","121.637181666667","25.0718716666667","6501100","汐止區"
"221032","280-BY","2018/06/29 20:39:17","新北市汐止區橫科路52巷14弄1號","121.618748333333","25.050055","6501100","汐止區"
"221027","281-BY","2018/06/29 20:39:24","新北市汐止區大同路二段563-1號","121.662813333333","25.0699116666667","6501100","汐止區"
"221029","298-VK","2018/06/29 20:39:12","新北市汐止區大同路一段421號","121.642608333333","25.0611133333333","6501100","汐止區"
"221021","299-VK","2018/06/29 20:39:10","新北市汐止區水源路一段284號","121.654183333333","25.0583183333333","6501100","汐止區"
"221031","353-TW","2018/06/29 20:39:22","新北市汐止區工建路161-5號","121.637256666667","25.062925","6501100","汐止區"
"221035","622-UM","2018/06/29 20:39:10","新北市汐止區長江街101-5號","121.658673333333","25.0732333333333","6501100","汐止區"
"221025","623-UM","2018/06/29 20:39:02","新北市汐止區水源路二段189號","121.657791666667","25.053355","6501100","汐止區"
"221038","646-BX","2018/06/29 20:39:19","新北市汐止區新江北路30巷15號","121.65296","25.0692466666667","6501100","汐止區"
"221033","647-BX","2018/06/29 20:39:10","新北市汐止區合順街18巷8弄5號","121.62033","25.0418416666667","6501100","汐止區"
"221002","707-TV","2018/06/29 20:39:13","新北市汐止區福德二路167號","121.630945","25.0650766666667","6501100","汐止區"
"221018","753-BX","2018/06/29 20:39:18","新北市汐止區中華街71號","121.668065","25.0710416666667","6501100","汐止區"
"242013","280-VK","2018/06/29 20:39:22","新北市新莊區中和街175巷9號","121.447193333333","25.05049","6500500","新莊區"
"220088","491-VK","2018/06/29 20:39:20","新北市八里區中山路三段390號","121.368276666667","25.1349316666667","6500100","板橋區"
"220103","561-BX","2018/06/29 20:39:17","新北市板橋區漢生東路63巷1號","121.465838333333","25.0163583333333","6500100","板橋區"
"220093","689-BX","2018/06/29 20:39:11","新北市林口區太平里180號","121.367865","25.1337683333333","6500100","板橋區"
