"lineid","car","time","location","longitude","latitude","cityid","cityname"
"249004","303-UY","2018/06/29 20:59:28","新北市八里區中山路三段112號","121.388148333333","25.1467933333333","6502300","八里區"
"234077","969-R7","2018/06/29 20:59:22","新北市林口區汕頭32號","121.366318333333","25.134855","6500400","永和區"
"231059","046-UY","2018/06/29 20:59:18","新北市新店區僑信路134號","121.500741666667","24.9458133333333","6500600","新店區"
"231040","047-UY","2018/06/29 20:59:24","新北市新店區北新路一段351號","121.541861666667","24.9693633333333","6500600","新店區"
"231053","108-UY","2018/06/29 20:59:21","新北市新店區北宜路一段2號","121.538021666667","24.95887","6500600","新店區"
"231048","187-VK","2018/06/29 20:59:13","新北市新店區寶元路一段109號","121.545661666667","24.9831283333333","6500600","新店區"
"231054","KEA-2219","2018/06/29 20:59:14","新北市新店區北新路一段126巷28號","121.543548333333","24.9690266666667","6500600","新店區"
"231042","268-BY","2018/06/29 20:59:16","新北市新店區寶橋路98號","121.547153333333","24.9760166666667","6500600","新店區"
"231051","278-BY","2018/06/29 20:59:23","新北市新店區中正路663巷1弄2號","121.532963333333","24.9900583333333","6500600","新店區"
"231050","AAD-862","2018/06/29 20:59:26","新北市新店區三民路31-10號","121.537703333333","24.9705266666667","6500600","新店區"
"231066","4716-K9","2018/06/29 20:59:27","新北市新店區吉安街9號","121.516703333333","24.9656933333333","6500600","新店區"
"231067","4772-VM","2018/06/29 20:59:16","新北市新店區安華路28-1號","121.519866666667","24.96084","6500600","新店區"
"231065","512-UM","2018/06/29 20:59:26","新北市新店區安祥路69巷89弄1號","121.483668333333","24.9591316666667","6500600","新店區"
"231049","513-UM","2018/06/29 20:59:28","新北市新店區安光路16號","121.513725","24.9647333333333","6500600","新店區"
"231061","619-UM","2018/06/29 20:59:11","新北市新店區永安街109巷11號","121.521338333333","24.985995","6500600","新店區"
"231063","641-BX","2018/06/29 20:59:16","新北市新店區富貴街6巷2號","121.494606666667","24.95025","6500600","新店區"
"231068","718-UY","2018/06/29 20:59:13","新北市新店區寶中路79號","121.547681666667","24.98072","6500600","新店區"
"231064","719-UM","2018/06/29 20:59:09","新北市新店區安民街121巷12號","121.51539","24.9693466666667","6500600","新店區"
"231062","720-UM","2018/06/29 20:59:22","新北市新店區裕合街1號","121.490431666667","24.9501166666667","6500600","新店區"
"231060","897-TW","2018/06/29 20:59:11","新北市新店區安康路三段263號","121.486628333333","24.95185","6500600","新店區"
"231043","899-TW","2018/06/29 20:59:11","新北市新店區中央路153號","121.529925","24.9731666666667","6500600","新店區"
"241011","013-R5","2018/06/29 20:59:14","新北市三重區秀江街113號","121.499821666667","25.0721966666667","6500200","三重區"
"241028","022-UY","2018/06/29 20:59:23","新北市三重區重新路三段94號","121.492726666667","25.0609","6500200","三重區"
"241008","059-VK","2018/06/29 20:59:21","新北市三重區力行路二段136巷11弄24號","121.481718333333","25.07646","6500200","三重區"
"241022","060-VK","2018/06/29 20:59:12","新北市三重區中正北路20巷12號","121.487936666667","25.0624483333333","6500200","三重區"
"241031","061-VK","2018/06/29 20:59:26","新北市三重區重陽路一段113巷2弄2號","121.487388333333","25.0600033333333","6500200","三重區"
"241015","062-VK","2018/06/29 20:59:27","新北市三重區福德北路61號","121.502081666667","25.06551","6500200","三重區"
"241017","063-VK","2018/06/29 20:59:21","新北市三重區國隆路30號","121.492206666667","25.0643566666667","6500200","三重區"
"241024","065-VK","2018/06/29 20:59:11","新北市三重區大勇街49號","121.481358333333","25.0719333333333","6500200","三重區"
"241026","066-VK","2018/06/29 20:59:27","新北市三重區文化南路43號","121.500203333333","25.061455","6500200","三重區"
"241002","090-VK","2018/06/29 20:59:24","新北市三重區五華街1巷48號","121.496461666667","25.0802216666667","6500200","三重區"
"241003","091-VK","2018/06/29 20:59:23","新北市三重區進安街198號","121.493868333333","25.0859666666667","6500200","三重區"
"241001","742-BX","2018/06/29 20:59:14","新北市三重區自強路三段87巷15號","121.488028333333","25.074855","6500200","三重區"
"241005","262-UM","2018/06/29 20:59:24","新北市三重區五華街227號","121.489275","25.0857733333333","6500200","三重區"
"241016","266-UM","2018/06/29 20:59:22","新北市三重區自強路一段125號","121.49531","25.0663816666667","6500200","三重區"
"241009","267-UM","2018/06/29 20:59:26","新北市三重區力行路二段153號","121.483708333333","25.0777816666667","6500200","三重區"
"241018","268-UM","2018/06/29 20:59:27","新北市三重區雙園街140號","121.493831666667","25.06722","6500200","三重區"
"241032","269-UM","2018/06/29 20:59:28","新北市三重區三陽路118號","121.482971666667","25.0587866666667","6500200","三重區"
"241013","270-UM","2018/06/29 20:59:11","新北市三重區仁愛街129巷2號","121.495618333333","25.0749866666667","6500200","三重區"
"241007","398-BY","2018/06/29 20:59:06","新北市三重區慈愛街43號","121.485236666667","25.0787983333333","6500200","三重區"
"241004","475-VK","2018/06/29 20:59:09","新北市三重區仁愛街420號","121.490381666667","25.0814083333333","6500200","三重區"
"241020","478-VK","2018/06/29 20:59:21","新北市三重區後竹圍街161號","121.486258333333","25.071955","6500200","三重區"
"241030","480-VK","2018/06/29 20:59:26","新北市三重區中正南路293號","121.492608333333","25.051925","6500200","三重區"
"241014","543-UM","2018/06/29 20:59:08","新北市三重區長壽街120巷11號","121.502523333333","25.069055","6500200","三重區"
"241023","545-UM","2018/06/29 20:59:10","新北市三重區忠孝路三段84巷63號","121.48231","25.0637166666667","6500200","三重區"
"241019","KEA-2593","2018/06/29 20:59:11","新北市三重區自強路二段74巷23-1號","121.487936666667","25.06985","6500200","三重區"
"241006","AAD-863","2018/06/29 20:59:14","新北市三重區永福街46-4號","121.481791666667","25.0780783333333","6500200","三重區"
"241012","941-UM","2018/06/29 20:59:21","新北市三重區仁信街27號","121.501278333333","25.0755466666667","6500200","三重區"
"241029","942-UM","2018/06/29 20:59:16","新北市三重區正義南路111號","121.498231666667","25.0585416666667","6500200","三重區"
"241033","AAC-255","2018/06/29 20:59:17","新北市三重區光復路二段56號","121.472086666667","25.05568","6500200","三重區"
"235069","4980-A6","2018/06/29 20:59:06","新北市中和區連城路469巷70弄24號","121.482553333333","24.9939583333333","6500300","中和區"
"247024","893-R6","2018/06/29 20:59:11","新北市蘆洲區長興路211號","121.461146666667","25.08626","6501400","蘆洲區"
"247014","546-UM","2018/06/29 20:59:11","新北市蘆洲區中山二路36巷32號","121.474221666667","25.0832133333333","6501400","蘆洲區"
"247022","500-BY","2018/06/29 20:59:21","新北市蘆洲區水湳街97號","121.470338333333","25.0903916666667","6501400","蘆洲區"
"247010","341-TH","2018/06/29 20:59:25","新北市蘆洲區鷺江街80號","121.47717","25.0839433333333","6501400","蘆洲區"
"247012","339-TH","2018/06/29 20:59:19","新北市蘆洲區民權路8-1號","121.476708333333","25.0857616666667","6501400","蘆洲區"
"247004","337-TH","2018/06/29 20:59:10","新北市蘆洲區永安南路二段268號","121.458645","25.08077","6501400","蘆洲區"
"247006","336-TH","2018/06/29 20:59:24","新北市蘆洲區永安南路二段18號","121.467743333333","25.0771866666667","6501400","蘆洲區"
"247018","057-VK","2018/06/29 20:59:24","新北市蘆洲區民權路136-2號","121.473143333333","25.0889966666667","6501400","蘆洲區"
"247008","056-VK","2018/06/29 20:59:07","新北市蘆洲區民生街76號","121.472858333333","25.079085","6501400","蘆洲區"
"247016","007-UY","2018/06/29 20:59:14","新北市蘆洲區正和街83號","121.468175","25.0807166666667","6501400","蘆洲區"
"247020","001-UY","2018/06/29 20:59:13","新北市蘆洲區民族路371號","121.471193333333","25.09131","6501400","蘆洲區"
"222001","KEA-2212","2018/06/29 20:57:00","新北市深坑區北深路三段25巷13-3號","121.60871","25.0002683333333","6501800","深坑區"
"251005","010-UM","2018/06/29 20:59:23","新北市淡水區學府路51巷2弄16號","121.447986666667","25.170035","6501000","淡水區"
"251002","012-UM","2018/06/29 20:59:24","新北市淡水區英專路68號","121.445741666667","25.1711033333333","6501000","淡水區"
"251010","413-VK","2018/06/29 20:59:17","新北市淡水區中正路一段116-3號","121.42393","25.1787716666667","6501000","淡水區"
"251012","441-VK","2018/06/29 20:59:06","新北市淡水區淡金路五段85號","121.454948333333","25.2339233333333","6501000","淡水區"
"251007","442-VK","2018/06/29 20:59:21","新北市淡水區仁愛街2巷11號","121.446103333333","25.1706683333333","6501000","淡水區"
"251001","559-UM","2018/06/29 20:59:12","新北市淡水區新市一路三段101巷12號","121.446246666667","25.1835233333333","6501000","淡水區"
"251009","575-R6","2018/06/29 20:59:15","新北市淡水區民權路187巷29號","121.46092","25.1336316666667","6501000","淡水區"
"251011","650-BX","2018/06/29 20:59:17","新北市淡水區新民街322巷2號","121.435328333333","25.1836016666667","6501000","淡水區"
"251003","673-BX","2018/06/29 20:59:13","新北市淡水區新春街147號","121.442501666667","25.1814616666667","6501000","淡水區"
"242050","441-UM","2018/06/29 20:59:18","新北市新莊區新樹路413號","121.432686666667","25.014265","6500500","新莊區"
"242009","132-UY","2018/06/29 20:59:08","新北市新莊區思源路25號","121.46018","25.03907","6500500","新莊區"
"221029","298-VK","2018/06/29 20:59:12","新北市汐止區汐萬路一段256巷1號","121.651696666667","25.07485","6501100","汐止區"
"221033","647-BX","2018/06/29 20:59:10","新北市汐止區新台五路一段91-2號","121.650323333333","25.0613166666667","6501100","汐止區"
"220093","689-BX","2018/06/29 20:57:51","新北市八里區荖阡坑路34號","121.401393333333","25.1298066666667","6500100","板橋區"
