"lineid","car","time","location","longitude","latitude","cityid","cityname"
"249004","303-UY","2018/06/29 21:09:08","新北市八里區中山路三段409號","121.368758333333","25.1339616666667","6502300","八里區"
"234077","969-R7","2018/06/29 21:09:22","新北市八里區中山路三段409號","121.368675","25.1346533333333","6500400","永和區"
"231059","046-UY","2018/06/29 21:09:18","新北市新店區僑信路24號","121.499765","24.9522116666667","6500600","新店區"
"231040","047-UY","2018/06/29 21:09:24","新北市新店區北新路一段351號","121.54188","24.969375","6500600","新店區"
"231048","187-VK","2018/06/29 21:09:13","新北市新店區中興路三段160號","121.544528333333","24.98071","6500600","新店區"
"231054","KEA-2219","2018/06/29 21:09:14","新北市新店區大新街7巷10號","121.543666666667","24.9682333333333","6500600","新店區"
"231042","268-BY","2018/06/29 21:09:16","新北市新店區寶興路60巷4號","121.549846666667","24.9718483333333","6500600","新店區"
"231051","278-BY","2018/06/29 21:09:23","新北市新店區中正路700巷40號","121.53571","24.9916733333333","6500600","新店區"
"231050","AAD-862","2018/06/29 21:09:06","新北市新店區華興街12號","121.537806666667","24.9696933333333","6500600","新店區"
"231066","4716-K9","2018/06/29 21:09:27","新北市新店區薏仁坑路自強巷1號","121.497508333333","24.95769","6500600","新店區"
"231067","4772-VM","2018/06/29 21:09:16","新北市新店區安德街148巷32號","121.507341666667","24.960605","6500600","新店區"
"231065","512-UM","2018/06/29 21:09:14","新北市新店區安祥路69巷89弄41號","121.482915","24.9614983333333","6500600","新店區"
"231061","619-UM","2018/06/29 21:09:11","新北市新店區永安街32號","121.517805","24.9866283333333","6500600","新店區"
"231063","641-BX","2018/06/29 21:09:16","新北市新店區玫瑰路61巷2號","121.49606","24.945195","6500600","新店區"
"231060","897-TW","2018/06/29 21:09:11","新北市新店區薏仁坑路自強巷6號","121.496633333333","24.9582966666667","6500600","新店區"
"241011","013-R5","2018/06/29 21:09:14","新北市三重區龍濱路172號","121.501331666667","25.07273","6500200","三重區"
"241028","022-UY","2018/06/29 21:09:23","新北市三重區正義南路54號","121.498378333333","25.0606833333333","6500200","三重區"
"241008","059-VK","2018/06/29 21:09:21","新北市三重區三和路三段8號","121.497155","25.0701066666667","6500200","三重區"
"241022","060-VK","2018/06/29 21:09:12","新北市三重區中正北路64巷21號","121.486028333333","25.0637983333333","6500200","三重區"
"241031","061-VK","2018/06/29 21:09:26","新北市三重區重新路五段426號","121.47527","25.0475533333333","6500200","三重區"
"241015","062-VK","2018/06/29 21:09:27","新北市三重區長元街96號","121.502341666667","25.0665216666667","6500200","三重區"
"241017","063-VK","2018/06/29 21:09:21","新北市三重區國隆路31號","121.49237","25.06442","6500200","三重區"
"241024","065-VK","2018/06/29 21:09:11","新北市三重區大勇街49號","121.481325","25.0719483333333","6500200","三重區"
"241026","066-VK","2018/06/29 21:09:07","新北市三重區文化南路46號","121.500343333333","25.0598166666667","6500200","三重區"
"241002","090-VK","2018/06/29 21:09:24","新北市三重區五華街11號","121.494995","25.08022","6500200","三重區"
"241003","091-VK","2018/06/29 21:09:23","新北市三重區五華街71巷118號","121.495055","25.0846216666667","6500200","三重區"
"241001","742-BX","2018/06/29 21:09:14","新北市三重區福隆路48號","121.492396666667","25.07852","6500200","三重區"
"241005","262-UM","2018/06/29 21:09:24","新北市三重區溪尾街366號","121.48867","25.0856216666667","6500200","三重區"
"241016","266-UM","2018/06/29 21:09:22","新北市三重區信義西街31號","121.495415","25.0645866666667","6500200","三重區"
"241009","267-UM","2018/06/29 21:09:06","新北市三重區忠孝路二段124號","121.483065","25.0688416666667","6500200","三重區"
"241018","268-UM","2018/06/29 21:09:07","新北市三重區正義北路340號","121.494205","25.070705","6500200","三重區"
"241032","269-UM","2018/06/29 21:09:28","新北市三重區新北大道一段178號","121.482995","25.0615683333333","6500200","三重區"
"241013","270-UM","2018/06/29 21:09:11","新北市三重區仁愛街141巷21號","121.496503333333","25.0758916666667","6500200","三重區"
"241007","398-BY","2018/06/29 21:09:27","新北市三重區三和路四段145巷85號","121.486448333333","25.0787383333333","6500200","三重區"
"241004","475-VK","2018/06/29 21:09:09","新北市三重區仁愛街423-1號","121.490406666667","25.0814333333333","6500200","三重區"
"241020","478-VK","2018/06/29 21:09:15","新北市三重區忠孝路二段31號","121.486125","25.0714783333333","6500200","三重區"
"241030","480-VK","2018/06/29 21:09:26","新北市三重區五谷王北街20巷15弄1號","121.475043333333","25.0484916666667","6500200","三重區"
"241014","543-UM","2018/06/29 21:09:08","新北市三重區長安街82號","121.501405","25.0675216666667","6500200","三重區"
"241023","545-UM","2018/06/29 21:09:10","新北市三重區忠孝路三段84巷63號","121.482315","25.063735","6500200","三重區"
"241019","KEA-2593","2018/06/29 21:09:11","新北市三重區三張街104號","121.487926666667","25.06991","6500200","三重區"
"241006","AAD-863","2018/06/29 21:09:14","新北市三重區重陽路三段5巷1號","121.49067","25.0654483333333","6500200","三重區"
"241025","743-BX","2018/06/29 21:09:20","新北市三重區中正北路208巷10弄4號","121.482438333333","25.0669683333333","6500200","三重區"
"241012","941-UM","2018/06/29 21:09:21","新北市三重區仁信街27號","121.501285","25.075535","6500200","三重區"
"241029","942-UM","2018/06/29 21:09:16","新北市三重區正義南路111號","121.498188333333","25.05857","6500200","三重區"
"241033","AAC-255","2018/06/29 21:09:17","新北市三重區新北大道二段65號","121.469323333333","25.0616033333333","6500200","三重區"
"247024","893-R6","2018/06/29 21:09:11","新北市蘆洲區長興路50巷1號","121.463745","25.0838","6501400","蘆洲區"
"247014","546-UM","2018/06/29 21:09:11","新北市蘆洲區中央路155號","121.472655","25.0847133333333","6501400","蘆洲區"
"247022","500-BY","2018/06/29 21:09:21","新北市蘆洲區中正路263巷2號","121.46739","25.0874166666667","6501400","蘆洲區"
"247010","341-TH","2018/06/29 21:09:25","新北市蘆洲區三民路26巷39號","121.477423333333","25.083125","6501400","蘆洲區"
"247012","339-TH","2018/06/29 21:09:19","新北市蘆洲區民族路34號","121.476503333333","25.0842566666667","6501400","蘆洲區"
"247004","337-TH","2018/06/29 21:09:10","新北市蘆洲區永安南路二段276號","121.458125","25.0809333333333","6501400","蘆洲區"
"247006","336-TH","2018/06/29 21:09:24","新北市蘆洲區永安南路二段16巷18號","121.468031666667","25.0777583333333","6501400","蘆洲區"
"247018","057-VK","2018/06/29 21:09:04","新北市蘆洲區民族路408巷3號","121.474696666667","25.091805","6501400","蘆洲區"
"247008","056-VK","2018/06/29 21:09:16","新北市蘆洲區民生街28號","121.474838333333","25.0788633333333","6501400","蘆洲區"
"247016","007-UY","2018/06/29 21:09:14","新北市蘆洲區中正路185巷86弄2號","121.465608333333","25.0840166666667","6501400","蘆洲區"
"247002","002-UY","2018/06/29 21:09:24","新北市蘆洲區永平街6號","121.459578333333","25.0904633333333","6501400","蘆洲區"
"247020","001-UY","2018/06/29 21:09:13","新北市蘆洲區民族路371號","121.471206666667","25.0913233333333","6501400","蘆洲區"
"251005","010-UM","2018/06/29 21:09:23","新北市淡水區英專路2巷27號","121.446385","25.1693783333333","6501000","淡水區"
"251002","012-UM","2018/06/29 21:09:24","新北市淡水區水源街一段160號","121.448698333333","25.1712716666667","6501000","淡水區"
"251008","181-VK","2018/06/29 21:09:16","新北市淡水區北投子78-7號","121.458365","25.1787816666667","6501000","淡水區"
"251010","413-VK","2018/06/29 21:09:17","新北市淡水區中正路一段63巷7弄2號","121.42293","25.1773283333333","6501000","淡水區"
"251012","441-VK","2018/06/29 21:09:06","新北市淡水區淡金路五段172號","121.45706","25.2400666666667","6501000","淡水區"
"251001","559-UM","2018/06/29 21:09:12","新北市淡水區新市一路三段101巷16弄3號","121.446658333333","25.1838416666667","6501000","淡水區"
"251009","575-R6","2018/06/29 21:09:15","新北市淡水區民權路187巷74弄9號","121.462036666667","25.1343966666667","6501000","淡水區"
"251011","650-BX","2018/06/29 21:09:17","新北市淡水區新民街120巷45弄36號","121.437723333333","25.1797533333333","6501000","淡水區"
"251003","673-BX","2018/06/29 21:09:23","新北市淡水區新春街98號","121.439161666667","25.1825233333333","6501000","淡水區"
"220093","689-BX","2018/06/29 21:09:11","新北市三重區重新路五段283號","121.479318333333","25.0498316666667","6500100","板橋區"
