"lineid","car","time","location","longitude","latitude","cityid","cityname"
"248005","653-BX","2018/03/01 08:59:32","新北市五股區明德路12巷3號","121.433303333333","25.0718183333333","6501500","五股區"
"244012","069-UM","2018/03/01 08:59:28","新北市林口區中山路144號","121.39153","25.0787283333333","6501700","林口區"
"244006","080-UY","2018/03/01 08:59:31","新北市林口區林口路190號","121.387486666667","25.0828733333333","6501700","林口區"
"244003","248-BX","2018/03/01 08:58:20","新北市林口區寶斗厝坑83號","121.332638333333","25.1201933333333","6501700","林口區"
"244024","742-UY","2018/03/01 08:59:30","新北市林口區南勢街196號","121.360233333333","25.0747366666667","6501700","林口區"
"244016","485-VK","2018/03/01 08:59:29","新北市林口區公園路45-1號","121.36754","25.0684683333333","6501700","林口區"
"244018","656-BX","2018/03/01 08:59:33","新北市林口區忠孝路531巷12號","121.372608333333","25.0696733333333","6501700","林口區"
"244008","657-BX","2018/03/01 08:59:23","新北市林口區文化二路二段126號","121.380033333333","25.0828366666667","6501700","林口區"
"244010","701-TV","2018/03/01 08:59:20","新北市林口區新寮1-84號","121.392788333333","25.0768766666667","6501700","林口區"
"244022","837-TS","2018/03/01 08:59:25","新北市林口區東湖路93巷75號","121.384903333333","25.0716316666667","6501700","林口區"
"244020","838-TS","2018/03/01 08:59:30","新北市林口區自強三街33號","121.398578333333","25.0771766666667","6501700","林口區"
"222006","289-BY","2018/03/01 08:58:36","新北市深坑區土庫尖路75-1號","121.631235","25.01824","6501800","深坑區"
"231069","189-VK","2018/03/01 08:54:06","新北市新店區新潭路三段236號","121.500753333333","24.9027816666667","6500600","新店區"
"231008","192-VK","2018/03/01 08:59:24","新北市新店區廣興路40-2號","121.539971666667","24.9121816666667","6500600","新店區"
"235001","611-BX","2018/03/01 08:59:22","新北市中和區華安街16巷5號","121.466326666667","24.9978183333333","6500300","中和區"
"226005","5620-A6","2018/03/01 08:59:27","新北市平溪區靜安路三段355號","121.780563333333","25.0454633333333","6502400","平溪區"
"226002","7418-A5","2018/03/01 08:59:37","新北市平溪區東勢里芊蓁坑30號","121.727491666667","24.9791533333333","6502400","平溪區"
"226003","AGD-0702","2018/03/01 08:59:21","新北市平溪區南山里南山坪1號","121.777573333333","25.04289","6502400","平溪區"
"223006","022-BY","2018/03/01 08:59:25","新北市石碇區烏塗窟21-1號","121.656925","24.975105","6501900","石碇區"
"223001","205-TH","2018/03/01 08:59:33","新北市石碇區北宜路五段12號","121.629858333333","24.9542383333333","6501900","石碇區"
"223008","406-TH","2018/03/01 08:59:20","新北市石碇區光明路13號","121.680088333333","25.0336683333333","6501900","石碇區"
"223001","592-UM","2018/03/01 08:59:38","新北市石碇區北宜路五段32號","121.63024","24.953745","6501900","石碇區"
"223004","660-BX","2018/03/01 08:59:29","新北市石碇區碇坪路二段65號","121.685108333333","24.96702","6501900","石碇區"
"223007","661-BX","2018/03/01 08:59:18","新北市石碇區碇南路二段鹿窟巷2號","121.67208","25.0313166666667","6501900","石碇區"
"223005","677-TV","2018/03/01 08:59:36","新北市石碇區碇坪路二段65號","121.68513","24.9667933333333","6501900","石碇區"
"252004","249-BX","2018/03/01 08:59:17","新北市三芝區興華里田心子32-2號","121.490788333333","25.19973","6502100","三芝區"
"252007","AAC-283","2018/03/01 08:59:32","新北市三芝區樂全街26號","121.48674","25.25843","6502100","三芝區"
"237001","159-UY","2018/03/01 08:59:31","新北市三峽區學勤路97號","121.374606666667","24.9462416666667","6500900","三峽區"
"236009","165-UM","2018/03/01 08:59:36","新北市土城區金城路二段46巷3-10號","121.455508333333","24.975935","6501300","土城區"
"236003","339-SR","2018/03/01 08:59:36","新北市土城區和平路46號","121.443653333333","24.970725","6501300","土城區"
"236005","498-BY","2018/03/01 08:59:37","新北市土城區承天路8巷6-1號","121.436881666667","24.96409","6501300","土城區"
"242028","986-R7","2018/03/01 08:59:24","新北市新莊區中原路305號","121.447275","25.05448","6500500","新莊區"
"242049","751-BX","2018/03/01 08:59:21","新北市新莊區民安西路247號","121.426048333333","25.01361","6500500","新莊區"
"242024","705-TV","2018/03/01 08:59:31","新北市新莊區五工路68巷2號","121.458965","25.064285","6500500","新莊區"
"242022","613-BX","2018/03/01 08:59:24","新北市新莊區新北大道二段167號","121.464746666667","25.0608966666667","6500500","新莊區"
"242026","612-BX","2018/03/01 08:59:32","新北市新莊區立信三街75號","121.443991666667","25.0511283333333","6500500","新莊區"
"242038","566-BX","2018/03/01 08:59:17","新北市新莊區民安西路83號","121.427121666667","25.0193616666667","6500500","新莊區"
"242043","497-BY","2018/03/01 08:59:28","新北市新莊區中正路925號","121.410521666667","25.0211883333333","6500500","新莊區"
"242052","442-UM","2018/03/01 08:59:27","新北市新莊區西盛街395巷23弄2號","121.428293333333","25.0125933333333","6500500","新莊區"
"242047","441-UM","2018/03/01 08:59:27","新北市新莊區民安路232號","121.426205","25.0223866666667","6500500","新莊區"
"242033","415-TV","2018/03/01 08:59:35","新北市新莊區建中街81巷8號","121.4473","25.03614","6500500","新莊區"
"242003","413-TV","2018/03/01 08:59:31","新北市新莊區化成路63巷24弄49號","121.461901666667","25.0459866666667","6500500","新莊區"
"242040","400-BY","2018/03/01 08:59:36","新北市新莊區青山路一段24號","121.410993333333","25.02757","6500500","新莊區"
"242059","362-BY","2018/03/01 08:59:32","新北市新莊區瓊泰路51巷1號","121.443458333333","25.02846","6500500","新莊區"
"242057","353-BY","2018/03/01 08:59:24","新北市新莊區八德街111號","121.424113333333","25.0209583333333","6500500","新莊區"
"242006","132-UY","2018/03/01 08:59:27","新北市新莊區福壽街164巷19號","121.459275","25.0529633333333","6500500","新莊區"
"242035","133-UY","2018/03/01 08:59:31","新北市新莊區民安路207巷57號","121.428748333333","25.0249666666667","6500500","新莊區"
"242045","172-VK","2018/03/01 08:59:28","新北市新莊區裕民街73巷7號","121.419148333333","25.0238983333333","6500500","新莊區"
"242008","173-VK","2018/03/01 08:59:30","新北市新莊區昌盛街81巷4弄12號","121.45604","25.050505","6500500","新莊區"
"242014","175-VK","2018/03/01 08:59:23","新北市新莊區永樂街204號","121.447093333333","25.0444483333333","6500500","新莊區"
"242001","176-VK","2018/03/01 08:59:29","新北市新莊區中正路18號","121.465353333333","25.0418833333333","6500500","新莊區"
"242012","346-TH","2018/03/01 08:59:28","新北市新莊區中平路270巷7弄14號","121.445443333333","25.0508483333333","6500500","新莊區"
"242055","347-TH","2018/03/01 08:59:19","新北市新莊區中正路347巷33號","121.447286666667","25.0338516666667","6500500","新莊區"
"242018","348-TH","2018/03/01 08:59:23","新北市新莊區銘德街85號","121.456188333333","25.0433816666667","6500500","新莊區"
"242016","350-TH","2018/03/01 08:59:35","新北市新莊區中港三街98號","121.448825","25.04614","6500500","新莊區"
"242010","351-TH","2018/03/01 08:59:27","新北市新莊區中信街37巷1弄1號","121.450346666667","25.0504866666667","6500500","新莊區"
"242020","281-VK","2018/03/01 08:59:22","新北市新莊區建中街48巷11號","121.448258333333","25.0378016666667","6500500","新莊區"
"242030","280-VK","2018/03/01 08:59:30","新北市新莊區公園一路126號","121.445705","25.0380366666667","6500500","新莊區"
