"lineid","car","time","location","longitude","latitude","cityid","cityname"
"248005","653-BX","2018/03/01 09:49:12","新北市五股區自強路16號","121.434593333333","25.0741783333333","6501500","五股區"
"244012","069-UM","2018/03/01 09:49:28","新北市林口區麗園一街9巷1號","121.376575","25.0712616666667","6501700","林口區"
"244018","656-BX","2018/03/01 09:49:13","新北市林口區忠孝路710號","121.379683333333","25.06922","6501700","林口區"
"244008","657-BX","2018/03/01 09:49:22","新北市林口區林口路97號","121.389483333333","25.0802333333333","6501700","林口區"
"244022","837-TS","2018/03/01 09:49:26","新北市林口區民權路12巷5號","121.371668333333","25.0798466666667","6501700","林口區"
"222006","289-BY","2018/03/01 09:49:24","新北市深坑區昇高坑路14號","121.624628333333","24.9991133333333","6501800","深坑區"
"231069","189-VK","2018/03/01 09:49:26","新北市新店區新潭路三段215巷25號","121.508175","24.9040883333333","6500600","新店區"
"231008","192-VK","2018/03/01 09:35:01","新北市新店區平廣路一段250號","121.508226666667","24.8885066666667","6500600","新店區"
"223001","205-TH","2018/03/01 09:49:13","新北市石碇區半路店2-1號","121.64727","24.968195","6501900","石碇區"
"223008","406-TH","2018/03/01 09:49:20","新北市石碇區小粗坑(潭邊里)15-6號","121.684096666667","24.9838483333333","6501900","石碇區"
"223007","661-BX","2018/03/01 09:49:18","新北市石碇區小粗坑(潭邊里)15-6號","121.683935","24.9835633333333","6501900","石碇區"
"252004","249-BX","2018/03/01 09:49:17","新北市三芝區福德里大水堀21號","121.512331666667","25.2201783333333","6502100","三芝區"
"252007","AAC-283","2018/03/01 09:49:12","新北市三芝區新庄里新庄子58-1號","121.507676666667","25.27507","6502100","三芝區"
"237001","159-UY","2018/03/01 09:49:11","新北市三峽區復興路553號","121.356803333333","24.9402916666667","6500900","三峽區"
"236005","498-BY","2018/03/01 09:49:17","新北市土城區中央路二段396巷30號","121.43848","24.971065","6501300","土城區"
"242003","413-TV","2018/03/01 09:49:31","新北市三重區新北大道二段65號","121.469256666667","25.0612883333333","6500500","新莊區"
"239001","417-VK","2018/03/01 09:49:28","桃園市龜山區明興街275-1號","121.332788333333","24.9814033333333","6500800","鶯歌區"
"242030","280-VK","2018/03/01 09:49:20","新北市新莊區中正路508巷5弄2號","121.43506","25.0338066666667","6500500","新莊區"
