"lineid","car","time","location","longitude","latitude","cityid","cityname"
"243004","AAD-798","2018/03/01 11:54:35","新北市泰山區黎明路25號","121.422105","25.0607866666667","6501600","泰山區"
"231008","192-VK","2018/03/01 11:59:21","新北市新店區頂石厝路49號","121.535606666667","24.9178566666667","6500600","新店區"
"235031","255-BX","2018/03/01 11:50:27","新北市中和區和城路一段271巷1號","121.485596666667","24.991895","6500300","中和區"
"228005","097-TW","2018/03/01 11:59:18","新北市貢寮區貢寮里朝陽街1-2號","121.91233","25.0212666666667","6502600","貢寮區"
"228004","212-TW","2018/03/01 11:59:24","新北市貢寮區貢寮里朝陽街1-2號","121.912198333333","25.021285","6502600","貢寮區"
"237001","159-UY","2018/03/01 11:59:21","新北市三峽區中山路459巷163-1號","121.34933","24.933415","6500900","三峽區"
