"lineid","car","time","location","longitude","latitude","cityid","cityname"
"234010","9373-KE","2018/03/01 12:08:53","新北市永和區福和路1號","121.525626666667","25.00937","6500400","永和區"
"243004","AAD-798","2018/03/01 11:54:35","新北市泰山區黎明路25號","121.422105","25.0607866666667","6501600","泰山區"
"231008","192-VK","2018/03/01 12:19:20","新北市新店區環河路21號","121.537453333333","24.96136","6500600","新店區"
"235031","255-BX","2018/03/01 11:50:27","新北市中和區和城路一段271巷1號","121.485596666667","24.991895","6500300","中和區"
"228005","097-TW","2018/03/01 12:19:18","新北市貢寮區福連里福連街36號","121.98981","25.0101116666667","6502600","貢寮區"
"228004","212-TW","2018/03/01 12:19:24","新北市貢寮區貢寮里長泰路15號","121.896661666667","25.0208183333333","6502600","貢寮區"
"237001","159-UY","2018/03/01 12:19:21","新北市三峽區中山路459巷163-1號","121.349311666667","24.9334116666667","6500900","三峽區"
