"lineid","car","time","location","longitude","latitude","cityid","cityname"
"234044","148-BY","2018/03/01 13:39:20","新北市永和區永元路97號","121.522488333333","25.0021733333333","6500400","永和區"
"234005","207-UY","2018/03/01 13:39:22","新北市永和區中山路一段70號","121.512473333333","25.0107233333333","6500400","永和區"
"234078","298-R6","2018/03/01 13:39:24","新北市永和區國中路104巷11號","121.524561666667","25.007145","6500400","永和區"
"234036","336-UY","2018/03/01 13:39:29","新北市永和區民樂街31巷6弄2號","121.527991666667","25.0012633333333","6500400","永和區"
"234062","337-UY","2018/03/01 13:39:32","新北市永和區秀朗路一段192巷6弄14號","121.519105","25.0022716666667","6500400","永和區"
"234084","338-UY","2018/03/01 13:39:18","新北市永和區林森路46巷1號","121.52507","25.0047016666667","6500400","永和區"
"234068","552-UM","2018/03/01 13:39:31","新北市永和區永和路二段183號","121.515325","25.0134216666667","6500400","永和區"
"234015","745-BX","2018/03/01 13:39:33","新北市永和區永和路二段425巷64號","121.51362","25.017305","6500400","永和區"
"234028","746-BX","2018/03/01 13:39:33","新北市永和區民權路23號","121.520248333333","24.99779","6500400","永和區"
"234052","KEA-2590","2018/03/01 13:39:30","新北市永和區竹林路39巷26號","121.519038333333","25.0147483333333","6500400","永和區"
"234012","KEA-2591","2018/03/01 13:39:35","新北市永和區永平路220號","121.509123333333","25.0105933333333","6500400","永和區"
"234060","AAD-866","2018/03/01 13:39:20","新北市永和區中正路432號","121.517496666667","25.002455","6500400","永和區"
"234040","862-TW","2018/03/01 13:39:33","新北市永和區中和路307號","121.50669","24.9998383333333","6500400","永和區"
"234048","863-TW","2018/03/01 13:39:35","新北市永和區保安路90號","121.509606666667","25.0161366666667","6500400","永和區"
"234025","9371-KE","2018/03/01 13:39:23","新北市永和區永平路192號","121.510326666667","25.009345","6500400","永和區"
"234010","9373-KE","2018/03/01 13:39:31","新北市永和區永平路218巷20號","121.510123333333","25.011005","6500400","永和區"
"248013","025-BX","2018/03/01 13:39:31","新北市五股區中興路四段67-2號","121.436935","25.0834033333333","6501500","五股區"
"248015","026-BX","2018/03/01 13:39:23","新北市五股區凌雲路一段133巷27-3號","121.448651666667","25.100905","6501500","五股區"
"248005","077-UY","2018/03/01 13:39:29","新北市五股區中興路一段40號","121.468318333333","25.0725633333333","6501500","五股區"
"248007","095-VK","2018/03/01 13:39:35","新北市五股區中興路一段149號","121.465131666667","25.07353","6501500","五股區"
"248017","225-UY","2018/03/01 13:39:29","新北市五股區民義路二段48巷2-5號","121.414698333333","25.102605","6501500","五股區"
"248011","247-BX","2018/03/01 13:39:17","新北市五股區成泰路三段2巷1-20號","121.441223333333","25.0866816666667","6501500","五股區"
"248009","272-BY","2018/03/01 13:39:28","新北市五股區水碓七路168號","121.430808333333","25.0739916666667","6501500","五股區"
"248004","677-BX","2018/03/01 13:39:34","新北市五股區民義路一段236-6號","121.427405","25.091335","6501500","五股區"
"248001","678-BX","2018/03/01 13:39:31","新北市五股區成泰路三段435巷11號","121.449351666667","25.0977933333333","6501500","五股區"
"234022","9380-KE","2018/03/01 13:39:15","新北市永和區中正路702巷18號","121.51646","25.010595","6500400","永和區"
"234076","969-R7","2018/03/01 13:39:27","新北市永和區民權路30號","121.520301666667","24.9990916666667","6500400","永和區"
"234072","AAC-211","2018/03/01 13:39:20","新北市永和區豫溪街160巷17號","121.523315","25.0091333333333","6500400","永和區"
"234066","AAC-212","2018/03/01 13:39:29","新北市永和區中山路一段191巷7弄2號","121.509536666667","25.00827","6500400","永和區"
"234001","AAC-295","2018/03/01 13:39:19","新北市永和區秀朗路一段36號","121.514135","25.0066783333333","6500400","永和區"
"244003","248-BX","2018/03/01 13:39:29","新北市林口區後坑33號","121.348968333333","25.128285","6501700","林口區"
"243004","AAD-798","2018/03/01 13:39:19","新北市泰山區泰林路二段328號","121.430246666667","25.0630133333333","6501600","泰山區"
"243007","380-SR","2018/03/01 13:35:33","新北市泰山區犁頭窠3-1號","121.422266666667","25.06043","6501600","泰山區"
"243002","KEA-2215","2018/03/01 13:39:22","新北市泰山區黎明路22號","121.420868333333","25.0611283333333","6501600","泰山區"
"243005","646-TV","2018/03/01 13:28:11","新北市泰山區明志路三段206巷3號","121.423283333333","25.0379233333333","6501600","泰山區"
"243008","680-BX","2018/03/01 13:39:22","新北市泰山區明志路二段135號","121.42769","25.0507616666667","6501600","泰山區"
"231002","002-UM","2018/03/01 13:39:18","新北市新店區中央三街127號","121.524048333333","24.97685","6500600","新店區"
"231025","0293-UT","2018/03/01 13:39:20","新北市新店區中央六街56號","121.527918333333","24.9757633333333","6500600","新店區"
"231028","046-UY","2018/03/01 13:39:20","新北市新店區安和路二段138號","121.51951","24.972245","6500600","新店區"
"231030","047-UY","2018/03/01 13:39:17","新北市新店區安康路一段69號","121.530263333333","24.9610783333333","6500600","新店區"
"231029","106-UY","2018/03/01 13:39:24","新北市新店區安康路二段167號","121.509911666667","24.9593383333333","6500600","新店區"
"231018","107-UY","2018/03/01 13:39:18","新北市新店區百忍街14號","121.534663333333","24.9756466666667","6500600","新店區"
"231011","108-UY","2018/03/01 13:39:35","新北市新店區德正街27巷29弄28號","121.545795","24.9722966666667","6500600","新店區"
"231021","187-VK","2018/03/01 13:39:20","新北市新店區永興路95-3號","121.5445","24.932565","6500600","新店區"
"231017","KEA-2219","2018/03/01 13:39:20","新北市新店區竹林路2巷29弄7號","121.550343333333","24.9502783333333","6500600","新店區"
"231026","256-BX","2018/03/01 13:39:23","新北市新店區北新路一段72號","121.541343333333","24.9669983333333","6500600","新店區"
"231010","278-BY","2018/03/01 13:39:28","新北市新店區中正路307巷2號","121.5365","24.9745566666667","6500600","新店區"
"231023","AAD-862","2018/03/01 13:39:25","新北市新店區新店路159號","121.53712","24.9553216666667","6500600","新店區"
"231027","3712-VJ","2018/03/01 13:39:33","新北市新店區新店後街20-1號","121.538371666667","24.9531816666667","6500600","新店區"
"231024","4716-K9","2018/03/01 13:39:16","新北市新店區華中街21巷1號","121.540245","24.97038","6500600","新店區"
"231038","4715-K9","2018/03/01 13:39:29","新北市新店區安華路30巷1號","121.5196","24.959265","6500600","新店區"
"231036","512-UM","2018/03/01 13:39:33","新北市新店區安祥路147巷55號","121.476183333333","24.9560183333333","6500600","新店區"
"231035","515-UM","2018/03/01 13:39:18","新北市新店區安忠路65巷2號","121.511378333333","24.9577133333333","6500600","新店區"
"231001","619-UM","2018/03/01 13:39:27","新北市新店區中正路402號","121.53458","24.9773983333333","6500600","新店區"
"231003","641-BX","2018/03/01 13:39:29","新北市新店區中興路一段285-1號","121.54556","24.96861","6500600","新店區"
"231034","645-TV","2018/03/01 13:39:26","新北市新店區車子路117號","121.505373333333","24.951785","6500600","新店區"
"231013","719-UM","2018/03/01 13:39:27","新北市新店區中正路454-5號","121.534518333333","24.979015","6500600","新店區"
"231031","720-UM","2018/03/01 13:39:27","新北市新店區莒光路44巷21弄11-3號","121.51848","24.9521866666667","6500600","新店區"
"231005","897-TW","2018/03/01 13:39:22","新北市新店區寶中路77號","121.547576666667","24.98058","6500600","新店區"
"231006","898-TW","2018/03/01 13:39:25","新北市新店區北宜路一段83號","121.538648333333","24.955975","6500600","新店區"
"231004","899-TW","2018/03/01 13:39:24","新北市新店區北新路二段18號","121.54276","24.9713116666667","6500600","新店區"
"231037","AKT-0513","2018/03/01 13:39:22","新北市新店區安康路二段382-2號","121.500433333333","24.95733","6500600","新店區"
"235030","003-UY","2018/03/01 13:39:25","新北市中和區水源路39號","121.504521666667","25.003585","6500300","中和區"
"235028","005-UY","2018/03/01 13:39:23","新北市中和區連勝街52號","121.497621666667","24.9972166666667","6500300","中和區"
"235027","006-UY","2018/03/01 13:39:32","新北市中和區連城路268-6號","121.4863","24.996295","6500300","中和區"
"235020","096-UM","2018/03/01 13:39:26","新北市中和區員山路466巷10號","121.480688333333","25.006585","6500300","中和區"
"235003","097-UM","2018/03/01 13:39:32","新北市中和區大勇街25巷17號","121.515765","24.9936833333333","6500300","中和區"
"235029","098-UM","2018/03/01 13:39:34","新北市中和區中山路二段2巷45弄44號","121.501715","25.0062983333333","6500300","中和區"
"235004","150-BY","2018/03/01 13:39:33","新北市中和區保健路50巷68號","121.509218333333","24.9950933333333","6500300","中和區"
"235022","151-BY","2018/03/01 13:39:20","新北市中和區員山路31-10號","121.481571666667","24.9887416666667","6500300","中和區"
"235019","183-VK","2018/03/01 13:39:28","新北市中和區國光街102巷40號","121.471173333333","25.0006283333333","6500300","中和區"
"235002","185-VK","2018/03/01 13:39:32","新北市中和區自強路60號","121.519901666667","24.9944916666667","6500300","中和區"
"235013","186-VK","2018/03/01 13:39:18","新北市中和區明義街11巷10弄1號","121.503768333333","24.9947383333333","6500300","中和區"
"235031","255-BX","2018/03/01 13:39:24","新北市中和區新生街220巷13號","121.482951666667","24.9984633333333","6500300","中和區"
"235008","293-VK","2018/03/01 13:39:30","新北市中和區復興路280巷1弄2號","121.502263333333","24.9907333333333","6500300","中和區"
"235036","301-VK","2018/03/01 13:39:32","新北市中和區連城路110號","121.496323333333","24.9999116666667","6500300","中和區"
"235007","352-BY","2018/03/01 13:39:19","新北市中和區景平路163號","121.512365","24.99243","6500300","中和區"
"235032","377-QA","2018/03/01 13:39:32","新北市中和區中正路211巷32弄16號","121.496738333333","24.9925033333333","6500300","中和區"
"235025","378-QA","2018/03/01 13:39:36","新北市中和區民享街28號","121.473961666667","25.0035833333333","6500300","中和區"
"235035","269-TV","2018/03/01 13:39:16","新北市中和區光環路二段29號","121.487345","25.0137266666667","6500300","中和區"
"235014","4979-A6","2018/03/01 13:39:23","新北市中和區景新街496巷28弄12號","121.513035","24.9859083333333","6500300","中和區"
"235033","4980-A6","2018/03/01 13:39:34","新北市中和區連城路87號","121.496758333333","25.0002316666667","6500300","中和區"
"235006","551-UM","2018/03/01 13:39:13","新北市中和區成功路127巷1號","121.526353333333","24.9911","6500300","中和區"
"235009","565-BX","2018/03/01 13:39:29","新北市中和區南山路236巷9號","121.505751666667","24.988845","6500300","中和區"
"235018","640-BX","2018/03/01 13:39:31","新北市中和區莒光路111號","121.47244","25.0025116666667","6500300","中和區"
"235024","647-TV","2018/03/01 13:39:16","新北市中和區中山路二段525號","121.481646666667","25.0052616666667","6500300","中和區"
"235010","733-UM","2018/03/01 13:39:27","新北市中和區興南路一段85巷11號","121.510081666667","24.9885783333333","6500300","中和區"
"235026","800-TS","2018/03/01 13:39:25","新北市中和區中山路二段312巷10弄1號","121.495603333333","25.0031033333333","6500300","中和區"
"235021","801-TS","2018/03/01 13:39:28","新北市中和區民安街42巷36號","121.47916","25.0012716666667","6500300","中和區"
"235016","805-TS","2018/03/01 13:39:22","新北市中和區興南路三段46號","121.495455","24.9763816666667","6500300","中和區"
"235012","896-TW","2018/03/01 13:39:31","新北市中和區中正路76號","121.50069","24.9935616666667","6500300","中和區"
"235017","900-TW","2018/03/01 13:39:30","新北市中和區莒光路213號","121.469048333333","24.9947133333333","6500300","中和區"
"235034","911-UM","2018/03/01 13:39:22","新北市中和區景新街129號","121.505845","24.99732","6500300","中和區"
"235015","157-BY","2018/03/01 13:39:30","新北市中和區華新街143巷106弄32號","121.506245","24.9787116666667","6500300","中和區"
"235001","AAC-213","2018/03/01 13:39:32","新北市中和區景新街383巷68號","121.514745","24.9902366666667","6500300","中和區"
"220016","013-TV","2018/03/01 13:39:22","新北市板橋區民生路二段120號","121.47033","25.019685","6500100","板橋區"
"220003","015-TV","2018/03/01 13:38:15","新北市板橋區林園街2號","121.454345","25.00927","6500100","板橋區"
"220013","072-UY","2018/03/01 13:39:29","新北市板橋區縣民大道二段56號","121.462658333333","25.0121183333333","6500100","板橋區"
"220034","073-UY","2018/03/01 13:39:33","新北市板橋區大智街71巷42弄16號","121.452201666667","25.014675","6500100","板橋區"
"220017","AAD-861","2018/03/01 13:39:28","新北市板橋區華東街1-10號","121.44832","24.9950883333333","6500100","板橋區"
"247017","001-UY","2018/03/01 13:39:26","新北市蘆洲區民族路410號","121.474593333333","25.0916416666667","6501400","蘆洲區"
"235005","251-BX","2018/03/01 13:39:26","新北市中和區中安街78號","121.51217","25.0019583333333","6500300","中和區"
"228005","097-TW","2018/03/01 13:39:18","新北市貢寮區美豐里文秀坑8號","121.902451666667","25.05034","6502600","貢寮區"
"228004","212-TW","2018/03/01 13:38:44","新北市貢寮區龍崗里嵩陽街17號","121.907318333333","25.0086466666667","6502600","貢寮區"
"253003","6232-TK","2018/03/01 13:39:28","新北市石門區內石門12號","121.570396666667","25.28276","6502200","石門區"
"253001","6251-TK","2018/03/01 13:39:06","新北市石門區白沙灣別墅46號","121.509196666667","25.27825","6502200","石門區"
"253002","637-UY","2018/03/01 13:39:30","新北市石門區九芎林36號","121.56642","25.254005","6502200","石門區"
"253004","8270-PC","2018/03/01 13:38:54","新北市石門區竹子湖14號","121.616015","25.25595","6502200","石門區"
"207002","749-BX","2018/03/01 13:39:32","新北市萬里區崁腳里崁腳路166號","121.64505","25.1558033333333","6502800","萬里區"
"252005","073-UM","2018/03/01 13:39:16","新北市三芝區圓山里木屐寮32-2號","121.530983333333","25.221055","6502100","三芝區"
"207001","662-BX","2018/03/01 13:39:20","新北市萬里區磺潭里磺溪10號","121.629105","25.202645","6502800","萬里區"
"237001","159-UY","2018/03/01 13:39:19","新北市三峽區國慶路301-1號","121.37418","24.9408616666667","6500900","三峽區"
"236076","166-UM","2018/03/01 13:39:17","新北市土城區城林路6巷80號","121.438731666667","24.979635","6501300","土城區"
"236024","269-VK","2018/03/01 13:39:23","新北市土城區城林路6巷80號","121.438543333333","24.9797116666667","6501300","土城區"
"236005","498-BY","2018/03/01 13:39:23","新北市土城區慶祥街1巷2號","121.437443333333","24.974635","6501300","土城區"
"236052","AAC-216","2018/03/01 13:39:27","新北市土城區城林路6巷80號","121.438328333333","24.9797666666667","6501300","土城區"
"242045","172-VK","2018/03/01 13:39:18","新北市新莊區四維路119巷9弄1號","121.423703333333","25.0230483333333","6500500","新莊區"
"221032","280-BY","2018/03/01 13:39:22","新北市汐止區水源路一段56號","121.657513333333","25.0655516666667","6501100","汐止區"
"220027","145-BY","2018/03/01 13:39:23","新北市板橋區幸福路70巷1號","121.46083","25.0199733333333","6500100","板橋區"
"220028","200-UY","2018/03/01 13:39:17","新北市板橋區大觀路二段431-1號","121.44151","24.9950483333333","6500100","板橋區"
"220030","610-BX","2018/03/01 13:39:28","新北市板橋區大觀路二段443-2號","121.43871","24.9952766666667","6500100","板橋區"
"220004","276-BY","2018/03/01 13:39:29","新北市板橋區四川路二段140巷18號","121.449376666667","24.9933116666667","6500100","板橋區"
"220020","277-BY","2018/03/01 13:39:21","新北市板橋區大觀路二段443-2號","121.438981666667","24.9952333333333","6500100","板橋區"
"220005","282-UM","2018/03/01 13:39:22","新北市板橋區華東街1-9號","121.448143333333","24.9948883333333","6500100","板橋區"
"220019","283-VK","2018/03/01 13:39:25","新北市板橋區四川路二段140巷20號","121.448968333333","24.9934733333333","6500100","板橋區"
"220043","285-UM","2018/03/01 13:39:25","新北市板橋區民生路二段161巷1號","121.470113333333","25.01987","6500100","板橋區"
"220001","285-VK","2018/03/01 13:39:30","新北市板橋區民生路二段161巷1號","121.470271666667","25.0199583333333","6500100","板橋區"
"220031","286-VK","2018/03/01 13:39:16","新北市板橋區大觀路二段266號","121.449316666667","24.9965583333333","6500100","板橋區"
"220029","287-VK","2018/03/01 13:39:31","新北市板橋區大觀路二段101巷27號","121.447126666667","25.0013416666667","6500100","板橋區"
"220009","293-UM","2018/03/01 13:39:23","新北市板橋區民生路二段120號","121.470408333333","25.0197233333333","6500100","板橋區"
"220032","296-UM","2018/03/01 13:39:32","新北市板橋區大觀路二段205號","121.44469","24.9994366666667","6500100","板橋區"
"220023","303-R5","2018/03/01 13:39:18","新北市板橋區南雅南路二段120-16號","121.451918333333","24.999075","6500100","板橋區"
"220010","305-R5","2018/03/01 13:39:19","新北市板橋區民生路二段120號","121.470423333333","25.0196683333333","6500100","板橋區"
"220012","486-VK","2018/03/01 13:39:15","新北市板橋區縣民大道一段306號","121.461368333333","25.01071","6500100","板橋區"
"220104","560-BX","2018/03/01 13:39:25","新北市板橋區南雅西路二段145巷6號","121.451576666667","25.011835","6500100","板橋區"
"220052","561-BX","2018/03/01 13:39:35","新北市板橋區民生路二段120號","121.470316666667","25.0197416666667","6500100","板橋區"
"220011","609-BX","2018/03/01 13:39:20","新北市板橋區民生路二段161巷1號","121.469893333333","25.0200033333333","6500100","板橋區"
"220025","687-BX","2018/03/01 13:39:28","新北市板橋區大觀路三段160巷36號","121.42989","24.9939866666667","6500100","板橋區"
"220002","741-BX","2018/03/01 13:39:22","新北市板橋區華東街1-9號","121.448108333333","24.99493","6500100","板橋區"
"220014","829-TW","2018/03/01 13:39:30","新北市板橋區民生路二段120號","121.470301666667","25.0198283333333","6500100","板橋區"
"220022","895-R6","2018/03/01 13:39:23","新北市板橋區南雅南路二段116號","121.45325","25.00034","6500100","板橋區"
"220021","985-R7","2018/03/01 13:39:30","新北市板橋區南雅南路二段116號","121.453186666667","25.0002183333333","6500100","板橋區"
"220018","AAC-253","2018/03/01 13:39:31","新北市板橋區華東街11號","121.450768333333","24.9978633333333","6500100","板橋區"
"235011","KEA-2876","2018/03/01 13:39:29","新北市中和區南山路320巷10弄2號","121.506986666667","24.9865333333333","6500300","中和區"
