"lineid","car","time","location","longitude","latitude","cityid","cityname"
"248007","095-VK","2018/03/01 15:19:55","新北市五股區中興路一段1巷26-1號","121.469416666667","25.0702383333333","6501500","五股區"
"248004","677-BX","2018/03/01 15:19:53","新北市五股區中興路四段17-4號","121.439553333333","25.08244","6501500","五股區"
"244003","248-BX","2018/03/01 15:19:49","新北市林口區粉寮路一段84號","121.39741","25.0796966666667","6501700","林口區"
"243003","297-R6","2018/03/01 15:19:41","新北市泰山區公園路2號","121.430136666667","25.0539533333333","6501600","泰山區"
"243001","KEA-2216","2018/03/01 15:19:51","新北市泰山區橫窠雅20-6號","121.413533333333","25.0690016666667","6501600","泰山區"
"243005","646-TV","2018/03/01 15:19:38","新北市泰山區泰林路三段745巷145號","121.405615","25.067875","6501600","泰山區"
"243008","680-BX","2018/03/01 15:19:42","新北市泰山區文程路111號","121.430621666667","25.0481366666667","6501600","泰山區"
"231002","002-UM","2018/03/01 15:19:58","新北市新店區溪園路363號","121.522723333333","24.9810316666667","6500600","新店區"
"231025","0293-UT","2018/03/01 15:19:40","新北市新店區中央路22-1號","121.53323","24.97841","6500600","新店區"
"231028","046-UY","2018/03/01 15:19:40","新北市新店區僑信路108巷41號","121.499","24.9463816666667","6500600","新店區"
"231030","047-UY","2018/03/01 15:19:37","新北市新店區安和路二段207號","121.517741666667","24.9752016666667","6500600","新店區"
"231029","106-UY","2018/03/01 15:19:43","新北市新店區安康路三段738號","121.473846666667","24.941995","6500600","新店區"
"231018","107-UY","2018/03/01 15:19:38","新北市新店區中央五街3-2號","121.530421666667","24.9743016666667","6500600","新店區"
"231011","108-UY","2018/03/01 15:19:56","新北市新店區北新路三段238號","121.540126666667","24.9866833333333","6500600","新店區"
"231021","187-VK","2018/03/01 15:19:39","新北市新店區湖興路109號","121.559936666667","24.9367233333333","6500600","新店區"
"231017","KEA-2219","2018/03/01 15:03:00","新北市新店區明山路5號","121.56316","24.9552283333333","6500600","新店區"
"231026","256-BX","2018/03/01 15:19:53","新北市新店區中正路247巷6弄1號","121.538591666667","24.9726583333333","6500600","新店區"
"231023","AAD-862","2018/03/01 15:19:45","新北市新店區行政街10巷2號","121.54277","24.9666433333333","6500600","新店區"
"231024","4716-K9","2018/03/01 15:19:55","新北市新店區新明街26巷6號","121.541161666667","24.968765","6500600","新店區"
"231036","512-UM","2018/03/01 15:19:53","新北市新店區安祥路69巷48號","121.482123333333","24.9601233333333","6500600","新店區"
"231035","515-UM","2018/03/01 15:19:38","新北市新店區安和路三段60-1號","121.518113333333","24.982755","6500600","新店區"
"231001","619-UM","2018/03/01 15:19:47","新北市新店區光明街314號","121.540608333333","24.965075","6500600","新店區"
"231003","641-BX","2018/03/01 15:19:50","新北市新店區寶高路120巷1-1號","121.554648333333","24.9759733333333","6500600","新店區"
"231034","645-TV","2018/03/01 15:19:42","新北市新店區如意街1巷2號","121.495723333333","24.9494983333333","6500600","新店區"
"231039","718-UY","2018/03/01 15:19:56","新北市新店區寶元路一段65號","121.542216666667","24.9858383333333","6500600","新店區"
"231031","720-UM","2018/03/01 15:19:47","新北市新店區和成街19巷47號","121.488526666667","24.9459533333333","6500600","新店區"
"231005","897-TW","2018/03/01 15:19:41","新北市新店區民族路61號","121.53981","24.978375","6500600","新店區"
"231006","898-TW","2018/03/01 15:19:45","新北市新店區中興路一段171號","121.542773333333","24.9645033333333","6500600","新店區"
"231004","899-TW","2018/03/01 15:19:44","新北市新店區建國路29號","121.540236666667","24.9741083333333","6500600","新店區"
"231037","AKT-0513","2018/03/01 15:19:42","新北市新店區安興路91巷41號","121.513578333333","24.9744816666667","6500600","新店區"
"241013","270-UM","2018/03/01 15:19:43","新北市三重區重新路四段121號","121.484876666667","25.0525316666667","6500200","三重區"
"235030","003-UY","2018/03/01 15:19:44","新北市中和區保平路328號","121.506943333333","25.0042883333333","6500300","中和區"
"235003","097-UM","2018/03/01 15:19:52","新北市中和區安平路29號","121.509355","24.9944766666667","6500300","中和區"
"235004","150-BY","2018/03/01 15:19:53","新北市中和區景安路79巷23號","121.50718","24.99678","6500300","中和區"
"235031","255-BX","2018/03/01 15:19:44","新北市中和區新生街175號","121.483671666667","25.0007016666667","6500300","中和區"
"235014","4979-A6","2018/03/01 15:19:43","新北市中和區景平路464巷2弄1-4號","121.505865","24.99401","6500300","中和區"
"235033","4980-A6","2018/03/01 15:19:53","新北市中和區圓通路198巷2號","121.496233333333","24.9943716666667","6500300","中和區"
"235012","896-TW","2018/03/01 15:19:51","新北市中和區景新街370號","121.512161666667","24.99033","6500300","中和區"
"235034","911-UM","2018/03/01 15:19:41","新北市中和區景平路634-20號","121.497975","25.00017","6500300","中和區"
"235023","AAC-215","2018/03/01 15:19:50","新北市中和區圓通路316號","121.486543333333","24.9876183333333","6500300","中和區"
"220017","AAD-861","2018/03/01 15:19:48","新北市板橋區貴興路111號","121.45584","25.0025783333333","6500100","板橋區"
"247007","053-VK","2018/03/01 15:19:39","新北市林口區太平里180號","121.366896666667","25.133725","6501400","蘆洲區"
"253003","6232-TK","2018/03/01 15:19:58","新北市石門區小坑9號","121.594631666667","25.28819","6502200","石門區"
"253001","6251-TK","2018/03/01 15:19:46","新北市石門區尖子鹿116-1號","121.574398333333","25.297485","6502200","石門區"
"253002","637-UY","2018/03/01 15:19:50","新北市石門區尖子鹿103-3號","121.582236666667","25.29507","6502200","石門區"
"253004","8270-PC","2018/03/01 15:19:50","新北市石門區小坑31號","121.598063333333","25.2696483333333","6502200","石門區"
"207002","749-BX","2018/03/01 15:19:52","新北市萬里區崁腳里內中福路10-2號","121.663168333333","25.1641483333333","6502800","萬里區"
"207001","662-BX","2018/03/01 15:19:40","新北市萬里區野柳里八斗60號","121.669643333333","25.2026716666667","6502800","萬里區"
"236066","105-UM","2018/03/01 15:19:43","新北市土城區裕民路185巷36弄10號","121.45434","24.9845633333333","6501300","土城區"
"236040","107-UM","2018/03/01 15:19:38","新北市土城區裕民路185巷13號","121.454245","24.98509","6501300","土城區"
"236076","166-UM","2018/03/01 15:19:37","新北市土城區中州路27巷39-1號","121.413221666667","24.9570766666667","6501300","土城區"
"236028","253-BX","2018/03/01 15:19:55","新北市土城區中央路一段290號","121.443338333333","24.98247","6501300","土城區"
"236024","269-VK","2018/03/01 15:19:43","新北市土城區員林街61巷2弄17號","121.44475","24.9776966666667","6501300","土城區"
"236012","270-VK","2018/03/01 15:19:45","新北市土城區廣福街68巷20號","121.4584","24.990435","6501300","土城區"
"236033","271-VK","2018/03/01 15:19:46","新北市土城區國際路91號","121.467278333333","24.9758383333333","6501300","土城區"
"236018","401-BY","2018/03/01 15:19:42","新北市土城區峰廷街3號","121.469055","24.987345","6501300","土城區"
"236047","752-BX","2018/03/01 15:19:54","新北市土城區明德路一段69巷7號","121.465523333333","24.98377","6501300","土城區"
"236056","912-UM","2018/03/01 15:19:52","新北市土城區金城路一段55號","121.441285","24.9697766666667","6501300","土城區"
"236060","915-UM","2018/03/01 15:19:55","新北市土城區延和路105巷3弄1號","121.46739","24.9908016666667","6501300","土城區"
"236052","AAC-216","2018/03/01 15:19:47","新北市土城區學府路一段148號","121.454678333333","24.9869416666667","6501300","土城區"
"238002","755-BX","2018/03/01 15:19:47","新北市樹林區啟智街125號","121.419336666667","24.990025","6500700","樹林區"
"238010","601-UM","2018/03/01 15:19:44","新北市樹林區中正路433號","121.414996666667","25.0085383333333","6500700","樹林區"
"238006","599-UM","2018/03/01 15:19:46","新北市樹林區太平路273巷23號","121.421186666667","24.976355","6500700","樹林區"
"238005","571-TV","2018/03/01 15:19:38","新北市新莊區新崑路61號","121.431073333333","25.0001583333333","6500700","樹林區"
"238011","5061-A6","2018/03/01 15:19:52","新北市樹林區大同街10巷16號","121.41832","24.983555","6500700","樹林區"
"238008","KEA-2217","2018/03/01 15:19:52","新北市樹林區西圳街一段165巷20弄18號","121.395386666667","24.9600183333333","6500700","樹林區"
"238009","KEA-2213","2018/03/01 15:19:45","新北市樹林區信義街63號","121.424535","24.9829833333333","6500700","樹林區"
"238012","303-VK","2018/03/01 15:19:42","新北市樹林區中山路一段249號","121.420476666667","24.9864583333333","6500700","樹林區"
"238001","283-BY","2018/03/01 15:19:51","新北市樹林區保安街二段59號","121.416095","25.000405","6500700","樹林區"
"238001","282-BY","2018/03/01 15:19:44","新北市樹林區大安路147號","121.421841666667","24.9969583333333","6500700","樹林區"
"238007","268-VK","2018/03/01 15:19:40","新北市樹林區大安路33-7號","121.426803333333","25.0023216666667","6500700","樹林區"
"238013","172-UY","2018/03/01 15:19:46","新北市樹林區新興街3號","121.400253333333","24.9740216666667","6500700","樹林區"
"238003","169-UY","2018/03/01 15:19:53","新北市樹林區八德街1號","121.417575","24.9849983333333","6500700","樹林區"
"220050","280-UM","2018/03/01 15:19:48","新北市板橋區莊敬路75巷35號","121.473965","25.0262133333333","6500100","板橋區"
"220031","286-VK","2018/03/01 15:19:56","新北市板橋區僑中二街116巷21號","121.444723333333","25.0064883333333","6500100","板橋區"
"220029","287-VK","2018/03/01 15:19:51","新北市板橋區僑中一街80巷1弄17號","121.44674","25.0120116666667","6500100","板橋區"
"220009","293-UM","2018/03/01 15:19:43","新北市板橋區四川路一段286巷2號","121.458521666667","25.000905","6500100","板橋區"
"220041","299-UM","2018/03/01 15:19:52","新北市板橋區文化路一段45巷1弄3號","121.460478333333","25.0138766666667","6500100","板橋區"
"220012","486-VK","2018/03/01 15:19:55","新北市板橋區長安街331巷57號","121.472931666667","25.0131333333333","6500100","板橋區"
"220038","487-VK","2018/03/01 15:19:44","新北市板橋區互助街66號","121.461068333333","25.0266616666667","6500100","板橋區"
"220037","491-VK","2018/03/01 15:19:52","新北市板橋區民治街50號","121.479425","25.0333116666667","6500100","板橋區"
"220011","609-BX","2018/03/01 15:19:41","新北市板橋區縣民大道三段310號","121.478618333333","25.0236666666667","6500100","板橋區"
"220042","689-BX","2018/03/01 15:19:48","新北市板橋區長江路二段8號","121.464666666667","25.0312866666667","6500100","板橋區"
"220051","KEA-2699","2018/03/01 15:19:45","新北市板橋區漢生東路31號","121.465308333333","25.0170016666667","6500100","板橋區"
"220022","895-R6","2018/03/01 15:19:51","新北市板橋區館前西路53號","121.457765","25.0068283333333","6500100","板橋區"
"220046","AAC-210","2018/03/01 15:19:54","新北市板橋區文化路一段101巷13號","121.460813333333","25.014695","6500100","板橋區"
"220018","AAC-253","2018/03/01 15:19:51","新北市板橋區德興街16號","121.453425","24.994375","6500100","板橋區"
