"lineid","car","time","location","longitude","latitude","cityid","cityname"
"244003","248-BX","2018/03/01 15:29:49","新北市林口區粉寮路二段160巷28號","121.405163333333","25.0908083333333","6501700","林口區"
"243001","KEA-2216","2018/03/01 15:29:31","新北市泰山區橫窠雅36號","121.404021666667","25.0728966666667","6501600","泰山區"
"243005","646-TV","2018/03/01 15:29:38","新北市泰山區泰林路三段745巷145號","121.405546666667","25.0677016666667","6501600","泰山區"
"231002","002-UM","2018/03/01 15:29:38","新北市新店區環河路150-8號","121.534408333333","24.9679383333333","6500600","新店區"
"231025","0293-UT","2018/03/01 15:29:40","新北市新店區環河路105-12號","121.531808333333","24.97009","6500600","新店區"
"231028","046-UY","2018/03/01 15:29:40","新北市新店區僑信路45號","121.499351666667","24.9499166666667","6500600","新店區"
"231030","047-UY","2018/03/01 15:29:46","新北市新店區新和街65號","121.520056666667","24.9857533333333","6500600","新店區"
"231029","106-UY","2018/03/01 15:29:43","新北市新店區安康路三段525巷39號","121.48157","24.9445966666667","6500600","新店區"
"231018","107-UY","2018/03/01 15:29:38","新北市新店區中央路206號","121.530288333333","24.9741","6500600","新店區"
"231011","108-UY","2018/03/01 15:29:44","新北市新店區寶元路一段52號","121.544035","24.9845133333333","6500600","新店區"
"231021","187-VK","2018/03/01 15:29:39","新北市新店區金興路28-2號","121.551358333333","24.930605","6500600","新店區"
"231017","KEA-2219","2018/03/01 15:03:00","新北市新店區明山路5號","121.56316","24.9552283333333","6500600","新店區"
"231026","256-BX","2018/03/01 15:29:33","新北市新店區三民路117巷6弄1號","121.534093333333","24.97119","6500600","新店區"
"231023","AAD-862","2018/03/01 15:29:45","新北市新店區北新路一段96巷23號","121.54284","24.968735","6500600","新店區"
"231036","512-UM","2018/03/01 15:29:33","新北市新店區安祥路69巷89弄45號","121.482733333333","24.961955","6500600","新店區"
"231035","515-UM","2018/03/01 15:29:38","新北市新店區安興路83-8號","121.515243333333","24.9755533333333","6500600","新店區"
"231003","641-BX","2018/03/01 15:29:29","新北市新店區寶高路120巷1-1號","121.554583333333","24.9759816666667","6500600","新店區"
"231034","645-TV","2018/03/01 15:29:42","新北市新店區富貴街9巷2號","121.494086666667","24.9491016666667","6500600","新店區"
"231039","718-UY","2018/03/01 15:29:36","新北市新店區寶元路一段95號","121.543661666667","24.984985","6500600","新店區"
"231013","719-UM","2018/03/01 15:29:41","新北市新店區永業路81巷1弄1-1號","121.529625","24.94943","6500600","新店區"
"231031","720-UM","2018/03/01 15:29:47","新北市新店區雙城路129號","121.49261","24.9469783333333","6500600","新店區"
"231005","897-TW","2018/03/01 15:29:41","新北市新店區建國路291巷1號","121.536978333333","24.9853066666667","6500600","新店區"
"231004","899-TW","2018/03/01 15:29:44","新北市新店區民族路193號","121.537208333333","24.97622","6500600","新店區"
"231037","AKT-0513","2018/03/01 15:29:42","新北市新店區安民街341-1號","121.516796666667","24.9748966666667","6500600","新店區"
"241017","063-VK","2018/03/01 15:29:44","新北市三重區重新路四段121號","121.484888333333","25.0520316666667","6500200","三重區"
"241013","270-UM","2018/03/01 15:29:43","新北市三重區新北大道一段250號","121.479851666667","25.061415","6500200","三重區"
"241033","AAC-255","2018/03/01 15:29:32","新北市三重區重新路五段328號","121.476658333333","25.0480516666667","6500200","三重區"
"235030","003-UY","2018/03/01 15:29:24","新北市中和區光華街67號","121.506501666667","25.0029933333333","6500300","中和區"
"235031","255-BX","2018/03/01 15:29:44","新北市中和區新生街186巷1弄11號","121.4834","24.9992083333333","6500300","中和區"
"235014","4979-A6","2018/03/01 15:29:43","新北市中和區景新街129號","121.505828333333","24.9972983333333","6500300","中和區"
"235033","4980-A6","2018/03/01 15:29:39","新北市中和區連城路347巷18弄1號","121.487658333333","24.994845","6500300","中和區"
"235034","911-UM","2018/03/01 15:29:41","新北市中和區連勝街2號","121.499108333333","24.9986733333333","6500300","中和區"
"235023","AAC-215","2018/03/01 15:29:31","新北市中和區員山路22-1號","121.483443333333","24.9847283333333","6500300","中和區"
"247007","053-VK","2018/03/01 15:29:39","新北市林口區太平里180號","121.366765","25.1340233333333","6501400","蘆洲區"
"227004","400-TW","2018/03/01 15:29:42","新北市雙溪區三貂里定福路1號","121.849483333333","25.0642816666667","6502500","雙溪區"
"253003","6232-TK","2018/03/01 15:29:38","新北市石門區小坑9號","121.594136666667","25.2887166666667","6502200","石門區"
"253001","6251-TK","2018/03/01 15:29:46","新北市石門區小坑9號","121.594503333333","25.2891633333333","6502200","石門區"
"253004","8270-PC","2018/03/01 15:29:29","新北市石門區小坑9號","121.594366666667","25.2886216666667","6502200","石門區"
"236066","105-UM","2018/03/01 15:29:43","新北市土城區中正路82-1號","121.445271666667","24.975925","6501300","土城區"
"236040","107-UM","2018/03/01 15:29:38","新北市土城區學成路22巷3號","121.453458333333","24.987345","6501300","土城區"
"236076","166-UM","2018/03/01 15:29:37","新北市土城區溪頭路151號","121.409186666667","24.9508883333333","6501300","土城區"
"236028","253-BX","2018/03/01 15:29:35","新北市土城區中央路一段260巷20號","121.44315","24.9846016666667","6501300","土城區"
"236024","269-VK","2018/03/01 15:29:43","新北市土城區明德路二段102巷8號","121.445495","24.9844383333333","6501300","土城區"
"236012","270-VK","2018/03/01 15:29:45","新北市土城區廣明街1號","121.455996666667","24.9917066666667","6501300","土城區"
"236033","271-VK","2018/03/01 15:29:45","新北市土城區明德路一段48巷12號","121.464638333333","24.9837533333333","6501300","土城區"
"236018","401-BY","2018/03/01 15:29:42","新北市土城區金城路三段198號","121.46845","24.9881466666667","6501300","土城區"
"236047","752-BX","2018/03/01 15:29:33","新北市土城區青雲路165號","121.459145","24.9832816666667","6501300","土城區"
"236056","912-UM","2018/03/01 15:29:32","新北市土城區中央路二段249號","121.440043333333","24.971605","6501300","土城區"
"236060","915-UM","2018/03/01 15:29:41","新北市土城區金城路三段73巷4弄3號","121.466403333333","24.9878716666667","6501300","土城區"
"236052","AAC-216","2018/03/01 15:29:47","新北市土城區延和路63號","121.46681","24.9897716666667","6501300","土城區"
"238002","755-BX","2018/03/01 15:29:47","新北市樹林區復興路196號","121.42001","24.9910233333333","6500700","樹林區"
"238010","601-UM","2018/03/01 15:29:44","新北市樹林區三福街42號","121.407926666667","25.016525","6500700","樹林區"
"238006","599-UM","2018/03/01 15:29:46","新北市樹林區八德街69號","121.419451666667","24.9821983333333","6500700","樹林區"
"238005","571-TV","2018/03/01 15:29:43","新北市樹林區樹新路30號","121.42707","24.9944483333333","6500700","樹林區"
"238011","5061-A6","2018/03/01 15:29:32","新北市樹林區八德街212巷26號","121.415211666667","24.97394","6500700","樹林區"
"238008","KEA-2217","2018/03/01 15:29:31","新北市樹林區西圳街一段98-2號","121.400015","24.9635683333333","6500700","樹林區"
"238009","KEA-2213","2018/03/01 15:29:45","新北市樹林區信義街22號","121.423016666667","24.9821","6500700","樹林區"
"238012","303-VK","2018/03/01 15:29:42","新北市樹林區中山路一段236號","121.4212","24.9877133333333","6500700","樹林區"
"238001","283-BY","2018/03/01 15:29:31","新北市樹林區保安街二段335號","121.41253","25.0077766666667","6500700","樹林區"
"238001","282-BY","2018/03/01 15:29:44","新北市樹林區千歲街61巷40弄11號","121.42598","24.9990283333333","6500700","樹林區"
"238007","268-VK","2018/03/01 15:29:40","新北市樹林區俊英街116巷41弄38號","121.42872","25.0070033333333","6500700","樹林區"
"238013","172-UY","2018/03/01 15:29:46","新北市樹林區新興街19巷6號","121.400423333333","24.9727116666667","6500700","樹林區"
"238003","169-UY","2018/03/01 15:29:33","新北市樹林區長壽街28巷4弄7號","121.423508333333","24.99438","6500700","樹林區"
"220050","280-UM","2018/03/01 15:29:48","新北市板橋區漢生東路83巷1號","121.46632","25.01597","6500100","板橋區"
"220038","487-VK","2018/03/01 15:29:44","新北市板橋區四維路159號","121.464816666667","25.02584","6500100","板橋區"
"220052","561-BX","2018/03/01 15:29:47","新北市板橋區漢生東路23巷39號","121.465765","25.01789","6500100","板橋區"
"220042","689-BX","2018/03/01 15:29:28","新北市板橋區新海路466號","121.457601666667","25.0285133333333","6500100","板橋區"
"220018","AAC-253","2018/03/01 15:29:40","新北市板橋區四川路二段245巷46號","121.45185","24.9924866666667","6500100","板橋區"
