"lineid","car","time","location","longitude","latitude","cityid","cityname"
"231030","047-UY","2018/03/01 15:49:17","新北市新店區永安街3號","121.516728333333","24.986075","6500600","新店區"
"231018","107-UY","2018/03/01 15:49:18","新北市新店區中正路663巷7弄13號","121.532856666667","24.9900266666667","6500600","新店區"
"231011","108-UY","2018/03/01 15:49:28","新北市新店區文化路13號","121.542998333333","24.979465","6500600","新店區"
"231021","187-VK","2018/03/01 15:49:20","新北市新店區新烏路一段87巷19-2號","121.54762","24.942005","6500600","新店區"
"231017","KEA-2219","2018/03/01 15:49:20","新北市新店區中華路1號","121.54122","24.9671466666667","6500600","新店區"
"231026","256-BX","2018/03/01 15:49:13","新北市新店區中正路489號","121.533766666667","24.9823616666667","6500600","新店區"
"231046","278-BY","2018/03/01 15:49:27","新北市新店區安華路28-1號","121.519598333333","24.96104","6500600","新店區"
"231023","AAD-862","2018/03/01 15:49:25","新北市新店區大新街9巷17號","121.544168333333","24.9673533333333","6500600","新店區"
"231038","4715-K9","2018/03/01 15:49:16","新北市新店區安康路二段242巷6號","121.508863333333","24.9595866666667","6500600","新店區"
"231035","515-UM","2018/03/01 15:49:18","新北市新店區安民街389號","121.515973333333","24.976845","6500600","新店區"
"231003","641-BX","2018/03/01 15:49:29","新北市新店區寶興路60巷6號","121.549738333333","24.9718683333333","6500600","新店區"
"231034","645-TV","2018/03/01 15:49:22","新北市新店區玫瑰路57巷22號","121.496488333333","24.9462716666667","6500600","新店區"
"231013","719-UM","2018/03/01 15:49:22","新北市新店區永業路81巷3弄2號","121.530021666667","24.9492433333333","6500600","新店區"
"231004","899-TW","2018/03/01 15:49:24","新北市新店區中央路68號","121.532498333333","24.9771583333333","6500600","新店區"
"231037","AKT-0513","2018/03/01 15:49:22","新北市新店區安民街317號","121.517526666667","24.9742716666667","6500600","新店區"
"241011","013-R5","2018/03/01 15:49:29","新北市三重區文化北路248號","121.497425","25.0698983333333","6500200","三重區"
"241028","022-UY","2018/03/01 15:49:32","新北市三重區中正南路46號","121.49391","25.0600233333333","6500200","三重區"
"241015","062-VK","2018/03/01 15:49:25","新北市三重區重新路四段121號","121.485163333333","25.0521466666667","6500200","三重區"
"241017","063-VK","2018/03/01 15:49:24","新北市三重區大仁街1號","121.49169","25.063625","6500200","三重區"
"241026","066-VK","2018/03/01 15:49:22","新北市三重區光興街73號","121.49785","25.0600133333333","6500200","三重區"
"241003","091-VK","2018/03/01 15:49:24","新北市三重區泉州街84巷18號","121.495841666667","25.054265","6500200","三重區"
"241005","262-UM","2018/03/01 15:49:26","新北市三重區福德南路53號","121.50322","25.0614483333333","6500200","三重區"
"241016","265-UM","2018/03/01 15:49:24","新北市三重區重新路四段121號","121.485171666667","25.0520616666667","6500200","三重區"
"241022","267-UM","2018/03/01 15:49:20","新北市三重區重新路四段121號","121.484436666667","25.0519133333333","6500200","三重區"
"241013","270-UM","2018/03/01 15:49:23","新北市三重區三和路三段13號","121.496208333333","25.0707616666667","6500200","三重區"
"241007","398-BY","2018/03/01 15:49:15","新北市三重區成功路108巷8號","121.485625","25.0504166666667","6500200","三重區"
"241024","478-VK","2018/03/01 15:49:23","新北市三重區忠孝路三段84巷1號","121.48021","25.064485","6500200","三重區"
"241014","543-UM","2018/03/01 15:49:10","新北市三重區重新路四段121號","121.485078333333","25.05213","6500200","三重區"
"241023","545-UM","2018/03/01 15:49:22","新北市三重區頂崁街183號","121.478353333333","25.0639533333333","6500200","三重區"
"241006","AAD-863","2018/03/01 15:49:29","新北市三重區重新路四段121號","121.484401666667","25.0522483333333","6500200","三重區"
"241012","941-UM","2018/03/01 15:49:31","新北市三重區長壽街1號","121.498181666667","25.0675783333333","6500200","三重區"
"241029","942-UM","2018/03/01 15:49:26","新北市三重區大同南路242號","121.496908333333","25.0558883333333","6500200","三重區"
"241033","AAC-255","2018/03/01 15:49:12","新北市三重區光復路一段82號","121.471971666667","25.0502083333333","6500200","三重區"
"235033","4980-A6","2018/03/01 15:49:14","新北市中和區連城路523巷11弄34號","121.4826","24.9940416666667","6500300","中和區"
"235026","800-TS","2018/03/01 15:49:24","新北市中和區永和路226號","121.490758333333","25.0076433333333","6500300","中和區"
"235034","911-UM","2018/03/01 15:49:21","新北市中和區中正路426號","121.491506666667","24.994335","6500300","中和區"
"235023","AAC-215","2018/03/01 15:49:30","新北市中和區員山路59號","121.481046666667","24.99303","6500300","中和區"
"247004","336-TH","2018/03/01 15:38:00","新北市五股區中興路三段2巷10號","121.449075","25.08104","6501400","蘆洲區"
"247007","053-VK","2018/03/01 15:49:19","新北市五股區更洲路47-1號","121.453863333333","25.0784933333333","6501400","蘆洲區"
"224007","275-VK","2018/03/01 15:49:21","新北市瑞芳區大寮路356-1號","121.784633333333","25.10346","6501200","瑞芳區"
"227010","642-TC","2018/03/01 15:49:25","新北市雙溪區新基里自強路15號","121.865448333333","25.03935","6502500","雙溪區"
"227004","400-TW","2018/03/01 15:49:23","新北市雙溪區平林里外平林44號","121.852923333333","25.03635","6502500","雙溪區"
"253004","8270-PC","2018/03/01 15:49:29","新北市石門區小坑9號","121.594435","25.2883866666667","6502200","石門區"
"251013","179-VK","2018/03/01 15:49:13","新北市淡水區中正路二段12號","121.420656666667","25.1808266666667","6501000","淡水區"
"236066","105-UM","2018/03/01 15:49:23","新北市土城區中山路65號","121.425918333333","24.96472","6501300","土城區"
"236076","166-UM","2018/03/01 15:49:30","新北市土城區福安街73號","121.416895","24.9637333333333","6501300","土城區"
"236028","253-BX","2018/03/01 15:49:15","新北市土城區學成路126號","121.449276666667","24.989675","6501300","土城區"
"236024","269-VK","2018/03/01 15:49:24","新北市土城區裕生路82巷2號","121.447328333333","24.9857383333333","6501300","土城區"
"236012","270-VK","2018/03/01 15:49:25","新北市土城區廣明街63巷4號","121.454545","24.9935433333333","6501300","土城區"
"236018","401-BY","2018/03/01 15:49:30","新北市土城區延吉街113號","121.471328333333","24.986615","6501300","土城區"
"236047","752-BX","2018/03/01 15:49:13","新北市土城區金城路三段25號","121.465291666667","24.9864916666667","6501300","土城區"
"236056","912-UM","2018/03/01 15:49:12","新北市土城區中央路一段148號","121.446138333333","24.98739","6501300","土城區"
"236052","AAC-216","2018/03/01 15:49:27","新北市土城區中華路一段67號","121.445191666667","24.9880366666667","6501300","土城區"
"238002","755-BX","2018/03/01 15:49:28","新北市樹林區啟智街44巷1號","121.420386666667","24.992845","6500700","樹林區"
"238010","601-UM","2018/03/01 15:49:24","新北市樹林區龍興街31巷5號","121.403321666667","25.016035","6500700","樹林區"
"238006","599-UM","2018/03/01 15:49:26","新北市樹林區八德街11號","121.420061666667","24.974755","6500700","樹林區"
"238005","571-TV","2018/03/01 15:49:18","新北市樹林區中華路219-1號","121.419466666667","24.9812883333333","6500700","樹林區"
"238011","5061-A6","2018/03/01 15:49:11","新北市樹林區山佳街57-1號","121.392938333333","24.972485","6500700","樹林區"
"238008","KEA-2217","2018/03/01 15:49:33","新北市樹林區柑園街二段9號","121.38805","24.9558","6500700","樹林區"
"238009","KEA-2213","2018/03/01 15:49:25","新北市樹林區太順街62巷4號","121.417795","24.9795183333333","6500700","樹林區"
"238012","303-VK","2018/03/01 15:49:22","新北市樹林區保安街一段90號","121.424265","24.9947","6500700","樹林區"
"238001","283-BY","2018/03/01 15:49:31","新北市樹林區保安街二段161號","121.415298333333","25.0027933333333","6500700","樹林區"
"238001","282-BY","2018/03/01 15:49:24","新北市樹林區保安二街40巷18號","121.425618333333","24.9946883333333","6500700","樹林區"
"238007","268-VK","2018/03/01 15:49:20","新北市樹林區俊英街116巷41弄38號","121.42872","25.0070033333333","6500700","樹林區"
"238013","172-UY","2018/03/01 15:49:26","新北市樹林區佳園路一段35號","121.393048333333","24.9709683333333","6500700","樹林區"
"238003","169-UY","2018/03/01 15:49:13","新北市樹林區復興路322巷10號","121.416063333333","24.9871916666667","6500700","樹林區"
