"lineid","car","time","location","longitude","latitude","cityid","cityname"
"249005","172-UM","2018/03/01 17:19:13","新北市五股區中直路崩山巷9-2號","121.417765","25.1243066666667","6502300","八里區"
"249001","173-UM","2018/03/01 17:19:20","新北市八里區中華路二段165巷3號","121.407603333333","25.1509633333333","6502300","八里區"
"249004","303-UY","2018/03/01 17:19:25","新北市八里區賢三街17號","121.419095","25.1593316666667","6502300","八里區"
"249002","305-UY","2018/03/01 17:19:27","新北市八里區龍米路二段117巷39-1號","121.44324","25.141985","6502300","八里區"
"249003","593-UM","2018/03/01 17:19:24","新北市八里區中山路二段453-1號","121.396433333333","25.1454183333333","6502300","八里區"
"244013","069-UM","2018/03/01 17:19:20","新北市林口區粉寮69號","121.405013333333","25.090855","6501700","林口區"
"244007","080-UY","2018/03/01 17:19:19","新北市林口區中湖40-9號","121.383211666667","25.091235","6501700","林口區"
"244025","742-UY","2018/03/01 17:19:24","新北市林口區文化三路一段589號","121.37114","25.076765","6501700","林口區"
"244017","485-VK","2018/03/01 17:19:24","新北市林口區粉寮路15-3號","121.398261666667","25.0805583333333","6501700","林口區"
"244019","656-BX","2018/03/01 17:19:12","新北市林口區文化一路一段190巷7弄3號","121.380156666667","25.07499","6501700","林口區"
"244009","657-BX","2018/03/01 17:19:20","新北市林口區文化北路二段550巷20弄10號","121.378258333333","25.09174","6501700","林口區"
"244011","701-TV","2018/03/01 17:19:21","新北市林口區粉寮69號","121.404848333333","25.0908333333333","6501700","林口區"
"244023","837-TS","2018/03/01 17:19:20","新北市林口區仁愛路一段384號","121.387828333333","25.0767183333333","6501700","林口區"
"244021","838-TS","2018/03/01 17:19:17","新北市林口區粉寮路60-7號","121.405905","25.08846","6501700","林口區"
"243016","680-BX","2018/03/01 17:19:25","新北市泰山區黎明路25號","121.42207","25.0606216666667","6501600","泰山區"
"231046","278-BY","2018/03/01 17:19:27","新北市新店區直潭路92號","121.53091","24.9375816666667","6500600","新店區"
"241011","013-R5","2018/03/01 17:19:29","新北市三重區河邊北街100巷6號","121.503651666667","25.0703583333333","6500200","三重區"
"241028","022-UY","2018/03/01 17:19:12","新北市三重區仁化街38號","121.493355","25.059735","6500200","三重區"
"241008","059-VK","2018/03/01 17:19:20","新北市三重區永福街72巷37號","121.48022","25.07631","6500200","三重區"
"241009","060-VK","2018/03/01 17:19:21","新北市三重區仁愛街664號","121.482498333333","25.080345","6500200","三重區"
"241015","062-VK","2018/03/01 17:19:25","新北市三重區長元街82-1號","121.501828333333","25.0663783333333","6500200","三重區"
"241017","063-VK","2018/03/01 17:19:24","新北市三重區大同北路44巷11號","121.494761666667","25.0629183333333","6500200","三重區"
"241026","066-VK","2018/03/01 17:19:22","新北市三重區文化南路31號","121.500166666667","25.0617933333333","6500200","三重區"
"241002","090-VK","2018/03/01 17:19:27","新北市三重區自強路五段3號","121.492191666667","25.0802533333333","6500200","三重區"
"241003","091-VK","2018/03/01 17:19:24","新北市三重區富福街63號","121.492101666667","25.0846266666667","6500200","三重區"
"241005","262-UM","2018/03/01 17:19:26","新北市三重區永安北路二段25巷27號","121.482811666667","25.081845","6500200","三重區"
"241016","265-UM","2018/03/01 17:19:24","新北市三重區大同北路54巷1號","121.494108333333","25.0636933333333","6500200","三重區"
"241022","267-UM","2018/03/01 17:19:20","新北市三重區中正北路64巷9號","121.486283333333","25.0642183333333","6500200","三重區"
"241018","268-UM","2018/03/01 17:19:23","新北市三重區安慶街152號","121.494186666667","25.0686333333333","6500200","三重區"
"241032","269-UM","2018/03/01 17:19:12","新北市三重區興華街148號","121.482758333333","25.0598366666667","6500200","三重區"
"241013","270-UM","2018/03/01 17:19:23","新北市三重區仁愛街141巷23號","121.496981666667","25.0758833333333","6500200","三重區"
"241025","271-UM","2018/03/01 17:19:13","新北市三重區中正北路299號","121.474385","25.0713116666667","6500200","三重區"
"241007","398-BY","2018/03/01 17:19:15","新北市三重區慈愛街9-1號","121.485116666667","25.0786516666667","6500200","三重區"
"241020","413-TH","2018/03/01 17:19:14","新北市三重區忠孝路一段155號","121.487933333333","25.072095","6500200","三重區"
"241004","475-VK","2018/03/01 17:19:32","新北市三重區五華街110巷16號","121.4911","25.0823683333333","6500200","三重區"
"241024","478-VK","2018/03/01 17:19:23","新北市三重區中正北路193巷21弄42號","121.4787","25.071095","6500200","三重區"
"241030","480-VK","2018/03/01 17:19:31","新北市三重區成功路73巷11號","121.489458333333","25.0519166666667","6500200","三重區"
"241014","543-UM","2018/03/01 17:19:30","新北市三重區三和路二段83號","121.500146666667","25.0684566666667","6500200","三重區"
"241023","545-UM","2018/03/01 17:19:22","新北市三重區忠孝路三段53號","121.48098","25.0663783333333","6500200","三重區"
"241001","547-UM","2018/03/01 17:19:15","新北市三重區仁愛街269巷21號","121.4937","25.0790483333333","6500200","三重區"
"241019","KEA-2593","2018/03/01 17:19:24","新北市三重區忠孝路二段95號","121.484275","25.0700416666667","6500200","三重區"
"241012","941-UM","2018/03/01 17:19:11","新北市三重區河邊北街248巷3號","121.50165","25.0759316666667","6500200","三重區"
"241029","942-UM","2018/03/01 17:19:26","新北市三重區重新路四段116號","121.486956666667","25.0568366666667","6500200","三重區"
"241033","AAC-255","2018/03/01 17:19:32","新北市三重區光復路二段88巷65號","121.469156666667","25.0570433333333","6500200","三重區"
"235061","378-QA","2018/03/01 16:52:18","新北市中和區員山路36巷16-2號","121.48529","24.9916933333333","6500300","中和區"
"247022","893-R6","2018/03/01 17:19:30","新北市蘆洲區三民路128巷88號","121.469848333333","25.0901","6501400","蘆洲區"
"247012","546-UM","2018/03/01 17:19:21","新北市蘆洲區信義路319巷4號","121.478048333333","25.0863083333333","6501400","蘆洲區"
"247020","500-BY","2018/03/01 17:19:30","新北市蘆洲區仁愛街35巷12號","121.471573333333","25.0926783333333","6501400","蘆洲區"
"247010","339-TH","2018/03/01 17:19:31","新北市蘆洲區中山一路120巷7弄42-1號","121.476986666667","25.0825233333333","6501400","蘆洲區"
"247002","337-TH","2018/03/01 17:19:18","新北市蘆洲區永樂街38巷33弄6號","121.457896666667","25.0896083333333","6501400","蘆洲區"
"247004","335-TH","2018/03/01 17:19:19","新北市蘆洲區長安街152號","121.459806666667","25.0824833333333","6501400","蘆洲區"
"247016","057-VK","2018/03/01 17:19:14","新北市蘆洲區正和街104號","121.468038333333","25.0807333333333","6501400","蘆洲區"
"247006","056-VK","2018/03/01 17:19:28","新北市蘆洲區長安街73巷15號","121.46234","25.0794133333333","6501400","蘆洲區"
"247008","053-VK","2018/03/01 17:19:27","新北市蘆洲區永安北路一段72巷50號","121.47615","25.07692","6501400","蘆洲區"
"247014","007-UY","2018/03/01 17:19:20","新北市蘆洲區中正路79-2號","121.47022","25.0834766666667","6501400","蘆洲區"
"247024","002-UY","2018/03/01 17:19:28","新北市蘆洲區光榮路2號","121.460305","25.0861883333333","6501400","蘆洲區"
"247018","001-UY","2018/03/01 17:19:17","新北市蘆洲區民權路80號","121.474616666667","25.0875983333333","6501400","蘆洲區"
"228003","097-TW","2018/03/01 17:19:29","新北市貢寮區福隆里興隆街15號","121.94376","25.0166083333333","6502600","貢寮區"
"228001","212-TW","2018/03/01 17:19:22","新北市貢寮區仁理村尖山腳街18-3號","121.925516666667","25.0483166666667","6502600","貢寮區"
"228002","585-TW","2018/03/01 17:19:18","新北市貢寮區雙玉里下雙溪街26號","121.923703333333","25.0099766666667","6502600","貢寮區"
"224010","AGQ-8101","2018/03/01 17:19:32","新北市瑞芳區逢甲路15號","121.809696666667","25.1086683333333","6501200","瑞芳區"
"224006","676-BX","2018/03/01 17:19:33","新北市瑞芳區大寮路356號","121.785615","25.1025266666667","6501200","瑞芳區"
"224008","285-BY","2018/03/01 17:19:18","新北市瑞芳區侯硐路158號","121.827818333333","25.0852883333333","6501200","瑞芳區"
"224007","275-VK","2018/03/01 17:19:21","新北市瑞芳區粗坑口路66號","121.761206666667","25.0989666666667","6501200","瑞芳區"
"224009","273-VK","2018/03/01 17:19:23","新北市瑞芳區汽車路116號","121.840016666667","25.11005","6501200","瑞芳區"
"224005","271-BY","2018/03/01 17:19:22","新北市瑞芳區鼻頭路95號","121.916018333333","25.1242533333333","6501200","瑞芳區"
"227010","642-TC","2018/03/01 17:19:25","新北市雙溪區三貂里定福路27號","121.851656666667","25.07442","6502500","雙溪區"
"227004","400-TW","2018/03/01 17:19:23","新北市雙溪區上林里內平林59號","121.832621666667","25.02973","6502500","雙溪區"
"251009","008-UM","2018/03/01 17:19:30","新北市淡水區三民街20號","121.439003333333","25.1717466666667","6501000","淡水區"
"251004","009-UM","2018/03/01 17:19:29","新北市淡水區中正東路二段88巷15號","121.459011666667","25.1505816666667","6501000","淡水區"
"251005","010-UM","2018/03/01 17:19:17","新北市淡水區鄧公路23巷1-5號","121.450241666667","25.1700016666667","6501000","淡水區"
"251013","179-VK","2018/03/01 17:19:12","新北市淡水區大竹圍1-3號","121.471095","25.19669","6501000","淡水區"
"251014","180-VK","2018/03/01 17:19:15","新北市淡水區番子田120號","121.464195","25.228465","6501000","淡水區"
"251008","181-VK","2018/03/01 17:19:18","新北市淡水區大同路287號","121.468161666667","25.1425733333333","6501000","淡水區"
"251015","182-VK","2018/03/01 17:16:13","新北市淡水區樹林口9號","121.47934","25.167955","6501000","淡水區"
"251010","413-VK","2018/03/01 17:19:13","新北市淡水區新市二路二段200號","121.429775","25.1950733333333","6501000","淡水區"
"251012","441-VK","2018/03/01 17:19:26","新北市淡水區中山北路一段158號","121.444303333333","25.1778733333333","6501000","淡水區"
"251016","442-VK","2018/03/01 17:19:26","新北市淡水區鄒厝崙12-1號","121.465265","25.19015","6501000","淡水區"
"251006","561-UM","2018/03/01 17:19:28","新北市淡水區大智街39號","121.442581666667","25.1743233333333","6501000","淡水區"
"251007","577-R6","2018/03/01 17:19:14","新北市淡水區民生路60號","121.462121666667","25.1379","6501000","淡水區"
"251011","650-BX","2018/03/01 17:19:12","新北市淡水區坪頂路136號","121.466296666667","25.1614516666667","6501000","淡水區"
"251002","672-BX","2018/03/01 17:19:24","新北市淡水區中正路二段31號","121.419411666667","25.18173","6501000","淡水區"
"251003","766-UM","2018/03/01 17:19:23","新北市淡水區中正路437號","121.432243333333","25.1747483333333","6501000","淡水區"
"207003","550-UM","2018/03/01 17:19:29","新北市萬里區萬里里瑪鋉路340號","121.68791","25.1828133333333","6502800","萬里區"
"252002","178-VK","2018/03/01 17:19:23","新北市三芝區忠孝街1-17號","121.505496666667","25.2537166666667","6502100","三芝區"
"252001","292-VK","2018/03/01 17:19:24","新北市三芝區長安街119號","121.498013333333","25.2596666666667","6502100","三芝區"
"242029","986-R7","2018/03/01 17:19:20","新北市新莊區新泰路488號","121.442561666667","25.045795","6500500","新莊區"
"242051","751-BX","2018/03/01 17:19:26","新北市新莊區瓊林路190-2號","121.439435","25.0208416666667","6500500","新莊區"
"242025","705-TV","2018/03/01 17:18:58","新北市新莊區中港一街161號","121.447368333333","25.0450133333333","6500500","新莊區"
"242023","613-BX","2018/03/01 17:19:21","新北市新莊區中環路二段392-1號","121.44243","25.045635","6500500","新莊區"
"242027","612-BX","2018/03/01 17:19:14","新北市新莊區中港一街143號","121.447895","25.0450783333333","6500500","新莊區"
"242039","566-BX","2018/03/01 17:19:18","新北市新莊區民安路426-9號","121.432943333333","25.0228916666667","6500500","新莊區"
"242044","497-BY","2018/03/01 17:19:17","新北市新莊區富國路101-1號","121.421301666667","25.0255733333333","6500500","新莊區"
"242053","442-UM","2018/03/01 17:19:28","新北市新莊區中正路473-1號","121.442056666667","25.0330466666667","6500500","新莊區"
"242048","441-UM","2018/03/01 17:19:33","新北市新莊區龍安路108號","121.41838","25.020575","6500500","新莊區"
"242015","440-UM","2018/03/01 17:19:17","新北市新莊區新泰路496號","121.44268","25.0461566666667","6500500","新莊區"
"242034","415-TV","2018/03/01 17:19:22","新北市新莊區瓊林路52號","121.445721666667","25.02873","6500500","新莊區"
"242004","413-TV","2018/03/01 17:19:29","新北市新莊區新泰路490巷3號","121.443073333333","25.04602","6500500","新莊區"
"242042","400-BY","2018/03/01 17:19:14","新北市新莊區新樹路113巷7號","121.438001666667","25.0267","6500500","新莊區"
"242061","362-BY","2018/03/01 17:19:20","新北市新莊區新泰路357巷2-2號","121.44178","25.0411616666667","6500500","新莊區"
"242058","353-BY","2018/03/01 17:19:26","新北市新莊區中正路400號","121.441563333333","25.0339383333333","6500500","新莊區"
"242007","132-UY","2018/03/01 17:19:22","新北市新莊區中環路二段392-1號","121.442411666667","25.0453766666667","6500500","新莊區"
"242036","133-UY","2018/03/01 17:19:12","新北市新莊區民安路429巷6號","121.433966666667","25.0231733333333","6500500","新莊區"
"242046","172-VK","2018/03/01 17:19:21","新北市新莊區新樹路65-6號","121.439405","25.0307883333333","6500500","新莊區"
"242002","176-VK","2018/03/01 17:19:15","新北市新莊區新泰路368號","121.444343333333","25.0428016666667","6500500","新莊區"
"242013","346-TH","2018/03/01 17:19:31","新北市新莊區中和街125巷5號","121.447043333333","25.0485933333333","6500500","新莊區"
"242019","348-TH","2018/03/01 17:19:27","新北市新莊區中港路286號","121.453068333333","25.044255","6500500","新莊區"
"242056","349-TH","2018/03/01 17:19:29","新北市新莊區三和路12-10號","121.442278333333","25.0367283333333","6500500","新莊區"
"242017","350-TH","2018/03/01 17:19:21","新北市新莊區中港路292號","121.452863333333","25.0446983333333","6500500","新莊區"
"242011","351-TH","2018/03/01 17:19:27","新北市新莊區中平路82巷29號","121.44626","25.044975","6500500","新莊區"
"238015","755-BX","2018/03/01 17:19:19","新北市樹林區中山路三段89號","121.400151666667","24.974655","6500700","樹林區"
"238023","601-UM","2018/03/01 17:19:24","新北市樹林區中正路439-1號","121.414746666667","25.0088083333333","6500700","樹林區"
"238019","599-UM","2018/03/01 17:19:26","新北市樹林區八德街228號","121.414166666667","24.971005","6500700","樹林區"
"238018","571-TV","2018/03/01 17:19:26","新北市樹林區水源街213號","121.424236666667","24.9872566666667","6500700","樹林區"
"238024","5061-A6","2018/03/01 17:19:31","新北市樹林區保安街一段48巷21號","121.426366666667","24.9950166666667","6500700","樹林區"
"238021","KEA-2217","2018/03/01 17:19:20","新北市樹林區西圳街165巷20弄26號","121.395556666667","24.9601033333333","6500700","樹林區"
"238022","KEA-2213","2018/03/01 17:19:25","新北市樹林區仁愛街52號","121.42388","24.9828433333333","6500700","樹林區"
"238025","303-VK","2018/03/01 17:19:16","新北市樹林區保安街一段189號","121.421126666667","24.9957633333333","6500700","樹林區"
"238017","283-BY","2018/03/01 17:19:11","新北市樹林區光武街3-1號","121.415048333333","25.0043483333333","6500700","樹林區"
"238014","282-BY","2018/03/01 17:19:24","新北市樹林區長壽街11號","121.42397","24.9932216666667","6500700","樹林區"
"238007","268-VK","2018/03/01 17:19:20","新北市樹林區大安路493號","121.414365","24.9870133333333","6500700","樹林區"
"238026","172-UY","2018/03/01 17:19:17","新北市樹林區味王街46巷8號","121.40423","24.9737983333333","6500700","樹林區"
"238016","169-UY","2018/03/01 17:19:23","新北市樹林區中山路二段10號","121.417516666667","24.985015","6500700","樹林區"
"239006","891-R6","2018/03/01 17:19:15","新北市鶯歌區德昌二街3巷1-1號","121.333158333333","24.9593783333333","6500800","鶯歌區"
"239008","527-UM","2018/03/01 17:19:25","新北市鶯歌區西湖街279巷23號","121.34098","24.9678333333333","6500800","鶯歌區"
"239005","526-UM","2018/03/01 17:19:19","新北市鶯歌區福德三街5號","121.329978333333","24.9676683333333","6500800","鶯歌區"
"239001","417-VK","2018/03/01 17:19:30","新北市鶯歌區尖山路207號","121.343643333333","24.947015","6500800","鶯歌區"
"239003","360-BY","2018/03/01 17:19:12","新北市鶯歌區德昌二街71號","121.333345","24.958085","6500800","鶯歌區"
"239004","193-VK","2018/03/01 17:19:18","新北市鶯歌區文化路479號","121.353486666667","24.9489","6500800","鶯歌區"
"242021","281-VK","2018/03/01 17:19:27","新北市新莊區中港路303號","121.452875","25.0445266666667","6500500","新莊區"
"242031","280-VK","2018/03/01 17:19:20","新北市新莊區中環路二段392-1號","121.442325","25.0455366666667","6500500","新莊區"
