"lineid","car","time","location","longitude","latitude","cityid","cityname"
"234026","9371-KE","2018/03/01 17:59:31","新北市永和區永和路一段39-1號","121.512873333333","25.0061816666667","6500400","永和區"
"249005","172-UM","2018/03/01 17:59:33","新北市八里區荖阡坑路20-9號","121.398481666667","25.1368866666667","6502300","八里區"
"249001","173-UM","2018/03/01 17:59:40","新北市八里區龍米路二段30號","121.4487","25.1401166666667","6502300","八里區"
"249004","303-UY","2018/03/01 17:59:29","新北市八里區忠六街1號","121.42271","25.1589966666667","6502300","八里區"
"249002","305-UY","2018/03/01 17:59:27","新北市八里區龍米路一段259號","121.450635","25.13374","6502300","八里區"
"249003","593-UM","2018/03/01 17:59:45","新北市八里區中華路二段258巷1號","121.404738333333","25.1500916666667","6502300","八里區"
"248014","025-BX","2018/03/01 17:59:31","新北市五股區更洲路47號","121.456781666667","25.0790916666667","6501500","五股區"
"248016","026-BX","2018/03/01 17:59:40","新北市五股區中興路二段163號","121.457625","25.0775916666667","6501500","五股區"
"248006","077-UY","2018/03/01 17:59:29","新北市五股區中興路二段83巷26-6號","121.460073333333","25.0750033333333","6501500","五股區"
"248008","095-VK","2018/03/01 17:59:36","新北市五股區更洲路40號","121.457696666667","25.0793816666667","6501500","五股區"
"248012","247-BX","2018/03/01 17:59:42","新北市五股區中興路二段83巷26-6號","121.460036666667","25.07526","6501500","五股區"
"248010","272-BY","2018/03/01 17:59:32","新北市五股區中興路二段103巷16號","121.458768333333","25.075995","6501500","五股區"
"248002","678-BX","2018/03/01 17:59:37","新北市五股區中興路二段37巷28號","121.460053333333","25.0749216666667","6501500","五股區"
"232011","375-UM","2018/03/01 17:59:44","新北市坪林區北宜路八段381號","121.70868","24.9323","6502000","坪林區"
"244013","069-UM","2018/03/01 17:59:40","新北市林口區林口路31號","121.390776666667","25.078665","6501700","林口區"
"244007","080-UY","2018/03/01 17:59:39","新北市林口區林口路128號","121.38836","25.0817166666667","6501700","林口區"
"244019","248-BX","2018/03/01 17:59:29","新北市林口區公園路223巷13號","121.373415","25.0748016666667","6501700","林口區"
"244025","742-UY","2018/03/01 17:59:31","新北市林口區八德路408號","121.358371666667","25.0659383333333","6501700","林口區"
"244017","485-VK","2018/03/01 17:59:23","新北市林口區文化三路一段402巷2號","121.368445","25.0738116666667","6501700","林口區"
"244019","656-BX","2018/03/01 17:59:32","新北市林口區中山路73號","121.392598333333","25.0785533333333","6501700","林口區"
"244009","657-BX","2018/03/01 17:59:40","新北市林口區竹林路616號","121.38656","25.082255","6501700","林口區"
"244011","701-TV","2018/03/01 17:59:41","新北市林口區中興街3-1號","121.388988333333","25.0775433333333","6501700","林口區"
"244023","837-TS","2018/03/01 17:59:40","新北市林口區東湖路41巷20號","121.386293333333","25.0731166666667","6501700","林口區"
"244021","838-TS","2018/03/01 17:59:37","新北市林口區新寮32號","121.400095","25.0660466666667","6501700","林口區"
"243013","646-TV","2018/03/01 17:59:24","新北市泰山區黎明路31號","121.421781666667","25.0607733333333","6501600","泰山區"
"222003","436-BY","2018/03/01 17:59:25","新北市深坑區炮子崙9號","121.604211666667","24.9861166666667","6501800","深坑區"
"222002","659-BX","2018/03/01 17:59:27","新北市深坑區深坑街35號","121.616033333333","25.0018416666667","6501800","深坑區"
"231046","278-BY","2018/03/01 17:59:27","新北市新店區康雅崙路14號","121.537543333333","24.9266166666667","6500600","新店區"
"241005","262-UM","2018/03/01 17:59:25","新北市蘆洲區中正路516巷5號","121.461355","25.0980016666667","6500200","三重區"
"241016","265-UM","2018/03/01 17:59:44","新北市五股區成泰路一段98巷77號","121.450403333333","25.07788","6500200","三重區"
"241024","462-BY","2018/03/01 17:59:37","新北市三重區中正北路193巷35弄84號","121.47889","25.0715316666667","6500200","三重區"
"241033","AAC-255","2018/03/01 17:59:32","新北市三重區重新路五段509-2號","121.471851666667","25.04637","6500200","三重區"
"235064","005-UY","2018/03/01 17:59:36","新北市中和區員山路36巷16-3號","121.48513","24.9913783333333","6500300","中和區"
"235065","098-UM","2018/03/01 17:59:42","新北市中和區民樂路81號","121.485005","25.0015516666667","6500300","中和區"
"235058","151-BY","2018/03/01 17:59:44","新北市中和區錦和路350-1號","121.490136666667","24.9935333333333","6500300","中和區"
"235038","185-VK","2018/03/01 17:59:27","新北市中和區中正路271-1號","121.495761666667","24.9935733333333","6500300","中和區"
"235061","378-QA","2018/03/01 17:59:42","新北市中和區員山路36巷16-2號","121.485378333333","24.9916166666667","6500300","中和區"
"235062","800-TS","2018/03/01 17:59:29","新北市中和區連城路469巷15號","121.483686666667","24.9952766666667","6500300","中和區"
"235052","805-TS","2018/03/01 17:59:23","新北市中和區和城路一段271巷1號","121.485385","24.9916966666667","6500300","中和區"
"235051","157-BY","2018/03/01 17:59:41","新北市中和區員山路36巷12號","121.483976666667","24.9908116666667","6500300","中和區"
"235037","AAC-213","2018/03/01 17:59:41","新北市中和區中正路395號","121.489915","24.9935333333333","6500300","中和區"
"247012","546-UM","2018/03/01 17:59:41","新北市蘆洲區民族路252號","121.478963333333","25.0887983333333","6501400","蘆洲區"
"247002","337-TH","2018/03/01 17:59:38","新北市蘆洲區永平街32巷57弄22號","121.45895","25.09331","6501400","蘆洲區"
"247016","057-VK","2018/03/01 17:59:38","新北市蘆洲區中正路185巷92號","121.465451666667","25.0838433333333","6501400","蘆洲區"
"247006","056-VK","2018/03/01 17:59:28","新北市蘆洲區長安街83號","121.462295","25.0801","6501400","蘆洲區"
"247008","053-VK","2018/03/01 17:59:27","新北市蘆洲區成功路40號","121.473245","25.0795333333333","6501400","蘆洲區"
"247014","007-UY","2018/03/01 17:59:40","新北市蘆洲區忠孝路66號","121.471756666667","25.0852916666667","6501400","蘆洲區"
"247024","002-UY","2018/03/01 17:59:41","新北市蘆洲區光復路43號","121.46305","25.0850016666667","6501400","蘆洲區"
"247018","001-UY","2018/03/01 17:59:37","新北市蘆洲區復興路246號","121.479755","25.0895783333333","6501400","蘆洲區"
"226004","205-ST","2018/03/01 17:59:39","新北市平溪區石底里公園街18-3號","121.733213333333","25.025945","6502400","平溪區"
"228003","097-TW","2018/03/01 17:59:30","新北市貢寮區真理里美艷山街6-2號","121.92879","25.06074","6502600","貢寮區"
"228001","212-TW","2018/03/01 17:59:39","新北市貢寮區真理里新港街26巷53號","121.928038333333","25.0535633333333","6502600","貢寮區"
"228002","585-TW","2018/03/01 17:59:38","新北市貢寮區福連里香蘭街5號","121.974968333333","25.0242283333333","6502600","貢寮區"
"224010","AGQ-8101","2018/03/01 17:56:12","新北市瑞芳區金光路372號","121.848821666667","25.1106483333333","6501200","瑞芳區"
"224006","676-BX","2018/03/01 17:59:33","新北市瑞芳區傑魚坑路195-4號","121.787695","25.1070566666667","6501200","瑞芳區"
"224008","285-BY","2018/03/01 17:59:42","新北市瑞芳區明燈路一段45巷8號","121.821518333333","25.1061133333333","6501200","瑞芳區"
"224007","275-VK","2018/03/01 17:59:41","新北市瑞芳區八分寮路6-1號","121.796088333333","25.0942716666667","6501200","瑞芳區"
"224009","273-VK","2018/03/01 17:59:24","新北市瑞芳區新山路179-1號","121.85161","25.1090783333333","6501200","瑞芳區"
"224005","271-BY","2018/03/01 17:59:34","新北市瑞芳區建基路一段50巷51號","121.817981666667","25.1281133333333","6501200","瑞芳區"
"253005","032-BX","2018/03/01 17:59:32","新北市石門區中山路62-11號","121.567516666667","25.289695","6502200","石門區"
"253006","295-VK","2018/03/01 17:59:30","新北市石門區大丘田45-2號","121.549776666667","25.2748616666667","6502200","石門區"
"222001","KEA-2212","2018/03/01 17:59:27","新北市深坑區北深路二段189號","121.612156666667","25.00121","6501800","深坑區"
"208002","KEA-2872","2018/03/01 17:59:27","新北市金山區三界壇路56號","121.62265","25.2293083333333","6502700","金山區"
"208003","665-BX","2018/03/01 17:59:29","新北市金山區磺港里磺港路192-1號","121.646118333333","25.227595","6502700","金山區"
"208001","761-BX","2018/03/01 17:59:33","新北市金山區磺港里青年路1號","121.641453333333","25.2250833333333","6502700","金山區"
"251009","008-UM","2018/03/01 17:59:38","新北市淡水區大仁街8號","121.44237","25.1746183333333","6501000","淡水區"
"251004","009-UM","2018/03/01 17:59:09","新北市淡水區民權路193號","121.45928","25.133265","6501000","淡水區"
"251001","011-UM","2018/03/01 17:59:43","新北市淡水區民權路14號","121.463021666667","25.1244866666667","6501000","淡水區"
"251013","179-VK","2018/03/01 17:59:32","新北市淡水區泉洲厝31號","121.47958","25.191045","6501000","淡水區"
"251014","180-VK","2018/03/01 17:59:35","新北市淡水區公埔子16-6號","121.481005","25.2245833333333","6501000","淡水區"
"251008","181-VK","2018/03/01 17:59:38","新北市淡水區八勢一街67號","121.461858333333","25.155245","6501000","淡水區"
"251015","182-VK","2018/03/01 17:59:33","新北市淡水區興福寮32-2號","121.490313333333","25.1629","6501000","淡水區"
"251010","413-VK","2018/03/01 17:59:33","新北市淡水區中正路一段132巷22號","121.423006666667","25.1799833333333","6501000","淡水區"
"251012","441-VK","2018/03/01 17:59:26","新北市淡水區北新路三段38巷7號","121.484535","25.187005","6501000","淡水區"
"251016","442-VK","2018/03/01 17:59:43","新北市淡水區淡金路三段36號","121.448178333333","25.1991983333333","6501000","淡水區"
"251005","443-VK","2018/03/01 17:59:37","新北市淡水區英專路125-6號","121.446128333333","25.1725883333333","6501000","淡水區"
"251006","561-UM","2018/03/01 17:59:28","新北市淡水區新生街20-4號","121.438905","25.1737466666667","6501000","淡水區"
"251011","650-BX","2018/03/01 17:59:32","新北市淡水區三空泉9-2號","121.474321666667","25.16318","6501000","淡水區"
"251002","672-BX","2018/03/01 17:59:34","新北市淡水區中正東路6號","121.447161666667","25.167225","6501000","淡水區"
"251003","766-UM","2018/03/01 17:59:42","新北市淡水區大忠街90號","121.444806666667","25.1762683333333","6501000","淡水區"
"207003","550-UM","2018/03/01 17:59:42","新北市萬里區野柳里港東路73號","121.688298333333","25.20508","6502800","萬里區"
"207004","225-TW","2018/03/01 17:59:29","新北市萬里區中幅里中福路48號","121.683225","25.174075","6502800","萬里區"
"252002","178-VK","2018/03/01 17:59:42","新北市三芝區中山路二段35號","121.50288","25.2552116666667","6502100","三芝區"
"252001","292-VK","2018/03/01 17:59:24","新北市三芝區中興街一段32號","121.497968333333","25.2574816666667","6502100","三芝區"
"237004","KEA-2597","2018/03/01 17:59:36","新北市三峽區中正路二段238號","121.365888333333","24.9132133333333","6500900","三峽區"
"237007","153-BY","2018/03/01 17:59:32","新北市三峽區中園街175號","121.36713","24.9217616666667","6500900","三峽區"
"237009","210-TH","2018/03/01 17:59:27","新北市三峽區中山路106巷15號","121.366088333333","24.9362733333333","6500900","三峽區"
"237013","252-BX","2018/03/01 17:59:34","新北市三峽區介壽路一段147號","121.376428333333","24.931455","6500900","三峽區"
"237012","275-BY","2018/03/01 17:59:36","新北市三峽區民生街29號","121.375833333333","24.9363116666667","6500900","三峽區"
"237008","302-VK","2018/03/01 17:59:29","新北市三峽區白雞38-19號","121.373378333333","24.911915","6500900","三峽區"
"237014","433-BY","2018/03/01 17:59:44","新北市三峽區復興路101巷1弄28號","121.371093333333","24.9376983333333","6500900","三峽區"
"237006","5529-G3","2018/03/01 17:59:37","新北市三峽區介壽路二段138巷41號","121.395491666667","24.9334466666667","6500900","三峽區"
"237011","KEA-2596","2018/03/01 17:59:29","新北市三峽區大同路10號","121.378311666667","24.9299516666667","6500900","三峽區"
"237010","706-TV","2018/03/01 17:59:45","新北市三峽區中山路62號","121.368068333333","24.9345583333333","6500900","三峽區"
"237005","AKY-6261","2018/03/01 17:59:45","新北市三峽區復興路239-1號","121.368203333333","24.9386266666667","6500900","三峽區"
"236071","105-UM","2018/03/01 17:59:30","新北市土城區青雲路665-4號","121.466521666667","24.9645116666667","6501300","土城區"
"236042","107-UM","2018/03/01 17:59:41","新北市土城區城林路6巷80號","121.438535","24.9796483333333","6501300","土城區"
"236078","166-UM","2018/03/01 17:59:28","新北市土城區永寧路32巷10弄23號","121.428893333333","24.9610283333333","6501300","土城區"
"236030","253-BX","2018/03/01 17:59:39","新北市土城區城林路6巷80號","121.438465","24.9798016666667","6501300","土城區"
"236026","269-VK","2018/03/01 17:59:37","新北市土城區承天路18號","121.439386666667","24.9635083333333","6501300","土城區"
"236037","271-VK","2018/03/01 17:59:27","新北市土城區城林路6巷80號","121.438558333333","24.9796283333333","6501300","土城區"
"236021","401-BY","2018/03/01 17:59:40","新北市土城區城林路6巷80號","121.438758333333","24.9796266666667","6501300","土城區"
"236058","912-UM","2018/03/01 17:59:42","新北市土城區中央路三段194號","121.430416666667","24.9648983333333","6501300","土城區"
"236051","913-UM","2018/03/01 17:59:30","新北市土城區城林路6巷80號","121.438648333333","24.979705","6501300","土城區"
"236062","915-UM","2018/03/01 17:59:34","新北市土城區城林路6巷80號","121.438526666667","24.97959","6501300","土城區"
"236053","AAC-216","2018/03/01 17:59:40","新北市土城區城林路6巷80號","121.438516666667","24.979525","6501300","土城區"
"242029","986-R7","2018/03/01 17:59:40","新北市新莊區中平路50號","121.444755","25.044025","6500500","新莊區"
"242051","751-BX","2018/03/01 17:59:26","新北市新莊區龍安路498號","121.426575","25.01718","6500500","新莊區"
"242025","705-TV","2018/03/01 17:59:38","新北市新莊區五工路60號","121.458253333333","25.06321","6500500","新莊區"
"242023","613-BX","2018/03/01 17:59:41","新北市新莊區福壽街58號","121.458313333333","25.0489033333333","6500500","新莊區"
"242027","612-BX","2018/03/01 17:59:34","新北市新莊區思源路448號","121.459938333333","25.0534666666667","6500500","新莊區"
"242039","566-BX","2018/03/01 17:59:38","新北市新莊區民安西路1號","121.42648","25.0219766666667","6500500","新莊區"
"242044","497-BY","2018/03/01 17:59:37","新北市新莊區中正路力行巷34號","121.41637","25.0266","6500500","新莊區"
"242053","442-UM","2018/03/01 17:59:28","新北市新莊區光華街35號","121.428776666667","25.011185","6500500","新莊區"
"242048","441-UM","2018/03/01 17:59:33","新北市新莊區萬安街57巷1號","121.42167","25.0244033333333","6500500","新莊區"
"242015","440-UM","2018/03/01 17:59:37","新北市新莊區中平路87巷8號","121.444255","25.0458283333333","6500500","新莊區"
"242034","415-TV","2018/03/01 17:59:22","新北市新莊區福海街22號","121.445293333333","25.0339266666667","6500500","新莊區"
"242004","413-TV","2018/03/01 17:59:29","新北市新莊區福樂街76號","121.457796666667","25.0466266666667","6500500","新莊區"
"242042","400-BY","2018/03/01 17:59:38","新北市新莊區中正路853-2號","121.419943333333","25.0281416666667","6500500","新莊區"
"242061","362-BY","2018/03/01 17:59:40","新北市新莊區新樹路327號","121.433151666667","25.0189733333333","6500500","新莊區"
"242058","353-BY","2018/03/01 17:59:26","新北市新莊區雙鳳路134巷5號","121.412706666667","25.02807","6500500","新莊區"
"242007","132-UY","2018/03/01 17:59:22","新北市新莊區自信街75巷11號","121.455651666667","25.0487883333333","6500500","新莊區"
"242036","133-UY","2018/03/01 17:59:32","新北市新莊區福營路250號","121.426","25.0294583333333","6500500","新莊區"
"242046","172-VK","2018/03/01 17:59:42","新北市新莊區福營路195巷16號","121.431781666667","25.0300116666667","6500500","新莊區"
"242009","173-VK","2018/03/01 17:59:40","新北市新莊區中華路二段314號","121.452468333333","25.053925","6500500","新莊區"
"242002","176-VK","2018/03/01 17:59:34","新北市新莊區中正路161-1號","121.45534","25.0366383333333","6500500","新莊區"
"242019","348-TH","2018/03/01 17:59:27","新北市新莊區明中街43巷27號","121.457118333333","25.0386016666667","6500500","新莊區"
"242056","349-TH","2018/03/01 17:59:29","新北市新莊區豐年街124巷10號","121.44581","25.0298133333333","6500500","新莊區"
"242017","350-TH","2018/03/01 17:59:40","新北市新莊區中和街60巷19號","121.448821666667","25.0450033333333","6500500","新莊區"
"242011","351-TH","2018/03/01 17:59:27","新北市新莊區中港路中慶巷39號","121.449178333333","25.0536816666667","6500500","新莊區"
"238015","755-BX","2018/03/01 17:59:39","新北市樹林區啟智街79巷2號","121.419776666667","24.9917916666667","6500700","樹林區"
"238023","601-UM","2018/03/01 17:59:44","新北市樹林區福興街18-1號","121.404201666667","25.015795","6500700","樹林區"
"238019","599-UM","2018/03/01 17:59:46","新北市樹林區國凱街122巷1號","121.422905","24.9801866666667","6500700","樹林區"
"238018","571-TV","2018/03/01 17:59:26","新北市樹林區樹新路80號","121.429393333333","24.9972516666667","6500700","樹林區"
"238021","KEA-2217","2018/03/01 17:59:40","新北市樹林區田尾街82號","121.40908","24.9579933333333","6500700","樹林區"
"238022","KEA-2213","2018/03/01 17:59:45","新北市樹林區太順街41號","121.418283333333","24.97932","6500700","樹林區"
"238025","303-VK","2018/03/01 17:59:36","新北市樹林區俊興街211巷7弄39號","121.416568333333","25.012805","6500700","樹林區"
"238017","283-BY","2018/03/01 17:59:31","新北市樹林區俊德街9號","121.41503","25.01468","6500700","樹林區"
"238014","282-BY","2018/03/01 17:59:43","新北市樹林區大安路123號","121.422631666667","24.9972966666667","6500700","樹林區"
"238020","268-VK","2018/03/01 17:59:40","新北市樹林區大安路493號","121.414365","24.9870133333333","6500700","樹林區"
"238026","172-UY","2018/03/01 17:59:37","新北市樹林區育德街12號","121.390743333333","24.9702233333333","6500700","樹林區"
"238016","169-UY","2018/03/01 17:59:43","新北市樹林區育英街135巷1弄12號","121.419855","24.98891","6500700","樹林區"
"239006","891-R6","2018/03/01 17:59:35","新北市鶯歌區鶯桃路413巷70號","121.329928333333","24.9631016666667","6500800","鶯歌區"
"239008","527-UM","2018/03/01 17:59:44","新北市鶯歌區明圓街10號","121.336961666667","24.9779383333333","6500800","鶯歌區"
"239005","526-UM","2018/03/01 17:59:39","新北市鶯歌區大湖路361巷81-1號","121.333031666667","24.9739266666667","6500800","鶯歌區"
"239001","417-VK","2018/03/01 17:59:30","新北市鶯歌區中正三路236-8號","121.33038","24.9368616666667","6500800","鶯歌區"
"239003","360-BY","2018/03/01 17:59:32","新北市鶯歌區永吉街9巷1號","121.336531666667","24.9583416666667","6500800","鶯歌區"
"221008","489-VK","2018/03/01 17:59:39","新北市汐止區明峰街26號","121.634218333333","25.0715233333333","6501100","汐止區"
"221036","130-UY","2018/03/01 17:59:30","新北市汐止區大同路三段62巷1號","121.667605","25.07703","6501100","汐止區"
"221015","131-UY","2018/03/01 17:59:26","新北市汐止區長江街309號","121.666023333333","25.0814266666667","6501100","汐止區"
"221010","269-BY","2018/03/01 17:59:34","新北市汐止區汐萬路二段245巷44號","121.644525","25.0877866666667","6501100","汐止區"
"221012","278-VK","2018/03/01 17:59:38","新北市汐止區長興街二段50巷3號","121.674206666667","25.0816916666667","6501100","汐止區"
"221023","279-VK","2018/03/01 17:59:36","新北市汐止區明峰街143號","121.629633333333","25.0705616666667","6501100","汐止區"
"221032","280-BY","2018/03/01 17:59:42","新北市汐止區民權街一段16號","121.621145","25.0527133333333","6501100","汐止區"
"221027","281-BY","2018/03/01 17:59:37","新北市汐止區大同路二段370號","121.657706666667","25.0671133333333","6501100","汐止區"
"221038","297-VK","2018/03/01 17:59:40","新北市汐止區連興街128巷7弄5號","121.653511666667","25.061395","6501100","汐止區"
"221029","298-VK","2018/03/01 17:59:28","新北市汐止區樟樹二路251巷46號","121.640403333333","25.0671733333333","6501100","汐止區"
"221021","299-VK","2018/03/01 17:59:27","新北市汐止區復興路22號","121.656046666667","25.063895","6501100","汐止區"
"221031","353-TW","2018/03/01 17:59:43","新北市汐止區中興路147號","121.631273333333","25.0657616666667","6501100","汐止區"
"221035","622-UM","2018/03/01 17:59:29","新北市汐止區新江北路30巷22弄5號","121.651431666667","25.0698733333333","6501100","汐止區"
"221025","623-UM","2018/03/01 17:59:23","新北市汐止區仁愛路41號","121.65957","25.0633283333333","6501100","汐止區"
"221033","647-BX","2018/03/01 17:59:41","新北市汐止區合順街37號","121.62069","25.0432333333333","6501100","汐止區"
"221002","707-TV","2018/03/01 17:59:27","新北市汐止區中興路60號","121.635541666667","25.0614533333333","6501100","汐止區"
"221018","753-BX","2018/03/01 17:59:40","新北市汐止區招商街6號","121.666493333333","25.0686966666667","6501100","汐止區"
"242021","281-VK","2018/03/01 17:59:27","新北市新莊區建興街34號","121.450093333333","25.0373516666667","6500500","新莊區"
"242031","280-VK","2018/03/01 17:59:39","新北市新莊區新泰路305巷17號","121.444595","25.040905","6500500","新莊區"
