"lineid","car","time","location","longitude","latitude","cityid","cityname"
"234046","148-BY","2018/03/01 18:39:23","新北市永和區林森路99號","121.523375","25.0036933333333","6500400","永和區"
"234007","207-UY","2018/03/01 18:39:19","新北市永和區環河西路二段219號","121.501198333333","25.0103316666667","6500400","永和區"
"234081","298-R6","2018/03/01 18:39:08","新北市永和區林森路77號","121.524011666667","25.00384","6500400","永和區"
"234038","336-UY","2018/03/01 18:39:15","新北市永和區福和路1號","121.5266","25.0101266666667","6500400","永和區"
"234064","337-UY","2018/03/01 18:39:07","新北市永和區福和路1號","121.526531666667","25.0100966666667","6500400","永和區"
"234086","338-UY","2018/03/01 18:39:19","新北市永和區福和路139號","121.520966666667","25.0076583333333","6500400","永和區"
"234017","745-BX","2018/03/01 18:39:12","新北市永和區福和路1號","121.52625","25.0096166666667","6500400","永和區"
"234030","746-BX","2018/03/01 18:39:20","新北市永和區得和路324號","121.52319","24.99954","6500400","永和區"
"234013","KEA-2591","2018/03/01 18:39:24","新北市永和區信義路19號","121.514243333333","25.0120533333333","6500400","永和區"
"234061","AAD-866","2018/03/01 18:39:23","新北市永和區福和路1號","121.526005","25.0096533333333","6500400","永和區"
"234026","9371-KE","2018/03/01 18:39:10","新北市永和區永貞路415號","121.507298333333","25.0094066666667","6500400","永和區"
"234011","9373-KE","2018/03/01 18:39:12","新北市永和區文化路9巷22弄34號","121.514456666667","25.0146016666667","6500400","永和區"
"249005","172-UM","2018/03/01 18:39:15","新北市八里區中華路三段34-2號","121.388765","25.125485","6502300","八里區"
"249001","173-UM","2018/03/01 18:39:20","新北市八里區龍米路一段360號","121.451576666667","25.131375","6502300","八里區"
"249004","303-UY","2018/03/01 18:39:25","新北市八里區忠六街1號","121.422745","25.15898","6502300","八里區"
"249002","305-UY","2018/03/01 18:39:27","新北市八里區龍形一街12巷5弄9號","121.449501666667","25.1304883333333","6502300","八里區"
"248014","025-BX","2018/03/01 18:39:11","新北市五股區蓬萊路24號","121.433946666667","25.0798583333333","6501500","五股區"
"248016","026-BX","2018/03/01 18:39:20","新北市五股區凌雲路一段146號","121.44924","25.1024116666667","6501500","五股區"
"248008","095-VK","2018/03/01 18:39:17","新北市五股區中興路一段149號","121.46509","25.073465","6501500","五股區"
"248020","225-UY","2018/03/01 18:35:31","新北市五股區孝義路118號","121.441626666667","25.1200883333333","6501500","五股區"
"248012","247-BX","2018/03/01 18:36:22","新北市五股區御成路160號","121.441061666667","25.094725","6501500","五股區"
"248010","272-BY","2018/03/01 18:39:12","新北市五股區明德路41號","121.434276666667","25.071245","6501500","五股區"
"248004","677-BX","2018/03/01 18:39:27","新北市五股區民義路一段244號","121.426323333333","25.0923416666667","6501500","五股區"
"248002","678-BX","2018/03/01 18:39:16","新北市五股區西雲路248號","121.448893333333","25.09687","6501500","五股區"
"234023","9380-KE","2018/03/01 18:39:11","新北市永和區竹林路119巷22弄30號","121.522605","25.0111816666667","6500400","永和區"
"234077","969-R7","2018/03/01 18:39:16","新北市永和區中正路612號","121.517016666667","25.00738","6500400","永和區"
"234067","AAC-212","2018/03/01 18:39:13","新北市永和區福和路85號","121.522306666667","25.0079116666667","6500400","永和區"
"232011","375-UM","2018/03/01 18:39:23","新北市坪林區坪雙路一段31號","121.711678333333","24.94243","6502000","坪林區"
"244013","069-UM","2018/03/01 18:39:20","新北市林口區中山路260號","121.385035","25.0796833333333","6501700","林口區"
"244007","080-UY","2018/03/01 18:39:19","新北市林口區湖北里61號","121.383391666667","25.107235","6501700","林口區"
"244019","248-BX","2018/03/01 18:39:29","新北市林口區麗園路97號","121.372333333333","25.0682766666667","6501700","林口區"
"244025","742-UY","2018/03/01 18:39:24","新北市林口區南勢六街248-1號","121.356023333333","25.0748616666667","6501700","林口區"
"244017","485-VK","2018/03/01 18:39:24","新北市林口區文化二路一段86號","121.366305","25.0695483333333","6501700","林口區"
"244019","656-BX","2018/03/01 18:11:15","新北市林口區粉寮69號","121.405008333333","25.0909183333333","6501700","林口區"
"244009","657-BX","2018/03/01 18:39:20","新北市林口區民生路108號","121.377958333333","25.0882783333333","6501700","林口區"
"244011","701-TV","2018/03/01 18:39:20","新北市林口區林口路7號","121.391701666667","25.0776933333333","6501700","林口區"
"244023","837-TS","2018/03/01 18:39:20","新北市林口區四維路156-2號","121.381256666667","25.0752433333333","6501700","林口區"
"244021","838-TS","2018/03/01 18:39:17","新北市林口區自強二街28號","121.398181666667","25.0778616666667","6501700","林口區"
"243012","AAD-798","2018/03/01 18:39:13","新北市泰山區泰林路二段236號","121.4323","25.0620583333333","6501600","泰山區"
"243015","380-SR","2018/03/01 18:39:25","新北市泰山區黎明路37-1號","121.42177","25.05995","6501600","泰山區"
"243010","KEA-2215","2018/03/01 18:39:28","新北市泰山區黎明路47號","121.422268333333","25.0576966666667","6501600","泰山區"
"243013","646-TV","2018/03/01 18:30:54","新北市泰山區明志路三段206巷10號","121.423268333333","25.038075","6501600","泰山區"
"243016","680-BX","2018/03/01 18:39:16","新北市泰山區黎明路6-1號","121.421008333333","25.061735","6501600","泰山區"
"222003","436-BY","2018/03/01 18:39:25","新北市深坑區翠谷街37巷1號","121.626458333333","25.0093816666667","6501800","深坑區"
"222002","659-BX","2018/03/01 18:39:27","新北市深坑區雲鄉路13號","121.621701666667","24.9997833333333","6501800","深坑區"
"231041","002-UM","2018/03/01 18:39:19","新北市新店區安華路28-1號","121.51981","24.9605316666667","6500600","新店區"
"231059","046-UY","2018/03/01 18:39:23","新北市新店區安華路28-1號","121.519606666667","24.9609733333333","6500600","新店區"
"231061","047-UY","2018/03/01 18:39:18","新北市新店區安華路28-1號","121.519286666667","24.96088","6500600","新店區"
"231060","106-UY","2018/03/01 18:39:14","新北市新店區安華路28-1號","121.519723333333","24.9609333333333","6500600","新店區"
"231051","107-UY","2018/03/01 18:39:18","新北市新店區安康路一段94-3號","121.527596666667","24.9621866666667","6500600","新店區"
"231047","108-UY","2018/03/01 18:39:25","新北市新店區安康路一段355號","121.519771666667","24.9630183333333","6500600","新店區"
"231052","187-VK","2018/03/01 18:39:21","新北市新店區永興路38號","121.543328333333","24.9385983333333","6500600","新店區"
"231050","KEA-2219","2018/03/01 18:39:22","新北市新店區安華路28-1號","121.519733333333","24.96124","6500600","新店區"
"231057","256-BX","2018/03/01 18:39:25","新北市新店區新烏路一段215號","121.549241666667","24.93141","6500600","新店區"
"231046","278-BY","2018/03/01 18:39:27","新北市新店區直潭二街1號","121.535526666667","24.943195","6500600","新店區"
"231058","3712-VJ","2018/03/01 18:39:23","新北市新店區新店路13號","121.540351666667","24.9528766666667","6500600","新店區"
"231056","3713-VJ","2018/03/01 18:39:28","新北市新店區大豐路86號","121.53807","24.9789933333333","6500600","新店區"
"231055","4716-K9","2018/03/01 18:39:26","新北市新店區中央路185號","121.536848333333","24.969045","6500600","新店區"
"231067","4772-VM","2018/03/01 18:39:27","新北市新店區安康路一段156號","121.526283333333","24.9629433333333","6500600","新店區"
"231065","512-UM","2018/03/01 18:39:16","新北市新店區安華路28-1號","121.519256666667","24.96126","6500600","新店區"
"231054","513-UM","2018/03/01 18:39:25","新北市新店區安華路28-1號","121.519603333333","24.96122","6500600","新店區"
"231040","619-UM","2018/03/01 18:39:26","新北市新店區安華路28-1號","121.519535","24.9609033333333","6500600","新店區"
"231042","641-BX","2018/03/01 18:39:23","新北市新店區安華路28-1號","121.519583333333","24.96057","6500600","新店區"
"231063","645-TV","2018/03/01 18:39:27","新北市新店區安華路28-1號","121.51935","24.96064","6500600","新店區"
"231049","719-UM","2018/03/01 18:39:19","新北市新店區安康路一段164-1號","121.526015","24.96298","6500600","新店區"
"231062","720-UM","2018/03/01 18:39:20","新北市新店區安華路28-1號","121.519363333333","24.961145","6500600","新店區"
"231044","897-TW","2018/03/01 18:39:08","新北市新店區中正路111號","121.5425","24.9705533333333","6500600","新店區"
"231045","898-TW","2018/03/01 18:39:10","新北市新店區安華路28-1號","121.519308333333","24.9608716666667","6500600","新店區"
"231043","899-TW","2018/03/01 18:39:27","新北市新店區安華路28-1號","121.519181666667","24.9608716666667","6500600","新店區"
"231066","AKT-0513","2018/03/01 18:39:22","新北市新店區安華路28-1號","121.51942","24.96068","6500600","新店區"
"235066","003-UY","2018/03/01 18:39:23","新北市中和區水源路33號","121.504255","25.0035683333333","6500300","中和區"
"235064","005-UY","2018/03/01 18:39:17","新北市中和區連城路127巷29號","121.497346666667","24.9975883333333","6500300","中和區"
"235063","006-UY","2018/03/01 18:39:21","新北市中和區連城路389巷8號","121.486538333333","24.995645","6500300","中和區"
"235056","096-UM","2018/03/01 18:39:25","新北市中和區員山路611巷5弄3號","121.47804","25.0112033333333","6500300","中和區"
"235039","097-UM","2018/03/01 18:39:11","新北市中和區安樂路243巷2號","121.513818333333","24.99965","6500300","中和區"
"235065","098-UM","2018/03/01 18:39:22","新北市中和區莊敬路33巷36弄8號","121.500353333333","25.0064033333333","6500300","中和區"
"235040","150-BY","2018/03/01 18:39:03","新北市中和區保健路80號","121.511776666667","24.9962283333333","6500300","中和區"
"235058","151-BY","2018/03/01 18:39:24","新北市中和區圓通路320號","121.487225","24.9883383333333","6500300","中和區"
"235055","183-VK","2018/03/01 18:39:12","新北市中和區中山路三段229巷51號","121.469243333333","25.00543","6500300","中和區"
"235038","185-VK","2018/03/01 18:39:27","新北市中和區立人街14巷65號","121.518595","24.995575","6500300","中和區"
"235049","186-VK","2018/03/01 18:39:23","新北市中和區景平路480號","121.505076666667","24.9937466666667","6500300","中和區"
"235067","255-BX","2018/03/01 18:39:21","新北市中和區新生街3號","121.483171666667","25.0046783333333","6500300","中和區"
"235044","293-VK","2018/03/01 18:39:26","新北市中和區復興路280巷6號","121.502338333333","24.9910016666667","6500300","中和區"
"235072","301-VK","2018/03/01 18:39:14","新北市中和區中山路二段191號","121.500025","25.0026866666667","6500300","中和區"
"235043","352-BY","2018/03/01 18:39:11","新北市中和區景德街72號","121.516748333333","24.99172","6500300","中和區"
"235068","377-QA","2018/03/01 18:39:23","新北市中和區中正路273-5號","121.49561","24.9933433333333","6500300","中和區"
"235061","378-QA","2018/03/01 18:39:22","新北市中和區民享街92巷6號","121.474675","24.999925","6500300","中和區"
"235050","4979-A6","2018/03/01 18:39:20","新北市中和區仁愛街128號","121.51191","24.9866333333333","6500300","中和區"
"235069","4980-A6","2018/03/01 18:39:16","新北市中和區連城路89巷32號","121.497251666667","24.9987416666667","6500300","中和區"
"235042","551-UM","2018/03/01 18:39:27","新北市中和區成功路127巷21號","121.527055","24.99109","6500300","中和區"
"235045","565-BX","2018/03/01 18:39:27","新北市中和區南山路236巷51號","121.504973333333","24.9883716666667","6500300","中和區"
"235054","640-BX","2018/03/01 18:39:23","新北市中和區莒光路151號","121.47272","25.00109","6500300","中和區"
"235060","647-TV","2018/03/01 18:39:21","新北市中和區中山路二段479號","121.483043333333","25.005005","6500300","中和區"
"235046","733-UM","2018/03/01 18:39:30","新北市中和區捷運路8號","121.50979","24.98956","6500300","中和區"
"235062","800-TS","2018/03/01 18:39:09","新北市中和區中山路二段312巷33弄29號","121.494698333333","25.0044033333333","6500300","中和區"
"235057","801-TS","2018/03/01 18:39:14","新北市中和區員山路327巷62號","121.48","25.0020033333333","6500300","中和區"
"235052","805-TS","2018/03/01 18:39:23","新北市中和區興南路三段46號","121.495746666667","24.97661","6500300","中和區"
"235048","896-TW","2018/03/01 18:39:27","新北市中和區南山路373號","121.506305","24.9904583333333","6500300","中和區"
"235053","900-TW","2018/03/01 18:39:21","新北市土城區延壽路75巷1號","121.469301666667","24.992465","6500300","中和區"
"235070","911-UM","2018/03/01 18:39:24","新北市中和區南華路52號","121.504233333333","24.9968283333333","6500300","中和區"
"235051","157-BY","2018/03/01 18:39:21","新北市中和區華新街232巷25號","121.50571","24.9822166666667","6500300","中和區"
"235037","AAC-213","2018/03/01 18:39:21","新北市中和區景平路111巷63號","121.515176666667","24.9903183333333","6500300","中和區"
"235059","AAC-215","2018/03/01 18:39:20","新北市中和區錦和路350-1號","121.490548333333","24.993515","6500300","中和區"
"220068","013-TV","2018/03/01 18:39:13","新北市板橋區民生路二段120號","121.470315","25.01979","6500100","板橋區"
"220065","072-UY","2018/03/01 18:39:16","新北市板橋區民族路61號","121.464965","25.0086083333333","6500100","板橋區"
"220086","073-UY","2018/03/01 18:39:26","新北市板橋區大智街71巷42弄15號","121.452156666667","25.01464","6500100","板橋區"
"220069","AAD-861","2018/03/01 18:39:27","新北市板橋區華東街1-10號","121.448328333333","24.9950566666667","6500100","板橋區"
"247008","053-VK","2018/03/01 18:39:07","新北市八里區荖阡坑路34號","121.402465","25.1284866666667","6501400","蘆洲區"
"226004","205-ST","2018/03/01 18:39:19","新北市平溪區靜安路二段348號","121.737413333333","25.0243283333333","6502400","平溪區"
"235041","251-BX","2018/03/01 18:39:22","新北市中和區中和路260-1號","121.508153333333","24.9993266666667","6500300","中和區"
"228003","097-TW","2018/03/01 18:39:29","新北市貢寮區和美里龍洞街12-2號","121.918371666667","25.1117733333333","6502600","貢寮區"
"228001","212-TW","2018/03/01 18:39:19","新北市貢寮區仁理村研海街12-1號","121.92379","25.0516716666667","6502600","貢寮區"
"228002","585-TW","2018/03/01 18:39:18","新北市貢寮區福隆里東興街6-11號","121.95072","25.0210583333333","6502600","貢寮區"
"224006","676-BX","2018/03/01 18:39:13","新北市瑞芳區明燈路三段37-3號","121.80703","25.1078933333333","6501200","瑞芳區"
"224002","639-TC","2018/03/01 18:39:10","新北市瑞芳區三爪子坑路91巷10號","121.811586666667","25.1070483333333","6501200","瑞芳區"
"224008","285-BY","2018/03/01 18:39:10","新北市瑞芳區岳王路162號","121.808011666667","25.1113333333333","6501200","瑞芳區"
"224007","275-VK","2018/03/01 18:39:21","新北市瑞芳區大埔路台北新城11號","121.764596666667","25.1006616666667","6501200","瑞芳區"
"224009","273-VK","2018/03/01 18:39:23","新北市瑞芳區祈堂路239號","121.85633","25.1090066666667","6501200","瑞芳區"
"224005","271-BY","2018/03/01 18:39:26","新北市瑞芳區建基路二段62號","121.814971666667","25.12878","6501200","瑞芳區"
"227010","642-TC","2018/03/01 18:39:25","新北市雙溪區牡丹里下坑11號","121.851","25.0561533333333","6502500","雙溪區"
"227004","400-TW","2018/03/01 18:39:21","新北市雙溪區魚行里坤溪5號","121.874505","25.0220183333333","6502500","雙溪區"
"253005","032-BX","2018/03/01 18:39:12","新北市石門區中山路64號","121.567255","25.29081","6502200","石門區"
"253006","295-VK","2018/03/01 18:39:30","新北市石門區楓林28-1號","121.542361666667","25.28947","6502200","石門區"
"222001","KEA-2212","2018/03/01 18:39:27","新北市深坑區北深路一段82號","121.636363333333","25.0107016666667","6501800","深坑區"
"208002","KEA-2872","2018/03/01 18:39:27","新北市金山區忠孝一路19巷5號","121.638001666667","25.2180583333333","6502700","金山區"
"208003","665-BX","2018/03/01 18:39:09","新北市金山區中山路372號","121.632581666667","25.2259583333333","6502700","金山區"
"208001","761-BX","2018/03/01 18:39:20","新北市金山區文化三路9號","121.635348333333","25.224855","6502700","金山區"
"251004","009-UM","2018/03/01 18:26:49","新北市淡水區民族路12-1號","121.460733333333","25.1364766666667","6501000","淡水區"
"251001","011-UM","2018/03/01 18:39:23","新北市淡水區自強路415巷2號","121.46548","25.1342083333333","6501000","淡水區"
"251013","179-VK","2018/03/01 18:39:29","新北市淡水區雲廣坑7-2號","121.47538","25.2140866666667","6501000","淡水區"
"251014","180-VK","2018/03/01 18:39:15","新北市淡水區南平21-1號","121.496268333333","25.2170033333333","6501000","淡水區"
"251008","181-VK","2018/03/01 18:39:18","新北市淡水區北投子73-1號","121.453396666667","25.1827016666667","6501000","淡水區"
"251015","182-VK","2018/03/01 18:39:13","新北市淡水區興福寮66巷28號","121.486128333333","25.162395","6501000","淡水區"
"251010","413-VK","2018/03/01 18:39:13","新北市淡水區沙崙路118號","121.423203333333","25.1827066666667","6501000","淡水區"
"251012","441-VK","2018/03/01 18:39:26","新北市淡水區北新路117號","121.448901666667","25.178625","6501000","淡水區"
"251016","442-VK","2018/03/01 18:39:23","新北市淡水區下圭柔山102號","121.441216666667","25.2084883333333","6501000","淡水區"
"251006","561-UM","2018/03/01 18:39:28","新北市淡水區新民街76巷32號","121.439301666667","25.17742","6501000","淡水區"
"251011","650-BX","2018/03/01 18:39:17","新北市淡水區鄧公路278巷1號","121.461093333333","25.1688666666667","6501000","淡水區"
"251002","672-BX","2018/03/01 18:39:24","新北市淡水區中正東路一段3巷14弄1號","121.450861666667","25.16416","6501000","淡水區"
"251003","766-UM","2018/03/01 18:39:23","新北市淡水區北新路69巷26號","121.446755","25.1800783333333","6501000","淡水區"
"207003","550-UM","2018/03/01 18:39:29","新北市萬里區野柳里港西路77-1號","121.68593","25.2053966666667","6502800","萬里區"
"207004","225-TW","2018/03/01 18:39:29","新北市萬里區萬里里獅頭路10-1號","121.692076666667","25.1787416666667","6502800","萬里區"
"252002","178-VK","2018/03/01 18:39:23","新北市三芝區民生街66號","121.503356666667","25.2554816666667","6502100","三芝區"
"252003","249-BX","2018/03/01 18:39:29","新北市三芝區後厝里土地公坑999號","121.464658333333","25.2491366666667","6502100","三芝區"
"252001","292-VK","2018/03/01 18:39:24","新北市三芝區中興街二段260號","121.50124","25.25343","6502100","三芝區"
"237004","KEA-2597","2018/03/01 18:39:16","新北市三峽區金敏10號","121.388043333333","24.872735","6500900","三峽區"
"237007","153-BY","2018/03/01 18:39:12","新北市三峽區中正路二段596號","121.35905","24.9057733333333","6500900","三峽區"
"237009","210-TH","2018/03/01 18:39:27","新北市三峽區大同路307號","121.363396666667","24.9248483333333","6500900","三峽區"
"237013","252-BX","2018/03/01 18:39:14","新北市三峽區光明路69巷25號","121.376586666667","24.929225","6500900","三峽區"
"237012","275-BY","2018/03/01 18:39:16","新北市三峽區三樹路300號","121.380711666667","24.9438166666667","6500900","三峽區"
"237008","302-VK","2018/03/01 18:39:09","新北市三峽區白雞57-16號","121.390045","24.9115183333333","6500900","三峽區"
"237014","433-BY","2018/03/01 18:39:23","新北市三峽區復興路167號","121.370256666667","24.9385","6500900","三峽區"
"237006","5529-G3","2018/03/01 18:39:18","新北市三峽區溪東路371巷2弄2號","121.41194","24.929615","6500900","三峽區"
"237011","KEA-2596","2018/03/01 18:39:29","新北市三峽區介壽路三段138號","121.400671666667","24.942955","6500900","三峽區"
"237010","706-TV","2018/03/01 18:39:25","新北市三峽區復興路373號","121.363376666667","24.9386166666667","6500900","三峽區"
"237005","AKY-6261","2018/03/01 18:39:25","新北市三峽區民生街108號","121.373648333333","24.9353766666667","6500900","三峽區"
"236071","105-UM","2018/03/01 18:39:29","新北市土城區永豐路157巷29弄6-1號","121.468335","24.9814766666667","6501300","土城區"
"236042","107-UM","2018/03/01 18:39:21","新北市土城區學成路108巷7號","121.45001","24.9896816666667","6501300","土城區"
"236078","166-UM","2018/03/01 18:39:28","新北市土城區中央路四段52巷40弄2號","121.419518333333","24.9607766666667","6501300","土城區"
"236030","253-BX","2018/03/01 18:39:19","新北市土城區中華路二段187號","121.438433333333","24.9746483333333","6501300","土城區"
"236026","269-VK","2018/03/01 18:39:16","新北市土城區忠義路51-1號","121.440465","24.9688883333333","6501300","土城區"
"236014","270-VK","2018/03/01 18:39:14","新北市土城區清水路234巷20弄2號","121.461968333333","24.9818483333333","6501300","土城區"
"236037","271-VK","2018/03/01 18:39:27","新北市土城區明德路一段313巷9號","121.459711666667","24.9758816666667","6501300","土城區"
"236021","401-BY","2018/03/01 18:39:20","新北市土城區延吉街253巷2號","121.467498333333","24.9847016666667","6501300","土城區"
"236058","912-UM","2018/03/01 18:39:21","新北市土城區中央路四段33號","121.423298333333","24.9620083333333","6501300","土城區"
"236051","913-UM","2018/03/01 18:39:24","新北市土城區明德路一段30號","121.465101666667","24.984695","6501300","土城區"
"236062","915-UM","2018/03/01 18:39:15","新北市土城區延壽路13巷19號","121.46991","24.9913816666667","6501300","土城區"
"236053","AAC-216","2018/03/01 18:39:20","新北市土城區中華路一段27號","121.446385","24.9889483333333","6501300","土城區"
"242042","400-BY","2018/03/01 18:39:14","新北市新莊區天祥街53號","121.414958333333","25.03037","6500500","新莊區"
"242061","362-BY","2018/03/01 18:39:20","新北市新莊區新莊路668號","121.44153","25.032875","6500500","新莊區"
"242058","353-BY","2018/03/01 18:39:26","新北市新莊區中正路881-12號","121.417263333333","25.025185","6500500","新莊區"
"242056","349-TH","2018/03/01 18:39:29","新北市板橋區大觀路三段59巷17弄5-1號","121.43516","24.9950133333333","6500500","新莊區"
"238015","755-BX","2018/03/01 18:39:19","新北市樹林區備內街121號","121.405936666667","24.9893766666667","6500700","樹林區"
"238023","601-UM","2018/03/01 18:39:24","新北市樹林區三福街114號","121.406293333333","25.016415","6500700","樹林區"
"238019","599-UM","2018/03/01 18:39:26","新北市樹林區中華路391號","121.411756666667","24.9803766666667","6500700","樹林區"
"238018","571-TV","2018/03/01 18:39:26","新北市樹林區樹新路66號","121.429096666667","24.99716","6500700","樹林區"
"238024","5061-A6","2018/03/01 18:39:11","新北市樹林區太順街49巷14號","121.418028333333","24.97887","6500700","樹林區"
"238022","KEA-2213","2018/03/01 18:39:25","新北市樹林區中山路三段109-1號","121.399493333333","24.9745266666667","6500700","樹林區"
"238025","303-VK","2018/03/01 18:39:16","新北市樹林區大安路542號","121.413533333333","24.98544","6500700","樹林區"
"238014","282-BY","2018/03/01 18:39:23","新北市樹林區東佳路8號","121.401711666667","24.9765716666667","6500700","樹林區"
"238020","268-VK","2018/03/01 18:39:20","新北市樹林區大安路493號","121.414365","24.9870133333333","6500700","樹林區"
"238026","172-UY","2018/03/01 18:39:17","新北市樹林區信和街140號","121.386651666667","24.9747383333333","6500700","樹林區"
"238016","169-UY","2018/03/01 18:39:23","新北市樹林區文化街23號","121.419255","24.9876283333333","6500700","樹林區"
"239008","527-UM","2018/03/01 18:39:25","新北市鶯歌區國際一路14號","121.336191666667","24.9765166666667","6500800","鶯歌區"
"239005","526-UM","2018/03/01 18:39:19","新北市鶯歌區鳳吉三街31巷1號","121.327403333333","24.974025","6500800","鶯歌區"
"239001","417-VK","2018/03/01 18:39:30","新北市鶯歌區二橋街80號","121.337096666667","24.938365","6500800","鶯歌區"
"239003","360-BY","2018/03/01 18:39:12","新北市鶯歌區永和街172號","121.33607","24.97045","6500800","鶯歌區"
"239004","193-VK","2018/03/01 18:39:18","新北市鶯歌區國中街114號","121.339833333333","24.9401233333333","6500800","鶯歌區"
"221008","489-VK","2018/03/01 18:30:18","新北市汐止區康寧街901號","121.651375","25.0750483333333","6501100","汐止區"
"221036","130-UY","2018/03/01 18:39:10","新北市汐止區忠孝東路351-2號","121.665141666667","25.0702433333333","6501100","汐止區"
"221015","131-UY","2018/03/01 18:39:26","新北市汐止區吉祥街27巷2號","121.667865","25.0816166666667","6501100","汐止區"
"221010","269-BY","2018/03/01 18:39:14","新北市汐止區汐萬路三段282號","121.64105","25.1086933333333","6501100","汐止區"
"221012","278-VK","2018/03/01 18:39:18","新北市汐止區長江街235-5號","121.66296","25.078615","6501100","汐止區"
"221023","279-VK","2018/03/01 18:39:16","新北市汐止區湖前街48號","121.632683333333","25.068845","6501100","汐止區"
"221032","280-BY","2018/03/01 18:39:22","新北市汐止區福山街60巷12號","121.618133333333","25.0462883333333","6501100","汐止區"
"221027","281-BY","2018/03/01 18:39:17","新北市汐止區和平街86號","121.661255","25.07079","6501100","汐止區"
"221038","297-VK","2018/03/01 18:39:20","新北市汐止區汐萬路一段144-2號","121.653041666667","25.0710633333333","6501100","汐止區"
"221029","298-VK","2018/03/01 18:39:28","新北市汐止區樟樹一路136號","121.642173333333","25.0648583333333","6501100","汐止區"
"221021","299-VK","2018/03/01 18:39:27","新北市汐止區新台五路一段159號","121.65413","25.062495","6501100","汐止區"
"221031","353-TW","2018/03/01 18:39:23","新北市汐止區福德一路274號","121.632106666667","25.064015","6501100","汐止區"
"221035","622-UM","2018/03/01 18:39:09","新北市汐止區大同路二段264號","121.654563333333","25.0661033333333","6501100","汐止區"
"221025","623-UM","2018/03/01 18:39:23","新北市汐止區仁愛路119巷13號","121.66231","25.0640883333333","6501100","汐止區"
"221033","647-BX","2018/03/01 18:39:21","新北市汐止區南勢街1巷1號","121.627065","25.0374116666667","6501100","汐止區"
"221002","707-TV","2018/03/01 18:39:27","新北市汐止區中興路25號","121.636895","25.059625","6501100","汐止區"
"221018","753-BX","2018/03/01 18:39:20","新北市汐止區茄苳路255號","121.671845","25.06825","6501100","汐止區"
"220079","145-BY","2018/03/01 18:39:20","新北市板橋區光華街1巷1號","121.45405","25.0109716666667","6500100","板橋區"
"220080","200-UY","2018/03/01 18:39:27","新北市板橋區大觀路二段265巷76弄37號","121.441115","24.9967566666667","6500100","板橋區"
"220082","610-BX","2018/03/01 18:39:16","新北市板橋區大觀路二段443-2號","121.439373333333","24.9951683333333","6500100","板橋區"
"220056","276-BY","2018/03/01 18:39:09","新北市板橋區華東街1-10號","121.448681666667","24.9948033333333","6500100","板橋區"
"220072","277-BY","2018/03/01 18:39:14","新北市板橋區板城路421號","121.448086666667","24.9962366666667","6500100","板橋區"
"220057","282-UM","2018/03/01 18:39:07","新北市板橋區華東街1-9號","121.448246666667","24.99489","6500100","板橋區"
"220071","283-VK","2018/03/01 18:39:20","新北市板橋區華東街1-9號","121.448026666667","24.9949033333333","6500100","板橋區"
"220094","285-UM","2018/03/01 18:39:22","新北市板橋區民生路二段161巷3號","121.470168333333","25.0198166666667","6500100","板橋區"
"220053","285-VK","2018/03/01 18:39:26","新北市板橋區民生路二段161巷1號","121.470216666667","25.01991","6500100","板橋區"
"220083","286-VK","2018/03/01 18:39:20","新北市板橋區大觀路二段266號","121.449335","24.9965833333333","6500100","板橋區"
"220081","287-VK","2018/03/01 18:39:15","新北市板橋區板城路421號","121.448005","24.995605","6500100","板橋區"
"220084","296-UM","2018/03/01 18:39:24","新北市板橋區板城路421號","121.44808","24.9963633333333","6500100","板橋區"
"220075","303-R5","2018/03/01 18:39:24","新北市板橋區南雅南路二段144巷46號","121.449805","24.9970233333333","6500100","板橋區"
"220064","486-VK","2018/03/01 18:39:09","新北市板橋區館前西路275號","121.452548333333","25.008525","6500100","板橋區"
"220035","560-BX","2018/03/01 18:39:15","新北市板橋區南雅西路二段145巷10號","121.451493333333","25.01207","6500100","板橋區"
"220077","687-BX","2018/03/01 18:39:25","新北市板橋區大觀路二段443-2號","121.44129","24.9951866666667","6500100","板橋區"
"220054","741-BX","2018/03/01 18:39:23","新北市板橋區華東街1-9號","121.448081666667","24.994925","6500100","板橋區"
"220067","829-TW","2018/03/01 18:39:15","新北市板橋區民生路二段120號","121.470386666667","25.0196166666667","6500100","板橋區"
"220074","895-R6","2018/03/01 18:39:14","新北市板橋區華東街1-10號","121.448793333333","24.99467","6500100","板橋區"
"220073","985-R7","2018/03/01 18:39:17","新北市板橋區南雅南路二段138號","121.452046666667","24.996415","6500100","板橋區"
"220070","AAC-253","2018/03/01 18:39:12","新北市板橋區華東街1-9號","121.448238333333","24.99486","6500100","板橋區"
