"lineid","car","time","location","longitude","latitude","cityid","cityname"
"234046","148-BY","2018/03/01 19:19:43","新北市永和區得和路345號","121.523976666667","24.9995","6500400","永和區"
"234007","207-UY","2018/03/01 19:19:40","新北市永和區中山路一段307號","121.506481666667","25.0066633333333","6500400","永和區"
"234081","298-R6","2018/03/01 19:19:28","新北市永和區福和路14號","121.524288333333","25.00844","6500400","永和區"
"234038","336-UY","2018/03/01 19:19:35","新北市永和區民樂街55巷2號","121.527441666667","24.9983916666667","6500400","永和區"
"234064","337-UY","2018/03/01 19:19:26","新北市永和區永元路17巷6弄2號","121.521358333333","25.0007233333333","6500400","永和區"
"234086","338-UY","2018/03/01 19:19:39","新北市永和區永亨路4號","121.519348333333","25.0051616666667","6500400","永和區"
"234070","552-UM","2018/03/01 19:19:31","新北市永和區豫溪街71號","121.517725","25.0099716666667","6500400","永和區"
"234017","745-BX","2018/03/01 19:19:32","新北市永和區文化路144巷19弄12號","121.512385","25.016755","6500400","永和區"
"234030","746-BX","2018/03/01 19:19:40","新北市永和區厚德街60號","121.524381666667","24.998805","6500400","永和區"
"234054","KEA-2590","2018/03/01 19:19:43","新北市永和區中興街37號","121.516246666667","25.011795","6500400","永和區"
"234013","KEA-2591","2018/03/01 19:19:45","新北市永和區信義路57-1號","121.512846666667","25.0126116666667","6500400","永和區"
"234061","AAD-866","2018/03/01 19:19:43","新北市永和區中正路381號","121.517253333333","25.0038","6500400","永和區"
"234042","862-TW","2018/03/01 19:19:40","新北市永和區保平路151巷9號","121.51027","25.0054016666667","6500400","永和區"
"234050","863-TW","2018/03/01 19:19:26","新北市永和區仁愛路142號","121.511065","25.013455","6500400","永和區"
"234026","9371-KE","2018/03/01 19:19:31","新北市永和區安樂路144巷26號","121.515268333333","24.9996183333333","6500400","永和區"
"234011","9373-KE","2018/03/01 19:19:32","新北市永和區保福路二段23巷19號","121.510095","25.01112","6500400","永和區"
"249001","173-UM","2018/03/01 19:19:40","新北市八里區中華路二段145號","121.409055","25.1524166666667","6502300","八里區"
"249003","593-UM","2018/03/01 19:19:44","新北市八里區中山路二段478號","121.398636666667","25.147355","6502300","八里區"
"248016","026-BX","2018/03/01 19:19:40","新北市五股區成泰路三段543巷41-1號","121.449616666667","25.1030216666667","6501500","五股區"
"248020","225-UY","2018/03/01 19:00:37","新北市五股區凌雲路三段57號","121.425306666667","25.1250133333333","6501500","五股區"
"248012","247-BX","2018/03/01 19:19:42","新北市五股區中興路四段48巷16號","121.438693333333","25.083445","6501500","五股區"
"248010","272-BY","2018/03/01 19:19:32","新北市五股區水碓一路23號","121.430541666667","25.071245","6501500","五股區"
"248004","677-BX","2018/03/01 19:19:27","新北市五股區五福路85號","121.432298333333","25.0902516666667","6501500","五股區"
"248002","678-BX","2018/03/01 19:19:37","新北市五股區凌雲路一段158巷13號","121.447765","25.1034933333333","6501500","五股區"
"234023","9380-KE","2018/03/01 19:19:31","新北市永和區竹林路109巷15號","121.520461666667","25.011975","6500400","永和區"
"234077","969-R7","2018/03/01 19:19:36","新北市永和區民族街35-1號","121.518785","24.9990633333333","6500400","永和區"
"234074","AAC-211","2018/03/01 19:19:32","新北市永和區竹林路94號","121.519365","25.0121933333333","6500400","永和區"
"234067","AAC-212","2018/03/01 19:19:33","新北市永和區保平路58號","121.511135","25.007045","6500400","永和區"
"234003","AAC-295","2018/03/01 19:19:29","新北市永和區永平路173號","121.510541666667","25.0090166666667","6500400","永和區"
"244013","069-UM","2018/03/01 19:19:40","新北市林口區麗園二街1巷3-2號","121.377226666667","25.0703366666667","6501700","林口區"
"244019","248-BX","2018/03/01 19:19:29","新北市林口區忠孝路646巷14號","121.379048333333","25.067705","6501700","林口區"
"244011","701-TV","2018/03/01 19:19:41","新北市林口區竹林路72號","121.387861666667","25.0783116666667","6501700","林口區"
"244023","837-TS","2018/03/01 19:19:40","新北市林口區文化三路一段617巷90號","121.370248333333","25.0780816666667","6501700","林口區"
"243012","AAD-798","2018/03/01 19:19:33","新北市泰山區仁愛路100巷32號","121.433421666667","25.0551066666667","6501600","泰山區"
"243011","297-R6","2018/03/01 19:19:34","新北市泰山區中央路36巷1號","121.426281666667","25.0427166666667","6501600","泰山區"
"243015","380-SR","2018/03/01 19:19:25","新北市泰山區公園路54號","121.428136666667","25.0546433333333","6501600","泰山區"
"243014","421-VK","2018/03/01 19:19:33","新北市泰山區泰林路二段81號","121.434973333333","25.0585866666667","6501600","泰山區"
"243010","KEA-2215","2018/03/01 19:19:28","新北市泰山區明志路一段492巷2號","121.430295","25.05475","6501600","泰山區"
"243009","KEA-2216","2018/03/01 19:19:38","新北市泰山區明志路一段21號","121.433865","25.0657633333333","6501600","泰山區"
"243013","646-TV","2018/03/01 19:19:29","新北市泰山區明志路三段145巷2弄5號","121.425378333333","25.039665","6501600","泰山區"
"243016","680-BX","2018/03/01 19:19:36","新北市泰山區工專路35號","121.423185","25.0399433333333","6501600","泰山區"
"222003","436-BY","2018/03/01 19:19:25","新北市深坑區深南路91號","121.626451666667","25.0159666666667","6501800","深坑區"
"222002","659-BX","2018/03/01 19:19:27","新北市深坑區紅葉街10巷2號","121.63301","25.0117833333333","6501800","深坑區"
"231041","002-UM","2018/03/01 19:19:39","新北市新店區溪園路245-6號","121.525481666667","24.98331","6500600","新店區"
"231059","046-UY","2018/03/01 19:19:43","新北市新店區安業街1-1號","121.516708333333","24.9788433333333","6500600","新店區"
"231061","047-UY","2018/03/01 19:19:37","新北市新店區安康路一段222-2號","121.523098333333","24.9637033333333","6500600","新店區"
"231060","106-UY","2018/03/01 19:19:34","新北市新店區安康路二段105號","121.512763333333","24.9624633333333","6500600","新店區"
"231051","107-UY","2018/03/01 19:19:38","新北市新店區中央路118號","121.53104","24.9751133333333","6500600","新店區"
"231047","108-UY","2018/03/01 19:19:25","新北市新店區中興路二段79巷18號","121.546146666667","24.971465","6500600","新店區"
"231052","187-VK","2018/03/01 19:19:41","新北市新店區自強路251號","121.548133333333","24.919575","6500600","新店區"
"231050","KEA-2219","2018/03/01 19:19:42","新北市新店區竹林路71-7號","121.553605","24.9513","6500600","新店區"
"231046","278-BY","2018/03/01 19:19:27","新北市新店區華城路36巷1-1號","121.528391666667","24.9553566666667","6500600","新店區"
"231058","3712-VJ","2018/03/01 19:19:43","新北市新店區光明街254號","121.540461666667","24.96373","6500600","新店區"
"231056","3713-VJ","2018/03/01 19:19:28","新北市新店區溪園路365-8號","121.521413333333","24.9808133333333","6500600","新店區"
"231067","4772-VM","2018/03/01 19:19:27","新北市新店區安康路二段414巷2號","121.49582","24.9577966666667","6500600","新店區"
"231065","512-UM","2018/03/01 19:19:37","新北市新店區安祥路109巷1弄2號","121.47561","24.9591783333333","6500600","新店區"
"231054","513-UM","2018/03/01 19:19:25","新北市新店區國校路55號","121.538186666667","24.9544733333333","6500600","新店區"
"231064","515-UM","2018/03/01 19:19:40","新北市新店區安忠路57巷26弄21號","121.51246","24.958155","6500600","新店區"
"231040","619-UM","2018/03/01 19:19:26","新北市新店區三民路31號","121.538051666667","24.9704883333333","6500600","新店區"
"231042","641-BX","2018/03/01 19:19:43","新北市新店區北宜路一段7號","121.538443333333","24.9582966666667","6500600","新店區"
"231063","645-TV","2018/03/01 19:19:27","新北市新店區達觀路14巷5號","121.503703333333","24.9425383333333","6500600","新店區"
"231049","719-UM","2018/03/01 19:19:39","新北市新店區明德路66號","121.54155","24.9794866666667","6500600","新店區"
"231062","720-UM","2018/03/01 19:19:41","新北市新店區莒光路97號","121.52255","24.9539933333333","6500600","新店區"
"231044","897-TW","2018/03/01 19:19:28","新北市新店區中興路三段321號","121.541988333333","24.9862216666667","6500600","新店區"
"231045","898-TW","2018/03/01 19:19:42","新北市新店區北宜路一段316號","121.547446666667","24.9520833333333","6500600","新店區"
"231043","899-TW","2018/03/01 19:19:27","新北市新店區北新路二段156-1號","121.542923333333","24.975555","6500600","新店區"
"231066","AKT-0513","2018/03/01 19:19:42","新北市新店區安康路三段237號","121.487388333333","24.951795","6500600","新店區"
"241009","060-VK","2018/03/01 19:19:40","新北市三重區溪尾街230巷44號","121.48607","25.081155","6500200","三重區"
"241031","061-VK","2018/03/01 19:19:27","新北市三重區重新路四段190號","121.486163333333","25.0550266666667","6500200","三重區"
"241017","063-VK","2018/03/01 19:19:43","新北市三重區大同北路217號","121.491405","25.06595","6500200","三重區"
"241026","066-VK","2018/03/01 19:19:41","新北市三重區重安街160-1號","121.496135","25.05457","6500200","三重區"
"241022","267-UM","2018/03/01 19:19:40","新北市三重區重陽路二段72號","121.487141666667","25.06411","6500200","三重區"
"241032","269-UM","2018/03/01 19:19:39","新北市三重區新生街82號","121.483976666667","25.05933","6500200","三重區"
"241007","398-BY","2018/03/01 19:19:34","新北市三重區慈愛街50號","121.485931666667","25.0791083333333","6500200","三重區"
"241020","413-TH","2018/03/01 19:19:33","新北市三重區大智街238號","121.489536666667","25.0727116666667","6500200","三重區"
"241030","480-VK","2018/03/01 19:19:31","新北市三重區成功路41巷72號","121.49143","25.053255","6500200","三重區"
"241006","AAD-863","2018/03/01 19:19:26","新北市三重區車路頭街153號","121.483765","25.076935","6500200","三重區"
"241035","743-BX","2018/03/01 19:19:26","新北市三重區信義西街138號","121.495416666667","25.06434","6500200","三重區"
"241029","942-UM","2018/03/01 19:19:31","新北市三重區重安街27號","121.491071666667","25.0569883333333","6500200","三重區"
"235066","003-UY","2018/03/01 19:19:43","新北市中和區枋寮街2號","121.502428333333","24.9999283333333","6500300","中和區"
"235064","005-UY","2018/03/01 19:19:36","新北市中和區泰和街1號","121.499961666667","25.0009","6500300","中和區"
"235063","006-UY","2018/03/01 19:19:41","新北市中和區連城路220號","121.491325","24.9964833333333","6500300","中和區"
"235047","031-BX","2018/03/01 19:19:42","新北市中和區和平街50號","121.50869","24.990625","6500300","中和區"
"235056","096-UM","2018/03/01 19:19:45","新北市中和區中正路1171號","121.481376666667","25.0093166666667","6500300","中和區"
"235039","097-UM","2018/03/01 19:19:31","新北市中和區景平路64巷14弄15號","121.522753333333","24.99127","6500300","中和區"
"235065","098-UM","2018/03/01 19:19:42","新北市中和區中山路二段64巷8號","121.503658333333","25.0050266666667","6500300","中和區"
"235040","150-BY","2018/03/01 19:19:43","新北市中和區保健路50巷7號","121.510195","24.9966","6500300","中和區"
"235058","151-BY","2018/03/01 19:19:44","新北市中和區連城路523巷11弄25號","121.48225","24.9942933333333","6500300","中和區"
"235055","183-VK","2018/03/01 19:19:32","新北市中和區德光路9號","121.4715","25.004535","6500300","中和區"
"235038","185-VK","2018/03/01 19:19:27","新北市中和區大智街55巷31號","121.520563333333","24.992785","6500300","中和區"
"235049","186-VK","2018/03/01 19:19:43","新北市中和區景新街235號","121.508086666667","24.9945283333333","6500300","中和區"
"235067","255-BX","2018/03/01 19:19:41","新北市中和區新生街148巷20號","121.48255","25.0007083333333","6500300","中和區"
"235044","293-VK","2018/03/01 19:19:26","新北市中和區中興街239號","121.500475","24.989165","6500300","中和區"
"235072","301-VK","2018/03/01 19:19:34","新北市中和區連城路263巷4弄2號","121.491548333333","24.9960216666667","6500300","中和區"
"235043","352-BY","2018/03/01 19:19:31","新北市中和區景平路426號","121.507501666667","24.9933333333333","6500300","中和區"
"235068","377-QA","2018/03/01 19:19:42","新北市中和區圓通路162巷37弄3號","121.496446666667","24.9955033333333","6500300","中和區"
"235061","378-QA","2018/03/01 19:19:42","新北市中和區員山路314巷8號","121.481963333333","25.002685","6500300","中和區"
"235071","269-TV","2018/03/01 19:19:25","新北市中和區中正路637巷52弄1號","121.485561666667","24.9941","6500300","中和區"
"235050","4979-A6","2018/03/01 19:19:40","新北市中和區景安路220巷16號","121.50299","24.9914883333333","6500300","中和區"
"235069","4980-A6","2018/03/01 19:19:37","新北市中和區中山路二段181巷20號","121.501083333333","25.0020533333333","6500300","中和區"
"235042","551-UM","2018/03/01 19:19:27","新北市永和區民有街25巷2號","121.517148333333","24.9960683333333","6500300","中和區"
"235045","565-BX","2018/03/01 19:19:41","新北市中和區景新街423巷26號","121.514363333333","24.9896816666667","6500300","中和區"
"235054","640-BX","2018/03/01 19:19:43","新北市中和區國光街109巷4號","121.46983","25.00041","6500300","中和區"
"235060","647-TV","2018/03/01 19:19:41","新北市中和區民有街2號","121.47542","25.0057866666667","6500300","中和區"
"235046","733-UM","2018/03/01 19:19:30","新北市中和區忠孝街2巷13弄2號","121.51042","24.9818733333333","6500300","中和區"
"235057","801-TS","2018/03/01 19:19:33","新北市中和區員山路198號","121.481356666667","25.0005233333333","6500300","中和區"
"235052","805-TS","2018/03/01 19:19:43","新北市中和區華新街141號","121.506423333333","24.9816966666667","6500300","中和區"
"235048","896-TW","2018/03/01 19:19:37","新北市中和區信義街113號","121.51223","24.98694","6500300","中和區"
"235053","900-TW","2018/03/01 19:19:41","新北市中和區華安街21巷9號","121.467416666667","24.99765","6500300","中和區"
"235070","911-UM","2018/03/01 19:19:24","新北市中和區中和路4號","121.499493333333","25.0022733333333","6500300","中和區"
"235051","157-BY","2018/03/01 19:19:41","新北市中和區和平街11號","121.508923333333","24.9903866666667","6500300","中和區"
"235037","AAC-213","2018/03/01 19:19:41","新北市中和區秀朗路三段10巷37弄15號","121.524075","24.9956183333333","6500300","中和區"
"235059","AAC-215","2018/03/01 19:19:40","新北市中和區錦和路193號","121.490668333333","24.99073","6500300","中和區"
"220068","013-TV","2018/03/01 19:19:43","新北市板橋區翠華街6巷69號","121.480998333333","25.0248616666667","6500100","板橋區"
"220065","072-UY","2018/03/01 19:19:36","新北市板橋區國泰街76巷26號","121.467225","25.0070283333333","6500100","板橋區"
"220086","073-UY","2018/03/01 19:19:32","新北市板橋區中正路216巷150弄3號","121.460725","25.0192466666667","6500100","板橋區"
"220106","075-UY","2018/03/01 19:19:34","新北市板橋區雙十路三段43號","121.470526666667","25.0318283333333","6500100","板橋區"
"220069","AAD-861","2018/03/01 19:19:27","新北市板橋區四川路一段127號","121.459818333333","25.0047066666667","6500100","板橋區"
"247004","335-TH","2018/03/01 19:19:39","新北市蘆洲區長榮路526號","121.459696666667","25.090305","6501400","蘆洲區"
"247008","053-VK","2018/03/01 19:19:39","新北市五股區中興路三段192號","121.442678333333","25.08166","6501400","蘆洲區"
"226004","205-ST","2018/03/01 19:19:39","新北市平溪區靜安路三段52巷6-2號","121.764338333333","25.0333166666667","6502400","平溪區"
"235041","251-BX","2018/03/01 19:19:42","新北市中和區景安路2號","121.507858333333","24.9991233333333","6500300","中和區"
"228003","097-TW","2018/03/01 19:19:29","新北市貢寮區和美里和美街22-1號","121.912791666667","25.0826283333333","6502600","貢寮區"
"228001","212-TW","2018/03/01 19:19:39","新北市貢寮區真理里新港街10號","121.92553","25.05443","6502600","貢寮區"
"228002","585-TW","2018/03/01 19:19:38","新北市貢寮區雙玉里田寮洋街21號","121.926688333333","25.0242566666667","6502600","貢寮區"
"224010","AGQ-8101","2018/03/01 19:19:32","新北市瑞芳區烏勢巷145號","121.84718","25.1081366666667","6501200","瑞芳區"
"224006","676-BX","2018/03/01 19:19:33","新北市瑞芳區東和路9號","121.804631666667","25.1061416666667","6501200","瑞芳區"
"224002","639-TC","2018/03/01 19:19:30","新北市瑞芳區八分寮路21號","121.793171666667","25.0845683333333","6501200","瑞芳區"
"224008","285-BY","2018/03/01 19:19:30","新北市瑞芳區逢甲路402號","121.796631666667","25.1125483333333","6501200","瑞芳區"
"224007","275-VK","2018/03/01 19:19:41","新北市瑞芳區瑞竹路102號","121.762656666667","25.103775","6501200","瑞芳區"
"224009","273-VK","2018/03/01 19:19:43","新北市瑞芳區洞頂路101號","121.861633333333","25.117755","6501200","瑞芳區"
"224005","271-BY","2018/03/01 19:19:14","新北市瑞芳區明燈路二段66號","121.809375","25.1077183333333","6501200","瑞芳區"
"227010","642-TC","2018/03/01 19:19:25","新北市雙溪區新基里新基北街40號","121.868488333333","25.0380566666667","6502500","雙溪區"
"227004","400-TW","2018/03/01 19:19:41","新北市雙溪區平林里梅竹蹊66-1號","121.860165","25.0358116666667","6502500","雙溪區"
"253005","032-BX","2018/03/01 19:19:32","新北市石門區阿里荖6-2號","121.610306666667","25.2798383333333","6502200","石門區"
"253006","295-VK","2018/03/01 19:19:29","新北市石門區崁子腳26號","121.535486666667","25.2907166666667","6502200","石門區"
"222001","KEA-2212","2018/03/01 19:19:47","新北市深坑區北深路二段103號","121.617333333333","25.0033183333333","6501800","深坑區"
"208002","KEA-2872","2018/03/01 19:19:27","新北市金山區環金路376巷1號","121.631965","25.2222233333333","6502700","金山區"
"208003","665-BX","2018/03/01 19:19:29","新北市金山區中山路171號","121.638563333333","25.22057","6502700","金山區"
"208001","761-BX","2018/03/01 19:19:33","新北市金山區慈護街15號","121.639785","25.2202533333333","6502700","金山區"
"251009","008-UM","2018/03/01 19:19:30","新北市淡水區中山路190號","121.441568333333","25.174595","6501000","淡水區"
"251001","011-UM","2018/03/01 19:19:23","新北市淡水區自強路201巷43號","121.462068333333","25.1268483333333","6501000","淡水區"
"251013","179-VK","2018/03/01 19:19:32","新北市淡水區安子內12號","121.480833333333","25.219535","6501000","淡水區"
"251014","180-VK","2018/03/01 19:19:34","新北市淡水區小中寮19-7號","121.484738333333","25.229615","6501000","淡水區"
"251015","182-VK","2018/03/01 19:19:33","新北市淡水區南勢埔27-2號","121.483346666667","25.1806","6501000","淡水區"
"251010","413-VK","2018/03/01 19:19:33","新北市淡水區沙崙路23號","121.421421666667","25.181485","6501000","淡水區"
"251012","441-VK","2018/03/01 19:19:26","新北市淡水區崁頂146號","121.430371666667","25.205925","6501000","淡水區"
"251016","442-VK","2018/03/01 19:19:43","新北市淡水區淡金路三段350巷18號","121.450781666667","25.208365","6501000","淡水區"
"251005","443-VK","2018/03/01 19:19:37","新北市淡水區水源街一段31號","121.44328","25.1725183333333","6501000","淡水區"
"251007","577-R6","2018/03/01 19:19:34","新北市淡水區民生路117巷34號","121.464966666667","25.1396333333333","6501000","淡水區"
"251003","766-UM","2018/03/01 19:19:42","新北市淡水區重建街226號","121.44149","25.1748866666667","6501000","淡水區"
"207003","550-UM","2018/03/01 19:19:29","新北市萬里區大鵬里萬里加投79-3號","121.647316666667","25.2123683333333","6502800","萬里區"
"207004","225-TW","2018/03/01 19:19:28","新北市萬里區萬里里成功新村44號","121.687703333333","25.1745933333333","6502800","萬里區"
"252002","178-VK","2018/03/01 19:19:42","新北市三芝區淡金路二段18-1號","121.502633333333","25.259595","6502100","三芝區"
"252001","292-VK","2018/03/01 19:19:24","新北市三芝區長勤街9巷11弄1號","121.501741666667","25.254695","6502100","三芝區"
"237004","KEA-2597","2018/03/01 19:19:36","新北市三峽區有木206號","121.439095","24.8514683333333","6500900","三峽區"
"237007","153-BY","2018/03/01 19:19:32","新北市三峽區二鬮路31-1號","121.362203333333","24.9104233333333","6500900","三峽區"
"237009","210-TH","2018/03/01 19:19:27","新北市三峽區民生街231號","121.371188333333","24.93475","6500900","三峽區"
"237013","252-BX","2018/03/01 19:19:34","新北市三峽區光明路75巷16號","121.377471666667","24.9281433333333","6500900","三峽區"
"237012","275-BY","2018/03/01 19:19:36","新北市三峽區三樹路222巷236弄23號","121.391421666667","24.9430533333333","6500900","三峽區"
"237008","302-VK","2018/03/01 19:19:29","新北市三峽區光明路106巷43號","121.375458333333","24.9268516666667","6500900","三峽區"
"237014","433-BY","2018/03/01 19:19:44","新北市三峽區中山路299巷19號","121.361276666667","24.936585","6500900","三峽區"
"237006","5529-G3","2018/03/01 19:19:37","新北市三峽區橫溪路99巷18-2號","121.400666666667","24.9360066666667","6500900","三峽區"
"237011","KEA-2596","2018/03/01 19:19:29","新北市三峽區中正路一段348號","121.371236666667","24.9243733333333","6500900","三峽區"
"237010","706-TV","2018/03/01 19:19:25","新北市三峽區復興路45號","121.373498333333","24.93693","6500900","三峽區"
"237005","AKY-6261","2018/03/01 19:19:45","新北市三峽區中山路459巷52-1號","121.35648","24.9369016666667","6500900","三峽區"
"236071","105-UM","2018/03/01 19:19:29","新北市土城區學成路76巷4號","121.451426666667","24.9885016666667","6501300","土城區"
"236078","166-UM","2018/03/01 19:19:28","新北市土城區龍泉路18號","121.40996","24.9485283333333","6501300","土城區"
"236026","269-VK","2018/03/01 19:19:36","新北市土城區中正路67巷27號","121.444281666667","24.9765933333333","6501300","土城區"
"236014","270-VK","2018/03/01 19:19:34","新北市土城區學府路一段21號","121.45856","24.9883383333333","6501300","土城區"
"236021","401-BY","2018/03/01 19:19:40","新北市土城區峰廷街3號","121.469166666667","24.9873816666667","6501300","土城區"
"236058","912-UM","2018/03/01 19:19:42","新北市土城區中央路三段67號","121.438733333333","24.9693766666667","6501300","土城區"
"236051","913-UM","2018/03/01 19:19:30","新北市土城區明德路一段398-1號","121.45368","24.9790916666667","6501300","土城區"
"238015","755-BX","2018/03/01 19:19:44","新北市樹林區備內街19號","121.412645","24.987085","6500700","樹林區"
"238023","601-UM","2018/03/01 19:19:43","新北市樹林區三興路77號","121.39261","25.014415","6500700","樹林區"
"238019","599-UM","2018/03/01 19:19:26","新北市樹林區鎮前街347巷1弄2號","121.416758333333","24.9836316666667","6500700","樹林區"
"238018","571-TV","2018/03/01 19:19:26","新北市樹林區中華路353-1號","121.414766666667","24.98024","6500700","樹林區"
"238024","5061-A6","2018/03/01 19:19:31","新北市樹林區福德街48-14號","121.398658333333","24.9747733333333","6500700","樹林區"
"238021","KEA-2217","2018/03/01 19:19:40","新北市樹林區柑園街二段382巷16號","121.36804","24.9498766666667","6500700","樹林區"
"238022","KEA-2213","2018/03/01 19:19:44","新北市樹林區中山路二段151巷6弄13號","121.406183333333","24.9781266666667","6500700","樹林區"
"238025","303-VK","2018/03/01 19:19:36","新北市樹林區中山路三段40號","121.394748333333","24.9725733333333","6500700","樹林區"
"238017","283-BY","2018/03/01 19:19:31","新北市樹林區保安街一段258號","121.419893333333","24.996745","6500700","樹林區"
"238014","282-BY","2018/03/01 19:19:43","新北市樹林區保安二街55號","121.424703333333","24.9946183333333","6500700","樹林區"
"238020","268-VK","2018/03/01 19:19:40","新北市樹林區大安路493號","121.414365","24.9870133333333","6500700","樹林區"
"238026","172-UY","2018/03/01 19:19:37","新北市樹林區佳園路三段77號","121.387653333333","24.9526383333333","6500700","樹林區"
"238016","169-UY","2018/03/01 19:19:43","新北市樹林區復興路497巷26號","121.4145","24.9841766666667","6500700","樹林區"
"239006","891-R6","2018/03/01 19:19:35","新北市鶯歌區鶯桃路268巷18號","121.336035","24.960375","6500800","鶯歌區"
"239008","527-UM","2018/03/01 19:19:44","新北市鶯歌區國際二路6巷6號","121.33861","24.973675","6500800","鶯歌區"
"239005","526-UM","2018/03/01 19:19:39","新北市鶯歌區中湖街60號","121.347848333333","24.9727516666667","6500800","鶯歌區"
"239001","417-VK","2018/03/01 19:19:30","新北市鶯歌區永智街104號","121.336885","24.9533","6500800","鶯歌區"
"239003","360-BY","2018/03/01 19:19:32","新北市鶯歌區中正二路155-4號","121.345311666667","24.9497816666667","6500800","鶯歌區"
"239004","193-VK","2018/03/01 19:19:38","新北市鶯歌區二甲路12號","121.334855","24.9346616666667","6500800","鶯歌區"
"221008","489-VK","2018/03/01 19:19:42","新北市汐止區康寧街324號","121.627035","25.06732","6501100","汐止區"
"221036","130-UY","2018/03/01 19:19:30","新北市汐止區康寧街901號","121.65159","25.0749883333333","6501100","汐止區"
"221015","131-UY","2018/03/01 19:19:46","新北市汐止區康寧街901號","121.651615","25.0748733333333","6501100","汐止區"
"221010","269-BY","2018/03/01 19:19:34","新北市汐止區康寧街901號","121.651506666667","25.0749766666667","6501100","汐止區"
"221012","278-VK","2018/03/01 19:19:38","新北市汐止區長江街33號","121.655598333333","25.0711933333333","6501100","汐止區"
"221023","279-VK","2018/03/01 19:19:36","新北市汐止區康寧街901號","121.651006666667","25.075235","6501100","汐止區"
"221027","281-BY","2018/03/01 19:19:43","新北市汐止區汐萬路一段39號","121.654938333333","25.0690583333333","6501100","汐止區"
"221038","297-VK","2018/03/01 19:19:40","新北市汐止區汐萬路一段312號","121.650671666667","25.07529","6501100","汐止區"
"221029","298-VK","2018/03/01 19:19:08","新北市汐止區康寧街901號","121.651591666667","25.0749383333333","6501100","汐止區"
"221021","299-VK","2018/03/01 19:19:27","新北市汐止區康寧街901號","121.651408333333","25.0750033333333","6501100","汐止區"
"221031","353-TW","2018/03/01 19:19:43","新北市汐止區汐萬路一段256巷3號","121.652841666667","25.0744433333333","6501100","汐止區"
"221025","623-UM","2018/03/01 19:19:43","新北市汐止區汐萬路一段33號","121.65575","25.0678833333333","6501100","汐止區"
"221033","647-BX","2018/03/01 19:19:41","新北市汐止區南勢街1巷1號","121.627066666667","25.0374233333333","6501100","汐止區"
"221002","707-TV","2018/03/01 19:19:34","新北市汐止區大同路一段356號","121.638533333333","25.0592433333333","6501100","汐止區"
"220079","145-BY","2018/03/01 19:19:41","新北市板橋區民權路202巷17弄20號","121.459993333333","25.0166266666667","6500100","板橋區"
"220080","200-UY","2018/03/01 19:19:29","新北市板橋區大觀路二段19巷28號","121.447671666667","25.0031366666667","6500100","板橋區"
"220082","610-BX","2018/03/01 19:19:36","新北市板橋區溪城路79號","121.426568333333","24.9837183333333","6500100","板橋區"
"220096","257-TC","2018/03/01 19:19:40","新北市板橋區大同街26巷14號","121.4781","25.0268816666667","6500100","板橋區"
"220056","276-BY","2018/03/01 19:19:30","新北市板橋區信義路160號","121.45917","24.991425","6500100","板橋區"
"220072","277-BY","2018/03/01 19:19:34","新北市板橋區金門街280巷11號","121.429033333333","24.986265","6500100","板橋區"
"220101","280-UM","2018/03/01 19:19:31","新北市板橋區莒光路165巷18號","121.474145","25.0244366666667","6500100","板橋區"
"220057","282-UM","2018/03/01 19:19:27","新北市板橋區重慶路265號","121.463346666667","24.999885","6500100","板橋區"
"220071","283-VK","2018/03/01 19:19:40","新北市板橋區大豐街117號","121.461095","25.0010933333333","6500100","板橋區"
"220094","285-UM","2018/03/01 19:19:42","新北市板橋區吳鳳路21巷2號","121.46693","25.031215","6500100","板橋區"
"220053","285-VK","2018/03/01 19:19:29","新北市板橋區永豐街255號","121.477938333333","25.0212916666667","6500100","板橋區"
"220083","286-VK","2018/03/01 19:19:40","新北市板橋區大觀路二段174巷166弄8號","121.44219","25.003175","6500100","板橋區"
"220081","287-VK","2018/03/01 19:19:35","新北市板橋區南雅西路二段78-2號","121.452685","25.01056","6500100","板橋區"
"220061","293-UM","2018/03/01 19:19:42","新北市板橋區中山路二段320號","121.480848333333","25.0193766666667","6500100","板橋區"
"220084","296-UM","2018/03/01 19:19:44","新北市板橋區溪北路112號","121.429018333333","24.98912","6500100","板橋區"
"220092","299-UM","2018/03/01 19:19:32","新北市板橋區光武街36巷9號","121.467891666667","25.0261816666667","6500100","板橋區"
"220075","303-R5","2018/03/01 19:19:25","新北市板橋區南雅西路一段8號","121.454721666667","25.0045466666667","6500100","板橋區"
"220062","305-R5","2018/03/01 19:19:33","新北市板橋區三民路二段居仁巷2弄5號","121.479505","25.0128933333333","6500100","板橋區"
"220098","317-R6","2018/03/01 19:19:28","新北市板橋區民有街67號","121.465183333333","25.026845","6500100","板橋區"
"220064","486-VK","2018/03/01 19:19:29","新北市板橋區縣民大道二段68號","121.463136666667","25.012745","6500100","板橋區"
"220089","487-VK","2018/03/01 19:19:45","新北市板橋區文化路二段31號","121.468978333333","25.0247433333333","6500100","板橋區"
"220088","491-VK","2018/03/01 19:19:41","新北市板橋區三民路一段7號","121.47909","25.0231483333333","6500100","板橋區"
"220035","560-BX","2018/03/01 19:19:35","新北市板橋區中正路360巷4-2號","121.45478","25.0236716666667","6500100","板橋區"
"220103","561-BX","2018/03/01 19:19:38","新北市板橋區文化路一段188巷7弄42號","121.4682","25.019255","6500100","板橋區"
"220063","609-BX","2018/03/01 19:19:36","新北市板橋區三民路二段17號","121.479325","25.0182933333333","6500100","板橋區"
"220091","637-BX","2018/03/01 19:19:38","新北市板橋區萬板路478號","121.480008333333","25.0260516666667","6500100","板橋區"
"220077","687-BX","2018/03/01 19:19:45","新北市板橋區僑中二街12巷2號","121.44685","25.010675","6500100","板橋區"
"220093","689-BX","2018/03/01 19:19:35","新北市板橋區漢生西路104號","121.462685","25.0199583333333","6500100","板橋區"
"220054","741-BX","2018/03/01 19:19:43","新北市板橋區重慶路60-1號","121.461761666667","25.0068433333333","6500100","板橋區"
"220102","KEA-2699","2018/03/01 19:19:28","新北市板橋區田單街2巷38號","121.482025","25.02754","6500100","板橋區"
"220055","827-TW","2018/03/01 19:19:35","新北市板橋區新民街23號","121.464041666667","25.0101266666667","6500100","板橋區"
"220067","829-TW","2018/03/01 19:19:35","新北市板橋區長安街138巷1弄52號","121.47397","25.0101133333333","6500100","板橋區"
"220090","830-TW","2018/03/01 19:19:26","新北市板橋區四維路349巷15號","121.461668333333","25.02958","6500100","板橋區"
"220074","895-R6","2018/03/01 19:19:34","新北市板橋區中正路自強新村56號","121.454798333333","25.013575","6500100","板橋區"
"220073","985-R7","2018/03/01 19:19:37","新北市板橋區新生街89巷30號","121.457038333333","25.0227366666667","6500100","板橋區"
"220097","AAC-210","2018/03/01 19:19:28","新北市板橋區幸福路60巷13號","121.460818333333","25.0206533333333","6500100","板橋區"
"220070","AAC-253","2018/03/01 19:19:32","新北市板橋區忠孝路27號","121.460621666667","25.0019566666667","6500100","板橋區"
