"lineid","car","time","location","longitude","latitude","cityid","cityname"
"234007","207-UY","2018/03/01 20:19:19","新北市永和區保順路11號","121.504315","25.0097333333333","6500400","永和區"
"234081","298-R6","2018/03/01 20:19:34","新北市永和區國中路138-1號","121.523193333333","25.00697","6500400","永和區"
"234038","336-UY","2018/03/01 20:19:35","新北市永和區成功路一段93巷11-1號","121.52765","25.00273","6500400","永和區"
"234064","337-UY","2018/03/01 20:17:57","新北市永和區福和路1號","121.52632","25.009755","6500400","永和區"
"234086","338-UY","2018/03/01 20:19:39","新北市永和區永和路二段179號","121.515341666667","25.0132566666667","6500400","永和區"
"234070","552-UM","2018/03/01 20:19:30","新北市永和區永利路23號","121.518016666667","25.00609","6500400","永和區"
"234017","745-BX","2018/03/01 20:19:32","新北市永和區永和路二段185號","121.514998333333","25.0134716666667","6500400","永和區"
"234030","746-BX","2018/03/01 20:19:40","新北市永和區民有街25巷12號","121.517451666667","24.9965683333333","6500400","永和區"
"234054","KEA-2590","2018/03/01 20:19:23","新北市永和區光復街2巷16弄7號","121.517486666667","25.0163716666667","6500400","永和區"
"234013","KEA-2591","2018/03/01 20:19:24","新北市永和區仁愛路295號","121.505025","25.0091883333333","6500400","永和區"
"234061","AAD-866","2018/03/01 20:19:23","新北市中和區安樂路255號","121.514115","24.999815","6500400","永和區"
"234042","862-TW","2018/03/01 20:19:20","新北市中和區中安街188號","121.511238333333","24.9993466666667","6500400","永和區"
"234050","863-TW","2018/03/01 20:19:26","新北市永和區保安路23號","121.510268333333","25.0167166666667","6500400","永和區"
"234011","9373-KE","2018/03/01 20:19:32","新北市永和區仁愛路352巷124號","121.500131666667","25.0084683333333","6500400","永和區"
"249005","172-UM","2018/03/01 20:19:33","新北市八里區下罟子6-4號","121.386281666667","25.141265","6502300","八里區"
"249001","173-UM","2018/03/01 20:19:23","新北市八里區中華路二段502號","121.399926666667","25.14561","6502300","八里區"
"249004","303-UY","2018/03/01 20:19:34","新北市八里區中山路一段129巷19-1號","121.413931666667","25.1585916666667","6502300","八里區"
"249002","305-UY","2018/03/01 20:19:27","新北市八里區龍米路一段140號","121.452955","25.12559","6502300","八里區"
"249003","593-UM","2018/03/01 20:19:24","新北市八里區中山路二段447巷28號","121.397446666667","25.1451266666667","6502300","八里區"
"248016","026-BX","2018/03/01 20:19:29","新北市五股區凌雲路一段158巷44號","121.44708","25.103855","6501500","五股區"
"248012","247-BX","2018/03/01 20:19:22","新北市五股區六合街107號","121.429851666667","25.09073","6501500","五股區"
"248010","272-BY","2018/03/01 20:19:32","新北市泰山區新五路一段104號","121.440351666667","25.0613733333333","6501500","五股區"
"248004","677-BX","2018/03/01 20:19:27","新北市五股區中興路四段23號","121.438785","25.0827116666667","6501500","五股區"
"248002","678-BX","2018/03/01 20:19:37","新北市五股區成泰路三段101-1號","121.443941666667","25.0902733333333","6501500","五股區"
"234022","9380-KE","2018/03/01 20:19:31","新北市永和區勵行街26號","121.516316666667","25.0140083333333","6500400","永和區"
"234077","969-R7","2018/03/01 20:19:36","新北市中和區安樂路73號","121.512608333333","24.9939733333333","6500400","永和區"
"234074","AAC-211","2018/03/01 20:19:32","新北市永和區豫溪街160巷4號","121.52326","25.0095316666667","6500400","永和區"
"234067","AAC-212","2018/03/01 20:19:34","新北市永和區保平路191號","121.509115","25.005215","6500400","永和區"
"234003","AAC-295","2018/03/01 20:19:28","新北市永和區大新街4號","121.514493333333","25.0085","6500400","永和區"
"243012","AAD-798","2018/03/01 20:19:33","新北市泰山區楓江路175-1號","121.440328333333","25.0667433333333","6501600","泰山區"
"243011","297-R6","2018/03/01 20:19:34","新北市泰山區貴陽街16巷5弄14號","121.42266","25.0318966666667","6501600","泰山區"
"243015","380-SR","2018/03/01 20:19:25","新北市泰山區明志路一段252號","121.432331666667","25.060765","6501600","泰山區"
"243014","421-VK","2018/03/01 20:19:33","新北市泰山區泰林路二段262號","121.431621666667","25.0623766666667","6501600","泰山區"
"243010","KEA-2215","2018/03/01 20:19:28","新北市泰山區明志路二段254巷12號","121.426231666667","25.047975","6501600","泰山區"
"243009","KEA-2216","2018/03/01 20:19:30","新北市泰山區泰林路二段290號","121.431101666667","25.0627366666667","6501600","泰山區"
"243013","646-TV","2018/03/01 20:19:27","新北市泰山區中央路5巷17弄18號","121.427358333333","25.0438633333333","6501600","泰山區"
"243016","680-BX","2018/03/01 20:19:16","新北市泰山區明志路三段253號","121.423386666667","25.0373816666667","6501600","泰山區"
"222003","436-BY","2018/03/01 20:19:35","新北市深坑區文化街43號","121.617725","25.0018533333333","6501800","深坑區"
"222002","659-BX","2018/03/01 20:19:27","新北市深坑區萬福路69號","121.601548333333","25.0080233333333","6501800","深坑區"
"231041","002-UM","2018/03/01 20:19:39","新北市新店區民權路43號","121.540088333333","24.982925","6500600","新店區"
"231059","046-UY","2018/03/01 20:19:23","新北市新店區安德街148巷1號","121.508268333333","24.9597233333333","6500600","新店區"
"231061","047-UY","2018/03/01 20:19:37","新北市新店區安興路33-1號","121.515855","24.9703966666667","6500600","新店區"
"231060","106-UY","2018/03/01 20:19:34","新北市新店區錦秀路11巷94弄2號","121.48022","24.9424366666667","6500600","新店區"
"231051","107-UY","2018/03/01 20:19:38","新北市新店區中央六街47號","121.528385","24.9756133333333","6500600","新店區"
"231047","108-UY","2018/03/01 20:19:25","新北市新店區寶橋路132號","121.547383333333","24.9760516666667","6500600","新店區"
"231052","187-VK","2018/03/01 20:19:21","新北市新店區廣興路松碧巷1號","121.546746666667","24.9119483333333","6500600","新店區"
"231050","KEA-2219","2018/03/01 20:19:21","新北市新店區北新路二段2號","121.54275","24.9706866666667","6500600","新店區"
"231057","256-BX","2018/03/01 20:19:27","新北市新店區花園五路二段27號","121.55474","24.9347666666667","6500600","新店區"
"231056","3713-VJ","2018/03/01 20:19:28","新北市新店區中正路283號","121.537506666667","24.9744733333333","6500600","新店區"
"231055","4716-K9","2018/03/01 20:19:25","新北市新店區北新路一段295號","121.541105","24.96754","6500600","新店區"
"231067","4772-VM","2018/03/01 20:19:26","新北市新店區安康路一段46巷16號","121.531408333333","24.961445","6500600","新店區"
"231065","512-UM","2018/03/01 20:19:36","新北市新店區安祥路104-10號","121.479133333333","24.9620366666667","6500600","新店區"
"231054","513-UM","2018/03/01 20:19:29","新北市新店區檳榔路109號","121.544468333333","24.9616416666667","6500600","新店區"
"231064","515-UM","2018/03/01 20:19:20","新北市新店區安利街26號","121.5192","24.9745983333333","6500600","新店區"
"231040","619-UM","2018/03/01 20:19:26","新北市新店區中正路195號","121.540471666667","24.9724183333333","6500600","新店區"
"231042","641-BX","2018/03/01 20:19:23","新北市新店區寶橋路230號","121.55143","24.97886","6500600","新店區"
"231063","645-TV","2018/03/01 20:19:27","新北市新店區安康路二段269號","121.504571666667","24.9570433333333","6500600","新店區"
"231068","718-UY","2018/03/01 20:19:32","新北市新店區寶安街30號","121.542031666667","24.98237","6500600","新店區"
"231049","719-UM","2018/03/01 20:19:19","新北市新店區光明街133號","121.539173333333","24.9620716666667","6500600","新店區"
"231062","720-UM","2018/03/01 20:19:20","新北市新店區安泰路7巷16號","121.485651666667","24.9509966666667","6500600","新店區"
"231044","897-TW","2018/03/01 20:19:28","新北市新店區北新路三段147-1號","121.54127","24.9833033333333","6500600","新店區"
"231045","898-TW","2018/03/01 20:19:30","新北市新店區新坡一街14號","121.548413333333","24.9619233333333","6500600","新店區"
"231043","899-TW","2018/03/01 20:19:27","新北市新店區建國路133號","121.539276666667","24.978265","6500600","新店區"
"231066","AKT-0513","2018/03/01 20:19:22","新北市新店區安民街341-1號","121.516585","24.9750116666667","6500600","新店區"
"241011","013-R5","2018/03/01 20:19:26","新北市三重區龍濱路186號","121.50127","25.0730833333333","6500200","三重區"
"241028","022-UY","2018/03/01 20:19:20","新北市三重區大同南路151-3號","121.496638333333","25.0569933333333","6500200","三重區"
"241008","059-VK","2018/03/01 20:19:19","新北市三重區永福街211巷28號","121.479056666667","25.0739633333333","6500200","三重區"
"241009","060-VK","2018/03/01 20:19:24","新北市三重區三和路四段382巷43號","121.48135","25.0786016666667","6500200","三重區"
"241031","061-VK","2018/03/01 20:19:27","新北市三重區三寧街15號","121.489438333333","25.0597583333333","6500200","三重區"
"241015","062-VK","2018/03/01 20:19:24","新北市三重區重新路一段118號","121.500498333333","25.0630733333333","6500200","三重區"
"241017","063-VK","2018/03/01 20:19:24","新北市三重區自強路一段155號","121.493488333333","25.0670366666667","6500200","三重區"
"241026","066-VK","2018/03/01 20:19:22","新北市三重區中央南路63-1號","121.501426666667","25.0611633333333","6500200","三重區"
"241002","090-VK","2018/03/01 20:19:27","新北市三重區仁義街126號","121.497485","25.08028","6500200","三重區"
"241003","091-VK","2018/03/01 20:19:31","新北市三重區富華街55-4號","121.491091666667","25.083455","6500200","三重區"
"241005","262-UM","2018/03/01 20:19:25","新北市三重區分子尾街83號","121.488921666667","25.082535","6500200","三重區"
"241016","265-UM","2018/03/01 20:19:33","新北市三重區大同北路54巷1號","121.494171666667","25.063575","6500200","三重區"
"241022","267-UM","2018/03/01 20:19:31","新北市三重區市前街14號","121.489098333333","25.06239","6500200","三重區"
"241018","268-UM","2018/03/01 20:19:19","新北市三重區自強路一段155-1號","121.493525","25.06715","6500200","三重區"
"241032","269-UM","2018/03/01 20:19:19","新北市三重區捷運路19巷6弄2號","121.484993333333","25.0569133333333","6500200","三重區"
"241013","270-UM","2018/03/01 20:19:23","新北市三重區溪尾街1號","121.491926666667","25.0740933333333","6500200","三重區"
"241025","271-UM","2018/03/01 20:19:39","新北市三重區頂崁街210巷23弄1號","121.475846666667","25.06817","6500200","三重區"
"241007","398-BY","2018/03/01 20:19:34","新北市三重區仁美街55號","121.486985","25.078025","6500200","三重區"
"241020","413-TH","2018/03/01 20:19:33","新北市三重區三和路三段170巷12號","121.492278333333","25.0729466666667","6500200","三重區"
"241004","475-VK","2018/03/01 20:19:32","新北市三重區溪尾街165巷59號","121.490905","25.0807366666667","6500200","三重區"
"241024","478-VK","2018/03/01 20:19:23","新北市三重區忠孝路三段12號","121.481815","25.06745","6500200","三重區"
"241030","480-VK","2018/03/01 20:19:30","新北市三重區集美街89巷31號","121.488145","25.0525","6500200","三重區"
"241014","543-UM","2018/03/01 20:19:30","新北市三重區河邊北街96-1號","121.504015","25.0699633333333","6500200","三重區"
"241023","545-UM","2018/03/01 20:19:22","新北市三重區大有街1-1號","121.477638333333","25.06553","6500200","三重區"
"241001","547-UM","2018/03/01 20:19:41","新北市三重區溪尾街38號","121.490641666667","25.076795","6500200","三重區"
"241019","KEA-2593","2018/03/01 20:19:27","新北市三重區自強路二段66號","121.48864","25.0698983333333","6500200","三重區"
"241035","743-BX","2018/03/01 20:19:06","新北市三重區正義北路33巷18號","121.498131666667","25.0637883333333","6500200","三重區"
"241012","941-UM","2018/03/01 20:19:31","新北市三重區河邊北街262號","121.501686666667","25.0764083333333","6500200","三重區"
"241029","942-UM","2018/03/01 20:19:31","新北市三重區重安街94號","121.49243","25.0563633333333","6500200","三重區"
"235066","003-UY","2018/03/01 20:19:23","新北市中和區南工路99號","121.50731","25.00373","6500300","中和區"
"235039","097-UM","2018/03/01 20:19:33","新北市中和區大勇街31巷13弄13號","121.517428333333","24.9940266666667","6500300","中和區"
"235065","098-UM","2018/03/01 20:19:22","新北市中和區永和路124號","121.496556666667","25.006615","6500300","中和區"
"235040","150-BY","2018/03/01 20:19:22","新北市中和區安平路38號","121.50994","24.9951433333333","6500300","中和區"
"235038","185-VK","2018/03/01 20:19:27","新北市五股區成泰路三段544-1號","121.453913333333","25.101895","6500300","中和區"
"235068","377-QA","2018/03/01 20:19:22","新北市中和區永和路39巷14號","121.497521666667","25.004975","6500300","中和區"
"235050","4979-A6","2018/03/01 20:19:20","新北市中和區景平路464巷3號","121.505695","24.9939483333333","6500300","中和區"
"235069","4980-A6","2018/03/01 20:19:36","新北市中和區圓通路198巷2弄7號","121.496013333333","24.9947716666667","6500300","中和區"
"235070","911-UM","2018/03/01 20:19:24","新北市中和區中正路488-3號","121.488983333333","24.9943833333333","6500300","中和區"
"235059","AAC-215","2018/03/01 20:19:20","新北市中和區員山路30號","121.48359","24.9878683333333","6500300","中和區"
"220069","AAD-861","2018/03/01 20:19:31","新北市板橋區大華街182巷10號","121.458825","25.0031883333333","6500100","板橋區"
"247022","893-R6","2018/03/01 20:19:22","新北市蘆洲區民族路451號","121.467368333333","25.0886233333333","6501400","蘆洲區"
"247012","546-UM","2018/03/01 20:19:30","新北市蘆洲區中興街17號","121.480563333333","25.0870983333333","6501400","蘆洲區"
"247010","339-TH","2018/03/01 20:19:40","新北市蘆洲區信義路188巷12號","121.48016","25.0845166666667","6501400","蘆洲區"
"247002","337-TH","2018/03/01 20:19:30","新北市蘆洲區環堤大道108號","121.455575","25.086625","6501400","蘆洲區"
"247004","335-TH","2018/03/01 20:19:39","新北市蘆洲區長榮路269巷32號","121.459511666667","25.085815","6501400","蘆洲區"
"247016","057-VK","2018/03/01 20:19:36","新北市蘆洲區中正路185巷45弄2號","121.46588","25.083705","6501400","蘆洲區"
"247006","056-VK","2018/03/01 20:19:23","新北市蘆洲區九芎街136號","121.46505","25.0790683333333","6501400","蘆洲區"
"247008","053-VK","2018/03/01 20:19:19","新北市蘆洲區集賢路235號","121.481901666667","25.08556","6501400","蘆洲區"
"247014","007-UY","2018/03/01 20:19:25","新北市蘆洲區中山二路137巷46號","121.472511666667","25.0805816666667","6501400","蘆洲區"
"247024","002-UY","2018/03/01 20:19:28","新北市蘆洲區光榮路120巷8弄39號","121.46459","25.0879383333333","6501400","蘆洲區"
"247018","001-UY","2018/03/01 20:19:28","新北市蘆洲區民族路408巷3號","121.474688333333","25.0917366666667","6501400","蘆洲區"
"224002","639-TC","2018/03/01 20:19:30","新北市瑞芳區員山子路員山巷3-1號","121.817193333333","25.1036133333333","6501200","瑞芳區"
"222001","KEA-2212","2018/03/01 20:19:07","新北市深坑區北深路三段213號","121.600328333333","25.0040516666667","6501800","深坑區"
"208002","KEA-2872","2018/03/01 20:19:27","新北市金山區南勢湖1號","121.622081666667","25.2194283333333","6502700","金山區"
"251013","179-VK","2018/03/01 20:19:32","新北市淡水區奎柔山路752巷29號","121.473953333333","25.2053116666667","6501000","淡水區"
"251014","180-VK","2018/03/01 20:19:34","新北市淡水區石頭厝3號","121.458713333333","25.235545","6501000","淡水區"
"251008","181-VK","2018/03/01 20:19:38","新北市淡水區淡海路150巷19號","121.422336666667","25.1844116666667","6501000","淡水區"
"251015","182-VK","2018/03/01 20:19:33","新北市淡水區淡金路三段446號","121.45103","25.2145983333333","6501000","淡水區"
"251010","413-VK","2018/03/01 20:19:33","新北市淡水區新民街一段155號","121.42748","25.1888516666667","6501000","淡水區"
"251012","441-VK","2018/03/01 20:19:26","新北市淡水區淡金路三段427號","121.449283333333","25.2096533333333","6501000","淡水區"
"251016","442-VK","2018/03/01 20:19:23","新北市淡水區淡金路五段14-8號","121.453426666667","25.23235","6501000","淡水區"
"251006","561-UM","2018/03/01 20:19:27","新北市淡水區北新路169巷57號","121.448578333333","25.1807283333333","6501000","淡水區"
"251002","672-BX","2018/03/01 20:19:24","新北市淡水區中正路63號","121.441401666667","25.16954","6501000","淡水區"
"251003","766-UM","2018/03/01 20:19:22","新北市淡水區中山北路一段192號","121.44447","25.1792766666667","6501000","淡水區"
"207004","225-TW","2018/03/01 20:19:28","新北市萬里區北基里仁二街2號","121.682561666667","25.1755733333333","6502800","萬里區"
"252002","178-VK","2018/03/01 20:19:22","新北市三芝區中正路一段16-1號","121.503013333333","25.2586233333333","6502100","三芝區"
"252001","292-VK","2018/03/01 20:19:24","新北市三芝區中山路一段35號","121.500625","25.257905","6502100","三芝區"
"237006","5529-G3","2018/03/01 20:19:37","新北市三峽區嘉添1-3號","121.367783333333","24.911735","6500900","三峽區"
"236071","105-UM","2018/03/01 20:19:29","新北市土城區中山路34號","121.424851666667","24.9638716666667","6501300","土城區"
"236042","107-UM","2018/03/01 20:19:21","新北市土城區學享街3號","121.450808333333","24.9871933333333","6501300","土城區"
"236078","166-UM","2018/03/01 20:19:28","新北市土城區德安街4巷4號","121.422183333333","24.964905","6501300","土城區"
"236030","253-BX","2018/03/01 20:19:32","新北市土城區學成路128巷13弄2號","121.449553333333","24.99014","6501300","土城區"
"236026","269-VK","2018/03/01 20:19:39","新北市土城區中央路一段249巷12號","121.445846666667","24.9855683333333","6501300","土城區"
"236014","270-VK","2018/03/01 20:19:34","新北市板橋區四川路二段14號","121.456058333333","24.9963016666667","6501300","土城區"
"236037","271-VK","2018/03/01 20:19:27","新北市土城區明德路一段86號","121.464883333333","24.9798566666667","6501300","土城區"
"236021","401-BY","2018/03/01 20:19:20","新北市土城區延吉街25號","121.472586666667","24.9884416666667","6501300","土城區"
"236058","912-UM","2018/03/01 20:19:21","新北市土城區中央路二段245號","121.440065","24.9716466666667","6501300","土城區"
"242029","986-R7","2018/03/01 20:19:20","新北市新莊區中原路231號","121.449776666667","25.0543133333333","6500500","新莊區"
"242051","751-BX","2018/03/01 20:19:26","新北市新莊區民安西路212巷3弄2號","121.42521","25.0148616666667","6500500","新莊區"
"242025","705-TV","2018/03/01 20:19:26","新北市新莊區五工二路70巷21號","121.460846666667","25.06645","6500500","新莊區"
"242023","613-BX","2018/03/01 20:19:22","新北市新莊區化成路770號","121.465225","25.0589116666667","6500500","新莊區"
"242027","612-BX","2018/03/01 20:19:25","新北市新莊區幸福路584號","121.453806666667","25.0493216666667","6500500","新莊區"
"242039","566-BX","2018/03/01 20:19:18","新北市新莊區龍安路481號","121.425536666667","25.018175","6500500","新莊區"
"242044","497-BY","2018/03/01 20:19:28","新北市新莊區中正路新建巷28弄63號","121.413836666667","25.0211933333333","6500500","新莊區"
"242053","442-UM","2018/03/01 20:19:28","新北市新莊區西盛街367號","121.428016666667","25.013605","6500500","新莊區"
"242048","441-UM","2018/03/01 20:19:33","新北市新莊區四維路188巷10號","121.42141","25.0210933333333","6500500","新莊區"
"242015","440-UM","2018/03/01 20:19:37","新北市新莊區永樂街237巷4號","121.446311666667","25.044245","6500500","新莊區"
"242034","415-TV","2018/03/01 20:19:25","新北市新莊區建中街116巷3弄3號","121.445533333333","25.0370666666667","6500500","新莊區"
"242004","413-TV","2018/03/01 20:19:38","新北市新莊區化成路746巷3弄1號","121.465826666667","25.0577566666667","6500500","新莊區"
"242042","400-BY","2018/03/01 20:19:34","新北市新莊區壽山路73號","121.409591666667","25.03264","6500500","新莊區"
"242061","362-BY","2018/03/01 20:19:39","新北市新莊區新樹路172-13號","121.434478333333","25.021765","6500500","新莊區"
"242058","353-BY","2018/03/01 20:19:36","新北市新莊區龍安路325號","121.421903333333","25.0193966666667","6500500","新莊區"
"242007","132-UY","2018/03/01 20:19:22","新北市新莊區福壽街124巷34弄2號","121.459278333333","25.0512616666667","6500500","新莊區"
"242036","133-UY","2018/03/01 20:19:32","新北市新莊區建安街81號","121.427458333333","25.0245866666667","6500500","新莊區"
"242046","172-VK","2018/03/01 20:19:21","新北市新莊區中正路新生巷55號","121.417415","25.022815","6500500","新莊區"
"242009","173-VK","2018/03/01 20:19:20","新北市新莊區昌平街29號","121.454966666667","25.0518916666667","6500500","新莊區"
"242002","176-VK","2018/03/01 20:19:34","新北市三重區重新路五段635-1號","121.467313333333","25.04371","6500500","新莊區"
"242013","346-TH","2018/03/01 20:19:34","新北市新莊區中和街186巷1號","121.447615","25.0497833333333","6500500","新莊區"
"242019","348-TH","2018/03/01 20:19:36","新北市新莊區復興路二段184號","121.458951666667","25.0444433333333","6500500","新莊區"
"242056","349-TH","2018/03/01 20:19:28","新北市新莊區豐年街40號","121.446378333333","25.0321083333333","6500500","新莊區"
"242017","350-TH","2018/03/01 20:19:32","新北市新莊區中港一街51號","121.45047","25.0454566666667","6500500","新莊區"
"242011","351-TH","2018/03/01 20:19:27","新北市新莊區中信街37巷1弄11號","121.45097","25.0505533333333","6500500","新莊區"
"238022","KEA-2213","2018/03/01 20:19:24","新北市樹林區育德街78-1號","121.387426666667","24.9682766666667","6500700","樹林區"
"221008","489-VK","2018/03/01 20:19:22","新北市汐止區康寧街143號","121.621458333333","25.0666183333333","6501100","汐止區"
"221036","130-UY","2018/03/01 20:19:30","新北市汐止區福安街59巷13號","121.664516666667","25.0640316666667","6501100","汐止區"
"221015","131-UY","2018/03/01 20:19:26","新北市汐止區建成路142巷19弄11號","121.661958333333","25.07383","6501100","汐止區"
"221010","269-BY","2018/03/01 20:19:36","新北市汐止區八連路二段331號","121.62966","25.1000783333333","6501100","汐止區"
"221012","278-VK","2018/03/01 20:19:18","新北市汐止區保新街158號","121.689245","25.068145","6501100","汐止區"
"221023","279-VK","2018/03/01 20:19:36","新北市汐止區明峰街281號","121.62644","25.0685033333333","6501100","汐止區"
"221032","280-BY","2018/03/01 20:19:02","新北市汐止區弘道街47號","121.618141666667","25.04845","6501100","汐止區"
"221027","281-BY","2018/03/01 20:19:39","新北市汐止區水源路一段2號","121.657033333333","25.067205","6501100","汐止區"
"221038","297-VK","2018/03/01 20:19:20","新北市汐止區忠孝東路478號","121.666241666667","25.07372","6501100","汐止區"
"221029","298-VK","2018/03/01 20:19:28","新北市汐止區工建路92號","121.639605","25.0634383333333","6501100","汐止區"
"221021","299-VK","2018/03/01 20:19:27","新北市汐止區水源路一段270號","121.654156666667","25.05866","6501100","汐止區"
"221031","353-TW","2018/03/01 20:19:22","新北市汐止區中興路150巷13號","121.633033333333","25.065015","6501100","汐止區"
"221035","622-UM","2018/03/01 20:19:29","新北市汐止區長江街101-5號","121.658633333333","25.0732083333333","6501100","汐止區"
"221025","623-UM","2018/03/01 20:19:23","新北市汐止區水源路二段72巷6弄5號","121.655671666667","25.055695","6501100","汐止區"
"221033","647-BX","2018/03/01 20:19:41","新北市汐止區東勢街96號","121.633406666667","25.0413133333333","6501100","汐止區"
"221002","707-TV","2018/03/01 20:19:27","新北市汐止區福德二路16巷14-1號","121.63551","25.0686416666667","6501100","汐止區"
"221018","753-BX","2018/03/01 20:19:20","新北市汐止區茄安路21號","121.673095","25.0679483333333","6501100","汐止區"
"220101","280-UM","2018/03/01 20:19:31","新北市板橋區雙十路二段47巷2弄25號","121.475338333333","25.0269766666667","6500100","板橋區"
"220083","286-VK","2018/03/01 20:19:20","新北市板橋區僑中二街102巷2號","121.446146666667","25.0082666666667","6500100","板橋區"
"220081","287-VK","2018/03/01 20:19:35","新北市板橋區僑中一街124巷18弄38號","121.44759","25.0135216666667","6500100","板橋區"
"220061","293-UM","2018/03/01 20:19:22","新北市板橋區文華街20-3號","121.457558333333","25.00054","6500100","板橋區"
"220092","299-UM","2018/03/01 20:19:32","新北市板橋區民權路174號","121.459565","25.0132566666667","6500100","板橋區"
"242021","281-VK","2018/03/01 20:19:27","新北市新莊區和興街15號","121.447451666667","25.0392016666667","6500500","新莊區"
"220089","487-VK","2018/03/01 20:19:25","新北市板橋區四維路253號","121.463406666667","25.0278416666667","6500100","板橋區"
"242031","280-VK","2018/03/01 20:19:20","新北市新莊區三泰路1號","121.440573333333","25.0339733333333","6500500","新莊區"
"220103","561-BX","2018/03/01 20:19:32","新北市板橋區漢生西路19號","121.463531666667","25.0181566666667","6500100","板橋區"
"220077","687-BX","2018/03/01 20:19:25","新北市八里區中山路三段382號","121.368548333333","25.1360566666667","6500100","板橋區"
"220102","KEA-2699","2018/03/01 20:19:28","新北市板橋區縣民大道三段61號","121.474795","25.02126","6500100","板橋區"
"220055","827-TW","2018/03/01 20:19:35","新北市板橋區仁愛路35號","121.459216666667","24.9994483333333","6500100","板橋區"
"220097","AAC-210","2018/03/01 20:19:35","新北市板橋區民權路202巷18弄9號","121.46127","25.0163933333333","6500100","板橋區"
"220070","AAC-253","2018/03/01 20:19:32","新北市板橋區四川路二段245巷49號","121.452023333333","24.99243","6500100","板橋區"
