"lineid","car","time","location","longitude","latitude","cityid","cityname"
"234064","337-UY","2018/03/01 20:17:57","新北市永和區福和路1號","121.52632","25.009755","6500400","永和區"
"234030","746-BX","2018/03/01 20:39:40","新北市中和區中正路222號","121.496405","24.9938316666667","6500400","永和區"
"234061","AAD-866","2018/03/01 20:39:43","新北市永和區秀朗路一段175號","121.517056666667","25.0036366666667","6500400","永和區"
"234064","847-RS","2018/03/01 20:39:35","新北市永和區得和路110號","121.518353333333","25.000175","6500400","永和區"
"249001","173-UM","2018/03/01 20:39:43","新北市八里區中山路三段335號","121.377321666667","25.1387183333333","6502300","八里區"
"249004","303-UY","2018/03/01 20:39:54","新北市八里區中山路一段157巷26號","121.412951666667","25.1581583333333","6502300","八里區"
"234022","9380-KE","2018/03/01 20:39:53","新北市永和區竹林路23號","121.517333333333","25.014745","6500400","永和區"
"234077","969-R7","2018/03/01 20:39:16","新北市五股區中直路15號","121.423893333333","25.1108183333333","6500400","永和區"
"234074","AAC-211","2018/03/01 20:36:12","新北市永和區竹林路119巷22弄3-3號","121.522006666667","25.0115866666667","6500400","永和區"
"243011","297-R6","2018/03/01 20:39:34","新北市泰山區公園路89號","121.424315","25.0551716666667","6501600","泰山區"
"243009","KEA-2216","2018/03/01 20:39:38","新北市泰山區橫窠雅3鄰20號","121.41325","25.0683983333333","6501600","泰山區"
"243016","680-BX","2018/03/01 20:39:36","新北市泰山區明志路二段187號","121.427753333333","25.0495266666667","6501600","泰山區"
"222003","436-BY","2018/03/01 20:39:44","新北市深坑區深坑街164號","121.612748333333","25.00116","6501800","深坑區"
"222002","659-BX","2018/03/01 20:39:47","新北市深坑區萬福路47號","121.599566666667","25.00687","6501800","深坑區"
"231041","002-UM","2018/03/01 20:39:43","新北市新店區中正路566號","121.53385","24.98754","6500600","新店區"
"231059","046-UY","2018/03/01 20:39:52","新北市新店區吉祥街15巷60號","121.4998","24.9451433333333","6500600","新店區"
"231061","047-UY","2018/03/01 20:39:49","新北市新店區新和街54號","121.519815","24.9853333333333","6500600","新店區"
"231060","106-UY","2018/03/01 20:39:54","新北市新店區安康路三段740號","121.473756666667","24.94205","6500600","新店區"
"231051","107-UY","2018/03/01 20:39:38","新北市新店區中央八街71號","121.527835","24.97676","6500600","新店區"
"231047","108-UY","2018/03/01 20:39:45","新北市新店區復興路4號","121.54053","24.9868183333333","6500600","新店區"
"231052","187-VK","2018/03/01 20:39:41","新北市新店區廣興路7-10號","121.545686666667","24.9116866666667","6500600","新店區"
"231050","KEA-2219","2018/03/01 20:39:42","新北市新店區中正路244號","121.539715","24.97328","6500600","新店區"
"231057","256-BX","2018/03/01 20:39:47","新北市新店區花園六路二段20號","121.55535","24.9331233333333","6500600","新店區"
"231058","3712-VJ","2018/03/01 20:39:43","新北市新店區平等街40號","121.536498333333","24.9734666666667","6500600","新店區"
"231056","3713-VJ","2018/03/01 20:39:48","新北市新店區中央路47號","121.532743333333","24.9775283333333","6500600","新店區"
"231065","512-UM","2018/03/01 20:39:40","新北市新店區安祥路102巷89號","121.48715","24.9638933333333","6500600","新店區"
"231054","513-UM","2018/03/01 20:39:49","新北市新店區行政街23號","121.543085","24.9663833333333","6500600","新店區"
"231064","515-UM","2018/03/01 20:39:40","新北市新店區安和路三段110巷9號","121.51748","24.98574","6500600","新店區"
"231040","619-UM","2018/03/01 20:39:46","新北市新店區中正路272號","121.538868333333","24.97357","6500600","新店區"
"231042","641-BX","2018/03/01 20:39:43","新北市新店區寶高路116號","121.554496666667","24.9760233333333","6500600","新店區"
"231063","645-TV","2018/03/01 20:39:47","新北市新店區玫瑰路4-1號","121.493593333333","24.9513383333333","6500600","新店區"
"231068","718-UY","2018/03/01 20:39:52","新北市新店區寶慶街35巷16弄1號","121.543121666667","24.9860983333333","6500600","新店區"
"231049","719-UM","2018/03/01 20:39:39","新北市新店區永業路81巷9弄2號","121.530986666667","24.95023","6500600","新店區"
"231062","720-UM","2018/03/01 20:39:41","新北市新店區安康路三段165巷2-1號","121.489538333333","24.9517466666667","6500600","新店區"
"231044","897-TW","2018/03/01 20:39:48","新北市新店區建國路293巷1號","121.536666666667","24.986195","6500600","新店區"
"231045","898-TW","2018/03/01 20:39:50","新北市新店區長春路41號","121.549926666667","24.957535","6500600","新店區"
"231043","899-TW","2018/03/01 20:39:47","新北市新店區建國路29號","121.540225","24.974115","6500600","新店區"
"231066","AKT-0513","2018/03/01 20:39:42","新北市新店區安民街341-1號","121.516586666667","24.9749766666667","6500600","新店區"
"241011","013-R5","2018/03/01 20:39:45","新北市三重區龍門路168號","121.49889","25.07317","6500200","三重區"
"241028","022-UY","2018/03/01 20:39:38","新北市三重區光興街95號","121.497298333333","25.0598983333333","6500200","三重區"
"241008","059-VK","2018/03/01 20:39:39","新北市三重區下竹圍街91號","121.481101666667","25.07487","6500200","三重區"
"241009","060-VK","2018/03/01 20:39:41","新北市三重區仁愛街584號","121.484675","25.0812116666667","6500200","三重區"
"241031","061-VK","2018/03/01 20:39:47","新北市三重區重陽路一段43巷30號","121.488203333333","25.058705","6500200","三重區"
"241015","062-VK","2018/03/01 20:39:44","新北市三重區文化北路105號","121.497863333333","25.06845","6500200","三重區"
"241017","063-VK","2018/03/01 20:39:43","新北市三重區大同北路269號","121.490875","25.0672883333333","6500200","三重區"
"241026","066-VK","2018/03/01 20:39:41","新北市三重區文化南路3號","121.499995","25.0624383333333","6500200","三重區"
"241002","090-VK","2018/03/01 20:39:47","新北市三重區仁義街167巷17號","121.497653333333","25.0818516666667","6500200","三重區"
"241003","091-VK","2018/03/01 20:39:51","新北市三重區五華街141巷58號","121.493525","25.0867366666667","6500200","三重區"
"241005","262-UM","2018/03/01 20:39:45","新北市三重區碧華街363號","121.492296666667","25.0851983333333","6500200","三重區"
"241016","265-UM","2018/03/01 20:39:53","新北市三重區長壽西街126號","121.495108333333","25.0669633333333","6500200","三重區"
"241022","267-UM","2018/03/01 20:39:39","新北市三重區新北大道一段46巷18弄1號","121.488026666667","25.06203","6500200","三重區"
"241018","268-UM","2018/03/01 20:39:39","新北市三重區自強路一段308號","121.491288333333","25.0684666666667","6500200","三重區"
"241032","269-UM","2018/03/01 20:39:39","新北市三重區重陽路一段120巷48號","121.485028333333","25.0601183333333","6500200","三重區"
"241013","270-UM","2018/03/01 20:39:43","新北市三重區仁愛街129巷2號","121.49562","25.0749383333333","6500200","三重區"
"241025","271-UM","2018/03/01 20:39:39","新北市三重區頂崁街210巷28弄4號","121.475723333333","25.0676883333333","6500200","三重區"
"241007","398-BY","2018/03/01 20:39:34","新北市三重區仁美街2號","121.488533333333","25.0770583333333","6500200","三重區"
"241020","413-TH","2018/03/01 20:39:33","新北市三重區忠孝路一段26號","121.491721666667","25.071795","6500200","三重區"
"241004","475-VK","2018/03/01 20:39:55","新北市三重區仁愛街409號","121.490815","25.081095","6500200","三重區"
"241024","478-VK","2018/03/01 20:39:43","新北市三重區三民街222號","121.480191666667","25.067265","6500200","三重區"
"241030","480-VK","2018/03/01 20:39:50","新北市三重區成功路73巷9號","121.489396666667","25.0518166666667","6500200","三重區"
"241014","543-UM","2018/03/01 20:39:50","新北市三重區萬壽街23號","121.499621666667","25.06937","6500200","三重區"
"241023","545-UM","2018/03/01 20:39:42","新北市三重區自由街41號","121.47893","25.0668783333333","6500200","三重區"
"241001","547-UM","2018/03/01 20:39:41","新北市三重區自強路三段110巷17號","121.48634","25.0745833333333","6500200","三重區"
"241019","KEA-2593","2018/03/01 20:39:47","新北市三重區重陽路四段126巷6號","121.492165","25.071055","6500200","三重區"
"241006","AAD-863","2018/03/01 20:39:45","新北市三重區車路頭街139巷14號","121.484321666667","25.0762466666667","6500200","三重區"
"241035","743-BX","2018/03/01 20:39:46","新北市三重區正義北路258號","121.49591","25.0687","6500200","三重區"
"241012","941-UM","2018/03/01 20:39:51","新北市三重區秀江街2號","121.502735","25.0731016666667","6500200","三重區"
"241029","942-UM","2018/03/01 20:39:50","新北市三重區集美街126巷25號","121.489913333333","25.053765","6500200","三重區"
"235038","185-VK","2018/03/01 20:39:47","新北市八里區中山路三段390號","121.368298333333","25.1352133333333","6500300","中和區"
"235069","4980-A6","2018/03/01 20:37:52","新北市中和區中正路752號","121.48534","24.9985766666667","6500300","中和區"
"235026","800-TS","2018/03/01 20:26:42","新北市中和區員山路36巷16-3號","121.484975","24.99173","6500300","中和區"
"247022","893-R6","2018/03/01 20:39:42","新北市蘆洲區中正路243巷7弄21號","121.467736666667","25.085565","6501400","蘆洲區"
"247012","546-UM","2018/03/01 20:39:50","新北市蘆洲區中興街130號","121.482196666667","25.089285","6501400","蘆洲區"
"247020","500-BY","2018/03/01 20:39:52","新北市蘆洲區民族路424號","121.473881666667","25.09172","6501400","蘆洲區"
"247010","339-TH","2018/03/01 20:39:53","新北市蘆洲區中山一路19號","121.479556666667","25.080715","6501400","蘆洲區"
"247002","337-TH","2018/03/01 20:39:51","新北市蘆洲區長安街375巷16號","121.456628333333","25.08788","6501400","蘆洲區"
"247004","335-TH","2018/03/01 20:39:39","新北市蘆洲區長安街297號","121.45806","25.0847966666667","6501400","蘆洲區"
"247016","057-VK","2018/03/01 20:39:36","新北市蘆洲區和平路36號","121.470773333333","25.0792116666667","6501400","蘆洲區"
"247006","056-VK","2018/03/01 20:39:43","新北市蘆洲區和平路138號","121.466858333333","25.0807716666667","6501400","蘆洲區"
"247008","053-VK","2018/03/01 20:39:39","新北市蘆洲區集賢路269巷4-1號","121.481493333333","25.0835633333333","6501400","蘆洲區"
"247014","007-UY","2018/03/01 20:39:45","新北市蘆洲區中山一路236號","121.472741666667","25.08024","6501400","蘆洲區"
"247024","002-UY","2018/03/01 20:39:48","新北市蘆洲區長樂路38號","121.463608333333","25.0855783333333","6501400","蘆洲區"
"222001","KEA-2212","2018/03/01 20:39:47","新北市深坑區北深路三段228號","121.60083","25.0039616666667","6501800","深坑區"
"208002","KEA-2872","2018/03/01 20:39:47","新北市金山區磺清路121號","121.639791666667","25.2282716666667","6502700","金山區"
"251001","011-UM","2018/03/01 20:39:43","新北市淡水區淡金路57號","121.456051666667","25.1612983333333","6501000","淡水區"
"251013","179-VK","2018/03/01 20:39:52","新北市淡水區行忠路250號","121.457453333333","25.2003666666667","6501000","淡水區"
"251014","180-VK","2018/03/01 20:39:55","新北市淡水區桂竹圍12-9號","121.471606666667","25.232125","6501000","淡水區"
"251015","182-VK","2018/03/01 20:39:53","新北市淡水區興仁路162號","121.4516","25.220715","6501000","淡水區"
"251010","413-VK","2018/03/01 20:39:53","新北市淡水區沙崙路181巷15號","121.423813333333","25.1843933333333","6501000","淡水區"
"251012","441-VK","2018/03/01 20:39:46","新北市淡水區興仁路108號","121.45168","25.2181366666667","6501000","淡水區"
"251016","442-VK","2018/03/01 20:39:43","新北市淡水區後洲子8-2號","121.449541666667","25.2240133333333","6501000","淡水區"
"251006","561-UM","2018/03/01 20:39:47","新北市淡水區商工路196巷2號","121.450936666667","25.187195","6501000","淡水區"
"251011","650-BX","2018/03/01 20:39:48","新北市淡水區新市一路一段361號","121.436193333333","25.186185","6501000","淡水區"
"251002","672-BX","2018/03/01 20:39:44","新北市淡水區中正路32號","121.443776666667","25.1691783333333","6501000","淡水區"
"251003","766-UM","2018/03/01 20:39:42","新北市淡水區新民街120巷52號","121.438651666667","25.1783966666667","6501000","淡水區"
"252002","178-VK","2018/03/01 20:39:42","新北市三芝區淡金路二段47-2號","121.503603333333","25.2606083333333","6502100","三芝區"
"252001","292-VK","2018/03/01 20:39:44","新北市三芝區長安街34號","121.501603333333","25.2561333333333","6502100","三芝區"
"236071","105-UM","2018/03/01 20:39:49","新北市樹林區田尾街60號","121.409856666667","24.960165","6501300","土城區"
"236014","270-VK","2018/03/01 20:39:34","新北市樹林區太平路277號","121.418603333333","24.972575","6501300","土城區"
"242029","986-R7","2018/03/01 20:39:40","新北市新莊區昌隆街19號","121.454363333333","25.0508916666667","6500500","新莊區"
"242051","751-BX","2018/03/01 20:39:46","新北市新莊區民安西路189巷38號","121.427393333333","25.0152633333333","6500500","新莊區"
"242025","705-TV","2018/03/01 20:39:46","新北市新莊區化成路579巷1號","121.464525","25.065885","6500500","新莊區"
"242023","613-BX","2018/03/01 20:39:42","新北市新莊區復興路三段44號","121.461553333333","25.04451","6500500","新莊區"
"242027","612-BX","2018/03/01 20:39:45","新北市新莊區思源路63號","121.459871666667","25.0404066666667","6500500","新莊區"
"242039","566-BX","2018/03/01 20:39:39","新北市新莊區民安路309號","121.42983","25.0226","6500500","新莊區"
"242044","497-BY","2018/03/01 20:39:48","新北市新莊區龍安路94號","121.417736666667","25.0208216666667","6500500","新莊區"
"242053","442-UM","2018/03/01 20:39:47","新北市新莊區民安西路189巷10弄20號","121.426488333333","25.014835","6500500","新莊區"
"242048","441-UM","2018/03/01 20:39:53","新北市新莊區中正路857號","121.419468333333","25.027925","6500500","新莊區"
"242015","440-UM","2018/03/01 20:39:40","新北市新莊區中和街16號","121.448373333333","25.043325","6500500","新莊區"
"242034","415-TV","2018/03/01 20:39:49","新北市新莊區建中街131號","121.445351666667","25.0364266666667","6500500","新莊區"
"242004","413-TV","2018/03/01 20:39:42","新北市五股區五工二路136號","121.454161666667","25.0732933333333","6500500","新莊區"
"242042","400-BY","2018/03/01 20:39:54","新北市新莊區中正路694巷12號","121.418296666667","25.0285066666667","6500500","新莊區"
"242061","362-BY","2018/03/01 20:39:39","新北市新莊區新樹路258巷3號","121.432138333333","25.0155383333333","6500500","新莊區"
"242058","353-BY","2018/03/01 20:39:36","新北市新莊區民安路138號","121.42416","25.0253433333333","6500500","新莊區"
"242007","132-UY","2018/03/01 20:39:42","新北市新莊區福壽街56巷23號","121.459288333333","25.0488683333333","6500500","新莊區"
"242036","133-UY","2018/03/01 20:39:51","新北市新莊區後港一路67號","121.426621666667","25.0265316666667","6500500","新莊區"
"242046","172-VK","2018/03/01 20:39:41","新北市新莊區裕民街25號","121.419125","25.0254416666667","6500500","新莊區"
"242009","173-VK","2018/03/01 20:39:40","新北市新莊區福壽街99巷15弄1號","121.45681","25.0504316666667","6500500","新莊區"
"242002","176-VK","2018/03/01 20:39:39","新北市新莊區中正路96號","121.4551","25.0367233333333","6500500","新莊區"
"242013","346-TH","2018/03/01 20:39:54","新北市新莊區中和街175巷11號","121.447263333333","25.0505783333333","6500500","新莊區"
"242019","348-TH","2018/03/01 20:39:47","新北市新莊區銘德街142號","121.45462","25.042835","6500500","新莊區"
"242056","349-TH","2018/03/01 20:39:48","新北市新莊區瓊泰路151號","121.443233333333","25.031015","6500500","新莊區"
"242017","350-TH","2018/03/01 20:39:52","新北市新莊區中港三街46號","121.449775","25.046345","6500500","新莊區"
"242011","351-TH","2018/03/01 20:39:47","新北市新莊區中榮街124號","121.44651","25.0527366666667","6500500","新莊區"
"238022","KEA-2213","2018/03/01 20:39:44","新北市樹林區育德街78-1號","121.387848333333","24.9680483333333","6500700","樹林區"
"221008","489-VK","2018/03/01 20:39:43","新北市汐止區康寧街706-2號","121.638508333333","25.07299","6501100","汐止區"
"221036","130-UY","2018/03/01 20:39:50","新北市汐止區新昌路12號","121.662216666667","25.0673016666667","6501100","汐止區"
"221015","131-UY","2018/03/01 20:39:46","新北市汐止區建成路37巷1號","121.663546666667","25.072845","6501100","汐止區"
"221023","279-VK","2018/03/01 20:39:52","新北市汐止區民族二街30巷5號","121.6348","25.0717983333333","6501100","汐止區"
"221032","280-BY","2018/03/01 20:39:41","新北市汐止區弘道街53巷30弄2號","121.618815","25.0500216666667","6501100","汐止區"
"221027","281-BY","2018/03/01 20:39:39","新北市汐止區中正路9號","121.662983333333","25.0699783333333","6501100","汐止區"
"221038","297-VK","2018/03/01 20:39:40","新北市汐止區汐萬路一段244-1號","121.65131","25.073485","6501100","汐止區"
"221029","298-VK","2018/03/01 20:39:48","新北市汐止區新台五路一段79-13號","121.645225","25.0619483333333","6501100","汐止區"
"221021","299-VK","2018/03/01 20:39:47","新北市汐止區水源路一段286號","121.654218333333","25.0582383333333","6501100","汐止區"
"221031","353-TW","2018/03/01 20:39:43","新北市汐止區中興路27巷22號","121.634065","25.06084","6501100","汐止區"
"221035","622-UM","2018/03/01 20:39:49","新北市汐止區長江街101-5號","121.658573333333","25.0731833333333","6501100","汐止區"
"221025","623-UM","2018/03/01 20:39:43","新北市汐止區水源路二段271-1號","121.65912","25.0498733333333","6501100","汐止區"
"221033","647-BX","2018/03/01 20:39:41","新北市汐止區合順街18巷8弄5號","121.620308333333","25.0418633333333","6501100","汐止區"
"221002","707-TV","2018/03/01 20:39:47","新北市汐止區福德二路163號","121.631075","25.0651733333333","6501100","汐止區"
"221018","753-BX","2018/03/01 20:39:40","新北市汐止區茄苳路130-5號","121.668418333333","25.07017","6501100","汐止區"
"242021","281-VK","2018/03/01 20:39:47","新北市新莊區中華路一段3號","121.451908333333","25.0370183333333","6500500","新莊區"
"220089","487-VK","2018/03/01 20:39:45","新北市板橋區四維路324號","121.462261666667","25.0301716666667","6500100","板橋區"
"242031","280-VK","2018/03/01 20:39:40","新北市新莊區三和路54號","121.437693333333","25.0382816666667","6500500","新莊區"
"220103","561-BX","2018/03/01 20:39:52","新北市板橋區漢生東路63巷1號","121.46583","25.0163633333333","6500100","板橋區"
"220077","687-BX","2018/03/01 20:39:45","新北市五股區新城三路45號","121.448566666667","25.09324","6500100","板橋區"
"220070","AAC-253","2018/03/01 20:39:52","新北市新莊區中原路662號","121.442378333333","25.054125","6500100","板橋區"
