"lineid","car","time","location","longitude","latitude","cityid","cityname"
"247002","337-TH","2018/03/01 22:09:30","新北市林口區太平里180號","121.36785","25.13464","6501400","蘆洲區"
"247008","053-VK","2018/03/01 22:09:38","新北市八里區中山路三段409號","121.36869","25.13471","6501400","蘆洲區"
"251004","009-UM","2018/03/01 22:09:42","新北市淡水區民族路60號","121.462003333333","25.135805","6501000","淡水區"
"251008","181-VK","2018/03/01 22:09:38","新北市淡水區學府路104號","121.449878333333","25.1718516666667","6501000","淡水區"
"251010","413-VK","2018/03/01 22:09:33","新北市淡水區沙崙路200號","121.424695","25.1839116666667","6501000","淡水區"
"251011","650-BX","2018/03/01 22:09:28","新北市淡水區水碓街7號","121.443145","25.1771216666667","6501000","淡水區"
