"lineid","car","time","location","longitude","latitude","cityid","cityname"
"247008","053-VK","2018/03/01 22:19:39","新北市林口區太平里180號","121.366608333333","25.1339666666667","6501400","蘆洲區"
"251004","009-UM","2018/03/01 22:19:42","新北市淡水區民族路33號","121.462253333333","25.13589","6501000","淡水區"
"251008","181-VK","2018/03/01 22:19:38","新北市淡水區學府路104號","121.449875","25.17188","6501000","淡水區"
"251010","413-VK","2018/03/01 22:19:33","新北市淡水區沙崙路200號","121.424711666667","25.1839533333333","6501000","淡水區"
"251011","650-BX","2018/03/01 22:19:28","新北市淡水區水碓街7號","121.4432","25.1770933333333","6501000","淡水區"
