"lineid","car","time","location","longitude","latitude","cityid","cityname"
"232003","290-BY","2018/03/02 06:39:26","新北市坪林區北宜路八段558號","121.71789","24.909305","6502000","坪林區"
"232015","291-BY","2018/03/02 06:39:38","新北市坪林區北宜路八段558號","121.717826666667","24.9095216666667","6502000","坪林區"
"232019","705-BZ","2018/03/02 06:39:37","新北市坪林區北宜路八段558號","121.71797","24.9093716666667","6502000","坪林區"
"232008","758-BX","2018/03/02 06:39:23","新北市坪林區北宜路八段558號","121.717855","24.9093733333333","6502000","坪林區"
"235043","352-BY","2018/03/02 06:39:30","新北市中和區和平街29-1號","121.507505","24.991075","6500300","中和區"
"235001","611-BX","2018/03/02 06:39:32","新北市中和區圓通路369巷2號","121.490966666667","24.9895216666667","6500300","中和區"
"223006","022-BY","2018/03/02 06:39:21","新北市石碇區石崁1號","121.65147","25.0026066666667","6501900","石碇區"
"223001","205-TH","2018/03/02 06:39:43","新北市石碇區湳窟22-1號","121.661175","24.9908166666667","6501900","石碇區"
"223008","406-TH","2018/03/02 06:39:38","新北市石碇區小粗坑(潭邊里)1號","121.672603333333","24.9817366666667","6501900","石碇區"
"223001","592-UM","2018/03/02 06:39:34","新北市石碇區石碇東街23號","121.661433333333","24.990745","6501900","石碇區"
"223007","661-BX","2018/03/02 06:39:35","新北市石碇區碇坪路一段18號","121.65145","25.00379","6501900","石碇區"
"227005","282-VK","2018/03/02 06:39:24","新北市雙溪區牡丹里中正路93巷3號","121.861556666667","25.0481016666667","6502500","雙溪區"
"236010","165-UM","2018/03/02 06:39:25","新北市土城區永平街51號","121.428","24.9591616666667","6501300","土城區"
"220027","461-BY","2018/03/02 06:39:32","新北市板橋區南雅西路一段63巷12號","121.45199","25.0080216666667","6500100","板橋區"
