"lineid","car","time","location","longitude","latitude","cityid","cityname"
"248005","653-BX","2018/03/02 07:09:32","新北市五股區新五路二段69-1號","121.436646666667","25.0732516666667","6501500","五股區"
"232003","290-BY","2018/03/02 07:09:26","新北市坪林區大粗坑29-2號","121.707835","24.9674233333333","6502000","坪林區"
"232015","291-BY","2018/03/02 07:09:38","新北市坪林區北宜路七段232號","121.689103333333","24.9355633333333","6502000","坪林區"
"232019","705-BZ","2018/03/02 07:09:37","新北市坪林區九芎坑4號","121.726441666667","24.9623066666667","6502000","坪林區"
"232008","758-BX","2018/03/02 07:09:23","新北市坪林區石10-3號","121.709251666667","24.90846","6502000","坪林區"
"244004","248-BX","2018/03/02 07:09:36","新北市林口區頭湖83-10號","121.369818333333","25.0832266666667","6501700","林口區"
"235043","352-BY","2018/03/02 07:09:30","新北市中和區和平街86號","121.50752","24.9911866666667","6500300","中和區"
"235001","611-BX","2018/03/02 07:09:32","新北市中和區圓通路367巷4號","121.491375","24.9892566666667","6500300","中和區"
"226005","5620-A6","2018/03/02 07:09:26","新北市平溪區菁桐里菁桐街117號","121.7242","25.0238316666667","6502400","平溪區"
"226001","7418-A5","2018/03/02 07:09:35","新北市平溪區靜安路二段530巷21號","121.74573","25.027515","6502400","平溪區"
"226003","AGD-0702","2018/03/02 07:09:30","新北市平溪區嶺腳里嶺腳寮1號","121.746536666667","25.0289233333333","6502400","平溪區"
"223006","022-BY","2018/03/02 07:09:29","新北市石碇區碇坪路一段266號","121.675276666667","24.97784","6501900","石碇區"
"223001","205-TH","2018/03/02 07:09:01","新北市石碇區烏塗窟10號","121.655768333333","24.9751266666667","6501900","石碇區"
"223008","406-TH","2018/03/02 07:09:38","新北市石碇區玉桂嶺3號","121.701601666667","25.011105","6501900","石碇區"
"223001","592-UM","2018/03/02 07:09:34","新北市石碇區烏塗窟29-1號","121.655971666667","24.974935","6501900","石碇區"
"223004","660-BX","2018/03/02 07:09:32","新北市石碇區碇坪路一段10號","121.65164","25.0060366666667","6501900","石碇區"
"223007","661-BX","2018/03/02 07:09:35","新北市石碇區番子坑9-2號","121.683791666667","24.9985766666667","6501900","石碇區"
"223005","677-TV","2018/03/02 07:09:35","新北市石碇區碇坪路一段18號","121.651671666667","25.0057166666667","6501900","石碇區"
"227005","282-VK","2018/03/02 07:09:24","新北市雙溪區新基里自強路5號","121.866353333333","25.0390866666667","6502500","雙溪區"
"237001","159-UY","2018/03/02 07:09:25","新北市三峽區中山路459巷163-1號","121.349301666667","24.9334033333333","6500900","三峽區"
"236010","165-UM","2018/03/02 07:09:25","新北市土城區中華路二段141號","121.438913333333","24.9762","6501300","土城區"
"236004","339-SR","2018/03/02 07:09:42","新北市土城區承天路88-1號","121.443258333333","24.96025","6501300","土城區"
"220027","461-BY","2018/03/02 07:09:40","新北市板橋區國光路49巷4號","121.458196666667","25.01812","6500100","板橋區"
