"lineid","car","time","location","longitude","latitude","cityid","cityname"
"248004","653-BX","2018/11/09 07:59:10","新北市五股區明德路12巷8號","121.433403333333","25.0719466666667","6501500","五股區"
"232008","758-BX","2018/11/09 07:59:05","新北市坪林區魚堀1-15號","121.72095","24.8940666666667","6502000","坪林區"
"244004","248-BX","2018/11/09 07:58:58","新北市林口區下福里139號","121.299448333333","25.116905","6501700","林口區"
"222005","289-BY","2018/11/09 07:59:00","新北市深坑區文化街45號","121.617016666667","25.0017766666667","6501800","深坑區"
"231007","189-VK","2018/11/09 07:59:03","新北市新店區安康路一段61號","121.5305","24.9610133333333","6500600","新店區"
"231009","719-UY","2018/11/09 07:58:57","新北市新店區環河路29巷1-1號","121.536305","24.9611","6500600","新店區"
"235001","611-BX","2018/11/09 07:59:12","新北市中和區圓通路367巷6號","121.491531666667","24.9893116666667","6500300","中和區"
"226005","5620-A6","2018/11/09 07:59:00","新北市平溪區石底里公園街18-3號","121.733476666667","25.025595","6502400","平溪區"
"226001","7418-A5","2018/11/09 07:58:51","新北市平溪區南山里乾坑11號","121.782635","25.0471866666667","6502400","平溪區"
"226006","AGD-0702","2018/11/09 07:58:59","新北市平溪區十分里十分街58巷15號","121.77471","25.04297","6502400","平溪區"
"223006","022-BY","2018/11/09 07:59:02","新北市坪林區鶯子瀨12-1號","121.7136","24.9141716666667","6501900","石碇區"
"223002","KEA-2673","2018/11/09 07:50:30","新北市石碇區大格門3號","121.668528333333","24.9553833333333","6501900","石碇區"
"223003","205-TH","2018/11/09 07:59:08","新北市石碇區樟空子17號","121.670476666667","24.9577883333333","6501900","石碇區"
"223004","437-BY","2018/11/09 07:59:10","新北市石碇區碇坪路一段10號","121.651666666667","25.0060133333333","6501900","石碇區"
"223001","592-UM","2018/11/09 07:58:57","新北市石碇區橫坪2號","121.669128333333","24.9699983333333","6501900","石碇區"
"223005","677-TV","2018/11/09 07:59:06","新北市石碇區外按6-1號","121.648773333333","24.995205","6501900","石碇區"
"227005","282-VK","2018/11/09 07:58:38","新北市雙溪區平林里梅竹蹊16號","121.862045","25.035895","6502500","雙溪區"
"252004","249-BX","2018/11/09 07:59:01","新北市三芝區福德里大水堀30號","121.509133333333","25.2157783333333","6502100","三芝區"
"237001","159-UY","2018/11/09 07:59:05","新北市三峽區大學路45-1號","121.37689","24.9405566666667","6500900","三峽區"
