"lineid","car","time","location","longitude","latitude","cityid","cityname"
"248004","653-BX","2018/11/09 08:39:10","新北市五股區明德路8號","121.43335","25.0716933333333","6501500","五股區"
"244004","248-BX","2018/11/09 08:38:58","新北市林口區粉寮69號","121.405081666667","25.0907983333333","6501700","林口區"
"222005","289-BY","2018/11/09 08:39:00","新北市深坑區深南路100號","121.62241","25.0128666666667","6501800","深坑區"
"231007","189-VK","2018/11/09 08:39:03","新北市新店區小坑二路17號","121.529008333333","24.9158383333333","6500600","新店區"
"231009","719-UY","2018/11/09 08:38:59","新北市新店區新烏路三段290巷1號","121.549521666667","24.8980766666667","6500600","新店區"
"235001","611-BX","2018/11/09 08:39:12","新北市中和區民利街37號","121.479898333333","24.99889","6500300","中和區"
"226005","5620-A6","2018/11/09 08:39:00","新北市平溪區南山里乾坑2-5號","121.787071666667","25.0446483333333","6502400","平溪區"
"226001","7418-A5","2018/11/09 08:35:11","新北市平溪區東勢里番仔坑3號","121.746995","25.0001466666667","6502400","平溪區"
"226006","AGD-0702","2018/11/09 08:38:59","新北市平溪區十分里十分街239號","121.77815","25.0443266666667","6502400","平溪區"
"223006","022-BY","2018/11/09 08:38:52","新北市石碇區靜安路一段60號","121.64501","25.0122466666667","6501900","石碇區"
"223003","205-TH","2018/11/09 08:37:33","新北市石碇區北宜路六段柑腳巷2號","121.659578333333","24.9380383333333","6501900","石碇區"
"223008","406-TH","2018/11/09 08:39:13","新北市石碇區碇南路二段松柏崎巷36-1號","121.679255","25.0235166666667","6501900","石碇區"
"223004","437-BY","2018/11/09 08:39:10","新北市石碇區崩山24-2號","121.678646666667","24.9678416666667","6501900","石碇區"
"223001","592-UM","2018/11/09 08:38:57","新北市石碇區北宜路六段柑腳巷2號","121.659643333333","24.938065","6501900","石碇區"
"223007","661-BX","2018/11/09 08:39:10","新北市石碇區光明路2號","121.674365","25.0287083333333","6501900","石碇區"
"223005","677-TV","2018/11/09 08:39:06","新北市石碇區崩山24-2號","121.678615","24.9678233333333","6501900","石碇區"
"227005","282-VK","2018/11/09 08:38:58","新北市雙溪區外柑里三叉坑12號","121.83189","25.0006283333333","6502500","雙溪區"
"252004","249-BX","2018/11/09 08:39:10","新北市三芝區錫板里海尾14-35號","121.477315","25.259505","6502100","三芝區"
"237001","159-UY","2018/11/09 08:39:05","新北市三峽區學勤路38號","121.37447","24.9456733333333","6500900","三峽區"
