"lineid","car","time","location","longitude","latitude","cityid","cityname"
"248004","653-BX","2018/11/09 09:49:10","新北市五股區成泰路一段7巷38號","121.432678333333","25.0671333333333","6501500","五股區"
"222005","289-BY","2018/11/09 09:49:10","新北市深坑區昇高坑路30號","121.6267","25.00044","6501800","深坑區"
"231007","189-VK","2018/11/09 09:49:03","新北市新店區新潭路三段215巷25號","121.50811","24.90406","6500600","新店區"
"231009","719-UY","2018/11/09 09:48:57","新北市新店區小坑一路21-1號","121.531586666667","24.9127566666667","6500600","新店區"
"223003","205-TH","2018/11/09 09:48:54","新北市石碇區碇坪路一段125號","121.666215","24.9864216666667","6501900","石碇區"
"227005","282-VK","2018/11/09 09:37:18","新北市雙溪區泰平里溪尾寮2-2號","121.819493333333","24.9636783333333","6502500","雙溪區"
"237001","159-UY","2018/11/09 09:47:45","新北市樹林區中山路三段210-2號","121.380633333333","24.9677733333333","6500900","三峽區"
