"lineid","car","time","location","longitude","latitude","cityid","cityname"
"234044","148-BY","2018/11/09 13:49:16","新北市永和區永利路107號","121.523333333333","25.00264","6500400","永和區"
"234005","207-UY","2018/11/09 13:49:19","新北市中和區中和路472號","121.512335","25.0040366666667","6500400","永和區"
"234078","298-R6","2018/11/09 13:49:12","新北市永和區永亨路113號","121.523636666667","25.00465","6500400","永和區"
"234036","336-UY","2018/11/09 13:49:10","新北市永和區成功路二段127號","121.526821666667","24.998235","6500400","永和區"
"234062","337-UY","2018/11/09 13:49:19","新北市永和區中正路368巷6號","121.518085","25.00084","6500400","永和區"
"234084","338-UY","2018/11/09 13:49:13","新北市永和區福和路268號","121.518068333333","25.0076183333333","6500400","永和區"
"234068","552-UM","2018/11/09 13:49:03","新北市永和區竹林路133-3號","121.520231666667","25.0108366666667","6500400","永和區"
"234015","745-BX","2018/11/09 13:49:13","新北市永和區文化路32號","121.515073333333","25.0150383333333","6500400","永和區"
"234028","746-BX","2018/11/09 13:49:09","新北市永和區民生路67巷11號","121.523216666667","24.9972116666667","6500400","永和區"
"234052","KEA-2590","2018/11/09 13:49:07","新北市永和區竹林路75巷25弄8號","121.520105","25.014425","6500400","永和區"
"234012","KEA-2591","2018/11/09 13:49:18","新北市永和區永平路296號","121.50743","25.012245","6500400","永和區"
"234060","AAD-866","2018/11/09 13:49:08","新北市永和區中正路191號","121.517191666667","24.9992383333333","6500400","永和區"
"234040","862-TW","2018/11/09 13:49:17","新北市永和區中和路421巷3弄21號","121.5085","25.000365","6500400","永和區"
"234048","863-TW","2018/11/09 13:49:13","新北市永和區保安路75號","121.508731666667","25.0148583333333","6500400","永和區"
"234025","9371-KE","2018/11/09 13:49:06","新北市永和區自由街58號","121.513886666667","25.005955","6500400","永和區"
"234010","9373-KE","2018/11/09 13:49:18","新北市永和區保順路11號","121.50472","25.0095516666667","6500400","永和區"
"248019","225-UY","2018/11/09 13:49:06","新北市五股區凌雲路三段41-1號","121.430901666667","25.1182333333333","6501500","五股區"
"234022","9380-KE","2018/11/09 13:49:08","新北市永和區復興街2巷4號","121.51577","25.012675","6500400","永和區"
"234076","969-R7","2018/11/09 13:49:07","新北市永和區民族街42號","121.518456666667","24.9988133333333","6500400","永和區"
"234072","AAC-211","2018/11/09 13:49:02","新北市永和區豫溪街213號","121.524246666667","25.0093533333333","6500400","永和區"
"234066","AAC-212","2018/11/09 13:49:11","新北市永和區中山路一段149號","121.510071666667","25.0095083333333","6500400","永和區"
"234001","AAC-295","2018/11/09 13:49:11","新北市永和區永和路一段118號","121.51394","25.0079","6500400","永和區"
"244004","248-BX","2018/11/09 13:49:12","新北市林口區民權路72號","121.372686666667","25.0815416666667","6501700","林口區"
"231002","002-UM","2018/11/09 13:48:59","新北市新店區溪園路221號","121.525905","24.9837716666667","6500600","新店區"
"231037","0291-UT","2018/11/09 13:48:57","新北市新店區安康路三段466-2號","121.483985","24.9509233333333","6500600","新店區"
"231027","0293-UT","2018/11/09 13:49:15","新北市新店區北宜路一段105巷10弄1號","121.540373333333","24.9557566666667","6500600","新店區"
"231028","046-UY","2018/11/09 13:49:03","新北市新店區安和路二段160號","121.519715","24.9736266666667","6500600","新店區"
"231001","047-UY","2018/11/09 13:49:05","新北市新店區三民路141號","121.534176666667","24.97268","6500600","新店區"
"231005","106-UY","2018/11/09 13:49:04","新北市新店區寶中路137號","121.549896666667","24.979095","6500600","新店區"
"231022","108-UY","2018/11/09 13:49:12","新北市新店區永興路88號","121.54418","24.93283","6500600","新店區"
"231010","110-UY","2018/11/09 13:48:58","新北市新店區平等街48巷8號","121.535833333333","24.973095","6500600","新店區"
"231012","187-VK","2018/11/09 13:49:02","新北市新店區德正街27巷29弄82號","121.545778333333","24.97344","6500600","新店區"
"231032","188-VK","2018/11/09 13:49:19","新北市新店區莒光路85巷1號","121.522861666667","24.95634","6500600","新店區"
"231023","KEA-2219","2018/11/09 13:49:04","新北市新店區國校路51巷1號","121.538126666667","24.954635","6500600","新店區"
"231026","256-BX","2018/11/09 13:49:01","新北市新店區三民路159巷19弄46號","121.532228333333","24.9732083333333","6500600","新店區"
"231003","268-BY","2018/11/09 13:49:07","新北市新店區中興路一段201號","121.543461666667","24.9654033333333","6500600","新店區"
"231018","278-BY","2018/11/09 13:48:59","新北市新店區中正路399巷18號","121.534056666667","24.9769166666667","6500600","新店區"
"231016","AAD-862","2018/11/09 13:49:03","新北市新店區北宜路二段112-1號","121.556341666667","24.9539516666667","6500600","新店區"
"231029","355-BY","2018/11/09 13:49:10","新北市新店區安康路二段156號","121.51233","24.96087","6500600","新店區"
"231038","3712-VJ","2018/11/09 13:49:04","新北市新店區安華路28-1號","121.519308333333","24.9606333333333","6500600","新店區"
"231025","4715-K9","2018/11/09 13:49:09","新北市新店區中正路373號","121.534798333333","24.9766683333333","6500600","新店區"
"231036","512-UM","2018/11/09 13:49:02","新北市新店區安祥路142號","121.474106666667","24.9558466666667","6500600","新店區"
"231013","513-UM","2018/11/09 13:49:15","新北市新店區二十張路25巷18弄16號","121.539225","24.9816533333333","6500600","新店區"
"231006","617-UM","2018/11/09 13:48:46","新北市新店區北宜路一段260號","121.545718333333","24.95277","6500600","新店區"
"231030","619-UM","2018/11/09 13:49:05","新北市新店區安康路一段20號","121.531236666667","24.961045","6500600","新店區"
"231034","641-BX","2018/11/09 13:49:10","新北市新店區達觀路14巷2號","121.503511666667","24.941275","6500600","新店區"
"231035","719-UM","2018/11/09 13:49:06","新北市新店區安忠路76號","121.512245","24.9587433333333","6500600","新店區"
"231004","899-TW","2018/11/09 13:49:15","新北市新店區寶橋路132號","121.547386666667","24.9760666666667","6500600","新店區"
"231024","AKT-0513","2018/11/09 13:49:09","新北市新店區新生街55號","121.538831666667","24.9669966666667","6500600","新店區"
"235030","003-UY","2018/11/09 13:49:07","新北市中和區廣福路56巷2弄1號","121.503651666667","25.0024383333333","6500300","中和區"
"235028","005-UY","2018/11/09 13:49:06","新北市中和區泰和街2號","121.499953333333","25.0012016666667","6500300","中和區"
"235027","006-UY","2018/11/09 13:49:10","新北市中和區錦和路198號","121.490233333333","24.9949616666667","6500300","中和區"
"235020","096-UM","2018/11/09 13:49:09","新北市中和區立德街329號","121.481463333333","25.0104933333333","6500300","中和區"
"235003","097-UM","2018/11/09 13:49:02","新北市中和區大勇街48號","121.517506666667","24.9941183333333","6500300","中和區"
"235029","098-UM","2018/11/09 13:48:58","新北市中和區勝利路35巷3弄17號","121.499726666667","25.0073516666667","6500300","中和區"
"235004","150-BY","2018/11/09 13:21:10","新北市中和區和城路一段271巷1號","121.485381666667","24.991715","6500300","中和區"
"235022","151-BY","2018/11/09 13:49:01","新北市中和區連城路534巷2號","121.475373333333","24.99145","6500300","中和區"
"235019","183-VK","2018/11/09 13:49:01","新北市中和區民生街85巷4弄1號","121.469076666667","25.0042633333333","6500300","中和區"
"235002","185-VK","2018/11/09 13:49:13","新北市中和區大勇街58號","121.51775","24.9945516666667","6500300","中和區"
"235013","186-VK","2018/11/09 13:49:05","新北市中和區景安路177巷15號","121.505963333333","24.994315","6500300","中和區"
"235031","255-BX","2018/11/09 13:49:18","新北市中和區連城路340巷14弄4號","121.483293333333","24.9972983333333","6500300","中和區"
"235008","293-VK","2018/11/09 13:49:20","新北市中和區中興街123號","121.49991","24.9918033333333","6500300","中和區"
"235036","301-VK","2018/11/09 13:49:03","新北市中和區中山路二段18號","121.50485","25.005445","6500300","中和區"
"235007","352-BY","2018/11/09 13:49:10","新北市中和區成功路139號","121.525901666667","24.990225","6500300","中和區"
"235014","4979-A6","2018/11/09 13:49:17","新北市中和區忠孝街62巷9弄8號","121.513183333333","24.983965","6500300","中和區"
"235033","4980-A6","2018/11/09 13:49:02","新北市中和區南山路81巷8弄12號","121.502528333333","24.9977283333333","6500300","中和區"
"235006","551-UM","2018/11/09 13:49:12","新北市中和區秀朗路三段70巷38號","121.525416666667","24.9944883333333","6500300","中和區"
"235034","558-UM","2018/11/09 13:49:19","新北市中和區南山路7號","121.502045","24.999595","6500300","中和區"
"235009","565-BX","2018/11/09 13:49:09","新北市中和區興南路一段55-2號","121.510688333333","24.99","6500300","中和區"
"235018","640-BX","2018/11/09 13:49:12","新北市中和區民治街13巷1號","121.475248333333","25.00407","6500300","中和區"
"235024","647-TV","2018/11/09 13:49:00","新北市中和區中山路三段116號","121.476023333333","25.0060166666667","6500300","中和區"
"235011","732-UM","2018/11/09 13:49:12","新北市中和區興南路二段34巷55弄2號","121.504873333333","24.9860366666667","6500300","中和區"
"235010","733-UM","2018/11/09 13:48:57","新北市中和區仁愛街36巷55號","121.511425","24.9862816666667","6500300","中和區"
"235035","783-BX","2018/11/09 13:49:19","新北市中和區立德街26巷17弄5號","121.489866666667","25.0077716666667","6500300","中和區"
"235026","800-TS","2018/11/09 13:49:02","新北市中和區中山路二段338號","121.49378","25.0026383333333","6500300","中和區"
"235021","801-TS","2018/11/09 13:49:05","新北市中和區民安街19號","121.480506666667","25.000645","6500300","中和區"
"235016","805-TS","2018/11/09 13:49:17","新北市中和區興南路二段399巷38號","121.499258333333","24.9788416666667","6500300","中和區"
"235012","896-TW","2018/11/09 13:49:00","新北市中和區南山路389號","121.506463333333","24.99028","6500300","中和區"
"235017","900-TW","2018/11/09 13:49:09","新北市中和區華福街15號","121.465703333333","24.9969883333333","6500300","中和區"
"235015","157-BY","2018/11/09 13:49:13","新北市中和區忠孝街106巷45號","121.513811666667","24.984375","6500300","中和區"
"235001","AAC-213","2018/11/09 13:49:12","新北市中和區秀朗路三段175巷7號","121.52504","24.991545","6500300","中和區"
"235023","AAC-215","2018/11/09 13:49:18","新北市中和區圓通路393巷2號","121.489633333333","24.9889633333333","6500300","中和區"
"220016","013-TV","2018/11/09 13:49:18","新北市板橋區民生路二段89-4號","121.471053333333","25.0183466666667","6500100","板橋區"
"220013","072-UY","2018/11/09 13:49:17","新北市板橋區漢生東路217號","121.471108333333","25.0093916666667","6500100","板橋區"
"220034","073-UY","2018/11/09 13:49:20","新北市板橋區大智街68號","121.453986666667","25.0155516666667","6500100","板橋區"
"220105","075-UY","2018/11/09 13:49:16","新北市板橋區民生路二段120號","121.47042","25.0197366666667","6500100","板橋區"
"220017","AAD-861","2018/11/09 13:49:02","新北市板橋區縣民大道一段64巷2號","121.45504","25.004075","6500100","板橋區"
"247015","546-UM","2018/11/09 13:49:03","新北市蘆洲區中正路85號","121.470048333333","25.083725","6501400","蘆洲區"
"247007","336-TH","2018/11/09 13:49:19","新北市蘆洲區重陽街62號","121.481605","25.08384","6501400","蘆洲區"
"247019","057-VK","2018/11/09 13:49:20","新北市蘆洲區民族路422巷48弄24號","121.47466","25.0931783333333","6501400","蘆洲區"
"247009","056-VK","2018/11/09 13:49:01","新北市蘆洲區民族路422巷82弄36-8號","121.473586666667","25.0975566666667","6501400","蘆洲區"
"247003","002-UY","2018/11/09 13:49:06","新北市蘆洲區長安街108巷5弄2號","121.461335","25.08207","6501400","蘆洲區"
"247021","001-UY","2018/11/09 13:49:05","新北市蘆洲區三民路341-7號","121.46412","25.0912566666667","6501400","蘆洲區"
"235005","251-BX","2018/11/09 13:49:01","新北市中和區中和路462號","121.512295","25.0038133333333","6500300","中和區"
"207002","749-BX","2018/11/09 13:49:06","新北市萬里區崁腳里崁腳路166號","121.64507","25.1558266666667","6502800","萬里區"
"207001","662-BX","2018/11/09 13:49:20","新北市金山區月眉21-2號","121.63704","25.2152583333333","6502800","萬里區"
"236067","105-UM","2018/11/09 13:49:09","新北市土城區城林路6巷80號","121.438701666667","24.9796766666667","6501300","土城區"
"236077","166-UM","2018/11/09 13:49:09","新北市土城區中央路三段260號","121.427121666667","24.9639966666667","6501300","土城區"
"236029","253-BX","2018/11/09 13:49:17","新北市土城區城林路6巷80號","121.438661666667","24.97967","6501300","土城區"
"236013","270-VK","2018/11/09 13:49:10","新北市土城區城林路6巷80號","121.438423333333","24.9798166666667","6501300","土城區"
"236032","271-VK","2018/11/09 13:49:02","新北市土城區城林路6巷80號","121.438413333333","24.9797833333333","6501300","土城區"
"236016","401-BY","2018/11/09 13:49:10","新北市土城區城林路6巷80號","121.438583333333","24.97991","6501300","土城區"
"236057","912-UM","2018/11/09 13:49:02","新北市土城區中華路二段92號","121.438268333333","24.9745633333333","6501300","土城區"
"236045","913-UM","2018/11/09 13:49:16","新北市土城區城林路6巷80號","121.43857","24.9797466666667","6501300","土城區"
"236060","915-UM","2018/11/09 13:49:09","新北市土城區城林路6巷80號","121.438538333333","24.9797433333333","6501300","土城區"
"242051","172-VK","2018/11/09 13:49:05","新北市新莊區四維路143號","121.422673333333","25.02231","6500500","新莊區"
"221010","269-BY","2018/11/09 13:49:06","新北市汐止區長青路210巷188號","121.616301666667","25.1132866666667","6501100","汐止區"
"221033","647-BX","2018/11/09 13:49:01","新北市新店區薏仁坑路自強巷1號","121.497833333333","24.9577616666667","6501100","汐止區"
"220027","145-BY","2018/11/09 13:49:16","新北市板橋區民權路202巷2弄1號","121.459533333333","25.01421","6500100","板橋區"
"220030","610-BX","2018/11/09 13:49:13","新北市板橋區篤行路二段149號","121.429686666667","24.9881066666667","6500100","板橋區"
"220004","276-BY","2018/11/09 13:49:10","新北市板橋區信義路18號","121.457051666667","24.9954283333333","6500100","板橋區"
"220020","277-BY","2018/11/09 13:49:05","新北市板橋區大觀路三段59巷14號","121.434078333333","24.994975","6500100","板橋區"
"220043","283-UM","2018/11/09 13:49:16","新北市板橋區民生路二段180號","121.471201666667","25.0203566666667","6500100","板橋區"
"220019","283-VK","2018/11/09 13:49:17","新北市板橋區忠孝路176巷1-5號","121.464638333333","25.0022316666667","6500100","板橋區"
"220001","285-VK","2018/11/09 13:49:08","新北市板橋區民生路二段123號","121.470591666667","25.0185433333333","6500100","板橋區"
"220031","286-VK","2018/11/09 13:49:09","新北市板橋區僑中二街88巷7號","121.445985","25.0094283333333","6500100","板橋區"
"220029","287-VK","2018/11/09 13:49:03","新北市板橋區光華街15巷9號","121.453533333333","25.0117133333333","6500100","板橋區"
"220039","288-VK","2018/11/09 13:49:02","新北市板橋區民生路二段120號","121.470371666667","25.0199616666667","6500100","板橋區"
"220016","295-UM","2018/11/09 13:49:02","新北市板橋區民生路二段121號","121.470748333333","25.018475","6500100","板橋區"
"220032","296-UM","2018/11/09 13:49:21","新北市板橋區大觀路二段150巷27號","121.441638333333","24.9996816666667","6500100","板橋區"
"220023","303-R5","2018/11/09 13:49:10","新北市板橋區南雅東路106號","121.453515","25.008115","6500100","板橋區"
"220010","305-R5","2018/11/09 13:49:00","新北市板橋區民生路二段121號","121.470878333333","25.0185466666667","6500100","板橋區"
"220041","307-R5","2018/11/09 13:49:04","新北市板橋區民生路二段120號","121.47036","25.0197616666667","6500100","板橋區"
"220047","317-R6","2018/11/09 13:49:12","新北市板橋區民生路二段120號","121.470983333333","25.0198483333333","6500100","板橋區"
"220037","491-VK","2018/11/09 13:49:13","新北市板橋區民生路二段188號","121.469991666667","25.02035","6500100","板橋區"
"220104","560-BX","2018/11/09 13:49:19","新北市板橋區中正路275巷44號","121.453833333333","25.01852","6500100","板橋區"
"220052","561-BX","2018/11/09 13:49:04","新北市板橋區民生路二段120號","121.47072","25.01996","6500100","板橋區"
"220011","609-BX","2018/11/09 13:49:19","新北市板橋區民生路二段103號","121.471333333333","25.0177933333333","6500100","板橋區"
"220040","637-BX","2018/11/09 13:49:09","新北市板橋區民生路二段188號","121.470361666667","25.0203","6500100","板橋區"
"220005","686-BX","2018/11/09 13:49:08","新北市板橋區華東街330號","121.452981666667","25.0036783333333","6500100","板橋區"
"220025","687-BX","2018/11/09 13:48:59","新北市板橋區大觀路三段59巷17弄6-1號","121.437925","24.9951766666667","6500100","板橋區"
"220042","689-BX","2018/11/09 13:49:09","新北市板橋區民生路二段188號","121.470013333333","25.0203516666667","6500100","板橋區"
"220002","741-BX","2018/11/09 13:49:07","新北市板橋區館前東路23號","121.460343333333","25.0073233333333","6500100","板橋區"
"220051","KEA-2699","2018/11/09 13:48:32","新北市板橋區民生路二段182號","121.471113333333","25.0204566666667","6500100","板橋區"
"220014","829-TW","2018/11/09 13:49:19","新北市板橋區三民路二段正隆巷61號","121.476583333333","25.0132333333333","6500100","板橋區"
"220012","833-TW","2018/11/09 13:49:14","新北市板橋區民生路二段15-1號","121.47278","25.01602","6500100","板橋區"
"220022","895-R6","2018/11/09 13:49:12","新北市板橋區南門街59號","121.457211666667","25.0082583333333","6500100","板橋區"
"220021","985-R7","2018/11/09 13:49:07","新北市板橋區府中路32號","121.458263333333","25.00963","6500100","板橋區"
"220018","AAC-253","2018/11/09 13:49:15","新北市板橋區館前西路60號","121.458211666667","25.0068883333333","6500100","板橋區"
"235032","KEA-2873","2018/11/09 13:49:01","新北市中和區圓通路162巷1號","121.497251666667","24.995365","6500300","中和區"
"235025","KEA-2875","2018/11/09 13:49:14","新北市中和區民治街17巷2號","121.475235","25.0028816666667","6500300","中和區"
