"lineid","car","time","location","longitude","latitude","cityid","cityname"
"234078","298-R6","2018/11/09 14:39:12","新北市永和區永貞路72號","121.520453333333","25.0051316666667","6500400","永和區"
"234062","337-UY","2018/11/09 14:39:19","新北市永和區永利路52號","121.519008333333","25.0051983333333","6500400","永和區"
"234028","746-BX","2018/11/09 14:39:09","新北市永和區中正路356號","121.517643333333","25.000615","6500400","永和區"
"234052","KEA-2590","2018/11/09 14:39:07","新北市永和區環河東路一段82號","121.519621666667","25.01646","6500400","永和區"
"234060","AAD-866","2018/11/09 14:39:07","新北市永和區秀朗路一段175號","121.517013333333","25.003725","6500400","永和區"
"234048","863-TW","2018/11/09 14:39:13","新北市永和區永平路374號","121.505655","25.0139","6500400","永和區"
"234025","9371-KE","2018/11/09 14:38:45","新北市永和區中和路501巷2號","121.510556666667","25.00249","6500400","永和區"
"248019","225-UY","2018/11/09 14:39:04","新北市五股區凌雲路三段96-1號","121.429558333333","25.1208216666667","6501500","五股區"
"234072","AAC-211","2018/11/09 14:39:02","新北市永和區環河東路二段54-1號","121.523365","25.01152","6500400","永和區"
"234001","AAC-295","2018/11/09 14:39:11","新北市永和區中正路626號","121.51704","25.0079433333333","6500400","永和區"
"244004","248-BX","2018/11/09 14:38:42","新北市林口區竹林路269號","121.389518333333","25.0809816666667","6501700","林口區"
"231002","002-UM","2018/11/09 14:39:19","新北市新店區中正路468號","121.533996666667","24.9793966666667","6500600","新店區"
"231037","0291-UT","2018/11/09 14:39:17","新北市新店區安德街60巷17號","121.51024","24.963045","6500600","新店區"
"231027","0293-UT","2018/11/09 14:39:14","新北市新店區德正街12號","121.543685","24.9726283333333","6500600","新店區"
"231028","046-UY","2018/11/09 14:38:44","新北市新店區安成街10號","121.510651666667","24.96067","6500600","新店區"
"231001","047-UY","2018/11/09 14:39:05","新北市新店區中正路41號","121.544895","24.96975","6500600","新店區"
"231005","106-UY","2018/11/09 14:38:43","新北市新店區復興路2號","121.532525","24.9882783333333","6500600","新店區"
"231022","108-UY","2018/11/09 14:37:39","新北市新店區桂山路173巷6-2號","121.570115","24.8855916666667","6500600","新店區"
"231012","187-VK","2018/11/09 14:39:02","新北市新店區寶橋路138號","121.547833333333","24.976155","6500600","新店區"
"231032","188-VK","2018/11/09 14:39:02","新北市新店區安業街33號","121.517505","24.977185","6500600","新店區"
"231023","KEA-2219","2018/11/09 14:39:04","新北市新店區檳榔路2號","121.540935","24.9650033333333","6500600","新店區"
"231003","268-BY","2018/11/09 14:39:07","新北市新店區中興路一段285-1號","121.545471666667","24.9685833333333","6500600","新店區"
"231018","278-BY","2018/11/09 14:38:39","新北市新店區中央二街5巷8號","121.528663333333","24.9730133333333","6500600","新店區"
"231016","AAD-862","2018/11/09 14:38:43","新北市新店區北宜路三段335巷15號","121.610063333333","24.9590583333333","6500600","新店區"
"231029","355-BY","2018/11/09 14:39:10","新北市新店區安康路三段538號","121.48218","24.94908","6500600","新店區"
"231038","3712-VJ","2018/11/09 14:39:04","新北市新店區安康路一段228號","121.523171666667","24.963675","6500600","新店區"
"231036","512-UM","2018/11/09 14:39:22","新北市新店區安祥路106巷6弄1號","121.478951666667","24.9624966666667","6500600","新店區"
"231013","513-UM","2018/11/09 14:38:35","新北市新店區明德路28-3號","121.541613333333","24.97751","6500600","新店區"
"231006","617-UM","2018/11/09 14:39:06","新北市新店區北宜路二段103號","121.550381666667","24.9524083333333","6500600","新店區"
"231030","619-UM","2018/11/09 14:39:05","新北市新店區安民街200號","121.517296666667","24.971745","6500600","新店區"
"231034","641-BX","2018/11/09 14:39:10","新北市新店區黎明路9號","121.502505","24.9501966666667","6500600","新店區"
"231035","719-UM","2018/11/09 14:28:06","新北市新店區安民街37號","121.515841666667","24.965445","6500600","新店區"
"231004","899-TW","2018/11/09 14:39:11","新北市新店區中正路283號","121.53744","24.9743933333333","6500600","新店區"
"231024","AKT-0513","2018/11/09 14:39:09","新北市新店區中華路83巷41號","121.53856","24.967745","6500600","新店區"
"235030","003-UY","2018/11/09 14:39:06","新北市中和區景新街135號","121.505853333333","24.9970983333333","6500300","中和區"
"235027","006-UY","2018/11/09 14:39:09","新北市中和區中山路二段315巷1號","121.49454","25.001625","6500300","中和區"
"235020","096-UM","2018/11/09 14:38:49","新北市中和區員山路581巷31弄14號","121.476938333333","25.0103733333333","6500300","中和區"
"235003","097-UM","2018/11/09 14:39:13","新北市中和區宜安路66號","121.511446666667","24.9970483333333","6500300","中和區"
"235029","098-UM","2018/11/09 14:39:18","新北市中和區福美路269號","121.498121666667","25.005035","6500300","中和區"
"235022","151-BY","2018/11/09 14:38:41","新北市中和區員山路150巷2弄23號","121.481725","24.9977716666667","6500300","中和區"
"235019","183-VK","2018/11/09 14:38:41","新北市中和區民生街10巷2號","121.470981666667","25.005795","6500300","中和區"
"235002","185-VK","2018/11/09 14:39:13","新北市中和區自強路27巷20號","121.52155","24.9932283333333","6500300","中和區"
"235013","186-VK","2018/11/09 14:39:05","新北市中和區安平路23號","121.509218333333","24.9942433333333","6500300","中和區"
"235031","255-BX","2018/11/09 14:39:18","新北市中和區員山路148巷19號","121.482171666667","24.9971716666667","6500300","中和區"
"235008","293-VK","2018/11/09 14:38:42","新北市中和區興南路一段103號","121.509441666667","24.9883233333333","6500300","中和區"
"235036","301-VK","2018/11/09 14:39:03","新北市中和區廣福路50號","121.504048333333","25.0020283333333","6500300","中和區"
"235007","352-BY","2018/11/09 14:39:10","新北市中和區南華路14號","121.502586666667","24.995515","6500300","中和區"
"247011","KEA-2869","2018/11/09 14:39:06","新北市蘆洲區集賢路224巷37弄1號","121.480731666667","25.08806","6501400","蘆洲區"
"235014","4979-A6","2018/11/09 14:39:17","新北市中和區中正路271-1號","121.4958","24.99361","6500300","中和區"
"235006","551-UM","2018/11/09 14:39:12","新北市中和區保健路2巷10號","121.507525","24.998025","6500300","中和區"
"235034","558-UM","2018/11/09 14:38:39","新北市中和區景平路666-1號","121.497438333333","25.0008266666667","6500300","中和區"
"235009","565-BX","2018/11/09 14:39:09","新北市中和區景平路334號","121.51195","24.9926883333333","6500300","中和區"
"235018","640-BX","2018/11/09 14:39:11","新北市中和區莒光路96號","121.472421666667","25.00244","6500300","中和區"
"235024","647-TV","2018/11/09 14:39:18","新北市中和區新生街16巷21弄2號","121.482225","25.0043316666667","6500300","中和區"
"235011","732-UM","2018/11/09 14:39:12","新北市中和區和平街107號","121.504706666667","24.99238","6500300","中和區"
"235010","733-UM","2018/11/09 14:39:17","新北市中和區四維街40號","121.512361666667","24.9870633333333","6500300","中和區"
"235035","783-BX","2018/11/09 14:39:19","新北市中和區建一路136-1號","121.48797","24.99898","6500300","中和區"
"235026","800-TS","2018/11/09 14:39:02","新北市中和區立言街39號","121.485916666667","25.006195","6500300","中和區"
"235021","801-TS","2018/11/09 14:39:03","新北市中和區員山路261號","121.481358333333","24.9990716666667","6500300","中和區"
"235016","805-TS","2018/11/09 14:39:17","新北市中和區華新街192巷31號","121.506248333333","24.983255","6500300","中和區"
"235012","896-TW","2018/11/09 14:39:20","新北市中和區四維街8號","121.513311666667","24.9872933333333","6500300","中和區"
"235017","900-TW","2018/11/09 14:39:09","新北市中和區國光街215巷51號","121.467353333333","25.00013","6500300","中和區"
"235015","157-BY","2018/11/09 14:39:13","新北市中和區中興街180巷45號","121.49829","24.98972","6500300","中和區"
"235001","AAC-213","2018/11/09 14:39:12","新北市中和區秀朗路三段50巷4弄4號","121.525683333333","24.9957766666667","6500300","中和區"
"235023","AAC-215","2018/11/09 14:39:18","新北市中和區圓通路305巷5弄2號","121.493566666667","24.9902666666667","6500300","中和區"
"220016","013-TV","2018/11/09 14:39:20","新北市板橋區中山路二段412巷18號","121.48332","25.0199683333333","6500100","板橋區"
"220013","072-UY","2018/11/09 14:39:17","新北市板橋區國泰街41號","121.468393333333","25.0066466666667","6500100","板橋區"
"220034","073-UY","2018/11/09 14:39:09","新北市板橋區中正路1巷8號","121.455455","25.0118333333333","6500100","板橋區"
"220105","075-UY","2018/11/09 14:39:16","新北市板橋區民治街26巷2號","121.477686666667","25.0340116666667","6500100","板橋區"
"220017","AAD-861","2018/11/09 14:39:10","新北市板橋區稚暉街2巷50號","121.455245","25.0028333333333","6500100","板橋區"
"247001","893-R6","2018/11/09 14:39:11","新北市蘆洲區永樂街31巷9號","121.458118333333","25.087225","6501400","蘆洲區"
"247015","546-UM","2018/11/09 14:39:03","新北市蘆洲區正和街92號","121.468183333333","25.080825","6501400","蘆洲區"
"247023","500-BY","2018/11/09 14:39:04","新北市蘆洲區中山二路222巷20號","121.469445","25.0802983333333","6501400","蘆洲區"
"247013","339-TH","2018/11/09 14:39:14","新北市蘆洲區成功路108號","121.472451666667","25.0822616666667","6501400","蘆洲區"
"247005","337-TH","2018/11/09 14:39:09","新北市蘆洲區中原路17號","121.460536666667","25.08305","6501400","蘆洲區"
"247007","336-TH","2018/11/09 14:39:09","新北市蘆洲區信義路65號","121.476183333333","25.0795583333333","6501400","蘆洲區"
"247019","057-VK","2018/11/09 14:39:20","新北市蘆洲區民義街75號","121.473298333333","25.0901783333333","6501400","蘆洲區"
"247009","056-VK","2018/11/09 14:38:40","新北市蘆洲區信義路222巷34弄2號","121.480855","25.085465","6501400","蘆洲區"
"235005","251-BX","2018/11/09 14:39:21","新北市中和區中安街32-1號","121.513245","25.00285","6500300","中和區"
"207002","749-BX","2018/11/09 14:39:06","新北市萬里區崁腳里崁腳路73號","121.647668333333","25.15963","6502800","萬里區"
"207001","662-BX","2018/11/09 14:39:00","新北市萬里區磺潭里員潭路59號","121.642013333333","25.18978","6502800","萬里區"
"236067","105-UM","2018/11/09 14:39:09","新北市土城區明德路一段68-1號","121.465431666667","24.98306","6501300","土城區"
"236040","KED-0685","2018/11/09 14:39:07","新北市土城區裕民路55巷1號","121.448981666667","24.9880566666667","6501300","土城區"
"236077","166-UM","2018/11/09 14:39:09","新北市土城區中央路四段125巷13-2號","121.416915","24.9569416666667","6501300","土城區"
"236029","253-BX","2018/11/09 14:39:17","新北市土城區中華路二段181號","121.438456666667","24.9748816666667","6501300","土城區"
"236024","269-VK","2018/11/09 14:39:18","新北市土城區和平路21號","121.443125","24.973385","6501300","土城區"
"236013","270-VK","2018/11/09 14:39:14","新北市土城區清水路207巷9號","121.460011666667","24.9821983333333","6501300","土城區"
"236032","271-VK","2018/11/09 14:39:02","新北市土城區明德路一段247巷21號","121.463086666667","24.9773966666667","6501300","土城區"
"236016","401-BY","2018/11/09 14:39:14","新北市土城區延吉街238號","121.466865","24.98479","6501300","土城區"
"236057","912-UM","2018/11/09 14:38:39","新北市土城區中央路三段151號","121.432171666667","24.965385","6501300","土城區"
"236045","913-UM","2018/11/09 14:38:38","新北市土城區明德路一段51號","121.465205","24.9847116666667","6501300","土城區"
"236060","915-UM","2018/11/09 14:39:09","新北市土城區延壽路13巷38號","121.469998333333","24.9914516666667","6501300","土城區"
"236054","AAC-216","2018/11/09 14:39:10","新北市土城區中華路一段36號","121.446323333333","24.98922","6501300","土城區"
"221010","269-BY","2018/11/09 14:39:06","新北市汐止區八連路二段625-3號","121.62169","25.1149266666667","6501100","汐止區"
"221033","647-BX","2018/11/09 14:39:20","新北市汐止區大同路一段293號","121.636893333333","25.0586366666667","6501100","汐止區"
"220027","145-BY","2018/11/09 14:39:08","新北市板橋區建國街50號","121.458693333333","25.0171266666667","6500100","板橋區"
"220028","200-UY","2018/11/09 14:33:11","新北市板橋區大觀路二段37巷79號","121.450091666667","25.0024466666667","6500100","板橋區"
"220030","610-BX","2018/11/09 14:39:22","新北市板橋區存德街3號","121.429883333333","24.9921383333333","6500100","板橋區"
"220050","245-BX","2018/11/09 14:39:09","新北市板橋區莒光路196巷23號","121.473143333333","25.02241","6500100","板橋區"
"220004","276-BY","2018/11/09 14:39:10","新北市土城區廣明街91號","121.454695","24.9943483333333","6500100","板橋區"
"220020","277-BY","2018/11/09 14:38:45","新北市板橋區金門街151巷42弄2號","121.433953333333","24.9902266666667","6500100","板橋區"
"220043","283-UM","2018/11/09 14:39:17","新北市板橋區宏國路77巷2弄16號","121.46959","25.0324816666667","6500100","板橋區"
"220019","283-VK","2018/11/09 14:39:12","新北市板橋區信義路279巷11號","121.462063333333","24.9895333333333","6500100","板橋區"
"220001","285-VK","2018/11/09 14:39:08","新北市板橋區中山路二段148巷13號","121.476991666667","25.0165716666667","6500100","板橋區"
"220031","286-VK","2018/11/09 14:39:09","新北市板橋區僑中二街152號","121.445041666667","25.00435","6500100","板橋區"
"220029","287-VK","2018/11/09 14:39:12","新北市板橋區大觀路一段29巷33號","121.450278333333","25.0075333333333","6500100","板橋區"
"220039","288-VK","2018/11/09 14:38:42","新北市板橋區龍泉街54巷7弄2號","121.456836666667","25.0266733333333","6500100","板橋區"
"220009","295-UM","2018/11/09 14:39:12","新北市板橋區中山路一段283巷2弄30號","121.470766666667","25.015205","6500100","板橋區"
"220032","296-UM","2018/11/09 14:38:49","新北市板橋區溪崑二街118巷2號","121.426146666667","24.98838","6500100","板橋區"
"220023","303-R5","2018/11/09 14:39:10","新北市板橋區大勇街4巷4號","121.454963333333","25.0175266666667","6500100","板橋區"
"220010","305-R5","2018/11/09 14:38:40","新北市板橋區三民路二段60號","121.479278333333","25.0174883333333","6500100","板橋區"
"220041","307-R5","2018/11/09 14:39:09","新北市板橋區自由路51巷22號","121.464605","25.023355","6500100","板橋區"
"220047","317-R6","2018/11/09 14:38:32","新北市板橋區四維路269巷82號","121.459953333333","25.0269083333333","6500100","板橋區"
"220038","487-VK","2018/11/09 14:39:16","新北市板橋區英士路49-1號","121.461151666667","25.0245216666667","6500100","板橋區"
"220037","491-VK","2018/11/09 14:38:33","新北市板橋區雙十路二段225號","121.473103333333","25.0290933333333","6500100","板橋區"
"220104","560-BX","2018/11/09 14:39:18","新北市板橋區新生街29巷15弄6號","121.456325","25.0220266666667","6500100","板橋區"
"220052","561-BX","2018/11/09 14:39:21","新北市板橋區陽明街23巷8弄17號","121.465485","25.0207166666667","6500100","板橋區"
"220011","609-BX","2018/11/09 14:39:15","新北市板橋區萬安街53巷22號","121.483365","25.02371","6500100","板橋區"
"220040","637-BX","2018/11/09 14:39:09","新北市板橋區懷德街139巷20弄6-2號","121.480091666667","25.0306316666667","6500100","板橋區"
"220005","686-BX","2018/11/09 14:39:08","新北市板橋區和平路72號","121.461835","24.99413","6500100","板橋區"
"220025","687-BX","2018/11/09 14:39:19","新北市板橋區僑中三街23號","121.445846666667","25.004625","6500100","板橋區"
"220042","689-BX","2018/11/09 14:38:49","新北市板橋區長江路一段363號","121.461505","25.0306066666667","6500100","板橋區"
"220002","741-BX","2018/11/09 14:39:09","新北市板橋區實踐路93巷33號","121.465455","25.005275","6500100","板橋區"
"220051","KEA-2699","2018/11/09 14:39:11","新北市板橋區雙十路二段50號","121.475708333333","25.027705","6500100","板橋區"
"220003","827-TW","2018/11/09 14:39:18","新北市板橋區國慶路149巷3弄1號","121.461226666667","24.9967433333333","6500100","板橋區"
"220014","829-TW","2018/11/09 14:39:09","新北市板橋區長安街138巷3號","121.472833333333","25.0098383333333","6500100","板橋區"
"220045","831-TW","2018/11/09 14:39:14","新北市板橋區莒光路40巷18號","121.470036666667","25.0236033333333","6500100","板橋區"
"220012","833-TW","2018/11/09 14:39:13","新北市板橋區公園街34巷2號","121.462586666667","25.00842","6500100","板橋區"
"220022","895-R6","2018/11/09 14:38:44","新北市板橋區府後街1號","121.459621666667","25.00995","6500100","板橋區"
"220021","985-R7","2018/11/09 14:39:17","新北市板橋區大仁街28號","121.455461666667","25.0169266666667","6500100","板橋區"
"220046","AAC-210","2018/11/09 14:38:42","新北市板橋區漢生西路89巷2弄5號","121.461675","25.0194466666667","6500100","板橋區"
"220018","AAC-253","2018/11/09 14:38:34","新北市板橋區民族路215號","121.469436666667","25.0073083333333","6500100","板橋區"
"235032","KEA-2873","2018/11/09 14:39:01","新北市中和區景平路736巷5弄5號","121.49745","25.0034433333333","6500300","中和區"
"235025","KEA-2875","2018/11/09 14:39:07","新北市中和區員山路295號","121.481245","24.99998","6500300","中和區"
