"lineid","car","time","location","longitude","latitude","cityid","cityname"
"231046","110-UY","2018/11/09 16:19:17","新北市新店區灣潭路3-5號","121.538093333333","24.950765","6500600","新店區"
"231018","278-BY","2018/11/09 16:19:19","新北市新店區溪園路247號","121.52458","24.9829816666667","6500600","新店區"
"241011","013-R5","2018/11/09 16:19:14","新北市三重區龍濱路196號","121.50106","25.0733033333333","6500200","三重區"
"241028","022-UY","2018/11/09 16:19:04","新北市三重區正義南路169號","121.499008333333","25.05742","6500200","三重區"
"241008","059-VK","2018/11/09 16:19:17","新北市三重區永福街179號","121.478973333333","25.07529","6500200","三重區"
"241022","060-VK","2018/11/09 16:19:17","新北市三重區過圳街31巷2號","121.489003333333","25.0606","6500200","三重區"
"241015","062-VK","2018/11/09 16:19:20","新北市三重區福德北路89號","121.501978333333","25.06621","6500200","三重區"
"241017","063-VK","2018/11/09 16:19:19","新北市三重區大同北路85號","121.494816666667","25.0637283333333","6500200","三重區"
"241024","065-VK","2018/11/09 16:19:11","新北市三重區中正北路294號","121.480123333333","25.068815","6500200","三重區"
"241026","066-VK","2018/11/09 16:19:03","新北市三重區正義南路67號","121.498308333333","25.0601866666667","6500200","三重區"
"241002","090-VK","2018/11/09 16:19:06","新北市三重區仁義街91號","121.499751666667","25.07951","6500200","三重區"
"241003","091-VK","2018/11/09 16:19:12","新北市三重區五華街57巷32號","121.49391","25.083135","6500200","三重區"
"241005","262-UM","2018/11/09 16:19:10","新北市三重區溪尾街300-2號","121.487428333333","25.0836666666667","6500200","三重區"
"241023","265-UM","2018/11/09 16:19:12","新北市三重區忠孝路二段160號","121.482126666667","25.0679266666667","6500200","三重區"
"241016","266-UM","2018/11/09 16:19:08","新北市三重區大仁街88號","121.49282","25.0655083333333","6500200","三重區"
"241009","267-UM","2018/11/09 16:19:07","新北市三重區溪尾街192號","121.488208333333","25.080955","6500200","三重區"
"241018","268-UM","2018/11/09 16:19:12","新北市三重區重陽路三段7號","121.489095","25.0662833333333","6500200","三重區"
"241032","269-UM","2018/11/09 16:19:13","新北市三重區三陽路100巷3弄13號","121.483071666667","25.058055","6500200","三重區"
"241013","270-UM","2018/11/09 16:19:13","新北市三重區仁愛街65號","121.496226666667","25.0726783333333","6500200","三重區"
"241025","271-UM","2018/11/09 16:19:04","新北市三重區中正北路560巷100弄2號","121.472628333333","25.0682383333333","6500200","三重區"
"241007","398-BY","2018/11/09 16:19:10","新北市三重區三和路四段163巷70號","121.486755","25.0797183333333","6500200","三重區"
"241004","475-VK","2018/11/09 16:19:12","新北市三重區五華街74號","121.493478333333","25.0819616666667","6500200","三重區"
"241020","478-VK","2018/11/09 16:19:05","新北市三重區後竹圍街233號","121.48433","25.0713433333333","6500200","三重區"
"241014","543-UM","2018/11/09 16:19:22","新北市三重區河邊北街96-1號","121.504045","25.0699233333333","6500200","三重區"
"241001","547-UM","2018/11/09 16:19:19","新北市三重區自強路四段87號","121.491161666667","25.0794433333333","6500200","三重區"
"241019","KEA-2593","2018/11/09 16:19:13","新北市三重區重陽路三段89號","121.489975","25.067695","6500200","三重區"
"241006","AAD-863","2018/11/09 16:19:17","新北市三重區永福街46巷41弄61號","121.480886666667","25.0770416666667","6500200","三重區"
"241030","743-BX","2018/11/09 16:19:10","新北市三重區重新路四段121號","121.485155","25.052445","6500200","三重區"
"241012","941-UM","2018/11/09 16:19:17","新北市三重區河邊北街311號","121.502446666667","25.074825","6500200","三重區"
"241029","942-UM","2018/11/09 16:19:12","新北市三重區環河南路220-8號","121.49336","25.0526916666667","6500200","三重區"
"241033","AAC-255","2018/11/09 16:19:05","新北市三重區重新路五段442號","121.474906666667","25.0471833333333","6500200","三重區"
"235026","800-TS","2018/11/09 16:19:01","新北市中和區永和路163號","121.49281","25.0074016666667","6500300","中和區"
"224007","275-VK","2018/11/09 16:19:21","新北市瑞芳區大埔路172-1號","121.762326666667","25.1021883333333","6501200","瑞芳區"
"224005","271-BY","2018/11/09 16:19:14","新北市瑞芳區中山路251號","121.798288333333","25.10921","6501200","瑞芳區"
"227011","642-TC","2018/11/09 16:19:15","新北市雙溪區三港里雙澳路80號","121.883801666667","25.0538766666667","6502500","雙溪區"
"227003","400-TW","2018/11/09 16:19:05","新北市雙溪區上林里內平林80號","121.828288333333","25.0279266666667","6502500","雙溪區"
"251008","181-VK","2018/11/09 16:19:12","新北市淡水區中山路110號","121.442198333333","25.1707366666667","6501000","淡水區"
"236045","913-UM","2018/11/09 16:19:16","新北市土城區中央路三段93號","121.437621666667","24.9678766666667","6501300","土城區"
