"lineid","car","time","location","longitude","latitude","cityid","cityname"
"234046","148-BY","2018/11/09 19:29:18","新北市永和區秀朗路二段259號","121.526386666667","24.99921","6500400","永和區"
"234007","207-UY","2018/11/09 19:29:18","新北市永和區永和路一段202號","121.514375","25.00919","6500400","永和區"
"234081","298-R6","2018/11/09 19:29:20","新北市永和區福和路1號","121.525141666667","25.00877","6500400","永和區"
"234038","336-UY","2018/11/09 19:29:15","新北市永和區民樂街35巷1號","121.527588333333","25.00102","6500400","永和區"
"234064","337-UY","2018/11/09 19:29:08","新北市永和區得和路243巷16號","121.520598333333","25.0006916666667","6500400","永和區"
"234086","338-UY","2018/11/09 19:29:23","新北市永和區林森路81號","121.523816666667","25.0039016666667","6500400","永和區"
"234070","552-UM","2018/11/09 19:29:10","新北市永和區竹林路187號","121.520526666667","25.009635","6500400","永和區"
"234017","745-BX","2018/11/09 19:29:06","新北市永和區環河西路一段63號","121.513396666667","25.0181233333333","6500400","永和區"
"234030","746-BX","2018/11/09 19:29:20","新北市永和區民生路63號","121.522645","24.99741","6500400","永和區"
"234054","KEA-2590","2018/11/09 19:29:09","新北市永和區復興街21號","121.516121666667","25.0130233333333","6500400","永和區"
"234013","KEA-2591","2018/11/09 19:29:08","新北市永和區中山路一段130號","121.510498333333","25.010065","6500400","永和區"
"234061","AAD-866","2018/11/09 19:29:17","新北市永和區中正路530號","121.517298333333","25.00513","6500400","永和區"
"234042","862-TW","2018/11/09 19:29:12","新北市永和區水源街39巷2號","121.510311666667","25.00421","6500400","永和區"
"234050","863-TW","2018/11/09 19:29:25","新北市永和區保福路二段90號","121.510441666667","25.013395","6500400","永和區"
"234026","9371-KE","2018/11/09 19:29:07","新北市永和區中正路3-1號","121.513815","24.9955133333333","6500400","永和區"
"234011","9373-KE","2018/11/09 19:29:22","新北市永和區保福路二段85號","121.510645","25.0125983333333","6500400","永和區"
"249005","172-UM","2018/11/09 19:29:12","新北市八里區中華路三段170-1號","121.392195","25.130375","6502300","八里區"
"249003","593-UM","2018/11/09 19:29:16","新北市八里區華峰三街5號","121.400106666667","25.146505","6502300","八里區"
"248016","026-BX","2018/11/09 19:29:08","新北市五股區凌雲路一段39號","121.451885","25.1006416666667","6501500","五股區"
"248008","095-VK","2018/11/09 19:29:08","新北市五股區中興路一段95巷15號","121.466605","25.0722116666667","6501500","五股區"
"248018","225-UY","2018/11/09 19:27:18","新北市五股區壟路16-1號","121.41484","25.085395","6501500","五股區"
"248012","247-BX","2018/11/09 19:29:13","新北市五股區成泰路二段97號","121.437976666667","25.084275","6501500","五股區"
"248010","272-BY","2018/11/09 19:29:17","新北市五股區水碓二路1號","121.43063","25.0712383333333","6501500","五股區"
"248004","677-BX","2018/11/09 19:29:15","新北市五股區五福路54號","121.433573333333","25.0896716666667","6501500","五股區"
"248002","678-BX","2018/11/09 19:29:09","新北市五股區凌雲路一段158巷6號","121.447775","25.10305","6501500","五股區"
"234023","9380-KE","2018/11/09 19:29:24","新北市永和區竹林路91巷70號","121.522045","25.0136583333333","6500400","永和區"
"234077","969-R7","2018/11/09 19:29:05","新北市永和區民權路80號","121.51972","24.9976116666667","6500400","永和區"
"234074","AAC-211","2018/11/09 19:29:23","新北市永和區光復街60巷25號","121.517765","25.0175283333333","6500400","永和區"
"234067","AAC-212","2018/11/09 19:29:26","新北市永和區永貞路335號","121.509681666667","25.007025","6500400","永和區"
"234003","AAC-295","2018/11/09 19:29:26","新北市永和區福和路353號","121.514623333333","25.0074033333333","6500400","永和區"
"244023","069-UM","2018/11/09 19:29:15","新北市林口區文林四街33巷5號","121.37409","25.0853866666667","6501700","林口區"
"244019","403-UM","2018/11/09 19:29:18","新北市林口區後坑34-1號","121.349285","25.1288316666667","6501700","林口區"
"243010","267-VK","2018/11/09 19:29:17","新北市泰山區民生路17巷5號","121.429946666667","25.0522233333333","6501600","泰山區"
"243013","AAD-798","2018/11/09 19:29:25","新北市泰山區貴子路36巷5弄1號","121.42598","25.0409633333333","6501600","泰山區"
"243009","297-R6","2018/11/09 19:29:19","新北市五股區成泰路一段7巷17號","121.432468333333","25.067105","6501600","泰山區"
"243016","KEA-2801","2018/11/09 19:29:15","新北市泰山區明志路三段166號","121.424286666667","25.039375","6501600","泰山區"
"243015","421-VK","2018/11/09 19:29:25","新北市泰山區民權街78號","121.42837","25.049585","6501600","泰山區"
"243011","KEA-2215","2018/11/09 19:29:06","新北市泰山區貴子路120號","121.42828","25.0405983333333","6501600","泰山區"
"243012","646-TV","2018/11/09 19:29:22","新北市泰山區仁愛路6巷5弄7號","121.430998333333","25.054225","6501600","泰山區"
"243014","680-BX","2018/11/09 19:29:12","新北市泰山區中港西路408號","121.434235","25.054325","6501600","泰山區"
"222003","436-BY","2018/11/09 19:29:15","新北市深坑區深南路88巷1號","121.62097","25.0116716666667","6501800","深坑區"
"222002","659-BX","2018/11/09 19:29:23","新北市深坑區北深路一段177號","121.632605","25.0108066666667","6501800","深坑區"
"231041","002-UM","2018/11/09 19:28:56","新北市新店區中正路608號","121.53387","24.9883966666667","6500600","新店區"
"231066","0291-UT","2018/11/09 19:29:27","新北市新店區安康路三段355巷14號","121.484831666667","24.950115","6500600","新店區"
"231059","046-UY","2018/11/09 19:29:15","新北市新店區安和路三段4號","121.517941666667","24.9808883333333","6500600","新店區"
"231040","047-UY","2018/11/09 19:29:27","新北市新店區北新路一段38號","121.540948333333","24.965985","6500600","新店區"
"231044","106-UY","2018/11/09 19:29:28","新北市新店區中興路三段134號","121.544786666667","24.979755","6500600","新店區"
"231053","108-UY","2018/11/09 19:29:22","新北市新店區廣興路15號","121.541311666667","24.911755","6500600","新店區"
"231046","110-UY","2018/11/09 19:29:17","新北市新店區中正路186號","121.540905","24.9721933333333","6500600","新店區"
"231048","187-VK","2018/11/09 19:29:20","新北市新店區五峰路75號","121.546385","24.9678483333333","6500600","新店區"
"231062","188-VK","2018/11/09 19:29:29","新北市新店區莒光路97號","121.52289","24.954635","6500600","新店區"
"231054","KEA-2219","2018/11/09 19:29:18","新北市新店區文中路40號","121.539625","24.9565833333333","6500600","新店區"
"231057","256-BX","2018/11/09 19:29:24","新北市新店區花園一路二段27號","121.551365","24.9325183333333","6500600","新店區"
"231042","268-BY","2018/11/09 19:29:20","新北市新店區中興路一段68號","121.539398333333","24.9598","6500600","新店區"
"231051","278-BY","2018/11/09 19:29:24","新北市新店區中央五街86號","121.526246666667","24.9761683333333","6500600","新店區"
"231050","AAD-862","2018/11/09 19:29:23","新北市新店區竹林路94號","121.553915","24.9502233333333","6500600","新店區"
"231060","355-BY","2018/11/09 19:29:10","新北市新店區安康路二段5號","121.515021666667","24.9637033333333","6500600","新店區"
"231058","3713-VJ","2018/11/09 19:29:14","新北市新店區北新路二段228巷15號","121.543508333333","24.977115","6500600","新店區"
"231065","512-UM","2018/11/09 19:29:25","新北市新店區安祥路109巷1弄11號","121.475895","24.9596633333333","6500600","新店區"
"231049","513-UM","2018/11/09 19:29:16","新北市新店區二十張路1巷2弄3號","121.540128333333","24.9819833333333","6500600","新店區"
"231045","617-UM","2018/11/09 19:29:19","新北市新店區北宜路二段209號","121.553181666667","24.9532816666667","6500600","新店區"
"231061","619-UM","2018/11/09 19:29:22","新北市新店區安康路一段266巷4號","121.520173333333","24.9640083333333","6500600","新店區"
"231063","641-BX","2018/11/09 19:29:22","新北市新店區達觀路16號","121.503088333333","24.9407","6500600","新店區"
"231064","719-UM","2018/11/09 19:29:06","新北市新店區安康路二段85巷44號","121.514356666667","24.9612816666667","6500600","新店區"
"231043","899-TW","2018/11/09 19:29:19","新北市新店區北新路二段183號","121.542713333333","24.9773566666667","6500600","新店區"
"231055","AKT-0513","2018/11/09 19:29:09","新北市新店區中央路238號","121.529016666667","24.9719166666667","6500600","新店區"
"241028","022-UY","2018/11/09 19:29:16","新北市三重區中正南路97巷20號","121.493588333333","25.05773","6500200","三重區"
"241008","059-VK","2018/11/09 19:29:23","新北市三重區永福街135巷30號","121.477525","25.0771183333333","6500200","三重區"
"241022","060-VK","2018/11/09 19:29:24","新北市三重區三民街165巷2號","121.483756666667","25.0651766666667","6500200","三重區"
"241031","061-VK","2018/11/09 19:29:22","新北市三重區集美街100號","121.4886","25.0540516666667","6500200","三重區"
"241017","063-VK","2018/11/09 19:29:19","新北市三重區國隆路26號","121.492441666667","25.0643316666667","6500200","三重區"
"241026","066-VK","2018/11/09 19:29:18","新北市三重區中央南路95巷25-2號","121.500455","25.0607466666667","6500200","三重區"
"241009","267-UM","2018/11/09 19:29:07","新北市三重區仁美街121號","121.485783333333","25.0813116666667","6500200","三重區"
"241013","270-UM","2018/11/09 19:29:21","新北市三重區仁愛街96號","121.495403333333","25.0739816666667","6500200","三重區"
"241025","271-UM","2018/11/09 19:29:24","新北市三重區頂崁街210巷28弄3號","121.475786666667","25.067605","6500200","三重區"
"241007","398-BY","2018/11/09 19:29:20","新北市三重區慈愛街149號","121.489445","25.0795266666667","6500200","三重區"
"241035","KEA-2210","2018/11/09 19:29:23","新北市三重區信義西街1號","121.498096666667","25.0648733333333","6500200","三重區"
"241020","478-VK","2018/11/09 19:29:13","新北市三重區三和路四段20巷20號","121.490333333333","25.07379","6500200","三重區"
"241006","AAD-863","2018/11/09 19:29:24","新北市三重區車路頭街107號","121.484431666667","25.07478","6500200","三重區"
"241030","743-BX","2018/11/09 19:29:10","新北市三重區成功路41巷4號","121.490203333333","25.0514733333333","6500200","三重區"
"241029","942-UM","2018/11/09 19:29:18","新北市三重區環河南路220-8號","121.493366666667","25.0526483333333","6500200","三重區"
"235066","003-UY","2018/11/09 19:29:15","新北市中和區景新街43號","121.504103333333","24.9991783333333","6500300","中和區"
"235064","005-UY","2018/11/09 19:29:20","新北市中和區南山路64號","121.502238333333","24.9963333333333","6500300","中和區"
"235063","006-UY","2018/11/09 19:29:20","新北市中和區連勝街179號","121.494018333333","24.9970183333333","6500300","中和區"
"235056","096-UM","2018/11/09 19:29:12","新北市中和區民富街60-2號","121.476565","25.0073566666667","6500300","中和區"
"235039","097-UM","2018/11/09 19:29:19","新北市中和區秀峰街103巷5弄1號","121.520361666667","24.9898366666667","6500300","中和區"
"235065","098-UM","2018/11/09 19:29:08","新北市中和區中山路二段2巷13弄18號","121.502876666667","25.0065233333333","6500300","中和區"
"235040","150-BY","2018/11/09 19:29:15","新北市中和區保健路46巷18號","121.509098333333","24.9963433333333","6500300","中和區"
"235058","151-BY","2018/11/09 19:29:17","新北市中和區員山路122號","121.481273333333","24.9959316666667","6500300","中和區"
"235055","183-VK","2018/11/09 19:29:10","新北市中和區國光街8巷7號","121.471588333333","25.000665","6500300","中和區"
"235038","185-VK","2018/11/09 19:29:07","新北市中和區立人街1號","121.521931666667","24.9939483333333","6500300","中和區"
"235049","186-VK","2018/11/09 19:29:28","新北市中和區景新街285巷12號","121.510335","24.9935366666667","6500300","中和區"
"235067","255-BX","2018/11/09 19:29:13","新北市中和區連城路332號","121.48317","24.9958683333333","6500300","中和區"
"235044","293-VK","2018/11/09 19:29:19","新北市中和區捷運路100-1號","121.506255","24.9912166666667","6500300","中和區"
"235072","301-VK","2018/11/09 19:29:11","新北市中和區連城路263巷8弄7號","121.491781666667","24.9952016666667","6500300","中和區"
"235043","352-BY","2018/11/09 19:29:13","新北市中和區安和路59號","121.508798333333","24.9949033333333","6500300","中和區"
"235050","4979-A6","2018/11/09 19:29:13","新北市中和區中正路406號","121.492561666667","24.994245","6500300","中和區"
"235042","551-UM","2018/11/09 19:29:23","新北市中和區中和路350巷15弄17號","121.51083","25.001265","6500300","中和區"
"235070","558-UM","2018/11/09 19:29:19","新北市中和區景平路624號","121.500441666667","24.99753","6500300","中和區"
"235045","565-BX","2018/11/09 19:29:17","新北市中和區景新街383巷10號","121.512858333333","24.99043","6500300","中和區"
"235054","640-BX","2018/11/09 19:29:19","新北市中和區國光街112巷22弄15號","121.470213333333","25.002395","6500300","中和區"
"235060","647-TV","2018/11/09 19:29:17","新北市中和區新生街52號","121.483278333333","25.0029633333333","6500300","中和區"
"235047","732-UM","2018/11/09 19:29:07","新北市中和區景平路259巷11號","121.507958333333","24.9926033333333","6500300","中和區"
"235046","733-UM","2018/11/09 19:29:23","新北市中和區忠孝街37巷47號","121.510743333333","24.9842683333333","6500300","中和區"
"235071","783-BX","2018/11/09 19:29:15","新北市中和區連城路469巷21弄22號","121.484256666667","24.9950633333333","6500300","中和區"
"235057","801-TS","2018/11/09 19:29:22","新北市中和區中山路三段35號","121.478898333333","25.0058016666667","6500300","中和區"
"235052","805-TS","2018/11/09 19:29:16","新北市中和區華新街143巷71弄35號","121.507796666667","24.9791716666667","6500300","中和區"
"235048","896-TW","2018/11/09 19:29:08","新北市中和區忠孝街113巷4號","121.512553333333","24.987605","6500300","中和區"
"235053","900-TW","2018/11/09 19:29:23","新北市中和區華順街43號","121.466846666667","24.99857","6500300","中和區"
"235051","157-BY","2018/11/09 19:29:16","新北市中和區景新街192號","121.506308333333","24.995925","6500300","中和區"
"235037","AAC-213","2018/11/09 19:29:06","新北市中和區秀朗路三段10巷14弄52號","121.5242","24.9965183333333","6500300","中和區"
"235059","AAC-215","2018/11/09 19:29:12","新北市中和區圓通路252巷4號","121.493163333333","24.9916533333333","6500300","中和區"
"220068","013-TV","2018/11/09 19:29:07","新北市板橋區翠華街6巷123號","121.481775","25.0246066666667","6500100","板橋區"
"220065","072-UY","2018/11/09 19:29:09","新北市板橋區國泰街111巷4-2號","121.465725","25.00616","6500100","板橋區"
"220086","073-UY","2018/11/09 19:29:19","新北市板橋區國光路4號","121.456673333333","25.01727","6500100","板橋區"
"220106","075-UY","2018/11/09 19:29:13","新北市板橋區江寧路三段129號","121.473625","25.0333","6500100","板橋區"
"220069","AAD-861","2018/11/09 19:29:10","新北市板橋區稚暉街24號","121.455573333333","25.004325","6500100","板橋區"
"247004","002-UY","2018/11/09 19:29:07","新北市蘆洲區長安街158號","121.459563333333","25.0827616666667","6501400","蘆洲區"
"226004","205-ST","2018/11/09 19:29:17","新北市平溪區十分里十分街238號","121.77811","25.0440883333333","6502400","平溪區"
"235041","251-BX","2018/11/09 19:29:15","新北市中和區中和路400巷21號","121.511688333333","25.0022633333333","6500300","中和區"
"228002","663-BX","2018/11/09 19:29:29","新北市貢寮區龍門里龍門街76號","121.93135","25.0273733333333","6502600","貢寮區"
"228001","670-TC","2018/11/09 19:29:18","新北市貢寮區真理里延平街68號","121.925391666667","25.05743","6502600","貢寮區"
"228003","828-UM","2018/11/09 19:29:08","新北市貢寮區和美里和美街19-2號","121.91275","25.0826166666667","6502600","貢寮區"
"224002","639-TC","2018/11/09 19:29:19","新北市瑞芳區三爪子坑路55號","121.812848333333","25.10739","6501200","瑞芳區"
"227011","642-TC","2018/11/09 19:29:15","新北市雙溪區新基里新基北街43號","121.868181666667","25.039705","6502500","雙溪區"
"227003","400-TW","2018/11/09 19:29:25","新北市雙溪區雙溪里光復街18號","121.865136666667","25.0354283333333","6502500","雙溪區"
"253006","032-BX","2018/11/09 19:29:20","新北市石門區楓林28-2號","121.542185","25.2890483333333","6502200","石門區"
"222001","KEA-2212","2018/11/09 19:29:26","新北市深坑區北深路二段130號","121.615928333333","25.00287","6501800","深坑區"
"208002","KEA-2872","2018/11/09 19:29:25","新北市金山區仁愛路87巷1號","121.63462","25.2215416666667","6502700","金山區"
"208003","665-BX","2018/11/09 19:29:23","新北市金山區仁愛路57號","121.635296666667","25.22085","6502700","金山區"
"208001","761-BX","2018/11/09 19:29:17","新北市金山區中正路149號","121.63163","25.2214","6502700","金山區"
"251005","010-UM","2018/11/09 19:29:19","新北市淡水區水源街一段71巷18號","121.444386666667","25.172915","6501000","淡水區"
"251001","011-UM","2018/11/09 19:29:24","新北市淡水區民權路155號","121.460001666667","25.1363183333333","6501000","淡水區"
"251008","181-VK","2018/11/09 19:29:12","新北市淡水區中正路二段38號","121.419458333333","25.18249","6501000","淡水區"
"251010","413-VK","2018/11/09 19:29:14","新北市淡水區中正路二段142-5號","121.422271666667","25.1875733333333","6501000","淡水區"
"251012","441-VK","2018/11/09 19:29:16","新北市淡水區崁頂111號","121.43287","25.2044566666667","6501000","淡水區"
"251007","442-VK","2018/11/09 19:29:19","新北市淡水區紅樹林路21號","121.458496666667","25.16212","6501000","淡水區"
"251006","561-UM","2018/11/09 19:29:19","新北市淡水區大義街40號","121.442068333333","25.1784","6501000","淡水區"
"251009","575-R6","2018/11/09 19:29:24","新北市淡水區大忠街5巷9號","121.443396666667","25.1765216666667","6501000","淡水區"
"251011","650-BX","2018/11/09 19:29:15","新北市淡水區中正東路二段143巷2弄1號","121.460675","25.1473766666667","6501000","淡水區"
"207003","550-UM","2018/11/09 19:29:16","新北市萬里區大鵬里萬里加投209號","121.644238333333","25.215475","6502800","萬里區"
"207004","225-TW","2018/11/09 19:29:23","新北市萬里區萬里里瑪鋉路127-8號","121.6889","25.177735","6502800","萬里區"
"252002","178-VK","2018/11/09 19:29:23","新北市三芝區淡金路二段18-1號","121.502688333333","25.2595083333333","6502100","三芝區"
"252001","292-VK","2018/11/09 19:29:16","新北市三芝區長勤街63-1號","121.500078333333","25.2560916666667","6502100","三芝區"
"237004","KEA-2597","2018/11/09 19:29:22","新北市三峽區有木206號","121.439083333333","24.851455","6500900","三峽區"
"237007","153-BY","2018/11/09 19:29:16","新北市三峽區二鬮路136巷20弄67號","121.357638333333","24.9096016666667","6500900","三峽區"
"237009","210-TH","2018/11/09 19:29:18","新北市三峽區民權街143號","121.368785","24.9318566666667","6500900","三峽區"
"237013","252-BX","2018/11/09 19:29:10","新北市三峽區介壽路一段340號","121.381348333333","24.9302833333333","6500900","三峽區"
"237012","275-BY","2018/11/09 19:29:10","新北市三峽區民生街1巷1-7號","121.376896666667","24.93717","6500900","三峽區"
"237008","302-VK","2018/11/09 19:29:20","新北市三峽區大同路132巷12號","121.373885","24.9273583333333","6500900","三峽區"
"237014","433-BY","2018/11/09 19:29:13","新北市三峽區中正路二段66號","121.366616666667","24.9185333333333","6500900","三峽區"
"237006","5529-G3","2018/11/09 19:29:12","新北市三峽區中正路一段336巷15弄2號","121.369958333333","24.9249333333333","6500900","三峽區"
"237011","KEA-2596","2018/11/09 19:29:18","新北市三峽區中正路一段141號","121.37338","24.928905","6500900","三峽區"
"237015","649-BX","2018/11/09 19:29:18","新北市三峽區成福路223號","121.426885","24.9265516666667","6500900","三峽區"
"237005","AKY-6261","2018/11/09 19:29:23","新北市三峽區中山路184巷2號","121.364026666667","24.9368416666667","6500900","三峽區"
"236069","105-UM","2018/11/09 19:29:23","新北市土城區裕民路185巷36弄11號","121.454701666667","24.9846916666667","6501300","土城區"
"236042","KED-0685","2018/11/09 19:29:18","新北市土城區學府路一段239號","121.45036","24.9833483333333","6501300","土城區"
"236079","166-UM","2018/11/09 19:29:18","新北市土城區中州路27巷81號","121.41265","24.956335","6501300","土城區"
"236026","269-VK","2018/11/09 19:29:20","新北市土城區中央路二段61巷26號","121.443266666667","24.9787783333333","6501300","土城區"
"236039","271-VK","2018/11/09 19:29:21","新北市土城區清水路32巷18號","121.457398333333","24.9812816666667","6501300","土城區"
"236020","401-BY","2018/11/09 19:29:24","新北市土城區峰廷街3號","121.469133333333","24.9872683333333","6501300","土城區"
"236048","913-UM","2018/11/09 19:29:12","新北市土城區清水路186號","121.460211666667","24.981755","6501300","土城區"
"236055","AAC-216","2018/11/09 19:29:21","新北市土城區學府路一段276號","121.450228333333","24.983285","6501300","土城區"
"242048","497-BY","2018/11/09 19:29:19","新北市新莊區後港一路3號","121.424151666667","25.0263283333333","6500500","新莊區"
"242023","362-BY","2018/11/09 19:29:08","新北市新莊區中平路82巷36-2號","121.446303333333","25.0448633333333","6500500","新莊區"
"242013","173-VK","2018/11/09 19:29:19","新北市新莊區三和路12-21號","121.44217","25.0387","6500500","新莊區"
"242032","348-TH","2018/11/09 19:29:11","新北市新莊區新泰路225巷20號","121.445303333333","25.0391466666667","6500500","新莊區"
"238015","755-BX","2018/11/09 19:29:09","新北市樹林區復興路253號","121.419551666667","24.990255","6500700","樹林區"
"238023","601-UM","2018/11/09 19:29:27","新北市樹林區三福街114號","121.4065","25.0162933333333","6500700","樹林區"
"238019","599-UM","2018/11/09 19:29:17","新北市樹林區鎮前街413號","121.414991666667","24.9833216666667","6500700","樹林區"
"238018","571-TV","2018/11/09 19:29:12","新北市樹林區中華路213號","121.419638333333","24.9813533333333","6500700","樹林區"
"238024","5061-A6","2018/11/09 19:29:12","新北市樹林區中山路三段34號","121.395273333333","24.9727333333333","6500700","樹林區"
"238022","KEA-2213","2018/11/09 19:29:16","新北市樹林區名園街46號","121.419683333333","24.9786716666667","6500700","樹林區"
"238021","KEA-2539","2018/11/09 19:29:20","新北市樹林區學成路720號","121.383256666667","24.9463916666667","6500700","樹林區"
"238025","303-VK","2018/11/09 19:29:11","新北市樹林區中山路一段65-1號","121.423693333333","24.991905","6500700","樹林區"
"238017","283-BY","2018/11/09 19:29:15","新北市樹林區光興街40號","121.410753333333","25.0027416666667","6500700","樹林區"
"238014","282-BY","2018/11/09 19:29:23","新北市樹林區保安二街64巷25號","121.424456666667","24.9966666666667","6500700","樹林區"
"238026","172-UY","2018/11/09 19:29:17","新北市樹林區佳園路三段36號","121.387828333333","24.9536066666667","6500700","樹林區"
"238016","169-UY","2018/11/09 19:29:26","新北市樹林區復興路410號","121.414378333333","24.9848183333333","6500700","樹林區"
"239007","AAC-297","2018/11/09 19:29:19","新北市鶯歌區大湖路6號","121.34292","24.9590383333333","6500800","鶯歌區"
"239006","891-R6","2018/11/09 19:29:10","新北市鶯歌區建國路409號","121.337955","24.9510833333333","6500800","鶯歌區"
"239003","360-BY","2018/11/09 19:29:25","新北市鶯歌區文化路55號","121.359345","24.955205","6500800","鶯歌區"
"239002","359-BY","2018/11/09 19:29:25","新北市鶯歌區大湖路230號","121.344008333333","24.967945","6500800","鶯歌區"
"221008","489-VK","2018/11/09 19:29:22","新北市汐止區康寧街145號","121.621905","25.0666233333333","6501100","汐止區"
"221036","130-UY","2018/11/09 19:29:26","新北市汐止區康寧街901號","121.651598333333","25.0749566666667","6501100","汐止區"
"221015","131-UY","2018/11/09 19:29:08","新北市汐止區康寧街901號","121.651561666667","25.074965","6501100","汐止區"
"221010","269-BY","2018/11/09 19:29:14","新北市汐止區連峰街7號","121.646396666667","25.0772683333333","6501100","汐止區"
"221012","278-VK","2018/11/09 19:29:26","新北市汐止區大同路三段184號","121.674313333333","25.0746583333333","6501100","汐止區"
"221023","279-VK","2018/11/09 19:29:14","新北市汐止區康寧街815巷11號","121.640675","25.0748266666667","6501100","汐止區"
"221027","281-BY","2018/11/09 19:29:21","新北市汐止區忠孝東路9號","121.658303333333","25.065925","6501100","汐止區"
"221029","298-VK","2018/11/09 19:29:20","新北市汐止區康寧街901號","121.651453333333","25.0749616666667","6501100","汐止區"
"221021","299-VK","2018/11/09 19:29:14","新北市汐止區康寧街901號","121.651515","25.0749983333333","6501100","汐止區"
"221031","353-TW","2018/11/09 19:29:27","新北市汐止區康寧街901號","121.65085","25.0752433333333","6501100","汐止區"
"221025","623-UM","2018/11/09 19:29:16","新北市汐止區大同路二段352號","121.65691","25.0670433333333","6501100","汐止區"
"221038","646-BX","2018/11/09 19:29:20","新北市汐止區中正路311號","121.65584","25.06776","6501100","汐止區"
"221002","707-TV","2018/11/09 19:29:24","新北市汐止區大同路一段354號","121.63843","25.059205","6501100","汐止區"
"220079","145-BY","2018/11/09 19:29:21","新北市板橋區民權路202巷18弄1-2號","121.46078","25.016515","6500100","板橋區"
"220080","200-UY","2018/11/09 19:29:21","新北市板橋區大觀路二段37巷196號","121.449465","25.00156","6500100","板橋區"
"220082","610-BX","2018/11/09 19:29:12","新北市板橋區金門街249號","121.431903333333","24.9890883333333","6500100","板橋區"
"220101","245-BX","2018/11/09 19:29:15","新北市板橋區縣民大道三段127巷21號","121.476838333333","25.0237133333333","6500100","板橋區"
"220056","276-BY","2018/11/09 19:29:20","新北市板橋區信義路1巷26弄38號","121.458761666667","24.9966216666667","6500100","板橋區"
"220072","277-BY","2018/11/09 19:29:11","新北市板橋區篤行路二段139號","121.429905","24.9881916666667","6500100","板橋區"
"220094","283-UM","2018/11/09 19:29:23","新北市板橋區吳鳳路50號","121.467928333333","25.0304483333333","6500100","板橋區"
"220071","283-VK","2018/11/09 19:29:27","新北市板橋區忠孝路3號","121.459863333333","25.001875","6500100","板橋區"
"220053","285-VK","2018/11/09 19:29:25","新北市板橋區永豐街205號","121.476536666667","25.021","6500100","板橋區"
"220083","286-VK","2018/11/09 19:29:14","新北市板橋區大觀路一段38巷184號","121.441408333333","25.004665","6500100","板橋區"
"220081","287-VK","2018/11/09 19:29:25","新北市板橋區大觀路一段75巷43號","121.449143333333","25.0041016666667","6500100","板橋區"
"220090","288-VK","2018/11/09 19:29:20","新北市板橋區裕民街59號","121.460903333333","25.0283366666667","6500100","板橋區"
"220061","295-UM","2018/11/09 19:29:24","新北市板橋區成功路6巷13號","121.475956666667","25.017135","6500100","板橋區"
"220084","296-UM","2018/11/09 19:29:24","新北市板橋區滿平街84巷110弄20號","121.426096666667","24.985905","6500100","板橋區"
"220075","303-R5","2018/11/09 19:29:16","新北市板橋區中正路253巷25號","121.454306666667","25.01779","6500100","板橋區"
"220062","305-R5","2018/11/09 19:29:24","新北市板橋區三民路二段123巷28號","121.480501666667","25.0155583333333","6500100","板橋區"
"220092","307-R5","2018/11/09 19:29:22","新北市板橋區光武街2巷15號","121.468311666667","25.0253533333333","6500100","板橋區"
"220098","317-R6","2018/11/09 19:29:11","新北市板橋區民生路三段299巷6號","121.463186666667","25.0304533333333","6500100","板橋區"
"220089","487-VK","2018/11/09 19:29:06","新北市板橋區文化路一段109號","121.461468333333","25.0145166666667","6500100","板橋區"
"220088","491-VK","2018/11/09 19:29:20","新北市板橋區雙十路二段151號","121.474588333333","25.0282266666667","6500100","板橋區"
"220035","560-BX","2018/11/09 19:29:27","新北市板橋區中正路375巷42號","121.45376","25.0203383333333","6500100","板橋區"
"220103","561-BX","2018/11/09 19:29:16","新北市板橋區文化路一段270巷3弄2號","121.467478333333","25.0209166666667","6500100","板橋區"
"220063","609-BX","2018/11/09 19:29:19","新北市板橋區三民路一段31巷57號","121.480866666667","25.0231866666667","6500100","板橋區"
"220091","637-BX","2018/11/09 19:29:23","新北市板橋區文聖街130號","121.4782","25.0283316666667","6500100","板橋區"
"220057","686-BX","2018/11/09 19:29:12","新北市板橋區和平路71號","121.461435","24.994685","6500100","板橋區"
"220077","687-BX","2018/11/09 19:29:12","新北市板橋區僑中二街114巷2號","121.445718333333","25.0068133333333","6500100","板橋區"
"220093","689-BX","2018/11/09 19:29:24","新北市板橋區新海路384號","121.459096666667","25.026095","6500100","板橋區"
"220054","741-BX","2018/11/09 19:29:14","新北市板橋區重慶路218號","121.462611666667","25.002175","6500100","板橋區"
"220102","KEA-2699","2018/11/09 19:29:22","新北市板橋區松柏街22巷36號","121.475061666667","25.0288716666667","6500100","板橋區"
"220055","827-TW","2018/11/09 19:29:23","新北市板橋區重慶路278巷15號","121.4624","24.99957","6500100","板橋區"
"220067","829-TW","2018/11/09 19:29:22","新北市板橋區漢生東路279巷8號","121.471938333333","25.008945","6500100","板橋區"
"220096","831-TW","2018/11/09 19:29:16","新北市板橋區民生路二段226巷6弄1號","121.469685","25.021805","6500100","板橋區"
"220064","833-TW","2018/11/09 19:29:19","新北市板橋區中山路一段50-9號","121.461141666667","25.0095133333333","6500100","板橋區"
"220074","895-R6","2018/11/09 19:29:23","新北市板橋區北門街42號","121.457045","25.01105","6500100","板橋區"
"220073","985-R7","2018/11/09 19:29:24","新北市板橋區國光路37號","121.4574","25.01774","6500100","板橋區"
"220097","AAC-210","2018/11/09 19:29:22","新北市板橋區漢生西路151巷2號","121.46309","25.02244","6500100","板橋區"
"220070","AAC-253","2018/11/09 19:29:23","新北市板橋區四川路一段25號","121.459533333333","25.00683","6500100","板橋區"
"235068","KEA-2873","2018/11/09 19:29:24","新北市中和區景平路493巷12弄27號","121.498456666667","24.9968316666667","6500300","中和區"
"235061","KEA-2875","2018/11/09 19:29:26","新北市中和區民利街61巷11弄1號","121.479038333333","24.998405","6500300","中和區"
