"lineid","car","time","location","longitude","latitude","cityid","cityname"
"234081","298-R6","2018/11/09 20:29:20","新北市永和區永貞路31號","121.521091666667","25.0066566666667","6500400","永和區"
"234038","336-UY","2018/11/09 20:29:15","新北市永和區環河東路四段38號","121.52879","24.99892","6500400","永和區"
"234064","337-UY","2018/11/09 20:29:28","新北市永和區中正路419號","121.517165","25.00499","6500400","永和區"
"234086","338-UY","2018/11/09 20:29:23","新北市永和區永和路二段239-1號","121.515708333333","25.0145833333333","6500400","永和區"
"234070","552-UM","2018/11/09 20:29:10","新北市永和區永亨路7號","121.519433333333","25.0056833333333","6500400","永和區"
"234030","746-BX","2018/11/09 20:29:15","新北市中和區景平路404號","121.508991666667","24.9931566666667","6500400","永和區"
"234054","KEA-2590","2018/11/09 20:29:09","新北市永和區環河東路一段80號","121.519578333333","25.0164216666667","6500400","永和區"
"234061","AAD-866","2018/11/09 20:29:16","新北市永和區得和路45巷16弄4號","121.516153333333","25.000785","6500400","永和區"
"234042","862-TW","2018/11/09 20:29:12","新北市永和區安樂路248號","121.51469","25.003275","6500400","永和區"
"234050","863-TW","2018/11/09 20:29:25","新北市永和區保安路134號","121.508646666667","25.0153533333333","6500400","永和區"
"249001","173-UM","2018/11/09 20:29:13","新北市八里區中山路三段160號","121.383148333333","25.1408116666667","6502300","八里區"
"249004","303-UY","2018/11/09 20:29:09","新北市八里區中山路一段129巷27號","121.41398","25.158575","6502300","八里區"
"249002","305-UY","2018/11/09 20:29:13","新北市八里區龍米路二段123號","121.446558333333","25.144505","6502300","八里區"
"249003","593-UM","2018/11/09 20:29:16","新北市八里區舊城路21號","121.39983","25.147025","6502300","八里區"
"248002","678-BX","2018/11/09 20:29:09","新北市五股區成泰路三段74號","121.444201666667","25.08966","6501500","五股區"
"234023","9380-KE","2018/11/09 20:29:24","新北市永和區博愛街32巷17-1號","121.518901666667","25.0152683333333","6500400","永和區"
"234077","969-R7","2018/11/09 20:29:26","新北市永和區中正路39-1號","121.514346666667","24.99598","6500400","永和區"
"234074","AAC-211","2018/11/09 20:29:23","新北市永和區豫溪街191巷7弄20號","121.523291666667","25.0109883333333","6500400","永和區"
"234067","AAC-212","2018/11/09 20:29:25","新北市永和區保平路292巷40弄2號","121.507728333333","25.0050483333333","6500400","永和區"
"243010","267-VK","2018/11/09 20:29:17","新北市泰山區文程路18巷4號","121.42821","25.049085","6501600","泰山區"
"243009","297-R6","2018/11/09 20:29:19","新北市泰山區忠孝街14-1號","121.427653333333","25.0649833333333","6501600","泰山區"
"243016","KEA-2801","2018/11/09 20:29:15","新北市泰山區明志路二段246號","121.427081666667","25.04794","6501600","泰山區"
"243015","421-VK","2018/11/09 20:29:25","新北市泰山區泰林路二段362號","121.428795","25.0636566666667","6501600","泰山區"
"243011","KEA-2215","2018/11/09 20:29:26","新北市泰山區中山路二段927號","121.422675","25.03305","6501600","泰山區"
"243012","646-TV","2018/11/09 20:29:22","新北市泰山區忠孝街19巷3弄1號","121.427418333333","25.0658366666667","6501600","泰山區"
"243014","680-BX","2018/11/09 20:29:12","新北市泰山區泰林路三段643號","121.40464","25.07279","6501600","泰山區"
"222003","436-BY","2018/11/09 20:29:22","新北市深坑區深坑街42號","121.615015","25.0016966666667","6501800","深坑區"
"222002","659-BX","2018/11/09 20:29:23","新北市深坑區萬福路43號","121.599421666667","25.0068333333333","6501800","深坑區"
"231041","002-UM","2018/11/09 20:29:26","新北市新店區民權路124號","121.535148333333","24.9827666666667","6500600","新店區"
"231066","0291-UT","2018/11/09 20:29:27","新北市新店區安興路56號","121.5165","24.9749433333333","6500600","新店區"
"231059","046-UY","2018/11/09 20:29:15","新北市新店區安德街173號","121.508708333333","24.95894","6500600","新店區"
"231040","047-UY","2018/11/09 20:29:27","新北市新店區中正路323號","121.536308333333","24.9751283333333","6500600","新店區"
"231044","106-UY","2018/11/09 20:29:28","新北市新店區建國路182號","121.537925","24.9800483333333","6500600","新店區"
"231053","108-UY","2018/11/09 20:29:22","新北市新店區松林路38號","121.546255","24.9102683333333","6500600","新店區"
"231048","187-VK","2018/11/09 20:29:20","新北市新店區寶慶街58巷21-1號","121.542008333333","24.9873033333333","6500600","新店區"
"231062","188-VK","2018/11/09 20:29:08","新北市新店區安泰路7巷16號","121.485741666667","24.9510166666667","6500600","新店區"
"231054","KEA-2219","2018/11/09 20:29:18","新北市新店區檳榔路109號","121.544563333333","24.9615566666667","6500600","新店區"
"231057","256-BX","2018/11/09 20:29:24","新北市新店區花園十路一段9號","121.554615","24.934235","6500600","新店區"
"231042","268-BY","2018/11/09 20:29:20","新北市新店區寶橋路156-1號","121.548595","24.9769883333333","6500600","新店區"
"231051","278-BY","2018/11/09 20:29:24","新北市新店區中央六街10號","121.530093333333","24.97457","6500600","新店區"
"231050","AAD-862","2018/11/09 20:29:23","新北市新店區建國路85號","121.540523333333","24.9764933333333","6500600","新店區"
"231060","355-BY","2018/11/09 20:29:10","新北市新店區錦秀路66號","121.478948333333","24.9427366666667","6500600","新店區"
"231058","3713-VJ","2018/11/09 20:29:13","新北市新店區中央路13號","121.533303333333","24.97845","6500600","新店區"
"231056","4715-K9","2018/11/09 20:29:19","新北市新店區中正路468-2號","121.533891666667","24.979855","6500600","新店區"
"231067","4772-VM","2018/11/09 20:29:20","新北市新店區安華路28-1號","121.520003333333","24.96069","6500600","新店區"
"231065","512-UM","2018/11/09 20:29:25","新北市新店區安祥路102巷46弄46號","121.48631","24.9635216666667","6500600","新店區"
"231049","513-UM","2018/11/09 20:29:16","新北市新店區華潭街24號","121.529141666667","24.9531083333333","6500600","新店區"
"231045","617-UM","2018/11/09 20:29:19","新北市新店區新坡一街18巷6弄36號","121.54817","24.95997","6500600","新店區"
"231061","619-UM","2018/11/09 20:29:22","新北市新店區新和街36號","121.519263333333","24.984905","6500600","新店區"
"231063","641-BX","2018/11/09 20:29:22","新北市新店區安康路三段31巷2弄24號","121.49297","24.95181","6500600","新店區"
"231068","718-UY","2018/11/09 20:29:24","新北市新店區寶元路一段74巷21號","121.543065","24.983855","6500600","新店區"
"231064","719-UM","2018/11/09 20:29:26","新北市新店區永安街76號","121.519818333333","24.9864733333333","6500600","新店區"
"231043","899-TW","2018/11/09 20:29:12","新北市新店區建國路88號","121.54044","24.9771233333333","6500600","新店區"
"231055","AKT-0513","2018/11/09 20:29:09","新北市新店區安興路49號","121.516566666667","24.9716133333333","6500600","新店區"
"241011","013-R5","2018/11/09 20:29:21","新北市三重區龍門路42號","121.496016666667","25.072345","6500200","三重區"
"241028","022-UY","2018/11/09 20:29:16","新北市三重區光興街91號","121.497366666667","25.059925","6500200","三重區"
"241008","059-VK","2018/11/09 20:29:23","新北市三重區永福街192號","121.481651666667","25.0742866666667","6500200","三重區"
"241022","060-VK","2018/11/09 20:29:17","新北市三重區中正北路20巷9號","121.488055","25.0629633333333","6500200","三重區"
"241031","061-VK","2018/11/09 20:29:18","新北市三重區三寧街15號","121.489393333333","25.0597466666667","6500200","三重區"
"241015","062-VK","2018/11/09 20:29:10","新北市三重區長元街2-2號","121.498756666667","25.0658383333333","6500200","三重區"
"241017","063-VK","2018/11/09 20:29:19","新北市三重區自強路一段288號","121.49161","25.0682466666667","6500200","三重區"
"241024","065-VK","2018/11/09 20:29:10","新北市三重區三民街249號","121.479775","25.067685","6500200","三重區"
"241026","066-VK","2018/11/09 20:29:18","新北市三重區環河南路6號","121.503871666667","25.0635933333333","6500200","三重區"
"241002","090-VK","2018/11/09 20:29:26","新北市三重區仁義街211巷53號","121.498243333333","25.0826533333333","6500200","三重區"
"241003","091-VK","2018/11/09 20:29:10","新北市三重區富華街165號","121.493346666667","25.08508","6500200","三重區"
"241005","262-UM","2018/11/09 20:29:23","新北市三重區碧華街348號","121.490506666667","25.08397","6500200","三重區"
"241023","265-UM","2018/11/09 20:29:16","新北市三重區自由街17巷1號","121.479836666667","25.066565","6500200","三重區"
"241016","266-UM","2018/11/09 20:29:20","新北市三重區正義北路190巷1號","121.496161666667","25.0668166666667","6500200","三重區"
"241009","267-UM","2018/11/09 20:29:27","新北市三重區三和路四段382巷129號","121.479641666667","25.07809","6500200","三重區"
"241018","268-UM","2018/11/09 20:29:14","新北市三重區正義北路220號","121.496276666667","25.06757","6500200","三重區"
"241013","270-UM","2018/11/09 20:29:13","新北市三重區溪尾街5巷25號","121.492656666667","25.074635","6500200","三重區"
"241025","271-UM","2018/11/09 20:29:24","新北市三重區頂崁街210巷23弄1號","121.475831666667","25.068155","6500200","三重區"
"241007","398-BY","2018/11/09 20:29:21","新北市三重區三和路四段101巷26號","121.489223333333","25.07725","6500200","三重區"
"241035","KEA-2210","2018/11/09 20:29:23","新北市三重區重新路二段27號","121.49775","25.06235","6500200","三重區"
"241004","475-VK","2018/11/09 20:29:12","新北市三重區仁愛街506號","121.488231666667","25.0821033333333","6500200","三重區"
"241020","478-VK","2018/11/09 20:29:12","新北市三重區重陽路四段146號","121.492915","25.0716883333333","6500200","三重區"
"241014","543-UM","2018/11/09 20:29:21","新北市三重區長興街96號","121.501713333333","25.069195","6500200","三重區"
"241001","547-UM","2018/11/09 20:29:10","新北市三重區自強路三段116號","121.48724","25.0747866666667","6500200","三重區"
"241019","KEA-2593","2018/11/09 20:29:15","新北市三重區重陽路四段124號","121.492435","25.0710333333333","6500200","三重區"
"241006","AAD-863","2018/11/09 20:29:24","新北市三重區車路頭街135-1號","121.484255","25.07617","6500200","三重區"
"241030","743-BX","2018/11/09 20:29:10","新北市三重區成功路60號","121.488661666667","25.05088","6500200","三重區"
"241012","941-UM","2018/11/09 20:29:12","新北市三重區龍濱路261號","121.501483333333","25.072885","6500200","三重區"
"241029","942-UM","2018/11/09 20:29:17","新北市三重區集美街225號","121.492015","25.0551616666667","6500200","三重區"
"241033","AAC-255","2018/11/09 20:29:22","新北市三重區五谷王北街80巷26號","121.475645","25.0527216666667","6500200","三重區"
"247012","KEA-2869","2018/11/09 20:29:20","新北市蘆洲區復興路257號","121.480821666667","25.0899733333333","6501400","蘆洲區"
"235050","4979-A6","2018/11/09 20:29:13","新北市中和區景新街162號","121.505743333333","24.9971516666667","6500300","中和區"
"235069","4980-A6","2018/11/09 20:29:09","新北市中和區中正路446號","121.49094","24.9941716666667","6500300","中和區"
"235054","640-BX","2018/11/09 20:29:19","新北市八里區下罟子17號","121.38061","25.1435766666667","6500300","中和區"
"235059","AAC-215","2018/11/09 20:29:12","新北市中和區員山路32號","121.481175","24.98781","6500300","中和區"
"247002","893-R6","2018/11/09 20:29:19","新北市蘆洲區長安街361巷15號","121.456283333333","25.08747","6501400","蘆洲區"
"247016","546-UM","2018/11/09 20:29:23","新北市蘆洲區光華路43號","121.468906666667","25.0830466666667","6501400","蘆洲區"
"247024","500-BY","2018/11/09 20:29:13","新北市蘆洲區光復路91號","121.464328333333","25.0856466666667","6501400","蘆洲區"
"247014","339-TH","2018/11/09 20:29:15","新北市蘆洲區中山二路32號","121.474671666667","25.0819783333333","6501400","蘆洲區"
"247006","337-TH","2018/11/09 20:29:16","新北市蘆洲區和平路121巷8弄29號","121.466156666667","25.08042","6501400","蘆洲區"
"247008","336-TH","2018/11/09 20:29:12","新北市蘆洲區重陽二街11號","121.482838333333","25.084555","6501400","蘆洲區"
"247020","057-VK","2018/11/09 20:29:16","新北市蘆洲區仁愛街102-7號","121.469991666667","25.094865","6501400","蘆洲區"
"247010","056-VK","2018/11/09 20:29:17","新北市蘆洲區信義路222巷2號","121.479276666667","25.0852916666667","6501400","蘆洲區"
"247018","007-UY","2018/11/09 20:29:11","新北市蘆洲區民族路315號","121.474486666667","25.0914483333333","6501400","蘆洲區"
"247004","002-UY","2018/11/09 20:29:27","新北市蘆洲區長安街297號","121.45806","25.0848766666667","6501400","蘆洲區"
"247022","001-UY","2018/11/09 20:29:18","新北市蘆洲區三民路293-2號","121.465933333333","25.090765","6501400","蘆洲區"
"222001","KEA-2212","2018/11/09 20:29:25","新北市深坑區北深路三段329號","121.597183333333","25.0050183333333","6501800","深坑區"
"251001","011-UM","2018/11/09 20:29:24","新北市淡水區淡金路二段30號","121.452461666667","25.180805","6501000","淡水區"
"251002","012-UM","2018/11/09 20:29:15","新北市淡水區中正路27號","121.442453333333","25.169595","6501000","淡水區"
"251008","181-VK","2018/11/09 20:29:12","新北市淡水區淡海路206巷12號","121.420978333333","25.1856133333333","6501000","淡水區"
"251010","413-VK","2018/11/09 20:29:14","新北市淡水區沙崙路181巷15號","121.423996666667","25.1843433333333","6501000","淡水區"
"251012","441-VK","2018/11/09 20:29:16","新北市淡水區興仁路108號","121.451696666667","25.2181583333333","6501000","淡水區"
"251006","561-UM","2018/11/09 20:29:19","新北市淡水區商工路306號","121.461255","25.1858383333333","6501000","淡水區"
"251009","575-R6","2018/11/09 20:29:24","新北市淡水區中正東路二段17-4號","121.458445","25.1574683333333","6501000","淡水區"
"251003","673-BX","2018/11/09 20:29:27","新北市淡水區新生街108巷2號","121.440113333333","25.1747216666667","6501000","淡水區"
"252002","178-VK","2018/11/09 20:29:23","新北市三芝區淡金路二段47-2號","121.503663333333","25.2605383333333","6502100","三芝區"
"252001","292-VK","2018/11/09 20:29:16","新北市三芝區中山路一段31號","121.500635","25.25801","6502100","三芝區"
"236055","AAC-216","2018/11/09 20:29:21","新北市樹林區中山路三段214號","121.379808333333","24.9676266666667","6501300","土城區"
"242037","AAC-296","2018/11/09 20:29:11","新北市新莊區後港一路71號","121.426746666667","25.026525","6500500","新莊區"
"242058","986-R7","2018/11/09 20:29:20","新北市新莊區四維路139號","121.422716666667","25.022335","6500500","新莊區"
"242056","751-BX","2018/11/09 20:29:16","新北市新莊區新莊路751巷49號","121.442766666667","25.031495","6500500","新莊區"
"242027","615-BX","2018/11/09 20:29:20","新北市新莊區思源路233號","121.45981","25.0466033333333","6500500","新莊區"
"242025","613-BX","2018/11/09 20:29:13","新北市新莊區五工三路50巷23-1號","121.460808333333","25.0650783333333","6500500","新莊區"
"242029","612-BX","2018/11/09 20:29:13","新北市新莊區昌隆街19號","121.454388333333","25.0512933333333","6500500","新莊區"
"242044","566-BX","2018/11/09 20:29:27","新北市新莊區中正路891-45號","121.41382","25.0228316666667","6500500","新莊區"
"242048","497-BY","2018/11/09 20:29:19","新北市新莊區中正路867-2號","121.418525","25.0275083333333","6500500","新莊區"
"242054","441-UM","2018/11/09 20:29:20","新北市新莊區西盛街325號","121.428155","25.0147333333333","6500500","新莊區"
"242039","415-TV","2018/11/09 20:29:29","新北市新莊區民安路232號","121.426086666667","25.0222566666667","6500500","新莊區"
"242009","413-TV","2018/11/09 20:29:22","新北市新莊區幸福路64巷3弄8號","121.456778333333","25.05008","6500500","新莊區"
"242023","362-BY","2018/11/09 20:29:27","新北市新莊區化成路283號","121.466106666667","25.0547483333333","6500500","新莊區"
"242060","353-BY","2018/11/09 20:29:25","新北市新莊區新樹路244巷60號","121.431181666667","25.019545","6500500","新莊區"
"242011","132-UY","2018/11/09 20:29:18","新北市新莊區中義街38號","121.449883333333","25.0511716666667","6500500","新莊區"
"242041","133-UY","2018/11/09 20:29:14","新北市新莊區天祥街29號","121.417063333333","25.028255","6500500","新莊區"
"242034","135-UY","2018/11/09 20:29:23","新北市新莊區中正路334巷6號","121.445825","25.0351983333333","6500500","新莊區"
"242050","172-VK","2018/11/09 20:29:13","新北市新莊區西盛街280巷10號","121.427641666667","25.0155033333333","6500500","新莊區"
"242013","173-VK","2018/11/09 20:29:19","新北市新莊區中平路292巷1弄17號","121.44548","25.0518066666667","6500500","新莊區"
"242019","175-VK","2018/11/09 20:29:09","新北市新莊區銘德街101號","121.455801666667","25.0432966666667","6500500","新莊區"
"242007","176-VK","2018/11/09 20:29:27","新北市新莊區思源路287巷1弄7號","121.459385","25.048025","6500500","新莊區"
"242017","346-TH","2018/11/09 20:29:14","新北市新莊區中港三街111號","121.448841666667","25.0460866666667","6500500","新莊區"
"242046","347-TH","2018/11/09 20:29:15","新北市新莊區富國路22巷8號","121.41837","25.025875","6500500","新莊區"
"242032","348-TH","2018/11/09 20:29:16","新北市新莊區中正路508巷5弄19號","121.435406666667","25.0335933333333","6500500","新莊區"
"242005","349-TH","2018/11/09 20:29:27","新北市新莊區化成路403巷29號","121.463593333333","25.05866","6500500","新莊區"
"242021","350-TH","2018/11/09 20:29:15","新北市新莊區公園路10巷1號","121.447856666667","25.0387433333333","6500500","新莊區"
"242015","351-TH","2018/11/09 20:29:25","新北市新莊區中平路46巷16號","121.445416666667","25.0438066666667","6500500","新莊區"
"221008","489-VK","2018/11/09 20:29:23","新北市汐止區康寧街453號","121.631461666667","25.0683466666667","6501100","汐止區"
"221036","130-UY","2018/11/09 20:29:26","新北市汐止區新昌路7號","121.662118333333","25.067205","6501100","汐止區"
"221015","131-UY","2018/11/09 20:29:08","新北市汐止區建成路160巷16號","121.661956666667","25.07402","6501100","汐止區"
"221010","269-BY","2018/11/09 20:29:13","新北市汐止區八連路一段207號","121.641215","25.08063","6501100","汐止區"
"221012","278-VK","2018/11/09 20:29:17","新北市汐止區大同路三段241號","121.672641666667","25.07673","6501100","汐止區"
"221023","279-VK","2018/11/09 20:28:54","新北市汐止區湖東街60號","121.634581666667","25.072815","6501100","汐止區"
"221032","280-BY","2018/11/09 20:29:08","新北市汐止區弘道街53巷21號","121.618733333333","25.049595","6501100","汐止區"
"221027","281-BY","2018/11/09 20:29:20","新北市汐止區中正路214號","121.658283333333","25.06891","6501100","汐止區"
"221029","298-VK","2018/11/09 20:29:20","新北市汐止區樟樹一路129巷34弄19號","121.64045","25.065215","6501100","汐止區"
"221021","299-VK","2018/11/09 20:29:14","新北市汐止區水源路一段286號","121.654116666667","25.0582116666667","6501100","汐止區"
"221031","353-TW","2018/11/09 20:29:27","新北市汐止區福德一路237號","121.634255","25.0647","6501100","汐止區"
"221035","622-UM","2018/11/09 20:29:23","新北市汐止區長江街101-5號","121.65894","25.0730083333333","6501100","汐止區"
"221025","623-UM","2018/11/09 20:29:16","新北市汐止區水源路二段112號","121.656756666667","25.055385","6501100","汐止區"
"221038","646-BX","2018/11/09 20:29:20","新北市汐止區忠孝東路9號","121.65775","25.0657716666667","6501100","汐止區"
"221033","647-BX","2018/11/09 20:29:22","新北市汐止區林森街73巷11號","121.623631666667","25.0411383333333","6501100","汐止區"
"221002","707-TV","2018/11/09 20:29:24","新北市汐止區福德二路51號","121.634208333333","25.0672066666667","6501100","汐止區"
"221018","753-BX","2018/11/09 20:29:21","新北市汐止區茄苳路225巷11弄33號","121.67036","25.0700883333333","6501100","汐止區"
"220080","200-UY","2018/11/09 20:29:21","新北市樹林區八德街824號","121.39443","24.9689033333333","6500100","板橋區"
"220083","286-VK","2018/11/09 20:29:24","新北市板橋區僑中二街104巷7號","121.445616666667","25.0079216666667","6500100","板橋區"
"220061","295-UM","2018/11/09 20:29:24","新北市板橋區文華街3巷1號","121.457426666667","25.000585","6500100","板橋區"
"242002","281-VK","2018/11/09 20:29:26","新北市新莊區中正路育農巷1號","121.456968333333","25.0378783333333","6500500","新莊區"
"220089","487-VK","2018/11/09 20:29:26","新北市板橋區四維路351號","121.462301666667","25.0300133333333","6500100","板橋區"
"220103","561-BX","2018/11/09 20:29:15","新北市板橋區漢生東路23巷47號","121.465893333333","25.018055","6500100","板橋區"
"220070","AAC-253","2018/11/09 20:29:22","新北市新莊區中環路三段2-1號","121.442401666667","25.055835","6500100","板橋區"
