"lineid","car","time","location","longitude","latitude","cityid","cityname"
"234038","336-UY","2018/11/09 20:57:35","新北市五股區中直路15-2號","121.423358333333","25.1110733333333","6500400","永和區"
"234077","969-R7","2018/11/09 20:59:26","新北市八里區中山路三段386號","121.368551666667","25.1357383333333","6500400","永和區"
"231066","0291-UT","2018/11/09 20:59:07","新北市新店區吉安街35號","121.515855","24.9660433333333","6500600","新店區"
"231059","046-UY","2018/11/09 20:59:15","新北市新店區僑信路88號","121.499791666667","24.9480216666667","6500600","新店區"
"231040","047-UY","2018/11/09 20:59:27","新北市新店區中正路141號","121.541628333333","24.9715016666667","6500600","新店區"
"231053","108-UY","2018/11/09 20:59:22","新北市新店區安康路一段241號","121.525015","24.9632516666667","6500600","新店區"
"231048","187-VK","2018/11/09 20:59:20","新北市新店區寶元路一段109號","121.545701666667","24.9831116666667","6500600","新店區"
"231062","188-VK","2018/11/09 20:59:08","新北市新店區裕合街82號","121.49028","24.9485466666667","6500600","新店區"
"231054","KEA-2219","2018/11/09 20:59:17","新北市新店區北新路一段96巷23號","121.543076666667","24.96865","6500600","新店區"
"231042","268-BY","2018/11/09 20:59:20","新北市新店區寶高路102巷20號","121.552651666667","24.9740533333333","6500600","新店區"
"231051","278-BY","2018/11/09 20:59:24","新北市新店區中正路663巷1弄2號","121.532865","24.9899766666667","6500600","新店區"
"231050","AAD-862","2018/11/09 20:57:23","新北市新店區三民路69號","121.536241666667","24.9714166666667","6500600","新店區"
"231060","355-BY","2018/11/09 20:59:10","新北市新店區安康路三段401號","121.483306666667","24.9499233333333","6500600","新店區"
"231067","4772-VM","2018/11/09 20:59:20","新北市新店區安德街130巷16號","121.508161666667","24.96093","6500600","新店區"
"231065","512-UM","2018/11/09 20:59:25","新北市新店區安祥路67巷50弄13號","121.484441666667","24.958935","6500600","新店區"
"231061","619-UM","2018/11/09 20:59:22","新北市新店區新和街90號","121.520613333333","24.9860066666667","6500600","新店區"
"231063","641-BX","2018/11/09 20:59:22","新北市新店區玫瑰路58巷3號","121.495371666667","24.9465566666667","6500600","新店區"
"231068","718-UY","2018/11/09 20:59:24","新北市新店區寶中路71號","121.547455","24.9805183333333","6500600","新店區"
"231064","719-UM","2018/11/09 20:55:06","新北市新店區安民街303巷7號","121.517068333333","24.9736916666667","6500600","新店區"
"231043","899-TW","2018/11/09 20:59:12","新北市新店區溪園路389-12號","121.523206666667","24.9791416666667","6500600","新店區"
"241011","013-R5","2018/11/09 20:59:21","新北市三重區秀江街117號","121.49974","25.0721833333333","6500200","三重區"
"241028","022-UY","2018/11/09 20:59:16","新北市三重區重新路二段76號","121.497415","25.0619316666667","6500200","三重區"
"241008","059-VK","2018/11/09 20:59:23","新北市三重區車路頭街139巷2號","121.483841666667","25.0762633333333","6500200","三重區"
"241022","060-VK","2018/11/09 20:59:17","新北市三重區過圳街27-5號","121.487973333333","25.06241","6500200","三重區"
"241031","061-VK","2018/11/09 20:59:18","新北市三重區重陽路一段113巷3號","121.487556666667","25.0598116666667","6500200","三重區"
"241015","062-VK","2018/11/09 20:59:10","新北市三重區福德北路57號","121.50209","25.06541","6500200","三重區"
"241017","063-VK","2018/11/09 20:59:19","新北市三重區大仁街23號","121.492105","25.0645683333333","6500200","三重區"
"241024","065-VK","2018/11/09 20:59:30","新北市三重區大勇街82巷15弄30號","121.481263333333","25.0719766666667","6500200","三重區"
"241026","066-VK","2018/11/09 20:59:18","新北市三重區文化南路45號","121.500256666667","25.0614233333333","6500200","三重區"
"241002","090-VK","2018/11/09 20:59:26","新北市三重區五華街1巷18號","121.496053333333","25.079885","6500200","三重區"
"241003","091-VK","2018/11/09 20:59:10","新北市三重區進安街198號","121.493903333333","25.0859683333333","6500200","三重區"
"241005","262-UM","2018/11/09 20:59:23","新北市三重區五華街147-5號","121.49055","25.0848633333333","6500200","三重區"
"241023","265-UM","2018/11/09 20:59:16","新北市三重區洛陽街45巷15號","121.482373333333","25.0637366666667","6500200","三重區"
"241016","266-UM","2018/11/09 20:59:24","新北市三重區信義西街90號","121.49665","25.06443","6500200","三重區"
"241009","267-UM","2018/11/09 20:59:07","新北市三重區三和路四段386號","121.482376666667","25.0790666666667","6500200","三重區"
"241018","268-UM","2018/11/09 20:59:14","新北市三重區雙園街103號","121.493705","25.0672783333333","6500200","三重區"
"241013","270-UM","2018/11/09 20:59:12","新北市三重區仁賢街12-1號","121.495648333333","25.0748983333333","6500200","三重區"
"241025","271-UM","2018/11/09 20:59:24","新北市三重區貴陽街18-1號","121.484205","25.061885","6500200","三重區"
"241007","398-BY","2018/11/09 20:59:26","新北市三重區慈愛街53號","121.486283333333","25.079035","6500200","三重區"
"241004","475-VK","2018/11/09 20:59:12","新北市三重區仁愛街420號","121.490385","25.08142","6500200","三重區"
"241020","478-VK","2018/11/09 20:59:12","新北市三重區忠孝路二段34號","121.485786666667","25.071035","6500200","三重區"
"241014","543-UM","2018/11/09 20:59:22","新北市三重區長榮路75號","121.502528333333","25.069055","6500200","三重區"
"241001","547-UM","2018/11/09 20:59:10","新北市三重區自強路三段87巷8號","121.487936666667","25.074895","6500200","三重區"
"241019","KEA-2593","2018/11/09 20:59:15","新北市三重區自強路二段74巷23-1號","121.487893333333","25.0698433333333","6500200","三重區"
"241006","AAD-863","2018/11/09 20:59:24","新北市三重區永福街58巷1弄4號","121.481318333333","25.0779716666667","6500200","三重區"
"241030","743-BX","2018/11/09 20:59:30","新北市三重區環河南路220-8號","121.493418333333","25.05273","6500200","三重區"
"241012","941-UM","2018/11/09 20:59:12","新北市三重區仁信街27號","121.501296666667","25.075555","6500200","三重區"
"241029","942-UM","2018/11/09 20:59:17","新北市三重區電信街81號","121.495846666667","25.05831","6500200","三重區"
"241033","AAC-255","2018/11/09 20:59:22","新北市三重區光復路二段2號","121.472091666667","25.053385","6500200","三重區"
"247012","KEA-2869","2018/11/09 20:59:19","新北市蘆洲區民權路6-1號","121.476765","25.0856966666667","6501400","蘆洲區"
"235069","4980-A6","2018/11/09 20:59:10","新北市中和區新生街288號","121.483675","24.9965433333333","6500300","中和區"
"247002","893-R6","2018/11/09 20:59:19","新北市蘆洲區永樂街40號","121.458036666667","25.08831","6501400","蘆洲區"
"247016","546-UM","2018/11/09 20:59:23","新北市蘆洲區正和街92號","121.468141666667","25.0807983333333","6501400","蘆洲區"
"247024","500-BY","2018/11/09 20:59:13","新北市蘆洲區光明路20號","121.46136","25.0864433333333","6501400","蘆洲區"
"247014","339-TH","2018/11/09 20:59:15","新北市蘆洲區得勝街68號","121.47271","25.083505","6501400","蘆洲區"
"247006","337-TH","2018/11/09 20:59:16","新北市蘆洲區永安南路二段18號","121.467705","25.0771816666667","6501400","蘆洲區"
"247008","336-TH","2018/11/09 20:59:12","新北市蘆洲區民生街74號","121.472955","25.0791133333333","6501400","蘆洲區"
"247020","057-VK","2018/11/09 20:59:16","新北市蘆洲區民族路488號","121.471138333333","25.0912683333333","6501400","蘆洲區"
"247010","056-VK","2018/11/09 20:59:17","新北市蘆洲區鷺江街70號","121.47698","25.083715","6501400","蘆洲區"
"247018","007-UY","2018/11/09 20:59:11","新北市蘆洲區民權路140號","121.472905","25.08914","6501400","蘆洲區"
"247004","002-UY","2018/11/09 20:59:27","新北市蘆洲區永安南路二段268號","121.45866","25.0807466666667","6501400","蘆洲區"
"247022","001-UY","2018/11/09 20:59:14","新北市蘆洲區中正路198-1號","121.466915","25.0883816666667","6501400","蘆洲區"
"251005","010-UM","2018/11/09 20:59:09","新北市淡水區學府路51巷2弄16號","121.447971666667","25.17007","6501000","淡水區"
"251001","011-UM","2018/11/09 20:59:24","新北市淡水區淡金路二段147號","121.4498","25.18281","6501000","淡水區"
"251002","012-UM","2018/11/09 20:59:15","新北市淡水區英專路59號","121.445635","25.1710416666667","6501000","淡水區"
"251010","413-VK","2018/11/09 20:59:14","新北市淡水區淡海路22號","121.423965","25.17876","6501000","淡水區"
"251012","441-VK","2018/11/09 20:59:16","新北市淡水區淡金路五段116-1號","121.456563333333","25.2368883333333","6501000","淡水區"
"251007","442-VK","2018/11/09 20:59:18","新北市淡水區仁愛街2巷13號","121.44621","25.1706833333333","6501000","淡水區"
"251009","575-R6","2018/11/09 20:59:24","新北市淡水區民族路112巷72號","121.46166","25.133915","6501000","淡水區"
"251011","650-BX","2018/11/09 20:59:21","新北市淡水區新民街一段8巷10號","121.434618333333","25.1839933333333","6501000","淡水區"
"251003","673-BX","2018/11/09 20:59:07","新北市淡水區新春街103-37號","121.440945","25.18276","6501000","淡水區"
"242054","441-UM","2018/11/09 20:59:20","新北市五股區新五路二段582號","121.443285","25.0861683333333","6500500","新莊區"
"242023","362-BY","2018/11/09 20:58:47","新北市五股區中直路13-7號","121.425038333333","25.1103766666667","6500500","新莊區"
"242005","349-TH","2018/11/09 20:59:25","新北市林口區汕頭32號","121.366323333333","25.1347","6500500","新莊區"
"221032","280-BY","2018/11/09 20:59:28","新北市汐止區汐萬路一段256巷3號","121.65331","25.0746183333333","6501100","汐止區"
"221029","298-VK","2018/11/09 20:59:20","新北市汐止區汐萬路一段256巷3號","121.653438333333","25.0745416666667","6501100","汐止區"
"221018","753-BX","2018/11/09 20:59:21","新北市汐止區汐萬路一段256巷3號","121.652415","25.0746533333333","6501100","汐止區"
"220070","AAC-253","2018/11/09 20:59:22","新北市八里區中山路三段409號","121.368741666667","25.1343216666667","6500100","板橋區"
