"lineid","car","time","location","longitude","latitude","cityid","cityname"
"234077","969-R7","2018/11/09 21:19:26","新北市林口區太平里180號","121.368256666667","25.1345066666667","6500400","永和區"
"231059","046-UY","2018/11/09 21:19:15","新北市新店區僑信路2巷2號","121.49982","24.95357","6500600","新店區"
"231040","047-UY","2018/11/09 21:19:27","新北市新店區北新路一段209號","121.540391666667","24.96499","6500600","新店區"
"231048","187-VK","2018/11/09 21:19:20","新北市新店區民生路158巷31號","121.527768333333","24.9808183333333","6500600","新店區"
"231054","KEA-2219","2018/11/09 21:19:17","新北市新店區中央一街12號","121.528426666667","24.97262","6500600","新店區"
"231051","278-BY","2018/11/09 21:19:24","新北市新店區溪園路365-8號","121.521043333333","24.98074","6500600","新店區"
"231050","AAD-862","2018/11/09 21:19:23","新北市新店區中正路209號","121.540136666667","24.9726666666667","6500600","新店區"
"231063","641-BX","2018/11/09 21:19:22","新北市新店區玫瑰路57巷47號","121.497573333333","24.9464966666667","6500600","新店區"
"241011","013-R5","2018/11/09 21:19:21","新北市三重區龍濱路197號","121.50189","25.0713883333333","6500200","三重區"
"241028","022-UY","2018/11/09 21:19:16","新北市三重區正義南路169號","121.498963333333","25.0575266666667","6500200","三重區"
"241008","059-VK","2018/11/09 21:19:23","新北市三重區長壽西街143-1號","121.494573333333","25.0666033333333","6500200","三重區"
"241031","061-VK","2018/11/09 21:19:18","新北市三重區五谷王南街46巷37號","121.47574","25.0455183333333","6500200","三重區"
"241017","063-VK","2018/11/09 21:19:19","新北市三重區中正北路25巷2號","121.493266666667","25.0626816666667","6500200","三重區"
"241024","065-VK","2018/11/09 21:19:30","新北市三重區中正北路145巷14號","121.484163333333","25.0677866666667","6500200","三重區"
"241026","066-VK","2018/11/09 21:19:18","新北市三重區大同南路218號","121.496815","25.056375","6500200","三重區"
"241002","090-VK","2018/11/09 21:19:26","新北市三重區自強路五段43號","121.494186666667","25.08135","6500200","三重區"
"241003","091-VK","2018/11/09 21:19:10","新北市三重區仁義街220巷1號","121.49529","25.0841483333333","6500200","三重區"
"241005","262-UM","2018/11/09 21:19:23","新北市三重區五華街180巷15號","121.488296666667","25.085955","6500200","三重區"
"241023","265-UM","2018/11/09 21:19:16","新北市三重區中正北路176巷16號","121.482698333333","25.065885","6500200","三重區"
"241016","266-UM","2018/11/09 21:19:20","新北市三重區自強路一段158號","121.495795","25.0662283333333","6500200","三重區"
"241009","267-UM","2018/11/09 21:19:07","新北市三重區新北大道一段206巷48號","121.482523333333","25.0629616666667","6500200","三重區"
"241018","268-UM","2018/11/09 21:19:14","新北市三重區忠孝路二段99-1號","121.48404","25.06977","6500200","三重區"
"241032","269-UM","2018/11/09 21:19:25","新北市三重區光復路二段166號","121.472195","25.0608366666667","6500200","三重區"
"241013","270-UM","2018/11/09 21:19:12","新北市三重區仁愛街81-1號","121.495936666667","25.07317","6500200","三重區"
"241025","271-UM","2018/11/09 21:19:24","新北市三重區忠孝路三段40巷14號","121.482136666667","25.066355","6500200","三重區"
"241007","398-BY","2018/11/09 21:19:19","新北市三重區自強路三段114號","121.487093333333","25.0746866666667","6500200","三重區"
"241004","475-VK","2018/11/09 21:19:12","新北市三重區碧華街213號","121.488628333333","25.082845","6500200","三重區"
"241014","543-UM","2018/11/09 21:19:21","新北市三重區萬全街9號","121.499336666667","25.069705","6500200","三重區"
"241001","547-UM","2018/11/09 21:19:21","新北市三重區福隆路52號","121.492606666667","25.07862","6500200","三重區"
"241019","KEA-2593","2018/11/09 21:19:21","新北市三重區重陽路三段142-1號","121.4894","25.0670683333333","6500200","三重區"
"241006","AAD-863","2018/11/09 21:19:24","新北市三重區新北大道一段76號","121.486211666667","25.061465","6500200","三重區"
"241030","743-BX","2018/11/09 21:19:10","新北市三重區五谷王北街181-1號","121.47721","25.0542366666667","6500200","三重區"
"241033","AAC-255","2018/11/09 21:19:22","新北市三重區光復路二段102巷42號","121.469898333333","25.058135","6500200","三重區"
"247012","KEA-2869","2018/11/09 21:19:20","新北市蘆洲區集賢路224巷68號","121.480613333333","25.0883133333333","6501400","蘆洲區"
"247002","893-R6","2018/11/09 21:19:19","新北市蘆洲區永樂街90號","121.456708333333","25.0886083333333","6501400","蘆洲區"
"247024","500-BY","2018/11/09 21:19:13","新北市蘆洲區光明路92號","121.462918333333","25.0879966666667","6501400","蘆洲區"
"247014","339-TH","2018/11/09 21:19:29","新北市蘆洲區保和街50-1號","121.469556666667","25.0862166666667","6501400","蘆洲區"
"247006","337-TH","2018/11/09 21:19:26","新北市蘆洲區中華街25-1號","121.463491666667","25.0815166666667","6501400","蘆洲區"
"247008","336-TH","2018/11/09 21:19:12","新北市蘆洲區信義路74號","121.47643","25.0793","6501400","蘆洲區"
"247020","057-VK","2018/11/09 21:19:18","新北市蘆洲區民族路422巷82弄14號","121.473886666667","25.0939233333333","6501400","蘆洲區"
"247010","056-VK","2018/11/09 21:19:17","新北市蘆洲區鷺江街16-2號","121.478836666667","25.0824916666667","6501400","蘆洲區"
"247018","007-UY","2018/11/09 21:19:11","新北市蘆洲區復興路58號","121.474111666667","25.0861566666667","6501400","蘆洲區"
"247004","002-UY","2018/11/09 21:19:27","新北市蘆洲區永安南路二段348號","121.456553333333","25.08291","6501400","蘆洲區"
"247022","001-UY","2018/11/09 21:19:14","新北市蘆洲區民族路500號","121.469613333333","25.0904066666667","6501400","蘆洲區"
"251005","010-UM","2018/11/09 21:19:09","新北市淡水區水源街一段122巷40號","121.446991666667","25.1705416666667","6501000","淡水區"
"251001","011-UM","2018/11/09 21:19:24","新北市淡水區濱海路一段306巷60弄33號","121.441945","25.1916683333333","6501000","淡水區"
"251008","181-VK","2018/11/09 21:19:30","新北市淡水區水源街二段238號","121.461025","25.17633","6501000","淡水區"
"251010","413-VK","2018/11/09 21:19:14","新北市淡水區中正路一段156巷51號","121.421805","25.181","6501000","淡水區"
"251012","441-VK","2018/11/09 21:19:16","新北市淡水區淡金路五段35巷46號","121.452476666667","25.234745","6501000","淡水區"
"251007","442-VK","2018/11/09 21:19:18","新北市淡水區水源街二段194號","121.456996666667","25.1761633333333","6501000","淡水區"
"251006","561-UM","2018/11/09 21:19:19","新北市淡水區中正路一段102號","121.424028333333","25.1778033333333","6501000","淡水區"
"251009","575-R6","2018/11/09 21:19:24","新北市淡水區民族路33號","121.462331666667","25.1357666666667","6501000","淡水區"
"251011","650-BX","2018/11/09 21:19:15","新北市淡水區新民街120巷29號","121.438915","25.1788166666667","6501000","淡水區"
"251003","673-BX","2018/11/09 21:19:27","新北市淡水區崁頂15-5號","121.438981666667","25.1858983333333","6501000","淡水區"
"220070","AAC-253","2018/11/09 21:19:23","新北市八里區荖阡坑路41-3號","121.400351666667","25.1314983333333","6500100","板橋區"
