"lineid","car","time","location","longitude","latitude","cityid","cityname"
"247007","336-TH","2018/11/09 22:29:12","新北市五股區中興路三段2巷10號","121.44906","25.0811016666667","6501400","蘆洲區"
"251001","011-UM","2018/11/09 22:29:24","新北市淡水區下圭柔山91-3號","121.431205","25.2099633333333","6501000","淡水區"
"251008","181-VK","2018/11/09 22:29:12","新北市淡水區學府路104號","121.449841666667","25.171765","6501000","淡水區"
"251010","413-VK","2018/11/09 22:29:14","新北市淡水區沙崙路200號","121.424686666667","25.18391","6501000","淡水區"
"251007","442-VK","2018/11/09 22:29:18","新北市淡水區北新路180號","121.449383333333","25.1788133333333","6501000","淡水區"
"251004","443-VK","2018/11/09 22:29:12","新北市淡水區民族路33號","121.462243333333","25.135815","6501000","淡水區"
"251011","650-BX","2018/11/09 22:29:15","新北市淡水區水碓街15-1號","121.443271666667","25.17719","6501000","淡水區"
