"lineid","car","time","location","longitude","latitude","cityid","cityname"
"248004","653-BX","2018/11/10 06:59:20","新北市五股區中興路二段103巷14號","121.458368333333","25.0764833333333","6501500","五股區"
"232004","290-BY","2018/11/10 06:59:25","新北市坪林區坪雙路一段55號","121.713001666667","24.9434816666667","6502000","坪林區"
"232016","291-BY","2018/11/10 06:59:30","新北市坪林區仁里10號","121.692016666667","24.9319366666667","6502000","坪林區"
"232010","375-UM","2018/11/10 06:59:28","新北市坪林區水聳淒坑15-3號","121.72264","24.9291616666667","6502000","坪林區"
"232009","758-BX","2018/11/10 06:59:34","新北市坪林區九芎林25號","121.703793333333","24.9248783333333","6502000","坪林區"
"244005","248-BX","2018/11/10 06:59:22","新北市林口區中山路248號","121.38651","25.0793316666667","6501700","林口區"
"235001","611-BX","2018/11/10 06:59:32","新北市中和區圓通路367巷4號","121.491378333333","24.989265","6500300","中和區"
"223006","022-BY","2018/11/10 06:59:27","新北市石碇區新興坑27號","121.650643333333","25.016345","6501900","石碇區"
"223002","KEA-2673","2018/11/10 06:59:16","新北市石碇區小粗坑(格頭里)3-1號","121.651338333333","24.9582716666667","6501900","石碇區"
"223003","205-TH","2018/11/10 06:59:28","新北市石碇區碇坪路一段132號","121.659511666667","24.9912216666667","6501900","石碇區"
"223008","406-TH","2018/11/10 06:59:23","新北市石碇區十八重溪60-1號","121.675006666667","25.0137883333333","6501900","石碇區"
"223004","437-BY","2018/11/10 06:59:31","新北市石碇區碇坪路一段56號","121.656991666667","24.991485","6501900","石碇區"
"223001","592-UM","2018/11/10 06:59:29","新北市石碇區石碇東街46號","121.65971","24.99108","6501900","石碇區"
"223007","661-BX","2018/11/10 06:59:35","新北市石碇區十八重溪45號","121.675616666667","25.0125383333333","6501900","石碇區"
"223005","677-TV","2018/11/10 06:59:30","新北市石碇區碇坪路一段62號","121.65716","24.9914766666667","6501900","石碇區"
"227006","282-VK","2018/11/10 06:59:25","新北市雙溪區新基里自強路5號","121.866305","25.0390633333333","6502500","雙溪區"
"252005","AAC-283","2018/11/10 06:59:18","新北市三芝區埔坪里埔頭坑43號","121.504605","25.2617716666667","6502100","三芝區"
