"lineid","car","time","location","longitude","latitude","cityid","cityname"
"248005","653-BX","2018/03/20 07:41:49","新北市五股區明德路12巷6號","121.433328333333","25.0718516666667","6501500","五股區"
"244002","248-BX","2018/03/20 07:58:56","新北市林口區下福里66號","121.309216666667","25.114715","6501700","林口區"
"222004","289-BY","2018/03/20 07:48:43","新北市深坑區文化街45號","121.616941666667","25.00171","6501800","深坑區"
"231007","189-VK","2018/03/20 07:59:13","新北市新店區安康路一段84號","121.52809","24.9619133333333","6500600","新店區"
"231009","192-VK","2018/03/20 07:59:13","新北市新店區安華路28-1號","121.519233333333","24.9613533333333","6500600","新店區"
"235001","611-BX","2018/03/20 07:59:16","新北市中和區圓通路367巷4號","121.491393333333","24.9893033333333","6500300","中和區"
"226005","5620-A6","2018/03/20 07:59:30","新北市平溪區靜安路二段522號","121.744513333333","25.0272316666667","6502400","平溪區"
"226002","7418-A5","2018/03/20 07:59:23","新北市平溪區南山里乾坑11號","121.782791666667","25.0472066666667","6502400","平溪區"
"226003","AGD-0702","2018/03/20 07:59:18","新北市平溪區十分里十分街56-1號","121.775345","25.0415583333333","6502400","平溪區"
"223006","022-BY","2018/03/20 07:59:27","新北市石碇區摸乳巷5-1號","121.660423333333","24.985475","6501900","石碇區"
"223001","205-TH","2018/03/20 07:59:18","新北市石碇區崩山36-1號","121.672913333333","24.95806","6501900","石碇區"
"223008","406-TH","2018/03/20 07:59:29","新北市石碇區靜安路一段253號","121.692796666667","25.0066416666667","6501900","石碇區"
"223001","592-UM","2018/03/20 07:59:26","新北市石碇區橫坪2-2號","121.667275","24.9725583333333","6501900","石碇區"
"223004","660-BX","2018/03/20 07:59:32","新北市深坑區文山路一段8號","121.644751666667","25.008885","6501900","石碇區"
"223007","661-BX","2018/03/20 07:59:16","新北市石碇區蚯蚓坑1號","121.693013333333","25.006705","6501900","石碇區"
"223005","677-TV","2018/03/20 07:59:19","新北市石碇區碇坪路一段18號","121.651683333333","25.00564","6501900","石碇區"
"227006","282-VK","2018/03/20 07:59:28","新北市雙溪區平林里梅竹蹊16號","121.862056666667","25.036025","6502500","雙溪區"
"252004","249-BX","2018/03/20 07:59:24","新北市三芝區興華里車埕36-10號","121.505771666667","25.19313","6502100","三芝區"
"252007","AAC-283","2018/03/20 07:59:15","新北市三芝區後厝里土地公坑61-2號","121.464183333333","25.2473533333333","6502100","三芝區"
"237001","159-UY","2018/03/20 07:59:15","新北市三峽區大學路86-3號","121.37564","24.9425983333333","6500900","三峽區"
"236008","165-UM","2018/03/20 07:59:13","新北市土城區青雲路245號","121.459061666667","24.981085","6501300","土城區"
"236002","339-SR","2018/03/20 07:59:22","新北市土城區龍泉路43-4號","121.417843333333","24.9433666666667","6501300","土城區"
"220027","461-BY","2018/03/20 07:59:13","新北市新莊區新莊路751巷68號","121.442333333333","25.031075","6500100","板橋區"
