"lineid","car","time","location","longitude","latitude","cityid","cityname"
"248005","653-BX","2018/03/20 08:06:47","新北市五股區明德路12巷6號","121.433393333333","25.07178","6501500","五股區"
"244002","248-BX","2018/03/20 08:09:16","新北市林口區下福里28-2號","121.306185","25.1114866666667","6501700","林口區"
"222004","289-BY","2018/03/20 08:09:22","新北市深坑區文化街66號","121.6186","25.0017933333333","6501800","深坑區"
"231007","189-VK","2018/03/20 08:09:13","新北市新店區新潭路一段22巷2號","121.523028333333","24.94306","6500600","新店區"
"231009","192-VK","2018/03/20 08:09:13","新北市新店區北新路一段91號","121.538993333333","24.96183","6500600","新店區"
"235001","611-BX","2018/03/20 08:09:16","新北市中和區圓通路367巷33弄66號","121.495771666667","24.984405","6500300","中和區"
"226005","5620-A6","2018/03/20 08:09:10","新北市平溪區南山里南山坪58號","121.775913333333","25.04001","6502400","平溪區"
"226002","7418-A5","2018/03/20 08:09:23","新北市平溪區十分里姜仔坑2號","121.766518333333","25.0352666666667","6502400","平溪區"
"226003","AGD-0702","2018/03/20 08:09:18","新北市平溪區新寮里石碣7號","121.787845","25.0583","6502400","平溪區"
"223006","022-BY","2018/03/20 08:09:27","新北市石碇區八分寮47-1號","121.643203333333","25.0137433333333","6501900","石碇區"
"223001","205-TH","2018/03/20 08:00:18","新北市石碇區崩山36-1號","121.672016666667","24.9582283333333","6501900","石碇區"
"223008","406-TH","2018/03/20 08:09:29","新北市石碇區靜安路一段196號","121.672255","25.00668","6501900","石碇區"
"223001","592-UM","2018/03/20 08:04:06","新北市石碇區樟空子1號","121.666563333333","24.9592366666667","6501900","石碇區"
"223004","660-BX","2018/03/20 08:09:32","新北市石碇區外按16-1號","121.65077","24.9974583333333","6501900","石碇區"
"223007","661-BX","2018/03/20 08:09:26","新北市石碇區靜安路一段196號","121.67223","25.00664","6501900","石碇區"
"223005","677-TV","2018/03/20 08:09:19","新北市石碇區外按16-1號","121.650813333333","24.9974116666667","6501900","石碇區"
"227006","282-VK","2018/03/20 08:09:08","新北市雙溪區牡丹里中正路69號","121.863925","25.04381","6502500","雙溪區"
"252004","249-BX","2018/03/20 08:09:24","新北市三芝區興華里車埕16號","121.50239","25.1978383333333","6502100","三芝區"
"252007","AAC-283","2018/03/20 08:09:15","新北市三芝區後厝里大片頭101-3號","121.46271","25.240125","6502100","三芝區"
"237001","159-UY","2018/03/20 08:09:24","新北市三峽區大學路112號","121.37476","24.9437383333333","6500900","三峽區"
"236008","165-UM","2018/03/20 08:09:13","新北市土城區青雲路587巷8號","121.463713333333","24.970895","6501300","土城區"
"236002","339-SR","2018/03/20 08:09:22","新北市土城區龍泉路22號","121.41039","24.9482716666667","6501300","土城區"
"236006","498-BY","2018/03/20 08:09:24","新北市土城區永平街51號","121.427571666667","24.959125","6501300","土城區"
"220027","461-BY","2018/03/20 08:09:12","新北市五股區新五路二段68號","121.436933333333","25.073395","6500100","板橋區"
