"lineid","car","time","location","longitude","latitude","cityid","cityname"
"248005","653-BX","2018/03/20 08:27:16","新北市五股區明德路12巷1號","121.433283333333","25.0717266666667","6501500","五股區"
"244002","248-BX","2018/03/20 08:29:16","新北市林口區下福87號","121.289576666667","25.11191","6501700","林口區"
"222004","289-BY","2018/03/20 08:29:28","新北市深坑區昇高坑路30號","121.626951666667","25.0002883333333","6501800","深坑區"
"231007","189-VK","2018/03/20 08:29:13","新北市新店區小坑二路17號","121.527373333333","24.914585","6500600","新店區"
"231009","192-VK","2018/03/20 08:29:13","新北市新店區新烏路一段123-1號","121.544975","24.937455","6500600","新店區"
"235001","611-BX","2018/03/20 08:29:16","新北市中和區新生街113號","121.483491666667","25.0020333333333","6500300","中和區"
"226005","5620-A6","2018/03/20 08:29:30","新北市平溪區南山里六分11-1號","121.797873333333","25.0498516666667","6502400","平溪區"
"226002","7418-A5","2018/03/20 08:29:22","新北市平溪區東勢里芊蓁林61號","121.75039","25.0053733333333","6502400","平溪區"
"226003","AGD-0702","2018/03/20 08:29:18","新北市平溪區十分里十分街239號","121.778006666667","25.0441616666667","6502400","平溪區"
"223006","022-BY","2018/03/20 08:29:27","新北市石碇區石碇西街21號","121.658656666667","24.98752","6501900","石碇區"
"223001","205-TH","2018/03/20 08:29:18","新北市石碇區北宜路六段塗潭巷15號","121.649871666667","24.9320616666667","6501900","石碇區"
"223008","406-TH","2018/03/20 08:29:29","新北市石碇區碇南路二段松柏崎巷37-1號","121.678751666667","25.0233966666667","6501900","石碇區"
"223001","592-UM","2018/03/20 08:29:26","新北市石碇區北宜路六段塗潭巷15號","121.649813333333","24.9321333333333","6501900","石碇區"
"223004","660-BX","2018/03/20 08:29:12","新北市石碇區碇坪路一段282號","121.676605","24.9766166666667","6501900","石碇區"
"223007","661-BX","2018/03/20 08:29:13","新北市石碇區碇南路二段5-1號","121.670251666667","25.0246833333333","6501900","石碇區"
"223005","677-TV","2018/03/20 08:29:19","新北市石碇區碇坪路一段282號","121.676533333333","24.9767883333333","6501900","石碇區"
"227006","282-VK","2018/03/20 08:29:28","新北市雙溪區平林里竹寮坑10號","121.843403333333","25.0438633333333","6502500","雙溪區"
"252004","249-BX","2018/03/20 08:29:24","新北市三芝區店子里店子72號","121.500816666667","25.2049","6502100","三芝區"
"252007","AAC-283","2018/03/20 08:29:15","新北市三芝區蘭陽街67號","121.475796666667","25.2420116666667","6502100","三芝區"
"237001","159-UY","2018/03/20 08:29:15","新北市三峽區大觀路24號","121.37498","24.9447866666667","6500900","三峽區"
"236008","165-UM","2018/03/20 08:29:12","新北市土城區金城路二段46巷3-3號","121.455726666667","24.9759233333333","6501300","土城區"
"236002","339-SR","2018/03/20 08:29:22","新北市土城區大暖路61-2號","121.422158333333","24.95811","6501300","土城區"
"236006","498-BY","2018/03/20 08:29:24","新北市土城區中央路四段47號","121.422333333333","24.9617383333333","6501300","土城區"
"220027","461-BY","2018/03/20 08:29:12","新北市八里區中山路三段409號","121.368453333333","25.1350133333333","6500100","板橋區"
