"lineid","car","time","location","longitude","latitude","cityid","cityname"
"248005","653-BX","2018/03/20 09:39:13","新北市五股區成泰路一段87-1號","121.43497","25.068925","6501500","五股區"
"222004","289-BY","2018/03/20 09:39:18","新北市深坑區公館後13號","121.60229","24.9925316666667","6501800","深坑區"
"231007","189-VK","2018/03/20 09:39:13","新北市新店區新潭路三段256號","121.50816","24.9039783333333","6500600","新店區"
"231009","192-VK","2018/03/20 09:38:53","新北市新店區平廣路一段221號","121.511393333333","24.8890166666667","6500600","新店區"
"223005","677-TV","2018/03/20 09:28:26","新北市石碇區小粗坑(潭邊里)6號","121.675041666667","24.9841733333333","6501900","石碇區"
"227006","282-VK","2018/03/20 09:36:08","新北市雙溪區長源里柑腳58-1號","121.794126666667","25.005625","6502500","雙溪區"
"227012","030-BX","2018/03/20 09:34:01","新北市雙溪區泰平里烏山路25號","121.790855","24.9467366666667","6502500","雙溪區"
"252004","249-BX","2018/03/20 09:36:24","新北市三芝區圓山里石曹子坑66-2號","121.520088333333","25.2153933333333","6502100","三芝區"
"252007","AAC-283","2018/03/20 09:39:15","新北市三芝區新庄里新庄子92號","121.510488333333","25.2684333333333","6502100","三芝區"
"236008","165-UM","2018/03/20 09:39:12","新北市土城區中央路四段321巷34弄5號","121.41272","24.9509266666667","6501300","土城區"
"236002","339-SR","2018/03/20 09:39:22","新北市土城區中央路四段21號","121.425153333333","24.962555","6501300","土城區"
"236006","498-BY","2018/03/20 09:39:27","新北市土城區千歲路33號","121.44213","24.9684533333333","6501300","土城區"
