"lineid","car","time","location","longitude","latitude","cityid","cityname"
"234036","336-UY","2018/03/20 12:19:19","新北市永和區福和路1號","121.526446666667","25.0101166666667","6500400","永和區"
"234066","553-UM","2018/03/20 12:01:22","新北市永和區福和路1號","121.52631","25.0096616666667","6500400","永和區"
"234040","862-TW","2018/03/20 12:19:27","新北市永和區福和路1號","121.526098333333","25.009785","6500400","永和區"
"235025","378-QA","2018/03/20 12:15:52","新北市中和區和城路一段271巷1號","121.485466666667","24.9916833333333","6500300","中和區"
"228005","097-TW","2018/03/20 12:19:36","新北市貢寮區福連里福興街37-1號","121.99203","25.0113883333333","6502600","貢寮區"
"228004","212-TW","2018/03/20 12:19:35","新北市貢寮區貢寮里長泰路15號","121.89677","25.0207766666667","6502600","貢寮區"
"224011","420-VK","2018/03/20 12:19:30","新北市瑞芳區明燈路二段66號","121.80934","25.1076433333333","6501200","瑞芳區"
