"lineid","car","time","location","longitude","latitude","cityid","cityname"
"234044","148-BY","2018/03/20 13:29:25","新北市永和區秀朗路二段247號","121.526345","24.9995433333333","6500400","永和區"
"234072","149-BY","2018/03/20 13:29:26","新北市永和區永和路二段100號","121.515048333333","25.01192","6500400","永和區"
"234005","207-UY","2018/03/20 13:29:25","新北市永和區中山路一段174號","121.509185","25.0090366666667","6500400","永和區"
"234078","298-R6","2018/03/20 13:29:22","新北市永和區環河東路三段54號","121.526668333333","25.0061483333333","6500400","永和區"
"234036","336-UY","2018/03/20 13:29:21","新北市永和區成功路二段1巷11號","121.52743","25.0015483333333","6500400","永和區"
"234062","337-UY","2018/03/20 13:29:20","新北市永和區中正路368巷1弄88號","121.520496666667","25.0007316666667","6500400","永和區"
"234084","338-UY","2018/03/20 13:29:25","新北市永和區林森路41巷1號","121.525073333333","25.0046516666667","6500400","永和區"
"234068","552-UM","2018/03/20 13:29:23","新北市永和區竹林路182號","121.520378333333","25.0097483333333","6500400","永和區"
"234066","553-UM","2018/03/20 13:29:38","新北市永和區永貞路396號","121.50933","25.0075266666667","6500400","永和區"
"234015","745-BX","2018/03/20 13:29:25","新北市永和區環河西路一段1號","121.51526","25.0180983333333","6500400","永和區"
"234028","746-BX","2018/03/20 13:29:20","新北市永和區民生路69號","121.522625","24.9972183333333","6500400","永和區"
"234052","KEA-2590","2018/03/20 13:29:28","新北市永和區永和路二段170號","121.515466666667","25.01308","6500400","永和區"
"234012","KEA-2591","2018/03/20 13:29:24","新北市永和區永平路220號","121.509193333333","25.0104683333333","6500400","永和區"
"234060","AAD-866","2018/03/20 13:29:32","新北市永和區中正路532號","121.517245","25.0052066666667","6500400","永和區"
"234040","862-TW","2018/03/20 13:29:27","新北市永和區水源街46號","121.510598333333","25.0043966666667","6500400","永和區"
"234048","863-TW","2018/03/20 13:29:23","新北市永和區仁愛路86號","121.512616666667","25.0133366666667","6500400","永和區"
"234025","9371-KE","2018/03/20 13:29:22","新北市永和區永和路一段208號","121.5143","25.0093933333333","6500400","永和區"
"234010","9373-KE","2018/03/20 13:29:26","新北市永和區仁愛路141巷30弄26號","121.512001666667","25.0114966666667","6500400","永和區"
"248017","225-UY","2018/03/20 13:29:16","新北市五股區御史路300號","121.417761666667","25.1082416666667","6501500","五股區"
"234022","9380-KE","2018/03/20 13:29:27","新北市永和區豫溪街171巷2號","121.522083333333","25.0104366666667","6500400","永和區"
"234076","969-R7","2018/03/20 13:29:35","新北市永和區智光街32巷1號","121.51776","24.998735","6500400","永和區"
"234001","AAC-295","2018/03/20 13:29:20","新北市永和區永和路一段136號","121.514006666667","25.0079883333333","6500400","永和區"
"244002","248-BX","2018/03/20 13:29:28","新北市林口區頂福里5-5號","121.360033333333","25.0830983333333","6501700","林口區"
"231002","002-UM","2018/03/20 13:29:17","新北市新店區環河路62號","121.537115","24.9626766666667","6500600","新店區"
"231025","0293-UT","2018/03/20 13:29:29","新北市新店區中央七街61巷5號","121.528491666667","24.9765283333333","6500600","新店區"
"231028","046-UY","2018/03/20 13:29:31","新北市新店區安康路一段355號","121.519913333333","24.9637266666667","6500600","新店區"
"231030","047-UY","2018/03/20 13:29:33","新北市新店區安康路一段351-1號","121.519598333333","24.963915","6500600","新店區"
"231029","106-UY","2018/03/20 13:29:23","新北市新店區安豐路22巷20號","121.503111666667","24.95456","6500600","新店區"
"231018","107-UY","2018/03/20 13:29:28","新北市新店區環河路111號","121.530658333333","24.9704966666667","6500600","新店區"
"231012","108-UY","2018/03/20 13:29:36","新北市新店區寶橋路6巷4號","121.543346666667","24.9735083333333","6500600","新店區"
"231020","187-VK","2018/03/20 13:29:25","新北市新店區新烏路一段107號","121.545793333333","24.940465","6500600","新店區"
"231026","188-VK","2018/03/20 13:29:21","新北市新店區安康路一段35號","121.531585","24.9608116666667","6500600","新店區"
"231015","KEA-2219","2018/03/20 13:29:18","新北市新店區新烏路一段11巷11號","121.547546666667","24.9511033333333","6500600","新店區"
"231010","278-BY","2018/03/20 13:29:19","新北市新店區自由街22號","121.535098333333","24.9745916666667","6500600","新店區"
"231023","AAD-862","2018/03/20 13:29:34","新北市新店區新店路13號","121.54032","24.9528683333333","6500600","新店區"
"231027","3712-VJ","2018/03/20 13:29:32","新北市新店區新店後街96號","121.537586666667","24.9550966666667","6500600","新店區"
"231024","4716-K9","2018/03/20 13:29:28","新北市新店區北新路二段29巷3弄1號","121.542245","24.9730183333333","6500600","新店區"
"231038","4715-K9","2018/03/20 13:29:29","新北市新店區安華路28-1號","121.519336666667","24.960625","6500600","新店區"
"231036","512-UM","2018/03/20 13:29:22","新北市新店區建業路90號","121.47965","24.9553516666667","6500600","新店區"
"231013","513-UM","2018/03/20 13:29:18","新北市新店區中正路454-5號","121.534423333333","24.9790883333333","6500600","新店區"
"231035","515-UM","2018/03/20 13:29:32","新北市新店區安康路一段355號","121.519896666667","24.96383","6500600","新店區"
"231006","617-UM","2018/03/20 13:29:35","新北市新店區安康路一段35-5號","121.531921666667","24.96067","6500600","新店區"
"231001","619-UM","2018/03/20 13:29:23","新北市新店區安康路一段20號","121.53101","24.9610883333333","6500600","新店區"
"231003","641-BX","2018/03/20 13:29:24","新北市新店區北新路一段98號","121.542026666667","24.968865","6500600","新店區"
"231034","645-TV","2018/03/20 13:29:26","新北市新店區車子路110號","121.50523","24.952075","6500600","新店區"
"231032","720-UM","2018/03/20 13:29:29","新北市新店區車子路115-11號","121.506771666667","24.9544866666667","6500600","新店區"
"231005","897-TW","2018/03/20 13:29:27","新北市新店區安康路一段3-1號","121.535456666667","24.96097","6500600","新店區"
"231004","899-TW","2018/03/20 13:29:20","新北市新店區安康路一段79巷1號","121.52981","24.96125","6500600","新店區"
"231037","AKT-0513","2018/03/20 13:29:21","新北市新店區薏仁坑路35-1號","121.493061666667","24.9629183333333","6500600","新店區"
"235030","003-UY","2018/03/20 13:29:28","新北市中和區中山路二段120號","121.502776666667","25.0037666666667","6500300","中和區"
"235028","005-UY","2018/03/20 13:29:32","新北市中和區圓通路141巷41-1號","121.498773333333","24.994505","6500300","中和區"
"235027","006-UY","2018/03/20 13:29:15","新北市中和區連城路347巷2弄2號","121.487998333333","24.9958516666667","6500300","中和區"
"235020","096-UM","2018/03/20 13:29:23","新北市中和區中正路747號","121.485041666667","24.9997483333333","6500300","中和區"
"235003","097-UM","2018/03/20 13:29:33","新北市中和區景平路166號","121.517065","24.992235","6500300","中和區"
"235029","098-UM","2018/03/20 13:29:16","新北市中和區莊敬路49巷10弄15號","121.502321666667","25.0055916666667","6500300","中和區"
"235004","150-BY","2018/03/20 13:08:30","新北市中和區和城路一段271巷1號","121.48543","24.9916983333333","6500300","中和區"
"235022","151-BY","2018/03/20 13:29:20","新北市中和區圓通路369巷102號","121.489283333333","24.9815483333333","6500300","中和區"
"235019","183-VK","2018/03/20 13:29:23","新北市中和區莒光路207號","121.470018333333","24.9956266666667","6500300","中和區"
"235002","185-VK","2018/03/20 13:29:32","新北市中和區立人街14巷26號","121.519528333333","24.995415","6500300","中和區"
"235013","186-VK","2018/03/20 13:29:34","新北市中和區景安路179號","121.505136666667","24.993975","6500300","中和區"
"235031","255-BX","2018/03/20 13:29:33","新北市中和區連城路340巷14弄20號","121.482856666667","24.99728","6500300","中和區"
"235036","301-VK","2018/03/20 13:29:32","新北市中和區板南路335號","121.494265","24.9977466666667","6500300","中和區"
"235007","352-BY","2018/03/20 13:29:34","新北市中和區景平路341號","121.505301666667","24.993295","6500300","中和區"
"235032","377-QA","2018/03/20 13:29:14","新北市中和區圓通路232巷14號","121.49516","24.9932783333333","6500300","中和區"
"235025","378-QA","2018/03/20 13:29:24","新北市中和區民享街91巷2號","121.474843333333","25.0007266666667","6500300","中和區"
"235035","269-TV","2018/03/20 13:29:28","新北市中和區永和路458巷2弄12號","121.484671666667","25.01205","6500300","中和區"
"235014","4979-A6","2018/03/20 13:29:30","新北市中和區景新街410巷18弄12號","121.512018333333","24.9895816666667","6500300","中和區"
"235033","4980-A6","2018/03/20 13:29:26","新北市中和區連城路127巷33號","121.49731","24.9973083333333","6500300","中和區"
"235006","551-UM","2018/03/20 13:29:33","新北市中和區景平路64巷18號","121.522411666667","24.9912883333333","6500300","中和區"
"235034","558-UM","2018/03/20 13:29:23","新北市中和區景平路433號","121.501158333333","24.9956466666667","6500300","中和區"
"235009","565-BX","2018/03/20 13:29:18","新北市中和區南山路236巷20弄8號","121.505701666667","24.9894366666667","6500300","中和區"
"235018","640-BX","2018/03/20 13:29:19","新北市中和區民享街91-11號","121.474608333333","25.0007966666667","6500300","中和區"
"235024","647-TV","2018/03/20 13:29:31","新北市中和區員山路179號","121.481186666667","24.9969183333333","6500300","中和區"
"235011","732-UM","2018/03/20 13:29:30","新北市中和區中正路190-1號","121.49785","24.994025","6500300","中和區"
"235026","800-TS","2018/03/20 13:29:28","新北市中和區景平路741號","121.496341666667","25.0045083333333","6500300","中和區"
"235021","801-TS","2018/03/20 13:29:30","新北市中和區民享街97巷19號","121.475465","24.9995816666667","6500300","中和區"
"235005","802-TS","2018/03/20 13:29:36","新北市中和區中和路324巷6弄1號","121.509761666667","25.00057","6500300","中和區"
"235016","805-TS","2018/03/20 13:29:27","新北市中和區興南路二段149號","121.504885","24.9838516666667","6500300","中和區"
"235012","896-TW","2018/03/20 13:29:29","新北市中和區中正路637巷60弄61號","121.485418333333","24.99273","6500300","中和區"
"235017","900-TW","2018/03/20 13:29:23","新北市中和區民享街463號","121.47007","24.992805","6500300","中和區"
"235015","157-BY","2018/03/20 13:29:23","新北市中和區興南路二段128巷7弄6號","121.503091666667","24.9838983333333","6500300","中和區"
"235001","AAC-213","2018/03/20 13:29:15","新北市中和區景德街95-10號","121.515125","24.99113","6500300","中和區"
"220034","073-UY","2018/03/20 13:29:22","新北市板橋區華東街300號","121.45279","25.00284","6500100","板橋區"
"247007","056-VK","2018/03/20 13:29:35","新北市五股區新五路二段258號","121.440611666667","25.08213","6501400","蘆洲區"
"247017","001-UY","2018/03/20 13:29:24","新北市五股區中興路三段163號","121.449233333333","25.0807216666667","6501400","蘆洲區"
"228005","097-TW","2018/03/20 13:29:36","新北市貢寮區美豐里文秀坑8號","121.902478333333","25.0503466666667","6502600","貢寮區"
"228004","212-TW","2018/03/20 13:28:55","新北市貢寮區龍崗里石壁坑街17號","121.9104","24.98945","6502600","貢寮區"
"207002","749-BX","2018/03/20 13:29:18","新北市萬里區崁腳里崁腳路166號","121.645015","25.1558533333333","6502800","萬里區"
"252005","073-UM","2018/03/20 13:29:31","新北市三芝區圓山里木屐寮38號","121.530431666667","25.2267416666667","6502100","三芝區"
"207001","662-BX","2018/03/20 13:29:29","新北市萬里區大鵬里萬里加投9號","121.652515","25.2089466666667","6502800","萬里區"
"236006","498-BY","2018/03/20 13:29:26","新北市土城區亞洲路11巷1弄3號","121.435116666667","24.9717083333333","6501300","土城區"
"242026","615-BX","2018/03/20 13:29:24","新北市新莊區中華路二段245號","121.452088333333","25.05384","6500500","新莊區"
"242048","172-VK","2018/03/20 13:29:25","新北市新莊區中正路891-26號","121.415128333333","25.0229116666667","6500500","新莊區"
"221032","280-BY","2018/03/20 13:29:35","新北市汐止區復興路12巷7號","121.655188333333","25.06437","6501100","汐止區"
"220027","145-BY","2018/03/20 13:29:24","新北市板橋區大觀路二段101巷4號","121.446523333333","25.0015133333333","6500100","板橋區"
"220030","610-BX","2018/03/20 13:29:16","新北市板橋區華東街1-10號","121.448303333333","24.9949733333333","6500100","板橋區"
"220020","277-BY","2018/03/20 13:29:23","新北市板橋區華東街1-10號","121.448446666667","24.9950466666667","6500100","板橋區"
"220012","282-UM","2018/03/20 13:29:30","新北市板橋區華東街300號","121.452871666667","25.00278","6500100","板橋區"
"220019","283-VK","2018/03/20 13:29:24","新北市板橋區華東街1-9號","121.448091666667","24.9948766666667","6500100","板橋區"
"220031","286-VK","2018/03/20 13:29:18","新北市板橋區華東街1-10號","121.448336666667","24.9950066666667","6500100","板橋區"
"220029","287-VK","2018/03/20 13:29:28","新北市板橋區華東街1-10號","121.448305","24.9950316666667","6500100","板橋區"
"220023","303-R5","2018/03/20 13:29:30","新北市板橋區華東街1-10號","121.448255","24.9949833333333","6500100","板橋區"
"220104","560-BX","2018/03/20 13:29:26","新北市板橋區南雅西路二段145巷10號","121.451626666667","25.012065","6500100","板橋區"
"220005","686-BX","2018/03/20 13:29:17","新北市板橋區華東街1-9號","121.44825","24.99489","6500100","板橋區"
"220025","687-BX","2018/03/20 13:29:36","新北市板橋區篤行路一段30號","121.431903333333","24.9939833333333","6500100","板橋區"
"220002","741-BX","2018/03/20 13:29:15","新北市板橋區華東街1-9號","121.448145","24.9949","6500100","板橋區"
"220022","895-R6","2018/03/20 13:29:19","新北市板橋區華東街1-10號","121.448231666667","24.9949916666667","6500100","板橋區"
"220018","AAC-253","2018/03/20 13:29:16","新北市板橋區華東街1-10號","121.448311666667","24.994885","6500100","板橋區"
