"lineid","car","time","location","longitude","latitude","cityid","cityname"
"234044","148-BY","2018/03/20 14:09:25","新北市永和區得和路275號","121.522191666667","24.9997616666667","6500400","永和區"
"234072","149-BY","2018/03/20 14:09:26","新北市永和區豫溪街160巷1號","121.52339","25.0096716666667","6500400","永和區"
"234005","207-UY","2018/03/20 14:09:25","新北市中和區保平路372號","121.50624","25.0033466666667","6500400","永和區"
"234078","298-R6","2018/03/20 14:09:22","新北市永和區永亨路98號","121.52308","25.0048333333333","6500400","永和區"
"234036","336-UY","2018/03/20 14:09:19","新北市永和區成功路一段47巷21弄2號","121.52801","25.0039966666667","6500400","永和區"
"234062","337-UY","2018/03/20 14:09:20","新北市永和區永利路146號","121.522248333333","25.00278","6500400","永和區"
"234084","338-UY","2018/03/20 14:09:36","新北市永和區中正路553號","121.516866666667","25.008205","6500400","永和區"
"234068","552-UM","2018/03/20 14:09:27","新北市永和區永貞路10巷12號","121.520271666667","25.007335","6500400","永和區"
"234066","553-UM","2018/03/20 14:09:38","新北市永和區保平路238號","121.509301666667","25.00549","6500400","永和區"
"234015","745-BX","2018/03/20 14:09:25","新北市永和區仁愛路66號","121.513348333333","25.013295","6500400","永和區"
"234028","746-BX","2018/03/20 14:09:39","新北市永和區民權路49巷8號","121.520615","24.9970216666667","6500400","永和區"
"234052","KEA-2590","2018/03/20 14:09:28","新北市永和區博愛街20巷2號","121.517778333333","25.0158383333333","6500400","永和區"
"234012","KEA-2591","2018/03/20 14:09:38","新北市永和區保生路25-1號","121.50603","25.0073933333333","6500400","永和區"
"234060","AAD-866","2018/03/20 14:09:32","新北市永和區得和路11號","121.515235","25.0007116666667","6500400","永和區"
"234040","862-TW","2018/03/20 14:09:27","新北市永和區雙和街64巷25號","121.50977","25.0032916666667","6500400","永和區"
"234048","863-TW","2018/03/20 14:09:23","新北市永和區環河西路二段107號","121.506223333333","25.0148133333333","6500400","永和區"
"234025","9371-KE","2018/03/20 14:09:21","新北市永和區安樂路272巷7弄1號","121.514913333333","25.0042716666667","6500400","永和區"
"234010","9373-KE","2018/03/20 14:09:18","新北市永和區環河西路二段243號","121.500251666667","25.0093283333333","6500400","永和區"
"248017","225-UY","2018/03/20 14:09:36","新北市五股區民義路一段255-6號","121.426076666667","25.091475","6501500","五股區"
"234022","9380-KE","2018/03/20 14:09:27","新北市永和區博愛街32巷17-1號","121.518893333333","25.01525","6500400","永和區"
"234076","969-R7","2018/03/20 14:09:35","新北市永和區民族街67巷20號","121.519625","24.9971766666667","6500400","永和區"
"234001","AAC-295","2018/03/20 14:09:21","新北市永和區中正路708號","121.515988333333","25.01003","6500400","永和區"
"244002","248-BX","2018/03/20 14:09:28","新北市林口區竹林路266號","121.389673333333","25.08077","6501700","林口區"
"231002","002-UM","2018/03/20 14:09:16","新北市新店區中正路487號","121.533815","24.9820816666667","6500600","新店區"
"231025","0293-UT","2018/03/20 14:09:29","新北市新店區民族路192號","121.536068333333","24.97535","6500600","新店區"
"231028","046-UY","2018/03/20 14:09:31","新北市新店區安和路一段55號","121.517488333333","24.9662183333333","6500600","新店區"
"231030","047-UY","2018/03/20 14:09:33","新北市新店區安民街65巷21-2號","121.515195","24.967515","6500600","新店區"
"231029","106-UY","2018/03/20 14:09:23","新北市新店區安康路二段161號","121.510258333333","24.95937","6500600","新店區"
"231018","107-UY","2018/03/20 14:09:28","新北市新店區中央五街48-1號","121.528096666667","24.9752066666667","6500600","新店區"
"231012","108-UY","2018/03/20 14:09:36","新北市新店區中興路一段282-3號","121.54606","24.9682983333333","6500600","新店區"
"231020","187-VK","2018/03/20 14:09:26","新北市新店區桂山路51巷6-1號","121.562428333333","24.9014133333333","6500600","新店區"
"231015","KEA-2219","2018/03/20 14:09:38","新北市新店區中生路171號","121.576758333333","24.9494566666667","6500600","新店區"
"231023","AAD-862","2018/03/20 13:52:33","新北市新店區文中路45號","121.539548333333","24.956725","6500600","新店區"
"231027","3712-VJ","2018/03/20 14:09:32","新北市新店區光明街138巷13弄7號","121.540226666667","24.9615166666667","6500600","新店區"
"231024","4716-K9","2018/03/20 14:09:28","新北市新店區新生街13巷42號","121.538965","24.966615","6500600","新店區"
"231038","4715-K9","2018/03/20 14:09:29","新北市新店區溪洲路121號","121.53119","24.9628216666667","6500600","新店區"
"231036","512-UM","2018/03/20 14:09:22","新北市新店區安祥路109巷85弄39號","121.478836666667","24.9597116666667","6500600","新店區"
"231013","513-UM","2018/03/20 14:09:29","新北市新店區北新路三段65巷30號","121.540253333333","24.9810783333333","6500600","新店區"
"231035","515-UM","2018/03/20 14:09:32","新北市新店區安和路一段52巷2號","121.517611666667","24.9662616666667","6500600","新店區"
"231006","617-UM","2018/03/20 14:09:35","新北市新店區北宜路二段415號","121.559976666667","24.9544983333333","6500600","新店區"
"231001","619-UM","2018/03/20 14:09:23","新北市新店區中華路44號","121.539886666667","24.9682816666667","6500600","新店區"
"231003","641-BX","2018/03/20 14:09:24","新北市新店區中興路一段216號","121.543891666667","24.9657583333333","6500600","新店區"
"231034","645-TV","2018/03/20 14:09:26","新北市新店區黎明路3號","121.503358333333","24.9523433333333","6500600","新店區"
"231032","720-UM","2018/03/20 14:09:29","新北市新店區碧潭路33號","121.533643333333","24.9551716666667","6500600","新店區"
"231005","897-TW","2018/03/20 14:09:27","新北市新店區中興路三段301號","121.542026666667","24.9854433333333","6500600","新店區"
"231004","899-TW","2018/03/20 14:09:20","新北市新店區北新路二段96號","121.542968333333","24.9730933333333","6500600","新店區"
"231037","AKT-0513","2018/03/20 14:09:21","新北市新店區安康路二段341巷34號","121.496788333333","24.95441","6500600","新店區"
"235030","003-UY","2018/03/20 14:09:28","新北市中和區廣福路52號","121.503923333333","25.0019783333333","6500300","中和區"
"235028","005-UY","2018/03/20 14:09:32","新北市中和區泰和街38巷21號","121.498751666667","25.00081","6500300","中和區"
"235027","006-UY","2018/03/20 14:09:35","新北市中和區連城路249巷26弄12號","121.494038333333","24.9956833333333","6500300","中和區"
"235020","096-UM","2018/03/20 14:09:39","新北市中和區中山路二段678號","121.480051666667","25.0059583333333","6500300","中和區"
"235003","097-UM","2018/03/20 14:09:32","新北市中和區秀峰街52號","121.52118","24.9903333333333","6500300","中和區"
"235029","098-UM","2018/03/20 14:09:36","新北市中和區中山路二段2巷3弄1號","121.504881666667","25.0061816666667","6500300","中和區"
"235022","151-BY","2018/03/20 14:09:20","新北市中和區員山路106號","121.48107","24.99552","6500300","中和區"
"235019","183-VK","2018/03/20 14:09:23","新北市中和區中山路三段172號","121.47283","25.0063433333333","6500300","中和區"
"235002","185-VK","2018/03/20 14:09:32","新北市中和區大仁街10巷13號","121.51837","24.992605","6500300","中和區"
"235013","186-VK","2018/03/20 14:09:34","新北市中和區景新街174號","121.506125","24.996485","6500300","中和區"
"235031","255-BX","2018/03/20 13:42:33","新北市中和區新生街220巷4號","121.482856666667","24.9985883333333","6500300","中和區"
"235001","293-VK","2018/03/20 14:09:27","新北市中和區復興路325號","121.500763333333","24.990095","6500300","中和區"
"235036","301-VK","2018/03/20 14:09:32","新北市中和區莊敬路33巷6號","121.500563333333","25.00514","6500300","中和區"
"235007","352-BY","2018/03/20 14:09:34","新北市中和區景平路120號","121.519298333333","24.991725","6500300","中和區"
"235032","377-QA","2018/03/20 14:09:14","新北市中和區圓通路158巷3號","121.49773","24.9962316666667","6500300","中和區"
"235025","378-QA","2018/03/20 14:09:36","新北市中和區連城路456巷8號","121.478841666667","24.9952966666667","6500300","中和區"
"235035","269-TV","2018/03/20 14:09:28","新北市中和區橋和路81號","121.48923","25.0056866666667","6500300","中和區"
"235014","4979-A6","2018/03/20 14:09:30","新北市中和區復興路263巷9弄7號","121.503121666667","24.9898383333333","6500300","中和區"
"235033","4980-A6","2018/03/20 14:09:37","新北市中和區中和路165巷3-1號","121.502643333333","25.0002133333333","6500300","中和區"
"235006","551-UM","2018/03/20 14:09:33","新北市中和區自立路139巷7號","121.522606666667","24.99392","6500300","中和區"
"235034","558-UM","2018/03/20 14:09:23","新北市中和區枋寮街2號","121.502541666667","24.9998033333333","6500300","中和區"
"235009","565-BX","2018/03/20 14:09:19","新北市中和區景新街467巷35弄6號","121.514486666667","24.9891183333333","6500300","中和區"
"235018","640-BX","2018/03/20 14:09:19","新北市中和區國光街107巷2弄32號","121.469275","24.998995","6500300","中和區"
"235024","647-TV","2018/03/20 14:09:31","新北市中和區中山路三段97號","121.475261666667","25.006175","6500300","中和區"
"235011","732-UM","2018/03/20 14:09:30","新北市中和區捷運路6號","121.510255","24.9896566666667","6500300","中和區"
"235010","733-UM","2018/03/20 14:09:32","新北市中和區忠孝街1巷5號","121.508723333333","24.9833866666667","6500300","中和區"
"235026","800-TS","2018/03/20 14:09:28","新北市中和區中山路二段380巷39號","121.490745","25.0050383333333","6500300","中和區"
"235021","801-TS","2018/03/20 14:09:30","新北市中和區民利街50號","121.479333333333","24.9987816666667","6500300","中和區"
"235005","802-TS","2018/03/20 14:09:36","新北市中和區中安街178巷13弄1號","121.510221666667","24.9986933333333","6500300","中和區"
"235016","805-TS","2018/03/20 14:09:27","新北市中和區興南路二段142巷23號","121.503063333333","24.98375","6500300","中和區"
"235012","896-TW","2018/03/20 14:09:29","新北市中和區工專路147號","121.508398333333","24.9788333333333","6500300","中和區"
"235017","900-TW","2018/03/20 14:09:23","新北市中和區民德路260號","121.467973333333","24.996815","6500300","中和區"
"235015","157-BY","2018/03/20 14:09:23","新北市中和區興南路一段20-3號","121.511033333333","24.9911083333333","6500300","中和區"
"235001","AAC-213","2018/03/20 14:09:15","新北市中和區秀朗路三段60巷9號","121.52568","24.9950533333333","6500300","中和區"
"235023","AAC-215","2018/03/20 14:09:19","新北市中和區圓通路294巷17-5號","121.48863","24.99046","6500300","中和區"
"220034","073-UY","2018/03/20 14:09:22","新北市板橋區中正路216巷89號","121.458561666667","25.0191416666667","6500100","板橋區"
"220017","AAD-861","2018/03/20 14:09:19","新北市板橋區四川路一段104號","121.459605","25.0046683333333","6500100","板橋區"
"247023","893-R6","2018/03/20 14:09:28","新北市蘆洲區光榮路118-2號","121.465006666667","25.0889683333333","6501400","蘆洲區"
"247013","546-UM","2018/03/20 14:09:30","新北市蘆洲區忠孝路66號","121.471563333333","25.085265","6501400","蘆洲區"
"247021","500-BY","2018/03/20 14:09:34","新北市蘆洲區三民路173號","121.471115","25.08721","6501400","蘆洲區"
"247011","339-TH","2018/03/20 14:09:28","新北市蘆洲區信義路329號","121.478195","25.0866516666667","6501400","蘆洲區"
"247005","336-TH","2018/03/20 14:09:33","新北市蘆洲區永安南路二段16巷17弄3號","121.467628333333","25.077875","6501400","蘆洲區"
"247003","335-TH","2018/03/20 14:09:22","新北市蘆洲區長安街108巷37號","121.462143333333","25.0826816666667","6501400","蘆洲區"
"247017","057-VK","2018/03/20 14:09:22","新北市蘆洲區民族路227巷29號","121.476336666667","25.0885516666667","6501400","蘆洲區"
"247007","056-VK","2018/03/20 14:09:35","新北市蘆洲區中山一路415號","121.46892","25.0768416666667","6501400","蘆洲區"
"247015","007-UY","2018/03/20 14:09:30","新北市蘆洲區光華路46巷48號","121.46755","25.0846233333333","6501400","蘆洲區"
"247001","002-UY","2018/03/20 14:09:28","新北市蘆洲區永平街62號","121.457373333333","25.0916433333333","6501400","蘆洲區"
"247019","001-UY","2018/03/20 14:09:24","新北市蘆洲區民族路422巷15弄23號","121.473083333333","25.0929333333333","6501400","蘆洲區"
"228005","097-TW","2018/03/20 14:09:16","新北市雙溪區三港里雙澳路91號","121.888973333333","25.0572366666667","6502600","貢寮區"
"228004","212-TW","2018/03/20 14:09:15","新北市貢寮區雙玉里下雙溪街6-2號","121.915543333333","25.0159583333333","6502600","貢寮區"
"207002","749-BX","2018/03/20 14:09:38","新北市萬里區溪底里瑞泉路20號","121.605303333333","25.1478766666667","6502800","萬里區"
"252005","073-UM","2018/03/20 14:09:11","新北市三芝區橫山里橫山21號","121.539773333333","25.2627433333333","6502100","三芝區"
"207001","662-BX","2018/03/20 14:09:29","新北市萬里區磺潭里清水18號","121.637983333333","25.1976466666667","6502800","萬里區"
"236065","105-UM","2018/03/20 14:09:29","新北市土城區金城路一段86號","121.444875","24.97343","6501300","土城區"
"236041","107-UM","2018/03/20 14:09:24","新北市土城區裕生路83巷16弄14號","121.44716","24.9835133333333","6501300","土城區"
"236075","166-UM","2018/03/20 14:09:18","新北市土城區永寧路29號","121.430478333333","24.96323","6501300","土城區"
"236029","253-BX","2018/03/20 14:09:25","新北市土城區興城路79號","121.439846666667","24.9707566666667","6501300","土城區"
"236024","269-VK","2018/03/20 14:09:33","新北市土城區承天路18號","121.439511666667","24.9634516666667","6501300","土城區"
"236013","270-VK","2018/03/20 14:09:30","新北市土城區青雲路39巷7號","121.460241666667","24.98751","6501300","土城區"
"236034","271-VK","2018/03/20 14:09:23","新北市土城區青雲路455號","121.458783333333","24.9745266666667","6501300","土城區"
"236017","401-BY","2018/03/20 14:09:24","新北市土城區城林路6巷80號","121.438265","24.97955","6501300","土城區"
"236006","498-BY","2018/03/20 14:09:26","新北市土城區中央路一段80號","121.447183333333","24.989065","6501300","土城區"
"236057","912-UM","2018/03/20 14:09:18","新北市土城區中央路四段84號","121.418755","24.959445","6501300","土城區"
"236045","913-UM","2018/03/20 14:09:30","新北市土城區明德路一段365-1號","121.453548333333","24.9790216666667","6501300","土城區"
"236061","915-UM","2018/03/20 14:09:18","新北市土城區金城路三段202-3號","121.469526666667","24.9885816666667","6501300","土城區"
"236054","AAC-216","2018/03/20 14:09:29","新北市土城區中華路二段80號","121.438721666667","24.9758666666667","6501300","土城區"
"242048","172-VK","2018/03/20 14:09:25","新北市新莊區新泰路357巷3弄49號","121.441935","25.0401133333333","6500500","新莊區"
"220027","145-BY","2018/03/20 14:09:24","新北市板橋區民權路262號","121.45783","25.01536","6500100","板橋區"
"220028","200-UY","2018/03/20 14:09:32","新北市板橋區大觀路二段7巷24號","121.447928333333","25.0033633333333","6500100","板橋區"
"220105","KEA-2550","2018/03/20 14:09:11","新北市板橋區文化路二段263巷20號","121.471216666667","25.029825","6500100","板橋區"
"220030","610-BX","2018/03/20 14:09:36","新北市板橋區溪崑二街96巷1號","121.426665","24.9889016666667","6500100","板橋區"
"220050","245-BX","2018/03/20 14:09:32","新北市板橋區民生路二段192號","121.469815","25.0206616666667","6500100","板橋區"
"220003","256-TC","2018/03/20 14:09:35","新北市板橋區新民街15號","121.463973333333","25.0099583333333","6500100","板橋區"
"220016","257-TC","2018/03/20 14:09:27","新北市板橋區翠華街6巷5號","121.480538333333","25.02402","6500100","板橋區"
"220040","267-BY","2018/03/20 14:09:27","新北市板橋區縣民大道247巷41號","121.482085","25.0269566666667","6500100","板橋區"
"220004","276-BY","2018/03/20 14:09:03","新北市板橋區信義路110巷7號","121.45795","24.99213","6500100","板橋區"
"220020","277-BY","2018/03/20 14:09:23","新北市板橋區金門街372巷33號","121.427453333333","24.9849916666667","6500100","板橋區"
"220043","280-UM","2018/03/20 14:09:30","新北市板橋區光武街161號","121.465356666667","25.0297766666667","6500100","板橋區"
"220012","282-UM","2018/03/20 14:09:30","新北市板橋區民生路一段33號","121.476461666667","25.0119433333333","6500100","板橋區"
"220019","283-VK","2018/03/20 14:09:24","新北市板橋區大豐街29號","121.462021666667","25.0013583333333","6500100","板橋區"
"220001","285-VK","2018/03/20 14:09:30","新北市板橋區懷仁街14巷27號","121.47552","25.0194933333333","6500100","板橋區"
"220031","286-VK","2018/03/20 14:09:29","新北市板橋區大觀路二段174巷173弄12號","121.44121","25.00394","6500100","板橋區"
"220029","287-VK","2018/03/20 14:09:28","新北市板橋區南雅西路二段158號","121.451843333333","25.0134566666667","6500100","板橋區"
"220039","288-VK","2018/03/20 14:09:34","新北市板橋區裕民街48號","121.461671666667","25.0287866666667","6500100","板橋區"
"220009","293-UM","2018/03/20 14:09:24","新北市板橋區中山路二段287號","121.478095","25.017935","6500100","板橋區"
"220032","296-UM","2018/03/20 14:09:33","新北市板橋區溪崑二街56巷14號","121.427791666667","24.9911016666667","6500100","板橋區"
"220023","303-R5","2018/03/20 14:09:30","新北市板橋區北門街61號","121.456031666667","25.0119383333333","6500100","板橋區"
"220010","305-R5","2018/03/20 14:09:35","新北市板橋區三民路二段居仁巷2弄25號","121.479983333333","25.0130083333333","6500100","板橋區"
"220041","307-R5","2018/03/20 14:09:27","新北市板橋區文化路二段225巷60弄71號","121.468925","25.0300283333333","6500100","板橋區"
"220047","317-R6","2018/03/20 14:09:35","新北市板橋區自由路49號","121.465471666667","25.0235866666667","6500100","板橋區"
"220038","487-VK","2018/03/20 14:09:34","新北市板橋區文化路二段410巷2號","121.47374","25.0316966666667","6500100","板橋區"
"220104","560-BX","2018/03/20 14:09:26","新北市板橋區中正路360巷26號","121.455385","25.0233516666667","6500100","板橋區"
"220052","561-BX","2018/03/20 14:09:37","新北市板橋區文化路一段188巷43號","121.46754","25.0185916666667","6500100","板橋區"
"220013","568-UM","2018/03/20 14:09:39","新北市板橋區民族路129巷26號","121.468028333333","25.0088883333333","6500100","板橋區"
"220011","609-BX","2018/03/20 14:09:27","新北市板橋區三民路二段89號","121.479293333333","25.0164766666667","6500100","板橋區"
"220005","686-BX","2018/03/20 14:09:17","新北市板橋區忠孝路105號","121.462696666667","25.002295","6500100","板橋區"
"220025","687-BX","2018/03/20 14:09:36","新北市板橋區龍興街4號","121.442716666667","24.99949","6500100","板橋區"
"220042","689-BX","2018/03/20 14:09:27","新北市板橋區民生路三段189號","121.465311666667","25.0275183333333","6500100","板橋區"
"220002","741-BX","2018/03/20 14:09:35","新北市板橋區重慶路93巷47號","121.463355","25.0059983333333","6500100","板橋區"
"220051","KEA-2699","2018/03/20 14:09:33","新北市板橋區田單街49巷1弄15號","121.482701666667","25.028735","6500100","板橋區"
"220014","829-TW","2018/03/20 14:09:19","新北市板橋區三民路二段正隆巷59號","121.476605","25.0134916666667","6500100","板橋區"
"220045","831-TW","2018/03/20 14:09:28","新北市板橋區大同街6號","121.477053333333","25.0267066666667","6500100","板橋區"
"220037","833-TW","2018/03/20 14:09:29","新北市板橋區文化路二段182巷5弄13號","121.471888333333","25.0275183333333","6500100","板橋區"
"220022","895-R6","2018/03/20 14:09:25","新北市板橋區文昌街22號","121.45572","25.0107","6500100","板橋區"
"220021","985-R7","2018/03/20 14:09:29","新北市板橋區民權路217號","121.457673333333","25.0151533333333","6500100","板橋區"
"220046","AAC-210","2018/03/20 14:09:35","新北市板橋區新海路137號","121.460216666667","25.0232683333333","6500100","板橋區"
"220018","AAC-253","2018/03/20 14:09:16","新北市板橋區忠孝路40號","121.460405","25.0019116666667","6500100","板橋區"
