"lineid","car","time","location","longitude","latitude","cityid","cityname"
"234072","149-BY","2018/03/20 14:49:26","新北市永和區環河西路一段81號","121.512943333333","25.018205","6500400","永和區"
"234084","338-UY","2018/03/20 14:49:25","新北市三重區五谷王北街141巷1號","121.478575","25.05252","6500400","永和區"
"234028","746-BX","2018/03/20 14:49:20","新北市五股區成泰路一段98巷1-18號","121.45353","25.0740216666667","6500400","永和區"
"234048","863-TW","2018/03/20 14:49:23","新北市三重區重化街5號","121.467891666667","25.0644783333333","6500400","永和區"
"234025","9371-KE","2018/03/20 14:49:38","新北市永和區水源街33巷1號","121.510863333333","25.004415","6500400","永和區"
"248017","225-UY","2018/03/20 14:31:16","新北市五股區外寮路1-8號","121.425301666667","25.0759466666667","6501500","五股區"
"244002","248-BX","2018/03/20 14:38:18","新北市林口區竹林路266號","121.389641666667","25.080775","6501700","林口區"
"231002","002-UM","2018/03/20 14:49:36","新北市新店區民權路72號","121.538071666667","24.9830116666667","6500600","新店區"
"231025","0293-UT","2018/03/20 14:49:29","新北市新店區建國路200號","121.537893333333","24.980625","6500600","新店區"
"231028","046-UY","2018/03/20 14:49:31","新北市新店區安康路二段309-1號","121.501518333333","24.9571133333333","6500600","新店區"
"231030","047-UY","2018/03/20 14:49:33","新北市新店區安興路102號","121.5154","24.9767166666667","6500600","新店區"
"231029","106-UY","2018/03/20 14:49:23","新北市新店區錦秀路11巷11號","121.479878333333","24.9447816666667","6500600","新店區"
"231018","107-UY","2018/03/20 14:49:28","新北市新店區中央六街7號","121.530226666667","24.9745533333333","6500600","新店區"
"231012","108-UY","2018/03/20 14:49:36","新北市新店區永華街44號","121.545043333333","24.975105","6500600","新店區"
"231020","187-VK","2018/03/20 14:49:26","新北市新店區永福路54號","121.558116666667","24.9287066666667","6500600","新店區"
"231015","KEA-2219","2018/03/20 14:49:18","新北市新店區北宜路三段140號","121.58441","24.9499316666667","6500600","新店區"
"231023","AAD-862","2018/03/20 14:49:30","新北市新店區檳榔路109號","121.544543333333","24.9616116666667","6500600","新店區"
"231027","3712-VJ","2018/03/20 14:49:32","新北市新店區安德街116巷46號","121.507753333333","24.96159","6500600","新店區"
"231024","4716-K9","2018/03/20 14:49:28","新北市新店區北新路一段235號","121.540536666667","24.9657733333333","6500600","新店區"
"231036","512-UM","2018/03/20 14:49:22","新北市新店區安祥路104巷6弄36號","121.48319","24.9630133333333","6500600","新店區"
"231035","515-UM","2018/03/20 14:49:32","新北市新店區安樂街16號","121.520858333333","24.973285","6500600","新店區"
"231006","617-UM","2018/03/20 14:49:35","新北市新店區北宜路一段107-2號","121.53963","24.9551216666667","6500600","新店區"
"231001","619-UM","2018/03/20 14:49:23","新北市新店區三民路127號","121.534591666667","24.9723366666667","6500600","新店區"
"231003","641-BX","2018/03/20 14:49:23","新北市新店區中興路二段192號","121.54837","24.9733866666667","6500600","新店區"
"231034","645-TV","2018/03/20 14:49:26","新北市新店區玫瑰路4-1號","121.493608333333","24.9513883333333","6500600","新店區"
"231039","718-UY","2018/03/20 14:49:36","新北市新店區安康路一段355號","121.519835","24.962795","6500600","新店區"
"231032","720-UM","2018/03/20 14:49:29","新北市新店區安泰路22號","121.485346666667","24.9484316666667","6500600","新店區"
"231005","897-TW","2018/03/20 14:49:27","新北市新店區復興路2號","121.53233","24.988305","6500600","新店區"
"231004","899-TW","2018/03/20 14:49:20","新北市新店區建國路133號","121.539343333333","24.9782483333333","6500600","新店區"
"231037","AKT-0513","2018/03/20 14:49:21","新北市新店區安民街154號","121.516663333333","24.96996","6500600","新店區"
"235030","003-UY","2018/03/20 14:49:28","新北市中和區南工路70號","121.50645","25.0021183333333","6500300","中和區"
"235027","006-UY","2018/03/20 14:49:35","新北市中和區連城路188巷2-1號","121.492746666667","24.9976916666667","6500300","中和區"
"235020","096-UM","2018/03/20 14:49:23","新北市中和區中山路三段136巷10弄14號","121.474161666667","25.0075083333333","6500300","中和區"
"235003","097-UM","2018/03/20 14:49:32","新北市中和區安平路204號","121.51351","24.9995283333333","6500300","中和區"
"235029","098-UM","2018/03/20 14:49:36","新北市中和區福美路269號","121.49817","25.0050633333333","6500300","中和區"
"235022","151-BY","2018/03/20 14:49:20","新北市中和區員山路150巷2弄14號","121.481656666667","24.9979","6500300","中和區"
"235002","185-VK","2018/03/20 14:49:32","新北市中和區立人街69巷7弄2號","121.520031666667","24.9935983333333","6500300","中和區"
"235013","186-VK","2018/03/20 14:49:34","新北市中和區景平路385-2號","121.502958333333","24.994235","6500300","中和區"
"235031","255-BX","2018/03/20 14:49:33","新北市中和區新生街184號","121.483571666667","24.99973","6500300","中和區"
"235001","293-VK","2018/03/20 14:49:27","新北市中和區中正路1號","121.503436666667","24.9933783333333","6500300","中和區"
"235036","301-VK","2018/03/20 14:49:32","新北市中和區中正路305號","121.492736666667","24.9940833333333","6500300","中和區"
"235007","352-BY","2018/03/20 14:49:34","新北市中和區景平路336號","121.511865","24.9928016666667","6500300","中和區"
"235032","377-QA","2018/03/20 14:49:14","新北市中和區福祥路85巷2弄3號","121.498595","25.0059083333333","6500300","中和區"
"235035","269-TV","2018/03/20 14:49:28","新北市中和區建一路141號","121.488075","25.000845","6500300","中和區"
"235014","4979-A6","2018/03/20 14:49:30","新北市中和區景平路241巷82弄41號","121.506121666667","24.9924716666667","6500300","中和區"
"235034","558-UM","2018/03/20 14:49:23","新北市中和區連勝街41號","121.498201666667","24.9976066666667","6500300","中和區"
"235018","640-BX","2018/03/20 14:49:19","新北市中和區莒光路211號","121.469485","24.9953616666667","6500300","中和區"
"235024","647-TV","2018/03/20 14:49:31","新北市中和區新生街37號","121.483285","25.0033766666667","6500300","中和區"
"235011","732-UM","2018/03/20 14:49:30","新北市中和區和平街82號","121.507611666667","24.9911466666667","6500300","中和區"
"235010","733-UM","2018/03/20 14:49:32","新北市中和區仁愛街23號","121.510788333333","24.9889233333333","6500300","中和區"
"235021","801-TS","2018/03/20 14:49:30","新北市中和區員山路134號","121.481188333333","24.99636","6500300","中和區"
"235005","802-TS","2018/03/20 14:49:36","新北市中和區宜安路96號","121.510741666667","24.9976683333333","6500300","中和區"
"235016","805-TS","2018/03/20 14:49:27","新北市中和區華新街142號","121.507933333333","24.9825333333333","6500300","中和區"
"235012","896-TW","2018/03/20 14:49:29","新北市中和區信義街115號","121.512255","24.986855","6500300","中和區"
"235017","900-TW","2018/03/20 14:49:23","新北市中和區國光街215巷10弄7號","121.46669","25.0006633333333","6500300","中和區"
"235015","157-BY","2018/03/20 14:49:23","新北市中和區中興街233巷10號","121.501491666667","24.98948","6500300","中和區"
"235001","AAC-213","2018/03/20 14:49:35","新北市中和區秀朗路三段175巷2號","121.524485","24.9912583333333","6500300","中和區"
"235023","AAC-215","2018/03/20 14:49:19","新北市中和區圓通路305巷5弄30號","121.494218333333","24.9903083333333","6500300","中和區"
"220017","AAD-861","2018/03/20 14:49:19","新北市板橋區貴興路60號","121.45679","25.0030216666667","6500100","板橋區"
"247015","007-UY","2018/03/20 14:49:20","新北市蘆洲區和平路178號","121.466351666667","25.0813416666667","6501400","蘆洲區"
"247001","002-UY","2018/03/20 14:49:28","新北市蘆洲區永康街58號","121.459191666667","25.0860666666667","6501400","蘆洲區"
"228005","097-TW","2018/03/20 14:49:36","新北市貢寮區美豐里丹裡街65號","121.909443333333","25.058945","6502600","貢寮區"
"207002","749-BX","2018/03/20 14:49:37","新北市萬里區崁腳里崁腳路73號","121.647595","25.159605","6502800","萬里區"
"252005","073-UM","2018/03/20 14:49:31","新北市三芝區埔頭里埔頭11-5號","121.501498333333","25.2516566666667","6502100","三芝區"
"207001","662-BX","2018/03/20 14:49:29","新北市萬里區雙興里二坪路5號","121.649133333333","25.1753366666667","6502800","萬里區"
"236065","105-UM","2018/03/20 14:49:29","新北市土城區明德路一段174號","121.462605","24.978215","6501300","土城區"
"236041","107-UM","2018/03/20 14:49:37","新北市土城區裕民路136巷29號","121.450718333333","24.985045","6501300","土城區"
"236075","166-UM","2018/03/20 14:49:38","新北市土城區中央路四段67巷58號","121.418161666667","24.956825","6501300","土城區"
"236029","253-BX","2018/03/20 14:49:25","新北市土城區忠義路26巷19號","121.439818333333","24.9698316666667","6501300","土城區"
"236024","269-VK","2018/03/20 14:49:33","新北市土城區慶安街58號","121.440928333333","24.97307","6501300","土城區"
"236013","270-VK","2018/03/20 14:49:29","新北市土城區金城路二段356號","121.461505","24.9850783333333","6501300","土城區"
"236034","271-VK","2018/03/20 14:49:23","新北市土城區明德路一段152號","121.463238333333","24.978655","6501300","土城區"
"236017","401-BY","2018/03/20 14:49:24","新北市土城區延安街1號","121.46722","24.9862183333333","6501300","土城區"
"236057","912-UM","2018/03/20 14:49:18","新北市土城區中央路三段99-6號","121.436176666667","24.9667083333333","6501300","土城區"
"236045","913-UM","2018/03/20 14:49:30","新北市土城區青雲路35號","121.460008333333","24.9886166666667","6501300","土城區"
"236061","915-UM","2018/03/20 14:49:38","新北市土城區金城路三段179號","121.469536666667","24.9887783333333","6501300","土城區"
"236054","AAC-216","2018/03/20 14:49:34","新北市土城區裕民路113號","121.451206666667","24.98657","6501300","土城區"
"221032","280-BY","2018/03/20 14:49:35","新北市汐止區民權街二段67巷15號","121.619961666667","25.0481933333333","6501100","汐止區"
"221021","299-VK","2018/03/20 14:49:20","新北市汐止區汐萬路一段256巷3號","121.652048333333","25.0748466666667","6501100","汐止區"
"221002","707-TV","2018/03/20 14:49:34","新北市汐止區新興路84巷1號","121.657985","25.0613433333333","6501100","汐止區"
"220027","145-BY","2018/03/20 14:49:24","新北市板橋區大智街93號","121.453038333333","25.0157933333333","6500100","板橋區"
"220028","200-UY","2018/03/20 14:49:32","新北市板橋區大觀路二段163巷1號","121.44568","25.00046","6500100","板橋區"
"220105","KEA-2550","2018/03/20 14:49:31","新北市板橋區民治街71巷15號","121.480278333333","25.032845","6500100","板橋區"
"220030","610-BX","2018/03/20 14:49:36","新北市板橋區溪崑一街56號","121.429553333333","24.990255","6500100","板橋區"
"220050","245-BX","2018/03/20 14:49:37","新北市板橋區縣民大道三段81號","121.475373333333","25.0217266666667","6500100","板橋區"
"220003","256-TC","2018/03/20 14:49:33","新北市板橋區仁愛路76巷12號","121.460603333333","24.998985","6500100","板橋區"
"220016","257-TC","2018/03/20 14:49:27","新北市板橋區光復街13號","121.48492","25.0196266666667","6500100","板橋區"
"220040","267-BY","2018/03/20 14:49:25","新北市板橋區懷德街191巷26弄13號","121.480658333333","25.029485","6500100","板橋區"
"220020","277-BY","2018/03/20 14:49:24","新北市板橋區金門街127巷14號","121.433541666667","24.9911066666667","6500100","板橋區"
"220043","280-UM","2018/03/20 14:49:35","新北市板橋區長江路一段27號","121.458373333333","25.0294583333333","6500100","板橋區"
"220012","282-UM","2018/03/20 14:49:30","新北市板橋區館前東路108號","121.463098333333","25.00758","6500100","板橋區"
"220019","283-VK","2018/03/20 14:49:36","新北市板橋區和平路178號","121.463425","24.9955133333333","6500100","板橋區"
"220001","285-VK","2018/03/20 14:49:05","新北市板橋區中山路二段60巷1弄7-2號","121.474608333333","25.0155066666667","6500100","板橋區"
"220031","286-VK","2018/03/20 14:49:38","新北市板橋區僑中二街16號","121.446293333333","25.0107016666667","6500100","板橋區"
"220029","287-VK","2018/03/20 14:49:28","新北市板橋區僑中一街80巷6弄1號","121.447715","25.012155","6500100","板橋區"
"220039","288-VK","2018/03/20 14:49:24","新北市板橋區幸福路32巷71號","121.460606666667","25.0224216666667","6500100","板橋區"
"220009","293-UM","2018/03/20 14:49:24","新北市板橋區觀光街5號","121.471843333333","25.0158316666667","6500100","板橋區"
"220032","296-UM","2018/03/20 14:49:25","新北市板橋區溪崑二街112巷4號","121.426205","24.9887816666667","6500100","板橋區"
"220023","303-R5","2018/03/20 14:49:30","新北市板橋區金華街10巷48弄5號","121.45721","25.019895","6500100","板橋區"
"220010","305-R5","2018/03/20 14:49:34","新北市板橋區光復街172巷31弄5-2號","121.486508333333","25.0190616666667","6500100","板橋區"
"220041","307-R5","2018/03/20 14:49:20","新北市板橋區四維路259巷79號","121.460363333333","25.0264916666667","6500100","板橋區"
"220047","317-R6","2018/03/20 14:49:35","新北市板橋區雨農路27巷6號","121.461441666667","25.02378","6500100","板橋區"
"220038","487-VK","2018/03/20 14:49:34","新北市板橋區綠堤街41-1號","121.455283333333","25.025965","6500100","板橋區"
"220104","560-BX","2018/03/20 14:49:26","新北市板橋區新生街50號","121.45683","25.02108","6500100","板橋區"
"220052","561-BX","2018/03/20 14:49:37","新北市板橋區陽明街29巷27號","121.464128333333","25.022335","6500100","板橋區"
"220013","568-UM","2018/03/20 14:49:38","新北市板橋區長安街23號","121.46668","25.00875","6500100","板橋區"
"220011","609-BX","2018/03/20 14:49:27","新北市板橋區中山路二段531巷17弄8號","121.482573333333","25.0221216666667","6500100","板橋區"
"220005","686-BX","2018/03/20 14:49:37","新北市板橋區廣和街124號","121.462596666667","24.992495","6500100","板橋區"
"220025","687-BX","2018/03/20 14:49:36","新北市板橋區僑中一街134號","121.445505","25.0118666666667","6500100","板橋區"
"220042","689-BX","2018/03/20 14:49:26","新北市板橋區長江路二段67號","121.464818333333","25.0315433333333","6500100","板橋區"
"220002","741-BX","2018/03/20 14:49:35","新北市板橋區忠孝路忠義巷15弄2號","121.46596","25.003785","6500100","板橋區"
"220051","KEA-2699","2018/03/20 14:49:33","新北市板橋區文化路二段410巷1弄2號","121.47442","25.0311883333333","6500100","板橋區"
"220014","829-TW","2018/03/20 14:49:30","新北市板橋區長安街297號","121.474381666667","25.011955","6500100","板橋區"
"220045","831-TW","2018/03/20 14:49:28","新北市板橋區文化路二段124巷34弄22號","121.470558333333","25.0256583333333","6500100","板橋區"
"220037","833-TW","2018/03/20 14:49:29","新北市板橋區仁化街132號","121.477413333333","25.0327783333333","6500100","板橋區"
"220022","895-R6","2018/03/20 14:49:39","新北市板橋區府後街1巷1號","121.459061666667","25.0106633333333","6500100","板橋區"
"220021","985-R7","2018/03/20 14:49:31","新北市板橋區南雅西路二段2號","121.45331","25.0090333333333","6500100","板橋區"
"220046","AAC-210","2018/03/20 14:49:33","新北市板橋區國光路195號","121.461636666667","25.018605","6500100","板橋區"
"220018","AAC-253","2018/03/20 14:49:37","新北市板橋區民族路83號","121.465705","25.0086116666667","6500100","板橋區"
