"lineid","car","time","location","longitude","latitude","cityid","cityname"
"231046","278-BY","2018/03/20 16:29:38","新北市新店區灣潭路5-2號","121.537481666667","24.949565","6500600","新店區"
"241011","013-R5","2018/03/20 16:29:38","新北市三重區秀江街57號","121.500941666667","25.0726516666667","6500200","三重區"
"241028","022-UY","2018/03/20 16:29:28","新北市三重區中正南路210號","121.493856666667","25.0557016666667","6500200","三重區"
"241008","059-VK","2018/03/20 16:29:24","新北市三重區力行路二段136巷45弄14號","121.479195","25.0754716666667","6500200","三重區"
"241009","060-VK","2018/03/20 16:29:31","新北市三重區三和路四段191巷78號","121.484421666667","25.0798066666667","6500200","三重區"
"241031","061-VK","2018/03/20 16:29:23","新北市三重區重陽路一段51號","121.486625","25.0583733333333","6500200","三重區"
"241015","062-VK","2018/03/20 16:29:24","新北市三重區福德北路46號","121.501991666667","25.0653483333333","6500200","三重區"
"241017","063-VK","2018/03/20 16:29:34","新北市三重區大同北路91號","121.494768333333","25.0636166666667","6500200","三重區"
"241024","065-VK","2018/03/20 16:29:22","新北市三重區中正北路315巷18號","121.4749","25.0714783333333","6500200","三重區"
"241026","066-VK","2018/03/20 16:29:37","新北市三重區光興街1號","121.500348333333","25.0604083333333","6500200","三重區"
"241002","090-VK","2018/03/20 16:29:32","新北市三重區五華街7巷43號","121.496025","25.0804916666667","6500200","三重區"
"241003","091-VK","2018/03/20 16:29:31","新北市三重區仁義街228巷1號","121.494878333333","25.0848116666667","6500200","三重區"
"241005","262-UM","2018/03/20 16:29:35","新北市三重區溪尾街301號","121.487533333333","25.0833483333333","6500200","三重區"
"241016","265-UM","2018/03/20 16:29:31","新北市三重區大智街23號","121.494225","25.0658766666667","6500200","三重區"
"241022","267-UM","2018/03/20 16:29:17","新北市三重區新北大道一段86巷10號","121.48613","25.0619166666667","6500200","三重區"
"241018","268-UM","2018/03/20 16:29:30","新北市三重區重陽路四段51號","121.491811666667","25.070055","6500200","三重區"
"241032","269-UM","2018/03/20 16:29:38","新北市三重區三陽路100巷3弄15號","121.482911666667","25.0581583333333","6500200","三重區"
"241013","270-UM","2018/03/20 16:29:30","新北市三重區仁愛街58號","121.495965","25.0729166666667","6500200","三重區"
"241025","271-UM","2018/03/20 16:29:37","新北市三重區中正北路560巷100弄2號","121.472563333333","25.0682666666667","6500200","三重區"
"241007","398-BY","2018/03/20 16:29:40","新北市三重區三和路四段167巷172號","121.487813333333","25.0803416666667","6500200","三重區"
"241020","413-TH","2018/03/20 16:29:37","新北市三重區車路頭街37巷22號","121.484448333333","25.0718466666667","6500200","三重區"
"241004","475-VK","2018/03/20 16:29:19","新北市三重區仁愛街377巷1號","121.491956666667","25.0804766666667","6500200","三重區"
"241001","478-VK","2018/03/20 16:29:34","新北市三重區福隆路50號","121.492538333333","25.0784566666667","6500200","三重區"
"241030","480-VK","2018/03/20 16:29:35","新北市三重區成功路106-1號","121.487606666667","25.0516","6500200","三重區"
"241014","543-UM","2018/03/20 16:29:39","新北市三重區河邊北街70-3號","121.504423333333","25.0683866666667","6500200","三重區"
"241023","545-UM","2018/03/20 16:29:39","新北市三重區忠孝路三段50巷82號","121.483015","25.0645033333333","6500200","三重區"
"241019","KEA-2593","2018/03/20 16:29:20","新北市三重區重陽路三段95號","121.490316666667","25.0678633333333","6500200","三重區"
"241006","887-TS","2018/03/20 16:29:38","新北市三重區力行路二段131號","121.483351666667","25.0769066666667","6500200","三重區"
"241012","941-UM","2018/03/20 16:29:37","新北市三重區河邊北街347號","121.502123333333","25.0755716666667","6500200","三重區"
"241029","942-UM","2018/03/20 16:29:39","新北市三重區集美街166巷16號","121.489785","25.05358","6500200","三重區"
"241033","AAC-255","2018/03/20 16:29:36","新北市三重區重新路五段317巷3弄3號","121.477491666667","25.0496066666667","6500200","三重區"
"224002","639-TC","2018/03/20 16:14:54","新北市瑞芳區明燈路二段44-1號","121.809585","25.1082583333333","6501200","瑞芳區"
"224007","275-VK","2018/03/20 16:29:30","新北市瑞芳區大埔路58號","121.763818333333","25.1022533333333","6501200","瑞芳區"
"224005","271-BY","2018/03/20 16:29:31","新北市瑞芳區海濱路77-2號","121.831048333333","25.1233266666667","6501200","瑞芳區"
"227009","642-TC","2018/03/20 16:29:23","新北市雙溪區三港里雙澳路22號","121.86958","25.0498583333333","6502500","雙溪區"
"227003","400-TW","2018/03/20 16:29:34","新北市雙溪區上林里內平林120-10號","121.82313","25.0257116666667","6502500","雙溪區"
"251013","179-VK","2018/03/20 16:29:27","新北市淡水區大溪5號","121.492356666667","25.1913783333333","6501000","淡水區"
"251008","181-VK","2018/03/20 16:29:24","台北市北投區中央北路四段30巷160號","121.474148333333","25.1404783333333","6501000","淡水區"
"251015","182-VK","2018/03/20 16:29:21","新北市淡水區中正路一段33號","121.42599","25.1765566666667","6501000","淡水區"
