"lineid","car","time","location","longitude","latitude","cityid","cityname"
"249005","172-UM","2018/03/20 17:09:38","新北市八里區華富山14號","121.416456666667","25.138365","6502300","八里區"
"249001","173-UM","2018/03/20 17:09:29","新北市八里區中華路二段278號","121.404703333333","25.1490216666667","6502300","八里區"
"249004","303-UY","2018/03/20 17:09:34","新北市八里區忠孝路173號","121.423373333333","25.1607666666667","6502300","八里區"
"249002","305-UY","2018/03/20 17:09:21","新北市八里區龍米路二段147巷6號","121.442591666667","25.150065","6502300","八里區"
"249003","593-UM","2018/03/20 17:09:26","新北市八里區中山路二段419號","121.397213333333","25.1461416666667","6502300","八里區"
"244013","069-UM","2018/03/20 17:09:35","新北市林口區粉寮69號","121.405073333333","25.0908483333333","6501700","林口區"
"244007","080-UY","2018/03/20 17:09:25","新北市林口區菁埔26-51號","121.376455","25.09512","6501700","林口區"
"244025","742-UY","2018/03/20 17:09:36","新北市林口區粉寮路一段139號","121.399093333333","25.081225","6501700","林口區"
"244023","483-VK","2018/03/20 17:09:36","新北市林口區興林路2號","121.389775","25.076645","6501700","林口區"
"244019","657-BX","2018/03/20 17:09:40","新北市林口區四維路156號","121.380523333333","25.0755783333333","6501700","林口區"
"244021","838-TS","2018/03/20 17:09:35","新北市林口區粉寮路二段92號","121.404496666667","25.0887133333333","6501700","林口區"
"231046","278-BY","2018/03/20 17:09:19","新北市新店區直潭路92號","121.530933333333","24.9376366666667","6500600","新店區"
"241011","013-R5","2018/03/20 17:09:27","新北市三重區介壽路39巷252號","121.503676666667","25.0711283333333","6500200","三重區"
"241028","022-UY","2018/03/20 17:09:28","新北市三重區重新路三段110號","121.492285","25.0603016666667","6500200","三重區"
"241008","059-VK","2018/03/20 17:09:24","新北市三重區力行路二段136巷3號","121.48227","25.075705","6500200","三重區"
"241009","060-VK","2018/03/20 17:09:31","新北市三重區三和路四段211-1號","121.481753333333","25.0797083333333","6500200","三重區"
"241015","062-VK","2018/03/20 17:09:24","新北市三重區長生街28號","121.499556666667","25.0664216666667","6500200","三重區"
"241017","063-VK","2018/03/20 17:09:34","新北市三重區中正北路25巷25弄3號","121.493258333333","25.0626633333333","6500200","三重區"
"241024","065-VK","2018/03/20 17:09:22","新北市三重區中正北路193巷9號","121.477175","25.070255","6500200","三重區"
"241026","066-VK","2018/03/20 17:09:37","新北市三重區重新路一段102號","121.501015","25.063315","6500200","三重區"
"241002","090-VK","2018/03/20 17:09:32","新北市三重區五華街35巷30號","121.495236666667","25.0813683333333","6500200","三重區"
"241003","091-VK","2018/03/20 17:09:31","新北市三重區進安街198號","121.493833333333","25.08604","6500200","三重區"
"241005","262-UM","2018/03/20 17:09:35","新北市三重區永安北路二段13巷23號","121.483096666667","25.0816233333333","6500200","三重區"
"241016","265-UM","2018/03/20 17:09:31","新北市三重區大仁街29號","121.492543333333","25.0649866666667","6500200","三重區"
"241022","267-UM","2018/03/20 17:09:37","新北市三重區中正北路118巷2號","121.485663333333","25.06505","6500200","三重區"
"241018","268-UM","2018/03/20 17:09:30","新北市三重區重陽路四段27號","121.491535","25.0695283333333","6500200","三重區"
"241032","269-UM","2018/03/20 17:09:38","新北市三重區重陽路一段79號","121.48673","25.0589666666667","6500200","三重區"
"241013","270-UM","2018/03/20 17:09:30","新北市三重區仁福街5號","121.495901666667","25.0742683333333","6500200","三重區"
"241025","271-UM","2018/03/20 17:09:37","新北市三重區中正北路560巷61-3號","121.470996666667","25.0689166666667","6500200","三重區"
"241007","398-BY","2018/03/20 17:09:40","新北市三重區三和路四段163巷15號","121.483861666667","25.0788566666667","6500200","三重區"
"241020","413-TH","2018/03/20 17:09:30","新北市三重區自強路三段18號","121.486905","25.0721933333333","6500200","三重區"
"241004","475-VK","2018/03/20 17:09:39","新北市三重區五華街110-2號","121.492321666667","25.0829733333333","6500200","三重區"
"241001","478-VK","2018/03/20 17:09:34","新北市三重區仁愛街255巷43號","121.494323333333","25.0789066666667","6500200","三重區"
"241030","480-VK","2018/03/20 17:09:35","新北市三重區集成路31號","121.489026666667","25.0524266666667","6500200","三重區"
"241014","543-UM","2018/03/20 17:09:39","新北市三重區介壽路39巷175號","121.502268333333","25.0705766666667","6500200","三重區"
"241023","545-UM","2018/03/20 17:09:39","新北市三重區忠孝路三段84巷1號","121.48023","25.0645266666667","6500200","三重區"
"241019","KEA-2593","2018/03/20 17:09:40","新北市三重區力行路一段153巷46號","121.486326666667","25.06921","6500200","三重區"
"241006","887-TS","2018/03/20 17:09:38","新北市三重區三和路四段264巷2弄11號","121.485265","25.0767316666667","6500200","三重區"
"241012","941-UM","2018/03/20 17:09:37","新北市三重區河邊北街238-1號","121.50172","25.0756933333333","6500200","三重區"
"241029","942-UM","2018/03/20 17:09:39","新北市三重區重新路三段180號","121.490488333333","25.0590633333333","6500200","三重區"
"241033","AAC-255","2018/03/20 17:09:36","新北市三重區中興北街271號","121.469125","25.0606366666667","6500200","三重區"
"247024","893-R6","2018/03/20 17:09:33","新北市蘆洲區長興路25號","121.463705","25.083495","6501400","蘆洲區"
"247014","546-UM","2018/03/20 17:09:29","新北市蘆洲區中央路2-1號","121.473288333333","25.0823916666667","6501400","蘆洲區"
"247022","500-BY","2018/03/20 17:09:31","新北市蘆洲區民族路526號","121.469021666667","25.0899183333333","6501400","蘆洲區"
"247010","341-TH","2018/03/20 17:09:36","新北市蘆洲區民族路20號","121.476088333333","25.0840533333333","6501400","蘆洲區"
"247012","339-TH","2018/03/20 17:09:40","新北市蘆洲區信義路284號","121.477813333333","25.0872683333333","6501400","蘆洲區"
"247006","336-TH","2018/03/20 17:09:34","新北市蘆洲區長安街108巷12號","121.461673333333","25.082035","6501400","蘆洲區"
"247004","335-TH","2018/03/20 17:09:23","新北市蘆洲區長安街193巷37號","121.459368333333","25.081225","6501400","蘆洲區"
"247018","057-VK","2018/03/20 17:09:28","新北市蘆洲區復興路170號","121.477715","25.0882766666667","6501400","蘆洲區"
"247008","056-VK","2018/03/20 17:09:38","新北市蘆洲區信義路30巷83號","121.474956666667","25.0775316666667","6501400","蘆洲區"
"247016","007-UY","2018/03/20 17:09:23","新北市蘆洲區光華路65巷2號","121.468425","25.0824783333333","6501400","蘆洲區"
"247002","002-UY","2018/03/20 17:09:27","新北市蘆洲區永樂街106號","121.456046666667","25.0887683333333","6501400","蘆洲區"
"247020","001-UY","2018/03/20 17:09:23","新北市蘆洲區仁愛街62巷22號","121.472235","25.0942683333333","6501400","蘆洲區"
"228003","097-TW","2018/03/20 17:09:25","新北市貢寮區福隆里東興街42號","121.948796666667","25.0179033333333","6502600","貢寮區"
"228001","212-TW","2018/03/20 17:09:29","新北市貢寮區仁理村研海街22號","121.927221666667","25.0387183333333","6502600","貢寮區"
"228002","585-TW","2018/03/20 17:09:32","新北市貢寮區龍崗里嵩陽街55號","121.907533333333","25.016685","6502600","貢寮區"
"224006","676-BX","2018/03/20 17:09:33","新北市瑞芳區大寮路81號","121.78089","25.097605","6501200","瑞芳區"
"224008","285-BY","2018/03/20 17:09:33","新北市瑞芳區柴寮路40號","121.827463333333","25.0868483333333","6501200","瑞芳區"
"224007","275-VK","2018/03/20 17:09:30","新北市瑞芳區大埔路吉慶公園城39號","121.764116666667","25.0983866666667","6501200","瑞芳區"
"224009","273-VK","2018/03/20 17:09:37","新北市瑞芳區輕便路32號","121.844008333333","25.1106016666667","6501200","瑞芳區"
"224005","271-BY","2018/03/20 17:09:31","新北市瑞芳區鼻頭路171號","121.915806666667","25.1229583333333","6501200","瑞芳區"
"227009","642-TC","2018/03/20 17:09:23","新北市雙溪區三貂里子崙坑1-6號","121.849893333333","25.0574883333333","6502500","雙溪區"
"227003","400-TW","2018/03/20 17:09:34","新北市雙溪區外柑里外柑腳35號","121.81038","25.0185833333333","6502500","雙溪區"
"251004","009-UM","2018/03/20 17:09:36","新北市淡水區清水街56巷4號","121.444185","25.1704933333333","6501000","淡水區"
"251006","010-UM","2018/03/20 17:09:31","新北市淡水區新民街21號","121.43908","25.17518","6501000","淡水區"
"251013","179-VK","2018/03/20 17:09:36","新北市淡水區桂花樹1-16號","121.481706666667","25.1959683333333","6501000","淡水區"
"251014","180-VK","2018/03/20 17:09:33","新北市淡水區八里堆9-8號","121.464311666667","25.223605","6501000","淡水區"
"251008","181-VK","2018/03/20 17:09:23","新北市淡水區樹梅坑17號","121.471136666667","25.1441783333333","6501000","淡水區"
"251015","182-VK","2018/03/20 17:09:21","新北市淡水區樹林口42-3號","121.470566666667","25.16868","6501000","淡水區"
"251010","413-VK","2018/03/20 17:09:26","新北市淡水區新市五路二段75號","121.431236666667","25.1982666666667","6501000","淡水區"
"251012","441-VK","2018/03/20 17:09:36","新北市淡水區中山北路一段189號","121.44384","25.1781966666667","6501000","淡水區"
"251016","442-VK","2018/03/20 17:09:25","新北市淡水區泉洲厝1-2號","121.479228333333","25.1883683333333","6501000","淡水區"
"251005","443-VK","2018/03/20 17:09:34","新北市淡水區文化路57號","121.438505","25.1728433333333","6501000","淡水區"
"251009","575-R6","2018/03/20 17:09:20","新北市淡水區三民街20號","121.438993333333","25.1717616666667","6501000","淡水區"
"251007","577-R6","2018/03/20 17:09:34","新北市淡水區中正東路二段143巷2弄1號","121.460655","25.1474166666667","6501000","淡水區"
"251011","650-BX","2018/03/20 17:09:27","新北市淡水區坪頂路50號","121.457858333333","25.1624566666667","6501000","淡水區"
"252002","178-VK","2018/03/20 17:09:32","新北市三芝區忠孝街1-19號","121.505901666667","25.253105","6502100","三芝區"
"252001","292-VK","2018/03/20 17:09:36","新北市三芝區埔頭里埔頭15-7號","121.495946666667","25.26007","6502100","三芝區"
"242058","986-R7","2018/03/20 17:09:27","新北市新莊區新泰路357巷3弄57號","121.442416666667","25.0395983333333","6500500","新莊區"
"242054","751-BX","2018/03/20 17:09:33","新北市新莊區新泰路357巷3弄45號","121.442018333333","25.04018","6500500","新莊區"
"242029","705-TV","2018/03/20 17:09:29","新北市新莊區三和路12-12號","121.442311666667","25.0370716666667","6500500","新莊區"
"242027","615-BX","2018/03/20 17:09:26","新北市新莊區新泰路255巷83號","121.442216666667","25.0389633333333","6500500","新莊區"
"242042","566-BX","2018/03/20 17:09:20","新北市新莊區新泰路357巷3弄57號","121.442186666667","25.039185","6500500","新莊區"
"242046","497-BY","2018/03/20 17:09:34","新北市新莊區新泰路255巷83號","121.442181666667","25.0388433333333","6500500","新莊區"
"242051","441-UM","2018/03/20 17:09:27","新北市新莊區新樹路67巷5號","121.44208","25.0307683333333","6500500","新莊區"
"242056","440-UM","2018/03/20 17:09:37","新北市新莊區新泰路357巷3弄57號","121.442073333333","25.0391616666667","6500500","新莊區"
"242037","415-TV","2018/03/20 17:09:22","新北市新莊區新泰路357巷3弄57號","121.442028333333","25.0392683333333","6500500","新莊區"
"242007","413-TV","2018/03/20 17:09:27","新北市新莊區新泰路357巷3弄57號","121.44181","25.0395266666667","6500500","新莊區"
"242044","400-BY","2018/03/20 17:09:35","新北市新莊區新泰路357巷2號","121.442073333333","25.0414283333333","6500500","新莊區"
"242023","362-BY","2018/03/20 17:09:25","新北市新莊區新泰路255巷83號","121.442386666667","25.03895","6500500","新莊區"
"242061","353-BY","2018/03/20 17:09:35","新北市新莊區新泰路255巷83號","121.442261666667","25.038915","6500500","新莊區"
"242009","132-UY","2018/03/20 17:09:26","新北市新莊區新泰路255巷83號","121.442158333333","25.0388783333333","6500500","新莊區"
"242039","133-UY","2018/03/20 17:09:22","新北市新莊區新泰路255巷83號","121.44235","25.0386983333333","6500500","新莊區"
"242032","135-UY","2018/03/20 17:09:36","新北市新莊區三和路12-21號","121.442055","25.038765","6500500","新莊區"
"242048","172-VK","2018/03/20 17:09:25","新北市新莊區中正路481號","121.44127","25.0337916666667","6500500","新莊區"
"242017","175-VK","2018/03/20 17:09:29","新北市新莊區三和路12-21號","121.442015","25.0386316666667","6500500","新莊區"
"242005","176-VK","2018/03/20 17:09:28","新北市新莊區三和路12-21號","121.44193","25.038725","6500500","新莊區"
"242015","346-TH","2018/03/20 17:09:40","新北市新莊區三和路12-17號","121.441858333333","25.03752","6500500","新莊區"
"242021","348-TH","2018/03/20 17:09:30","新北市新莊區新泰路255巷83號","121.442156666667","25.0388033333333","6500500","新莊區"
"242002","349-TH","2018/03/20 17:08:48","新北市新莊區三和路12-16號","121.441871666667","25.0374033333333","6500500","新莊區"
"242013","351-TH","2018/03/20 17:09:21","新北市新莊區新泰路357巷3弄57號","121.441923333333","25.0394766666667","6500500","新莊區"
"238015","755-BX","2018/03/20 17:09:36","新北市樹林區佳園路一段153號","121.393893333333","24.968665","6500700","樹林區"
"238019","599-UM","2018/03/20 17:09:35","新北市樹林區八德街495-3號","121.40184","24.9703666666667","6500700","樹林區"
"238018","571-TV","2018/03/20 17:09:30","新北市樹林區環河路110號","121.426038333333","24.977275","6500700","樹林區"
"238022","KEA-2213","2018/03/20 17:09:33","新北市樹林區太平路277號","121.41886","24.9727566666667","6500700","樹林區"
"238017","283-BY","2018/03/20 17:09:24","新北市樹林區中洲街18號","121.397295","24.9722683333333","6500700","樹林區"
"238020","268-VK","2018/03/20 17:09:30","新北市樹林區中山路三段27號","121.401405","24.9754416666667","6500700","樹林區"
"238016","169-UY","2018/03/20 17:09:38","新北市樹林區中山路二段163號","121.40613","24.978635","6500700","樹林區"
"239007","AAC-297","2018/03/20 17:09:25","新北市鶯歌區和平街45巷13號","121.353396666667","24.9549533333333","6500800","鶯歌區"
"239006","891-R6","2018/03/20 17:09:38","新北市鶯歌區八德路2巷37弄5號","121.337015","24.9465616666667","6500800","鶯歌區"
"239008","527-UM","2018/03/20 17:09:38","新北市鶯歌區尖山路57-3號","121.350183333333","24.94972","6500800","鶯歌區"
"239005","526-UM","2018/03/20 17:09:25","新北市鶯歌區德昌二街95號","121.333271666667","24.957635","6500800","鶯歌區"
"239001","417-VK","2018/03/20 17:09:20","新北市鶯歌區尖山路140巷6弄1號","121.346543333333","24.9489716666667","6500800","鶯歌區"
"239003","360-BY","2018/03/20 17:09:32","新北市鶯歌區八德路16號","121.330651666667","24.9554616666667","6500800","鶯歌區"
"239002","359-BY","2018/03/20 17:09:36","新北市鶯歌區建國路255號","121.34804","24.9534266666667","6500800","鶯歌區"
"239004","193-VK","2018/03/20 17:09:40","新北市鶯歌區文化路322-1號","121.352321666667","24.9461533333333","6500800","鶯歌區"
"242019","280-VK","2018/03/20 17:09:20","新北市新莊區新泰路255巷83號","121.441945","25.0389166666667","6500500","新莊區"
