"lineid","car","time","location","longitude","latitude","cityid","cityname"
"249005","172-UM","2018/03/20 17:29:38","新北市八里區荖阡坑路41-6號","121.402313333333","25.1321","6502300","八里區"
"249001","173-UM","2018/03/20 17:29:29","新北市八里區中華路一段1號","121.423313333333","25.1586483333333","6502300","八里區"
"249004","303-UY","2018/03/20 17:29:34","新北市八里區賢三街162號","121.41466","25.1568333333333","6502300","八里區"
"249002","305-UY","2018/03/20 17:29:41","新北市八里區龍米路二段28號","121.448661666667","25.1396983333333","6502300","八里區"
"249003","593-UM","2018/03/20 17:29:26","新北市八里區中山路二段388號","121.400603333333","25.1481583333333","6502300","八里區"
"244013","069-UM","2018/03/20 17:29:35","新北市林口區粉寮路一段77-2號","121.397098333333","25.0793516666667","6501700","林口區"
"244007","080-UY","2018/03/20 17:29:24","新北市林口區湖子6號","121.39065","25.0924333333333","6501700","林口區"
"244025","742-UY","2018/03/20 17:29:36","新北市林口區文化北路一段390號","121.363596666667","25.0747733333333","6501700","林口區"
"244023","483-VK","2018/03/20 17:29:36","新北市林口區東明一街55巷23號","121.3927","25.0711183333333","6501700","林口區"
"244009","656-BX","2018/03/20 17:29:33","新北市林口區中北一街76號","121.385781666667","25.0886966666667","6501700","林口區"
"244019","657-BX","2018/03/20 17:29:40","新北市林口區公園路122號","121.370828333333","25.07137","6501700","林口區"
"244011","701-TV","2018/03/20 17:29:31","新北市林口區中正路345巷1弄1號","121.387946666667","25.077255","6501700","林口區"
"244021","838-TS","2018/03/20 17:29:40","新北市林口區粉寮路一段105號","121.39808","25.0804733333333","6501700","林口區"
"231046","278-BY","2018/03/20 17:29:19","新北市新店區直潭路92號","121.530946666667","24.9376116666667","6500600","新店區"
"241015","062-VK","2018/03/20 17:29:24","新北市三重區長元街65巷16弄15號","121.50347","25.066245","6500200","三重區"
"241017","063-VK","2018/03/20 17:29:34","新北市三重區大同北路34巷48號","121.493698333333","25.0620533333333","6500200","三重區"
"241024","065-VK","2018/03/20 17:29:22","新北市三重區大勇街82巷15弄30號","121.481235","25.071995","6500200","三重區"
"241003","091-VK","2018/03/20 17:29:31","新北市三重區富福街2號","121.489798333333","25.0831783333333","6500200","三重區"
"241005","262-UM","2018/03/20 17:29:35","新北市三重區碧華街91號","121.485423333333","25.081555","6500200","三重區"
"241016","265-UM","2018/03/20 17:29:31","新北市三重區信義西街148號","121.49536","25.0639366666667","6500200","三重區"
"241018","268-UM","2018/03/20 17:29:30","新北市三重區中正北路25巷21號","121.493048333333","25.0625766666667","6500200","三重區"
"241032","269-UM","2018/03/20 17:29:38","新北市三重區名源街36號","121.482393333333","25.0597916666667","6500200","三重區"
"241013","270-UM","2018/03/20 17:29:30","新北市三重區仁愛街125巷113號","121.49914","25.0764333333333","6500200","三重區"
"241025","271-UM","2018/03/20 17:29:37","新北市三重區中正北路209號","121.476438333333","25.0699733333333","6500200","三重區"
"241007","398-BY","2018/03/20 17:29:20","新北市三重區三和路四段145巷186號","121.488841666667","25.0796266666667","6500200","三重區"
"241020","413-TH","2018/03/20 17:29:30","新北市三重區忠孝路二段34號","121.485825","25.0710516666667","6500200","三重區"
"241030","480-VK","2018/03/20 17:29:35","新北市三重區新興路1號","121.49299","25.0529766666667","6500200","三重區"
"241014","543-UM","2018/03/20 17:29:39","新北市三重區安和路17號","121.50143","25.0684233333333","6500200","三重區"
"241023","545-UM","2018/03/20 17:29:39","新北市三重區三民街146巷3弄2號","121.481628333333","25.064605","6500200","三重區"
"241019","KEA-2593","2018/03/20 17:29:20","新北市三重區自強路二段40巷17號","121.488525","25.0692166666667","6500200","三重區"
"241012","941-UM","2018/03/20 17:29:37","新北市三重區仁興街39巷6號","121.49939","25.0758833333333","6500200","三重區"
"241029","942-UM","2018/03/20 17:29:39","新北市三重區中正北路18-1號","121.48859","25.0634133333333","6500200","三重區"
"241033","AAC-255","2018/03/20 17:29:36","新北市三重區興德路145-2號","121.469136666667","25.052965","6500200","三重區"
"235061","378-QA","2018/03/20 17:23:47","新北市中和區員山路36巷16-2號","121.485231666667","24.991855","6500300","中和區"
"247024","893-R6","2018/03/20 17:29:25","新北市蘆洲區長興路290號","121.460486666667","25.08925","6501400","蘆洲區"
"247014","546-UM","2018/03/20 17:29:29","新北市蘆洲區三民路33號","121.475446666667","25.083005","6501400","蘆洲區"
"247022","500-BY","2018/03/20 17:29:31","新北市蘆洲區三民路251號","121.46842","25.08936","6501400","蘆洲區"
"247010","341-TH","2018/03/20 17:29:36","新北市蘆洲區鷺江街39號","121.47849","25.0821833333333","6501400","蘆洲區"
"247012","339-TH","2018/03/20 17:29:40","新北市蘆洲區民族路26號","121.476186666667","25.084205","6501400","蘆洲區"
"247006","336-TH","2018/03/20 17:29:34","新北市蘆洲區長安街22巷39弄15號","121.464513333333","25.0807383333333","6501400","蘆洲區"
"247004","335-TH","2018/03/20 17:29:37","新北市蘆洲區長安街233巷2號","121.459113333333","25.0829816666667","6501400","蘆洲區"
"247018","057-VK","2018/03/20 17:29:28","新北市蘆洲區民義街41號","121.47215","25.0893583333333","6501400","蘆洲區"
"247008","056-VK","2018/03/20 17:29:38","新北市蘆洲區民生街99號","121.473655","25.07851","6501400","蘆洲區"
"247016","007-UY","2018/03/20 17:29:23","新北市蘆洲區光華路22巷40號","121.46835","25.08477","6501400","蘆洲區"
"247002","002-UY","2018/03/20 17:29:27","新北市蘆洲區永樂街38巷57弄6號","121.458251666667","25.0904016666667","6501400","蘆洲區"
"247020","001-UY","2018/03/20 17:29:43","新北市蘆洲區水湳街389號","121.469731666667","25.093665","6501400","蘆洲區"
"228003","097-TW","2018/03/20 17:29:30","新北市貢寮區仁理村仁和路2-2號","121.923335","25.0484633333333","6502600","貢寮區"
"228001","212-TW","2018/03/20 17:29:29","新北市貢寮區仁理村仁愛路39號","121.925048333333","25.0533066666667","6502600","貢寮區"
"228002","585-TW","2018/03/20 17:29:31","新北市貢寮區福隆里興隆街21-2號","121.933016666667","25.0188366666667","6502600","貢寮區"
"224010","AGQ-8101","2018/03/20 17:29:05","新北市瑞芳區逢甲路143號","121.80721","25.1098483333333","6501200","瑞芳區"
"224006","676-BX","2018/03/20 17:29:30","新北市瑞芳區靜安路四段92號","121.793156666667","25.1101583333333","6501200","瑞芳區"
"224008","285-BY","2018/03/20 17:29:33","新北市瑞芳區九芎橋路16號","121.832221666667","25.0916216666667","6501200","瑞芳區"
"224007","275-VK","2018/03/20 17:19:21","新北市瑞芳區大寮路356-1號","121.785056666667","25.1033383333333","6501200","瑞芳區"
"224009","273-VK","2018/03/20 17:29:40","新北市瑞芳區烏勢巷145號","121.847305","25.1082733333333","6501200","瑞芳區"
"224005","271-BY","2018/03/20 17:29:31","新北市瑞芳區海濱路8-6號","121.831675","25.126185","6501200","瑞芳區"
"227009","642-TC","2018/03/20 17:29:23","新北市雙溪區三貂里政光路10號","121.851058333333","25.07148","6502500","雙溪區"
"227003","400-TW","2018/03/20 17:29:34","新北市雙溪區平林里梅竹蹊59號","121.851016666667","25.0319733333333","6502500","雙溪區"
"251004","009-UM","2018/03/20 17:29:35","新北市淡水區中正東路二段88巷15號","121.458968333333","25.1506516666667","6501000","淡水區"
"251006","010-UM","2018/03/20 17:29:31","新北市淡水區大仁街45號","121.442635","25.1757566666667","6501000","淡水區"
"251001","011-UM","2018/03/20 17:29:34","新北市淡水區民權路92巷35-1號","121.462268333333","25.1266583333333","6501000","淡水區"
"251002","012-UM","2018/03/20 17:29:32","新北市淡水區中正路一段21號","121.426441666667","25.1763866666667","6501000","淡水區"
"251013","179-VK","2018/03/20 17:29:27","新北市淡水區大竹圍5號","121.46654","25.1952116666667","6501000","淡水區"
"251014","180-VK","2018/03/20 17:29:33","新北市淡水區公埔子20-6號","121.47082","25.2268366666667","6501000","淡水區"
"251008","181-VK","2018/03/20 17:29:23","新北市淡水區大同路120巷16號","121.463148333333","25.1396983333333","6501000","淡水區"
"251015","182-VK","2018/03/20 17:29:41","新北市淡水區樹林口168號","121.476228333333","25.1668333333333","6501000","淡水區"
"251012","441-VK","2018/03/20 17:29:36","新北市淡水區北新路113號","121.448466666667","25.1785083333333","6501000","淡水區"
"251016","442-VK","2018/03/20 17:29:25","新北市淡水區社厝坑12號","121.464268333333","25.1916883333333","6501000","淡水區"
"251005","443-VK","2018/03/20 17:29:34","新北市淡水區鄧公路31巷1號","121.451343333333","25.17084","6501000","淡水區"
"251009","575-R6","2018/03/20 17:29:39","新北市淡水區重建街1巷5號","121.439703333333","25.173595","6501000","淡水區"
"251007","577-R6","2018/03/20 17:29:34","新北市淡水區民生路47-4號","121.462006666667","25.1379916666667","6501000","淡水區"
"251011","650-BX","2018/03/20 17:29:27","新北市淡水區坪頂路712號","121.48247","25.1584916666667","6501000","淡水區"
"251010","672-BX","2018/03/20 17:29:31","新北市淡水區中正路二段215號","121.426238333333","25.1893016666667","6501000","淡水區"
"251003","673-BX","2018/03/20 17:29:32","新北市淡水區中山路158號","121.44084","25.1728816666667","6501000","淡水區"
"207003","550-UM","2018/03/20 17:29:19","新北市萬里區龜吼里日光路6巷18號","121.683586666667","25.186275","6502800","萬里區"
"207004","225-TW","2018/03/20 17:29:33","新北市萬里區萬里里景美路11-3號","121.685761666667","25.1728816666667","6502800","萬里區"
"252002","178-VK","2018/03/20 17:29:32","新北市三芝區忠孝街1-15號","121.505581666667","25.25394","6502100","三芝區"
"252001","292-VK","2018/03/20 17:29:39","新北市三芝區長安街119號","121.498046666667","25.2596766666667","6502100","三芝區"
"237011","KEA-2596","2018/03/20 17:29:23","新北市三峽區中山路459巷163-3號","121.348705","24.9330533333333","6500900","三峽區"
"242034","AAC-296","2018/03/20 17:29:40","新北市新莊區新泰路7號","121.449751666667","25.03231","6500500","新莊區"
"242058","986-R7","2018/03/20 17:29:27","新北市新莊區中正路498號","121.436066666667","25.0329166666667","6500500","新莊區"
"242054","751-BX","2018/03/20 17:29:33","新北市新莊區瓊林南路305巷3號","121.434891666667","25.005465","6500500","新莊區"
"242029","705-TV","2018/03/20 17:29:28","新北市新莊區復興路二段174號","121.458615","25.0442666666667","6500500","新莊區"
"242027","615-BX","2018/03/20 17:29:26","新北市新莊區思源路41號","121.459966666667","25.0398183333333","6500500","新莊區"
"242025","613-BX","2018/03/20 17:29:37","新北市新莊區復興路二段49號","121.454823333333","25.0442916666667","6500500","新莊區"
"242042","566-BX","2018/03/20 17:29:20","新北市新莊區新樹路113巷21號","121.439333333333","25.0263733333333","6500500","新莊區"
"242046","497-BY","2018/03/20 17:29:34","新北市新莊區新樹路49號","121.440206666667","25.03201","6500500","新莊區"
"242051","441-UM","2018/03/20 17:29:27","新北市新莊區新樹路447號","121.432701666667","25.0134783333333","6500500","新莊區"
"242056","440-UM","2018/03/20 17:29:37","新北市新莊區新泰路16號","121.44966","25.0330933333333","6500500","新莊區"
"242037","415-TV","2018/03/20 17:29:22","新北市新莊區建國一路288巷38號","121.434328333333","25.025645","6500500","新莊區"
"242007","413-TV","2018/03/20 17:29:27","新北市新莊區自強街14號","121.454846666667","25.0457966666667","6500500","新莊區"
"242044","400-BY","2018/03/20 17:29:35","新北市新莊區富國路76號","121.41999","25.02593","6500500","新莊區"
"242023","362-BY","2018/03/20 17:29:25","新北市新莊區公園路154號","121.453238333333","25.0400766666667","6500500","新莊區"
"242061","353-BY","2018/03/20 17:29:39","新北市新莊區瓊林南路21-1號","121.437831666667","25.02026","6500500","新莊區"
"242009","132-UY","2018/03/20 17:29:35","新北市新莊區中原路185-1號","121.452963333333","25.0543133333333","6500500","新莊區"
"242039","133-UY","2018/03/20 17:29:22","新北市新莊區民安路278號","121.427786666667","25.0214566666667","6500500","新莊區"
"242032","135-UY","2018/03/20 17:29:36","新北市新莊區新泰路401巷25號","121.442638333333","25.04399","6500500","新莊區"
"242048","172-VK","2018/03/20 17:29:25","新北市新莊區四維路227號","121.421475","25.0195766666667","6500500","新莊區"
"242017","175-VK","2018/03/20 17:29:34","新北市新莊區復興路一段189號","121.451676666667","25.0436683333333","6500500","新莊區"
"242005","176-VK","2018/03/20 17:29:35","新北市新莊區中港路288巷12號","121.453438333333","25.0444866666667","6500500","新莊區"
"242015","346-TH","2018/03/20 17:29:20","新北市新莊區新泰路195號","121.447261666667","25.0379383333333","6500500","新莊區"
"242021","348-TH","2018/03/20 17:29:30","新北市新莊區中正路150號","121.452025","25.0362133333333","6500500","新莊區"
"242002","349-TH","2018/03/20 17:29:28","新北市新莊區新莊路154號","121.455246666667","25.0354533333333","6500500","新莊區"
"242013","351-TH","2018/03/20 17:29:41","新北市新莊區中誠街13號","121.451848333333","25.04806","6500500","新莊區"
"238015","755-BX","2018/03/20 17:29:36","新北市樹林區大安路267號","121.419","24.9937633333333","6500700","樹林區"
"238023","601-UM","2018/03/20 17:29:33","新北市樹林區中正路439-1號","121.415028333333","25.008715","6500700","樹林區"
"238019","599-UM","2018/03/20 17:29:34","新北市樹林區太平路57號","121.419085","24.9822166666667","6500700","樹林區"
"238018","571-TV","2018/03/20 17:29:30","新北市樹林區鎮前街165號","121.422001666667","24.987065","6500700","樹林區"
"238024","5061-A6","2018/03/20 17:29:35","新北市樹林區鎮前街90號","121.425306666667","24.9918233333333","6500700","樹林區"
"238022","KEA-2213","2018/03/20 17:29:33","新北市樹林區仁愛街61號","121.422726666667","24.982335","6500700","樹林區"
"238021","KEA-2539","2018/03/20 17:29:41","新北市樹林區民權街5巷13號","121.39558","24.9581583333333","6500700","樹林區"
"238025","303-VK","2018/03/20 17:29:41","新北市樹林區保安街一段228號","121.42039","24.9964616666667","6500700","樹林區"
"238017","283-BY","2018/03/20 17:29:24","新北市樹林區光武街30巷6號","121.416785","25.005415","6500700","樹林區"
"238014","282-BY","2018/03/20 17:29:28","新北市樹林區長壽街29-2號","121.420531666667","24.9950833333333","6500700","樹林區"
"238020","268-VK","2018/03/20 17:29:35","新北市樹林區俊英街160巷9-1號","121.427231666667","25.0067766666667","6500700","樹林區"
"238026","172-UY","2018/03/20 17:29:35","新北市樹林區中山路三段27巷1弄2號","121.401703333333","24.974475","6500700","樹林區"
"238016","169-UY","2018/03/20 17:29:19","新北市樹林區中山路一段2號","121.423856666667","24.994325","6500700","樹林區"
"239007","AAC-297","2018/03/20 17:29:25","新北市鶯歌區中正一路213號","121.353538333333","24.9570033333333","6500800","鶯歌區"
"239006","891-R6","2018/03/20 17:29:38","新北市鶯歌區福昌街28號","121.332825","24.9610216666667","6500800","鶯歌區"
"239008","527-UM","2018/03/20 17:29:36","桃園市龜山區宏德司法新村7號","121.331938333333","24.9790783333333","6500800","鶯歌區"
"239005","526-UM","2018/03/20 17:29:25","新北市鶯歌區鶯桃路624號","121.329776666667","24.9686683333333","6500800","鶯歌區"
"239001","417-VK","2018/03/20 17:29:39","新北市鶯歌區中正三路171號","121.336483333333","24.9399783333333","6500800","鶯歌區"
"239003","360-BY","2018/03/20 17:29:32","新北市鶯歌區鶯桃路297-4號","121.334296666667","24.9606383333333","6500800","鶯歌區"
"239002","359-BY","2018/03/20 17:29:36","新北市鶯歌區育才街27巷1號","121.349196666667","24.9549383333333","6500800","鶯歌區"
"239004","193-VK","2018/03/20 17:29:40","新北市鶯歌區文化路417-5號","121.352853333333","24.9487616666667","6500800","鶯歌區"
"221008","489-VK","2018/03/20 17:29:32","新北市汐止區康寧街901號","121.651416666667","25.07501","6501100","汐止區"
"221021","299-VK","2018/03/20 17:29:38","新北市汐止區汐萬路一段256巷1號","121.652018333333","25.074955","6501100","汐止區"
"221025","623-UM","2018/03/20 17:29:21","新北市汐止區康寧街901號","121.65166","25.0748816666667","6501100","汐止區"
"221033","647-BX","2018/03/20 17:29:31","新北市汐止區大同路二段271號","121.652211666667","25.067045","6501100","汐止區"
"242011","281-VK","2018/03/20 17:29:38","新北市新莊區中華路二段83-1號","121.452658333333","25.0487233333333","6500500","新莊區"
"242019","280-VK","2018/03/20 17:29:41","新北市新莊區中港路72號","121.455483333333","25.0388983333333","6500500","新莊區"
