"lineid","car","time","location","longitude","latitude","cityid","cityname"
"234013","KEA-2591","2018/03/20 17:39:36","新北市永和區福和路1號","121.525996666667","25.0094483333333","6500400","永和區"
"234026","9371-KE","2018/03/20 17:39:33","新北市永和區中正路647號","121.515211666667","25.01018","6500400","永和區"
"249005","172-UM","2018/03/20 17:39:38","新北市八里區荖阡坑路34號","121.40272","25.1297983333333","6502300","八里區"
"249001","173-UM","2018/03/20 17:39:32","新北市八里區龍米路二段157-2號","121.439921666667","25.1536966666667","6502300","八里區"
"249004","303-UY","2018/03/20 17:39:34","新北市八里區賢二街39號","121.418973333333","25.1577933333333","6502300","八里區"
"249002","305-UY","2018/03/20 17:39:41","新北市八里區石壁腳19號","121.441695","25.1353616666667","6502300","八里區"
"249003","593-UM","2018/03/20 17:39:26","新北市八里區中山路二段165號","121.405001666667","25.1507366666667","6502300","八里區"
"232011","375-UM","2018/03/20 17:39:39","新北市坪林區北宜路八段373號","121.709318333333","24.932245","6502000","坪林區"
"244013","069-UM","2018/03/20 17:39:35","新北市林口區中正路555號","121.381135","25.0768966666667","6501700","林口區"
"244007","080-UY","2018/03/20 17:39:35","新北市林口區林口路272巷11號","121.386473333333","25.0847383333333","6501700","林口區"
"244025","742-UY","2018/03/20 17:39:36","新北市林口區文化三路一段377-1號","121.365148333333","25.0736883333333","6501700","林口區"
"244023","483-VK","2018/03/20 17:39:36","新北市林口區興林路351號","121.389501666667","25.068795","6501700","林口區"
"244009","656-BX","2018/03/20 17:39:31","新北市林口區中北三街360號","121.383481666667","25.0846216666667","6501700","林口區"
"244019","657-BX","2018/03/20 17:39:40","新北市林口區文化一路一段99號","121.372568333333","25.070815","6501700","林口區"
"244011","701-TV","2018/03/20 17:39:31","新北市林口區佳林路154號","121.384123333333","25.0770733333333","6501700","林口區"
"244021","838-TS","2018/03/20 17:39:40","新北市林口區仁愛路一段26號","121.397466666667","25.0753916666667","6501700","林口區"
"231046","278-BY","2018/03/20 17:39:39","新北市新店區直潭路92號","121.530936666667","24.93762","6500600","新店區"
"241024","065-VK","2018/03/20 17:39:42","新北市三重區車路頭街51巷1號","121.48403","25.072195","6500200","三重區"
"241005","262-UM","2018/03/20 17:39:35","新北市三重區集賢路87-1號","121.493688333333","25.0869366666667","6500200","三重區"
"241016","265-UM","2018/03/20 17:39:39","新北市三重區重新路二段21號","121.497991666667","25.062575","6500200","三重區"
"241007","398-BY","2018/03/20 17:39:40","新北市三重區國道路一段139號","121.476066666667","25.0736116666667","6500200","三重區"
"241014","543-UM","2018/03/20 17:39:39","新北市三重區龍濱路231號","121.501621666667","25.07205","6500200","三重區"
"241023","545-UM","2018/03/20 17:39:39","新北市三重區中華路105號","121.483641666667","25.063345","6500200","三重區"
"241019","KEA-2593","2018/03/20 17:39:40","新北市三重區六張街217號","121.488356666667","25.06858","6500200","三重區"
"241012","941-UM","2018/03/20 17:39:37","新北市三重區龍濱路287號","121.500753333333","25.0735433333333","6500200","三重區"
"241033","AAC-255","2018/03/20 17:39:36","新北市三重區光復路一段49號","121.472218333333","25.0488333333333","6500200","三重區"
"235065","098-UM","2018/03/20 17:39:30","新北市中和區員山路36巷16-3號","121.485101666667","24.9911733333333","6500300","中和區"
"235061","378-QA","2018/03/20 17:23:47","新北市中和區員山路36巷16-2號","121.485231666667","24.991855","6500300","中和區"
"247024","893-R6","2018/03/20 17:39:25","新北市蘆洲區長樂路125-1號","121.462146666667","25.0881083333333","6501400","蘆洲區"
"247014","546-UM","2018/03/20 17:39:29","新北市蘆洲區中正路32號","121.471243333333","25.0822583333333","6501400","蘆洲區"
"247022","500-BY","2018/03/20 17:39:31","新北市蘆洲區三民路285號","121.467058333333","25.0898783333333","6501400","蘆洲區"
"247010","341-TH","2018/03/20 17:39:36","新北市蘆洲區中山一路86號","121.478153333333","25.0813166666667","6501400","蘆洲區"
"247012","339-TH","2018/03/20 17:39:40","新北市蘆洲區民權路3巷6號","121.476216666667","25.0855116666667","6501400","蘆洲區"
"247006","336-TH","2018/03/20 17:39:34","新北市蘆洲區九芎街152號","121.46439","25.0783166666667","6501400","蘆洲區"
"247004","335-TH","2018/03/20 17:39:23","新北市蘆洲區長安街249巷8號","121.458658333333","25.0831","6501400","蘆洲區"
"247018","057-VK","2018/03/20 17:39:08","新北市蘆洲區民權路104號","121.473993333333","25.08833","6501400","蘆洲區"
"247008","056-VK","2018/03/20 17:39:38","新北市蘆洲區民生街137號","121.472418333333","25.0792033333333","6501400","蘆洲區"
"247016","007-UY","2018/03/20 17:39:23","新北市蘆洲區光華路72號","121.468026666667","25.0828383333333","6501400","蘆洲區"
"247002","002-UY","2018/03/20 17:39:27","新北市蘆洲區永平街42-1號","121.458153333333","25.0911733333333","6501400","蘆洲區"
"247020","001-UY","2018/03/20 17:39:43","新北市蘆洲區民族路363號","121.471716666667","25.0916283333333","6501400","蘆洲區"
"228003","097-TW","2018/03/20 17:39:25","新北市貢寮區仁理村仁和路268號","121.924218333333","25.054475","6502600","貢寮區"
"228001","212-TW","2018/03/20 17:39:29","新北市貢寮區仁理村仁愛路95-1號","121.927691666667","25.05547","6502600","貢寮區"
"228002","585-TW","2018/03/20 17:39:31","新北市貢寮區福隆里龜壽谷街11-1號","121.954401666667","25.006805","6502600","貢寮區"
"224010","AGQ-8101","2018/03/20 17:39:25","新北市瑞芳區岳王路148-1號","121.808896666667","25.1113133333333","6501200","瑞芳區"
"224006","676-BX","2018/03/20 17:39:34","新北市瑞芳區傑魚坑路73號","121.793231666667","25.1105066666667","6501200","瑞芳區"
"224008","285-BY","2018/03/20 17:39:40","新北市瑞芳區瑞柑新村4號","121.829066666667","25.106325","6501200","瑞芳區"
"224007","275-VK","2018/03/20 17:19:21","新北市瑞芳區大寮路356-1號","121.785056666667","25.1033383333333","6501200","瑞芳區"
"224009","273-VK","2018/03/20 17:39:40","新北市瑞芳區金光路364號","121.849963333333","25.1104","6501200","瑞芳區"
"224005","271-BY","2018/03/20 17:39:31","新北市瑞芳區海濱路23號","121.830973333333","25.1250533333333","6501200","瑞芳區"
"227003","400-TW","2018/03/20 17:39:34","新北市雙溪區三貂里政光路3號","121.851555","25.0632433333333","6502500","雙溪區"
"251004","009-UM","2018/03/20 17:39:35","新北市淡水區中正東路二段88巷41號","121.459191666667","25.1421733333333","6501000","淡水區"
"251006","010-UM","2018/03/20 17:39:31","新北市淡水區大信街13號","121.441871666667","25.1766916666667","6501000","淡水區"
"251001","011-UM","2018/03/20 17:39:34","新北市淡水區民權路92巷35-1號","121.462236666667","25.126655","6501000","淡水區"
"251002","012-UM","2018/03/20 17:39:32","新北市淡水區清水街250號","121.440483333333","25.17226","6501000","淡水區"
"251013","179-VK","2018/03/20 17:39:31","新北市淡水區演戲埔腳3-2號","121.47322","25.1925833333333","6501000","淡水區"
"251014","180-VK","2018/03/20 17:39:33","新北市淡水區公埔子15-1號","121.47928","25.2267733333333","6501000","淡水區"
"251008","181-VK","2018/03/20 17:39:23","新北市淡水區中正東路二段143巷12弄2-2號","121.462008333333","25.1481866666667","6501000","淡水區"
"251015","182-VK","2018/03/20 17:39:01","新北市淡水區興福寮1-7號","121.487398333333","25.16491","6501000","淡水區"
"251012","441-VK","2018/03/20 17:39:36","新北市淡水區北新路200巷8號","121.45169","25.179675","6501000","淡水區"
"251016","442-VK","2018/03/20 17:39:25","新北市淡水區埤島39-15號","121.452758333333","25.195885","6501000","淡水區"
"251005","443-VK","2018/03/20 17:39:34","新北市淡水區鄧公路33巷3號","121.451565","25.17112","6501000","淡水區"
"251009","575-R6","2018/03/20 17:39:39","新北市淡水區中正路38-1號","121.443676666667","25.1692533333333","6501000","淡水區"
"251007","577-R6","2018/03/20 17:39:34","新北市淡水區民生路124巷4弄7號","121.463598333333","25.1379733333333","6501000","淡水區"
"251011","650-BX","2018/03/20 17:39:27","新北市淡水區小坪頂13-3號","121.48662","25.156175","6501000","淡水區"
"251010","672-BX","2018/03/20 17:39:31","新北市淡水區淡海路280巷97號","121.419645","25.188605","6501000","淡水區"
"251003","673-BX","2018/03/20 17:39:32","新北市淡水區中山北路一段50號","121.441868333333","25.175595","6501000","淡水區"
"207003","550-UM","2018/03/20 17:39:19","新北市萬里區龜吼里漁澳路64-3號","121.687725","25.195765","6502800","萬里區"
"207004","225-TW","2018/03/20 17:39:33","新北市萬里區中幅里中福路8-1號","121.685885","25.1649133333333","6502800","萬里區"
"252002","178-VK","2018/03/20 17:39:32","新北市三芝區中正路二段27號","121.504286666667","25.2551166666667","6502100","三芝區"
"252001","292-VK","2018/03/20 17:39:39","新北市三芝區淡金路二段4號","121.502403333333","25.25917","6502100","三芝區"
"237008","302-VK","2018/03/20 17:39:36","新北市三峽區中山路459巷52-1號","121.357138333333","24.9362816666667","6500900","三峽區"
"237006","5529-G3","2018/03/20 17:39:36","新北市三峽區介壽路一段552巷16號","121.387646666667","24.9324016666667","6500900","三峽區"
"237011","KEA-2596","2018/03/20 17:39:23","新北市三峽區民族街63號","121.369625","24.9296283333333","6500900","三峽區"
"237016","649-BX","2018/03/20 17:37:39","新北市三峽區中園街237-1號","121.36694","24.9194833333333","6500900","三峽區"
"237010","706-TV","2018/03/20 17:39:38","新北市三峽區中山路130號","121.365406666667","24.93606","6500900","三峽區"
"236070","105-UM","2018/03/20 17:39:31","新北市土城區自強街35號","121.43293","24.973285","6501300","土城區"
"236079","166-UM","2018/03/20 17:39:41","新北市土城區亞洲路32巷23號","121.434911666667","24.9750066666667","6501300","土城區"
"242034","AAC-296","2018/03/20 17:39:41","新北市新莊區新莊路621號","121.445615","25.0328416666667","6500500","新莊區"
"242058","986-R7","2018/03/20 17:39:38","新北市新莊區中正路626號","121.422178333333","25.0288416666667","6500500","新莊區"
"242054","751-BX","2018/03/20 17:39:33","新北市新莊區新樹路699巷16號","121.432535","25.0019016666667","6500500","新莊區"
"242029","705-TV","2018/03/20 17:39:28","新北市新莊區復興路一段161號","121.450885","25.0433933333333","6500500","新莊區"
"242027","615-BX","2018/03/20 17:39:38","新北市新莊區福壽街120號","121.457918333333","25.0509633333333","6500500","新莊區"
"242025","613-BX","2018/03/20 17:39:34","新北市新莊區頭前路155號","121.460858333333","25.0524883333333","6500500","新莊區"
"242042","566-BX","2018/03/20 17:39:40","新北市新莊區中正路514巷29號","121.432758333333","25.0332066666667","6500500","新莊區"
"242046","497-BY","2018/03/20 17:39:34","新北市新莊區建國一路19號","121.433868333333","25.0315683333333","6500500","新莊區"
"242051","441-UM","2018/03/20 17:39:35","新北市新莊區西盛街199-1號","121.428206666667","25.0169783333333","6500500","新莊區"
"242056","440-UM","2018/03/20 17:39:37","新北市新莊區新泰路3巷33號","121.449035","25.0319533333333","6500500","新莊區"
"242037","415-TV","2018/03/20 17:39:30","新北市新莊區後港一路154號","121.429895","25.0274566666667","6500500","新莊區"
"242007","413-TV","2018/03/20 17:39:27","新北市新莊區福樂街122號","121.456971666667","25.0478116666667","6500500","新莊區"
"242044","400-BY","2018/03/20 17:39:35","新北市新莊區富國路65巷7號","121.419843333333","25.0265333333333","6500500","新莊區"
"242023","362-BY","2018/03/20 17:39:25","新北市新莊區民樂街23號","121.457626666667","25.04081","6500500","新莊區"
"242061","353-BY","2018/03/20 17:39:35","新北市新莊區瓊林南路103巷8弄19號","121.435255","25.0115366666667","6500500","新莊區"
"242009","132-UY","2018/03/20 17:39:26","新北市新莊區昌明街14巷12號","121.457466666667","25.0532983333333","6500500","新莊區"
"242039","133-UY","2018/03/20 17:39:22","新北市新莊區民安路322號","121.429006666667","25.02197","6500500","新莊區"
"242032","135-UY","2018/03/20 17:39:36","新北市新莊區新泰路361巷1號","121.44384","25.0430966666667","6500500","新莊區"
"242048","172-VK","2018/03/20 17:39:38","新北市新莊區萬安街146巷18號","121.419956666667","25.021885","6500500","新莊區"
"242017","175-VK","2018/03/20 17:39:29","新北市新莊區復興路一段149巷21弄15號","121.449441666667","25.04403","6500500","新莊區"
"242005","176-VK","2018/03/20 17:39:28","新北市新莊區自立街200號","121.456705","25.0454433333333","6500500","新莊區"
"242015","346-TH","2018/03/20 17:39:40","新北市新莊區新泰路345號","121.444731666667","25.0420216666667","6500500","新莊區"
"242021","348-TH","2018/03/20 17:39:30","新北市新莊區中華路一段118號","121.452566666667","25.0405383333333","6500500","新莊區"
"242002","349-TH","2018/03/20 17:39:33","新北市新莊區新莊路397號","121.451138333333","25.0336966666667","6500500","新莊區"
"242013","351-TH","2018/03/20 17:39:41","新北市新莊區中誠街93號","121.45005","25.0477333333333","6500500","新莊區"
"238015","755-BX","2018/03/20 17:39:36","新北市樹林區啟智街44巷1號","121.420591666667","24.99281","6500700","樹林區"
"238023","601-UM","2018/03/20 17:39:33","新北市樹林區三福街114號","121.406528333333","25.0163533333333","6500700","樹林區"
"238019","599-UM","2018/03/20 17:39:38","新北市樹林區太平路145號","121.419235","24.9798916666667","6500700","樹林區"
"238018","571-TV","2018/03/20 17:39:30","新北市樹林區鎮前街124號","121.424895","24.9910083333333","6500700","樹林區"
"238024","5061-A6","2018/03/20 17:39:35","新北市樹林區環河路2-2號","121.42558","24.9769816666667","6500700","樹林區"
"238022","KEA-2213","2018/03/20 17:39:33","新北市樹林區中華路185-1號","121.4205","24.9817033333333","6500700","樹林區"
"238021","KEA-2539","2018/03/20 17:39:23","新北市樹林區柑園街一段190號","121.395386666667","24.9565233333333","6500700","樹林區"
"238025","303-VK","2018/03/20 17:39:41","新北市樹林區保安街二段159號","121.415285","25.0027616666667","6500700","樹林區"
"238017","283-BY","2018/03/20 17:39:24","新北市樹林區中正路246號","121.418015","25.0075466666667","6500700","樹林區"
"238014","282-BY","2018/03/20 17:39:28","新北市樹林區保安街一段294巷22號","121.42031","24.998725","6500700","樹林區"
"238020","268-VK","2018/03/20 17:39:30","新北市樹林區俊英街210號","121.42523","25.00943","6500700","樹林區"
"238026","172-UY","2018/03/20 17:39:35","新北市樹林區新興街19巷34弄1號","121.402096666667","24.973475","6500700","樹林區"
"238016","169-UY","2018/03/20 17:37:59","新北市樹林區育英街61號","121.420666666667","24.9891116666667","6500700","樹林區"
"239007","AAC-297","2018/03/20 17:39:25","新北市鶯歌區鶯桃路182巷96弄5號","121.339803333333","24.9575433333333","6500800","鶯歌區"
"239006","891-R6","2018/03/20 17:39:38","新北市鶯歌區鳳鳴路103號","121.334295","24.9662283333333","6500800","鶯歌區"
"239008","527-UM","2018/03/20 17:39:36","新北市鶯歌區大湖路700巷22弄13號","121.333698333333","24.97736","6500800","鶯歌區"
"239005","526-UM","2018/03/20 17:39:25","新北市鶯歌區福隆二街68號","121.324298333333","24.9713983333333","6500800","鶯歌區"
"239001","417-VK","2018/03/20 17:39:39","新北市鶯歌區中正三路287-8號","121.330005","24.93655","6500800","鶯歌區"
"239003","360-BY","2018/03/20 17:39:32","新北市鶯歌區鶯桃路206巷58號","121.338191666667","24.9602633333333","6500800","鶯歌區"
"239002","359-BY","2018/03/20 17:39:36","新北市鶯歌區育智路59號","121.345153333333","24.9550616666667","6500800","鶯歌區"
"239004","193-VK","2018/03/20 17:39:40","新北市鶯歌區三鶯路93號","121.359166666667","24.94389","6500800","鶯歌區"
"221008","489-VK","2018/03/20 17:39:32","新北市汐止區康寧街901號","121.651383333333","25.0750666666667","6501100","汐止區"
"221010","269-BY","2018/03/20 17:39:41","新北市汐止區汐萬路一段418巷46號","121.651143333333","25.079055","6501100","汐止區"
"221023","279-VK","2018/03/20 17:39:29","新北市汐止區康寧街901號","121.651648333333","25.0749816666667","6501100","汐止區"
"221032","280-BY","2018/03/20 17:39:23","新北市汐止區康寧街901號","121.650955","25.075235","6501100","汐止區"
"221021","299-VK","2018/03/20 17:39:38","新北市汐止區康寧街901號","121.650813333333","25.0753083333333","6501100","汐止區"
"221031","353-TW","2018/03/20 17:39:36","新北市汐止區康寧街901號","121.651766666667","25.0749616666667","6501100","汐止區"
"221025","623-UM","2018/03/20 17:39:21","新北市汐止區康寧街901號","121.651701666667","25.074925","6501100","汐止區"
"221033","647-BX","2018/03/20 17:39:30","新北市汐止區橫科路407巷25弄17-1號","121.626363333333","25.0488783333333","6501100","汐止區"
"221018","753-BX","2018/03/20 17:39:37","新北市汐止區汐萬路一段312號","121.650408333333","25.0751816666667","6501100","汐止區"
"242011","281-VK","2018/03/20 17:39:37","新北市新莊區中港路586號","121.451316666667","25.05369","6500500","新莊區"
"242019","280-VK","2018/03/20 17:39:40","新北市新莊區中港路164號","121.455011666667","25.041525","6500500","新莊區"
