"lineid","car","time","location","longitude","latitude","cityid","cityname"
"234007","207-UY","2018/03/20 18:19:26","新北市永和區仁愛路306巷77號","121.50182","25.0094266666667","6500400","永和區"
"234013","KEA-2591","2018/03/20 18:19:36","新北市永和區福和路1號","121.526108333333","25.00947","6500400","永和區"
"234042","862-TW","2018/03/20 18:19:39","新北市永和區福和路1號","121.52603","25.0097783333333","6500400","永和區"
"234026","9371-KE","2018/03/20 18:19:33","新北市永和區豫溪街42巷3號","121.515601666667","25.0096066666667","6500400","永和區"
"249005","172-UM","2018/03/20 18:19:38","新北市八里區荖阡坑路7-3號","121.399393333333","25.14202","6502300","八里區"
"249001","173-UM","2018/03/20 18:19:29","新北市八里區龍米路一段172號","121.452261666667","25.126765","6502300","八里區"
"249004","303-UY","2018/03/20 18:19:34","新北市八里區龍米路二段230-2號","121.431708333333","25.158725","6502300","八里區"
"249002","305-UY","2018/03/20 18:19:21","新北市八里區龍形二街41號","121.450066666667","25.132825","6502300","八里區"
"248016","026-BX","2018/03/20 18:19:26","新北市五股區成泰路三段491巷9號","121.44988","25.09904","6501500","五股區"
"248006","077-UY","2018/03/20 18:19:09","新北市五股區中興路一段181號","121.4644","25.073825","6501500","五股區"
"248008","095-VK","2018/03/20 18:19:39","新北市五股區更洲路32巷8弄17號","121.459281666667","25.07963","6501500","五股區"
"248020","225-UY","2018/03/20 18:19:27","新北市五股區孝義路47巷1-2號","121.45409","25.110475","6501500","五股區"
"248012","247-BX","2018/03/20 18:19:26","新北市五股區御史路1巷101弄1號","121.441135","25.09094","6501500","五股區"
"248014","261-SL","2018/03/20 18:19:28","新北市五股區成泰路一段171巷15號","121.434363333333","25.0743566666667","6501500","五股區"
"248004","677-BX","2018/03/20 18:19:31","新北市五股區成泰路二段87號","121.438301666667","25.0841766666667","6501500","五股區"
"248002","678-BX","2018/03/20 18:19:32","新北市五股區西雲路68號","121.44373","25.091695","6501500","五股區"
"248010","682-TV","2018/03/20 18:19:23","新北市五股區成泰路一段173-1號","121.43519","25.0748633333333","6501500","五股區"
"232011","375-UM","2018/03/20 18:17:58","新北市坪林區坪雙路一段43號","121.711701666667","24.9424333333333","6502000","坪林區"
"244013","069-UM","2018/03/20 18:19:35","新北市林口區佳林路101巷36號","121.387013333333","25.0800216666667","6501700","林口區"
"244007","080-UY","2018/03/20 18:19:24","新北市林口區湖子11號","121.387083333333","25.0891083333333","6501700","林口區"
"244025","742-UY","2018/03/20 18:19:40","新北市林口區南勢六街55號","121.355716666667","25.0714833333333","6501700","林口區"
"244023","483-VK","2018/03/20 18:19:36","新北市林口區仁愛路二段8號","121.385881666667","25.0764033333333","6501700","林口區"
"244017","485-VK","2018/03/20 18:19:37","新北市林口區八德路36號","121.367525","25.0665483333333","6501700","林口區"
"244009","656-BX","2018/03/20 18:19:31","新北市林口區文林二街16號","121.376761666667","25.08877","6501700","林口區"
"244019","657-BX","2018/03/20 18:19:40","新北市林口區忠孝路551號","121.372458333333","25.0686783333333","6501700","林口區"
"244011","701-TV","2018/03/20 18:19:31","新北市林口區中正路74巷5弄2號","121.394593333333","25.0780683333333","6501700","林口區"
"244021","838-TS","2018/03/20 18:19:40","新北市林口區自強一街6-2號","121.397848333333","25.07855","6501700","林口區"
"243013","646-TV","2018/03/20 18:19:31","新北市泰山區南林路103號","121.415603333333","25.0441033333333","6501600","泰山區"
"222003","436-BY","2018/03/20 18:19:31","新北市深坑區旺耽路67號","121.626251666667","25.003005","6501800","深坑區"
"222002","659-BX","2018/03/20 18:19:35","新北市深坑區文化街1號","121.620791666667","25.00136","6501800","深坑區"
"231041","002-UM","2018/03/20 18:19:29","新北市新店區安華路28-1號","121.51971","24.9607283333333","6500600","新店區"
"231059","046-UY","2018/03/20 18:19:36","新北市新店區安華路28-1號","121.519595","24.96088","6500600","新店區"
"231061","047-UY","2018/03/20 18:19:41","新北市新店區安華路28-1號","121.5192","24.9608983333333","6500600","新店區"
"231060","106-UY","2018/03/20 18:19:27","新北市新店區安華路28-1號","121.519618333333","24.9608516666667","6500600","新店區"
"231051","107-UY","2018/03/20 18:19:41","新北市新店區安華路28-1號","121.519433333333","24.96131","6500600","新店區"
"231048","108-UY","2018/03/20 18:19:31","新北市新店區安華路28-1號","121.519513333333","24.961075","6500600","新店區"
"231053","187-VK","2018/03/20 18:19:43","新北市新店區安康路一段35號","121.531668333333","24.9607366666667","6500600","新店區"
"231057","188-VK","2018/03/20 18:19:24","新北市新店區安康路一段355-3號","121.519086666667","24.9616933333333","6500600","新店區"
"231050","KEA-2219","2018/03/20 18:19:37","新北市新店區安華路28-1號","121.519785","24.9611816666667","6500600","新店區"
"221015","KEA-2785","2018/03/20 18:19:40","新北市汐止區鄉長路二段23巷13號","121.667661666667","25.0826683333333","6501100","汐止區"
"231046","278-BY","2018/03/20 18:19:39","新北市新店區直潭七街60號","121.532325","24.9399","6500600","新店區"
"231058","3712-VJ","2018/03/20 18:19:42","新北市新店區安康路一段230-3號","121.522278333333","24.9637266666667","6500600","新店區"
"231056","3713-VJ","2018/03/20 18:19:40","新北市新店區中央路21號","121.533206666667","24.9781433333333","6500600","新店區"
"231055","4716-K9","2018/03/20 18:19:36","新北市新店區安康路一段35-5號","121.531915","24.9606516666667","6500600","新店區"
"231067","4772-VM","2018/03/20 18:19:39","新北市新店區安華路28-1號","121.519361666667","24.96066","6500600","新店區"
"231065","512-UM","2018/03/20 18:19:38","新北市新店區安華路28-1號","121.519346666667","24.9612633333333","6500600","新店區"
"231049","513-UM","2018/03/20 18:19:25","新北市新店區安華路28-1號","121.519631666667","24.9611816666667","6500600","新店區"
"231045","617-UM","2018/03/20 18:06:14","新北市新店區安華路28-1號","121.519465","24.9608833333333","6500600","新店區"
"231040","619-UM","2018/03/20 18:19:34","新北市新店區安華路28-1號","121.519548333333","24.9608883333333","6500600","新店區"
"231063","645-TV","2018/03/20 18:19:41","新北市新店區安華路28-1號","121.519386666667","24.9607","6500600","新店區"
"231062","720-UM","2018/03/20 18:19:24","新北市新店區安華路28-1號","121.519488333333","24.9614866666667","6500600","新店區"
"231044","897-TW","2018/03/20 18:19:39","新北市新店區安華路28-1號","121.519645","24.9607966666667","6500600","新店區"
"231043","899-TW","2018/03/20 18:19:22","新北市新店區安華路28-1號","121.519336666667","24.9608833333333","6500600","新店區"
"231066","AKT-0513","2018/03/20 18:19:34","新北市新店區安華路28-1號","121.519468333333","24.960605","6500600","新店區"
"241033","AAC-255","2018/03/20 18:19:36","新北市三重區光復路一段61巷12號","121.472631666667","25.0492816666667","6500200","三重區"
"235066","003-UY","2018/03/20 18:19:36","新北市中和區中山路二段122號","121.502535","25.0036683333333","6500300","中和區"
"235064","005-UY","2018/03/20 18:19:30","新北市中和區圓通路167巷8號","121.497988333333","24.99496","6500300","中和區"
"235063","006-UY","2018/03/20 18:19:28","新北市中和區中正路566號","121.486631666667","24.9944816666667","6500300","中和區"
"235056","096-UM","2018/03/20 18:19:21","新北市中和區中山路二段479號","121.483008333333","25.0049933333333","6500300","中和區"
"235039","097-UM","2018/03/20 18:19:28","新北市中和區景新街170號","121.505953333333","24.9966633333333","6500300","中和區"
"235065","098-UM","2018/03/20 18:19:30","新北市中和區莊敬路49巷18號","121.501761666667","25.006175","6500300","中和區"
"235040","150-BY","2018/03/20 18:14:13","新北市中和區中正路305號","121.49241","24.9937866666667","6500300","中和區"
"235058","151-BY","2018/03/20 18:19:31","新北市中和區圓通路290號","121.490636666667","24.9894916666667","6500300","中和區"
"235055","183-VK","2018/03/20 18:19:37","新北市中和區連城路607號","121.477883333333","24.99314","6500300","中和區"
"235038","185-VK","2018/03/20 18:19:37","新北市中和區秀朗路三段128巷7弄5號","121.524368333333","24.9926416666667","6500300","中和區"
"235049","186-VK","2018/03/20 18:19:32","新北市中和區中正路637巷52弄1號","121.48545","24.9934616666667","6500300","中和區"
"235072","301-VK","2018/03/20 18:19:23","新北市中和區錦和路188號","121.49006","24.9952333333333","6500300","中和區"
"235043","352-BY","2018/03/20 18:19:34","新北市中和區中正路2-1號","121.503313333333","24.993575","6500300","中和區"
"235061","378-QA","2018/03/20 18:19:38","新北市中和區國光街215巷61-2號","121.467668333333","24.9998583333333","6500300","中和區"
"235050","4979-A6","2018/03/20 18:19:32","新北市中和區捷運路61巷7號","121.508965","24.9893166666667","6500300","中和區"
"235069","4980-A6","2018/03/20 18:19:31","新北市中和區連勝街29-1號","121.498561666667","24.9979683333333","6500300","中和區"
"235042","551-UM","2018/03/20 18:19:29","新北市中和區大仁街20巷25弄19號","121.518496666667","24.9936633333333","6500300","中和區"
"235070","558-UM","2018/03/20 18:19:25","新北市中和區圓通路176-1號","121.497181666667","24.994585","6500300","中和區"
"235045","565-BX","2018/03/20 18:19:29","新北市中和區景安路200巷3弄1號","121.503668333333","24.99149","6500300","中和區"
"235054","640-BX","2018/03/20 18:19:36","新北市中和區莒光路185號","121.47266","24.9990566666667","6500300","中和區"
"235060","647-TV","2018/03/20 18:19:36","新北市中和區員山路146-4號","121.481246666667","24.9970616666667","6500300","中和區"
"235047","732-UM","2018/03/20 18:19:26","新北市中和區板南路187號","121.499918333333","24.9928983333333","6500300","中和區"
"235046","733-UM","2018/03/20 18:19:27","新北市中和區員山路36巷13號","121.48417","24.9908633333333","6500300","中和區"
"235062","800-TS","2018/03/20 18:19:31","新北市中和區景平路999巷2號","121.495261666667","25.0060283333333","6500300","中和區"
"235057","801-TS","2018/03/20 18:19:43","新北市中和區民享街97巷15號","121.475538333333","24.99997","6500300","中和區"
"235041","802-TS","2018/03/20 18:19:23","新北市中和區中正路276號","121.494843333333","24.9939566666667","6500300","中和區"
"235052","805-TS","2018/03/20 18:19:38","新北市中和區興南路二段149號","121.504901666667","24.983885","6500300","中和區"
"235048","896-TW","2018/03/20 18:19:33","新北市中和區錦和路350-1號","121.490056666667","24.993565","6500300","中和區"
"235053","900-TW","2018/03/20 18:19:36","新北市中和區中正路637巷52弄1號","121.485481666667","24.993445","6500300","中和區"
"235051","157-BY","2018/03/20 18:19:34","新北市中和區信義街67號","121.511706666667","24.9880316666667","6500300","中和區"
"235037","AAC-213","2018/03/20 18:19:23","新北市中和區景德街31號","121.518723333333","24.991245","6500300","中和區"
"226004","312-R5","2018/03/20 18:19:30","新北市平溪區靜安路二段50號","121.714785","25.0207266666667","6502400","平溪區"
"228003","097-TW","2018/03/20 18:19:25","新北市貢寮區真理里美艷山街65號","121.91945","25.072565","6502600","貢寮區"
"228001","212-TW","2018/03/20 18:19:29","新北市貢寮區真理里新港街26巷55弄2-1號","121.927376666667","25.0528766666667","6502600","貢寮區"
"228002","585-TW","2018/03/20 18:19:31","新北市貢寮區福連里馬崗街1號","121.994933333333","25.0149483333333","6502600","貢寮區"
"224010","AGQ-8101","2018/03/20 17:53:45","新北市瑞芳區金光路334號","121.848598333333","25.1100283333333","6501200","瑞芳區"
"224006","676-BX","2018/03/20 18:19:30","新北市瑞芳區民權街3-2號","121.808121666667","25.1074066666667","6501200","瑞芳區"
"224002","639-TC","2018/03/20 18:19:41","新北市瑞芳區三爪子坑路107號","121.81081","25.10711","6501200","瑞芳區"
"224008","285-BY","2018/03/20 18:19:33","新北市瑞芳區逢甲路15號","121.809788333333","25.10869","6501200","瑞芳區"
"224007","275-VK","2018/03/20 18:19:29","新北市瑞芳區大埔路有勝新村2號","121.764873333333","25.1014183333333","6501200","瑞芳區"
"224009","273-VK","2018/03/20 18:19:40","新北市瑞芳區新山路43號","121.855963333333","25.1083233333333","6501200","瑞芳區"
"224005","271-BY","2018/03/20 18:19:31","新北市瑞芳區建基新村20-14號","121.811225","25.1312883333333","6501200","瑞芳區"
"227009","642-TC","2018/03/20 18:19:23","新北市雙溪區牡丹里牡丹73號","121.851685","25.0593316666667","6502500","雙溪區"
"227003","400-TW","2018/03/20 18:19:35","新北市雙溪區共和里中山路6號","121.864173333333","25.0336283333333","6502500","雙溪區"
"253005","032-BX","2018/03/20 18:19:28","新北市石門區中央路2號","121.56432","25.2911816666667","6502200","石門區"
"253006","295-VK","2018/03/20 18:19:31","新北市石門區老梅路63號","121.545821666667","25.2892933333333","6502200","石門區"
"222001","KEA-2212","2018/03/20 18:19:22","新北市深坑區北深路二段58號","121.619051666667","25.004295","6501800","深坑區"
"208002","KEA-2872","2018/03/20 18:19:36","新北市金山區清泉里清水路60巷20號","121.634796666667","25.234015","6502700","金山區"
"208003","665-BX","2018/03/20 18:19:30","新北市金山區民生路51巷1-2號","121.641821666667","25.2190983333333","6502700","金山區"
"208001","761-BX","2018/03/20 18:19:34","新北市金山區自強路13號","121.640393333333","25.2164533333333","6502700","金山區"
"251004","009-UM","2018/03/20 18:18:39","新北市淡水區民族路33巷16-19號","121.462378333333","25.1359866666667","6501000","淡水區"
"251006","010-UM","2018/03/20 18:19:31","新北市淡水區新民街76巷14號","121.438995","25.17676","6501000","淡水區"
"251001","011-UM","2018/03/20 18:19:34","新北市淡水區自強路110-9號","121.461988333333","25.1316783333333","6501000","淡水區"
"251002","012-UM","2018/03/20 18:19:32","新北市淡水區中正東路一段69號","121.452686666667","25.1622383333333","6501000","淡水區"
"251013","179-VK","2018/03/20 18:19:27","新北市淡水區行忠路592號","121.469221666667","25.1992866666667","6501000","淡水區"
"251014","180-VK","2018/03/20 18:19:33","新北市淡水區崙頂14號","121.491166666667","25.2218016666667","6501000","淡水區"
"251008","181-VK","2018/03/20 18:19:43","新北市淡水區水源街二段242號","121.46132","25.1762666666667","6501000","淡水區"
"251015","182-VK","2018/03/20 18:19:41","新北市淡水區興福寮88巷1號","121.485406666667","25.16503","6501000","淡水區"
"251012","441-VK","2018/03/20 18:19:36","新北市淡水區北新路二段77-5號","121.480508333333","25.185575","6501000","淡水區"
"251016","442-VK","2018/03/20 18:19:25","新北市淡水區淡金路三段228巷35號","121.450068333333","25.2048366666667","6501000","淡水區"
"251005","443-VK","2018/03/20 18:19:34","新北市淡水區水源街一段122巷37號","121.447203333333","25.1705033333333","6501000","淡水區"
"251009","575-R6","2018/03/20 18:19:19","新北市淡水區崁頂75-2號","121.436011666667","25.2038033333333","6501000","淡水區"
"251011","650-BX","2018/03/20 18:19:27","新北市淡水區坪頂路49號","121.457756666667","25.1625383333333","6501000","淡水區"
"251010","672-BX","2018/03/20 18:19:31","新北市淡水區淡海路180巷12-3號","121.420413333333","25.1846816666667","6501000","淡水區"
"251003","673-BX","2018/03/20 18:19:32","新北市淡水區北新路139號","121.449496666667","25.17892","6501000","淡水區"
"207003","550-UM","2018/03/20 18:19:39","新北市萬里區野柳里港東路24號","121.68753","25.20377","6502800","萬里區"
"207004","225-TW","2018/03/20 18:19:33","新北市萬里區中幅里中福路39-2號","121.676973333333","25.1658866666667","6502800","萬里區"
"252002","178-VK","2018/03/20 18:19:32","新北市三芝區中山路二段35號","121.502838333333","25.255185","6502100","三芝區"
"252004","249-BX","2018/03/20 18:19:29","新北市三芝區錫板里海尾11-7號","121.478771666667","25.26129","6502100","三芝區"
"252001","292-VK","2018/03/20 18:19:39","新北市三芝區中興街二段2號","121.498386666667","25.2567216666667","6502100","三芝區"
"237004","KEA-2597","2018/03/20 18:19:38","新北市三峽區五寮81號","121.359466666667","24.8586166666667","6500900","三峽區"
"237007","153-BY","2018/03/20 18:19:33","新北市三峽區中正路二段496巷2號","121.361816666667","24.9065066666667","6500900","三峽區"
"237009","210-TH","2018/03/20 18:19:38","新北市三峽區中山路138-3號","121.365063333333","24.9362966666667","6500900","三峽區"
"237013","252-BX","2018/03/20 18:19:36","新北市三峽區永安街72號","121.376095","24.930125","6500900","三峽區"
"237012","275-BY","2018/03/20 18:19:30","新北市三峽區民生街1巷3-9號","121.377136666667","24.9362566666667","6500900","三峽區"
"237008","302-VK","2018/03/20 18:19:39","新北市三峽區白雞68-317號","121.391598333333","24.9099166666667","6500900","三峽區"
"237014","433-BY","2018/03/20 18:19:26","新北市三峽區復興路59號","121.373075","24.9373016666667","6500900","三峽區"
"237006","5529-G3","2018/03/20 18:19:36","新北市三峽區溪東路182號","121.406666666667","24.9325733333333","6500900","三峽區"
"237011","KEA-2596","2018/03/20 18:19:43","新北市三峽區溪東路372號","121.41375","24.9279183333333","6500900","三峽區"
"237016","649-BX","2018/03/20 18:18:19","新北市三峽區紫微南路11號","121.425493333333","24.9215816666667","6500900","三峽區"
"237010","706-TV","2018/03/20 18:19:38","新北市三峽區中山路281號","121.361966666667","24.937615","6500900","三峽區"
"237005","AKY-6261","2018/03/20 18:19:30","新北市三峽區秀川街84號","121.370416666667","24.9334933333333","6500900","三峽區"
"236070","105-UM","2018/03/20 18:19:31","新北市土城區永豐路151巷39號","121.467503333333","24.9825683333333","6501300","土城區"
"236043","107-UM","2018/03/20 18:19:37","新北市土城區樂利街3巷18號","121.448631666667","24.9863733333333","6501300","土城區"
"236079","166-UM","2018/03/20 18:19:41","新北市土城區永平街2巷7號","121.427105","24.9633216666667","6501300","土城區"
"236031","253-BX","2018/03/20 18:19:40","新北市土城區順風路63號","121.440205","24.977335","6501300","土城區"
"236026","269-VK","2018/03/20 18:19:22","新北市土城區承天路18號","121.4392","24.9634766666667","6501300","土城區"
"236015","270-VK","2018/03/20 18:19:25","新北市土城區青雲路39巷7號","121.46029","24.987425","6501300","土城區"
"236038","271-VK","2018/03/20 18:19:28","新北市土城區青雲路451巷8弄19號","121.459561666667","24.9739783333333","6501300","土城區"
"236023","401-BY","2018/03/20 18:19:32","新北市土城區明德路一段109號","121.465463333333","24.9814516666667","6501300","土城區"
"236059","912-UM","2018/03/20 18:19:40","新北市土城區中央路四段207號","121.414025","24.9560766666667","6501300","土城區"
"236049","913-UM","2018/03/20 18:19:39","新北市土城區青雲路318號","121.45867","24.9771133333333","6501300","土城區"
"236063","915-UM","2018/03/20 18:19:37","新北市土城區金城路三段191-1號","121.46998","24.988935","6501300","土城區"
"236055","AAC-216","2018/03/20 18:19:26","新北市土城區中華路二段92號","121.438296666667","24.9747833333333","6501300","土城區"
"242034","AAC-296","2018/03/20 18:19:40","新北市新莊區景德路282號","121.447958333333","25.0336166666667","6500500","新莊區"
"242058","986-R7","2018/03/20 18:19:26","新北市新莊區中正路742-1號","121.413633333333","25.022975","6500500","新莊區"
"242054","751-BX","2018/03/20 18:19:33","新北市新莊區民安西路410巷12弄2號","121.427901666667","25.0089766666667","6500500","新莊區"
"242029","705-TV","2018/03/20 18:19:28","新北市泰山區泰林路一段6號","121.442026666667","25.0484266666667","6500500","新莊區"
"242027","615-BX","2018/03/20 18:19:26","新北市新莊區幸福路823號","121.445246666667","25.0490316666667","6500500","新莊區"
"242025","613-BX","2018/03/20 18:19:34","新北市新莊區五工五路15號","121.454646666667","25.0620833333333","6500500","新莊區"
"242042","566-BX","2018/03/20 18:19:39","新北市新莊區天祥街77號","121.41565","25.0292816666667","6500500","新莊區"
"242046","497-BY","2018/03/20 18:19:34","新北市新莊區中正路829巷22弄2號","121.42149","25.0272066666667","6500500","新莊區"
"242051","441-UM","2018/03/20 18:19:27","新北市新莊區新樹路206巷3號","121.433391666667","25.0204233333333","6500500","新莊區"
"242056","440-UM","2018/03/20 18:19:37","新北市新莊區豐年街53巷48號","121.447951666667","25.0317833333333","6500500","新莊區"
"242007","413-TV","2018/03/20 18:19:27","新北市新莊區中華路二段36-1號","121.453935","25.0454466666667","6500500","新莊區"
"242044","400-BY","2018/03/20 18:19:35","新北市新莊區中山路三段533巷1號","121.413056666667","25.0278266666667","6500500","新莊區"
"242061","353-BY","2018/03/20 18:19:36","新北市新莊區新樹路69-31號","121.438463333333","25.0292716666667","6500500","新莊區"
"242009","132-UY","2018/03/20 18:19:25","新北市新莊區昌盛街15號","121.453215","25.0500533333333","6500500","新莊區"
"242032","135-UY","2018/03/20 18:19:36","新北市新莊區新泰路255巷58號","121.443741666667","25.0395633333333","6500500","新莊區"
"242005","176-VK","2018/03/20 18:19:28","新北市新莊區新泰路528號","121.442361666667","25.0472316666667","6500500","新莊區"
"242021","348-TH","2018/03/20 18:19:30","新北市新莊區新興街18巷1號","121.45095","25.036485","6500500","新莊區"
"242002","349-TH","2018/03/20 18:19:28","新北市新莊區環漢路二段385號","121.451163333333","25.0326483333333","6500500","新莊區"
"238015","755-BX","2018/03/20 18:19:36","新北市樹林區大安路323巷10弄7號","121.417361666667","24.991045","6500700","樹林區"
"238023","601-UM","2018/03/20 18:19:33","新北市樹林區忠信街5號","121.409026666667","25.0149566666667","6500700","樹林區"
"238019","599-UM","2018/03/20 18:19:34","新北市樹林區中華路172-3號","121.41395","24.98035","6500700","樹林區"
"238018","571-TV","2018/03/20 18:19:43","新北市樹林區保安街一段18-3號","121.427566666667","24.9935333333333","6500700","樹林區"
"238024","5061-A6","2018/03/20 18:19:35","新北市樹林區中山路一段276號","121.420713333333","24.9869","6500700","樹林區"
"238025","303-VK","2018/03/20 18:19:21","新北市樹林區保安街一段219號","121.420628333333","24.9962183333333","6500700","樹林區"
"238017","283-BY","2018/03/20 18:19:24","新北市樹林區中正路813號","121.409321666667","25.0168216666667","6500700","樹林區"
"238014","282-BY","2018/03/20 18:19:28","新北市樹林區中正路105號","121.425143333333","25.000735","6500700","樹林區"
"238020","268-VK","2018/03/20 18:19:30","新北市樹林區三俊街7號","121.41137","25.0154833333333","6500700","樹林區"
"238026","172-UY","2018/03/20 18:19:35","新北市樹林區佳園路一段41巷22弄15號","121.394595","24.9703366666667","6500700","樹林區"
"238016","169-UY","2018/03/20 18:19:38","新北市樹林區文化街29號","121.418911666667","24.9877866666667","6500700","樹林區"
"239007","AAC-297","2018/03/20 18:19:25","新北市鶯歌區尖山埔路54號","121.348575","24.9510566666667","6500800","鶯歌區"
"239006","891-R6","2018/03/20 18:19:38","新北市鶯歌區鶯桃路455巷4弄4號","121.331965","24.96518","6500800","鶯歌區"
"239008","527-UM","2018/03/20 18:19:36","新北市鶯歌區朝陽街4號","121.336268333333","24.9765833333333","6500800","鶯歌區"
"239005","526-UM","2018/03/20 18:19:25","新北市鶯歌區鶯桃路668巷52弄21號","121.329731666667","24.9703483333333","6500800","鶯歌區"
"239001","417-VK","2018/03/20 18:19:39","新北市鶯歌區國中街178號","121.338351666667","24.9392166666667","6500800","鶯歌區"
"239003","360-BY","2018/03/20 18:19:32","新北市鶯歌區福安街13巷1號","121.335698333333","24.96533","6500800","鶯歌區"
"239002","359-BY","2018/03/20 18:19:36","新北市鶯歌區中正一路4號","121.352521666667","24.9529066666667","6500800","鶯歌區"
"239004","193-VK","2018/03/20 18:19:40","新北市鶯歌區尖山路191巷37號","121.345001666667","24.9464916666667","6500800","鶯歌區"
"221008","489-VK","2018/03/20 18:19:32","新北市汐止區汐萬路一段301號","121.64922","25.0759416666667","6501100","汐止區"
"221010","269-BY","2018/03/20 18:19:41","新北市汐止區祥雲街24號","121.646843333333","25.0899983333333","6501100","汐止區"
"221012","278-VK","2018/03/20 18:19:30","新北市汐止區長興街二段4巷20號","121.673491666667","25.0805166666667","6501100","汐止區"
"221023","279-VK","2018/03/20 18:19:29","新北市汐止區中興路240號","121.629618333333","25.0680183333333","6501100","汐止區"
"221032","280-BY","2018/03/20 18:19:23","新北市汐止區力行街12巷4號","121.616768333333","25.0511783333333","6501100","汐止區"
"221027","281-BY","2018/03/20 18:19:29","新北市汐止區和平街6巷8-1號","121.663608333333","25.0716183333333","6501100","汐止區"
"221029","298-VK","2018/03/20 18:19:28","新北市汐止區樟樹二路330巷72-1號","121.642983333333","25.06995","6501100","汐止區"
"221021","299-VK","2018/03/20 18:19:38","新北市汐止區大同路二段184巷6號","121.653138333333","25.0637383333333","6501100","汐止區"
"221031","353-TW","2018/03/20 18:19:36","新北市汐止區光復街8巷50-1號","121.63758","25.05672","6501100","汐止區"
"221035","622-UM","2018/03/20 18:19:25","新北市汐止區大同路二段207號","121.652766666667","25.06459","6501100","汐止區"
"221025","623-UM","2018/03/20 18:19:41","新北市汐止區勤進路12巷37號","121.659175","25.062655","6501100","汐止區"
"221038","646-BX","2018/03/20 18:19:39","新北市汐止區忠孝東路271號","121.663496666667","25.068255","6501100","汐止區"
"221033","647-BX","2018/03/20 18:19:31","新北市汐止區宜興街59巷6號","121.621731666667","25.0427633333333","6501100","汐止區"
"221002","707-TV","2018/03/20 18:19:27","新北市汐止區福德一路213巷35號","121.6358","25.064815","6501100","汐止區"
"221018","753-BX","2018/03/20 18:19:37","新北市汐止區茄苳路88巷32號","121.667616666667","25.0699516666667","6501100","汐止區"
"242011","281-VK","2018/03/20 18:19:37","新北市新莊區中港路中慶巷27弄18號","121.450046666667","25.0532033333333","6500500","新莊區"
"242019","280-VK","2018/03/20 18:19:40","新北市新莊區新泰路208號","121.446791666667","25.0387366666667","6500500","新莊區"
