"lineid","car","time","location","longitude","latitude","cityid","cityname"
"234046","148-BY","2018/03/20 18:29:25","新北市永和區福和路1號","121.526495","25.0099866666667","6500400","永和區"
"234007","207-UY","2018/03/20 18:29:26","新北市永和區環河西路二段7-3號","121.508826666667","25.016715","6500400","永和區"
"234081","298-R6","2018/03/20 18:29:30","新北市永和區林森路24號","121.52582","25.0052433333333","6500400","永和區"
"234013","KEA-2591","2018/03/20 18:29:36","新北市永和區福和路1號","121.525971666667","25.0094533333333","6500400","永和區"
"234042","862-TW","2018/03/20 18:29:39","新北市永和區福和路247號","121.518096666667","25.0074466666667","6500400","永和區"
"234026","9371-KE","2018/03/20 18:29:33","新北市永和區中山路一段58號","121.512953333333","25.0106333333333","6500400","永和區"
"234011","9373-KE","2018/03/20 18:29:27","新北市永和區保福路二段158巷1號","121.509086666667","25.0150466666667","6500400","永和區"
"249005","172-UM","2018/03/20 18:29:38","新北市八里區中華路三段145巷5號","121.391493333333","25.1340816666667","6502300","八里區"
"249001","173-UM","2018/03/20 18:29:29","新北市八里區龍米路一段140號","121.452966666667","25.12564","6502300","八里區"
"249004","303-UY","2018/03/20 18:29:34","新北市八里區文心街141號","121.425591666667","25.1612083333333","6502300","八里區"
"249002","305-UY","2018/03/20 18:29:41","新北市八里區龍形三街26號","121.448056666667","25.13159","6502300","八里區"
"248016","026-BX","2018/03/20 18:29:26","新北市五股區凌雲路一段83巷13弄1號","121.449306666667","25.1009316666667","6501500","五股區"
"248006","077-UY","2018/03/20 18:29:33","新北市五股區四維路25號","121.467148333333","25.0707633333333","6501500","五股區"
"248008","095-VK","2018/03/20 18:29:39","新北市五股區中興路二段78-5號","121.461343333333","25.0786316666667","6501500","五股區"
"248020","225-UY","2018/03/20 18:28:01","新北市五股區孝義路55巷1號","121.452616666667","25.1121016666667","6501500","五股區"
"248012","247-BX","2018/03/20 18:29:35","新北市五股區御史路24號","121.44209","25.091465","6501500","五股區"
"248014","261-SL","2018/03/20 18:29:28","新北市五股區自強路90巷51號","121.431433333333","25.07144","6501500","五股區"
"248004","677-BX","2018/03/20 18:29:31","新北市五股區工商路126號","121.436146666667","25.086","6501500","五股區"
"248002","678-BX","2018/03/20 18:29:32","新北市五股區西雲路163號","121.446156666667","25.0943766666667","6501500","五股區"
"248010","682-TV","2018/03/20 18:29:43","新北市五股區水碓路14號","121.433656666667","25.0724883333333","6501500","五股區"
"234074","AAC-211","2018/03/20 18:29:40","新北市永和區福和路1號","121.526513333333","25.0098866666667","6500400","永和區"
"232011","375-UM","2018/03/20 18:17:58","新北市坪林區坪雙路一段43號","121.711701666667","24.9424333333333","6502000","坪林區"
"244013","069-UM","2018/03/20 18:29:35","新北市林口區中山路299號","121.383948333333","25.0802683333333","6501700","林口區"
"244007","080-UY","2018/03/20 18:29:24","新北市林口區後湖19-6號","121.387768333333","25.098855","6501700","林口區"
"244025","742-UY","2018/03/20 18:29:36","新北市林口區南勢街280號","121.357526666667","25.0764033333333","6501700","林口區"
"244023","483-VK","2018/03/20 18:29:36","新北市林口區四維路251號","121.3815","25.0747966666667","6501700","林口區"
"244017","485-VK","2018/03/20 18:29:37","新北市林口區公園路43號","121.367335","25.0682666666667","6501700","林口區"
"244009","656-BX","2018/03/20 18:29:31","新北市林口區文林一街36-1號","121.377411666667","25.086765","6501700","林口區"
"244019","657-BX","2018/03/20 18:29:40","新北市林口區忠孝路581巷7號","121.375066666667","25.0687716666667","6501700","林口區"
"244011","701-TV","2018/03/20 18:29:31","新北市林口區中正路130號","121.393086666667","25.0772616666667","6501700","林口區"
"244021","838-TS","2018/03/20 18:29:40","新北市林口區自強二街50號","121.399166666667","25.0770766666667","6501700","林口區"
"243012","AAD-798","2018/03/20 18:29:32","新北市泰山區泰林路二段410號","121.427356666667","25.0643116666667","6501600","泰山區"
"243013","646-TV","2018/03/20 18:29:31","新北市泰山區明志路三段206巷3號","121.423288333333","25.0379316666667","6501600","泰山區"
"222003","436-BY","2018/03/20 18:29:31","新北市深坑區北深路一段288號","121.628131666667","25.00767","6501800","深坑區"
"222002","659-BX","2018/03/20 18:29:35","新北市深坑區雲鄉路202號","121.621821666667","24.99841","6501800","深坑區"
"231041","002-UM","2018/03/20 18:29:29","新北市新店區安華路28-1號","121.519781666667","24.9608283333333","6500600","新店區"
"231059","046-UY","2018/03/20 18:29:36","新北市新店區安華路28-1號","121.519543333333","24.9608516666667","6500600","新店區"
"231061","047-UY","2018/03/20 18:29:21","新北市新店區安華路28-1號","121.519186666667","24.960995","6500600","新店區"
"231060","106-UY","2018/03/20 18:29:27","新北市新店區安華路28-1號","121.51964","24.9608333333333","6500600","新店區"
"231051","107-UY","2018/03/20 18:29:41","新北市新店區安康路一段69號","121.530241666667","24.961075","6500600","新店區"
"231048","108-UY","2018/03/20 18:29:31","新北市新店區安華路28-1號","121.519563333333","24.9611216666667","6500600","新店區"
"231053","187-VK","2018/03/20 18:29:29","新北市新店區新烏路一段18號","121.546533333333","24.9511866666667","6500600","新店區"
"231057","188-VK","2018/03/20 18:29:24","新北市新店區環河路29巷1-1號","121.535931666667","24.9610583333333","6500600","新店區"
"231050","KEA-2219","2018/03/20 18:29:37","新北市新店區安華路28-1號","121.51986","24.96128","6500600","新店區"
"221015","KEA-2785","2018/03/20 18:29:40","新北市汐止區鄉友街36號","121.668906666667","25.0813966666667","6501100","汐止區"
"231046","278-BY","2018/03/20 18:29:39","新北市新店區直潭十街20-1號","121.533233333333","24.9388033333333","6500600","新店區"
"231054","AAD-862","2018/03/20 18:29:25","新北市新店區安華路28-1號","121.519871666667","24.9610533333333","6500600","新店區"
"231058","3712-VJ","2018/03/20 18:29:42","新北市新店區北新路一段43號","121.538115","24.9594116666667","6500600","新店區"
"231056","3713-VJ","2018/03/20 18:29:40","新北市新店區二十張路103號","121.536428333333","24.9798133333333","6500600","新店區"
"231055","4716-K9","2018/03/20 18:29:36","新北市新店區中正路128巷11號","121.54255","24.9720516666667","6500600","新店區"
"231067","4772-VM","2018/03/20 18:29:39","新北市新店區安華路28-1號","121.519318333333","24.960645","6500600","新店區"
"231065","512-UM","2018/03/20 18:29:38","新北市新店區安華路28-1號","121.519345","24.9612583333333","6500600","新店區"
"231049","513-UM","2018/03/20 18:29:25","新北市新店區安華路28-1號","121.51962","24.9611616666667","6500600","新店區"
"231064","515-UM","2018/03/20 18:29:27","新北市新店區安華路28-1號","121.519808333333","24.9610633333333","6500600","新店區"
"231045","617-UM","2018/03/20 18:06:14","新北市新店區安華路28-1號","121.519465","24.9608833333333","6500600","新店區"
"231040","619-UM","2018/03/20 18:29:34","新北市新店區安華路28-1號","121.519583333333","24.9608033333333","6500600","新店區"
"231042","641-BX","2018/03/20 18:29:31","新北市新店區安華路28-1號","121.519596666667","24.96056","6500600","新店區"
"231063","645-TV","2018/03/20 18:29:41","新北市新店區安華路28-1號","121.519385","24.96071","6500600","新店區"
"231062","720-UM","2018/03/20 18:29:24","新北市新店區安康路一段355-3號","121.51958","24.961815","6500600","新店區"
"231044","897-TW","2018/03/20 18:29:39","新北市新店區安華路28-1號","121.51965","24.9608033333333","6500600","新店區"
"231043","899-TW","2018/03/20 18:29:22","新北市新店區安華路28-1號","121.519241666667","24.9608","6500600","新店區"
"231066","AKT-0513","2018/03/20 18:29:34","新北市新店區安華路28-1號","121.51951","24.9605733333333","6500600","新店區"
"241033","AAC-255","2018/03/20 18:29:36","新北市三重區五谷王北街42巷14號","121.475235","25.0491966666667","6500200","三重區"
"235066","003-UY","2018/03/20 18:29:36","新北市中和區中山路二段122號","121.50261","25.0036716666667","6500300","中和區"
"235064","005-UY","2018/03/20 18:29:30","新北市中和區連城路139巷42號","121.496553333333","24.9976033333333","6500300","中和區"
"235063","006-UY","2018/03/20 18:29:28","新北市中和區連城路389巷9號","121.486573333333","24.995235","6500300","中和區"
"235056","096-UM","2018/03/20 18:29:41","新北市中和區員山路611巷1號","121.477893333333","25.0113033333333","6500300","中和區"
"235039","097-UM","2018/03/20 18:29:28","新北市中和區安平路161號","121.512483333333","24.99843","6500300","中和區"
"235065","098-UM","2018/03/20 18:29:30","新北市中和區中山路二段64巷11號","121.503078333333","25.0055633333333","6500300","中和區"
"235040","150-BY","2018/03/20 18:29:33","新北市中和區安平路38號","121.509866666667","24.9951183333333","6500300","中和區"
"235058","151-BY","2018/03/20 18:29:31","新北市中和區圓通路369巷30弄66號","121.48879","24.9849033333333","6500300","中和區"
"235055","183-VK","2018/03/20 18:29:37","新北市中和區中山路三段209號","121.471826666667","25.0064283333333","6500300","中和區"
"235038","185-VK","2018/03/20 18:29:37","新北市永和區民有街75巷2弄15號","121.519035","24.995855","6500300","中和區"
"235049","186-VK","2018/03/20 18:29:32","新北市中和區景安路163號","121.505278333333","24.9945916666667","6500300","中和區"
"235067","255-BX","2018/03/20 18:29:26","新北市中和區連城路469巷24號","121.48356","24.9950416666667","6500300","中和區"
"235072","301-VK","2018/03/20 18:29:23","新北市中和區連城路87號","121.496825","25.0003316666667","6500300","中和區"
"235043","352-BY","2018/03/20 18:29:34","新北市中和區景平路313號","121.50635","24.9932216666667","6500300","中和區"
"235068","377-QA","2018/03/20 18:29:23","新北市中和區錦和路203巷13號","121.491438333333","24.9905233333333","6500300","中和區"
"235061","378-QA","2018/03/20 18:29:38","新北市中和區民享街99號","121.475018333333","24.999885","6500300","中和區"
"235050","4979-A6","2018/03/20 18:29:32","新北市中和區景新街362巷5號","121.512003333333","24.9901","6500300","中和區"
"235069","4980-A6","2018/03/20 18:29:31","新北市中和區連城路127巷19號","121.496773333333","24.998205","6500300","中和區"
"235042","551-UM","2018/03/20 18:29:29","新北市中和區景平路64巷17號","121.522253333333","24.9914266666667","6500300","中和區"
"235070","558-UM","2018/03/20 18:29:25","新北市中和區景平路429-2號","121.50129","24.99549","6500300","中和區"
"235045","565-BX","2018/03/20 18:29:29","新北市中和區南山路236巷22弄20號","121.504976666667","24.98933","6500300","中和區"
"235054","640-BX","2018/03/20 18:29:36","新北市中和區民享街88巷2號","121.474505","25.0007916666667","6500300","中和區"
"235060","647-TV","2018/03/20 18:29:39","新北市中和區員山路427號","121.48089","25.0035766666667","6500300","中和區"
"235047","732-UM","2018/03/20 18:27:06","新北市中和區南山路519號","121.507931666667","24.98735","6500300","中和區"
"235046","733-UM","2018/03/20 18:29:27","新北市中和區中興街116號","121.499915","24.992965","6500300","中和區"
"235062","800-TS","2018/03/20 18:29:32","新北市中和區景平路754號","121.496453333333","25.0045466666667","6500300","中和區"
"235057","801-TS","2018/03/20 18:29:23","新北市中和區民享街97巷22號","121.475338333333","25","6500300","中和區"
"235041","802-TS","2018/03/20 18:29:23","新北市中和區景安路34號","121.507188333333","24.9983383333333","6500300","中和區"
"235052","805-TS","2018/03/20 18:29:19","新北市中和區興南路二段159巷2號","121.504715","24.9837216666667","6500300","中和區"
"235048","896-TW","2018/03/20 18:29:33","新北市中和區中正路133號","121.499571666667","24.99342","6500300","中和區"
"235053","900-TW","2018/03/20 18:29:36","新北市中和區民享街457號","121.470433333333","24.9931633333333","6500300","中和區"
"235051","157-BY","2018/03/20 18:29:34","新北市中和區興南路二段242巷23號","121.502375","24.983045","6500300","中和區"
"235037","AAC-213","2018/03/20 18:29:43","新北市中和區景德街95-3號","121.515341666667","24.9911416666667","6500300","中和區"
"220086","073-UY","2018/03/20 18:29:44","新北市板橋區南雅南路二段144巷89號","121.449786666667","24.9947716666667","6500100","板橋區"
"226004","312-R5","2018/03/20 18:29:32","新北市平溪區靜安路二段350號","121.737468333333","25.0243733333333","6502400","平溪區"
"228003","097-TW","2018/03/20 18:29:38","新北市貢寮區和美里和美街46號","121.915091666667","25.0934416666667","6502600","貢寮區"
"228001","212-TW","2018/03/20 18:29:36","新北市貢寮區仁理村保健街25號","121.923288333333","25.04997","6502600","貢寮區"
"228002","585-TW","2018/03/20 18:29:31","新北市貢寮區福連里香蘭街34號","121.9872","25.01977","6502600","貢寮區"
"224010","AGQ-8101","2018/03/20 18:28:45","新北市瑞芳區崙頂路13號","121.846175","25.10643","6501200","瑞芳區"
"224006","676-BX","2018/03/20 18:29:30","新北市瑞芳區明燈路二段38號","121.81012","25.1076116666667","6501200","瑞芳區"
"224002","639-TC","2018/03/20 18:29:41","新北市瑞芳區三爪子坑路29巷65號","121.81398","25.106175","6501200","瑞芳區"
"224008","285-BY","2018/03/20 18:29:33","新北市瑞芳區岳王路1巷41-1號","121.805616666667","25.1105283333333","6501200","瑞芳區"
"224007","275-VK","2018/03/20 18:29:09","新北市瑞芳區大埔路有勝二村38號","121.763775","25.0994333333333","6501200","瑞芳區"
"224009","273-VK","2018/03/20 18:29:40","新北市瑞芳區祈堂路239號","121.856316666667","25.1090566666667","6501200","瑞芳區"
"224005","271-BY","2018/03/20 18:29:31","新北市瑞芳區瑞濱路139-1號","121.819656666667","25.1198716666667","6501200","瑞芳區"
"227009","642-TC","2018/03/20 18:29:23","新北市雙溪區牡丹里牡丹127號","121.850868333333","25.0593966666667","6502500","雙溪區"
"227003","400-TW","2018/03/20 18:29:35","新北市雙溪區魚行里坤溪18號","121.873445","25.025055","6502500","雙溪區"
"253005","032-BX","2018/03/20 18:29:28","新北市石門區老崩山7號","121.553175","25.29131","6502200","石門區"
"253006","295-VK","2018/03/20 18:29:31","新北市石門區公地16號","121.545756666667","25.2902483333333","6502200","石門區"
"222001","KEA-2212","2018/03/20 18:29:22","新北市深坑區北深路一段232號","121.630325","25.008875","6501800","深坑區"
"208002","KEA-2872","2018/03/20 18:29:36","新北市金山區民生路45號","121.642158333333","25.221085","6502700","金山區"
"208003","665-BX","2018/03/20 18:29:30","新北市金山區中山路231號","121.637468333333","25.2217366666667","6502700","金山區"
"208001","761-BX","2018/03/20 18:29:34","新北市金山區文化二路6號","121.636771666667","25.2246433333333","6502700","金山區"
"251004","009-UM","2018/03/20 18:28:15","新北市淡水區民族路65巷14號","121.463393333333","25.1351483333333","6501000","淡水區"
"251006","010-UM","2018/03/20 18:29:31","新北市淡水區新生街51巷21號","121.4406","25.1756466666667","6501000","淡水區"
"251001","011-UM","2018/03/20 18:29:34","新北市淡水區自強路383號","121.464801666667","25.133505","6501000","淡水區"
"251002","012-UM","2018/03/20 18:29:32","新北市淡水區竿蓁二街19巷15號","121.452758333333","25.1640466666667","6501000","淡水區"
"251013","179-VK","2018/03/20 18:29:27","新北市淡水區椿子林19-1號","121.480513333333","25.203985","6501000","淡水區"
"251014","180-VK","2018/03/20 18:29:32","新北市淡水區南平26-2號","121.493265","25.2150166666667","6501000","淡水區"
"251008","181-VK","2018/03/20 18:29:23","新北市淡水區北投子87-3號","121.46922","25.179135","6501000","淡水區"
"251015","182-VK","2018/03/20 18:29:21","新北市淡水區興福寮88巷216號","121.485975","25.1666183333333","6501000","淡水區"
"251012","441-VK","2018/03/20 18:29:36","新北市淡水區北新路一段55號","121.455776666667","25.1816366666667","6501000","淡水區"
"251016","442-VK","2018/03/20 18:29:25","新北市淡水區下圭柔山105-5號","121.445083333333","25.210615","6501000","淡水區"
"251011","650-BX","2018/03/20 18:29:27","新北市淡水區中正東路8號","121.447981666667","25.1665616666667","6501000","淡水區"
"251010","672-BX","2018/03/20 18:29:31","新北市淡水區沙崙路181巷2-2號","121.424206666667","25.1842083333333","6501000","淡水區"
"251003","673-BX","2018/03/20 18:29:32","新北市淡水區北新路169巷39號","121.449261666667","25.1804416666667","6501000","淡水區"
"207003","550-UM","2018/03/20 18:29:39","新北市萬里區野柳里港東路152號","121.689296666667","25.2051133333333","6502800","萬里區"
"207004","225-TW","2018/03/20 18:29:33","新北市萬里區萬里里瑪鋉路252號","121.688881666667","25.1806666666667","6502800","萬里區"
"252002","178-VK","2018/03/20 18:29:32","新北市三芝區中山路二段35號","121.502811666667","25.2551533333333","6502100","三芝區"
"252004","249-BX","2018/03/20 18:29:29","新北市三芝區後厝里北勢子45-33號","121.469783333333","25.2510666666667","6502100","三芝區"
"252001","292-VK","2018/03/20 18:29:39","新北市三芝區中興街二段2號","121.498383333333","25.2566783333333","6502100","三芝區"
"237004","KEA-2597","2018/03/20 18:29:38","新北市三峽區金敏5號","121.386245","24.8744166666667","6500900","三峽區"
"237007","153-BY","2018/03/20 18:29:33","新北市三峽區中正路三段70巷6號","121.35614","24.904415","6500900","三峽區"
"237009","210-TH","2018/03/20 18:29:38","新北市三峽區大同路272號","121.365355","24.9254883333333","6500900","三峽區"
"237013","252-BX","2018/03/20 18:29:36","新北市三峽區光明路69巷25號","121.376685","24.929275","6500900","三峽區"
"237012","275-BY","2018/03/20 18:29:30","新北市三峽區三樹路112號","121.378296666667","24.9393633333333","6500900","三峽區"
"237008","302-VK","2018/03/20 18:29:35","新北市三峽區白雞68-215號","121.390445","24.908605","6500900","三峽區"
"237014","433-BY","2018/03/20 18:29:26","新北市三峽區和平街65號","121.370055","24.93671","6500900","三峽區"
"237006","5529-G3","2018/03/20 18:29:36","新北市三峽區溪東路367號","121.411646666667","24.92928","6500900","三峽區"
"237011","KEA-2596","2018/03/20 18:29:23","新北市三峽區橫溪路140號","121.399113333333","24.9352183333333","6500900","三峽區"
"237016","649-BX","2018/03/20 18:24:39","新北市三峽區紫微南路41號","121.419458333333","24.9119683333333","6500900","三峽區"
"237010","706-TV","2018/03/20 18:29:38","新北市三峽區復興路321號","121.36485","24.93883","6500900","三峽區"
"237005","AKY-6261","2018/03/20 18:29:30","新北市三峽區清水街323號","121.372111666667","24.934225","6500900","三峽區"
"236070","105-UM","2018/03/20 18:29:31","新北市土城區永豐路255巷21弄1號","121.475038333333","24.97382","6501300","土城區"
"236043","107-UM","2018/03/20 18:29:42","新北市土城區學成路99巷11號","121.449935","24.9884033333333","6501300","土城區"
"236079","166-UM","2018/03/20 18:29:41","新北市土城區中央路四段45-1號","121.422415","24.9618933333333","6501300","土城區"
"236031","253-BX","2018/03/20 18:29:20","新北市土城區順風路3號","121.439691666667","24.9764983333333","6501300","土城區"
"236026","269-VK","2018/03/20 18:29:43","新北市土城區南天母路135巷12號","121.447786666667","24.9544266666667","6501300","土城區"
"236015","270-VK","2018/03/20 18:29:25","新北市土城區青雲路39巷7號","121.460291666667","24.9874366666667","6501300","土城區"
"236038","271-VK","2018/03/20 18:29:27","新北市土城區青雲路451巷2弄2號","121.459113333333","24.9746333333333","6501300","土城區"
"236023","401-BY","2018/03/20 18:29:32","新北市土城區永豐路202巷14號","121.466466666667","24.983435","6501300","土城區"
"236059","912-UM","2018/03/20 18:29:40","新北市土城區中央路四段406號","121.412348333333","24.9537883333333","6501300","土城區"
"236049","913-UM","2018/03/20 18:29:39","新北市土城區青雲路396號","121.458773333333","24.9728766666667","6501300","土城區"
"236063","915-UM","2018/03/20 18:29:37","新北市土城區延壽路77巷6弄6號","121.468525","24.9928416666667","6501300","土城區"
"236055","AAC-216","2018/03/20 18:29:26","新北市土城區中華路二段1號","121.439613333333","24.9790066666667","6501300","土城區"
"242058","986-R7","2018/03/20 18:29:26","新北市新莊區中正路897-10號","121.411601666667","25.021655","6500500","新莊區"
"242054","751-BX","2018/03/20 18:29:33","新北市樹林區俊英街2號","121.43046","24.9990083333333","6500500","新莊區"
"242042","566-BX","2018/03/20 18:29:40","新北市新莊區天祥街113號","121.414678333333","25.0296583333333","6500500","新莊區"
"242046","497-BY","2018/03/20 18:29:34","新北市新莊區民安路16-27號","121.422498333333","25.0280933333333","6500500","新莊區"
"242056","440-UM","2018/03/20 18:29:37","新北市新莊區瓊林路瓊英巷10弄6號","121.442808333333","25.02798","6500500","新莊區"
"242007","413-TV","2018/03/20 18:29:27","新北市新莊區新泰路502巷16號","121.442931666667","25.046515","6500500","新莊區"
"242044","400-BY","2018/03/20 18:29:35","新北市新莊區中正路新旺巷41號","121.416483333333","25.0226133333333","6500500","新莊區"
"242061","353-BY","2018/03/20 18:29:35","新北市新莊區後港一路42號","121.425981666667","25.0262466666667","6500500","新莊區"
"242009","132-UY","2018/03/20 18:29:25","新北市新莊區中平路82巷4號","121.445008333333","25.0448416666667","6500500","新莊區"
"238015","755-BX","2018/03/20 18:29:36","新北市樹林區啟智街173巷2號","121.415725","24.9876233333333","6500700","樹林區"
"238023","601-UM","2018/03/20 18:29:33","新北市樹林區三福街114號","121.406391666667","25.0163666666667","6500700","樹林區"
"238019","599-UM","2018/03/20 18:29:34","新北市樹林區中華路190-16號","121.411825","24.9807366666667","6500700","樹林區"
"238018","571-TV","2018/03/20 18:29:29","新北市樹林區樹新路34巷8號","121.42755","24.994425","6500700","樹林區"
"238024","5061-A6","2018/03/20 18:29:35","新北市樹林區中山路一段27-8號","121.424488333333","24.9930366666667","6500700","樹林區"
"238025","303-VK","2018/03/20 18:29:21","新北市樹林區保安街一段204號","121.421198333333","24.9958666666667","6500700","樹林區"
"238017","283-BY","2018/03/20 18:29:24","新北市樹林區保安街二段333巷2號","121.412458333333","25.0076566666667","6500700","樹林區"
"238014","282-BY","2018/03/20 18:29:28","新北市樹林區大安路111巷11號","121.423076666667","24.9976","6500700","樹林區"
"238020","268-VK","2018/03/20 18:29:30","新北市樹林區俊興街277號","121.418383333333","25.0181766666667","6500700","樹林區"
"238026","172-UY","2018/03/20 18:29:35","新北市樹林區八德街634號","121.396835","24.9695016666667","6500700","樹林區"
"238016","169-UY","2018/03/20 18:29:38","新北市樹林區文化街27號","121.419155","24.98761","6500700","樹林區"
"239007","AAC-297","2018/03/20 18:29:25","新北市鶯歌區建國路278號","121.346978333333","24.95327","6500800","鶯歌區"
"239006","891-R6","2018/03/20 18:29:38","新北市鶯歌區鶯桃路365巷84號","121.33112","24.96227","6500800","鶯歌區"
"239008","527-UM","2018/03/20 18:29:36","新北市鶯歌區國際一路179號","121.336261666667","24.97656","6500800","鶯歌區"
"239005","526-UM","2018/03/20 18:29:25","新北市鶯歌區鳳吉二街124號","121.32799","24.9746483333333","6500800","鶯歌區"
"239001","417-VK","2018/03/20 18:29:39","新北市鶯歌區二橋街62號","121.336793333333","24.93869","6500800","鶯歌區"
"239003","360-BY","2018/03/20 18:29:32","新北市鶯歌區鶯桃路423號","121.332718333333","24.964995","6500800","鶯歌區"
"239002","359-BY","2018/03/20 18:29:36","新北市鶯歌區中正一路建德二巷2號","121.363875","24.9563916666667","6500800","鶯歌區"
"239004","193-VK","2018/03/20 18:29:40","新北市鶯歌區尖山路235號","121.339966666667","24.9435583333333","6500800","鶯歌區"
"221008","489-VK","2018/03/20 18:29:32","新北市汐止區康寧街901號","121.651521666667","25.07507","6501100","汐止區"
"221010","269-BY","2018/03/20 18:29:41","新北市汐止區汐萬路三段221號","121.643908333333","25.104145","6501100","汐止區"
"221012","278-VK","2018/03/20 18:29:31","新北市汐止區保長路51巷1號","121.673233333333","25.0789016666667","6501100","汐止區"
"221023","279-VK","2018/03/20 18:29:29","新北市汐止區康寧街489號","121.63242","25.0684833333333","6501100","汐止區"
"221032","280-BY","2018/03/20 18:29:23","新北市汐止區民權街二段113號","121.618831666667","25.0468183333333","6501100","汐止區"
"221027","281-BY","2018/03/20 18:29:29","新北市汐止區和平街46巷24號","121.662601666667","25.0720433333333","6501100","汐止區"
"221029","298-VK","2018/03/20 18:29:27","新北市汐止區樟樹一路272-6號","121.642728333333","25.068815","6501100","汐止區"
"221021","299-VK","2018/03/20 18:29:38","新北市汐止區新台五路一段91號","121.649883333333","25.06169","6501100","汐止區"
"221031","353-TW","2018/03/20 18:29:36","新北市汐止區大同路一段160-7號","121.635941666667","25.0552716666667","6501100","汐止區"
"221035","622-UM","2018/03/20 18:29:40","新北市汐止區大同路二段105號","121.649968333333","25.06357","6501100","汐止區"
"221025","623-UM","2018/03/20 18:29:41","新北市汐止區仁愛路124號","121.663008333333","25.0638083333333","6501100","汐止區"
"221038","646-BX","2018/03/20 18:29:39","新北市汐止區大同路二段432號","121.659221666667","25.067065","6501100","汐止區"
"221033","647-BX","2018/03/20 18:29:30","新北市汐止區宜興街1號","121.620791666667","25.04116","6501100","汐止區"
"221002","707-TV","2018/03/20 18:29:27","新北市汐止區福德一路164號","121.63614","25.0664533333333","6501100","汐止區"
"221018","753-BX","2018/03/20 18:29:37","新北市汐止區茄苳路250巷4號","121.671228333333","25.06803","6501100","汐止區"
"220082","610-BX","2018/03/20 18:29:29","新北市板橋區華東街1-10號","121.448261666667","24.9949866666667","6500100","板橋區"
"220064","282-UM","2018/03/20 18:29:32","新北市板橋區板城路421號","121.448035","24.995645","6500100","板橋區"
"220081","287-VK","2018/03/20 18:29:26","新北市板橋區華東街1-10號","121.448296666667","24.9949933333333","6500100","板橋區"
"220065","568-UM","2018/03/20 18:29:23","新北市板橋區南雅南路二段11-1號","121.454225","25.0025433333333","6500100","板橋區"
"220057","686-BX","2018/03/20 18:29:37","新北市板橋區華東街1-9號","121.448268333333","24.9948133333333","6500100","板橋區"
"220074","895-R6","2018/03/20 18:29:39","新北市板橋區華東街1-9號","121.448185","24.99498","6500100","板橋區"
"220073","985-R7","2018/03/20 18:29:33","新北市板橋區華東街1-10號","121.448335","24.995105","6500100","板橋區"
