"lineid","car","time","location","longitude","latitude","cityid","cityname"
"234046","148-BY","2018/03/20 18:59:19","新北市永和區得和路373巷31弄2號","121.524998333333","25.000505","6500400","永和區"
"234007","207-UY","2018/03/20 18:59:26","新北市永和區中山路一段54號","121.51306","25.0106383333333","6500400","永和區"
"234081","298-R6","2018/03/20 18:59:45","新北市永和區永貞路27號","121.520951666667","25.0068","6500400","永和區"
"234038","336-UY","2018/03/20 18:59:40","新北市永和區成功路二段207號","121.526578333333","24.9959783333333","6500400","永和區"
"234064","337-UY","2018/03/20 18:59:23","新北市永和區秀朗路一段134號","121.517828333333","25.0033766666667","6500400","永和區"
"234086","338-UY","2018/03/20 18:59:22","新北市永和區中正路393號","121.517288333333","25.0040316666667","6500400","永和區"
"234070","552-UM","2018/03/20 18:59:32","新北市永和區中興街84巷8號","121.51849","25.0116166666667","6500400","永和區"
"234067","553-UM","2018/03/20 18:59:31","新北市永和區自由街70-8號","121.51353","25.0055083333333","6500400","永和區"
"234017","745-BX","2018/03/20 18:59:20","新北市永和區永和路二段297號","121.51592","25.0159966666667","6500400","永和區"
"234030","746-BX","2018/03/20 18:59:28","新北市永和區秀朗路二段275號","121.526151666667","24.9985316666667","6500400","永和區"
"234054","KEA-2590","2018/03/20 18:59:43","新北市永和區竹林路66巷2號","121.518341666667","25.0133716666667","6500400","永和區"
"234013","KEA-2591","2018/03/20 18:59:36","新北市永和區保福路二段17號","121.510893333333","25.01108","6500400","永和區"
"234061","AAD-866","2018/03/20 18:59:31","新北市永和區福和路301號","121.516415","25.0071583333333","6500400","永和區"
"234042","862-TW","2018/03/20 18:59:39","新北市永和區永貞路273號","121.511508333333","25.004985","6500400","永和區"
"234050","863-TW","2018/03/20 18:59:36","新北市永和區文化路194號","121.510818333333","25.0162466666667","6500400","永和區"
"234026","9371-KE","2018/03/20 18:59:40","新北市永和區安樂路453號","121.514283333333","25.0049883333333","6500400","永和區"
"234011","9373-KE","2018/03/20 18:59:27","新北市永和區仁愛路141巷3弄2號","121.511705","25.0124116666667","6500400","永和區"
"249005","172-UM","2018/03/20 18:59:38","新北市八里區長道坑6號","121.397885","25.123505","6502300","八里區"
"249001","173-UM","2018/03/20 18:59:29","新北市八里區龍米路二段228-1號","121.43273","25.1584416666667","6502300","八里區"
"248016","026-BX","2018/03/20 18:59:26","新北市五股區成泰路三段543巷16號","121.450943333333","25.1022283333333","6501500","五股區"
"248006","077-UY","2018/03/20 18:59:29","新北市五股區中興路一段50號","121.468065","25.0726166666667","6501500","五股區"
"248008","095-VK","2018/03/20 18:59:39","新北市五股區中興路一段128巷38號","121.46575","25.07534","6501500","五股區"
"248020","225-UY","2018/03/20 18:59:41","新北市五股區凌雲路三段57號","121.425343333333","25.125015","6501500","五股區"
"248012","247-BX","2018/03/20 18:59:26","新北市五股區中興路四段48巷16號","121.438705","25.0834083333333","6501500","五股區"
"248004","677-BX","2018/03/20 18:59:31","新北市五股區民義路二段76-1號","121.404273333333","25.110335","6501500","五股區"
"248002","678-BX","2018/03/20 18:59:32","新北市五股區天乙路1號","121.448573333333","25.10273","6501500","五股區"
"248010","682-TV","2018/03/20 18:59:23","新北市五股區登林路78-1號","121.42932","25.070735","6501500","五股區"
"234023","9380-KE","2018/03/20 18:59:26","新北市永和區竹林路75巷25弄3號","121.520198333333","25.014115","6500400","永和區"
"234077","969-R7","2018/03/20 18:59:30","新北市永和區民治街88號","121.517286666667","24.998475","6500400","永和區"
"234074","AAC-211","2018/03/20 18:59:40","新北市永和區環河東路二段98號","121.524118333333","25.0103383333333","6500400","永和區"
"234003","AAC-295","2018/03/20 18:59:25","新北市永和區和平街28號","121.513473333333","25.0099416666667","6500400","永和區"
"232011","375-UM","2018/03/20 18:59:26","新北市坪林區坪林街106號","121.711518333333","24.9356566666667","6502000","坪林區"
"244013","069-UM","2018/03/20 18:59:35","新北市林口區麗園一街11巷3號","121.377315","25.07042","6501700","林口區"
"244025","742-UY","2018/03/20 18:59:36","新北市林口區文化北路一段412巷78號","121.365716666667","25.0762416666667","6501700","林口區"
"244023","483-VK","2018/03/20 18:59:36","新北市林口區文林六街60號","121.370821666667","25.081825","6501700","林口區"
"244017","485-VK","2018/03/20 18:59:37","新北市林口區文化二路一段96巷26-1號","121.367368333333","25.0692283333333","6501700","林口區"
"244009","656-BX","2018/03/20 18:59:32","新北市林口區台電新村21號","121.387768333333","25.0859733333333","6501700","林口區"
"244019","657-BX","2018/03/20 18:59:40","新北市林口區麗園二街87號","121.382738333333","25.0666733333333","6501700","林口區"
"244011","701-TV","2018/03/20 18:59:31","新北市林口區仁愛路一段266號","121.394006666667","25.075985","6501700","林口區"
"243012","AAD-798","2018/03/20 18:59:32","新北市泰山區全興路101號","121.433616666667","25.0574016666667","6501600","泰山區"
"243015","380-SR","2018/03/20 18:55:03","新北市泰山區美寧街58號","121.430546666667","25.0645883333333","6501600","泰山區"
"243014","421-VK","2018/03/20 18:59:37","新北市泰山區黎明路2-5號","121.420851666667","25.0627183333333","6501600","泰山區"
"243010","KEA-2215","2018/03/20 18:59:26","新北市泰山區辭修路24號","121.429013333333","25.058185","6501600","泰山區"
"243009","KEA-2216","2018/03/20 18:59:32","新北市泰山區泰林路二段362號","121.42887","25.0635583333333","6501600","泰山區"
"243013","646-TV","2018/03/20 18:59:31","新北市泰山區明志路三段337號","121.422166666667","25.0355316666667","6501600","泰山區"
"243016","680-BX","2018/03/20 18:59:28","新北市泰山區明志路二段137號","121.427771666667","25.05068","6501600","泰山區"
"222003","436-BY","2018/03/20 18:59:31","新北市深坑區深南路51-1號","121.621378333333","25.0101983333333","6501800","深坑區"
"222002","659-BX","2018/03/20 18:59:35","新北市深坑區文山路一段33號","121.629538333333","25.0038183333333","6501800","深坑區"
"231041","002-UM","2018/03/20 18:59:29","新北市新店區環河路72號","121.537063333333","24.963085","6500600","新店區"
"231059","046-UY","2018/03/20 18:59:36","新北市新店區安康路一段266巷4號","121.519801666667","24.9640633333333","6500600","新店區"
"231061","047-UY","2018/03/20 18:59:41","新北市新店區安康路一段351-1號","121.519466666667","24.96392","6500600","新店區"
"231060","106-UY","2018/03/20 18:59:27","新北市新店區安豐路49號","121.500185","24.9540933333333","6500600","新店區"
"231051","107-UY","2018/03/20 18:59:42","新北市新店區百忍街1-1號","121.53502","24.97554","6500600","新店區"
"231048","108-UY","2018/03/20 18:59:32","新北市新店區德正街27巷29弄46-1號","121.545845","24.97254","6500600","新店區"
"231053","187-VK","2018/03/20 18:59:23","新北市新店區屈尺路32號","121.54836","24.9226633333333","6500600","新店區"
"231057","188-VK","2018/03/20 18:59:44","新北市新店區花園一路一段2號","121.553131666667","24.9324916666667","6500600","新店區"
"231050","KEA-2219","2018/03/20 18:59:36","新北市新店區新烏路一段11巷7號","121.547256666667","24.951315","6500600","新店區"
"221015","KEA-2785","2018/03/20 18:59:40","新北市汐止區大同路二段411號","121.658453333333","25.0672466666667","6501100","汐止區"
"231046","278-BY","2018/03/20 18:59:39","新北市新店區直潭七街8號","121.53454","24.940315","6500600","新店區"
"231054","AAD-862","2018/03/20 18:59:26","新北市新店區新店路13號","121.540353333333","24.9529","6500600","新店區"
"231058","3712-VJ","2018/03/20 18:59:22","新北市新店區中興路一段139號","121.542061666667","24.9636633333333","6500600","新店區"
"231056","3713-VJ","2018/03/20 18:59:40","新北市新店區大同街8巷2號","121.53974","24.9801216666667","6500600","新店區"
"231055","4716-K9","2018/03/20 18:59:36","新北市新店區新生街22號","121.539815","24.96653","6500600","新店區"
"231067","4772-VM","2018/03/20 18:59:39","新北市新店區安康路一段247巷29號","121.524588333333","24.96208","6500600","新店區"
"231065","512-UM","2018/03/20 18:59:38","新北市新店區安祥路147巷1號","121.475061666667","24.95538","6500600","新店區"
"231049","513-UM","2018/03/20 18:59:25","新北市新店區中正路454-5號","121.534431666667","24.9790866666667","6500600","新店區"
"231064","515-UM","2018/03/20 18:59:27","新北市新店區安康路一段266巷4號","121.51979","24.9640433333333","6500600","新店區"
"231045","617-UM","2018/03/20 18:59:26","新北市新店區光明街55號","121.538678333333","24.960265","6500600","新店區"
"231040","619-UM","2018/03/20 18:59:34","新北市新店區中正路401號","121.534398333333","24.9775233333333","6500600","新店區"
"231042","641-BX","2018/03/20 18:59:31","新北市新店區中興路一段284號","121.545685","24.9687433333333","6500600","新店區"
"231063","645-TV","2018/03/20 18:59:41","新北市新店區車子路110號","121.50524","24.952035","6500600","新店區"
"231062","720-UM","2018/03/20 18:59:44","新北市新店區安和路一段49號","121.517478333333","24.965845","6500600","新店區"
"231044","897-TW","2018/03/20 18:59:39","新北市新店區寶中路72號","121.547963333333","24.980635","6500600","新店區"
"231043","899-TW","2018/03/20 18:59:42","新北市新店區北新路二段1號","121.542668333333","24.97129","6500600","新店區"
"231066","AKT-0513","2018/03/20 18:59:14","新北市新店區安祥路96號","121.488425","24.960285","6500600","新店區"
"241035","462-BY","2018/03/20 18:59:44","新北市三重區重新路四段121號","121.48466","25.0519033333333","6500200","三重區"
"241029","942-UM","2018/03/20 18:59:33","新北市三重區重安街22號","121.490378333333","25.05804","6500200","三重區"
"235066","003-UY","2018/03/20 18:59:36","新北市中和區中山路二段131巷5弄4號","121.502915","25.00288","6500300","中和區"
"235064","005-UY","2018/03/20 18:59:30","新北市中和區泰和街44巷34號","121.498323333333","25.001025","6500300","中和區"
"235063","006-UY","2018/03/20 18:59:31","新北市中和區中正路462號","121.49018","24.99424","6500300","中和區"
"235056","096-UM","2018/03/20 18:59:41","新北市中和區中山路二段568巷22號","121.482473333333","25.0063016666667","6500300","中和區"
"235039","097-UM","2018/03/20 18:59:28","新北市中和區安樂路217巷17號","121.51376","24.9983883333333","6500300","中和區"
"235065","098-UM","2018/03/20 18:59:30","新北市中和區勝利路35巷1弄36號","121.50054","25.0078983333333","6500300","中和區"
"235040","150-BY","2018/03/20 18:59:32","新北市中和區安樂路87號","121.512873333333","24.9946766666667","6500300","中和區"
"235058","151-BY","2018/03/20 18:59:31","新北市中和區員山路75號","121.480716666667","24.9942166666667","6500300","中和區"
"235055","183-VK","2018/03/20 18:59:37","新北市中和區民德路25巷11號","121.469978333333","25.003175","6500300","中和區"
"235038","185-VK","2018/03/20 18:59:37","新北市中和區大勇街31巷13弄13號","121.517336666667","24.9940533333333","6500300","中和區"
"235049","186-VK","2018/03/20 18:59:32","新北市中和區景安路167巷15號","121.506201666667","24.9948166666667","6500300","中和區"
"235067","255-BX","2018/03/20 18:45:46","新北市中和區中山路二段449巷1弄11號","121.483878333333","25.0039283333333","6500300","中和區"
"235067","293-VK","2018/03/20 18:59:31","新北市中和區復興路280巷33弄12號","121.501416666667","24.9914183333333","6500300","中和區"
"235072","301-VK","2018/03/20 18:59:23","新北市中和區永和路24號","121.499456666667","25.0035183333333","6500300","中和區"
"235043","352-BY","2018/03/20 18:59:34","新北市中和區成功路69號","121.526118333333","24.9924283333333","6500300","中和區"
"235068","377-QA","2018/03/20 18:59:43","新北市中和區圓通路291巷2號","121.495251666667","24.992575","6500300","中和區"
"235061","378-QA","2018/03/20 18:59:38","新北市中和區民享街33-1號","121.474008333333","25.00412","6500300","中和區"
"235071","269-TV","2018/03/20 18:59:38","新北市中和區員山路36巷16-3號","121.484736666667","24.9914066666667","6500300","中和區"
"235050","4979-A6","2018/03/20 18:59:32","新北市中和區華新街97號","121.5087","24.9829616666667","6500300","中和區"
"235069","4980-A6","2018/03/20 18:59:38","新北市中和區圓通路109巷11號","121.500098333333","24.996275","6500300","中和區"
"235042","551-UM","2018/03/20 18:59:29","新北市中和區秀朗路三段100巷2弄16號","121.524896666667","24.993775","6500300","中和區"
"235070","558-UM","2018/03/20 18:59:25","新北市中和區安和路195號","121.506035","24.9982983333333","6500300","中和區"
"235045","565-BX","2018/03/20 18:59:29","新北市中和區景新街467巷15弄2號","121.514175","24.9884116666667","6500300","中和區"
"235054","640-BX","2018/03/20 18:59:36","新北市中和區民享街5號","121.473973333333","25.0057033333333","6500300","中和區"
"235060","647-TV","2018/03/20 18:59:36","新北市中和區民治街13巷2號","121.475248333333","25.0040266666667","6500300","中和區"
"235047","732-UM","2018/03/20 18:59:26","新北市中和區興南路二段54巷6號","121.505863333333","24.9856433333333","6500300","中和區"
"235046","733-UM","2018/03/20 18:59:43","新北市中和區興南路一段135巷20號","121.509316666667","24.98698","6500300","中和區"
"235062","800-TS","2018/03/20 18:59:39","新北市中和區中山路二段408號","121.489935","25.003805","6500300","中和區"
"235057","801-TS","2018/03/20 18:59:43","新北市中和區民利街58巷1號","121.478945","24.9989783333333","6500300","中和區"
"235041","802-TS","2018/03/20 18:59:43","新北市中和區安平路124號","121.511986666667","24.9976916666667","6500300","中和區"
"235052","805-TS","2018/03/20 18:59:38","新北市中和區興南路二段114巷21弄1號","121.503653333333","24.984405","6500300","中和區"
"235048","896-TW","2018/03/20 18:59:33","新北市中和區華新街98號","121.508468333333","24.982995","6500300","中和區"
"235053","900-TW","2018/03/20 18:59:36","新北市中和區壽德街16號","121.465711666667","24.9951766666667","6500300","中和區"
"235051","157-BY","2018/03/20 18:59:34","新北市中和區忠孝街108-1號","121.512171666667","24.9846283333333","6500300","中和區"
"235037","AAC-213","2018/03/20 18:59:43","新北市中和區秀朗路三段10巷14弄43號","121.524066666667","24.9964433333333","6500300","中和區"
"235059","AAC-215","2018/03/20 18:59:35","新北市中和區圓通路367巷40號","121.491966666667","24.98854","6500300","中和區"
"220086","073-UY","2018/03/20 18:59:44","新北市板橋區民權路209-1號","121.457866666667","25.0148266666667","6500100","板橋區"
"220069","AAD-861","2018/03/20 18:59:27","新北市板橋區華興街76號","121.457123333333","25.0050733333333","6500100","板橋區"
"226004","312-R5","2018/03/20 18:59:31","新北市平溪區望古里灰3-1號","121.754815","25.028795","6502400","平溪區"
"228003","097-TW","2018/03/20 18:59:25","新北市貢寮區和美里龍洞街26號","121.915976666667","25.10876","6502600","貢寮區"
"228001","212-TW","2018/03/20 18:59:29","新北市貢寮區仁理村保健街71號","121.923728333333","25.0516416666667","6502600","貢寮區"
"228002","585-TW","2018/03/20 18:59:31","新北市貢寮區福隆里東興街102號","121.94612","25.0169266666667","6502600","貢寮區"
"224010","AGQ-8101","2018/03/20 18:59:25","新北市瑞芳區基山街121號","121.844235","25.1085166666667","6501200","瑞芳區"
"224006","676-BX","2018/03/20 18:59:30","新北市瑞芳區明燈路三段1號","121.809246666667","25.1073183333333","6501200","瑞芳區"
"224008","285-BY","2018/03/20 18:59:33","新北市瑞芳區逢甲路341號","121.800753333333","25.1121483333333","6501200","瑞芳區"
"224007","275-VK","2018/03/20 18:59:29","新北市瑞芳區大埔路270號","121.759265","25.1015983333333","6501200","瑞芳區"
"224009","273-VK","2018/03/20 18:59:40","新北市瑞芳區長仁路32號","121.866198333333","25.1182616666667","6501200","瑞芳區"
"224005","271-BY","2018/03/20 18:59:31","新北市瑞芳區連福新城25號","121.820296666667","25.1189816666667","6501200","瑞芳區"
"227009","642-TC","2018/03/20 18:59:23","新北市雙溪區牡丹里中正路58巷23號","121.866456666667","25.0416533333333","6502500","雙溪區"
"227003","400-TW","2018/03/20 18:59:35","新北市雙溪區平林里康福家園10號","121.858748333333","25.0372816666667","6502500","雙溪區"
"253005","032-BX","2018/03/20 18:59:28","新北市石門區中央路37-5號","121.569126666667","25.296195","6502200","石門區"
"253006","295-VK","2018/03/20 18:59:31","新北市石門區八甲4-6號","121.5214","25.282315","6502200","石門區"
"222001","KEA-2212","2018/03/20 18:59:42","新北市深坑區北深路一段177號","121.632583333333","25.0107166666667","6501800","深坑區"
"208002","KEA-2872","2018/03/20 18:59:36","新北市金山區信義路72號","121.635161666667","25.2195183333333","6502700","金山區"
"208003","665-BX","2018/03/20 18:59:30","新北市金山區中正路85號","121.633376666667","25.2216866666667","6502700","金山區"
"208001","761-BX","2018/03/20 18:59:40","新北市金山區中山路87號","121.64021","25.2187816666667","6502700","金山區"
"251001","011-UM","2018/03/20 18:59:34","新北市淡水區自強路58號","121.463203333333","25.12751","6501000","淡水區"
"251002","012-UM","2018/03/20 18:59:32","新北市淡水區中正東路55-4號","121.446761666667","25.1678083333333","6501000","淡水區"
"251013","179-VK","2018/03/20 18:59:27","新北市淡水區安子內12號","121.481561666667","25.2190833333333","6501000","淡水區"
"251014","180-VK","2018/03/20 18:59:33","新北市淡水區小中寮22號","121.489371666667","25.22934","6501000","淡水區"
"251015","182-VK","2018/03/20 18:59:41","新北市淡水區糞箕湖60號","121.485231666667","25.1722983333333","6501000","淡水區"
"251016","442-VK","2018/03/20 18:59:42","新北市淡水區淡金路三段325號","121.449003333333","25.206065","6501000","淡水區"
"251009","575-R6","2018/03/20 18:59:39","新北市淡水區重建街34號","121.439953333333","25.1711816666667","6501000","淡水區"
"251007","577-R6","2018/03/20 18:59:40","新北市淡水區民生路113巷1弄52號","121.462595","25.1386383333333","6501000","淡水區"
"251010","672-BX","2018/03/20 18:59:31","新北市淡水區淡海路88-2號","121.423061666667","25.1818316666667","6501000","淡水區"
"251003","673-BX","2018/03/20 18:59:32","新北市淡水區中山北路一段149巷28號","121.443003333333","25.1780716666667","6501000","淡水區"
"207003","550-UM","2018/03/20 18:59:39","新北市萬里區大鵬里頂社6號","121.656581666667","25.2096366666667","6502800","萬里區"
"207004","225-TW","2018/03/20 18:59:33","新北市萬里區萬里里獅頭路23號","121.693203333333","25.1782583333333","6502800","萬里區"
"252002","178-VK","2018/03/20 18:59:35","新北市三芝區中正路一段76號","121.50399","25.2574733333333","6502100","三芝區"
"252003","249-BX","2018/03/20 18:59:40","新北市三芝區後厝里北勢子42-3號","121.472243333333","25.2525933333333","6502100","三芝區"
"252001","292-VK","2018/03/20 18:59:39","新北市三芝區中興街二段260號","121.501736666667","25.2530283333333","6502100","三芝區"
"237004","KEA-2597","2018/03/20 18:59:38","新北市三峽區有木206號","121.439108333333","24.8515066666667","6500900","三峽區"
"237007","153-BY","2018/03/20 18:59:33","新北市三峽區大埔路30號","121.366013333333","24.9092083333333","6500900","三峽區"
"237013","252-BX","2018/03/20 18:59:36","新北市三峽區光明路69巷25號","121.376688333333","24.9291766666667","6500900","三峽區"
"237012","275-BY","2018/03/20 18:59:30","新北市三峽區三樹路261號","121.379081666667","24.94278","6500900","三峽區"
"237008","302-VK","2018/03/20 18:59:36","新北市三峽區正義街9號","121.369988333333","24.9200716666667","6500900","三峽區"
"237014","433-BY","2018/03/20 18:59:26","新北市三峽區復興路257號","121.366711666667","24.9389316666667","6500900","三峽區"
"237006","5529-G3","2018/03/20 18:59:36","新北市三峽區溪東路233巷45弄4號","121.409523333333","24.9333283333333","6500900","三峽區"
"237011","KEA-2596","2018/03/20 18:59:43","新北市三峽區中正路一段148號","121.373231666667","24.92898","6500900","三峽區"
"237016","649-BX","2018/03/20 18:40:59","新北市三峽區竹崙路158號","121.437948333333","24.90434","6500900","三峽區"
"237010","706-TV","2018/03/20 18:59:39","新北市三峽區復興路30-1號","121.37434","24.9361616666667","6500900","三峽區"
"237005","AKY-6261","2018/03/20 18:59:30","新北市三峽區中山路459巷163-3號","121.348641666667","24.93289","6500900","三峽區"
"236070","105-UM","2018/03/20 18:59:31","新北市土城區清水路99巷13號","121.456773333333","24.9823283333333","6501300","土城區"
"236043","107-UM","2018/03/20 18:59:42","新北市土城區學府路一段230號","121.451981666667","24.9849733333333","6501300","土城區"
"236079","166-UM","2018/03/20 18:59:21","新北市土城區中央路四段200號","121.416076666667","24.9575383333333","6501300","土城區"
"236026","269-VK","2018/03/20 18:59:43","新北市土城區中正路43號","121.443906666667","24.97548","6501300","土城區"
"236015","270-VK","2018/03/20 18:59:25","新北市土城區延和路5號","121.463728333333","24.98772","6501300","土城區"
"236038","271-VK","2018/03/20 18:59:27","新北市土城區明德路一段240巷22號","121.460145","24.9778283333333","6501300","土城區"
"236023","401-BY","2018/03/20 18:59:37","新北市土城區延吉街166號","121.468378333333","24.98543","6501300","土城區"
"236059","912-UM","2018/03/20 18:59:40","新北市土城區清水路3號","121.452915","24.98022","6501300","土城區"
"236049","913-UM","2018/03/20 18:59:39","新北市土城區青雲路241號","121.45907","24.981165","6501300","土城區"
"236063","915-UM","2018/03/20 18:59:37","新北市土城區延和路41巷6弄20號","121.46665","24.9904166666667","6501300","土城區"
"236055","AAC-216","2018/03/20 18:59:26","新北市土城區學成路167號","121.448131666667","24.9890633333333","6501300","土城區"
"238023","601-UM","2018/03/20 18:59:33","新北市樹林區工興街14巷12號","121.399545","25.0131933333333","6500700","樹林區"
"238019","599-UM","2018/03/20 18:59:34","新北市樹林區東榮街91巷1弄2號","121.416248333333","24.98235","6500700","樹林區"
"238018","571-TV","2018/03/20 18:59:40","新北市樹林區中華路108號","121.418451666667","24.9808533333333","6500700","樹林區"
"238022","KEA-2213","2018/03/20 18:59:33","新北市樹林區東興街8-2號","121.409778333333","24.9788683333333","6500700","樹林區"
"238021","KEA-2539","2018/03/20 18:59:29","新北市樹林區西圳街二段125號","121.383875","24.9576616666667","6500700","樹林區"
"238025","303-VK","2018/03/20 18:59:21","新北市樹林區民和街68號","121.383168333333","24.9698366666667","6500700","樹林區"
"238017","283-BY","2018/03/20 18:59:24","新北市樹林區光興街78-1號","121.407718333333","25.002765","6500700","樹林區"
"238014","282-BY","2018/03/20 18:59:28","新北市樹林區千歲街61巷10號","121.425988333333","24.998295","6500700","樹林區"
"238020","268-VK","2018/03/20 18:59:30","新北市樹林區俊英街176號","121.426205","25.0074966666667","6500700","樹林區"
"238026","172-UY","2018/03/20 18:59:35","新北市樹林區佳園路一段60號","121.393125","24.9703866666667","6500700","樹林區"
"238016","169-UY","2018/03/20 18:59:38","新北市樹林區復興路373巷13號","121.41752","24.9863233333333","6500700","樹林區"
"239007","AAC-297","2018/03/20 18:59:25","新北市鶯歌區中正一路213號","121.353883333333","24.9570666666667","6500800","鶯歌區"
"239006","891-R6","2018/03/20 18:59:38","新北市鶯歌區鶯桃路296巷94弄26號","121.337545","24.9615916666667","6500800","鶯歌區"
"239008","527-UM","2018/03/20 18:59:36","新北市鶯歌區國際二路20巷52號","121.338111666667","24.9760233333333","6500800","鶯歌區"
"239005","526-UM","2018/03/20 18:59:25","新北市鶯歌區永和街249號","121.337096666667","24.9722616666667","6500800","鶯歌區"
"239001","417-VK","2018/03/20 18:59:39","新北市鶯歌區永智街5號","121.336986666667","24.9548966666667","6500800","鶯歌區"
"239003","360-BY","2018/03/20 18:59:32","新北市鶯歌區鶯桃路431號","121.332555","24.9650916666667","6500800","鶯歌區"
"239002","359-BY","2018/03/20 18:59:36","新北市鶯歌區中山路258號","121.344501666667","24.9570083333333","6500800","鶯歌區"
"239004","193-VK","2018/03/20 18:58:40","新北市鶯歌區中正三路318巷30號","121.326611666667","24.937295","6500800","鶯歌區"
"221008","489-VK","2018/03/20 18:59:32","新北市汐止區康寧街815巷7號","121.640911666667","25.075005","6501100","汐止區"
"221010","269-BY","2018/03/20 18:59:41","新北市汐止區康寧街901號","121.651528333333","25.07498","6501100","汐止區"
"221012","278-VK","2018/03/20 18:59:30","新北市汐止區康寧街901號","121.650818333333","25.0752283333333","6501100","汐止區"
"221023","279-VK","2018/03/20 18:59:29","新北市汐止區康寧街901號","121.650996666667","25.0751816666667","6501100","汐止區"
"221032","280-BY","2018/03/20 18:59:43","新北市汐止區橫科路407巷30弄28號","121.627336666667","25.0482966666667","6501100","汐止區"
"221027","281-BY","2018/03/20 18:59:29","新北市汐止區康寧街901號","121.651453333333","25.0749283333333","6501100","汐止區"
"221029","298-VK","2018/03/20 18:59:27","新北市汐止區樟樹一路254號","121.642466666667","25.0672266666667","6501100","汐止區"
"221031","353-TW","2018/03/20 18:59:35","新北市汐止區中興路181巷1號","121.630128333333","25.066805","6501100","汐止區"
"221035","622-UM","2018/03/20 18:59:28","新北市汐止區汐萬路一段266號","121.65092","25.0739183333333","6501100","汐止區"
"221025","623-UM","2018/03/20 18:59:41","新北市汐止區汐萬路一段256巷1號","121.652005","25.074715","6501100","汐止區"
"221038","646-BX","2018/03/20 18:59:39","新北市汐止區汐萬路一段312號","121.650696666667","25.0752866666667","6501100","汐止區"
"221033","647-BX","2018/03/20 18:59:30","新北市汐止區南勢街3號","121.627065","25.03738","6501100","汐止區"
"221002","707-TV","2018/03/20 18:59:27","新北市汐止區大同路一段3號","121.621116666667","25.0551183333333","6501100","汐止區"
"220079","145-BY","2018/03/20 18:59:40","新北市板橋區民權路202巷14弄1號","121.460661666667","25.015955","6500100","板橋區"
"220080","200-UY","2018/03/20 18:59:43","新北市板橋區大觀路二段265巷1弄30號","121.444163333333","24.99822","6500100","板橋區"
"220106","KEA-2550","2018/03/20 18:59:38","新北市板橋區文化路二段124巷28-2號","121.471253333333","25.0256933333333","6500100","板橋區"
"220082","610-BX","2018/03/20 18:59:30","新北市板橋區滿平街123號","121.428681666667","24.9884216666667","6500100","板橋區"
"220101","245-BX","2018/03/20 18:59:41","新北市板橋區文化路二段182巷5弄2號","121.471698333333","25.0269616666667","6500100","板橋區"
"220055","256-TC","2018/03/20 18:59:40","新北市板橋區新站路1號","121.4672","25.01116","6500100","板橋區"
"220068","257-TC","2018/03/20 18:59:30","新北市板橋區中山路二段465巷78號","121.481196666667","25.02227","6500100","板橋區"
"220091","267-BY","2018/03/20 18:59:26","新北市板橋區莒光路165巷46號","121.474535","25.0252516666667","6500100","板橋區"
"220056","276-BY","2018/03/20 18:59:36","新北市板橋區信義路161號","121.458508333333","24.99243","6500100","板橋區"
"220072","277-BY","2018/03/20 18:59:38","新北市板橋區溪北路111號","121.430096666667","24.9887116666667","6500100","板橋區"
"220094","280-UM","2018/03/20 18:59:36","新北市板橋區文化路二段76號","121.469486666667","25.0249783333333","6500100","板橋區"
"220064","282-UM","2018/03/20 18:59:32","新北市板橋區縣民大道二段106號","121.467003333333","25.0151166666667","6500100","板橋區"
"220071","283-VK","2018/03/20 18:59:39","新北市板橋區忠孝路169號","121.463976666667","25.0025133333333","6500100","板橋區"
"220053","285-VK","2018/03/20 18:59:34","新北市板橋區中山路二段157號","121.475638333333","25.0166716666667","6500100","板橋區"
"220083","286-VK","2018/03/20 18:59:31","新北市板橋區大觀路一段38巷156弄10號","121.442455","25.004845","6500100","板橋區"
"220081","287-VK","2018/03/20 18:59:26","新北市板橋區光華街19巷76號","121.452686666667","25.0118766666667","6500100","板橋區"
"220090","288-VK","2018/03/20 18:59:43","新北市板橋區四維路176號","121.464503333333","25.026495","6500100","板橋區"
"220061","293-UM","2018/03/20 18:59:35","新北市板橋區永豐街122號","121.47644","25.0208016666667","6500100","板橋區"
"220084","296-UM","2018/03/20 18:59:40","新北市板橋區龍興街4號","121.442721666667","24.9994433333333","6500100","板橋區"
"220075","303-R5","2018/03/20 18:59:39","新北市板橋區福德街40號","121.455938333333","25.0081616666667","6500100","板橋區"
"220062","305-R5","2018/03/20 18:59:32","新北市板橋區民享街123號","121.47778","25.0165533333333","6500100","板橋區"
"220092","307-R5","2018/03/20 18:59:25","新北市板橋區文化路一段136巷8弄8號","121.465551666667","25.01816","6500100","板橋區"
"220098","317-R6","2018/03/20 18:59:31","新北市板橋區民有街18號","121.466226666667","25.0250033333333","6500100","板橋區"
"220089","487-VK","2018/03/20 18:59:35","新北市板橋區文化路二段294號","121.471998333333","25.0295233333333","6500100","板橋區"
"220035","560-BX","2018/03/20 18:59:40","新北市板橋區中正路379巷1弄30號","121.45312","25.0217866666667","6500100","板橋區"
"220103","561-BX","2018/03/20 18:59:23","新北市板橋區民生路二段123號","121.470698333333","25.01858","6500100","板橋區"
"220065","568-UM","2018/03/20 18:59:43","新北市板橋區漢生東路340巷13號","121.471373333333","25.0071966666667","6500100","板橋區"
"220063","609-BX","2018/03/20 18:59:38","新北市板橋區中山路二段179號","121.476231666667","25.016935","6500100","板橋區"
"220057","686-BX","2018/03/20 18:59:40","新北市板橋區重慶路63號","121.461793333333","25.007125","6500100","板橋區"
"220077","687-BX","2018/03/20 18:59:34","新北市板橋區大觀路二段146號","121.442236666667","24.99886","6500100","板橋區"
"220093","689-BX","2018/03/20 18:59:32","新北市板橋區民生路三段66-1號","121.467135","25.0258466666667","6500100","板橋區"
"220054","741-BX","2018/03/20 18:59:33","新北市板橋區重慶路112號","121.461928333333","25.0050883333333","6500100","板橋區"
"220102","KEA-2699","2018/03/20 18:59:34","新北市板橋區萬板路706號","121.481373333333","25.0276083333333","6500100","板橋區"
"220067","829-TW","2018/03/20 18:59:30","新北市板橋區三民路二段正隆巷12弄20號","121.477595","25.0137033333333","6500100","板橋區"
"220096","831-TW","2018/03/20 18:59:42","新北市板橋區莒光路122號","121.472711666667","25.023915","6500100","板橋區"
"220088","833-TW","2018/03/20 18:59:39","新北市板橋區民生路二段224號","121.46913","25.0218666666667","6500100","板橋區"
"220074","895-R6","2018/03/20 18:59:39","新北市板橋區西門街59號","121.454436666667","25.0090916666667","6500100","板橋區"
"220073","985-R7","2018/03/20 18:59:34","新北市板橋區民權路248號","121.458365","25.0146333333333","6500100","板橋區"
"220097","AAC-210","2018/03/20 18:59:41","新北市板橋區陽明街164巷33號","121.464693333333","25.0247116666667","6500100","板橋區"
"220070","AAC-253","2018/03/20 18:59:41","新北市板橋區四川路一段489號","121.457128333333","24.9971516666667","6500100","板橋區"
