"lineid","car","time","location","longitude","latitude","cityid","cityname"
"234046","148-BY","2018/03/20 19:29:25","新北市永和區成功路二段2號","121.526575","25.001235","6500400","永和區"
"234007","207-UY","2018/03/20 19:29:26","新北市永和區永和路二段3號","121.514415","25.009955","6500400","永和區"
"234081","298-R6","2018/03/20 19:29:38","新北市永和區福和路5號","121.525078333333","25.0087833333333","6500400","永和區"
"234038","336-UY","2018/03/20 19:29:40","新北市永和區民樂街38號","121.527546666667","25.0007783333333","6500400","永和區"
"234064","337-UY","2018/03/20 19:29:42","新北市永和區得和路243巷26號","121.520803333333","25.00109","6500400","永和區"
"234086","338-UY","2018/03/20 19:29:42","新北市永和區林森路39巷1號","121.525538333333","25.0048683333333","6500400","永和區"
"234070","552-UM","2018/03/20 19:29:33","新北市永和區警光街2號","121.520163333333","25.0096116666667","6500400","永和區"
"234067","553-UM","2018/03/20 19:29:31","新北市永和區永貞路313號","121.510071666667","25.0066333333333","6500400","永和區"
"234017","745-BX","2018/03/20 19:29:40","新北市永和區環河西路一段63號","121.513381666667","25.0181816666667","6500400","永和區"
"234030","746-BX","2018/03/20 19:29:27","新北市永和區民生路69號","121.522656666667","24.9972333333333","6500400","永和區"
"234054","KEA-2590","2018/03/20 19:29:43","新北市永和區復興街17號","121.516093333333","25.01302","6500400","永和區"
"234013","KEA-2591","2018/03/20 19:29:36","新北市永和區中山路一段184巷9弄1號","121.508536666667","25.0092533333333","6500400","永和區"
"234061","AAD-866","2018/03/20 19:29:30","新北市永和區中正路568號","121.517211666667","25.0061783333333","6500400","永和區"
"234042","862-TW","2018/03/20 19:29:39","新北市永和區中和路519巷8號","121.51095","25.003065","6500400","永和區"
"234050","863-TW","2018/03/20 19:29:37","新北市永和區信義路114號","121.512346666667","25.0143816666667","6500400","永和區"
"234026","9371-KE","2018/03/20 19:29:33","新北市中和區安平路222號","121.514098333333","25.0000166666667","6500400","永和區"
"234011","9373-KE","2018/03/20 19:29:27","新北市永和區保福路二段6號","121.510985","25.0111866666667","6500400","永和區"
"249003","593-UM","2018/03/20 19:29:39","新北市八里區舊城路23號","121.399646666667","25.1471633333333","6502300","八里區"
"248008","095-VK","2018/03/20 19:29:39","新北市五股區中興路一段95巷16號","121.466566666667","25.07235","6501500","五股區"
"248012","247-BX","2018/03/20 19:29:37","新北市五股區成泰路二段97號","121.438016666667","25.0842433333333","6501500","五股區"
"248014","261-SL","2018/03/20 19:29:44","新北市五股區民義路一段185-19號","121.431266666667","25.0873933333333","6501500","五股區"
"248004","677-BX","2018/03/20 19:29:31","新北市五股區五福路8號","121.434381666667","25.0883366666667","6501500","五股區"
"248002","678-BX","2018/03/20 19:29:32","新北市五股區凌雲路一段158巷14-1號","121.447851666667","25.1034566666667","6501500","五股區"
"248010","682-TV","2018/03/20 19:29:43","新北市五股區水碓一路23號","121.430616666667","25.0712916666667","6501500","五股區"
"234023","9380-KE","2018/03/20 19:29:26","新北市永和區竹林路91巷43弄2號","121.521311666667","25.0128033333333","6500400","永和區"
"234077","969-R7","2018/03/20 19:29:30","新北市永和區民權路58巷3號","121.519576666667","24.99829","6500400","永和區"
"234074","AAC-211","2018/03/20 19:29:40","新北市永和區永和路二段264號","121.51609","25.01498","6500400","永和區"
"234003","AAC-295","2018/03/20 19:29:25","新北市永和區福和路387號","121.514171666667","25.0076883333333","6500400","永和區"
"244023","483-VK","2018/03/20 19:29:36","新北市林口區文化三路二段10號","121.373058333333","25.0785966666667","6501700","林口區"
"243012","AAD-798","2018/03/20 19:29:36","新北市泰山區仁愛路36-6號","121.431593333333","25.0547466666667","6501600","泰山區"
"243011","297-R6","2018/03/20 19:29:29","新北市泰山區貴子路76號","121.427113333333","25.0413816666667","6501600","泰山區"
"243015","380-SR","2018/03/20 19:29:23","新北市泰山區明志路二段21號","121.429871666667","25.0533716666667","6501600","泰山區"
"243014","421-VK","2018/03/20 19:29:33","新北市泰山區中港西路422號","121.433778333333","25.0538933333333","6501600","泰山區"
"243010","KEA-2215","2018/03/20 19:29:26","新北市泰山區民生路17巷63號","121.429243333333","25.0509083333333","6501600","泰山區"
"243009","KEA-2216","2018/03/20 19:29:32","新北市泰山區半山雅3號","121.431326666667","25.06744","6501600","泰山區"
"243013","646-TV","2018/03/20 19:29:31","新北市泰山區貴子路36巷2號","121.42588","25.0414783333333","6501600","泰山區"
"243016","680-BX","2018/03/20 19:29:28","新北市泰山區明志路三段237號","121.42361","25.037745","6501600","泰山區"
"222003","436-BY","2018/03/20 19:29:31","新北市深坑區深南路88巷1號","121.620963333333","25.011695","6501800","深坑區"
"222002","659-BX","2018/03/20 19:29:34","新北市深坑區北深路一段177號","121.632536666667","25.0109183333333","6501800","深坑區"
"231041","002-UM","2018/03/20 19:29:29","新北市新店區中正路543-4號","121.533716666667","24.9874816666667","6500600","新店區"
"231059","046-UY","2018/03/20 19:29:36","新北市新店區安和路三段83號","121.517875","24.9837916666667","6500600","新店區"
"231061","047-UY","2018/03/20 19:29:41","新北市新店區安民街50號","121.516145","24.96575","6500600","新店區"
"231060","106-UY","2018/03/20 19:29:27","新北市新店區安康路二段78號","121.514113333333","24.9633283333333","6500600","新店區"
"231051","107-UY","2018/03/20 19:29:21","新北市新店區中央五街17號","121.529505","24.9744366666667","6500600","新店區"
"231048","108-UY","2018/03/20 19:29:31","新北市新店區中興路一段252號","121.54445","24.96656","6500600","新店區"
"231053","187-VK","2018/03/20 19:29:43","新北市新店區廣興路7-2號","121.546178333333","24.9120766666667","6500600","新店區"
"231057","188-VK","2018/03/20 19:29:24","新北市新店區花園一路二段27號","121.551295","24.932435","6500600","新店區"
"231050","KEA-2219","2018/03/20 19:29:37","新北市新店區竹林路97巷1號","121.554491666667","24.95024","6500600","新店區"
"221015","KEA-2785","2018/03/20 19:29:40","新北市汐止區康寧街901號","121.6517","25.0749366666667","6501100","汐止區"
"231046","278-BY","2018/03/20 19:29:39","新北市新店區中正路146號","121.541773333333","24.9715266666667","6500600","新店區"
"231054","AAD-862","2018/03/20 19:25:52","新北市新店區文中路45號","121.539503333333","24.956665","6500600","新店區"
"231058","3712-VJ","2018/03/20 19:29:42","新北市新店區寶橋路75號","121.545671666667","24.9751483333333","6500600","新店區"
"231067","4772-VM","2018/03/20 19:29:39","新北市新店區安和路一段43號","121.517133333333","24.9655616666667","6500600","新店區"
"231065","512-UM","2018/03/20 19:29:38","新北市新店區安祥路109巷1弄67號","121.47832","24.9606916666667","6500600","新店區"
"231049","513-UM","2018/03/20 19:29:25","新北市新店區北新路三段65巷34弄21號","121.539966666667","24.981725","6500600","新店區"
"231064","515-UM","2018/03/20 19:29:27","新北市新店區安忠路36號","121.514345","24.9613066666667","6500600","新店區"
"231045","617-UM","2018/03/20 19:29:26","新北市新店區北宜路二段215號","121.553278333333","24.9533766666667","6500600","新店區"
"231040","619-UM","2018/03/20 19:29:34","新北市新店區北新路一段42號","121.541003333333","24.9661366666667","6500600","新店區"
"231042","641-BX","2018/03/20 19:29:31","新北市新店區中興路一段214號","121.543811666667","24.9656583333333","6500600","新店區"
"231063","645-TV","2018/03/20 19:29:41","新北市新店區達觀路20號","121.501918333333","24.9410733333333","6500600","新店區"
"231062","720-UM","2018/03/20 19:29:44","新北市新店區安康路一段35號","121.531743333333","24.9606716666667","6500600","新店區"
"231044","897-TW","2018/03/20 19:29:39","新北市新店區中興路三段238號","121.543208333333","24.9835133333333","6500600","新店區"
"231043","899-TW","2018/03/20 19:29:42","新北市新店區北新路二段187號","121.54281","24.9777116666667","6500600","新店區"
"231066","AKT-0513","2018/03/20 19:29:34","新北市新店區安康路三段107號","121.491248333333","24.95174","6500600","新店區"
"241028","022-UY","2018/03/20 19:29:28","新北市三重區中寮街31號","121.49271","25.0588516666667","6500200","三重區"
"241008","059-VK","2018/03/20 19:29:24","新北市三重區永福街135巷33號","121.477538333333","25.0771833333333","6500200","三重區"
"241009","060-VK","2018/03/20 19:29:31","新北市三重區仁美街123號","121.485535","25.08128","6500200","三重區"
"241031","061-VK","2018/03/20 19:29:26","新北市三重區集美街69號","121.488588333333","25.053955","6500200","三重區"
"241017","063-VK","2018/03/20 19:29:33","新北市三重區長壽西街168號","121.49331","25.06648","6500200","三重區"
"241026","066-VK","2018/03/20 19:29:38","新北市三重區文化南路47巷6號","121.4997","25.06124","6500200","三重區"
"241022","267-UM","2018/03/20 19:29:34","新北市三重區忠孝路三段40巷59號","121.483481666667","25.065335","6500200","三重區"
"241032","269-UM","2018/03/20 19:29:35","新北市三重區三陽路39號","121.485295","25.0587916666667","6500200","三重區"
"241013","270-UM","2018/03/20 19:29:30","新北市三重區仁愛街118號","121.49523","25.0744883333333","6500200","三重區"
"241025","271-UM","2018/03/20 19:29:37","新北市三重區頂崁街210巷12弄10號","121.475788333333","25.0672433333333","6500200","三重區"
"241007","398-BY","2018/03/20 19:29:40","新北市三重區溪尾街124-2號","121.48937","25.0794716666667","6500200","三重區"
"241020","413-TH","2018/03/20 19:29:42","新北市三重區三和路四段20巷6號","121.490678333333","25.0739133333333","6500200","三重區"
"241035","462-BY","2018/03/20 19:29:24","新北市三重區信義西街1號","121.498081666667","25.0648783333333","6500200","三重區"
"241030","480-VK","2018/03/20 19:29:35","新北市三重區環河南路254巷32號","121.490028333333","25.0510833333333","6500200","三重區"
"241014","543-UM","2018/03/20 19:29:38","新北市三重區長興街35號","121.500466666667","25.0686516666667","6500200","三重區"
"241023","545-UM","2018/03/20 19:29:38","新北市三重區頂崁街183號","121.47805","25.0638066666667","6500200","三重區"
"241006","887-TS","2018/03/20 19:29:32","新北市三重區國道路一段2號","121.486443333333","25.07339","6500200","三重區"
"241029","942-UM","2018/03/20 19:29:33","新北市三重區中正南路254號","121.49327","25.0532766666667","6500200","三重區"
"235066","003-UY","2018/03/20 19:29:36","新北市中和區中和路196巷21號","121.505045","24.998615","6500300","中和區"
"235064","005-UY","2018/03/20 19:29:30","新北市中和區南山路47號","121.502091666667","24.998495","6500300","中和區"
"235063","006-UY","2018/03/20 19:29:28","新北市中和區連勝街149號","121.494473333333","24.99627","6500300","中和區"
"235056","096-UM","2018/03/20 19:29:41","新北市中和區民富街36號","121.476741666667","25.006675","6500300","中和區"
"235039","097-UM","2018/03/20 19:29:38","新北市中和區秀峰街103巷2弄4號","121.519971666667","24.9905233333333","6500300","中和區"
"235065","098-UM","2018/03/20 19:29:32","新北市中和區中山路二段2巷13弄1號","121.504005","25.0068","6500300","中和區"
"235040","150-BY","2018/03/20 19:29:32","新北市中和區保健路46巷35號","121.50878","24.9957166666667","6500300","中和區"
"235058","151-BY","2018/03/20 19:29:31","新北市中和區員山路36巷16-2號","121.4853","24.991645","6500300","中和區"
"235055","183-VK","2018/03/20 19:29:37","新北市中和區民享街86巷31號","121.47278","25.000365","6500300","中和區"
"235038","185-VK","2018/03/20 19:29:37","新北市中和區自立路43號","121.522091666667","24.9950816666667","6500300","中和區"
"235049","186-VK","2018/03/20 19:29:32","新北市中和區景新街285巷4號","121.51","24.99348","6500300","中和區"
"235067","293-VK","2018/03/20 19:29:31","新北市中和區捷運路185號","121.50544","24.9913866666667","6500300","中和區"
"235072","301-VK","2018/03/20 19:29:43","新北市中和區連城路265巷6弄6號","121.491071666667","24.9959116666667","6500300","中和區"
"235043","352-BY","2018/03/20 19:29:34","新北市中和區景新街145號","121.5064","24.9966016666667","6500300","中和區"
"235068","377-QA","2018/03/20 19:29:23","新北市中和區連勝街9號","121.498975","24.9983483333333","6500300","中和區"
"235061","378-QA","2018/03/20 19:29:18","新北市中和區民利街66號","121.478783333333","24.9984133333333","6500300","中和區"
"235071","269-TV","2018/03/20 19:29:38","新北市中和區中正路637巷18弄20號","121.48433","24.9950666666667","6500300","中和區"
"235050","4979-A6","2018/03/20 19:29:32","新北市中和區中正路452號","121.490805","24.99427","6500300","中和區"
"235042","551-UM","2018/03/20 19:29:29","新北市中和區安平路161號","121.512413333333","24.9985666666667","6500300","中和區"
"235070","558-UM","2018/03/20 19:29:25","新北市中和區中和路62號","121.500758333333","25.0008433333333","6500300","中和區"
"235045","565-BX","2018/03/20 19:29:29","新北市中和區景新街399巷11號","121.512945","24.9899033333333","6500300","中和區"
"235054","640-BX","2018/03/20 19:29:36","新北市中和區國光街112巷18弄2號","121.46973","25.001695","6500300","中和區"
"235060","647-TV","2018/03/20 19:29:36","新北市中和區新生街52號","121.483146666667","25.0029916666667","6500300","中和區"
"235047","732-UM","2018/03/20 19:29:42","新北市中和區景平路241巷64弄2號","121.507733333333","24.9924283333333","6500300","中和區"
"235046","733-UM","2018/03/20 19:29:27","新北市中和區忠孝街37巷44號","121.510683333333","24.9846566666667","6500300","中和區"
"235057","801-TS","2018/03/20 19:29:23","新北市中和區中山路三段8號","121.47949","25.0060616666667","6500300","中和區"
"235041","802-TS","2018/03/20 19:29:43","新北市中和區中和路350巷10號","121.510761666667","25.000495","6500300","中和區"
"235052","805-TS","2018/03/20 19:29:38","新北市中和區華新街143巷67弄17號","121.507201666667","24.9790383333333","6500300","中和區"
"235048","896-TW","2018/03/20 19:29:33","新北市中和區忠孝街113巷1號","121.512475","24.9873316666667","6500300","中和區"
"235053","900-TW","2018/03/20 19:29:36","新北市中和區華安街8號","121.465671666667","24.998665","6500300","中和區"
"235051","157-BY","2018/03/20 19:29:34","新北市中和區景新街256號","121.509453333333","24.993385","6500300","中和區"
"235037","AAC-213","2018/03/20 19:29:42","新北市中和區秀朗路三段10巷14弄18號","121.524896666667","24.996605","6500300","中和區"
"235059","AAC-215","2018/03/20 19:29:35","新北市中和區圓通路252巷6號","121.493038333333","24.9916633333333","6500300","中和區"
"220086","073-UY","2018/03/20 19:29:44","新北市板橋區中正路236巷17號","121.456696666667","25.0191783333333","6500100","板橋區"
"220069","AAD-861","2018/03/20 19:29:27","新北市板橋區貴興路35號","121.457676666667","25.0039066666667","6500100","板橋區"
"226004","312-R5","2018/03/20 19:29:30","新北市平溪區十分里十分街66巷17號","121.77489","25.0426833333333","6502400","平溪區"
"228003","097-TW","2018/03/20 19:29:25","新北市貢寮區和美里和美街19-2號","121.912766666667","25.0826266666667","6502600","貢寮區"
"228001","212-TW","2018/03/20 19:29:29","新北市貢寮區真理里延平街66號","121.92535","25.05738","6502600","貢寮區"
"228002","585-TW","2018/03/20 19:29:33","新北市貢寮區龍門里龍門街78號","121.931081666667","25.0268416666667","6502600","貢寮區"
"224010","AGQ-8101","2018/03/20 19:29:25","新北市瑞芳區基山街139號","121.843883333333","25.1083033333333","6501200","瑞芳區"
"224002","639-TC","2018/03/20 19:29:41","新北市瑞芳區三爪子坑路11號","121.813958333333","25.1075066666667","6501200","瑞芳區"
"224005","271-BY","2018/03/20 19:29:30","新北市瑞芳區東和路9號","121.80465","25.10612","6501200","瑞芳區"
"227009","642-TC","2018/03/20 19:29:43","新北市雙溪區新基里新基北街43號","121.868158333333","25.039665","6502500","雙溪區"
"227003","400-TW","2018/03/20 19:29:35","新北市雙溪區雙溪里光復街20號","121.86518","25.035415","6502500","雙溪區"
"253005","032-BX","2018/03/20 19:29:28","新北市石門區小坑9號","121.594351666667","25.2883883333333","6502200","石門區"
"253006","295-VK","2018/03/20 19:29:31","新北市石門區海園路37號","121.55716","25.2911866666667","6502200","石門區"
"222001","KEA-2212","2018/03/20 19:29:42","新北市深坑區北深路二段120號","121.616503333333","25.00305","6501800","深坑區"
"208002","KEA-2872","2018/03/20 19:29:36","新北市金山區仁愛路78巷2號","121.634635","25.2215583333333","6502700","金山區"
"208003","665-BX","2018/03/20 19:29:31","新北市金山區中山路263巷10號","121.636223333333","25.2216433333333","6502700","金山區"
"208001","761-BX","2018/03/20 19:29:34","新北市金山區南勢湖41-6號","121.629786666667","25.2210166666667","6502700","金山區"
"251006","010-UM","2018/03/20 19:29:31","新北市淡水區大義街40號","121.442061666667","25.1783033333333","6501000","淡水區"
"251001","011-UM","2018/03/20 19:29:34","新北市淡水區民權路139號","121.460073333333","25.1365116666667","6501000","淡水區"
"251013","179-VK","2018/03/20 19:29:27","新北市淡水區大牛稠6號","121.469928333333","25.2175066666667","6501000","淡水區"
"251014","180-VK","2018/03/20 19:29:32","新北市淡水區小中寮15-2號","121.484806666667","25.229835","6501000","淡水區"
"251015","182-VK","2018/03/20 19:29:41","新北市淡水區山子頂22號","121.491478333333","25.18728","6501000","淡水區"
"251012","441-VK","2018/03/20 19:29:36","新北市淡水區中山北路三段164號","121.445706666667","25.1965416666667","6501000","淡水區"
"251016","442-VK","2018/03/20 19:29:45","新北市淡水區淡金路三段350巷18號","121.450806666667","25.20837","6501000","淡水區"
"251005","443-VK","2018/03/20 19:29:31","新北市淡水區水源街一段71巷12號","121.44432","25.1729","6501000","淡水區"
"251009","575-R6","2018/03/20 19:29:39","新北市淡水區大忠街5巷9號","121.443398333333","25.1765533333333","6501000","淡水區"
"251007","577-R6","2018/03/20 19:29:28","新北市淡水區坪頂路49號","121.457756666667","25.1624966666667","6501000","淡水區"
"251011","650-BX","2018/03/20 19:29:36","新北市淡水區中正東路二段161巷11弄22號","121.460686666667","25.1456316666667","6501000","淡水區"
"251010","672-BX","2018/03/20 19:29:31","新北市淡水區中正路二段150號","121.422853333333","25.187645","6501000","淡水區"
"251003","673-BX","2018/03/20 19:29:32","新北市淡水區中山北路二段180號","121.444365","25.18486","6501000","淡水區"
"207003","550-UM","2018/03/20 19:29:39","新北市萬里區大鵬里萬里加投249號","121.644258333333","25.215505","6502800","萬里區"
"207004","225-TW","2018/03/20 19:29:33","新北市萬里區萬里里瑪鋉路127-8號","121.688893333333","25.1778116666667","6502800","萬里區"
"252002","178-VK","2018/03/20 19:29:32","新北市三芝區淡金路二段18-1號","121.502646666667","25.2595","6502100","三芝區"
"252001","292-VK","2018/03/20 19:29:39","新北市三芝區長勤街63-1號","121.500123333333","25.2560983333333","6502100","三芝區"
"237004","KEA-2597","2018/03/20 19:29:38","新北市三峽區有木205-1號","121.439063333333","24.8515","6500900","三峽區"
"237007","153-BY","2018/03/20 19:29:33","新北市三峽區二鬮路136巷20弄83號","121.358155","24.909115","6500900","三峽區"
"237009","210-TH","2018/03/20 19:29:38","新北市三峽區民權街153-1號","121.368318333333","24.931195","6500900","三峽區"
"237013","252-BX","2018/03/20 19:29:41","新北市三峽區介壽路一段286號","121.379836666667","24.9302066666667","6500900","三峽區"
"237012","275-BY","2018/03/20 19:29:30","新北市三峽區三樹路98巷175號","121.38455","24.93995","6500900","三峽區"
"237008","302-VK","2018/03/20 19:29:36","新北市三峽區大同路156號","121.373003333333","24.926745","6500900","三峽區"
"237014","433-BY","2018/03/20 19:29:26","新北市三峽區大利路22號","121.367016666667","24.9116733333333","6500900","三峽區"
"237006","5529-G3","2018/03/20 19:29:36","新北市三峽區中正路一段336巷15弄2號","121.36997","24.9249283333333","6500900","三峽區"
"237016","649-BX","2018/03/20 19:28:59","新北市三峽區建安34-1號","121.446961666667","24.9274866666667","6500900","三峽區"
"237005","AKY-6261","2018/03/20 19:29:30","新北市三峽區復興路367巷3號","121.363623333333","24.9380233333333","6500900","三峽區"
"236070","105-UM","2018/03/20 19:29:31","新北市土城區學府路一段143巷2號","121.453788333333","24.9859883333333","6501300","土城區"
"236079","166-UM","2018/03/20 19:29:41","新北市土城區中州路22號","121.414578333333","24.9574116666667","6501300","土城區"
"236031","253-BX","2018/03/20 19:29:25","新北市土城區中央路一段320號","121.44306","24.9817233333333","6501300","土城區"
"236026","269-VK","2018/03/20 19:29:43","新北市土城區中央路二段61巷26號","121.443325","24.978695","6501300","土城區"
"236023","401-BY","2018/03/20 19:29:32","新北市土城區峰廷街3號","121.469085","24.9873333333333","6501300","土城區"
"236059","912-UM","2018/03/20 19:29:40","新北市土城區中央路二段63號","121.442835","24.978825","6501300","土城區"
"236049","913-UM","2018/03/20 19:29:38","新北市土城區清水路217號","121.460596666667","24.98207","6501300","土城區"
"242023","362-BY","2018/03/20 19:29:31","新北市新莊區三和路12-21號","121.442371666667","25.0380916666667","6500500","新莊區"
"242032","135-UY","2018/03/20 19:29:39","新北市新莊區新泰路225巷24號","121.44525","25.03905","6500500","新莊區"
"242048","172-VK","2018/03/20 19:29:30","新北市新莊區後港一路3號","121.424141666667","25.0263033333333","6500500","新莊區"
"242021","348-TH","2018/03/20 19:29:43","新北市新莊區新泰路357巷3弄57號","121.442285","25.039555","6500500","新莊區"
"238015","755-BX","2018/03/20 19:29:43","新北市樹林區啟智街127巷24號","121.419176666667","24.9897516666667","6500700","樹林區"
"238023","601-UM","2018/03/20 19:29:33","新北市樹林區中正路865號","121.408801666667","25.018125","6500700","樹林區"
"238019","599-UM","2018/03/20 19:29:34","新北市樹林區八德街3號","121.417853333333","24.98456","6500700","樹林區"
"238018","571-TV","2018/03/20 19:29:30","新北市樹林區環河路10號","121.427026666667","24.9782283333333","6500700","樹林區"
"238024","5061-A6","2018/03/20 19:29:35","新北市樹林區中山路三段155巷12號","121.396023333333","24.972575","6500700","樹林區"
"238022","KEA-2213","2018/03/20 19:29:33","新北市樹林區名園街11號","121.419248333333","24.9795933333333","6500700","樹林區"
"238021","KEA-2539","2018/03/20 19:29:29","新北市樹林區學勤路550號","121.38381","24.9484416666667","6500700","樹林區"
"238025","303-VK","2018/03/20 19:29:41","新北市樹林區中山路一段55號","121.423821666667","24.9921233333333","6500700","樹林區"
"238017","283-BY","2018/03/20 19:29:24","新北市樹林區光興街63巷5號","121.410878333333","25.0021516666667","6500700","樹林區"
"238014","282-BY","2018/03/20 19:29:35","新北市樹林區千歲街6巷2號","121.425066666667","24.9955266666667","6500700","樹林區"
"238020","268-VK","2018/03/20 19:29:30","新北市樹林區俊英街111巷8-4號","121.424265","25.009695","6500700","樹林區"
"238026","172-UY","2018/03/20 19:29:35","新北市樹林區佳園路二段95號","121.390548333333","24.9591016666667","6500700","樹林區"
"238016","169-UY","2018/03/20 19:29:38","新北市樹林區大安路593號","121.4117","24.9831583333333","6500700","樹林區"
"239007","AAC-297","2018/03/20 19:29:25","新北市鶯歌區大湖路326巷7號","121.345775","24.9703033333333","6500800","鶯歌區"
"239006","891-R6","2018/03/20 19:29:38","新北市鶯歌區鶯桃路永新巷36號","121.33887","24.9517266666667","6500800","鶯歌區"
"239001","417-VK","2018/03/20 19:29:39","新北市鶯歌區鶯桃路16號","121.342396666667","24.9515466666667","6500800","鶯歌區"
"239003","360-BY","2018/03/20 19:29:32","新北市鶯歌區中正一路478號","121.366518333333","24.9568516666667","6500800","鶯歌區"
"239002","359-BY","2018/03/20 19:29:35","新北市鶯歌區大湖路159號","121.344146666667","24.967135","6500800","鶯歌區"
"239004","193-VK","2018/03/20 19:29:40","新北市鶯歌區二甲路61號","121.335235","24.933235","6500800","鶯歌區"
"221008","489-VK","2018/03/20 19:29:32","新北市汐止區康寧街145號","121.622056666667","25.0666516666667","6501100","汐止區"
"221036","130-UY","2018/03/20 19:29:35","新北市汐止區汐萬路一段256巷1號","121.651716666667","25.0748983333333","6501100","汐止區"
"221010","269-BY","2018/03/20 19:29:41","新北市汐止區連峰街7號","121.646478333333","25.0771033333333","6501100","汐止區"
"221012","278-VK","2018/03/20 19:29:30","新北市汐止區大同路三段271號","121.67404","25.0756633333333","6501100","汐止區"
"221023","279-VK","2018/03/20 19:29:29","新北市汐止區康寧街753巷1-1號","121.639096666667","25.0737216666667","6501100","汐止區"
"221027","281-BY","2018/03/20 19:29:29","新北市汐止區忠孝東路9號","121.658253333333","25.0659816666667","6501100","汐止區"
"221029","298-VK","2018/03/20 19:29:28","新北市汐止區康寧街901號","121.651475","25.0749183333333","6501100","汐止區"
"221031","353-TW","2018/03/20 19:29:35","新北市汐止區康寧街901號","121.650833333333","25.0752683333333","6501100","汐止區"
"221025","623-UM","2018/03/20 19:29:41","新北市汐止區秀峰路57號","121.659725","25.0650333333333","6501100","汐止區"
"221038","646-BX","2018/03/20 19:29:39","新北市汐止區大同路二段423號","121.658691666667","25.067195","6501100","汐止區"
"221033","647-BX","2018/03/20 19:29:30","新北市汐止區南勢街3號","121.627056666667","25.037375","6501100","汐止區"
"221002","707-TV","2018/03/20 19:29:20","新北市汐止區中興路22-1號","121.637085","25.0597633333333","6501100","汐止區"
"220079","145-BY","2018/03/20 19:29:40","新北市板橋區復興街53號","121.458678333333","25.0175383333333","6500100","板橋區"
"220080","200-UY","2018/03/20 19:29:24","新北市板橋區大觀路二段3巷56號","121.449016666667","25.0034466666667","6500100","板橋區"
"220106","KEA-2550","2018/03/20 19:29:38","新北市板橋區長江路三段62號","121.473633333333","25.033965","6500100","板橋區"
"220082","610-BX","2018/03/20 19:29:29","新北市板橋區金門街126號","121.432825","24.9912483333333","6500100","板橋區"
"220101","245-BX","2018/03/20 19:29:41","新北市板橋區縣民大道三段121巷16號","121.47671","25.0232166666667","6500100","板橋區"
"220055","256-TC","2018/03/20 19:29:43","新北市板橋區重慶路278巷5號","121.462655","24.999685","6500100","板橋區"
"220068","257-TC","2018/03/20 19:29:25","新北市板橋區翠華街6巷68號","121.481765","25.0250516666667","6500100","板橋區"
"220091","267-BY","2018/03/20 19:29:46","新北市板橋區文聖街135巷27號","121.479068333333","25.0290133333333","6500100","板橋區"
"220056","276-BY","2018/03/20 19:29:37","新北市板橋區國慶路39號","121.459083333333","24.9956366666667","6500100","板橋區"
"220072","277-BY","2018/03/20 19:29:37","新北市板橋區篤行路二段141巷25號","121.430741666667","24.9876983333333","6500100","板橋區"
"220094","280-UM","2018/03/20 19:29:36","新北市板橋區吳鳳路42號","121.468345","25.030385","6500100","板橋區"
"220064","282-UM","2018/03/20 19:29:32","新北市板橋區中山路一段24號","121.460475","25.0081916666667","6500100","板橋區"
"220071","283-VK","2018/03/20 19:29:39","新北市板橋區四川路一段283巷2號","121.459691666667","25.0014216666667","6500100","板橋區"
"220053","285-VK","2018/03/20 19:29:34","新北市板橋區永豐街102號","121.47597","25.0205666666667","6500100","板橋區"
"220083","286-VK","2018/03/20 19:29:31","新北市板橋區大觀路二段174巷192號","121.442258333333","25.0038916666667","6500100","板橋區"
"220081","287-VK","2018/03/20 19:29:26","新北市板橋區大觀路一段28巷1弄102號","121.45166","25.0063416666667","6500100","板橋區"
"220090","288-VK","2018/03/20 19:29:43","新北市板橋區長江路一段106巷20弄12號","121.460088333333","25.02838","6500100","板橋區"
"220061","293-UM","2018/03/20 19:29:44","新北市板橋區中山路二段181號","121.476048333333","25.0171116666667","6500100","板橋區"
"220084","296-UM","2018/03/20 19:29:40","新北市板橋區滿平街84巷110弄22號","121.425881666667","24.9857816666667","6500100","板橋區"
"242011","281-VK","2018/03/20 19:29:37","新北市新莊區新泰路255巷83號","121.442243333333","25.0387933333333","6500500","新莊區"
"220075","303-R5","2018/03/20 19:29:39","新北市板橋區中正路253巷8號","121.455273333333","25.0182016666667","6500100","板橋區"
"220062","305-R5","2018/03/20 19:29:32","新北市板橋區三民路二段153巷2弄2號","121.479535","25.0149466666667","6500100","板橋區"
"220092","307-R5","2018/03/20 19:29:24","新北市板橋區光武街6號","121.468035","25.0250316666667","6500100","板橋區"
"220098","317-R6","2018/03/20 19:29:31","新北市板橋區民生路三段263巷2弄2號","121.463936666667","25.0294383333333","6500100","板橋區"
"220089","487-VK","2018/03/20 19:29:36","新北市板橋區文化路一段135號","121.462145","25.01518","6500100","板橋區"
"220035","560-BX","2018/03/20 19:29:40","新北市板橋區中正路417號","121.45408","25.0227016666667","6500100","板橋區"
"220103","561-BX","2018/03/20 19:29:23","新北市板橋區文化路一段210號","121.466503333333","25.0201566666667","6500100","板橋區"
"220065","568-UM","2018/03/20 19:29:31","新北市板橋區國泰街111巷17號","121.466098333333","25.00595","6500100","板橋區"
"220063","609-BX","2018/03/20 19:29:38","新北市板橋區三民路一段31巷82號","121.481091666667","25.0232883333333","6500100","板橋區"
"220057","686-BX","2018/03/20 19:29:37","新北市板橋區和平路92號","121.461803333333","24.9947033333333","6500100","板橋區"
"220077","687-BX","2018/03/20 19:29:26","新北市板橋區僑中二街116巷1號","121.44565","25.0062683333333","6500100","板橋區"
"220093","689-BX","2018/03/20 19:29:32","新北市板橋區新海路186號","121.460865","25.0235016666667","6500100","板橋區"
"220054","741-BX","2018/03/20 19:29:33","新北市板橋區光明街15號","121.46043","25.0025716666667","6500100","板橋區"
"220102","KEA-2699","2018/03/20 19:29:34","新北市板橋區雙十路二段130巷2弄23號","121.474695","25.0288166666667","6500100","板橋區"
"220067","829-TW","2018/03/20 19:29:30","新北市板橋區漢生東路313巷19號","121.472455","25.0083933333333","6500100","板橋區"
"220096","831-TW","2018/03/20 19:29:43","新北市板橋區大同街14-4號","121.477408333333","25.0269883333333","6500100","板橋區"
"220088","833-TW","2018/03/20 19:29:31","新北市板橋區三民路一段5巷1號","121.479065","25.0234233333333","6500100","板橋區"
"220074","895-R6","2018/03/20 19:29:39","新北市板橋區北門街5號","121.457673333333","25.0105433333333","6500100","板橋區"
"220073","985-R7","2018/03/20 19:29:34","新北市板橋區中正路210號","121.456073333333","25.0181233333333","6500100","板橋區"
"220097","AAC-210","2018/03/20 19:29:41","新北市板橋區漢生西路163號","121.46315","25.0231716666667","6500100","板橋區"
"220070","AAC-253","2018/03/20 19:29:41","新北市板橋區民族路101號","121.466605","25.0081666666667","6500100","板橋區"
