"lineid","car","time","location","longitude","latitude","cityid","cityname"
"234046","148-BY","2018/03/20 19:49:24","新北市永和區永利路157號","121.524858333333","25.003435","6500400","永和區"
"234007","207-UY","2018/03/20 19:49:26","新北市中和區中和路234號","121.506828333333","24.99952","6500400","永和區"
"234081","298-R6","2018/03/20 19:49:30","新北市永和區永亨路104號","121.523416666667","25.0046233333333","6500400","永和區"
"234038","336-UY","2018/03/20 19:49:40","新北市永和區民樂街57巷6號","121.528025","24.998465","6500400","永和區"
"234064","337-UY","2018/03/20 19:49:42","新北市永和區中正路368巷22號","121.51856","25.000725","6500400","永和區"
"234086","338-UY","2018/03/20 19:49:42","新北市永和區福和路293號","121.516755","25.0071633333333","6500400","永和區"
"234070","552-UM","2018/03/20 19:49:32","新北市永和區竹林路88號","121.519461666667","25.0125616666667","6500400","永和區"
"234067","553-UM","2018/03/20 19:49:31","新北市永和區保平路236巷24弄7號","121.508375","25.0070583333333","6500400","永和區"
"234017","745-BX","2018/03/20 19:49:40","新北市永和區永和路二段299號","121.516045","25.0161183333333","6500400","永和區"
"234030","746-BX","2018/03/20 19:49:39","新北市永和區民生路67巷56號","121.525486666667","24.9975266666667","6500400","永和區"
"234054","KEA-2590","2018/03/20 19:49:29","新北市永和區竹林路75巷25弄6號","121.520293333333","25.01427","6500400","永和區"
"234013","KEA-2591","2018/03/20 19:49:36","新北市永和區保安路292號","121.505161666667","25.0118383333333","6500400","永和區"
"234061","AAD-866","2018/03/20 19:49:33","新北市永和區中正路164號","121.515073333333","24.996745","6500400","永和區"
"234042","862-TW","2018/03/20 19:49:39","新北市永和區中和路389巷22號","121.508118333333","25.001295","6500400","永和區"
"234050","863-TW","2018/03/20 19:49:36","新北市永和區保安路77號","121.508643333333","25.014905","6500400","永和區"
"234026","9371-KE","2018/03/20 19:49:33","新北市永和區雙和街52巷1-1號","121.509113333333","25.0031866666667","6500400","永和區"
"234011","9373-KE","2018/03/20 19:49:27","新北市永和區仁愛路310號","121.503078333333","25.0075433333333","6500400","永和區"
"249005","172-UM","2018/03/20 19:49:39","新北市八里區長坑口38-2號","121.38943","25.1285566666667","6502300","八里區"
"249001","173-UM","2018/03/20 19:49:43","新北市八里區中華路二段252號","121.405441666667","25.1496433333333","6502300","八里區"
"249004","303-UY","2018/03/20 19:49:39","新北市八里區仁愛路19號","121.413415","25.1608","6502300","八里區"
"249002","305-UY","2018/03/20 19:49:41","新北市八里區頂寮五街20號","121.451263333333","25.1262966666667","6502300","八里區"
"249003","593-UM","2018/03/20 19:49:32","新北市八里區中華路二段538-4號","121.398821666667","25.1451416666667","6502300","八里區"
"248016","026-BX","2018/03/20 19:49:35","新北市五股區成泰路三段601巷17-1號","121.451743333333","25.1033116666667","6501500","五股區"
"248008","095-VK","2018/03/20 19:49:39","新北市五股區四維路169號","121.46766","25.0751366666667","6501500","五股區"
"248012","247-BX","2018/03/20 19:49:26","新北市五股區蓬萊路24號","121.433896666667","25.0798966666667","6501500","五股區"
"248014","261-SL","2018/03/20 19:49:44","新北市五股區五福路42巷10號","121.434285","25.0896","6501500","五股區"
"248004","677-BX","2018/03/20 19:49:31","新北市五股區成泰路一段153號","121.435301666667","25.07387","6501500","五股區"
"248002","678-BX","2018/03/20 19:49:40","新北市五股區成泰路三段625號","121.452675","25.1041233333333","6501500","五股區"
"248010","682-TV","2018/03/20 19:49:43","新北市五股區登林路76-5號","121.430546666667","25.0695566666667","6501500","五股區"
"234077","969-R7","2018/03/20 19:49:30","新北市永和區中正路264號","121.516708333333","24.998645","6500400","永和區"
"234074","AAC-211","2018/03/20 19:49:40","新北市永和區豫溪街136巷5號","121.521281666667","25.0099716666667","6500400","永和區"
"234003","AAC-295","2018/03/20 19:49:41","新北市永和區福和路318號","121.515781666667","25.0073283333333","6500400","永和區"
"243012","AAD-798","2018/03/20 19:49:32","新北市泰山區全興路13號","121.4323","25.0589283333333","6501600","泰山區"
"243011","297-R6","2018/03/20 19:49:30","新北市泰山區明志路三段196巷21弄7號","121.423075","25.03832","6501600","泰山區"
"243015","380-SR","2018/03/20 19:49:43","新北市泰山區文程路17號","121.428086666667","25.04949","6501600","泰山區"
"243014","421-VK","2018/03/20 19:49:33","新北市泰山區泰林路二段33-7號","121.435226666667","25.0564016666667","6501600","泰山區"
"243010","KEA-2215","2018/03/20 19:49:45","新北市泰山區民生路33號","121.430591666667","25.0521283333333","6501600","泰山區"
"243009","KEA-2216","2018/03/20 19:49:32","新北市泰山區美寧街60號","121.430986666667","25.0646933333333","6501600","泰山區"
"243013","646-TV","2018/03/20 19:49:30","新北市泰山區明志路三段6巷16號","121.423883333333","25.043675","6501600","泰山區"
"243016","680-BX","2018/03/20 19:49:28","新北市泰山區中山路三段114號","121.417898333333","25.0323","6501600","泰山區"
"222003","436-BY","2018/03/20 19:34:15","新北市深坑區深南路51-1號","121.621246666667","25.0098383333333","6501800","深坑區"
"222002","659-BX","2018/03/20 19:49:35","新北市深坑區北深路一段361號","121.622315","25.0049233333333","6501800","深坑區"
"231041","002-UM","2018/03/20 19:49:29","新北市新店區中央路210-1號","121.53011","24.973535","6500600","新店區"
"231059","046-UY","2018/03/20 19:49:36","新北市新店區安和路一段45號","121.51734","24.9657433333333","6500600","新店區"
"231061","047-UY","2018/03/20 19:49:41","新北市新店區安民街326號","121.517435","24.9745766666667","6500600","新店區"
"231060","106-UY","2018/03/20 19:49:41","新北市新店區安康路二段175號","121.509728333333","24.9592333333333","6500600","新店區"
"231051","107-UY","2018/03/20 19:49:41","新北市新店區中央三街73號","121.526428333333","24.9752683333333","6500600","新店區"
"231048","108-UY","2018/03/20 19:49:31","新北市新店區寶興路61巷1號","121.55084","24.9720483333333","6500600","新店區"
"231053","187-VK","2018/03/20 19:49:43","新北市新店區新烏路二段402號","121.551618333333","24.90894","6500600","新店區"
"231057","188-VK","2018/03/20 19:49:35","新北市新店區花園二路三段15號","121.556046666667","24.931695","6500600","新店區"
"231050","KEA-2219","2018/03/20 19:49:36","新北市新店區郵政路1巷6號","121.557428333333","24.9520333333333","6500600","新店區"
"221015","KEA-2785","2018/03/20 19:49:40","新北市汐止區忠孝東路414號","121.665928333333","25.0712783333333","6501100","汐止區"
"231046","278-BY","2018/03/20 19:49:39","新北市新店區福園街8巷16號","121.532443333333","24.9735966666667","6500600","新店區"
"231054","AAD-862","2018/03/20 19:49:38","新北市新店區光明街67號","121.538856666667","24.9604483333333","6500600","新店區"
"231058","3712-VJ","2018/03/20 19:49:42","新北市新店區安德街148巷31號","121.505633333333","24.960285","6500600","新店區"
"231055","4716-K9","2018/03/20 19:49:36","新北市新店區北新路一段235號","121.540541666667","24.9657433333333","6500600","新店區"
"231067","4772-VM","2018/03/20 19:49:39","新北市新店區精忠路10-1號","121.532706666667","24.959055","6500600","新店區"
"231065","512-UM","2018/03/20 19:49:37","新北市新店區安祥路109巷151弄12號","121.478115","24.9589016666667","6500600","新店區"
"231049","513-UM","2018/03/20 19:49:25","新北市新店區民權路127巷7號","121.535491666667","24.981845","6500600","新店區"
"231064","515-UM","2018/03/20 19:49:27","新北市新店區安和路二段113巷1弄2號","121.51832","24.97019","6500600","新店區"
"231045","617-UM","2018/03/20 19:49:26","新北市新店區北宜路二段382號","121.564471666667","24.95292","6500600","新店區"
"231040","619-UM","2018/03/20 19:49:34","新北市新店區北新路一段96巷23號","121.543023333333","24.9688566666667","6500600","新店區"
"231042","641-BX","2018/03/20 19:49:31","新北市新店區中興路一段267-3號","121.545051666667","24.96786","6500600","新店區"
"231063","645-TV","2018/03/20 19:49:41","新北市新店區黎明路3號","121.503238333333","24.9522283333333","6500600","新店區"
"231068","718-UY","2018/03/20 19:49:36","新北市新店區安華路28-1號","121.51942","24.9608633333333","6500600","新店區"
"231062","720-UM","2018/03/20 19:49:44","新北市新店區華潭街1巷1號","121.529638333333","24.9497666666667","6500600","新店區"
"231044","897-TW","2018/03/20 19:49:39","新北市新店區復興路44-1號","121.538636666667","24.9867183333333","6500600","新店區"
"231043","899-TW","2018/03/20 19:49:42","新北市新店區中正路249號","121.53901","24.9734233333333","6500600","新店區"
"231066","AKT-0513","2018/03/20 19:49:34","新北市新店區安興路20號","121.515038333333","24.966005","6500600","新店區"
"241011","013-R5","2018/03/20 19:49:27","新北市三重區介壽路43號","121.498738333333","25.0700816666667","6500200","三重區"
"241028","022-UY","2018/03/20 19:49:28","新北市三重區中正南路163號","121.493815","25.05602","6500200","三重區"
"241008","059-VK","2018/03/20 19:49:35","新北市三重區永福街96號","121.478806666667","25.075945","6500200","三重區"
"241009","060-VK","2018/03/20 19:49:31","新北市三重區三和路四段396巷33號","121.480036666667","25.0788466666667","6500200","三重區"
"241031","061-VK","2018/03/20 19:49:43","新北市三重區重新路四段244巷4號","121.486096666667","25.0535533333333","6500200","三重區"
"241015","062-VK","2018/03/20 19:49:30","新北市三重區三和路一段2號","121.503875","25.0642183333333","6500200","三重區"
"241017","063-VK","2018/03/20 19:49:33","新北市三重區重陽路三段5巷8弄3號","121.489568333333","25.0662466666667","6500200","三重區"
"241024","065-VK","2018/03/20 19:49:42","新北市三重區大勇街77號","121.480213333333","25.0714983333333","6500200","三重區"
"241026","066-VK","2018/03/20 19:49:38","新北市三重區文化南路45號","121.50026","25.061445","6500200","三重區"
"241003","091-VK","2018/03/20 19:49:42","新北市三重區五華街93巷6號","121.492176666667","25.083845","6500200","三重區"
"241016","265-UM","2018/03/20 19:49:38","新北市三重區正義北路48巷68號","121.495728333333","25.0635383333333","6500200","三重區"
"241022","267-UM","2018/03/20 19:49:33","新北市三重區新北大道一段3-1號","121.490003333333","25.0613266666667","6500200","三重區"
"241018","268-UM","2018/03/20 19:49:34","新北市三重區雙園街57巷32號","121.494433333333","25.068355","6500200","三重區"
"241032","269-UM","2018/03/20 19:49:27","新北市三重區重陽路一段10號","121.4863","25.0577483333333","6500200","三重區"
"241013","270-UM","2018/03/20 19:49:29","新北市三重區仁愛街102巷8號","121.494821666667","25.0739866666667","6500200","三重區"
"241025","271-UM","2018/03/20 19:49:36","新北市三重區忠孝路三段56-1號","121.480493333333","25.0652483333333","6500200","三重區"
"241007","398-BY","2018/03/20 19:49:40","新北市三重區三和路四段135巷1-1號","121.48495","25.0780233333333","6500200","三重區"
"241020","413-TH","2018/03/20 19:49:42","新北市三重區三和路四段20巷16-2號","121.490498333333","25.0734133333333","6500200","三重區"
"241035","462-BY","2018/03/20 19:49:24","新北市三重區大榮街53號","121.499245","25.0635316666667","6500200","三重區"
"241004","475-VK","2018/03/20 19:49:35","新北市三重區五華街74號","121.49342","25.0820033333333","6500200","三重區"
"241001","478-VK","2018/03/20 19:49:36","新北市三重區仁愛街327巷45-1號","121.493301666667","25.0801566666667","6500200","三重區"
"241030","480-VK","2018/03/20 19:49:35","新北市三重區環河南路254巷43號","121.489518333333","25.0514433333333","6500200","三重區"
"241014","543-UM","2018/03/20 19:49:38","新北市三重區三和路二段37-8號","121.501303333333","25.0675233333333","6500200","三重區"
"241023","545-UM","2018/03/20 19:49:38","新北市三重區大有街1-9號","121.477595","25.0660133333333","6500200","三重區"
"241019","KEA-2593","2018/03/20 19:49:28","新北市三重區自強路二段74巷25號","121.487743333333","25.0696683333333","6500200","三重區"
"241006","887-TS","2018/03/20 19:49:32","新北市三重區永福街277號","121.482366666667","25.07431","6500200","三重區"
"241012","941-UM","2018/03/20 19:49:37","新北市三重區仁興街56巷40號","121.498158333333","25.0755083333333","6500200","三重區"
"241029","942-UM","2018/03/20 19:49:32","新北市三重區光明路11號","121.491036666667","25.05876","6500200","三重區"
"241033","AAC-255","2018/03/20 19:49:37","新北市三重區中興南街64號","121.470606666667","25.0440566666667","6500200","三重區"
"235066","003-UY","2018/03/20 19:49:36","新北市中和區光華街77號","121.506815","25.0026916666667","6500300","中和區"
"235064","005-UY","2018/03/20 19:49:30","新北市中和區圓通路25號","121.501168333333","24.9978433333333","6500300","中和區"
"235063","006-UY","2018/03/20 19:49:28","新北市中和區連城路263巷7弄2號","121.492306666667","24.995745","6500300","中和區"
"235056","096-UM","2018/03/20 19:49:41","新北市中和區中山路三段118-1號","121.475211666667","25.0075","6500300","中和區"
"235039","097-UM","2018/03/20 19:49:39","新北市中和區大勇街25巷2號","121.517256666667","24.9933516666667","6500300","中和區"
"235065","098-UM","2018/03/20 19:49:30","新北市中和區莊敬路21號","121.500018333333","25.00464","6500300","中和區"
"235040","150-BY","2018/03/20 19:49:32","新北市中和區安和路39號","121.509675","24.9947783333333","6500300","中和區"
"235058","151-BY","2018/03/20 19:49:31","新北市中和區員山路146巷22號","121.482391666667","24.996805","6500300","中和區"
"235055","183-VK","2018/03/20 19:49:37","新北市中和區德光路15巷16號","121.471326666667","25.00357","6500300","中和區"
"235038","185-VK","2018/03/20 19:49:37","新北市永和區民生路46巷48號","121.521191666667","24.9962833333333","6500300","中和區"
"235049","186-VK","2018/03/20 19:49:34","新北市中和區中興街37號","121.500745","24.9944","6500300","中和區"
"235067","255-BX","2018/03/20 19:49:45","新北市中和區新生街186巷1弄18號","121.483375","24.9989716666667","6500300","中和區"
"235067","293-VK","2018/03/20 19:49:31","新北市中和區南山路313號","121.504951666667","24.99149","6500300","中和區"
"235043","352-BY","2018/03/20 19:49:34","新北市中和區興南路二段159巷1號","121.505323333333","24.9833316666667","6500300","中和區"
"235068","377-QA","2018/03/20 19:49:43","新北市中和區景平路509號","121.499536666667","24.998815","6500300","中和區"
"235061","378-QA","2018/03/20 19:49:38","新北市中和區新生街148巷21號","121.482493333333","25.0006433333333","6500300","中和區"
"235071","269-TV","2018/03/20 19:49:38","新北市中和區永和路335-2號","121.484903333333","25.0113283333333","6500300","中和區"
"235050","4979-A6","2018/03/20 19:49:32","新北市中和區景平路241巷84弄57號","121.50608","24.9923233333333","6500300","中和區"
"235042","551-UM","2018/03/20 19:49:29","新北市中和區保健路2巷24號","121.50718","24.9976066666667","6500300","中和區"
"235070","558-UM","2018/03/20 19:49:25","新北市中和區景平路505號","121.499673333333","24.9984866666667","6500300","中和區"
"235045","565-BX","2018/03/20 19:49:29","新北市中和區景平路183號","121.511781666667","24.9924733333333","6500300","中和區"
"235054","640-BX","2018/03/20 19:49:36","新北市中和區德光路30號","121.470653333333","25.0043083333333","6500300","中和區"
"235060","647-TV","2018/03/20 19:49:36","新北市中和區新生街30巷1號","121.483036666667","25.003855","6500300","中和區"
"235047","732-UM","2018/03/20 19:49:06","新北市中和區捷運路8-7號","121.509373333333","24.98968","6500300","中和區"
"235046","733-UM","2018/03/20 19:49:27","新北市中和區仁愛街41號","121.511055","24.988475","6500300","中和區"
"235057","801-TS","2018/03/20 19:49:43","新北市中和區員山路188號","121.481291666667","25.0003533333333","6500300","中和區"
"235041","802-TS","2018/03/20 19:49:23","新北市中和區永貞路227號","121.513448333333","25.0036966666667","6500300","中和區"
"235052","805-TS","2018/03/20 19:49:39","新北市中和區華新街30巷16號","121.506836666667","24.9846033333333","6500300","中和區"
"235048","896-TW","2018/03/20 19:49:33","新北市中和區興南路一段91-2號","121.509578333333","24.9886433333333","6500300","中和區"
"235053","900-TW","2018/03/20 19:49:36","新北市中和區民德路146巷14號","121.467841666667","25.0005266666667","6500300","中和區"
"235051","157-BY","2018/03/20 19:49:34","新北市中和區中興街132巷22號","121.498825","24.9917866666667","6500300","中和區"
"235037","AAC-213","2018/03/20 19:49:22","新北市中和區秀朗路三段173-2號","121.524418333333","24.991275","6500300","中和區"
"235059","AAC-215","2018/03/20 19:49:35","新北市中和區圓通路305巷29弄2號","121.495056666667","24.9891216666667","6500300","中和區"
"220086","073-UY","2018/03/20 19:49:23","新北市板橋區南雅西路二段16號","121.453026666667","25.009395","6500100","板橋區"
"220069","AAD-861","2018/03/20 19:49:27","新北市板橋區南雅南路二段1-1號","121.454743333333","25.0036233333333","6500100","板橋區"
"247014","546-UM","2018/03/20 19:49:37","新北市蘆洲區復興路30-3號","121.472505","25.0848466666667","6501400","蘆洲區"
"247006","336-TH","2018/03/20 19:49:37","新北市蘆洲區永安南路二段26號","121.467236666667","25.0769683333333","6501400","蘆洲區"
"247004","335-TH","2018/03/20 19:49:35","新北市蘆洲區中原路51號","121.459196666667","25.0822766666667","6501400","蘆洲區"
"247008","056-VK","2018/03/20 19:49:43","新北市蘆洲區信義路111號","121.478373333333","25.0801183333333","6501400","蘆洲區"
"247002","002-UY","2018/03/20 19:49:34","新北市蘆洲區永平街22號","121.459063333333","25.0906916666667","6501400","蘆洲區"
"228003","097-TW","2018/03/20 19:49:25","新北市貢寮區真理里美艷山街3-1號","121.925716666667","25.059605","6502600","貢寮區"
"228001","212-TW","2018/03/20 19:49:29","新北市貢寮區真理里新港街95號","121.926678333333","25.056745","6502600","貢寮區"
"224010","AGQ-8101","2018/03/20 19:49:25","新北市瑞芳區山尖路209號","121.849245","25.1116266666667","6501200","瑞芳區"
"224002","639-TC","2018/03/20 19:49:21","新北市瑞芳區員山子路員山巷16-1號","121.816926666667","25.10405","6501200","瑞芳區"
"227009","642-TC","2018/03/20 19:49:23","新北市雙溪區新基里自強路2號","121.866408333333","25.0388683333333","6502500","雙溪區"
"227003","400-TW","2018/03/20 19:49:35","新北市雙溪區雙溪里內挖路30號","121.863296666667","25.0365666666667","6502500","雙溪區"
"253005","032-BX","2018/03/20 19:49:28","新北市石門區中山路64-1號","121.567503333333","25.2904816666667","6502200","石門區"
"222001","KEA-2212","2018/03/20 19:49:42","新北市深坑區北深路三段112號","121.60672","25.0016733333333","6501800","深坑區"
"208002","KEA-2872","2018/03/20 19:49:36","新北市金山區三民街34號","121.634923333333","25.223605","6502700","金山區"
"208003","665-BX","2018/03/20 19:49:30","新北市金山區清泉里清水路49號","121.629593333333","25.2345566666667","6502700","金山區"
"208001","761-BX","2018/03/20 19:49:34","新北市金山區重和里茅埔頭15號","121.601963333333","25.213915","6502700","金山區"
"251004","009-UM","2018/03/20 19:49:42","新北市淡水區民權路177巷53號","121.460526666667","25.1338466666667","6501000","淡水區"
"251006","010-UM","2018/03/20 19:49:31","新北市淡水區水碓街15號","121.443486666667","25.17695","6501000","淡水區"
"251001","011-UM","2018/03/20 19:49:34","新北市淡水區中正東路二段37號","121.459281666667","25.156225","6501000","淡水區"
"251002","012-UM","2018/03/20 19:49:32","新北市淡水區新市二路三段16號","121.432188333333","25.1952916666667","6501000","淡水區"
"251013","179-VK","2018/03/20 19:49:27","新北市淡水區頂田寮1-3號","121.457723333333","25.2147033333333","6501000","淡水區"
"251014","180-VK","2018/03/20 19:49:33","新北市淡水區番社前1-4號","121.468791666667","25.2367616666667","6501000","淡水區"
"251008","181-VK","2018/03/20 19:46:23","新北市淡水區中正路一段62巷12號","121.426098333333","25.177295","6501000","淡水區"
"251015","182-VK","2018/03/20 19:49:41","新北市淡水區北投子20-3號","121.458633333333","25.186065","6501000","淡水區"
"251012","441-VK","2018/03/20 19:49:35","新北市淡水區中山北路三段164號","121.445886666667","25.196395","6501000","淡水區"
"251016","442-VK","2018/03/20 19:49:25","新北市淡水區下圭柔山121-12號","121.454953333333","25.2094216666667","6501000","淡水區"
"251005","443-VK","2018/03/20 19:49:32","新北市淡水區中正東路37號","121.44593","25.16804","6501000","淡水區"
"251009","575-R6","2018/03/20 19:49:39","新北市淡水區中正路32號","121.443855","25.1692333333333","6501000","淡水區"
"251007","577-R6","2018/03/20 19:49:36","新北市淡水區竿蓁一街113號","121.45539","25.1661983333333","6501000","淡水區"
"251011","650-BX","2018/03/20 19:49:29","新北市淡水區淡金路二段365號","121.447198333333","25.1855083333333","6501000","淡水區"
"207003","550-UM","2018/03/20 19:49:39","新北市萬里區磺潭里公館崙5號","121.641976666667","25.214335","6502800","萬里區"
"207004","225-TW","2018/03/20 19:49:33","新北市萬里區萬里里瑪鋉路221號","121.689646666667","25.1798716666667","6502800","萬里區"
"252002","178-VK","2018/03/20 19:49:32","新北市三芝區三民街20號","121.504528333333","25.258625","6502100","三芝區"
"252001","292-VK","2018/03/20 19:49:39","新北市三芝區公正街9號","121.499753333333","25.2574633333333","6502100","三芝區"
"237004","KEA-2597","2018/03/20 19:49:38","新北市三峽區添福261-1號","121.375388333333","24.8941466666667","6500900","三峽區"
"237007","153-BY","2018/03/20 19:49:33","新北市三峽區二鬮路46號","121.36184","24.9098066666667","6500900","三峽區"
"237009","210-TH","2018/03/20 19:49:38","新北市三峽區民族街78巷2弄2號","121.36874","24.92986","6500900","三峽區"
"237013","252-BX","2018/03/20 19:49:36","新北市三峽區溪北街2號","121.396045","24.9363516666667","6500900","三峽區"
"237012","275-BY","2018/03/20 19:49:30","新北市三峽區中華路26號","121.3739","24.9323616666667","6500900","三峽區"
"237008","302-VK","2018/03/20 19:49:35","新北市三峽區安溪路351號","121.369993333333","24.9260833333333","6500900","三峽區"
"237014","433-BY","2018/03/20 19:49:26","新北市三峽區添福9-37號","121.371905","24.9067183333333","6500900","三峽區"
"237006","5529-G3","2018/03/20 19:49:36","新北市三峽區中正路一段336巷15弄2號","121.369951666667","24.9249483333333","6500900","三峽區"
"237016","649-BX","2018/03/20 19:44:59","新北市三峽區成福路8號","121.416668333333","24.9279666666667","6500900","三峽區"
"237005","AKY-6261","2018/03/20 19:49:30","新北市三峽區長泰街48號","121.378068333333","24.9324283333333","6500900","三峽區"
"236070","105-UM","2018/03/20 19:49:31","新北市土城區中央路二段258號","121.441581666667","24.974735","6501300","土城區"
"236043","107-UM","2018/03/20 19:49:42","新北市土城區裕民路259巷4號","121.454858333333","24.9833233333333","6501300","土城區"
"236079","166-UM","2018/03/20 19:49:41","新北市土城區龍泉路347號","121.40947","24.95042","6501300","土城區"
"236031","253-BX","2018/03/20 19:49:46","新北市土城區中央路一段290號","121.44333","24.9824133333333","6501300","土城區"
"236026","269-VK","2018/03/20 19:49:42","新北市土城區中央路二段61巷28號","121.443431666667","24.9787516666667","6501300","土城區"
"236038","271-VK","2018/03/20 19:49:27","新北市土城區國際路158巷24弄2號","121.46849","24.975865","6501300","土城區"
"236023","401-BY","2018/03/20 19:49:38","新北市土城區金城路三段200-5號","121.468835","24.9875533333333","6501300","土城區"
"236059","912-UM","2018/03/20 19:49:40","新北市土城區中央路一段289-2號","121.444141666667","24.9840283333333","6501300","土城區"
"236049","913-UM","2018/03/20 19:49:39","新北市土城區青雲路145號","121.458738333333","24.984205","6501300","土城區"
"236063","915-UM","2018/03/20 19:49:37","新北市土城區延和路146巷8號","121.468023333333","24.98972","6501300","土城區"
"236055","AAC-216","2018/03/20 19:49:25","新北市土城區延和路63號","121.466823333333","24.9897933333333","6501300","土城區"
"242034","AAC-296","2018/03/20 19:49:34","新北市新莊區公園一路110號","121.444321666667","25.0374366666667","6500500","新莊區"
"242058","986-R7","2018/03/20 19:49:26","新北市新莊區民安路425號","121.433658333333","25.0226883333333","6500500","新莊區"
"242029","705-TV","2018/03/20 19:49:45","新北市新莊區幸福路842號","121.444553333333","25.049","6500500","新莊區"
"242025","613-BX","2018/03/20 19:49:25","新北市新莊區五權一路12巷21弄15號","121.458006666667","25.06491","6500500","新莊區"
"242046","497-BY","2018/03/20 19:49:34","新北市樹林區俊興街232號","121.417886666667","25.0154933333333","6500500","新莊區"
"242056","440-UM","2018/03/20 19:49:39","新北市新莊區新泰路97號","121.449051666667","25.0348183333333","6500500","新莊區"
"242037","415-TV","2018/03/20 19:49:30","新北市新莊區民安路207巷30弄2號","121.427705","25.0237516666667","6500500","新莊區"
"242023","362-BY","2018/03/20 19:49:31","新北市新莊區化成路160號","121.465543333333","25.0452866666667","6500500","新莊區"
"242039","133-UY","2018/03/20 19:49:43","新北市新莊區民安路299巷20號","121.429341666667","25.0230016666667","6500500","新莊區"
"242032","135-UY","2018/03/20 19:49:39","新北市新莊區忠孝街36號","121.443963333333","25.0356733333333","6500500","新莊區"
"242048","172-VK","2018/03/20 19:49:30","新北市新莊區建安街76巷1弄15號","121.42593","25.0242433333333","6500500","新莊區"
"242005","176-VK","2018/03/20 19:49:31","新北市新莊區化成路63巷24弄1號","121.463045","25.04592","6500500","新莊區"
"242021","348-TH","2018/03/20 19:49:43","新北市新莊區建中街37號","121.448561666667","25.0372016666667","6500500","新莊區"
"242013","351-TH","2018/03/20 19:49:30","新北市新莊區中誠街93號","121.45005","25.0476083333333","6500500","新莊區"
"238015","755-BX","2018/03/20 19:49:41","新北市樹林區樹德街18號","121.422715","24.9915116666667","6500700","樹林區"
"238023","601-UM","2018/03/20 19:49:33","新北市樹林區三福街85巷8號","121.407206666667","25.015495","6500700","樹林區"
"238022","KEA-2213","2018/03/20 19:49:33","新北市樹林區味王街13號","121.404643333333","24.9744066666667","6500700","樹林區"
"238021","KEA-2539","2018/03/20 19:49:29","新北市樹林區佳園路三段113巷23號","121.387798333333","24.9501733333333","6500700","樹林區"
"238017","283-BY","2018/03/20 19:49:40","新北市樹林區保安街二段45巷21弄11號","121.415041666667","24.999665","6500700","樹林區"
"238014","282-BY","2018/03/20 19:49:28","新北市樹林區千歲街46巷11號","121.426726666667","24.9966616666667","6500700","樹林區"
"238020","268-VK","2018/03/20 19:49:30","新北市樹林區環河路600號","121.40433","24.96933","6500700","樹林區"
"239006","891-R6","2018/03/20 19:49:38","新北市鶯歌區文化路124號","121.351803333333","24.9519283333333","6500800","鶯歌區"
"221008","489-VK","2018/03/20 19:49:32","新北市汐止區康寧街39號","121.618541666667","25.06684","6501100","汐止區"
"221036","130-UY","2018/03/20 19:49:34","新北市汐止區汐萬路一段37號","121.655361666667","25.0685716666667","6501100","汐止區"
"221010","269-BY","2018/03/20 19:49:41","新北市汐止區八連路一段46巷57號","121.646405","25.08223","6501100","汐止區"
"221012","278-VK","2018/03/20 19:49:30","新北市汐止區大同路三段380號","121.681343333333","25.0715166666667","6501100","汐止區"
"221023","279-VK","2018/03/20 19:49:28","新北市汐止區民族六街3巷1號","121.629436666667","25.0703616666667","6501100","汐止區"
"221032","280-BY","2018/03/20 19:49:43","新北市汐止區橫科路385巷6弄6號","121.624188333333","25.0479433333333","6501100","汐止區"
"221027","281-BY","2018/03/20 19:49:37","新北市汐止區中正路7號","121.663078333333","25.0700716666667","6501100","汐止區"
"221029","298-VK","2018/03/20 19:49:27","新北市汐止區康寧街901號","121.651495","25.0749733333333","6501100","汐止區"
"221021","299-VK","2018/03/20 19:49:38","新北市汐止區新興路83-2號","121.657715","25.0618766666667","6501100","汐止區"
"221031","353-TW","2018/03/20 19:49:36","新北市汐止區福德二路22號","121.634715","25.0681316666667","6501100","汐止區"
"221035","622-UM","2018/03/20 19:49:36","新北市汐止區長江街13巷6弄1號","121.654695","25.0716633333333","6501100","汐止區"
"221025","623-UM","2018/03/20 19:49:41","新北市汐止區新台五路二段70巷25號","121.661833333333","25.0648216666667","6501100","汐止區"
"221038","646-BX","2018/03/20 19:49:39","新北市汐止區忠孝東路428號","121.666016666667","25.0719866666667","6501100","汐止區"
"221033","647-BX","2018/03/20 19:49:30","新北市汐止區東勢街76巷100-1號","121.636386666667","25.039","6501100","汐止區"
"221018","753-BX","2018/03/20 19:49:37","新北市汐止區汐萬路一段10號","121.656111666667","25.06735","6501100","汐止區"
"220079","145-BY","2018/03/20 19:49:40","新北市板橋區中正路135巷12弄6號","121.455776666667","25.0158483333333","6500100","板橋區"
"220080","200-UY","2018/03/20 19:49:44","新北市板橋區大觀路二段37巷61號","121.449538333333","25.00261","6500100","板橋區"
"220106","KEA-2550","2018/03/20 19:49:38","新北市板橋區民治街57巷32-1號","121.480158333333","25.0343216666667","6500100","板橋區"
"220082","610-BX","2018/03/20 19:49:29","新北市板橋區溪北路102號","121.428548333333","24.9892866666667","6500100","板橋區"
"220101","245-BX","2018/03/20 19:49:41","新北市板橋區莊敬路254號","121.473976666667","25.0215683333333","6500100","板橋區"
"220055","256-TC","2018/03/20 19:49:44","新北市板橋區國慶路149巷4弄20-2號","121.462065","24.9970716666667","6500100","板橋區"
"220068","257-TC","2018/03/20 19:49:25","新北市板橋區中山路二段412巷5號","121.483238333333","25.0207216666667","6500100","板橋區"
"220091","267-BY","2018/03/20 19:49:26","新北市板橋區懷德街139巷19號","121.479798333333","25.0310533333333","6500100","板橋區"
"220056","276-BY","2018/03/20 19:49:29","新北市板橋區四川路二段99巷4弄2號","121.452848333333","24.994225","6500100","板橋區"
"220072","277-BY","2018/03/20 19:49:37","新北市板橋區金門街215巷35號","121.433206666667","24.9897133333333","6500100","板橋區"
"220094","280-UM","2018/03/20 19:49:36","新北市板橋區長江路一段124號","121.460203333333","25.029885","6500100","板橋區"
"220064","282-UM","2018/03/20 19:49:32","新北市板橋區實踐路137號","121.46429","25.0046033333333","6500100","板橋區"
"220071","283-VK","2018/03/20 19:49:42","新北市板橋區五權街32巷15號","121.46435","24.9928716666667","6500100","板橋區"
"220053","285-VK","2018/03/20 19:49:34","新北市板橋區中山路二段60巷9號","121.474301666667","25.0153066666667","6500100","板橋區"
"220083","286-VK","2018/03/20 19:49:42","新北市板橋區僑中二街8巷21號","121.446081666667","25.0112933333333","6500100","板橋區"
"220081","287-VK","2018/03/20 19:49:26","新北市板橋區大觀路一段28巷75號","121.450045","25.0110966666667","6500100","板橋區"
"220090","288-VK","2018/03/20 19:49:22","新北市板橋區新海路431巷20號","121.457735","25.026875","6500100","板橋區"
"220061","293-UM","2018/03/20 19:49:44","新北市板橋區中山路一段283巷2弄16號","121.470518333333","25.0148216666667","6500100","板橋區"
"220084","296-UM","2018/03/20 19:49:42","新北市板橋區溪崑二街92號","121.426821666667","24.9892233333333","6500100","板橋區"
"242011","281-VK","2018/03/20 19:49:37","新北市新莊區中信街74號","121.448105","25.0523816666667","6500500","新莊區"
"220075","303-R5","2018/03/20 19:49:39","新北市板橋區金華街10巷7號","121.456048333333","25.0200833333333","6500100","板橋區"
"220062","305-R5","2018/03/20 19:49:32","新北市板橋區中山路二段416巷54弄9號","121.482401666667","25.019285","6500100","板橋區"
"220092","307-R5","2018/03/20 19:49:44","新北市板橋區四維路259巷21號","121.462288333333","25.027585","6500100","板橋區"
"220098","317-R6","2018/03/20 19:49:31","新北市板橋區裕民街132號","121.458658333333","25.0273116666667","6500100","板橋區"
"220089","487-VK","2018/03/20 19:49:34","新北市板橋區綠堤街45號","121.455298333333","25.0259316666667","6500100","板橋區"
"220035","560-BX","2018/03/20 19:49:40","新北市板橋區新生街23巷4號","121.456138333333","25.0214666666667","6500100","板橋區"
"220103","561-BX","2018/03/20 19:49:43","新北市板橋區陽明街29巷4號","121.465096666667","25.021785","6500100","板橋區"
"220065","568-UM","2018/03/20 19:49:43","新北市板橋區民族路229號","121.469685","25.0071516666667","6500100","板橋區"
"220063","609-BX","2018/03/20 19:49:40","新北市板橋區三民路一段43號","121.47956","25.0225916666667","6500100","板橋區"
"220057","686-BX","2018/03/20 19:49:37","新北市板橋區廣權路16號","121.461303333333","24.99158","6500100","板橋區"
"220077","687-BX","2018/03/20 19:49:46","新北市板橋區僑中一街124巷9弄1號","121.445946666667","25.0126333333333","6500100","板橋區"
"220093","689-BX","2018/03/20 19:49:11","新北市板橋區長江路二段223號","121.468193333333","25.0325433333333","6500100","板橋區"
"220054","741-BX","2018/03/20 19:49:33","新北市板橋區忠孝路忠義巷16弄1號","121.465925","25.0037066666667","6500100","板橋區"
"220102","KEA-2699","2018/03/20 19:49:34","新北市板橋區松柏街35號","121.475265","25.03032","6500100","板橋區"
"220067","829-TW","2018/03/20 19:49:30","新北市板橋區長安街138巷1弄85號","121.474906666667","25.0113816666667","6500100","板橋區"
"220096","831-TW","2018/03/20 19:49:37","新北市板橋區莒光路40巷20號","121.47019","25.02341","6500100","板橋區"
"220088","833-TW","2018/03/20 19:49:31","新北市板橋區仁化街150號","121.477715","25.0331883333333","6500100","板橋區"
"220074","895-R6","2018/03/20 19:49:39","新北市板橋區文化路一段46巷23號","121.46035","25.0114633333333","6500100","板橋區"
"220073","985-R7","2018/03/20 19:49:33","新北市板橋區大仁街105號","121.452775","25.0157616666667","6500100","板橋區"
"220097","AAC-210","2018/03/20 19:49:41","新北市板橋區文化路一段285巷1弄3號","121.464495","25.01877","6500100","板橋區"
"220070","AAC-253","2018/03/20 19:49:41","新北市板橋區成都街89號","121.462973333333","25.0052083333333","6500100","板橋區"
