"lineid","car","time","location","longitude","latitude","cityid","cityname"
"234046","148-BY","2018/03/20 20:09:25","新北市永和區得和路321號","121.52336","24.9995766666667","6500400","永和區"
"234007","207-UY","2018/03/20 20:09:26","新北市永和區保生路58號","121.505408333333","25.0087483333333","6500400","永和區"
"234081","298-R6","2018/03/20 20:09:30","新北市永和區國中路109巷3弄2號","121.5238","25.0054816666667","6500400","永和區"
"234038","336-UY","2018/03/20 20:09:40","新北市永和區成功路一段47巷8號","121.527511666667","25.0040666666667","6500400","永和區"
"234064","337-UY","2018/03/20 20:09:42","新北市永和區永元路60號","121.522373333333","25.0013216666667","6500400","永和區"
"234086","338-UY","2018/03/20 20:09:42","新北市永和區中正路575-1號","121.516783333333","25.0085833333333","6500400","永和區"
"234070","552-UM","2018/03/20 20:09:41","新北市永和區福和路183巷1號","121.519946666667","25.0074116666667","6500400","永和區"
"234067","553-UM","2018/03/20 20:09:36","新北市永和區保平路236巷12弄7號","121.50869","25.0065966666667","6500400","永和區"
"234017","745-BX","2018/03/20 20:09:40","新北市永和區文化路72號","121.514238333333","25.0151466666667","6500400","永和區"
"234030","746-BX","2018/03/20 20:09:27","新北市永和區民權路49巷39號","121.522058333333","24.99766","6500400","永和區"
"234054","KEA-2590","2018/03/20 20:09:43","新北市永和區博愛街20巷2號","121.517758333333","25.0158266666667","6500400","永和區"
"234013","KEA-2591","2018/03/20 20:09:36","新北市永和區永貞路375號","121.50841","25.0082466666667","6500400","永和區"
"234061","AAD-866","2018/03/20 20:09:30","新北市永和區中正路151巷5弄2-1號","121.515681666667","24.9987383333333","6500400","永和區"
"234042","862-TW","2018/03/20 20:08:19","新北市永和區雙和街64巷1號","121.509173333333","25.0034266666667","6500400","永和區"
"234050","863-TW","2018/03/20 20:09:41","新北市永和區環河西路二段91號","121.506591666667","25.0149116666667","6500400","永和區"
"234026","9371-KE","2018/03/20 20:09:33","新北市永和區保生路55-1號","121.504535","25.0108983333333","6500400","永和區"
"234011","9373-KE","2018/03/20 20:09:27","新北市永和區環河西路二段245-1號","121.500493333333","25.0089933333333","6500400","永和區"
"249005","172-UM","2018/03/20 20:09:26","新北市八里區下罟子58-8號","121.38766","25.1378866666667","6502300","八里區"
"249001","173-UM","2018/03/20 20:09:23","新北市八里區中華路二段322號","121.40331","25.1479833333333","6502300","八里區"
"249004","303-UY","2018/03/20 20:04:19","新北市八里區中山路一段217巷76號","121.412135","25.15766","6502300","八里區"
"249002","305-UY","2018/03/20 20:09:41","新北市八里區龍米路一段3-6號","121.45718","25.1174583333333","6502300","八里區"
"249003","593-UM","2018/03/20 20:09:32","新北市八里區中山路二段540巷9弄56號","121.396271666667","25.1462566666667","6502300","八里區"
"248016","026-BX","2018/03/20 20:09:35","新北市五股區凌雲路一段158巷50弄2號","121.447136666667","25.1044816666667","6501500","五股區"
"248008","095-VK","2018/03/20 20:09:40","新北市五股區中興路一段1巷11號","121.469458333333","25.0714533333333","6501500","五股區"
"248012","247-BX","2018/03/20 20:09:26","新北市五股區六合街118號","121.430263333333","25.090795","6501500","五股區"
"248014","261-SL","2018/03/20 20:09:44","新北市五股區成泰路二段153號","121.43902","25.0857733333333","6501500","五股區"
"248004","677-BX","2018/03/20 20:09:31","新北市五股區成泰路一段110-7號","121.435613333333","25.07237","6501500","五股區"
"248002","678-BX","2018/03/20 20:09:32","新北市五股區成泰路三段277號","121.447118333333","25.0941383333333","6501500","五股區"
"248010","682-TV","2018/03/20 20:09:43","新北市五股區成泰路一段7巷44號","121.432425","25.0673116666667","6501500","五股區"
"234023","9380-KE","2018/03/20 20:09:26","新北市永和區中正路654巷36號","121.517903333333","25.0084883333333","6500400","永和區"
"234077","969-R7","2018/03/20 20:09:30","新北市永和區民享街23巷5弄8號","121.516108333333","24.9957","6500400","永和區"
"234074","AAC-211","2018/03/20 20:09:40","新北市永和區豫溪街151號","121.521103333333","25.0103816666667","6500400","永和區"
"234003","AAC-295","2018/03/20 20:09:33","新北市永和區中正路620號","121.516943333333","25.0078783333333","6500400","永和區"
"243012","AAD-798","2018/03/20 20:09:32","新北市泰山區楓江路46巷12號","121.435385","25.0619516666667","6501600","泰山區"
"243011","297-R6","2018/03/20 20:09:30","新北市泰山區明志路三段182巷16號","121.423611666667","25.03923","6501600","泰山區"
"243015","380-SR","2018/03/20 20:09:43","新北市泰山區明志路一段460號","121.430646666667","25.0555216666667","6501600","泰山區"
"243014","421-VK","2018/03/20 20:09:33","新北市泰山區明志路一段24號","121.433626666667","25.0654866666667","6501600","泰山區"
"243010","KEA-2215","2018/03/20 20:09:26","新北市泰山區明志路二段136巷18弄1-1號","121.426603333333","25.0516183333333","6501600","泰山區"
"243009","KEA-2216","2018/03/20 20:09:32","新北市泰山區泰林路二段116巷1弄1號","121.434805","25.0593866666667","6501600","泰山區"
"243013","646-TV","2018/03/20 20:09:31","新北市泰山區民國街8號","121.42531","25.0435166666667","6501600","泰山區"
"243016","680-BX","2018/03/20 20:09:40","新北市泰山區貴陽街4-1號","121.421713333333","25.0332133333333","6501600","泰山區"
"222003","436-BY","2018/03/20 20:09:40","新北市深坑區埔新街60號","121.620206666667","25.0024266666667","6501800","深坑區"
"222002","659-BX","2018/03/20 20:09:35","新北市深坑區北深路三段137號","121.603808333333","25.00269","6501800","深坑區"
"231041","002-UM","2018/03/20 20:09:29","新北市新店區中正路460號","121.533983333333","24.9793733333333","6500600","新店區"
"231059","046-UY","2018/03/20 20:09:36","新北市新店區安德街62號","121.51065","24.9620666666667","6500600","新店區"
"231061","047-UY","2018/03/20 20:09:41","新北市新店區安興路32號","121.515736666667","24.9703883333333","6500600","新店區"
"231060","106-UY","2018/03/20 20:09:27","新北市新店區安康路三段456號","121.484295","24.9512233333333","6500600","新店區"
"231051","107-UY","2018/03/20 20:09:41","新北市新店區中央路196號","121.53072","24.9745216666667","6500600","新店區"
"231048","108-UY","2018/03/20 20:09:31","新北市新店區寶橋路80號","121.546318333333","24.975515","6500600","新店區"
"231053","187-VK","2018/03/20 20:09:43","新北市新店區新烏路三段寶島巷2弄3號","121.551993333333","24.898635","6500600","新店區"
"231057","188-VK","2018/03/20 20:09:44","新北市新店區花園一路一段2號","121.553135","24.932445","6500600","新店區"
"231050","KEA-2219","2018/03/20 20:09:36","新北市新店區北新路一段90號","121.541933333333","24.9685833333333","6500600","新店區"
"221015","KEA-2785","2018/03/20 20:09:40","新北市汐止區建成路13號","121.664581666667","25.0725766666667","6501100","汐止區"
"231054","AAD-862","2018/03/20 20:09:46","新北市新店區檳榔路13-1號","121.541226666667","24.9644433333333","6500600","新店區"
"231056","3713-VJ","2018/03/20 20:09:40","新北市新店區北新路二段59巷1號","121.54231","24.97294","6500600","新店區"
"231055","4716-K9","2018/03/20 20:09:35","新北市新店區中華路54巷26號","121.540706666667","24.9691983333333","6500600","新店區"
"231067","4772-VM","2018/03/20 20:09:39","新北市新店區溪洲路65號","121.53329","24.96098","6500600","新店區"
"231065","512-UM","2018/03/20 20:09:38","新北市新店區安祥路106巷66號","121.475305","24.96057","6500600","新店區"
"231049","513-UM","2018/03/20 20:09:45","新北市新店區北新路二段97巷9弄31號","121.542193333333","24.973565","6500600","新店區"
"231064","515-UM","2018/03/20 20:09:27","新北市新店區安康路二段118-9號","121.512886666667","24.96352","6500600","新店區"
"231045","617-UM","2018/03/20 20:09:26","新北市新店區北宜路一段152-2號","121.540248333333","24.953775","6500600","新店區"
"231040","619-UM","2018/03/20 20:09:34","新北市新店區中正路106號","121.543166666667","24.9705933333333","6500600","新店區"
"231042","641-BX","2018/03/20 20:09:31","新北市新店區中興路二段233號","121.547726666667","24.975075","6500600","新店區"
"231063","645-TV","2018/03/20 20:09:41","新北市新店區黎明路11號","121.502068333333","24.94978","6500600","新店區"
"231068","718-UY","2018/03/20 20:09:36","新北市新店區寶中路45號","121.545293333333","24.9790216666667","6500600","新店區"
"231062","720-UM","2018/03/20 20:09:24","新北市新店區安康路二段356號","121.50219","24.9574483333333","6500600","新店區"
"231044","897-TW","2018/03/20 20:09:39","新北市新店區寶慶街58巷6號","121.542105","24.987035","6500600","新店區"
"231043","899-TW","2018/03/20 20:09:42","新北市新店區民族路188號","121.536796666667","24.97611","6500600","新店區"
"231066","AKT-0513","2018/03/20 20:09:34","新北市新店區安興路110號","121.51471","24.9769683333333","6500600","新店區"
"241011","013-R5","2018/03/20 20:09:27","新北市三重區仁愛街57號","121.496445","25.0720483333333","6500200","三重區"
"241028","022-UY","2018/03/20 20:09:28","新北市三重區仁化街137號","121.494676666667","25.0574183333333","6500200","三重區"
"241008","059-VK","2018/03/20 20:09:40","新北市三重區永福街197巷37弄5號","121.478138333333","25.074185","6500200","三重區"
"241009","060-VK","2018/03/20 20:09:30","新北市三重區三和路四段382巷94弄1號","121.479415","25.0780683333333","6500200","三重區"
"241031","061-VK","2018/03/20 20:09:23","新北市三重區過圳街9-1號","121.488788333333","25.0601666666667","6500200","三重區"
"241015","062-VK","2018/03/20 20:09:30","新北市三重區福德北路43號","121.502321666667","25.06489","6500200","三重區"
"241017","063-VK","2018/03/20 20:09:33","新北市三重區長壽西街189號","121.492253333333","25.066335","6500200","三重區"
"241024","065-VK","2018/03/20 20:09:42","新北市三重區中正北路284號","121.480468333333","25.0685633333333","6500200","三重區"
"241026","066-VK","2018/03/20 20:09:38","新北市三重區福德南路65巷2號","121.50243","25.060395","6500200","三重區"
"241002","090-VK","2018/03/20 20:09:32","新北市三重區仁忠街31號","121.495881666667","25.0819983333333","6500200","三重區"
"241003","091-VK","2018/03/20 20:09:42","新北市三重區富華街18號","121.489595","25.082435","6500200","三重區"
"241016","265-UM","2018/03/20 20:09:38","新北市三重區中正北路25巷2號","121.493303333333","25.0627033333333","6500200","三重區"
"241022","267-UM","2018/03/20 20:09:33","新北市三重區新北大道一段58號","121.48733","25.06148","6500200","三重區"
"241018","268-UM","2018/03/20 20:09:34","新北市三重區正義北路256巷128號","121.493185","25.06776","6500200","三重區"
"241032","269-UM","2018/03/20 20:09:26","新北市三重區捷運路61號","121.483501666667","25.0555566666667","6500200","三重區"
"241013","270-UM","2018/03/20 20:09:29","新北市三重區三和路三段139巷40號","121.494143333333","25.0741766666667","6500200","三重區"
"241025","271-UM","2018/03/20 20:09:44","新北市三重區中正北路253號","121.475355","25.0707166666667","6500200","三重區"
"241007","398-BY","2018/03/20 20:09:40","新北市三重區三和路四段111-33號","121.486298333333","25.0774066666667","6500200","三重區"
"241020","413-TH","2018/03/20 20:09:42","新北市三重區三和路三段109-4號","121.493321666667","25.072895","6500200","三重區"
"241035","462-BY","2018/03/20 20:09:44","新北市三重區文化北路31號","121.49948","25.06398","6500200","三重區"
"241004","475-VK","2018/03/20 20:09:35","新北市三重區自強路四段80號","121.490558333333","25.0788533333333","6500200","三重區"
"241001","478-VK","2018/03/20 20:09:37","新北市三重區溪尾街24號","121.49063","25.0762433333333","6500200","三重區"
"241030","480-VK","2018/03/20 20:09:35","新北市三重區成功路145巷35號","121.48775","25.0531866666667","6500200","三重區"
"241014","543-UM","2018/03/20 20:09:38","新北市三重區長樂街110號","121.501523333333","25.0695283333333","6500200","三重區"
"241023","545-UM","2018/03/20 20:09:38","新北市三重區頂崁街229號","121.476991666667","25.068285","6500200","三重區"
"241019","KEA-2593","2018/03/20 20:09:28","新北市三重區自強路二段33巷5號","121.489903333333","25.069575","6500200","三重區"
"241006","887-TS","2018/03/20 20:09:33","新北市三重區力行路二段156號","121.482721666667","25.0762166666667","6500200","三重區"
"241012","941-UM","2018/03/20 20:09:37","新北市三重區仁福街64巷35號","121.497745","25.0758383333333","6500200","三重區"
"241029","942-UM","2018/03/20 20:09:33","新北市三重區光明路32巷28號","121.491983333333","25.058735","6500200","三重區"
"241033","AAC-255","2018/03/20 20:09:37","新北市三重區光復路一段61巷12號","121.472688333333","25.049245","6500200","三重區"
"235066","003-UY","2018/03/20 20:09:36","新北市中和區水源路136巷3號","121.507905","25.0030966666667","6500300","中和區"
"235039","097-UM","2018/03/20 20:09:28","新北市中和區大勇街25巷39弄1號","121.514863333333","24.9943066666667","6500300","中和區"
"235065","098-UM","2018/03/20 20:09:30","新北市中和區永和路90巷2弄1號","121.497418333333","25.0057666666667","6500300","中和區"
"235040","150-BY","2018/03/20 20:09:32","新北市中和區保健路42-1號","121.509276666667","24.9972716666667","6500300","中和區"
"235068","377-QA","2018/03/20 20:09:43","新北市中和區景平路736巷3弄12號","121.497688333333","25.0037233333333","6500300","中和區"
"235050","4979-A6","2018/03/20 20:09:32","新北市中和區安樂路58號","121.512053333333","24.9932766666667","6500300","中和區"
"235069","4980-A6","2018/03/20 20:09:31","新北市中和區景新街132巷8-4號","121.504608333333","24.9980983333333","6500300","中和區"
"235070","558-UM","2018/03/20 20:09:25","新北市中和區中正路588號","121.485928333333","24.9949966666667","6500300","中和區"
"235046","733-UM","2018/03/20 20:09:27","新北市中和區忠孝街31巷2號","121.510388333333","24.9833883333333","6500300","中和區"
"235051","157-BY","2018/03/20 20:09:34","新北市中和區復興路251號","121.503398333333","24.9902266666667","6500300","中和區"
"235037","AAC-213","2018/03/20 20:09:42","新北市中和區立人街63號","121.520075","24.9941816666667","6500300","中和區"
"235059","AAC-215","2018/03/20 20:09:35","新北市中和區圓通路335巷33弄13號","121.49331","24.988865","6500300","中和區"
"220069","AAD-861","2018/03/20 20:09:36","新北市板橋區貴興路69號","121.457085","25.0029666666667","6500100","板橋區"
"247024","893-R6","2018/03/20 20:09:39","新北市蘆洲區光榮路120巷9號","121.46537","25.0886433333333","6501400","蘆洲區"
"247014","546-UM","2018/03/20 20:09:37","新北市蘆洲區中山二路253號","121.470026666667","25.0799116666667","6501400","蘆洲區"
"247022","500-BY","2018/03/20 20:09:29","新北市蘆洲區三民路173號","121.471111666667","25.0872966666667","6501400","蘆洲區"
"247010","341-TH","2018/03/20 20:09:29","新北市蘆洲區信義路128號","121.479768333333","25.082595","6501400","蘆洲區"
"247012","339-TH","2018/03/20 20:09:41","新北市蘆洲區民族路266號","121.478865","25.088855","6501400","蘆洲區"
"247006","336-TH","2018/03/20 20:09:37","新北市蘆洲區永安南路二段18號","121.467691666667","25.0771216666667","6501400","蘆洲區"
"247004","335-TH","2018/03/20 20:09:35","新北市蘆洲區永安南路二段328巷15弄3號","121.456588333333","25.0837166666667","6501400","蘆洲區"
"247018","057-VK","2018/03/20 20:09:43","新北市蘆洲區民族路314巷11-2號","121.477998333333","25.0905516666667","6501400","蘆洲區"
"247008","056-VK","2018/03/20 20:09:43","新北市蘆洲區中山一路135巷6弄32號","121.474711666667","25.0808983333333","6501400","蘆洲區"
"247016","007-UY","2018/03/20 20:09:39","新北市蘆洲區光華路133號","121.46635","25.0823183333333","6501400","蘆洲區"
"247002","002-UY","2018/03/20 20:09:34","新北市蘆洲區永康街2巷6號","121.459285","25.0861433333333","6501400","蘆洲區"
"247020","001-UY","2018/03/20 20:09:42","新北市蘆洲區民義街68巷5號","121.473658333333","25.0895216666667","6501400","蘆洲區"
"222001","KEA-2212","2018/03/20 20:09:22","新北市深坑區北深路三段210號","121.601211666667","25.00377","6501800","深坑區"
"208002","KEA-2872","2018/03/20 20:09:36","新北市金山區環金路398號","121.631318333333","25.2229066666667","6502700","金山區"
"208003","665-BX","2018/03/20 20:09:30","新北市金山區永興里忠義路3號","121.632813333333","25.2592583333333","6502700","金山區"
"251004","009-UM","2018/03/20 20:05:02","新北市淡水區民族路31-19號","121.461741666667","25.1365","6501000","淡水區"
"251006","010-UM","2018/03/20 20:09:31","新北市淡水區北新路141巷60弄11號","121.448163333333","25.179665","6501000","淡水區"
"251002","012-UM","2018/03/20 20:09:32","新北市淡水區中正路276號","121.438151666667","25.1715866666667","6501000","淡水區"
"251013","179-VK","2018/03/20 20:09:31","新北市淡水區奎柔山路752巷1號","121.47295","25.205265","6501000","淡水區"
"251014","180-VK","2018/03/20 20:09:32","新北市淡水區石頭厝3號","121.45869","25.2355616666667","6501000","淡水區"
"251008","181-VK","2018/03/20 20:09:43","新北市淡水區淡海路72巷30弄7號","121.424673333333","25.1827016666667","6501000","淡水區"
"251015","182-VK","2018/03/20 20:09:41","新北市淡水區淡金路三段329號","121.449018333333","25.2061733333333","6501000","淡水區"
"251012","441-VK","2018/03/20 20:09:37","新北市淡水區淡金路三段266號","121.448923333333","25.206585","6501000","淡水區"
"251016","442-VK","2018/03/20 20:09:34","新北市淡水區番子田20-4號","121.457738333333","25.228265","6501000","淡水區"
"251009","575-R6","2018/03/20 20:09:39","新北市淡水區中山路46號","121.444181666667","25.1701133333333","6501000","淡水區"
"251010","672-BX","2018/03/20 20:09:30","新北市淡水區後洲路一段157號","121.427506666667","25.1982533333333","6501000","淡水區"
"251003","673-BX","2018/03/20 20:09:32","新北市淡水區新市一路二段255號","121.44378","25.1834116666667","6501000","淡水區"
"207003","550-UM","2018/03/20 20:09:39","新北市萬里區大鵬里萬里加投180號","121.643011666667","25.2158283333333","6502800","萬里區"
"207004","225-TW","2018/03/20 20:09:33","新北市萬里區北基里愛三街11號","121.681825","25.1766366666667","6502800","萬里區"
"252002","178-VK","2018/03/20 20:09:32","新北市三芝區三民街5號","121.504068333333","25.2579766666667","6502100","三芝區"
"252001","292-VK","2018/03/20 20:09:38","新北市三芝區公正街66號","121.499765","25.2574533333333","6502100","三芝區"
"237012","275-BY","2018/03/20 20:09:30","新北市三峽區安溪路313號","121.371045","24.9306416666667","6500900","三峽區"
"237006","5529-G3","2018/03/20 20:09:36","新北市三峽區中正路二段299巷3號","121.366413333333","24.9109183333333","6500900","三峽區"
"237016","649-BX","2018/03/20 20:09:39","新北市三峽區介壽路二段138巷1弄166-2號","121.403271666667","24.927625","6500900","三峽區"
"237005","AKY-6261","2018/03/20 20:09:30","新北市三峽區三樹路98巷74弄91號","121.38506","24.9384466666667","6500900","三峽區"
"236070","105-UM","2018/03/20 20:09:31","新北市土城區中央路三段185-6號","121.431656666667","24.9648266666667","6501300","土城區"
"236043","107-UM","2018/03/20 20:09:42","新北市土城區學成路10號","121.45341","24.9866283333333","6501300","土城區"
"236079","166-UM","2018/03/20 20:09:41","新北市土城區民族街20號","121.419003333333","24.9630033333333","6501300","土城區"
"236031","253-BX","2018/03/20 20:09:25","新北市土城區中央路一段116號","121.446448333333","24.9881366666667","6501300","土城區"
"236026","269-VK","2018/03/20 20:09:42","新北市土城區中央路一段267巷4號","121.445253333333","24.9851583333333","6501300","土城區"
"236015","270-VK","2018/03/20 20:09:25","新北市土城區廣明街4號","121.45603","24.991785","6501300","土城區"
"236038","271-VK","2018/03/20 20:09:41","新北市土城區明德路一段48巷12號","121.464683333333","24.983755","6501300","土城區"
"236023","401-BY","2018/03/20 20:09:38","新北市土城區延吉街54號","121.471615","24.9869183333333","6501300","土城區"
"236059","912-UM","2018/03/20 20:09:40","新北市土城區中央路二段125號","121.442035","24.9772783333333","6501300","土城區"
"236049","913-UM","2018/03/20 20:09:38","新北市土城區清水路306號","121.462675","24.983985","6501300","土城區"
"236055","AAC-216","2018/03/20 20:09:25","新北市土城區中華路一段197號","121.44306","24.9853383333333","6501300","土城區"
"242034","AAC-296","2018/03/20 20:09:34","新北市新莊區華興街6號","121.4461","25.0351833333333","6500500","新莊區"
"242058","986-R7","2018/03/20 20:09:26","新北市新莊區八德街169號","121.423371666667","25.019035","6500500","新莊區"
"242054","751-BX","2018/03/20 20:09:33","新北市新莊區西盛街387巷34弄5號","121.428473333333","25.0129116666667","6500500","新莊區"
"242029","705-TV","2018/03/20 20:09:45","新北市新莊區中原路319-2號","121.446685","25.0543833333333","6500500","新莊區"
"242025","613-BX","2018/03/20 20:09:45","新北市新莊區五工路66號","121.458685","25.063915","6500500","新莊區"
"242042","566-BX","2018/03/20 20:09:39","新北市新莊區青山路一段181-1號","121.399801666667","25.03052","6500500","新莊區"
"242046","497-BY","2018/03/20 20:09:34","新北市新莊區裕民街85巷14號","121.419133333333","25.023395","6500500","新莊區"
"242051","441-UM","2018/03/20 20:09:27","新北市新莊區民安西路172巷2弄2號","121.425856666667","25.0159983333333","6500500","新莊區"
"242056","440-UM","2018/03/20 20:09:39","新北市新莊區新莊路649巷15弄13號","121.445563333333","25.0315866666667","6500500","新莊區"
"242037","415-TV","2018/03/20 20:09:42","新北市新莊區建安街7號","121.428893333333","25.0266","6500500","新莊區"
"242044","400-BY","2018/03/20 20:09:30","新北市新莊區中正路895-50號","121.41186","25.021775","6500500","新莊區"
"242023","362-BY","2018/03/20 20:09:31","新北市新莊區化成路602號","121.466168333333","25.0545266666667","6500500","新莊區"
"242061","353-BY","2018/03/20 20:09:36","新北市新莊區瓊林路瓊英巷1弄1號","121.443881666667","25.0272433333333","6500500","新莊區"
"242009","132-UY","2018/03/20 20:09:29","新北市新莊區昌盛街35巷4弄1號","121.454121666667","25.05063","6500500","新莊區"
"242039","133-UY","2018/03/20 20:09:42","新北市新莊區民安西路109號","121.426785","25.0183933333333","6500500","新莊區"
"242032","135-UY","2018/03/20 20:09:39","新北市新莊區中正路453-1號","121.442828333333","25.03404","6500500","新莊區"
"242048","172-VK","2018/03/20 20:09:30","新北市新莊區四維路182巷8號","121.42192","25.0218616666667","6500500","新莊區"
"242017","175-VK","2018/03/20 20:09:37","新北市新莊區中港路397號","121.451881666667","25.04686","6500500","新莊區"
"242005","176-VK","2018/03/20 20:09:30","新北市新莊區福美街12號","121.460781666667","25.0527566666667","6500500","新莊區"
"242015","346-TH","2018/03/20 20:09:31","新北市新莊區中平路26巷26號","121.445896666667","25.0432566666667","6500500","新莊區"
"242021","348-TH","2018/03/20 20:09:43","新北市新莊區中興街57號","121.449096666667","25.0373116666667","6500500","新莊區"
"242002","349-TH","2018/03/20 20:09:40","新北市新莊區中正路33號","121.463771666667","25.0408683333333","6500500","新莊區"
"242013","351-TH","2018/03/20 20:09:30","新北市新莊區幸福路678巷5號","121.450635","25.0496416666667","6500500","新莊區"
"238022","KEA-2213","2018/03/20 20:09:33","新北市樹林區育德街78-1號","121.387603333333","24.9683083333333","6500700","樹林區"
"238021","KEA-2539","2018/03/20 20:09:29","新北市樹林區佳園路三段99巷39-2號","121.392651666667","24.9520766666667","6500700","樹林區"
"221008","489-VK","2018/03/20 20:09:32","台北市內湖區康樂街145號","121.619298333333","25.071635","6501100","汐止區"
"221036","130-UY","2018/03/20 20:09:34","新北市汐止區福安街43號","121.663045","25.0646866666667","6501100","汐止區"
"221010","269-BY","2018/03/20 20:09:41","新北市汐止區八連路一段327號","121.63986","25.0872066666667","6501100","汐止區"
"221012","278-VK","2018/03/20 20:09:30","新北市汐止區姜子寮路50號","121.697615","25.0613866666667","6501100","汐止區"
"221023","279-VK","2018/03/20 20:09:28","新北市汐止區明峰街298巷2弄1號","121.625136666667","25.068205","6501100","汐止區"
"221032","280-BY","2018/03/20 20:09:43","新北市汐止區弘道街11號","121.617036666667","25.0487716666667","6501100","汐止區"
"221027","281-BY","2018/03/20 20:09:29","新北市汐止區光明街28號","121.660151666667","25.0685833333333","6501100","汐止區"
"221029","298-VK","2018/03/20 20:09:27","新北市汐止區樟樹一路119巷8-6號","121.64125","25.0644666666667","6501100","汐止區"
"221021","299-VK","2018/03/20 20:09:38","新北市汐止區新台五路一段159號","121.654048333333","25.0625116666667","6501100","汐止區"
"221031","353-TW","2018/03/20 20:09:35","新北市汐止區原興路74巷1號","121.632076666667","25.06625","6501100","汐止區"
"221035","622-UM","2018/03/20 20:09:36","新北市汐止區長江街97號","121.658111666667","25.0728333333333","6501100","汐止區"
"221025","623-UM","2018/03/20 20:09:41","新北市汐止區水源路二段34號","121.654868333333","25.05727","6501100","汐止區"
"221038","646-BX","2018/03/20 20:09:39","新北市汐止區大同路三段95號","121.668053333333","25.0775166666667","6501100","汐止區"
"221033","647-BX","2018/03/20 20:09:30","新北市汐止區東勢街201巷104號","121.633516666667","25.042875","6501100","汐止區"
"221002","707-TV","2018/03/20 20:09:27","新北市汐止區工建路328號","121.633955","25.0600516666667","6501100","汐止區"
"221018","753-BX","2018/03/20 20:09:37","新北市汐止區茄苳路301號","121.673303333333","25.0669733333333","6501100","汐止區"
"220080","200-UY","2018/03/20 20:09:24","新北市板橋區大觀路二段179巷23號","121.445885","24.999755","6500100","板橋區"
"220101","245-BX","2018/03/20 20:09:41","新北市板橋區莒光路167-4號","121.47439","25.0234983333333","6500100","板橋區"
"220055","256-TC","2018/03/20 20:09:23","新北市板橋區重慶路290巷20號","121.462368333333","24.9988183333333","6500100","板橋區"
"220068","257-TC","2018/03/20 20:09:37","新北市板橋區中山路二段302號","121.479848333333","25.0189666666667","6500100","板橋區"
"220072","277-BY","2018/03/20 20:09:37","新北市板橋區金門街111號","121.433171666667","24.9919833333333","6500100","板橋區"
"220071","283-VK","2018/03/20 20:09:38","新北市板橋區和平路16號","121.45965","24.994385","6500100","板橋區"
"220053","285-VK","2018/03/20 20:09:34","新北市板橋區懷仁街90-2號","121.477475","25.0181433333333","6500100","板橋區"
"220083","286-VK","2018/03/20 20:09:31","新北市板橋區僑中二街92巷9號","121.445743333333","25.008935","6500100","板橋區"
"220081","287-VK","2018/03/20 20:09:26","新北市板橋區僑中一街80巷7弄10號","121.447343333333","25.01289","6500100","板橋區"
"220090","288-VK","2018/03/20 20:09:22","新北市板橋區幸福路32巷54號","121.460396666667","25.022225","6500100","板橋區"
"220061","293-UM","2018/03/20 20:09:35","新北市板橋區中山路一段279號","121.469718333333","25.0137883333333","6500100","板橋區"
"242011","281-VK","2018/03/20 20:09:37","新北市新莊區中和街204巷7弄2號","121.448491666667","25.0504466666667","6500500","新莊區"
"220062","305-R5","2018/03/20 20:09:32","新北市新莊區五權一路13-3號","121.460066666667","25.0685133333333","6500100","板橋區"
"220092","307-R5","2018/03/20 20:09:44","新北市板橋區民權路209號","121.45799","25.0148466666667","6500100","板橋區"
"220089","487-VK","2018/03/20 20:09:34","新北市板橋區互助街68號","121.461048333333","25.0266633333333","6500100","板橋區"
"242019","280-VK","2018/03/20 20:09:30","新北市新莊區長青街29號","121.457138333333","25.04219","6500500","新莊區"
"220103","561-BX","2018/03/20 20:09:43","新北市板橋區自由路26巷19號","121.466475","25.0225683333333","6500100","板橋區"
"220093","689-BX","2018/03/20 20:09:43","新北市板橋區長江路一段141號","121.460746666667","25.0302116666667","6500100","板橋區"
"220102","KEA-2699","2018/03/20 20:09:34","新北市板橋區懷德街76巷11號","121.477693333333","25.0316183333333","6500100","板橋區"
"220067","829-TW","2018/03/20 20:09:42","新北市板橋區中山路一段206巷14號","121.470691666667","25.0126916666667","6500100","板橋區"
"220088","833-TW","2018/03/20 20:09:31","新北市板橋區民治街63號","121.479628333333","25.0331466666667","6500100","板橋區"
"220074","895-R6","2018/03/20 20:09:39","新北市板橋區南雅南路一段7巷20號","121.456231666667","25.004965","6500100","板橋區"
"220073","985-R7","2018/03/20 20:09:33","新北市新莊區三和路10號","121.442205","25.03583","6500100","板橋區"
"220097","AAC-210","2018/03/20 20:09:41","新北市板橋區光正街9巷11號","121.46268","25.0165183333333","6500100","板橋區"
"220070","AAC-253","2018/03/20 20:09:41","新北市板橋區四川路二段245巷51號","121.452085","24.9924316666667","6500100","板橋區"
