"lineid","car","time","location","longitude","latitude","cityid","cityname"
"247010","341-TH","2018/03/20 22:29:29","新北市八里區荖阡坑路16-8號","121.398506666667","25.1392866666667","6501400","蘆洲區"
"251004","009-UM","2018/03/20 22:28:34","新北市淡水區民族路33巷16-19號","121.462385","25.1359083333333","6501000","淡水區"
"251006","010-UM","2018/03/20 22:29:31","新北市淡水區下圭柔山91-3號","121.430751666667","25.210605","6501000","淡水區"
"251008","181-VK","2018/03/20 22:29:43","新北市淡水區學府路108號","121.450016666667","25.1721283333333","6501000","淡水區"
"251012","441-VK","2018/03/20 22:29:35","新北市淡水區下圭柔山90-8號","121.431481666667","25.2104266666667","6501000","淡水區"
"251007","577-R6","2018/03/20 22:29:35","新北市淡水區北新路139號","121.449535","25.178835","6501000","淡水區"
"251010","672-BX","2018/03/20 22:29:30","新北市淡水區沙崙路200號","121.42469","25.1840016666667","6501000","淡水區"
