"lineid","car","time","location","longitude","latitude","cityid","cityname"
"248005","653-BX","2018/09/14 08:59:30","新北市五股區明德路8號","121.433361666667","25.0717066666667","6501500","五股區"
"232015","291-BY","2018/09/14 08:58:22","新北市深坑區文山路一段10號","121.642998333333","25.0085366666667","6502000","坪林區"
"222005","289-BY","2018/09/14 08:59:35","新北市深坑區風格街51號","121.629951666667","25.0180233333333","6501800","深坑區"
"231007","189-VK","2018/09/14 08:59:30","新北市新店區新潭路二段61號","121.521948333333","24.926245","6500600","新店區"
"231009","192-VK","2018/09/14 08:59:34","新北市新店區廣興路76巷6號","121.539205","24.91328","6500600","新店區"
"235001","611-BX","2018/09/14 08:59:42","新北市中和區莒光路185號","121.472613333333","24.999","6500300","中和區"
"226001","7418-A5","2018/09/14 08:59:33","新北市平溪區東勢里番仔坑34-3號","121.749493333333","24.9832033333333","6502400","平溪區"
"226006","AGD-0702","2018/09/14 08:59:41","新北市平溪區靜安路三段52巷16號","121.763498333333","25.03348","6502400","平溪區"
"223006","022-BY","2018/09/14 08:59:39","新北市石碇區石碇東街125號","121.659255","24.9899","6501900","石碇區"
"223003","205-TH","2018/09/14 08:58:32","新北市石碇區北宜路六段十三股巷1號","121.649928333333","24.9462483333333","6501900","石碇區"
"223008","406-TH","2018/09/14 08:59:48","新北市石碇區光明路28號","121.695165","25.023785","6501900","石碇區"
"223004","437-BY","2018/09/14 08:59:32","新北市石碇區磨石坑24-5號","121.690626666667","24.97109","6501900","石碇區"
"223001","592-UM","2018/09/14 08:59:07","新北市石碇區北宜路六段十三股巷2-1號","121.64896","24.945655","6501900","石碇區"
"223007","661-BX","2018/09/14 08:55:47","新北市石碇區光明路18-1號","121.691666666667","25.0369933333333","6501900","石碇區"
"223005","677-TV","2018/09/14 08:59:49","新北市石碇區磨石坑24-1號","121.689965","24.97198","6501900","石碇區"
"227005","282-VK","2018/09/14 08:59:32","新北市雙溪區泰平里泰平54號","121.829633333333","24.9767983333333","6502500","雙溪區"
"237001","159-UY","2018/09/14 08:59:46","新北市三峽區學勤路92號","121.37473","24.9461","6500900","三峽區"
"237004","756-BX","2018/09/14 08:59:48","新北市三峽區三十股路18號","121.428135","24.9104383333333","6500900","三峽區"
"236004","165-UM","2018/09/14 08:59:48","新北市土城區清水路32巷14號","121.457083333333","24.981235","6501300","土城區"
"236004","339-SR","2018/09/14 08:59:46","新北市土城區金城路2段39巷3-1號","121.449983333333","24.9794283333333","6501300","土城區"
"236006","498-BY","2018/09/14 08:59:36","新北市土城區承天路31號","121.43703","24.96523","6501300","土城區"
