"lineid","car","time","location","longitude","latitude","cityid","cityname"
"248005","653-BX","2018/09/14 10:18:50","新北市五股區中興路二段83巷26-6號","121.459585","25.0751466666667","6501500","五股區"
"231007","189-VK","2018/09/14 10:18:50","新北市新店區新潭路三段215巷25號","121.5082","24.90408","6500600","新店區"
"231009","192-VK","2018/09/14 10:18:50","新北市新店區松林路81號","121.545438333333","24.9049616666667","6500600","新店區"
"223003","205-TH","2018/09/14 10:17:32","新北市石碇區小粗坑(潭邊里)9號","121.67616","24.983915","6501900","石碇區"
"227005","282-VK","2018/09/14 10:15:32","新北市雙溪區泰平里灣潭路20-1號","121.812853333333","24.9291283333333","6502500","雙溪區"
"237004","756-BX","2018/09/14 10:15:22","新北市三峽區中山路459巷163-3號","121.348933333333","24.9330833333333","6500900","三峽區"
