"lineid","car","time","location","longitude","latitude","cityid","cityname"
"231007","189-VK","2018/09/14 10:58:30","新北市新店區新潭路二段62巷22號","121.520073333333","24.9276933333333","6500600","新店區"
"231009","192-VK","2018/09/14 10:58:30","新北市新店區松林路83號","121.547433333333","24.9075066666667","6500600","新店區"
"235012","896-TW","2018/09/14 10:58:30","新北市中和區員山路36巷16-3號","121.485001666667","24.9914133333333","6500300","中和區"
"224007","275-VK","2018/09/14 10:58:21","新北市瑞芳區大寮路356-1號","121.784566666667","25.103185","6501200","瑞芳區"
"227005","282-VK","2018/09/14 10:58:41","新北市雙溪區泰平里泰平63-1號","121.824968333333","24.9696933333333","6502500","雙溪區"
