"lineid","car","time","location","longitude","latitude","cityid","cityname"
"234044","148-BY","2018/09/14 12:58:24","新北市永和區永元路52巷52號","121.524555","25.0007366666667","6500400","永和區"
"234001","149-BY","2018/09/14 12:58:14","新北市永和區民生路47巷16號","121.523866666667","24.99761","6500400","永和區"
"234005","207-UY","2018/09/14 12:58:19","新北市永和區中山路一段9號","121.514115","25.0103183333333","6500400","永和區"
"234078","298-R6","2018/09/14 12:58:21","新北市永和區永貞路39巷13號","121.522438333333","25.0063916666667","6500400","永和區"
"234036","336-UY","2018/09/14 12:58:21","新北市永和區成功路二段207號","121.52671","24.9959466666667","6500400","永和區"
"234062","337-UY","2018/09/14 12:58:21","新北市永和區秀朗路一段166號","121.518508333333","25.0033883333333","6500400","永和區"
"234084","338-UY","2018/09/14 12:58:09","新北市永和區永利路18號","121.518056666667","25.0058283333333","6500400","永和區"
"234068","552-UM","2018/09/14 12:58:26","新北市永和區中興街94號","121.518803333333","25.0121016666667","6500400","永和區"
"234015","745-BX","2018/09/14 12:58:12","新北市永和區永和路二段299號","121.516061666667","25.016185","6500400","永和區"
"234028","746-BX","2018/09/14 12:58:21","新北市永和區秀朗路二段276號","121.52604","24.9979433333333","6500400","永和區"
"234052","KEA-2590","2018/09/14 12:58:12","新北市永和區竹林路64號","121.518286666667","25.013505","6500400","永和區"
"234012","KEA-2591","2018/09/14 12:58:10","新北市永和區信義路14號","121.514415","25.0121066666667","6500400","永和區"
"234060","AAD-866","2018/09/14 12:58:11","新北市永和區福和路297號","121.516545","25.0071433333333","6500400","永和區"
"234048","863-TW","2018/09/14 12:58:20","新北市永和區保安路2號","121.510778333333","25.0174483333333","6500400","永和區"
"234025","9371-KE","2018/09/14 12:58:19","新北市永和區永和路一段64號","121.513015","25.005975","6500400","永和區"
"234010","9373-KE","2018/09/14 12:58:18","新北市永和區文化路113巷19號","121.513203333333","25.0140783333333","6500400","永和區"
"248019","225-UY","2018/09/14 12:58:05","新北市五股區中興路二段63巷17號","121.46025","25.07534","6501500","五股區"
"234022","9380-KE","2018/09/14 12:58:23","新北市永和區竹林路75巷33弄35號","121.520895","25.0144533333333","6500400","永和區"
"234076","969-R7","2018/09/14 12:58:07","新北市永和區民享街5號","121.515135","24.9955283333333","6500400","永和區"
"234072","AAC-211","2018/09/14 12:58:11","新北市永和區福和路1號","121.526128333333","25.0096683333333","6500400","永和區"
"234066","AAC-212","2018/09/14 12:58:17","新北市永和區中和路625號","121.512978333333","25.0049","6500400","永和區"
"234001","AAC-295","2018/09/14 12:58:23","新北市永和區永和路一段182號","121.514321666667","25.008995","6500400","永和區"
"244004","248-BX","2018/09/14 12:58:23","新北市林口區中山路42號","121.395423333333","25.078385","6501700","林口區"
"231002","002-UM","2018/09/14 12:58:20","新北市新店區安華路28-1號","121.519651666667","24.9606366666667","6500600","新店區"
"231027","0291-UT","2018/09/14 12:58:24","新北市新店區安華路28-1號","121.519526666667","24.9605233333333","6500600","新店區"
"231028","046-UY","2018/09/14 12:58:23","新北市新店區安華路28-1號","121.519558333333","24.9609216666667","6500600","新店區"
"231001","047-UY","2018/09/14 12:58:16","新北市新店區安一路一段1-1號","121.51902","24.9610216666667","6500600","新店區"
"231010","107-UY","2018/09/14 12:58:21","新北市新店區安康路一段359-27號","121.518778333333","24.9616","6500600","新店區"
"231012","187-VK","2018/09/14 12:58:10","新北市新店區安一路一段1-1號","121.51957","24.961115","6500600","新店區"
"231003","268-BY","2018/09/14 12:58:18","新北市新店區安華路28-1號","121.51935","24.96061","6500600","新店區"
"231018","278-BY","2018/09/14 12:58:15","新北市新店區安一路一段1-1號","121.519648333333","24.961085","6500600","新店區"
"231016","AAD-862","2018/09/14 12:58:20","新北市新店區安一路一段1-1號","121.51992","24.9611216666667","6500600","新店區"
"231005","355-BY","2018/09/14 12:58:16","新北市新店區安華路28-1號","121.519103333333","24.9609316666667","6500600","新店區"
"231037","4716-K9","2018/09/14 12:58:13","新北市新店區安華路28-1號","121.520166666667","24.9608716666667","6500600","新店區"
"231036","512-UM","2018/09/14 12:58:14","新北市新店區安一路一段1-1號","121.51913","24.9611733333333","6500600","新店區"
"231013","513-UM","2018/09/14 12:58:12","新北市新店區安華路28-1號","121.519678333333","24.9609816666667","6500600","新店區"
"231030","619-UM","2018/09/14 12:58:15","新北市新店區安華路28-1號","121.519438333333","24.9607216666667","6500600","新店區"
"231034","641-BX","2018/09/14 12:58:08","新北市新店區安華路1-1號","121.519525","24.9604916666667","6500600","新店區"
"231035","719-UM","2018/09/14 12:58:22","新北市新店區安一路一段1-1號","121.519378333333","24.9611533333333","6500600","新店區"
"231032","720-UM","2018/09/14 12:58:14","新北市新店區安一路一段1-1號","121.518948333333","24.9614383333333","6500600","新店區"
"231029","897-TW","2018/09/14 12:58:06","新北市新店區安華路28-1號","121.519488333333","24.960695","6500600","新店區"
"231004","899-TW","2018/09/14 12:58:14","新北市新店區安一路一段1-1號","121.518785","24.9610233333333","6500600","新店區"
"235028","005-UY","2018/09/14 12:58:10","新北市中和區員山路36巷16-2號","121.485185","24.9915183333333","6500300","中和區"
"235027","006-UY","2018/09/14 12:58:11","新北市中和區員山路36巷16-3號","121.485081666667","24.9911216666667","6500300","中和區"
"235029","098-UM","2018/09/14 12:58:14","新北市中和區景平路780號","121.496066666667","25.0053433333333","6500300","中和區"
"235022","151-BY","2018/09/14 12:58:15","新北市中和區錦和路189號","121.49072","24.99086","6500300","中和區"
"235002","185-VK","2018/09/14 12:58:03","新北市永和區厚德街2號","121.525888333333","24.9974983333333","6500300","中和區"
"235031","255-BX","2018/09/14 12:58:17","新北市中和區中山路二段552號","121.48373","25.00514","6500300","中和區"
"235034","558-UM","2018/09/14 12:58:22","新北市中和區員山路36巷16-3號","121.484975","24.9916216666667","6500300","中和區"
"235015","157-BY","2018/09/14 12:58:24","新北市中和區員山路36巷13號","121.48409","24.9909416666667","6500300","中和區"
"235001","AAC-213","2018/09/14 12:58:25","新北市中和區中正路73號","121.501015","24.9935383333333","6500300","中和區"
"235023","AAC-215","2018/09/14 12:58:05","新北市中和區員山路36巷16-3號","121.484971666667","24.9913916666667","6500300","中和區"
"235026","251-BX","2018/09/14 12:58:16","新北市中和區員山路36巷16-3號","121.484928333333","24.99123","6500300","中和區"
"207002","749-BX","2018/09/14 12:58:04","新北市萬里區雙興里大坪路47號","121.624171666667","25.17203","6502800","萬里區"
"207001","662-BX","2018/09/14 12:58:25","新北市萬里區萬里里獅頭路22-1號","121.692993333333","25.1782066666667","6502800","萬里區"
"236006","498-BY","2018/09/14 12:58:16","新北市土城區亞洲路20號","121.436465","24.97453","6501300","土城區"
"221010","269-BY","2018/09/14 12:58:24","新北市汐止區忠三街8號","121.624768333333","25.07842","6501100","汐止區"
"221032","280-BY","2018/09/14 12:58:21","新北市汐止區建成路80號","121.662611666667","25.0731216666667","6501100","汐止區"
"235032","KEA-2873","2018/09/14 12:58:19","新北市中和區員山路36巷16-2號","121.485201666667","24.9914866666667","6500300","中和區"
"235025","KEA-2875","2018/09/14 12:58:22","新北市中和區員山路36巷16-2號","121.485201666667","24.9916883333333","6500300","中和區"
