"lineid","car","time","location","longitude","latitude","cityid","cityname"
"234044","148-BY","2018/09/14 13:39:04","新北市永和區永元路94號","121.522608333333","25.0016666666667","6500400","永和區"
"234001","149-BY","2018/09/14 13:39:13","新北市中和區永貞路262巷8號","121.513805","25.0041066666667","6500400","永和區"
"234005","207-UY","2018/09/14 13:39:14","新北市永和區中山路一段24號","121.513928333333","25.0105783333333","6500400","永和區"
"234078","298-R6","2018/09/14 13:39:18","新北市永和區國中路104巷8弄28號","121.525528333333","25.006105","6500400","永和區"
"234036","336-UY","2018/09/14 13:39:21","新北市永和區環河東路四段10號","121.528486666667","25.000045","6500400","永和區"
"234062","337-UY","2018/09/14 13:39:12","新北市永和區秀朗路一段192巷6弄14號","121.519061666667","25.0022516666667","6500400","永和區"
"234084","338-UY","2018/09/14 13:39:09","新北市永和區永亨路132號","121.524691666667","25.00392","6500400","永和區"
"234068","552-UM","2018/09/14 13:39:06","新北市永和區永和路二段237-1號","121.515658333333","25.0144866666667","6500400","永和區"
"234015","745-BX","2018/09/14 13:39:25","新北市永和區永和路二段301巷1號","121.515811666667","25.0164483333333","6500400","永和區"
"234028","746-BX","2018/09/14 13:39:20","新北市永和區民權路1巷18號","121.52129","24.9982333333333","6500400","永和區"
"234052","KEA-2590","2018/09/14 13:39:12","新北市永和區竹林路39巷3號","121.518166666667","25.0143366666667","6500400","永和區"
"234012","KEA-2591","2018/09/14 13:39:10","新北市永和區仁愛路247號","121.508703333333","25.0118366666667","6500400","永和區"
"234060","AAD-866","2018/09/14 13:39:11","新北市永和區中正路446號","121.517426666667","25.0028983333333","6500400","永和區"
"234040","862-TW","2018/09/14 13:39:15","新北市永和區中和路373號","121.508406666667","24.9998566666667","6500400","永和區"
"234048","863-TW","2018/09/14 13:39:20","新北市永和區保安路62號","121.510015","25.0164816666667","6500400","永和區"
"234025","9371-KE","2018/09/14 13:39:15","新北市永和區自由街58號","121.513805","25.0059466666667","6500400","永和區"
"234010","9373-KE","2018/09/14 13:39:18","新北市永和區保福路二段15巷9號","121.510573333333","25.01096","6500400","永和區"
"248019","225-UY","2018/09/14 13:39:05","新北市五股區天乙路169號","121.446501666667","25.1174966666667","6501500","五股區"
"234022","9380-KE","2018/09/14 13:39:23","新北市永和區中正路702巷19號","121.516408333333","25.0105883333333","6500400","永和區"
"234076","969-R7","2018/09/14 13:39:07","新北市永和區民權路30號","121.520261666667","24.9990866666667","6500400","永和區"
"234072","AAC-211","2018/09/14 13:39:11","新北市永和區竹林路213巷31號","121.522771666667","25.009095","6500400","永和區"
"234066","AAC-212","2018/09/14 13:39:17","新北市永和區中山路一段191巷10號","121.50949","25.0082466666667","6500400","永和區"
"234001","AAC-295","2018/09/14 13:39:23","新北市永和區秀朗路一段15號","121.513878333333","25.0073166666667","6500400","永和區"
"244004","248-BX","2018/09/14 13:39:23","新北市林口區忠福路342-1號","121.357241666667","25.0802416666667","6501700","林口區"
"231002","002-UM","2018/09/14 13:39:20","新北市新店區溪園路405號","121.524031666667","24.9782266666667","6500600","新店區"
"231027","0291-UT","2018/09/14 13:39:24","新北市新店區北宜路一段105巷42號","121.54067","24.9557916666667","6500600","新店區"
"231028","046-UY","2018/09/14 13:39:23","新北市新店區安和路一段2-3號","121.517286666667","24.96424","6500600","新店區"
"231001","047-UY","2018/09/14 13:39:16","新北市新店區中央路17號","121.533361666667","24.9782433333333","6500600","新店區"
"231010","107-UY","2018/09/14 13:39:21","新北市新店區中正路307巷17號","121.535846666667","24.973625","6500600","新店區"
"231022","108-UY","2018/09/14 13:39:12","新北市新店區永興路88-1號","121.544013333333","24.93368","6500600","新店區"
"231012","187-VK","2018/09/14 13:39:10","新北市新店區德正街23巷12-1號","121.54466","24.9722","6500600","新店區"
"231023","KEA-2219","2018/09/14 13:39:24","新北市新店區新店路132號","121.537171666667","24.9551333333333","6500600","新店區"
"231026","256-BX","2018/09/14 13:39:18","新北市新店區北新路一段8號","121.54067","24.9653766666667","6500600","新店區"
"231003","268-BY","2018/09/14 13:39:19","新北市新店區北新路一段126巷32號","121.543321666667","24.96905","6500600","新店區"
"231018","278-BY","2018/09/14 13:39:15","新北市新店區百忍街13號","121.53461","24.9756016666667","6500600","新店區"
"231016","AAD-862","2018/09/14 13:39:20","新北市新店區竹林路30巷1號","121.552303333333","24.9513033333333","6500600","新店區"
"231005","355-BY","2018/09/14 13:39:16","新北市新店區中正路27號","121.54523","24.9695783333333","6500600","新店區"
"231038","3712-VJ","2018/09/14 13:39:06","新北市新店區安華路28-1號","121.5192","24.9605883333333","6500600","新店區"
"231037","4716-K9","2018/09/14 13:39:13","新北市新店區薏仁坑路29-1號","121.495565","24.9606716666667","6500600","新店區"
"231025","4715-K9","2018/09/14 13:39:15","新北市新店區中央六街56號","121.528006666667","24.97574","6500600","新店區"
"231036","512-UM","2018/09/14 13:39:14","新北市新店區安祥路147巷72號","121.47591","24.9558","6500600","新店區"
"231013","513-UM","2018/09/14 13:39:12","新北市新店區中正路454-5號","121.534461666667","24.979035","6500600","新店區"
"231006","617-UM","2018/09/14 13:39:21","新北市新店區北宜路一段97號","121.539115","24.9553483333333","6500600","新店區"
"231030","619-UM","2018/09/14 13:39:15","新北市新店區安康路一段238-1號","121.522193333333","24.9637716666667","6500600","新店區"
"231034","641-BX","2018/09/14 13:39:08","新北市新店區車子路121號","121.505313333333","24.9508366666667","6500600","新店區"
"231035","719-UM","2018/09/14 13:39:22","新北市新店區安忠路57巷1-2號","121.513381666667","24.9598866666667","6500600","新店區"
"231032","720-UM","2018/09/14 13:39:14","新北市新店區車子路20號","121.505345","24.9543783333333","6500600","新店區"
"231029","897-TW","2018/09/14 13:39:26","新北市新店區車子路1-1號","121.504658333333","24.9579233333333","6500600","新店區"
"231004","899-TW","2018/09/14 13:39:15","新北市新店區北新路二段11號","121.542676666667","24.9714066666667","6500600","新店區"
"231024","AKT-0513","2018/09/14 13:39:09","新北市新店區中華路141號","121.538343333333","24.970125","6500600","新店區"
"235030","003-UY","2018/09/14 13:39:13","新北市中和區水源路45號","121.504795","25.00359","6500300","中和區"
"235028","005-UY","2018/09/14 13:39:10","新北市中和區連城路109巷23號","121.49682","24.9987383333333","6500300","中和區"
"235027","006-UY","2018/09/14 13:39:11","新北市中和區連城路347巷16弄31號","121.487406666667","24.9950533333333","6500300","中和區"
"235020","096-UM","2018/09/14 13:39:11","新北市中和區員山路466巷21弄3號","121.480666666667","25.0069433333333","6500300","中和區"
"235003","097-UM","2018/09/14 13:39:05","新北市中和區大勇街25巷39弄11號","121.514715","24.9940466666667","6500300","中和區"
"235029","098-UM","2018/09/14 13:39:14","新北市中和區中山路二段2巷51號","121.501951666667","25.0073133333333","6500300","中和區"
"235004","150-BY","2018/09/14 13:39:16","新北市中和區安平路59號","121.509608333333","24.9950833333333","6500300","中和區"
"235022","151-BY","2018/09/14 13:39:15","新北市中和區連城路571號","121.47902","24.9945283333333","6500300","中和區"
"235019","183-VK","2018/09/14 13:39:19","新北市中和區國光街38號","121.471133333333","25.000425","6500300","中和區"
"235002","185-VK","2018/09/14 13:39:23","新北市中和區大勇街60巷8號","121.51862","24.9947016666667","6500300","中和區"
"235013","186-VK","2018/09/14 13:39:22","新北市中和區景安路132巷33號","121.50372","24.9945933333333","6500300","中和區"
"235031","255-BX","2018/09/14 13:39:16","新北市中和區新生街220巷4號","121.482898333333","24.9985233333333","6500300","中和區"
"235008","293-VK","2018/09/14 13:39:26","新北市中和區復興路274巷12號","121.502855","24.9907966666667","6500300","中和區"
"235036","301-VK","2018/09/14 13:39:17","新北市中和區連城路165號","121.49567","24.9984416666667","6500300","中和區"
"235007","352-BY","2018/09/14 13:39:20","新北市中和區景平路316號","121.512326666667","24.9927083333333","6500300","中和區"
"235006","KEA-2878","2018/09/14 13:39:16","新北市中和區成功路127巷12弄2號","121.5266","24.9907433333333","6500300","中和區"
"235014","4979-A6","2018/09/14 13:39:22","新北市中和區景新街496巷28弄47號","121.512581666667","24.9859283333333","6500300","中和區"
"235033","4980-A6","2018/09/14 13:39:04","新北市中和區連城路89巷1號","121.496695","24.9999316666667","6500300","中和區"
"235034","558-UM","2018/09/14 13:39:22","新北市中和區圓通路50號","121.500698333333","24.9975583333333","6500300","中和區"
"235009","565-BX","2018/09/14 13:39:24","新北市中和區南山路236巷51號","121.504888333333","24.98832","6500300","中和區"
"235018","640-BX","2018/09/14 13:39:14","新北市中和區民享街32巷16號","121.473125","25.003215","6500300","中和區"
"235011","732-UM","2018/09/14 13:39:08","新北市中和區南山路320巷10弄21號","121.506825","24.9867083333333","6500300","中和區"
"235035","783-BX","2018/09/14 13:39:17","新北市中和區光環路二段309號","121.487366666667","25.0138383333333","6500300","中和區"
"235021","801-TS","2018/09/14 13:39:12","新北市中和區民安街42巷2號","121.479946666667","25.000575","6500300","中和區"
"235005","802-TS","2018/09/14 13:39:23","新北市中和區中安街78號","121.512086666667","25.001945","6500300","中和區"
"235016","805-TS","2018/09/14 13:39:12","新北市中和區興南路三段52巷1號","121.493561666667","24.9762266666667","6500300","中和區"
"235012","896-TW","2018/09/14 13:39:10","新北市中和區中正路81號","121.50072","24.9935183333333","6500300","中和區"
"235017","900-TW","2018/09/14 13:39:16","新北市中和區民享街482號","121.469348333333","24.9924666666667","6500300","中和區"
"235024","911-UM","2018/09/14 13:39:22","新北市中和區中山路三段6號","121.479678333333","25.00604","6500300","中和區"
"235015","157-BY","2018/09/14 13:39:24","新北市中和區華新街143巷106弄28號","121.505991666667","24.9786366666667","6500300","中和區"
"235001","AAC-213","2018/09/14 13:39:05","新北市中和區景平路73-3號","121.518568333333","24.9914816666667","6500300","中和區"
"235023","AAC-215","2018/09/14 13:39:05","新北市中和區員山路36巷16-3號","121.484936666667","24.991335","6500300","中和區"
"220013","072-UY","2018/09/14 13:39:07","新北市板橋區漢生東路280號","121.470478333333","25.0099216666667","6500100","板橋區"
"220034","073-UY","2018/09/14 13:39:06","新北市板橋區南雅西路二段192巷3號","121.452048333333","25.0144683333333","6500100","板橋區"
"247009","056-VK","2018/09/14 13:39:14","新北市五股區中興路三段163號","121.449215","25.0806583333333","6501400","蘆洲區"
"247021","001-UY","2018/09/14 13:39:22","新北市五股區中興路三段2巷10號","121.449196666667","25.0808333333333","6501400","蘆洲區"
"235026","251-BX","2018/09/14 13:39:16","新北市中和區景平路677巷5-1號","121.496203333333","25.0026483333333","6500300","中和區"
"207002","749-BX","2018/09/14 13:39:24","新北市萬里區崁腳里崁腳路166號","121.645108333333","25.1557766666667","6502800","萬里區"
"207001","662-BX","2018/09/14 13:39:25","新北市萬里區大鵬里萬里加投29-11號","121.64675","25.2091783333333","6502800","萬里區"
"236077","166-UM","2018/09/14 13:39:08","新北市土城區城林路6巷80號","121.438705","24.9797216666667","6501300","土城區"
"236032","271-VK","2018/09/14 13:39:22","新北市土城區城林路6巷80號","121.438495","24.9797583333333","6501300","土城區"
"236016","401-BY","2018/09/14 13:39:22","新北市土城區城林路6巷80號","121.438561666667","24.979825","6501300","土城區"
"236006","498-BY","2018/09/14 13:39:10","新北市土城區慶祥街21號","121.436616666667","24.9740266666667","6501300","土城區"
"236045","913-UM","2018/09/14 13:39:11","新北市土城區城林路6巷80號","121.438401666667","24.9797583333333","6501300","土城區"
"236060","915-UM","2018/09/14 13:39:12","新北市土城區城林路6巷80號","121.438388333333","24.9797916666667","6501300","土城區"
"242051","172-VK","2018/09/14 13:39:25","新北市新莊區和興街19號","121.447648333333","25.0395583333333","6500500","新莊區"
"221010","269-BY","2018/09/14 13:39:04","新北市汐止區長青路210巷190號","121.616306666667","25.113035","6501100","汐止區"
"221032","280-BY","2018/09/14 13:39:21","新北市汐止區仁愛路27號","121.659371666667","25.0636616666667","6501100","汐止區"
"220027","145-BY","2018/09/14 13:39:22","新北市板橋區南雅西路二段110-2號","121.452103333333","25.0121983333333","6500100","板橋區"
"220028","200-UY","2018/09/14 13:39:21","新北市板橋區大觀路二段265巷76弄35號","121.441155","24.996715","6500100","板橋區"
"220030","610-BX","2018/09/14 13:39:04","新北市板橋區篤行路一段18號","121.43208","24.994875","6500100","板橋區"
"220004","276-BY","2018/09/14 13:39:05","新北市板橋區華東街1-10號","121.44844","24.9949866666667","6500100","板橋區"
"220020","277-BY","2018/09/14 13:39:18","新北市板橋區大觀路三段62巷2號","121.433241666667","24.995115","6500100","板橋區"
"220019","283-VK","2018/09/14 13:39:21","新北市板橋區四川路二段140巷20號","121.44919","24.9934433333333","6500100","板橋區"
"220031","286-VK","2018/09/14 13:39:26","新北市板橋區大觀路二段103號","121.446221666667","25.0018483333333","6500100","板橋區"
"220029","287-VK","2018/09/14 13:39:06","新北市板橋區大觀路二段107號","121.446395","25.0015783333333","6500100","板橋區"
"220009","293-UM","2018/09/14 13:39:07","新北市板橋區民生路二段161巷7號","121.470278333333","25.0197216666667","6500100","板橋區"
"220023","303-R5","2018/09/14 13:39:07","新北市板橋區華東街260號","121.452591666667","25.0016033333333","6500100","板橋區"
"220010","305-R5","2018/09/14 13:39:12","新北市板橋區民生路二段161巷9號","121.470315","25.0196566666667","6500100","板橋區"
"220012","486-VK","2018/09/14 13:39:08","新北市板橋區民生路二段36-1號","121.472106666667","25.0167733333333","6500100","板橋區"
"220104","560-BX","2018/09/14 13:39:21","新北市板橋區南雅西路二段145巷6號","121.451611666667","25.011875","6500100","板橋區"
"220052","561-BX","2018/09/14 13:39:15","新北市板橋區民生路二段161巷9號","121.470223333333","25.019575","6500100","板橋區"
"220032","568-UM","2018/09/14 13:39:04","新北市板橋區板城路421號","121.448081666667","24.9962616666667","6500100","板橋區"
"220011","609-BX","2018/09/14 13:39:18","新北市板橋區民生路二段171號","121.469913333333","25.0201716666667","6500100","板橋區"
"220005","686-BX","2018/09/14 13:39:08","新北市板橋區華東街1-9號","121.448203333333","24.9948683333333","6500100","板橋區"
"220025","687-BX","2018/09/14 13:39:15","新北市板橋區沙崙街37號","121.430511666667","24.994515","6500100","板橋區"
"220003","827-TW","2018/09/14 13:39:06","新北市板橋區華東街1-9號","121.448206666667","24.994905","6500100","板橋區"
"220014","829-TW","2018/09/14 13:39:24","新北市板橋區民生路二段161巷3號","121.470203333333","25.0198","6500100","板橋區"
"220022","895-R6","2018/09/14 13:39:06","新北市板橋區南雅南路一段8-5號","121.456026666667","25.006475","6500100","板橋區"
"220021","985-R7","2018/09/14 13:39:12","新北市板橋區南雅南路二段120-2號","121.45246","24.999985","6500100","板橋區"
"220018","AAC-253","2018/09/14 13:39:19","新北市板橋區華東街1-9號","121.448238333333","24.9948966666667","6500100","板橋區"
"235032","KEA-2873","2018/09/14 13:39:18","新北市中和區中正路213號","121.49704","24.99373","6500300","中和區"
"235025","KEA-2875","2018/09/14 13:39:22","新北市中和區民享街95-5號","121.474918333333","24.9999683333333","6500300","中和區"
