"lineid","car","time","location","longitude","latitude","cityid","cityname"
"234044","148-BY","2018/09/14 13:48:45","新北市永和區永利路169號","121.525343333333","25.0034183333333","6500400","永和區"
"234001","149-BY","2018/09/14 13:48:34","新北市永和區中正路274號","121.516976666667","24.9986583333333","6500400","永和區"
"234005","207-UY","2018/09/14 13:48:47","新北市永和區永和路一段38號","121.513068333333","25.0053316666667","6500400","永和區"
"234078","298-R6","2018/09/14 13:48:38","新北市永和區永亨路98號","121.523005","25.004795","6500400","永和區"
"234036","336-UY","2018/09/14 13:48:41","新北市永和區成功路二段80號","121.526645","24.9990483333333","6500400","永和區"
"234062","337-UY","2018/09/14 13:48:53","新北市永和區中正路382號","121.517661666667","25.0012816666667","6500400","永和區"
"234084","338-UY","2018/09/14 13:48:49","新北市永和區福和路275號","121.517536666667","25.0073366666667","6500400","永和區"
"234068","552-UM","2018/09/14 13:48:46","新北市永和區竹林路88號","121.519401666667","25.01254","6500400","永和區"
"234015","745-BX","2018/09/14 13:48:48","新北市永和區文化路80號","121.514041666667","25.015155","6500400","永和區"
"234028","746-BX","2018/09/14 13:48:51","新北市永和區民生路67巷7號","121.523035","24.9972466666667","6500400","永和區"
"234052","KEA-2590","2018/09/14 13:48:53","新北市永和區竹林路39巷20號","121.518813333333","25.0146066666667","6500400","永和區"
"234012","KEA-2591","2018/09/14 13:48:49","新北市永和區保生路55號","121.504713333333","25.0106166666667","6500400","永和區"
"234060","AAD-866","2018/09/14 13:48:51","新北市永和區中正路171號","121.516655","24.998605","6500400","永和區"
"234040","862-TW","2018/09/14 13:48:36","新北市永和區中和路389巷24號","121.508141666667","25.0013716666667","6500400","永和區"
"234048","863-TW","2018/09/14 13:48:40","新北市永和區保安路73號","121.508855","25.0148683333333","6500400","永和區"
"234025","9371-KE","2018/09/14 13:48:55","新北市永和區自由街58號","121.5139","25.006015","6500400","永和區"
"234010","9373-KE","2018/09/14 13:48:37","新北市永和區仁愛路352巷80號","121.501875","25.007615","6500400","永和區"
"248019","225-UY","2018/09/14 13:48:45","新北市五股區凌雲路三段田埔巷10號","121.435526666667","25.1202783333333","6501500","五股區"
"234022","9380-KE","2018/09/14 13:48:42","新北市永和區復興街1巷4號","121.515761666667","25.0129616666667","6500400","永和區"
"234076","969-R7","2018/09/14 13:48:47","新北市永和區民族街39號","121.518715","24.999035","6500400","永和區"
"234072","AAC-211","2018/09/14 13:48:56","新北市永和區豫溪街215巷12號","121.524188333333","25.00959","6500400","永和區"
"234066","AAC-212","2018/09/14 13:48:52","新北市永和區中山路一段255巷22號","121.508501666667","25.0071466666667","6500400","永和區"
"234001","AAC-295","2018/09/14 13:48:43","新北市永和區永和路一段102號","121.513358333333","25.0070716666667","6500400","永和區"
"244004","248-BX","2018/09/14 13:48:43","新北市林口區南勢街248號","121.358633333333","25.0755933333333","6501700","林口區"
"231002","002-UM","2018/09/14 13:48:40","新北市新店區溪園路247號","121.525408333333","24.98326","6500600","新店區"
"231027","0291-UT","2018/09/14 13:48:44","新北市新店區北宜路一段39巷20號","121.53897","24.9583666666667","6500600","新店區"
"231028","046-UY","2018/09/14 13:48:43","新北市新店區安和路二段166-10號","121.519115","24.9741516666667","6500600","新店區"
"231001","047-UY","2018/09/14 13:48:42","新北市新店區三民路100號","121.534011666667","24.9737516666667","6500600","新店區"
"231010","107-UY","2018/09/14 13:48:41","新北市新店區三民路60巷2號","121.535465","24.972385","6500600","新店區"
"231022","108-UY","2018/09/14 13:48:52","新北市新店區永興路95-3號","121.544486666667","24.9325166666667","6500600","新店區"
"231012","187-VK","2018/09/14 13:48:50","新北市新店區德正街27巷29弄145號","121.545675","24.9734083333333","6500600","新店區"
"231023","KEA-2219","2018/09/14 13:48:44","新北市新店區國校路47號","121.537943333333","24.9549083333333","6500600","新店區"
"231026","256-BX","2018/09/14 13:48:37","新北市新店區三民路96-1號","121.534088333333","24.9730183333333","6500600","新店區"
"231003","268-BY","2018/09/14 13:48:39","新北市新店區中興路一段203號","121.54359","24.9655683333333","6500600","新店區"
"231018","278-BY","2018/09/14 13:48:35","新北市新店區中正路400巷16號","121.535076666667","24.9780933333333","6500600","新店區"
"231016","AAD-862","2018/09/14 13:48:40","新北市新店區北宜路二段82巷9弄1號","121.553603333333","24.9524383333333","6500600","新店區"
"231005","355-BY","2018/09/14 13:48:36","新北市新店區寶中路120號","121.54999","24.9787933333333","6500600","新店區"
"231038","3712-VJ","2018/09/14 13:48:45","新北市新店區安華路28-1號","121.519311666667","24.9606283333333","6500600","新店區"
"231037","4716-K9","2018/09/14 13:48:53","新北市新店區安康路三段359巷12弄2號","121.484463333333","24.9502683333333","6500600","新店區"
"231025","4715-K9","2018/09/14 13:48:55","新北市新店區中正路359號","121.535126666667","24.9761316666667","6500600","新店區"
"231036","512-UM","2018/09/14 13:48:54","新北市新店區安祥路110巷18號","121.474476666667","24.956535","6500600","新店區"
"231013","513-UM","2018/09/14 13:48:52","新北市新店區二十張路25巷18弄16號","121.539215","24.9815516666667","6500600","新店區"
"231006","617-UM","2018/09/14 13:48:41","新北市新店區北宜路一段260號","121.545758333333","24.952755","6500600","新店區"
"231030","619-UM","2018/09/14 13:48:55","新北市新店區安康路一段50號","121.530206666667","24.9611066666667","6500600","新店區"
"231034","641-BX","2018/09/14 13:48:48","新北市新店區達觀路14巷3號","121.50315","24.9417816666667","6500600","新店區"
"231035","719-UM","2018/09/14 13:48:42","新北市新店區安忠路63號","121.512013333333","24.9584833333333","6500600","新店區"
"231032","720-UM","2018/09/14 13:48:54","新北市新店區莒光路44巷21弄11-6號","121.519008333333","24.952565","6500600","新店區"
"231029","897-TW","2018/09/14 13:48:46","新北市新店區安康路二段156號","121.51237","24.960855","6500600","新店區"
"231004","899-TW","2018/09/14 13:48:54","新北市新店區寶橋路69-1號","121.54549","24.9750083333333","6500600","新店區"
"231024","AKT-0513","2018/09/14 13:48:48","新北市新店區北新路一段271巷16號","121.540325","24.9670533333333","6500600","新店區"
"235030","003-UY","2018/09/14 13:48:33","新北市中和區水源路18巷9號","121.503973333333","25.0028566666667","6500300","中和區"
"235028","005-UY","2018/09/14 13:48:50","新北市中和區泰和街43號","121.499025","24.999495","6500300","中和區"
"235027","006-UY","2018/09/14 13:48:51","新北市中和區錦和路198號","121.490133333333","24.9949283333333","6500300","中和區"
"235020","096-UM","2018/09/14 13:48:51","新北市中和區中正路1196號","121.480423333333","25.0103716666667","6500300","中和區"
"235003","097-UM","2018/09/14 13:48:45","新北市中和區景平路64巷13弄22號","121.521478333333","24.991455","6500300","中和區"
"235029","098-UM","2018/09/14 13:48:33","新北市中和區勝利路35巷3弄19號","121.499771666667","25.0073533333333","6500300","中和區"
"235004","150-BY","2018/09/14 13:48:56","新北市中和區保健路48巷26號","121.509541666667","24.9963733333333","6500300","中和區"
"235022","151-BY","2018/09/14 13:48:35","新北市中和區連城路534巷2號","121.475371666667","24.99141","6500300","中和區"
"235019","183-VK","2018/09/14 13:48:51","新北市中和區德光路77巷1號","121.469555","25.0034933333333","6500300","中和區"
"235002","185-VK","2018/09/14 13:48:43","新北市中和區大勇街48號","121.517523333333","24.9940933333333","6500300","中和區"
"235013","186-VK","2018/09/14 13:48:42","新北市中和區景安路177巷21號","121.506338333333","24.9944033333333","6500300","中和區"
"235031","255-BX","2018/09/14 13:48:36","新北市中和區新生街264號","121.483595","24.9971766666667","6500300","中和區"
"235008","293-VK","2018/09/14 13:48:47","新北市中和區中興街156號","121.4999","24.991785","6500300","中和區"
"235036","301-VK","2018/09/14 13:48:37","新北市中和區中山路二段171號","121.501273333333","25.0026383333333","6500300","中和區"
"235007","352-BY","2018/09/14 13:48:40","新北市中和區成功路139號","121.525925","24.9904483333333","6500300","中和區"
"235006","KEA-2878","2018/09/14 13:48:56","新北市中和區秀朗路三段128巷34號","121.524731666667","24.9937466666667","6500300","中和區"
"235014","4979-A6","2018/09/14 13:48:40","新北市中和區忠孝街62巷9弄8號","121.51319","24.9839833333333","6500300","中和區"
"235033","4980-A6","2018/09/14 13:48:44","新北市中和區南山路81巷8弄12號","121.502565","24.9977133333333","6500300","中和區"
"235034","558-UM","2018/09/14 13:48:42","新北市中和區中和路104號","121.502825","24.9997266666667","6500300","中和區"
"235009","565-BX","2018/09/14 13:48:44","新北市中和區捷運路8-12號","121.509623333333","24.9898166666667","6500300","中和區"
"235018","640-BX","2018/09/14 13:48:34","新北市中和區民享街35巷11號","121.474808333333","25.0040533333333","6500300","中和區"
"235011","732-UM","2018/09/14 13:48:48","新北市中和區興南路二段34巷56弄1號","121.504876666667","24.9850933333333","6500300","中和區"
"235010","733-UM","2018/09/14 13:48:43","新北市中和區仁愛街36巷55號","121.511455","24.98622","6500300","中和區"
"235035","783-BX","2018/09/14 13:48:37","新北市中和區中山路二段476-10號","121.487638333333","25.005485","6500300","中和區"
"235021","801-TS","2018/09/14 13:48:53","新北市中和區民安街19號","121.480491666667","25.0006616666667","6500300","中和區"
"235005","802-TS","2018/09/14 13:48:43","新北市中和區永貞路249巷18號","121.512438333333","25.0036566666667","6500300","中和區"
"235016","805-TS","2018/09/14 13:48:52","新北市中和區興南路二段399巷37-1號","121.500523333333","24.9777066666667","6500300","中和區"
"235012","896-TW","2018/09/14 13:48:50","新北市中和區南山路325號","121.505213333333","24.9912633333333","6500300","中和區"
"235017","900-TW","2018/09/14 13:48:56","新北市中和區華福街42巷1弄1號","121.466396666667","24.9963666666667","6500300","中和區"
"235024","911-UM","2018/09/14 13:48:51","新北市中和區中山路三段178-1號","121.472533333333","25.0064533333333","6500300","中和區"
"235015","157-BY","2018/09/14 13:48:44","新北市中和區忠孝街106巷9弄1號","121.512388333333","24.98455","6500300","中和區"
"235001","AAC-213","2018/09/14 13:48:55","新北市中和區秀朗路三段128巷16弄1號","121.524651666667","24.9931133333333","6500300","中和區"
"235023","AAC-215","2018/09/14 13:48:45","新北市中和區圓通路385號","121.490303333333","24.98928","6500300","中和區"
"220013","072-UY","2018/09/14 13:48:47","新北市板橋區漢生東路280號","121.470383333333","25.0098916666667","6500100","板橋區"
"220034","073-UY","2018/09/14 13:48:46","新北市板橋區大智街67號","121.453821666667","25.0155166666667","6500100","板橋區"
"220105","075-UY","2018/09/14 13:48:51","新北市板橋區民生路二段120號","121.470376666667","25.0197266666667","6500100","板橋區"
"220017","AAD-861","2018/09/14 13:48:44","新北市板橋區大華街19號","121.459046666667","25.0060216666667","6500100","板橋區"
"220039","120-SR","2018/09/14 13:48:50","新北市板橋區民生路二段120號","121.470468333333","25.0195883333333","6500100","板橋區"
"247005","337-TH","2018/09/14 13:48:42","新北市蘆洲區和平路77號","121.469298333333","25.0791133333333","6501400","蘆洲區"
"247007","336-TH","2018/09/14 13:48:51","新北市三重區三和路四段420號","121.480573333333","25.0800166666667","6501400","蘆洲區"
"247009","056-VK","2018/09/14 13:48:54","新北市蘆洲區民族路422巷82弄36-3號","121.472908333333","25.097665","6501400","蘆洲區"
"247003","002-UY","2018/09/14 13:48:39","新北市蘆洲區長安街152號","121.459903333333","25.0826333333333","6501400","蘆洲區"
"247021","001-UY","2018/09/14 13:48:42","新北市蘆洲區三民路574號","121.461455","25.0936366666667","6501400","蘆洲區"
"235026","251-BX","2018/09/14 13:48:56","新北市中和區景平路701號","121.496333333333","25.00348","6500300","中和區"
"207002","749-BX","2018/09/14 13:48:44","新北市萬里區崁腳里崁腳路166號","121.645143333333","25.1558883333333","6502800","萬里區"
"207001","662-BX","2018/09/14 13:48:45","新北市萬里區磺潭里公館崙28號","121.633495","25.2120833333333","6502800","萬里區"
"236067","105-UM","2018/09/14 13:48:41","新北市土城區城林路6巷80號","121.438625","24.979615","6501300","土城區"
"236040","107-UM","2018/09/14 13:48:45","新北市土城區城林路6巷80號","121.438528333333","24.9797416666667","6501300","土城區"
"236077","166-UM","2018/09/14 13:48:48","新北市土城區中央路三段120號","121.435173333333","24.9661566666667","6501300","土城區"
"236032","271-VK","2018/09/14 13:48:42","新北市土城區城林路6巷80號","121.438496666667","24.979755","6501300","土城區"
"236016","401-BY","2018/09/14 13:48:42","新北市土城區城林路6巷80號","121.438533333333","24.9797983333333","6501300","土城區"
"236006","498-BY","2018/09/14 13:48:50","新北市土城區中央路二段280號","121.440845","24.9741766666667","6501300","土城區"
"236057","912-UM","2018/09/14 13:48:51","新北市土城區中華路二段155號","121.438826666667","24.975845","6501300","土城區"
"236045","913-UM","2018/09/14 13:48:51","新北市土城區城林路6巷80號","121.438436666667","24.9797583333333","6501300","土城區"
"236060","915-UM","2018/09/14 13:48:52","新北市土城區城林路6巷80號","121.438445","24.97985","6501300","土城區"
"242051","172-VK","2018/09/14 13:48:45","新北市新莊區公園路11號","121.447906666667","25.0395066666667","6500500","新莊區"
"221010","269-BY","2018/09/14 13:48:44","新北市汐止區長青路210巷190號","121.616231666667","25.1129766666667","6501100","汐止區"
"220027","145-BY","2018/09/14 13:48:43","新北市板橋區民權路202巷4弄2號","121.459786666667","25.01434","6500100","板橋區"
"220028","200-UY","2018/09/14 13:48:54","新北市板橋區大觀路二段265巷60弄4號","121.442558333333","24.9980933333333","6500100","板橋區"
"220030","610-BX","2018/09/14 13:48:47","新北市板橋區篤行路三段71號","121.42733","24.98551","6500100","板橋區"
"220050","245-BX","2018/09/14 13:48:48","新北市板橋區民生路二段161巷1號","121.470075","25.0201433333333","6500100","板橋區"
"220004","276-BY","2018/09/14 13:48:46","新北市板橋區四川路二段71號","121.45329","24.9950116666667","6500100","板橋區"
"220020","277-BY","2018/09/14 13:48:38","新北市板橋區大觀路三段36巷6號","121.434051666667","24.9958683333333","6500100","板橋區"
"220043","280-UM","2018/09/14 13:48:53","新北市板橋區民生路二段161巷1號","121.47021","25.0198483333333","6500100","板橋區"
"220019","283-VK","2018/09/14 13:48:46","新北市板橋區忠孝路176巷23號","121.465241666667","25.001795","6500100","板橋區"
"220001","285-VK","2018/09/14 13:48:41","新北市板橋區民生路二段123號","121.470661666667","25.0187016666667","6500100","板橋區"
"220031","286-VK","2018/09/14 13:48:46","新北市板橋區大觀路一段38巷156弄142號","121.44362","25.00862","6500100","板橋區"
"220029","287-VK","2018/09/14 13:48:43","新北市板橋區光華街12巷1號","121.45424","25.0116183333333","6500100","板橋區"
"220009","293-UM","2018/09/14 13:48:47","新北市板橋區民生路二段56-6號","121.470765","25.01891","6500100","板橋區"
"220046","299-UM","2018/09/14 13:48:58","新北市板橋區民生路二段120號","121.470318333333","25.0197633333333","6500100","板橋區"
"220023","303-R5","2018/09/14 13:48:47","新北市板橋區南雅東路77號","121.453291666667","25.0078583333333","6500100","板橋區"
"220010","305-R5","2018/09/14 13:48:52","新北市板橋區中山路二段23號","121.472428333333","25.0152366666667","6500100","板橋區"
"220012","486-VK","2018/09/14 13:48:48","新北市板橋區民生路二段36-1號","121.472103333333","25.0167916666667","6500100","板橋區"
"220104","560-BX","2018/09/14 13:48:41","新北市板橋區中正路325巷41號","121.453406666667","25.0192766666667","6500100","板橋區"
"220052","561-BX","2018/09/14 13:48:34","新北市板橋區民生路二段120號","121.470431666667","25.0196533333333","6500100","板橋區"
"220032","568-UM","2018/09/14 13:48:51","新北市板橋區大觀路二段150巷34號","121.441611666667","24.9999366666667","6500100","板橋區"
"220011","609-BX","2018/09/14 13:48:38","新北市板橋區民生路二段121號","121.47076","25.0183733333333","6500100","板橋區"
"220040","637-BX","2018/09/14 13:48:46","新北市板橋區民生路二段161巷1號","121.470076666667","25.01995","6500100","板橋區"
"220005","686-BX","2018/09/14 13:48:48","新北市板橋區南雅南路二段4巷2號","121.45445","25.0038333333333","6500100","板橋區"
"220025","687-BX","2018/09/14 13:48:55","新北市板橋區篤行路一段39號","121.432","24.994115","6500100","板橋區"
"220042","689-BX","2018/09/14 13:48:40","新北市板橋區民生路二段161巷1號","121.470063333333","25.020225","6500100","板橋區"
"220002","741-BX","2018/09/14 13:48:42","新北市板橋區後埔街13號","121.460401666667","25.0067766666667","6500100","板橋區"
"220051","KEA-2699","2018/09/14 13:48:55","新北市板橋區民生路二段120號","121.470345","25.01978","6500100","板橋區"
"220003","827-TW","2018/09/14 13:48:46","新北市板橋區中山路一段158號","121.465855","25.0120016666667","6500100","板橋區"
"220014","829-TW","2018/09/14 13:48:44","新北市板橋區民生路二段5號","121.47298","25.01582","6500100","板橋區"
"220016","830-TW","2018/09/14 13:48:36","新北市板橋區民生路二段123號","121.470748333333","25.0186283333333","6500100","板橋區"
"220022","895-R6","2018/09/14 13:48:46","新北市板橋區南門街39號","121.457226666667","25.0086283333333","6500100","板橋區"
"220021","985-R7","2018/09/14 13:48:52","新北市板橋區南門街2號","121.457466666667","25.00932","6500100","板橋區"
"220018","AAC-253","2018/09/14 13:48:39","新北市板橋區館前西路15號","121.458903333333","25.0069583333333","6500100","板橋區"
"235032","KEA-2873","2018/09/14 13:48:48","新北市中和區圓通路265巷29號","121.4961","24.9925466666667","6500300","中和區"
"235025","KEA-2875","2018/09/14 13:48:52","新北市中和區民享街54巷7號","121.473626666667","25.0023283333333","6500300","中和區"
