"lineid","car","time","location","longitude","latitude","cityid","cityname"
"234044","148-BY","2018/09/14 14:08:16","新北市永和區得和路382-1號","121.524945","24.9993516666667","6500400","永和區"
"234001","149-BY","2018/09/14 14:08:14","新北市永和區永利路81巷7號","121.521676666667","25.00405","6500400","永和區"
"234005","207-UY","2018/09/14 14:08:14","新北市永和區保平路290號","121.508146666667","25.0045033333333","6500400","永和區"
"234078","298-R6","2018/09/14 14:08:18","新北市永和區國中路32號","121.524646666667","25.0055383333333","6500400","永和區"
"234036","336-UY","2018/09/14 14:08:21","新北市永和區成功路一段47巷15號","121.527645","25.0040033333333","6500400","永和區"
"234062","337-UY","2018/09/14 14:08:12","新北市永和區永利路150號","121.522441666667","25.0028933333333","6500400","永和區"
"234084","338-UY","2018/09/14 14:08:09","新北市永和區中正路652號","121.516843333333","25.008545","6500400","永和區"
"234068","552-UM","2018/09/14 14:08:06","新北市永和區中正路620號","121.516981666667","25.0078516666667","6500400","永和區"
"234015","745-BX","2018/09/14 14:08:12","新北市永和區仁愛路72號","121.51303","25.0132466666667","6500400","永和區"
"234028","746-BX","2018/09/14 14:08:21","新北市永和區民權路51號","121.520108333333","24.997075","6500400","永和區"
"234052","KEA-2590","2018/09/14 14:08:12","新北市永和區環河東路一段122號","121.520575","25.0154566666667","6500400","永和區"
"234012","KEA-2591","2018/09/14 14:08:09","新北市永和區中山路一段236號","121.507181666667","25.0073483333333","6500400","永和區"
"234060","AAD-866","2018/09/14 14:08:12","新北市永和區安樂路146-1號","121.514201666667","25.0003916666667","6500400","永和區"
"234040","862-TW","2018/09/14 14:08:15","新北市永和區雙和街24號","121.508935","25.0024216666667","6500400","永和區"
"234048","863-TW","2018/09/14 14:08:24","新北市永和區環河西路二段109號","121.506273333333","25.0146233333333","6500400","永和區"
"234025","9371-KE","2018/09/14 14:08:15","新北市永和區安樂路272巷11號","121.514955","25.0044816666667","6500400","永和區"
"234010","9373-KE","2018/09/14 14:08:18","新北市永和區仁愛路352巷122弄8號","121.500655","25.00873","6500400","永和區"
"248019","225-UY","2018/09/14 14:04:29","新北市五股區凌雲路三段57號","121.425318333333","25.12499","6501500","五股區"
"234022","9380-KE","2018/09/14 14:08:23","新北市永和區博愛街32巷17-1號","121.518905","25.0152233333333","6500400","永和區"
"234076","969-R7","2018/09/14 14:08:07","新北市永和區民權路82號","121.519896666667","24.997135","6500400","永和區"
"234072","AAC-211","2018/09/14 14:08:11","新北市永和區豫溪街160巷4號","121.523288333333","25.0095316666667","6500400","永和區"
"234066","AAC-212","2018/09/14 14:08:17","新北市永和區保平路236巷15弄1號","121.50856","25.0063116666667","6500400","永和區"
"234001","AAC-295","2018/09/14 14:08:23","新北市永和區永和路二段8號","121.51455","25.0102933333333","6500400","永和區"
"244004","248-BX","2018/09/14 14:08:03","新北市林口區竹林路265號","121.389585","25.080775","6501700","林口區"
"231002","002-UM","2018/09/14 14:08:20","新北市新店區中正路485號","121.53388","24.9819833333333","6500600","新店區"
"231027","0291-UT","2018/09/14 14:08:24","新北市新店區光明街138巷13弄2號","121.54015","24.96141","6500600","新店區"
"231028","046-UY","2018/09/14 14:08:23","新北市新店區安和路三段157號","121.516513333333","24.9857283333333","6500600","新店區"
"231001","047-UY","2018/09/14 14:08:16","新北市新店區中華路97號","121.53909","24.96911","6500600","新店區"
"231010","107-UY","2018/09/14 14:08:21","新北市新店區安康路一段244-1號","121.521263333333","24.9638983333333","6500600","新店區"
"231022","108-UY","2018/09/14 14:08:12","新北市新店區屈尺路75號","121.545865","24.9226616666667","6500600","新店區"
"231012","187-VK","2018/09/14 14:08:10","新北市新店區中興路一段286號","121.545788333333","24.9689583333333","6500600","新店區"
"231023","KEA-2219","2018/09/14 14:08:24","新北市新店區文中路43號","121.539588333333","24.95683","6500600","新店區"
"231003","268-BY","2018/09/14 14:08:19","新北市新店區中興路一段31號","121.539096666667","24.959425","6500600","新店區"
"231018","278-BY","2018/09/14 14:07:55","新北市新店區中央路99號","121.531015","24.9750183333333","6500600","新店區"
"231016","AAD-862","2018/09/14 14:08:20","新北市新店區北宜路二段392巷1號","121.566078333333","24.9532366666667","6500600","新店區"
"231005","355-BY","2018/09/14 14:08:16","新北市新店區中興路三段307號","121.542018333333","24.985685","6500600","新店區"
"231038","3712-VJ","2018/09/14 14:08:25","新北市新店區安華路30巷3號","121.51958","24.9592233333333","6500600","新店區"
"231037","4716-K9","2018/09/14 14:07:53","新北市新店區安康路三段165巷3號","121.489738333333","24.951455","6500600","新店區"
"231025","4715-K9","2018/09/14 14:08:15","新北市新店區二十張路129巷3弄1號","121.536223333333","24.9789366666667","6500600","新店區"
"231036","512-UM","2018/09/14 14:08:14","新北市新店區安祥路109巷6弄47號","121.475578333333","24.95733","6500600","新店區"
"231013","513-UM","2018/09/14 14:08:12","新北市新店區二十張路1巷5號","121.540555","24.9820616666667","6500600","新店區"
"231006","617-UM","2018/09/14 14:08:21","新北市新店區北宜路二段317號","121.5569","24.95393","6500600","新店區"
"231030","619-UM","2018/09/14 14:08:15","新北市新店區安民街115巷28號","121.51517","24.9675883333333","6500600","新店區"
"231034","641-BX","2018/09/14 14:08:08","新北市新店區車子路11號","121.503035","24.9519916666667","6500600","新店區"
"231035","719-UM","2018/09/14 14:03:22","新北市新店區安和路一段39號","121.517221666667","24.9652733333333","6500600","新店區"
"231032","720-UM","2018/09/14 14:08:20","新北市新店區太平路8號","121.534346666667","24.95792","6500600","新店區"
"231029","897-TW","2018/09/14 14:08:26","新北市新店區安康路二段208號","121.510183333333","24.95947","6500600","新店區"
"231004","899-TW","2018/09/14 14:08:14","新北市新店區北新路二段150號","121.543085","24.9751433333333","6500600","新店區"
"231024","AKT-0513","2018/09/14 14:08:09","新北市新店區安康路二段414巷2號","121.495821666667","24.9577633333333","6500600","新店區"
"235030","003-UY","2018/09/14 14:08:13","新北市中和區廣福路61號","121.502585","25.0012316666667","6500300","中和區"
"235028","005-UY","2018/09/14 14:08:10","新北市中和區中和路34號","121.499908333333","25.0016433333333","6500300","中和區"
"235027","006-UY","2018/09/14 14:08:11","新北市中和區連城路301號","121.489725","24.9963316666667","6500300","中和區"
"235020","096-UM","2018/09/14 14:08:11","新北市中和區中正路1155號","121.481908333333","25.0083683333333","6500300","中和區"
"235003","097-UM","2018/09/14 14:08:25","新北市中和區秀峰街119巷4弄2號","121.51987","24.9903766666667","6500300","中和區"
"235029","098-UM","2018/09/14 14:08:14","新北市中和區中山路二段64巷8號","121.503556666667","25.0051033333333","6500300","中和區"
"235004","150-BY","2018/09/14 14:08:17","新北市中和區宜安路121號","121.509923333333","24.9979083333333","6500300","中和區"
"235022","151-BY","2018/09/14 14:08:15","新北市中和區連城路469巷77號","121.483521666667","24.9940183333333","6500300","中和區"
"235019","183-VK","2018/09/14 14:08:11","新北市中和區德光路92-2號","121.468758333333","25.00348","6500300","中和區"
"235002","185-VK","2018/09/14 14:08:18","新北市中和區大仁街10巷9弄29號","121.51928","24.993025","6500300","中和區"
"235013","186-VK","2018/09/14 14:08:22","新北市中和區南華路46號","121.503956666667","24.9964983333333","6500300","中和區"
"235031","255-BX","2018/09/14 13:55:51","新北市中和區新生街233巷10號","121.48434","24.9985183333333","6500300","中和區"
"235008","293-VK","2018/09/14 14:08:07","新北市中和區中興街202巷10號","121.499265","24.990005","6500300","中和區"
"235036","301-VK","2018/09/14 14:08:17","新北市中和區中山路二段228號","121.49897","25.0026566666667","6500300","中和區"
"235007","352-BY","2018/09/14 14:08:20","新北市中和區景平路98號","121.520331666667","24.9914616666667","6500300","中和區"
"235006","KEA-2878","2018/09/14 14:08:16","新北市中和區自立路16巷4號","121.52162","24.993625","6500300","中和區"
"247011","KEA-2869","2018/09/14 14:08:10","新北市蘆洲區信義路303號","121.47845","25.08608","6501400","蘆洲區"
"235014","4979-A6","2018/09/14 14:08:20","新北市中和區復興路251號","121.503386666667","24.9902366666667","6500300","中和區"
"235033","4980-A6","2018/09/14 14:08:24","新北市中和區中和路217巷10號","121.504365","25.00062","6500300","中和區"
"235034","558-UM","2018/09/14 14:08:22","新北市中和區中和路71號","121.50067","25.0009516666667","6500300","中和區"
"235009","565-BX","2018/09/14 14:08:24","新北市中和區景新街467巷35弄20-3號","121.514073333333","24.9889066666667","6500300","中和區"
"235018","640-BX","2018/09/14 14:08:14","新北市中和區國光街107巷2弄29號","121.469298333333","24.9989566666667","6500300","中和區"
"235011","732-UM","2018/09/14 14:08:08","新北市中和區興南路一段110號","121.509575","24.9886766666667","6500300","中和區"
"235010","733-UM","2018/09/14 14:08:25","新北市中和區忠孝街1巷11號","121.508613333333","24.9836716666667","6500300","中和區"
"235035","783-BX","2018/09/14 14:08:17","新北市中和區立德街98巷85號","121.488505","25.0087116666667","6500300","中和區"
"235021","801-TS","2018/09/14 14:08:12","新北市中和區民利街50號","121.47935","24.9988016666667","6500300","中和區"
"235005","802-TS","2018/09/14 14:08:23","新北市中和區中安街178巷3弄2號","121.510485","24.9990283333333","6500300","中和區"
"235016","805-TS","2018/09/14 14:08:12","新北市中和區興南路二段128巷7弄1-2號","121.503468333333","24.98421","6500300","中和區"
"235012","896-TW","2018/09/14 14:08:10","新北市中和區華新街109巷11弄2-1號","121.507938333333","24.98001","6500300","中和區"
"235017","900-TW","2018/09/14 14:08:16","新北市中和區華福街71巷2號","121.467286666667","24.9968416666667","6500300","中和區"
"235024","911-UM","2018/09/14 14:08:22","新北市中和區民有街94號","121.476023333333","25.00345","6500300","中和區"
"235015","157-BY","2018/09/14 14:08:24","新北市中和區和平街2巷3號","121.510066666667","24.99026","6500300","中和區"
"235001","AAC-213","2018/09/14 14:08:05","新北市中和區秀朗路三段58-2號","121.525921666667","24.995115","6500300","中和區"
"235023","AAC-215","2018/09/14 14:08:25","新北市中和區圓通路294巷17-5號","121.488633333333","24.9904266666667","6500300","中和區"
"220013","072-UY","2018/09/14 14:08:27","新北市板橋區民族路229號","121.469681666667","25.0072566666667","6500100","板橋區"
"220034","073-UY","2018/09/14 14:08:26","新北市板橋區中正路236巷57號","121.45821","25.0195183333333","6500100","板橋區"
"220105","075-UY","2018/09/14 14:08:22","新北市板橋區雙十路三段10巷9號","121.472055","25.0308233333333","6500100","板橋區"
"220017","AAD-861","2018/09/14 14:08:26","新北市板橋區四川路一段154號","121.459741666667","25.00339","6500100","板橋區"
"220039","120-SR","2018/09/14 14:08:11","新北市板橋區裕民街44號","121.46177","25.02884","6500100","板橋區"
"247001","893-R6","2018/09/14 14:08:16","新北市蘆洲區永平街56號","121.457648333333","25.0915016666667","6501400","蘆洲區"
"247015","546-UM","2018/09/14 14:08:27","新北市蘆洲區光華路46巷42號","121.467686666667","25.084455","6501400","蘆洲區"
"247023","500-BY","2018/09/14 14:08:11","新北市蘆洲區光榮路66巷1號","121.463293333333","25.0884316666667","6501400","蘆洲區"
"247005","337-TH","2018/09/14 14:08:22","新北市蘆洲區永安南路二段16巷17弄19號","121.467378333333","25.0778666666667","6501400","蘆洲區"
"247007","336-TH","2018/09/14 14:08:10","新北市蘆洲區國道路二段30-1號","121.474471666667","25.0739766666667","6501400","蘆洲區"
"247019","057-VK","2018/09/14 14:08:07","新北市蘆洲區仁愛街70巷10號","121.471705","25.0940733333333","6501400","蘆洲區"
"247013","053-VK","2018/09/14 14:08:08","新北市蘆洲區保和街50-9號","121.470236666667","25.086455","6501400","蘆洲區"
"247017","007-UY","2018/09/14 14:08:07","新北市蘆洲區復興路105巷11號","121.47636","25.0884683333333","6501400","蘆洲區"
"247003","002-UY","2018/09/14 14:08:19","新北市蘆洲區中華街6巷3號","121.46237","25.0823916666667","6501400","蘆洲區"
"247021","001-UY","2018/09/14 14:08:24","新北市蘆洲區三民路144號","121.470576666667","25.0878733333333","6501400","蘆洲區"
"235026","251-BX","2018/09/14 14:08:16","新北市中和區中山路二段366巷9號","121.491845","25.0042033333333","6500300","中和區"
"207002","749-BX","2018/09/14 14:07:24","新北市萬里區溪底里瑞泉路14號","121.605448333333","25.14726","6502800","萬里區"
"207001","662-BX","2018/09/14 14:08:25","新北市萬里區磺潭里清水18號","121.637816666667","25.19771","6502800","萬里區"
"236067","105-UM","2018/09/14 14:08:21","新北市土城區明德路一段365-1號","121.453636666667","24.9790416666667","6501300","土城區"
"236040","107-UM","2018/09/14 14:08:05","新北市土城區中央路二段93號","121.442183333333","24.97801","6501300","土城區"
"236077","166-UM","2018/09/14 14:08:21","新北市土城區永安街85號","121.431026666667","24.9638133333333","6501300","土城區"
"236029","253-BX","2018/09/14 14:08:14","新北市土城區中央路三段1號","121.439773333333","24.970735","6501300","土城區"
"236024","269-VK","2018/09/14 14:08:23","新北市土城區承天路22號","121.439593333333","24.963375","6501300","土城區"
"236013","270-VK","2018/09/14 14:08:21","新北市土城區學府路二段22巷21號","121.448986666667","24.9815633333333","6501300","土城區"
"236032","271-VK","2018/09/14 14:08:22","新北市土城區金城路二段58號","121.452095","24.9794616666667","6501300","土城區"
"236016","401-BY","2018/09/14 14:08:22","新北市土城區中華路二段2號","121.439351666667","24.9796816666667","6501300","土城區"
"236006","498-BY","2018/09/14 14:08:11","新北市土城區中央路一段120號","121.44652","24.9879533333333","6501300","土城區"
"236057","912-UM","2018/09/14 14:08:18","新北市土城區中央路四段123號","121.416381666667","24.9577233333333","6501300","土城區"
"236045","913-UM","2018/09/14 14:08:11","新北市土城區金城路二段36號","121.45077","24.978445","6501300","土城區"
"236060","915-UM","2018/09/14 14:08:12","新北市土城區金城路一段112號","121.446708333333","24.9758333333333","6501300","土城區"
"236054","AAC-216","2018/09/14 14:08:05","新北市土城區中華路二段2號","121.439301666667","24.979635","6501300","土城區"
"242051","172-VK","2018/09/14 14:08:05","新北市新莊區公園路11號","121.4478","25.0393933333333","6500500","新莊區"
"221010","269-BY","2018/09/14 14:08:24","新北市汐止區長青路210巷52號","121.614856666667","25.1174883333333","6501100","汐止區"
"220027","145-BY","2018/09/14 14:08:22","新北市板橋區民權路260巷7號","121.458338333333","25.0154066666667","6500100","板橋區"
"220028","200-UY","2018/09/14 14:08:21","新北市板橋區大觀路一段29巷179弄32-1號","121.449435","25.00391","6500100","板橋區"
"220030","610-BX","2018/09/14 14:08:24","新北市板橋區溪崑二街101號","121.426938333333","24.989095","6500100","板橋區"
"220050","245-BX","2018/09/14 14:08:09","新北市板橋區民生路二段177號","121.469573333333","25.0201883333333","6500100","板橋區"
"220004","276-BY","2018/09/14 14:08:25","新北市板橋區信義路110巷2弄13號","121.45759","24.9927033333333","6500100","板橋區"
"220020","277-BY","2018/09/14 14:08:19","新北市板橋區金門街372巷33號","121.427368333333","24.98501","6500100","板橋區"
"220043","280-UM","2018/09/14 14:08:12","新北市板橋區光武街154號","121.465153333333","25.0305533333333","6500100","板橋區"
"220019","283-VK","2018/09/14 14:08:23","新北市板橋區重慶路236號","121.462706666667","25.0014966666667","6500100","板橋區"
"220001","285-VK","2018/09/14 14:08:21","新北市板橋區懷仁街24巷23號","121.475671666667","25.019165","6500100","板橋區"
"220031","286-VK","2018/09/14 14:08:26","新北市板橋區龍興街95巷1號","121.443901666667","25.0024266666667","6500100","板橋區"
"220029","287-VK","2018/09/14 14:08:26","新北市板橋區南雅西路一段186號","121.45299","25.0082216666667","6500100","板橋區"
"220009","293-UM","2018/09/14 14:08:07","新北市板橋區三民路二段21巷32號","121.480418333333","25.01815","6500100","板橋區"
"220046","299-UM","2018/09/14 14:06:17","新北市板橋區新海路162號","121.460516666667","25.0235466666667","6500100","板橋區"
"220023","303-R5","2018/09/14 14:08:27","新北市板橋區中正路1巷28號","121.454773333333","25.011245","6500100","板橋區"
"220010","305-R5","2018/09/14 14:08:12","新北市板橋區三民路二段居仁巷1弄22號","121.479931666667","25.0136","6500100","板橋區"
"220041","307-R5","2018/09/14 14:08:16","新北市板橋區文化路二段225巷60弄18號","121.469276666667","25.02888","6500100","板橋區"
"220012","486-VK","2018/09/14 14:08:08","新北市板橋區長安街236-3號","121.475291666667","25.0126966666667","6500100","板橋區"
"220104","560-BX","2018/09/14 14:08:21","新北市板橋區新生街23巷19號","121.45656","25.0225483333333","6500100","板橋區"
"220052","561-BX","2018/09/14 14:08:18","新北市板橋區文化路一段188巷9弄21號","121.468536666667","25.01961","6500100","板橋區"
"220032","568-UM","2018/09/14 14:08:24","新北市板橋區溪崑一街30巷21號","121.429293333333","24.991415","6500100","板橋區"
"220011","609-BX","2018/09/14 14:08:18","新北市板橋區三民路二段169號","121.47919","25.0144666666667","6500100","板橋區"
"220040","637-BX","2018/09/14 14:08:26","新北市板橋區萬板路472號","121.479888333333","25.0259383333333","6500100","板橋區"
"220005","686-BX","2018/09/14 14:08:15","新北市板橋區國慶路280號","121.463406666667","24.9989183333333","6500100","板橋區"
"220025","687-BX","2018/09/14 14:08:15","新北市板橋區龍興街34號","121.443066666667","25.000565","6500100","板橋區"
"220042","689-BX","2018/09/14 14:08:20","新北市板橋區民生路三段203號","121.465136666667","25.027825","6500100","板橋區"
"220002","741-BX","2018/09/14 14:08:23","新北市板橋區重慶路63號","121.461986666667","25.0071266666667","6500100","板橋區"
"220051","KEA-2699","2018/09/14 14:08:21","新北市板橋區萬板路818巷9號","121.483028333333","25.026655","6500100","板橋區"
"220003","827-TW","2018/09/14 14:08:06","新北市板橋區新民街39號","121.464021666667","25.0107216666667","6500100","板橋區"
"220014","829-TW","2018/09/14 14:08:24","新北市板橋區中山路二段90巷43弄23號","121.477143333333","25.0153433333333","6500100","板橋區"
"220016","830-TW","2018/09/14 14:08:16","新北市板橋區翠華街6巷15號","121.48102","25.0244183333333","6500100","板橋區"
"220045","831-TW","2018/09/14 14:08:22","新北市板橋區雙十路二段47巷4號","121.47617","25.0261866666667","6500100","板橋區"
"220038","833-TW","2018/09/14 14:08:10","新北市板橋區文化路二段243號","121.471203333333","25.0287033333333","6500100","板橋區"
"220022","895-R6","2018/09/14 14:08:26","新北市板橋區府中路122號","121.45526","25.0095266666667","6500100","板橋區"
"220021","985-R7","2018/09/14 14:08:14","新北市板橋區民權路182號","121.459318333333","25.0134983333333","6500100","板橋區"
"220018","AAC-253","2018/09/14 14:08:19","新北市板橋區忠孝路2號","121.459373333333","25.0016633333333","6500100","板橋區"
"235032","KEA-2873","2018/09/14 14:08:18","新北市中和區連城路75巷6弄4號","121.497998333333","24.9987483333333","6500300","中和區"
"235025","KEA-2875","2018/09/14 14:08:22","新北市中和區民有街8號","121.475548333333","25.0056233333333","6500300","中和區"
