"lineid","car","time","location","longitude","latitude","cityid","cityname"
"234001","149-BY","2018/09/14 14:19:13","新北市永和區林森路112巷12弄34號","121.522841666667","25.00463","6500400","永和區"
"234005","207-UY","2018/09/14 14:19:14","新北市永和區中正路666巷2號","121.516856666667","25.008965","6500400","永和區"
"234078","298-R6","2018/09/14 14:19:18","新北市永和區福和路19巷14號","121.52436","25.0077716666667","6500400","永和區"
"234036","336-UY","2018/09/14 14:19:21","新北市永和區成功路一段1號","121.527176666667","25.0053816666667","6500400","永和區"
"234062","337-UY","2018/09/14 14:19:12","新北市永和區得和路225號","121.519753333333","25.0003066666667","6500400","永和區"
"234084","338-UY","2018/09/14 14:19:21","新北市永和區永和路二段216號","121.5156","25.0139883333333","6500400","永和區"
"234068","552-UM","2018/09/14 14:19:06","新北市永和區福和路263巷22號","121.517946666667","25.0064666666667","6500400","永和區"
"234028","746-BX","2018/09/14 14:19:21","新北市永和區民權路55號","121.52006","24.99689","6500400","永和區"
"234052","KEA-2590","2018/09/14 14:19:12","新北市永和區博愛街20巷2號","121.51773","25.0157866666667","6500400","永和區"
"234060","AAD-866","2018/09/14 14:19:11","新北市永和區安樂路194巷19號","121.51587","25.001075","6500400","永和區"
"234040","862-TW","2018/09/14 14:19:15","新北市中和區中安街230號","121.512225","24.9986083333333","6500400","永和區"
"234048","863-TW","2018/09/14 14:19:20","新北市永和區新生路49號","121.508976666667","25.016415","6500400","永和區"
"234025","9371-KE","2018/09/14 14:19:15","新北市永和區安樂路144巷26號","121.515243333333","24.9996533333333","6500400","永和區"
"248019","225-UY","2018/09/14 14:04:29","新北市五股區凌雲路三段57號","121.425318333333","25.12499","6501500","五股區"
"234022","9380-KE","2018/09/14 14:19:23","新北市永和區竹林路27號","121.517363333333","25.01468","6500400","永和區"
"234076","969-R7","2018/09/14 14:19:07","新北市永和區民族街81巷60號","121.52013","24.9965083333333","6500400","永和區"
"234072","AAC-211","2018/09/14 14:19:11","新北市永和區竹林路119巷30弄9號","121.522533333333","25.0116883333333","6500400","永和區"
"234066","AAC-212","2018/09/14 14:19:23","新北市永和區保平路292巷13弄8號","121.507045","25.00544","6500400","永和區"
"234001","AAC-295","2018/09/14 14:19:23","新北市永和區中正路612號","121.517026666667","25.007485","6500400","永和區"
"244004","248-BX","2018/09/14 14:19:23","新北市林口區竹林路267號","121.389528333333","25.0808466666667","6501700","林口區"
"231002","002-UM","2018/09/14 14:19:20","新北市新店區中央路238號","121.529203333333","24.97233","6500600","新店區"
"231027","0291-UT","2018/09/14 14:19:24","新北市新店區北新路二段2號","121.542523333333","24.9705283333333","6500600","新店區"
"231028","046-UY","2018/09/14 14:19:23","新北市新店區安和路二段220號","121.517903333333","24.975775","6500600","新店區"
"231001","047-UY","2018/09/14 14:19:16","新北市新店區北新路一段96巷23號","121.542975","24.9687583333333","6500600","新店區"
"231022","108-UY","2018/09/14 14:19:12","新北市新店區新烏路二段126號","121.54951","24.92041","6500600","新店區"
"231012","187-VK","2018/09/14 14:19:10","新北市新店區五峰路63巷8弄74號","121.547941666667","24.968505","6500600","新店區"
"231023","KEA-2219","2018/09/14 14:19:04","新北市新店區光明街100號","121.538988333333","24.9605416666667","6500600","新店區"
"231003","268-BY","2018/09/14 14:19:19","新北市新店區中興路一段185號","121.543016666667","24.9649483333333","6500600","新店區"
"231018","278-BY","2018/09/14 14:19:15","新北市新店區中央四街47號","121.527845","24.974945","6500600","新店區"
"231016","AAD-862","2018/09/14 14:19:20","新北市新店區北宜路三段86號","121.577748333333","24.9514483333333","6500600","新店區"
"231005","355-BY","2018/09/14 14:19:16","新北市新店區中興路三段217號","121.543513333333","24.982265","6500600","新店區"
"231038","3712-VJ","2018/09/14 14:19:25","新北市新店區溪洲路101-1號","121.532343333333","24.9622216666667","6500600","新店區"
"231037","4716-K9","2018/09/14 14:19:13","新北市新店區車子路10-2號","121.504691666667","24.9547266666667","6500600","新店區"
"231036","512-UM","2018/09/14 14:19:14","新北市新店區安祥路109巷151弄14號","121.47784","24.9588483333333","6500600","新店區"
"231013","513-UM","2018/09/14 14:19:12","新北市新店區建國路249號","121.537636666667","24.9825483333333","6500600","新店區"
"231006","617-UM","2018/09/14 14:19:22","新北市新店區北宜路二段599號","121.568153333333","24.9555883333333","6500600","新店區"
"231030","619-UM","2018/09/14 14:19:15","新北市新店區安民街3巷1號","121.514645","24.96434","6500600","新店區"
"231034","641-BX","2018/09/14 14:19:08","新北市新店區車子路11號","121.503018333333","24.951935","6500600","新店區"
"231035","719-UM","2018/09/14 14:19:22","新北市新店區安和路二段113巷1弄2號","121.518268333333","24.9702133333333","6500600","新店區"
"231032","720-UM","2018/09/14 14:19:14","新北市新店區碧潭路33號","121.533655","24.9551583333333","6500600","新店區"
"231029","897-TW","2018/09/14 14:19:06","新北市新店區安康路二段294號","121.507886666667","24.9584783333333","6500600","新店區"
"231004","899-TW","2018/09/14 14:19:24","新北市新店區中正路223號","121.539583333333","24.9730616666667","6500600","新店區"
"231024","AKT-0513","2018/09/14 14:19:09","新北市新店區安民街35巷9弄14號","121.514681666667","24.9654583333333","6500600","新店區"
"235030","003-UY","2018/09/14 14:19:13","新北市中和區中和路159號","121.502755","24.9999166666667","6500300","中和區"
"235028","005-UY","2018/09/14 14:19:10","新北市中和區南山路81巷19號","121.502496666667","24.9981483333333","6500300","中和區"
"235027","006-UY","2018/09/14 14:19:11","新北市中和區中正路262號","121.495403333333","24.9944366666667","6500300","中和區"
"235020","096-UM","2018/09/14 14:19:11","新北市中和區民富街36號","121.476685","25.0065666666667","6500300","中和區"
"235003","097-UM","2018/09/14 14:19:25","新北市中和區秀峰街127巷10號","121.519138333333","24.9907783333333","6500300","中和區"
"235029","098-UM","2018/09/14 14:19:14","新北市中和區永和路62號","121.498886666667","25.0044633333333","6500300","中和區"
"235004","150-BY","2018/09/14 14:19:16","新北市中和區安平路56號","121.510455","24.9957416666667","6500300","中和區"
"235022","151-BY","2018/09/14 14:19:15","新北市中和區連城路501號","121.482555","24.99553","6500300","中和區"
"235019","183-VK","2018/09/14 14:19:11","新北市中和區中山路三段181巷2號","121.472815","25.0059666666667","6500300","中和區"
"235002","185-VK","2018/09/14 14:19:23","新北市中和區大仁街10巷52號","121.520475","24.9926683333333","6500300","中和區"
"235013","186-VK","2018/09/14 14:19:22","新北市中和區景新街230巷3號","121.50821","24.9941266666667","6500300","中和區"
"235031","255-BX","2018/09/14 14:19:14","新北市中和區中正路738號","121.485388333333","24.9977283333333","6500300","中和區"
"235008","293-VK","2018/09/14 14:19:26","新北市中和區復興路314號","121.500953333333","24.9902933333333","6500300","中和區"
"235036","301-VK","2018/09/14 14:19:17","新北市中和區福祥路90巷5號","121.499463333333","25.0057933333333","6500300","中和區"
"235007","352-BY","2018/09/14 14:19:20","新北市中和區景平路296號","121.513003333333","24.9925016666667","6500300","中和區"
"235006","KEA-2878","2018/09/14 14:19:16","新北市中和區安樂路217巷21弄16號","121.513986666667","24.99781","6500300","中和區"
"247011","KEA-2869","2018/09/14 14:19:10","新北市蘆洲區民權路36號","121.476261666667","25.0864566666667","6501400","蘆洲區"
"235014","4979-A6","2018/09/14 14:19:20","新北市中和區景安路208巷2號","121.5038","24.9910783333333","6500300","中和區"
"235033","4980-A6","2018/09/14 14:19:24","新北市中和區景平路736巷1弄10號","121.497433333333","25.0039983333333","6500300","中和區"
"235034","558-UM","2018/09/14 14:19:22","新北市中和區中山路二段274號","121.4968","25.0023583333333","6500300","中和區"
"235009","565-BX","2018/09/14 14:19:24","新北市中和區景新街383巷36號","121.513711666667","24.9906833333333","6500300","中和區"
"235018","640-BX","2018/09/14 14:19:14","新北市中和區國光街109巷28號","121.469406666667","24.9996333333333","6500300","中和區"
"235011","732-UM","2018/09/14 14:19:08","新北市中和區景平路239巷59弄19號","121.508918333333","24.9917083333333","6500300","中和區"
"235010","733-UM","2018/09/14 14:19:23","新北市中和區忠孝街2巷16號","121.510755","24.9813483333333","6500300","中和區"
"235035","783-BX","2018/09/14 14:19:17","新北市中和區中山路二段454號","121.489046666667","25.0051466666667","6500300","中和區"
"235021","801-TS","2018/09/14 14:19:12","新北市中和區員山路423巷16號","121.480336666667","25.00275","6500300","中和區"
"235005","802-TS","2018/09/14 14:19:23","新北市中和區安平路118號","121.511915","24.99755","6500300","中和區"
"235016","805-TS","2018/09/14 14:19:12","新北市中和區華新街151號","121.50616","24.9815883333333","6500300","中和區"
"235012","896-TW","2018/09/14 14:19:10","新北市中和區華新街109巷5號","121.509046666667","24.98192","6500300","中和區"
"235017","900-TW","2018/09/14 14:19:16","新北市中和區華順街57號","121.466418333333","24.9985233333333","6500300","中和區"
"235024","911-UM","2018/09/14 14:19:22","新北市中和區員山路294巷17號","121.482281666667","25.002375","6500300","中和區"
"235015","157-BY","2018/09/14 14:19:24","新北市中和區南山路323號","121.505216666667","24.99133","6500300","中和區"
"235001","AAC-213","2018/09/14 14:19:25","新北市中和區自立路15巷25號","121.523128333333","24.9959716666667","6500300","中和區"
"235023","AAC-215","2018/09/14 14:19:05","新北市中和區圓通路286巷26號","121.492038333333","24.9915283333333","6500300","中和區"
"220013","072-UY","2018/09/14 14:19:07","新北市板橋區國泰街76巷32號","121.467111666667","25.0071183333333","6500100","板橋區"
"220034","073-UY","2018/09/14 14:19:06","新北市板橋區中正路216巷10號","121.45638","25.0183966666667","6500100","板橋區"
"220105","075-UY","2018/09/14 14:19:21","新北市板橋區長江路三段24巷5號","121.472623333333","25.033275","6500100","板橋區"
"220017","AAD-861","2018/09/14 14:19:24","新北市板橋區大明街20巷29弄7號","121.458281666667","25.00343","6500100","板橋區"
"220039","120-SR","2018/09/14 14:19:10","新北市板橋區長江路一段106巷13弄12號","121.460556666667","25.02933","6500100","板橋區"
"247001","893-R6","2018/09/14 14:19:16","新北市蘆洲區永樂街75號","121.456143333333","25.0886766666667","6501400","蘆洲區"
"247015","546-UM","2018/09/14 14:19:07","新北市蘆洲區中正路185巷31弄24號","121.466743333333","25.0836583333333","6501400","蘆洲區"
"247023","500-BY","2018/09/14 14:19:11","新北市蘆洲區長榮路707號","121.460968333333","25.09281","6501400","蘆洲區"
"247005","337-TH","2018/09/14 14:19:22","新北市蘆洲區長安街23巷19號","121.463575","25.0785083333333","6501400","蘆洲區"
"247007","336-TH","2018/09/14 14:19:10","新北市蘆洲區中山一路223巷10號","121.474001666667","25.0805516666667","6501400","蘆洲區"
"247019","057-VK","2018/09/14 14:19:07","新北市蘆洲區民族路434-1號","121.473365","25.0920583333333","6501400","蘆洲區"
"247009","056-VK","2018/09/14 14:19:14","新北市蘆洲區三民路26巷26弄1號","121.47767","25.08295","6501400","蘆洲區"
"247013","053-VK","2018/09/14 14:19:08","新北市蘆洲區中山一路196號","121.473701666667","25.0808066666667","6501400","蘆洲區"
"247017","007-UY","2018/09/14 14:19:27","新北市蘆洲區民權路99號","121.47274","25.0891233333333","6501400","蘆洲區"
"247003","002-UY","2018/09/14 14:19:19","新北市蘆洲區中原路12巷25號","121.460713333333","25.0839383333333","6501400","蘆洲區"
"247021","001-UY","2018/09/14 14:19:22","新北市蘆洲區仁愛街212巷28-1號","121.46419","25.094635","6501400","蘆洲區"
"235026","251-BX","2018/09/14 14:19:16","新北市中和區中山路二段380巷37號","121.490695","25.0049983333333","6500300","中和區"
"207002","749-BX","2018/09/14 14:19:24","新北市萬里區溪底里瑞泉路2-3號","121.610405","25.143415","6502800","萬里區"
"207001","662-BX","2018/09/14 14:19:25","新北市萬里區磺潭里清水18號","121.637843333333","25.1976833333333","6502800","萬里區"
"236067","105-UM","2018/09/14 14:19:21","新北市土城區明德路一段193號","121.463788333333","24.97896","6501300","土城區"
"236040","107-UM","2018/09/14 14:19:25","新北市土城區裕生路21巷2弄31號","121.447981666667","24.986035","6501300","土城區"
"236077","166-UM","2018/09/14 14:19:27","新北市土城區中央路三段281巷23弄19號","121.426303333333","24.961555","6501300","土城區"
"236029","253-BX","2018/09/14 14:19:17","新北市土城區順風路63號","121.440158333333","24.977295","6501300","土城區"
"236024","269-VK","2018/09/14 14:19:23","新北市土城區承天路67號","121.439596666667","24.963425","6501300","土城區"
"236013","270-VK","2018/09/14 14:19:21","新北市土城區青雲路39巷7號","121.46027","24.9874983333333","6501300","土城區"
"236032","271-VK","2018/09/14 14:19:22","新北市土城區青雲路483巷4號","121.459248333333","24.9735966666667","6501300","土城區"
"236016","401-BY","2018/09/14 14:19:22","新北市土城區永豐路202巷5-1號","121.466418333333","24.9831883333333","6501300","土城區"
"236006","498-BY","2018/09/14 14:19:11","新北市土城區中華路一段56巷18號","121.444708333333","24.989485","6501300","土城區"
"236057","912-UM","2018/09/14 14:19:11","新北市土城區中央路四段466號","121.409976666667","24.95058","6501300","土城區"
"236045","913-UM","2018/09/14 14:19:11","新北市土城區明德路一段375-1號","121.455016666667","24.978105","6501300","土城區"
"236060","915-UM","2018/09/14 14:19:12","新北市土城區金城路三段202號","121.469295","24.9884216666667","6501300","土城區"
"236054","AAC-216","2018/09/14 14:19:05","新北市土城區中華路二段193號","121.438161666667","24.9743483333333","6501300","土城區"
"242051","172-VK","2018/09/14 14:19:05","新北市新莊區公園路11號","121.447856666667","25.0394466666667","6500500","新莊區"
"221010","269-BY","2018/09/14 14:19:24","新北市汐止區八連路二段312號","121.629536666667","25.09898","6501100","汐止區"
"220027","145-BY","2018/09/14 14:19:22","新北市板橋區民權路202巷21弄1號","121.46056","25.0171883333333","6500100","板橋區"
"220028","200-UY","2018/09/14 14:19:22","新北市板橋區大觀路二段3巷81號","121.449938333333","25.0033883333333","6500100","板橋區"
"220030","610-BX","2018/09/14 14:19:23","新北市板橋區金門街338號","121.428146666667","24.9845933333333","6500100","板橋區"
"220050","245-BX","2018/09/14 14:19:09","新北市板橋區雙十路二段4-3號","121.477003333333","25.025595","6500100","板橋區"
"220004","276-BY","2018/09/14 14:19:27","新北市板橋區信義路89號","121.45787","24.9942133333333","6500100","板橋區"
"220020","277-BY","2018/09/14 14:19:18","新北市板橋區篤行路三段1號","121.429465","24.987675","6500100","板橋區"
"220043","280-UM","2018/09/14 14:19:13","新北市板橋區吳鳳路17巷26弄1號","121.467446666667","25.0296466666667","6500100","板橋區"
"220019","283-VK","2018/09/14 14:19:21","新北市板橋區忠孝路48巷9弄2-1號","121.461278333333","25.0000666666667","6500100","板橋區"
"220001","285-VK","2018/09/14 14:19:24","新北市板橋區富山街18巷16號","121.478561666667","25.0226516666667","6500100","板橋區"
"220031","286-VK","2018/09/14 14:19:06","新北市板橋區龍興街65巷74號","121.442038333333","25.0021483333333","6500100","板橋區"
"220029","287-VK","2018/09/14 14:19:26","新北市板橋區大觀路一段29巷131弄136號","121.451701666667","25.0039433333333","6500100","板橋區"
"220009","293-UM","2018/09/14 14:19:27","新北市板橋區成功路6巷15號","121.476075","25.0171383333333","6500100","板橋區"
"220046","299-UM","2018/09/14 14:19:21","新北市板橋區漢生西路89巷5弄12號","121.46106","25.0194533333333","6500100","板橋區"
"220023","303-R5","2018/09/14 14:19:07","新北市板橋區南雅南路一段60-1號","121.455406666667","25.00529","6500100","板橋區"
"220010","305-R5","2018/09/14 14:19:12","新北市板橋區三民路二段153巷7弄1號","121.48068","25.015095","6500100","板橋區"
"220041","307-R5","2018/09/14 14:19:16","新北市板橋區松江街53號","121.468578333333","25.0275866666667","6500100","板橋區"
"220012","486-VK","2018/09/14 14:19:08","新北市板橋區縣民大道二段3號","121.462503333333","25.0118766666667","6500100","板橋區"
"220104","560-BX","2018/09/14 14:19:21","新北市板橋區中正路399巷13弄2號","121.453213333333","25.022605","6500100","板橋區"
"220052","561-BX","2018/09/14 14:19:14","新北市板橋區文化路一段188巷7弄16號","121.46765","25.0196633333333","6500100","板橋區"
"220032","568-UM","2018/09/14 14:19:24","新北市板橋區滿平街135號","121.42888","24.988215","6500100","板橋區"
"220011","609-BX","2018/09/14 14:19:22","新北市中和區員山路570號","121.478895","25.0113983333333","6500100","板橋區"
"220040","637-BX","2018/09/14 14:19:05","新北市板橋區文聖街223號","121.480426666667","25.025675","6500100","板橋區"
"220005","686-BX","2018/09/14 14:19:08","新北市板橋區和平路178號","121.463361666667","24.995485","6500100","板橋區"
"220025","687-BX","2018/09/14 14:19:15","新北市板橋區大觀路二段113號","121.446035","25.001585","6500100","板橋區"
"220042","689-BX","2018/09/14 14:19:20","新北市板橋區漢生西路79巷2號","121.46272","25.0193233333333","6500100","板橋區"
"220002","741-BX","2018/09/14 14:19:22","新北市板橋區實踐路183號","121.464408333333","25.0033966666667","6500100","板橋區"
"220051","KEA-2699","2018/09/14 14:18:55","新北市板橋區松柏街61-1號","121.476023333333","25.0304683333333","6500100","板橋區"
"220003","827-TW","2018/09/14 14:19:23","新北市板橋區館前東路156巷2號","121.464466666667","25.0074616666667","6500100","板橋區"
"220014","829-TW","2018/09/14 14:19:24","新北市板橋區長安街138巷3弄37號","121.473948333333","25.0097133333333","6500100","板橋區"
"220016","830-TW","2018/09/14 14:19:23","新北市板橋區翠華街6巷96號","121.481813333333","25.0242316666667","6500100","板橋區"
"220045","831-TW","2018/09/14 14:19:22","新北市板橋區大同街36號","121.47842","25.0272516666667","6500100","板橋區"
"220038","833-TW","2018/09/14 14:19:10","新北市板橋區文化路一段309-1號","121.465953333333","25.0199666666667","6500100","板橋區"
"220022","895-R6","2018/09/14 14:19:26","新北市板橋區北門街60號","121.456516666667","25.0114","6500100","板橋區"
"220021","985-R7","2018/09/14 14:19:12","新北市板橋區中正路385號","121.454301666667","25.0216366666667","6500100","板橋區"
"220018","AAC-253","2018/09/14 14:19:27","新北市板橋區忠孝路136號","121.46354","25.00232","6500100","板橋區"
"235032","KEA-2873","2018/09/14 14:19:18","新北市中和區景平路493巷15號","121.499433333333","24.99716","6500300","中和區"
"235025","KEA-2875","2018/09/14 14:19:22","新北市中和區員山路150-2號","121.481283333333","24.997335","6500300","中和區"
