"lineid","car","time","location","longitude","latitude","cityid","cityname"
"234001","149-BY","2018/09/14 15:28:21","新北市五股區成泰路三段544-1號","121.45403","25.10198","6500400","永和區"
"234084","338-UY","2018/09/14 15:28:09","新北市永和區福和路1號","121.526393333333","25.0095416666667","6500400","永和區"
"231002","002-UM","2018/09/14 15:28:20","新北市新店區環河路182-6號","121.533196666667","24.970225","6500600","新店區"
"231028","046-UY","2018/09/14 15:28:24","新北市新店區僑信路104號","121.500068333333","24.9472","6500600","新店區"
"231022","108-UY","2018/09/14 15:28:12","新北市新店區永福路80號","121.561021666667","24.92767","6500600","新店區"
"231012","187-VK","2018/09/14 15:28:10","新北市新店區寶元路一段84巷1號","121.544456666667","24.9837933333333","6500600","新店區"
"231039","188-VK","2018/09/14 15:28:25","新北市新店區寶元路一段85巷2號","121.543015","24.9856216666667","6500600","新店區"
"231023","KEA-2219","2018/09/14 15:28:24","新北市新店區北新路一段339號","121.54189","24.9687283333333","6500600","新店區"
"231026","256-BX","2018/09/14 15:28:14","新北市新店區三民路117巷5弄2號","121.534206666667","24.9712383333333","6500600","新店區"
"231003","268-BY","2018/09/14 15:28:19","新北市新店區寶高路120巷1號","121.554585","24.9761083333333","6500600","新店區"
"231018","278-BY","2018/09/14 15:28:15","新北市新店區民生路149巷16號","121.529151666667","24.9799133333333","6500600","新店區"
"231016","AAD-862","2018/09/14 15:28:20","新北市新店區明山路45號","121.56377","24.95594","6500600","新店區"
"231005","355-BY","2018/09/14 15:28:16","新北市新店區民權路90巷36號","121.537053333333","24.9844033333333","6500600","新店區"
"231038","3712-VJ","2018/09/14 15:28:25","新北市新店區安華路28-1號","121.519895","24.9608666666667","6500600","新店區"
"231037","4716-K9","2018/09/14 15:28:13","新北市新店區安興路91巷28-1號","121.512083333333","24.9746983333333","6500600","新店區"
"231025","4715-K9","2018/09/14 15:28:15","新北市新店區安康路一段297號","121.522473333333","24.9637216666667","6500600","新店區"
"231036","512-UM","2018/09/14 15:28:14","新北市新店區安祥路67巷50弄7號","121.484516666667","24.95892","6500600","新店區"
"231006","617-UM","2018/09/14 15:28:21","新北市新店區安華路16號","121.517103333333","24.95811","6500600","新店區"
"231030","619-UM","2018/09/14 15:28:15","新北市新店區安和路二段205巷1號","121.517676666667","24.9751133333333","6500600","新店區"
"231034","641-BX","2018/09/14 15:28:08","新北市新店區富貴街6巷1號","121.49449","24.94995","6500600","新店區"
"231035","719-UM","2018/09/14 15:28:22","新北市新店區安興路81號","121.5154","24.97515","6500600","新店區"
"231032","720-UM","2018/09/14 15:28:14","新北市新店區裕合街26號","121.489203333333","24.950015","6500600","新店區"
"231029","897-TW","2018/09/14 15:28:06","新北市新店區安康路三段525巷45號","121.481703333333","24.944795","6500600","新店區"
"231004","899-TW","2018/09/14 15:28:14","新北市新店區民族路105號","121.538105","24.97732","6500600","新店區"
"241011","013-R5","2018/09/14 15:28:27","新北市三重區泉州街96巷6號","121.495588333333","25.053385","6500200","三重區"
"241015","062-VK","2018/09/14 15:28:20","新北市三重區重新路四段121號","121.484708333333","25.0525633333333","6500200","三重區"
"241017","063-VK","2018/09/14 15:28:08","新北市三重區捷運路36號","121.48298","25.0549566666667","6500200","三重區"
"241003","091-VK","2018/09/14 15:20:11","新北市三重區重新路四段121號","121.485228333333","25.05228","6500200","三重區"
"241013","270-UM","2018/09/14 15:28:12","新北市三重區新北大道一段250號","121.479875","25.0613583333333","6500200","三重區"
"241007","398-BY","2018/09/14 15:28:08","新北市三重區重新路四段121號","121.485098333333","25.0524416666667","6500200","三重區"
"241029","942-UM","2018/09/14 15:28:27","新北市三重區重新路四段121號","121.484843333333","25.0521966666667","6500200","三重區"
"241033","AAC-255","2018/09/14 15:28:25","新北市三重區成功路97號","121.487963333333","25.0514583333333","6500200","三重區"
"235006","KEA-2878","2018/09/14 15:28:16","新北市中和區中正路410號","121.492216666667","24.9942816666667","6500300","中和區"
"235014","4979-A6","2018/09/14 15:28:20","新北市中和區景安路82巷8弄1號","121.504856666667","24.9963283333333","6500300","中和區"
"235033","4980-A6","2018/09/14 15:28:23","新北市中和區連城路347巷16弄15號","121.488091666667","24.9948266666667","6500300","中和區"
"235046","733-UM","2018/09/14 15:27:54","新北市中和區員山路36巷13號","121.484155","24.9908633333333","6500300","中和區"
"235035","783-BX","2018/09/14 15:28:17","新北市中和區中板路47巷15號","121.482156666667","25.0115883333333","6500300","中和區"
"235012","896-TW","2018/09/14 15:28:12","新北市中和區景新街421號","121.512886666667","24.9892183333333","6500300","中和區"
"235023","AAC-215","2018/09/14 15:28:25","新北市中和區員山路28-5號","121.482016666667","24.986705","6500300","中和區"
"227003","400-TW","2018/09/14 15:28:19","新北市雙溪區三貂里政光路3-1號","121.850788333333","25.0630133333333","6502500","雙溪區"
"236067","105-UM","2018/09/14 15:28:21","新北市土城區學府路2段185巷37-1號","121.447415","24.9776083333333","6501300","土城區"
"236040","107-UM","2018/09/14 15:28:25","新北市土城區學享街31號","121.451533333333","24.9873533333333","6501300","土城區"
"236077","166-UM","2018/09/14 15:28:28","新北市土城區中州路30巷5號","121.413416666667","24.9586716666667","6501300","土城區"
"236029","253-BX","2018/09/14 15:28:14","新北市土城區中央路一段240號","121.444616666667","24.9849533333333","6501300","土城區"
"236024","269-VK","2018/09/14 15:28:23","新北市土城區裕生路102巷18號","121.44637","24.9847866666667","6501300","土城區"
"236013","270-VK","2018/09/14 15:28:21","新北市土城區廣明街10號","121.45595","24.99201","6501300","土城區"
"236032","271-VK","2018/09/14 15:28:22","新北市土城區延吉街351號","121.464611666667","24.9839766666667","6501300","土城區"
"236016","401-BY","2018/09/14 15:28:22","新北市土城區延吉街96號","121.470521666667","24.986335","6501300","土城區"
"236057","912-UM","2018/09/14 15:28:11","新北市土城區中央路一段324號","121.4432","24.9815966666667","6501300","土城區"
"236045","913-UM","2018/09/14 15:28:26","新北市土城區青雲路245號","121.459055","24.981085","6501300","土城區"
"236060","915-UM","2018/09/14 15:28:12","新北市土城區立德路113號","121.464046666667","24.9875216666667","6501300","土城區"
"236054","AAC-216","2018/09/14 15:28:25","新北市土城區金城路三段41號","121.46588","24.9868333333333","6501300","土城區"
"220050","245-BX","2018/09/14 15:28:09","新北市板橋區縣民大道二段200巷17號","121.470031666667","25.01768","6500100","板橋區"
"220052","561-BX","2018/09/14 15:28:12","新北市板橋區漢生東路45號","121.465671666667","25.0167683333333","6500100","板橋區"
"220038","833-TW","2018/09/14 15:28:10","新北市板橋區四維路308號","121.462498333333","25.0297316666667","6500100","板橋區"
