"lineid","car","time","location","longitude","latitude","cityid","cityname"
"234001","149-BY","2018/09/14 17:01:31","新北市永和區福和路1號","121.526391666667","25.0097716666667","6500400","永和區"
"249005","172-UM","2018/09/14 17:08:42","新北市八里區華富山5-1號","121.418591666667","25.143745","6502300","八里區"
"249001","173-UM","2018/09/14 17:08:47","新北市八里區中華路二段312號","121.40376","25.1481983333333","6502300","八里區"
"249004","303-UY","2018/09/14 17:08:49","新北市八里區忠孝路181號","121.423016666667","25.1607766666667","6502300","八里區"
"249002","305-UY","2018/09/14 17:08:56","新北市八里區龍米路二段153巷1號","121.4408","25.1518566666667","6502300","八里區"
"249003","593-UM","2018/09/14 17:08:44","新北市八里區中山路二段411號","121.397303333333","25.146365","6502300","八里區"
"244007","080-UY","2018/09/14 17:08:53","新北市林口區菁埔26-68號","121.376695","25.0955383333333","6501700","林口區"
"244019","403-UM","2018/09/14 17:08:51","新北市林口區文化一路一段190巷7弄3號","121.38028","25.07496","6501700","林口區"
"244013","KEA-2802","2018/09/14 17:08:47","新北市林口區粉寮路二段88巷100-12號","121.409555","25.09019","6501700","林口區"
"244017","485-VK","2018/09/14 17:08:57","新北市林口區粉寮路二段88巷100-12號","121.409751666667","25.0901966666667","6501700","林口區"
"244025","837-TS","2018/09/14 17:08:50","新北市林口區中山路248號","121.386465","25.0793433333333","6501700","林口區"
"231046","107-UY","2018/09/14 17:08:53","新北市新店區直潭路92號","121.530921666667","24.9375883333333","6500600","新店區"
"241011","013-R5","2018/09/14 17:08:47","新北市三重區龍濱路196號","121.501028333333","25.0733066666667","6500200","三重區"
"241028","022-UY","2018/09/14 17:08:56","新北市三重區重新路三段110號","121.49225","25.0603366666667","6500200","三重區"
"241008","059-VK","2018/09/14 17:08:51","新北市三重區力行路二段138-1號","121.482386666667","25.0756366666667","6500200","三重區"
"241022","060-VK","2018/09/14 17:08:57","新北市三重區重陽路二段18巷2號","121.48643","25.0623716666667","6500200","三重區"
"241015","062-VK","2018/09/14 17:08:40","新北市三重區長生街14號","121.499255","25.0663933333333","6500200","三重區"
"241017","063-VK","2018/09/14 17:08:48","新北市三重區中正北路25巷23號","121.493105","25.06259","6500200","三重區"
"241024","065-VK","2018/09/14 17:08:49","新北市三重區大勇街82巷3號","121.479428333333","25.071295","6500200","三重區"
"241026","066-VK","2018/09/14 17:08:59","新北市三重區重新路一段43號","121.502281666667","25.06392","6500200","三重區"
"241002","090-VK","2018/09/14 17:08:41","新北市三重區五華街35巷20號","121.495011666667","25.0812116666667","6500200","三重區"
"241003","091-VK","2018/09/14 17:08:48","新北市三重區富福街99號","121.493203333333","25.085405","6500200","三重區"
"241016","266-UM","2018/09/14 17:08:56","新北市三重區中正北路25巷25弄1號","121.493198333333","25.0626166666667","6500200","三重區"
"241009","267-UM","2018/09/14 17:08:46","新北市三重區三和路四段211-18號","121.482293333333","25.0799","6500200","三重區"
"241018","268-UM","2018/09/14 17:08:54","新北市三重區六張街91號","121.4926","25.06992","6500200","三重區"
"241032","269-UM","2018/09/14 17:08:56","新北市三重區重陽路一段117巷1號","121.486776666667","25.060285","6500200","三重區"
"241013","270-UM","2018/09/14 17:08:52","新北市三重區仁昌街36號","121.496993333333","25.0741466666667","6500200","三重區"
"241025","271-UM","2018/09/14 17:08:48","新北市三重區中正北路560巷38號","121.471425","25.068265","6500200","三重區"
"241007","398-BY","2018/09/14 17:08:48","新北市三重區三和路四段163巷18號","121.484723333333","25.07905","6500200","三重區"
"241004","475-VK","2018/09/14 17:08:51","新北市三重區五華街92巷3號","121.492556666667","25.082175","6500200","三重區"
"241020","478-VK","2018/09/14 17:08:49","新北市三重區自強路三段23號","121.487103333333","25.0724166666667","6500200","三重區"
"241030","480-VK","2018/09/14 17:08:57","新北市三重區集成路13號","121.488706666667","25.052145","6500200","三重區"
"241014","543-UM","2018/09/14 17:08:38","新北市三重區龍濱路120-6號","121.501821666667","25.0713183333333","6500200","三重區"
"241023","545-UM","2018/09/14 17:08:54","新北市三重區忠孝路三段84巷1號","121.480246666667","25.0645566666667","6500200","三重區"
"241001","547-UM","2018/09/14 17:08:52","新北市三重區五華街6號","121.49498","25.0799","6500200","三重區"
"241019","KEA-2593","2018/09/14 17:08:57","新北市三重區自強路二段74巷25號","121.487681666667","25.069605","6500200","三重區"
"241006","AAD-863","2018/09/14 17:08:44","新北市三重區三和路四段218巷14號","121.485735","25.0764516666667","6500200","三重區"
"241031","743-BX","2018/09/14 17:08:57","新北市三重區重陽路一段113巷2弄2號","121.487465","25.0598983333333","6500200","三重區"
"241005","887-TS","2018/09/14 17:08:47","新北市三重區仁愛街670號","121.482238333333","25.080525","6500200","三重區"
"241012","941-UM","2018/09/14 17:08:49","新北市三重區仁壽街200號","121.501026666667","25.0748233333333","6500200","三重區"
"241029","942-UM","2018/09/14 17:08:47","新北市三重區重安街27號","121.491123333333","25.0570933333333","6500200","三重區"
"241033","AAC-255","2018/09/14 17:08:45","新北市三重區中興北街271號","121.46907","25.0605916666667","6500200","三重區"
"247012","KEA-2869","2018/09/14 17:08:50","新北市蘆洲區信義路349號","121.477663333333","25.0873283333333","6501400","蘆洲區"
"247002","893-R6","2018/09/14 17:08:47","新北市蘆洲區永樂街62號","121.457285","25.0884833333333","6501400","蘆洲區"
"247016","546-UM","2018/09/14 17:08:44","新北市蘆洲區光華路73巷17號","121.468516666667","25.0823133333333","6501400","蘆洲區"
"247024","500-BY","2018/09/14 17:08:52","新北市蘆洲區長興路62號","121.463185","25.0838933333333","6501400","蘆洲區"
"247006","337-TH","2018/09/14 17:08:35","新北市蘆洲區長安街108巷26號","121.461935","25.0822933333333","6501400","蘆洲區"
"247008","336-TH","2018/09/14 17:08:41","新北市蘆洲區信義路30巷85號","121.474936666667","25.0775116666667","6501400","蘆洲區"
"247020","057-VK","2018/09/14 17:08:58","新北市蘆洲區仁愛街62巷10號","121.471885","25.0940716666667","6501400","蘆洲區"
"247010","056-VK","2018/09/14 17:08:52","新北市蘆洲區民族路5號","121.475716666667","25.0839883333333","6501400","蘆洲區"
"247014","053-VK","2018/09/14 17:08:58","新北市蘆洲區中央路61-7號","121.473465","25.083135","6501400","蘆洲區"
"247018","007-UY","2018/09/14 17:08:51","新北市蘆洲區復興路87巷5號","121.476213333333","25.0877433333333","6501400","蘆洲區"
"247004","002-UY","2018/09/14 17:08:56","新北市蘆洲區長安街193巷18號","121.459645","25.08156","6501400","蘆洲區"
"247022","001-UY","2018/09/14 17:08:54","新北市蘆洲區三民路230號","121.468715","25.0896883333333","6501400","蘆洲區"
"228002","663-BX","2018/09/14 17:08:57","新北市貢寮區龍崗里嵩陽街38號","121.909621666667","25.01668","6502600","貢寮區"
"228001","670-TC","2018/09/14 17:08:57","新北市貢寮區仁理村研海街45號","121.92626","25.0411783333333","6502600","貢寮區"
"228003","828-UM","2018/09/14 17:08:58","新北市貢寮區福隆里東興街10-6號","121.951275","25.0195016666667","6502600","貢寮區"
"224006","676-BX","2018/09/14 17:09:00","新北市瑞芳區大寮路91號","121.780828333333","25.0975833333333","6501200","瑞芳區"
"224008","285-BY","2018/09/14 17:08:54","新北市瑞芳區侯硐路119-1號","121.831241666667","25.0899316666667","6501200","瑞芳區"
"224007","275-VK","2018/09/14 17:08:37","新北市瑞芳區楓子瀨路3-1號","121.775006666667","25.1033983333333","6501200","瑞芳區"
"224009","273-VK","2018/09/14 17:08:48","新北市瑞芳區濱二路30號","121.841268333333","25.1159616666667","6501200","瑞芳區"
"224005","271-BY","2018/09/14 17:08:42","新北市瑞芳區鼻頭路117號","121.916421666667","25.12237","6501200","瑞芳區"
"227011","642-TC","2018/09/14 17:08:37","新北市雙溪區牡丹里下坑23號","121.852043333333","25.0560516666667","6502500","雙溪區"
"227003","400-TW","2018/09/14 17:08:59","新北市雙溪區長源里柑腳11號","121.805375","25.0153783333333","6502500","雙溪區"
"251004","009-UM","2018/09/14 17:08:51","新北市淡水區中正路28號","121.444365","25.1690633333333","6501000","淡水區"
"251005","010-UM","2018/09/14 17:08:40","新北市淡水區中正東路36-1號","121.448993333333","25.16577","6501000","淡水區"
"251008","KEA-2871","2018/09/14 17:08:54","新北市淡水區樹梅坑9號","121.472721666667","25.1426766666667","6501000","淡水區"
"251010","413-VK","2018/09/14 17:08:44","新北市淡水區中正路二段31號","121.419538333333","25.1815283333333","6501000","淡水區"
"251012","441-VK","2018/09/14 17:08:46","新北市淡水區中山北路一段156號","121.44417","25.1779383333333","6501000","淡水區"
"251006","561-UM","2018/09/14 17:08:53","新北市淡水區新生街68號","121.438451666667","25.1746216666667","6501000","淡水區"
"251009","575-R6","2018/09/14 17:08:53","新北市淡水區三民街21號","121.439065","25.17185","6501000","淡水區"
"251007","577-R6","2018/09/14 17:08:45","新北市淡水區中正東路二段153號","121.459638333333","25.1461633333333","6501000","淡水區"
"251011","650-BX","2018/09/14 17:08:47","新北市淡水區坪頂路22號","121.45656","25.1616483333333","6501000","淡水區"
"252002","178-VK","2018/09/14 17:08:59","新北市三芝區忠孝街1-14號","121.505558333333","25.253945","6502100","三芝區"
"252001","292-VK","2018/09/14 17:08:57","新北市三芝區埔頭里埔頭39-3號","121.499233333333","25.260855","6502100","三芝區"
"242056","751-BX","2018/09/14 17:08:57","新北市新莊區新泰路357巷3弄39號","121.442425","25.040355","6500500","新莊區"
"242027","615-BX","2018/09/14 17:09:01","新北市新莊區新泰路255巷83號","121.44228","25.03885","6500500","新莊區"
"242025","613-BX","2018/09/14 17:08:46","新北市新莊區新泰路255巷83號","121.442291666667","25.0390983333333","6500500","新莊區"
"242044","566-BX","2018/09/14 17:08:49","新北市新莊區新泰路357巷3弄57號","121.44203","25.0390516666667","6500500","新莊區"
"242048","497-BY","2018/09/14 17:08:44","新北市新莊區中正路471號","121.44192","25.0338833333333","6500500","新莊區"
"242054","442-UM","2018/09/14 17:08:39","新北市新莊區中正路471號","121.441975","25.0334166666667","6500500","新莊區"
"242039","415-TV","2018/09/14 17:08:58","新北市新莊區新泰路357巷2-2號","121.441863333333","25.0413233333333","6500500","新莊區"
"242046","400-BY","2018/09/14 17:08:51","新北市新莊區新泰路357巷3弄57號","121.442488333333","25.039665","6500500","新莊區"
"242023","362-BY","2018/09/14 17:09:00","新北市新莊區三和路12-21號","121.44223","25.0386633333333","6500500","新莊區"
"242060","353-BY","2018/09/14 17:08:46","新北市新莊區瓊林南路305巷35號","121.435966666667","25.0051716666667","6500500","新莊區"
"242041","133-UY","2018/09/14 17:08:44","新北市新莊區中正路384號","121.442006666667","25.0348166666667","6500500","新莊區"
"242019","175-VK","2018/09/14 17:08:52","新北市新莊區三和路12-21號","121.441993333333","25.038595","6500500","新莊區"
"242007","176-VK","2018/09/14 17:08:51","新北市新莊區新泰路255巷83號","121.442146666667","25.0388316666667","6500500","新莊區"
"242032","348-TH","2018/09/14 17:08:45","新北市新莊區新泰路357巷3弄57號","121.441986666667","25.0395116666667","6500500","新莊區"
"242021","350-TH","2018/09/14 17:08:48","新北市新莊區新泰路381巷38號","121.44242","25.0436266666667","6500500","新莊區"
"242015","351-TH","2018/09/14 17:08:51","新北市新莊區新泰路357巷3弄57號","121.441821666667","25.039505","6500500","新莊區"
"238023","601-UM","2018/09/14 17:08:55","新北市樹林區中山路二段230號","121.409111666667","24.9802666666667","6500700","樹林區"
"238019","599-UM","2018/09/14 17:08:50","新北市樹林區太平路273巷23號","121.421198333333","24.9763283333333","6500700","樹林區"
"238018","571-TV","2018/09/14 17:08:42","新北市樹林區環河路10號","121.426701666667","24.9787316666667","6500700","樹林區"
"238022","KEA-2213","2018/09/14 17:08:49","新北市樹林區八德街283號","121.423336666667","24.978525","6500700","樹林區"
"238025","303-VK","2018/09/14 17:08:47","新北市樹林區中山路一段296號","121.42037","24.9864283333333","6500700","樹林區"
"238017","283-BY","2018/09/14 17:08:49","新北市樹林區中山路二段222-2號","121.410378333333","24.9806033333333","6500700","樹林區"
"238020","268-VK","2018/09/14 17:08:41","新北市樹林區文化街120巷19號","121.416251666667","24.9902733333333","6500700","樹林區"
"238026","172-UY","2018/09/14 17:08:51","新北市樹林區東順街111號","121.407716666667","24.9753766666667","6500700","樹林區"
"238016","169-UY","2018/09/14 17:08:59","新北市樹林區中華路190-6號","121.410443333333","24.98053","6500700","樹林區"
"239007","AAC-297","2018/09/14 17:08:53","新北市鶯歌區文化路303號","121.352555","24.952505","6500800","鶯歌區"
"239006","891-R6","2018/09/14 17:08:58","新北市鶯歌區八德路2巷17號","121.336988333333","24.94727","6500800","鶯歌區"
"239008","527-UM","2018/09/14 17:08:47","新北市鶯歌區尖山路89號","121.348695","24.9493116666667","6500800","鶯歌區"
"239005","526-UM","2018/09/14 17:08:50","新北市鶯歌區德昌街42-1號","121.333398333333","24.9601316666667","6500800","鶯歌區"
"239001","417-VK","2018/09/14 17:08:43","新北市鶯歌區尖山路86巷24號","121.34712","24.94963","6500800","鶯歌區"
"239002","359-BY","2018/09/14 17:08:41","新北市鶯歌區建國路136號","121.351375","24.9539866666667","6500800","鶯歌區"
"239004","193-VK","2018/09/14 17:08:57","新北市鶯歌區文化路324巷6-4號","121.350366666667","24.94497","6500800","鶯歌區"
"242009","280-VK","2018/09/14 17:08:55","新北市新莊區新泰路357巷3弄57號","121.441931666667","25.0392716666667","6500500","新莊區"
