"lineid","car","time","location","longitude","latitude","cityid","cityname"
"234054","KEA-2590","2018/09/14 17:48:14","新北市永和區福和路1號","121.525988333333","25.0093433333333","6500400","永和區"
"234026","9371-KE","2018/09/14 17:48:12","新北市永和區永平路164號","121.511031666667","25.00892","6500400","永和區"
"249005","172-UM","2018/09/14 17:48:22","新北市八里區荖阡坑路34-1號","121.402738333333","25.1297583333333","6502300","八里區"
"249001","173-UM","2018/09/14 17:48:27","新北市八里區龍米路二段143號","121.444035","25.1492233333333","6502300","八里區"
"249004","303-UY","2018/09/14 17:48:29","新北市八里區中華路一段309巷19-13號","121.417386666667","25.15336","6502300","八里區"
"249002","305-UY","2018/09/14 17:48:17","新北市八里區龍形三街2號","121.450565","25.13204","6502300","八里區"
"249003","593-UM","2018/09/14 17:48:24","新北市八里區中山路二段56巷1號","121.407186666667","25.1541516666667","6502300","八里區"
"248008","095-VK","2018/09/14 17:48:31","新北市五股區中興路二段83巷26-6號","121.460121666667","25.075125","6501500","五股區"
"248018","225-UY","2018/09/14 17:48:13","新北市五股區中興路二段83巷26-3號","121.46009","25.075345","6501500","五股區"
"248002","678-BX","2018/09/14 17:48:22","新北市五股區中興路二段83巷26-6號","121.460073333333","25.0752466666667","6501500","五股區"
"232011","375-UM","2018/09/14 17:48:13","新北市坪林區北宜路八段242號","121.70921","24.9349333333333","6502000","坪林區"
"244023","069-UM","2018/09/14 17:48:18","新北市林口區興林路318巷18號","121.388136666667","25.0705083333333","6501700","林口區"
"244007","080-UY","2018/09/14 17:48:13","新北市林口區佳林路1號","121.387328333333","25.0824833333333","6501700","林口區"
"244019","403-UM","2018/09/14 17:48:11","新北市林口區忠孝路512巷25號","121.371021666667","25.068425","6501700","林口區"
"244013","KEA-2802","2018/09/14 17:48:29","新北市林口區中正路398號","121.384816666667","25.0777716666667","6501700","林口區"
"244017","485-VK","2018/09/14 17:48:17","新北市林口區文化二路一段262-8號","121.371628333333","25.0733083333333","6501700","林口區"
"244009","656-BX","2018/09/14 17:48:22","新北市林口區忠孝路512號","121.384566666667","25.0832416666667","6501700","林口區"
"244011","657-BX","2018/09/14 17:48:32","新北市林口區竹林路1-7號","121.38634","25.0767466666667","6501700","林口區"
"244025","837-TS","2018/09/14 17:48:30","新北市林口區忠孝三路42號","121.36011","25.06998","6501700","林口區"
"244021","838-TS","2018/09/14 17:48:22","新北市林口區仁愛路一段159巷56號","121.397546666667","25.0727283333333","6501700","林口區"
"222003","436-BY","2018/09/14 17:48:14","新北市深坑區文山路三段110號","121.608418333333","24.9990633333333","6501800","深坑區"
"222002","659-BX","2018/09/14 17:48:23","新北市深坑區平埔街22巷8號","121.614911666667","25.000915","6501800","深坑區"
"231046","107-UY","2018/09/14 17:48:26","新北市新店區下石厝路2-1號","121.531568333333","24.9281233333333","6500600","新店區"
"221015","KEA-2785","2018/09/14 17:48:17","新北市汐止區長江街101-5號","121.659038333333","25.073665","6501100","汐止區"
"241008","059-VK","2018/09/14 17:48:11","新北市三重區力行路二段136巷45弄12號","121.478991666667","25.07535","6500200","三重區"
"241024","065-VK","2018/09/14 17:48:29","新北市三重區力行路二段9巷8號","121.48276","25.07234","6500200","三重區"
"241016","266-UM","2018/09/14 17:48:16","新北市三重區新北大道一段7號","121.489635","25.06152","6500200","三重區"
"241007","398-BY","2018/09/14 17:43:55","新北市三重區車路頭街135-1號","121.48418","25.07599","6500200","三重區"
"241033","AAC-255","2018/09/14 17:48:25","新北市三重區光復路一段17號","121.472171666667","25.04738","6500200","三重區"
"235064","005-UY","2018/09/14 17:48:14","新北市中和區員山路36巷16-3號","121.485115","24.9912633333333","6500300","中和區"
"235063","006-UY","2018/09/14 17:48:28","新北市中和區員山路36巷16-3號","121.485053333333","24.9913516666667","6500300","中和區"
"235065","098-UM","2018/09/14 17:48:13","新北市中和區連城路469巷3號","121.483608333333","24.995845","6500300","中和區"
"235058","151-BY","2018/09/14 17:48:12","新北市中和區員山路36巷16-2號","121.485195","24.9917633333333","6500300","中和區"
"247012","KEA-2869","2018/09/14 17:48:10","新北市蘆洲區復興路109-1號","121.477098333333","25.087995","6501400","蘆洲區"
"247002","893-R6","2018/09/14 17:48:27","新北市蘆洲區永平街32巷33弄12號","121.458888333333","25.0922883333333","6501400","蘆洲區"
"247024","500-BY","2018/09/14 17:48:13","新北市蘆洲區長樂路120巷8號","121.462343333333","25.0896566666667","6501400","蘆洲區"
"247006","337-TH","2018/09/14 17:48:15","新北市蘆洲區九芎街90巷1弄1號","121.465613333333","25.0802333333333","6501400","蘆洲區"
"247008","336-TH","2018/09/14 17:48:21","新北市蘆洲區中山一路197巷6弄21號","121.474158333333","25.08019","6501400","蘆洲區"
"247020","057-VK","2018/09/14 17:48:18","新北市蘆洲區民義街71巷23號","121.472403333333","25.0908166666667","6501400","蘆洲區"
"247010","056-VK","2018/09/14 17:48:12","新北市蘆洲區民族路55號","121.478606666667","25.0855116666667","6501400","蘆洲區"
"247014","053-VK","2018/09/14 17:48:18","新北市蘆洲區保和街69巷18號","121.469608333333","25.0853816666667","6501400","蘆洲區"
"247018","007-UY","2018/09/14 17:48:11","新北市蘆洲區復興路227巷2弄28號","121.481605","25.0905733333333","6501400","蘆洲區"
"247022","001-UY","2018/09/14 17:48:17","新北市蘆洲區中正路370號","121.463515","25.0927866666667","6501400","蘆洲區"
"235062","251-BX","2018/09/14 17:44:15","新北市中和區員山路36巷16-3號","121.484851666667","24.9915466666667","6500300","中和區"
"228002","663-BX","2018/09/14 17:48:17","新北市貢寮區福隆里龜壽谷街12號","121.955951666667","25.0063466666667","6502600","貢寮區"
"228001","670-TC","2018/09/14 17:48:17","新北市貢寮區真理里新港街26巷28-6號","121.927833333333","25.0554433333333","6502600","貢寮區"
"228003","828-UM","2018/09/14 17:48:18","新北市貢寮區真理里美艷山街6-2號","121.92884","25.060765","6502600","貢寮區"
"224006","676-BX","2018/09/14 17:48:18","新北市瑞芳區傑魚坑路183號","121.788473333333","25.1083216666667","6501200","瑞芳區"
"224008","285-BY","2018/09/14 17:48:28","新北市瑞芳區明燈路一段194號","121.81888","25.107985","6501200","瑞芳區"
"224009","273-VK","2018/09/14 17:48:28","新北市瑞芳區新山路14號","121.85239","25.1111966666667","6501200","瑞芳區"
"224005","271-BY","2018/09/14 17:48:23","新北市瑞芳區海濱路29-9號","121.830838333333","25.1243116666667","6501200","瑞芳區"
"227011","642-TC","2018/09/14 17:48:17","新北市雙溪區三貂里定福路1-2號","121.850751666667","25.0634283333333","6502500","雙溪區"
"253006","032-BX","2018/09/14 17:48:21","新北市石門區中山路64-1號","121.567435","25.29058","6502200","石門區"
"208002","KEA-2872","2018/09/14 17:48:28","新北市金山區磺清路135號","121.639376666667","25.2276783333333","6502700","金山區"
"208003","665-BX","2018/09/14 17:48:14","新北市金山區磺清路135號","121.639358333333","25.2277016666667","6502700","金山區"
"208001","761-BX","2018/09/14 17:48:14","新北市金山區磺清路135號","121.639396666667","25.22785","6502700","金山區"
"251004","009-UM","2018/09/14 17:48:25","新北市淡水區民權一街12號","121.459116666667","25.1370233333333","6501000","淡水區"
"251005","010-UM","2018/09/14 17:48:19","新北市淡水區學府路100巷17號","121.450923333333","25.1717","6501000","淡水區"
"251008","KEA-2871","2018/09/14 17:48:26","新北市淡水區八勢路一段156號","121.468155","25.156455","6501000","淡水區"
"251010","413-VK","2018/09/14 17:48:23","新北市淡水區淡海路280巷33弄34-2號","121.418756666667","25.1886333333333","6501000","淡水區"
"251012","441-VK","2018/09/14 17:48:26","新北市淡水區北新路一段403號","121.467958333333","25.182675","6501000","淡水區"
"251001","559-UM","2018/09/14 17:48:17","新北市淡水區民權路92巷35-1號","121.462178333333","25.126615","6501000","淡水區"
"251006","561-UM","2018/09/14 17:48:13","新北市淡水區大信街3號","121.441516666667","25.1762533333333","6501000","淡水區"
"251009","575-R6","2018/09/14 17:48:13","新北市淡水區長興街46號","121.444286666667","25.1715616666667","6501000","淡水區"
"251007","577-R6","2018/09/14 17:48:25","新北市淡水區民生路16巷1-1號","121.461023333333","25.1374133333333","6501000","淡水區"
"251011","650-BX","2018/09/14 17:44:07","新北市淡水區吳(仔)厝10-3號","121.4818","25.1487733333333","6501000","淡水區"
"251002","672-BX","2018/09/14 17:48:20","新北市淡水區清水街58號","121.444008333333","25.1702583333333","6501000","淡水區"
"251003","766-UM","2018/09/14 17:48:31","新北市淡水區大忠街5巷1號","121.443158333333","25.176415","6501000","淡水區"
"207003","550-UM","2018/09/14 17:48:17","新北市萬里區野柳里東澳路66號","121.692848333333","25.2009866666667","6502800","萬里區"
"207004","225-TW","2018/09/14 17:48:26","新北市萬里區萬里里瑪鋉路135號","121.688961666667","25.1777433333333","6502800","萬里區"
"252002","178-VK","2018/09/14 17:48:19","新北市三芝區中山路一段88巷15號","121.502961666667","25.2566916666667","6502100","三芝區"
"252001","292-VK","2018/09/14 17:48:17","新北市三芝區淡金路一段4-5號","121.498208333333","25.2597683333333","6502100","三芝區"
"237009","210-TH","2018/09/14 17:48:23","新北市三峽區大勇路27號","121.36722","24.9363833333333","6500900","三峽區"
"237013","252-BX","2018/09/14 17:48:25","新北市三峽區愛國路14號","121.374313333333","24.9335833333333","6500900","三峽區"
"237012","275-BY","2018/09/14 17:48:25","新北市三峽區文化路115號","121.370366666667","24.9360866666667","6500900","三峽區"
"237008","302-VK","2018/09/14 17:48:17","新北市三峽區民權街173號","121.367961666667","24.929985","6500900","三峽區"
"237014","433-BY","2018/09/14 17:48:31","新北市三峽區文化路120巷5號","121.371051666667","24.936615","6500900","三峽區"
"237010","706-TV","2018/09/14 17:48:20","新北市三峽區文化路164號","121.369928333333","24.9360833333333","6500900","三峽區"
"237011","760-BX","2018/09/14 17:48:28","新北市三峽區民權街150號","121.368586666667","24.9318233333333","6500900","三峽區"
"237005","AKY-6261","2018/09/14 17:48:28","新北市三峽區中山路323號","121.360738333333","24.9381266666667","6500900","三峽區"
"236069","105-UM","2018/09/14 17:48:14","新北市土城區城林路6巷80號","121.438586666667","24.9797733333333","6501300","土城區"
"236079","166-UM","2018/09/14 17:48:19","新北市土城區中央路三段112號","121.435315","24.9662516666667","6501300","土城區"
"236014","270-VK","2018/09/14 17:48:29","新北市土城區城林路6巷80號","121.43856","24.9796316666667","6501300","土城區"
"236039","271-VK","2018/09/14 17:48:12","新北市土城區城林路6巷80號","121.438393333333","24.9796583333333","6501300","土城區"
"236020","401-BY","2018/09/14 17:48:15","新北市土城區城林路6巷80號","121.438641666667","24.9797083333333","6501300","土城區"
"236059","912-UM","2018/09/14 17:48:26","新北市土城區中華路二段52號","121.439168333333","24.9775616666667","6501300","土城區"
"236048","913-UM","2018/09/14 17:48:20","新北市土城區城林路6巷80號","121.438785","24.9796666666667","6501300","土城區"
"236063","915-UM","2018/09/14 17:48:12","新北市土城區城林路6巷80號","121.43857","24.9797633333333","6501300","土城區"
"236055","AAC-216","2018/09/14 17:48:26","新北市土城區城林路6巷80號","121.438671666667","24.979685","6501300","土城區"
"242037","AAC-296","2018/09/14 17:48:20","新北市新莊區建福路69巷28號","121.428151666667","25.0271933333333","6500500","新莊區"
"242058","986-R7","2018/09/14 17:48:16","新北市新莊區中正路690號","121.42046","25.028335","6500500","新莊區"
"242056","751-BX","2018/09/14 17:48:28","新北市新莊區瓊林路40巷32號","121.446693333333","25.0302033333333","6500500","新莊區"
"242027","615-BX","2018/09/14 17:48:21","新北市新莊區福壽街208號","121.458078333333","25.0539016666667","6500500","新莊區"
"242025","613-BX","2018/09/14 17:48:29","新北市新莊區新北大道二段167號","121.465103333333","25.0609983333333","6500500","新莊區"
"242044","566-BX","2018/09/14 17:48:29","新北市新莊區中正路871巷9弄8號","121.418853333333","25.0270033333333","6500500","新莊區"
"242048","497-BY","2018/09/14 17:48:23","新北市新莊區萬安街60巷13號","121.420515","25.0232183333333","6500500","新莊區"
"242054","442-UM","2018/09/14 17:48:19","新北市新莊區民安西路415巷4號","121.430818333333","25.0093566666667","6500500","新莊區"
"242039","415-TV","2018/09/14 17:48:21","新北市新莊區民安路143號","121.425261666667","25.0239683333333","6500500","新莊區"
"242046","400-BY","2018/09/14 17:48:31","新北市新莊區建國一路80號","121.43438","25.0303183333333","6500500","新莊區"
"242023","362-BY","2018/09/14 17:48:20","新北市新莊區福樂街45號","121.457605","25.0472616666667","6500500","新莊區"
"242060","353-BY","2018/09/14 17:48:29","新北市新莊區瓊林南路225號","121.434731666667","25.0086766666667","6500500","新莊區"
"242011","132-UY","2018/09/14 17:48:25","新北市新莊區中富街96號","121.449995","25.0560816666667","6500500","新莊區"
"242041","133-UY","2018/09/14 17:48:24","新北市泰山區漢口街32號","121.425935","25.0354266666667","6500500","新莊區"
"242034","135-UY","2018/09/14 17:48:15","新北市新莊區新莊路682-7號","121.440786666667","25.0326933333333","6500500","新莊區"
"242050","172-VK","2018/09/14 17:48:16","新北市新莊區西盛街257巷19號","121.428878333333","25.015945","6500500","新莊區"
"242019","175-VK","2018/09/14 17:48:12","新北市新莊區民樂街46號","121.458006666667","25.0414533333333","6500500","新莊區"
"242007","176-VK","2018/09/14 17:48:11","新北市新莊區福樂街132巷18號","121.45695","25.0487216666667","6500500","新莊區"
"242002","347-TH","2018/09/14 17:48:29","新北市新莊區大觀街39巷19號","121.452856666667","25.0353316666667","6500500","新莊區"
"242032","348-TH","2018/09/14 17:48:25","新北市新莊區新泰路277巷60號","121.442908333333","25.0401433333333","6500500","新莊區"
"242005","349-TH","2018/09/14 17:48:26","新北市新莊區思源路177巷7弄13號","121.458635","25.045265","6500500","新莊區"
"242021","350-TH","2018/09/14 17:48:28","新北市新莊區中港路192號","121.454843333333","25.042335","6500500","新莊區"
"242015","351-TH","2018/09/14 17:48:11","新北市新莊區新泰路502巷40號","121.44368","25.0462966666667","6500500","新莊區"
"238015","755-BX","2018/09/14 17:48:23","新北市樹林區樹德街136巷43號","121.420185","24.9944316666667","6500700","樹林區"
"238023","601-UM","2018/09/14 17:48:15","新北市樹林區龍興街32巷30號","121.401821666667","25.015515","6500700","樹林區"
"238019","599-UM","2018/09/14 17:48:30","新北市樹林區太平路207號","121.418628333333","24.9780816666667","6500700","樹林區"
"238018","571-TV","2018/09/14 17:48:22","新北市樹林區博愛街123號","121.425981666667","24.9906783333333","6500700","樹林區"
"238022","KEA-2213","2018/09/14 17:48:09","新北市樹林區太順街62巷3弄8號","121.417278333333","24.9796216666667","6500700","樹林區"
"238021","KEA-2539","2018/09/14 17:48:15","新北市樹林區柑園街一段21巷2號","121.40475","24.9605666666667","6500700","樹林區"
"238025","303-VK","2018/09/14 17:48:29","新北市樹林區三俊街117號","121.417475","25.0155583333333","6500700","樹林區"
"238017","283-BY","2018/09/14 17:48:29","新北市樹林區俊德街51號","121.415518333333","25.0132616666667","6500700","樹林區"
"238014","282-BY","2018/09/14 17:48:17","新北市樹林區中山路三段204號","121.386796666667","24.9681716666667","6500700","樹林區"
"238020","268-VK","2018/09/14 17:48:21","新北市樹林區俊英街222號","121.424945","25.0099416666667","6500700","樹林區"
"238026","172-UY","2018/09/14 17:48:11","新北市樹林區中洲街30巷6弄2號","121.397316666667","24.9714916666667","6500700","樹林區"
"238016","169-UY","2018/09/14 17:48:19","新北市樹林區復興路359號","121.41726","24.9870716666667","6500700","樹林區"
"239007","AAC-297","2018/09/14 17:48:13","新北市鶯歌區鶯桃路97-3號","121.339143333333","24.9540216666667","6500800","鶯歌區"
"239006","891-R6","2018/09/14 17:48:18","新北市鶯歌區鶯桃路413巷60號","121.33011","24.9632033333333","6500800","鶯歌區"
"239008","527-UM","2018/09/14 17:48:27","新北市鶯歌區大湖路700巷24號","121.333358333333","24.97667","6500800","鶯歌區"
"239005","526-UM","2018/09/14 17:48:30","新北市鶯歌區鳳吉五街33號","121.327406666667","24.9727216666667","6500800","鶯歌區"
"239001","417-VK","2018/09/14 17:48:23","新北市鶯歌區中正三路327號","121.328276666667","24.935465","6500800","鶯歌區"
"239003","360-BY","2018/09/14 17:48:29","新北市鶯歌區鶯桃路244號","121.336223333333","24.9595933333333","6500800","鶯歌區"
"239002","359-BY","2018/09/14 17:48:21","新北市鶯歌區國華路100-1號","121.343388333333","24.9535066666667","6500800","鶯歌區"
"239004","193-VK","2018/09/14 17:48:17","新北市鶯歌區文化路142號","121.352183333333","24.9508766666667","6500800","鶯歌區"
"221008","489-VK","2018/09/14 17:48:21","新北市汐止區康寧街901號","121.651313333333","25.0750466666667","6501100","汐止區"
"221036","130-UY","2018/09/14 17:46:04","新北市汐止區汐萬路一段39號","121.654996666667","25.0690566666667","6501100","汐止區"
"221010","269-BY","2018/09/14 17:48:28","新北市汐止區汐萬路二段122巷36號","121.64853","25.086485","6501100","汐止區"
"221012","278-VK","2018/09/14 17:48:17","新北市汐止區汐萬路一段158號","121.652671666667","25.07131","6501100","汐止區"
"221023","279-VK","2018/09/14 17:48:25","新北市汐止區康寧街591巷4號","121.634893333333","25.07055","6501100","汐止區"
"221032","280-BY","2018/09/14 17:48:13","新北市汐止區大同路一段215-1號","121.63371","25.05739","6501100","汐止區"
"221027","281-BY","2018/09/14 17:48:19","新北市汐止區汐萬路一段267號","121.650678333333","25.074305","6501100","汐止區"
"221021","299-VK","2018/09/14 17:48:20","新北市汐止區水源路一段6號","121.657176666667","25.066885","6501100","汐止區"
"221031","353-TW","2018/09/14 17:48:18","新北市汐止區中興路62號","121.635293333333","25.0614166666667","6501100","汐止區"
"221035","622-UM","2018/09/14 17:48:20","新北市汐止區汐萬路一段220號","121.651788333333","25.072715","6501100","汐止區"
"221025","623-UM","2018/09/14 17:48:19","新北市汐止區大同路二段173號","121.651666666667","25.0643983333333","6501100","汐止區"
"221038","646-BX","2018/09/14 17:48:13","新北市汐止區汐萬路一段216號","121.651925","25.0725983333333","6501100","汐止區"
"221002","707-TV","2018/09/14 17:48:22","新北市汐止區康寧街901號","121.651646666667","25.07494","6501100","汐止區"
"221018","753-BX","2018/09/14 17:48:18","新北市汐止區汐萬路一段39-3號","121.655028333333","25.0692516666667","6501100","汐止區"
"242017","281-VK","2018/09/14 17:48:30","新北市新莊區中港路337號","121.452288333333","25.0453","6500500","新莊區"
"242009","280-VK","2018/09/14 17:48:15","新北市新莊區昌明街60號","121.455601666667","25.05222","6500500","新莊區"
