"lineid","car","time","location","longitude","latitude","cityid","cityname"
"234007","207-UY","2018/09/14 18:12:20","新北市永和區環河東路一段162號","121.521291666667","25.0144566666667","6500400","永和區"
"234054","KEA-2590","2018/09/14 18:12:14","新北市永和區福和路1號","121.526083333333","25.0092933333333","6500400","永和區"
"234026","9371-KE","2018/09/14 18:12:12","新北市永和區自由街33號","121.514351666667","25.0063183333333","6500400","永和區"
"249005","172-UM","2018/09/14 18:12:22","新北市八里區荖阡坑路15-40號","121.40162","25.1399416666667","6502300","八里區"
"249001","173-UM","2018/09/14 18:12:06","新北市八里區龍米路一段470號","121.44983","25.13607","6502300","八里區"
"249004","303-UY","2018/09/14 18:12:14","新北市八里區龍米路二段208號","121.43341","25.1585483333333","6502300","八里區"
"249002","305-UY","2018/09/14 18:12:17","新北市八里區龍米路一段191-1號","121.451413333333","25.1307633333333","6502300","八里區"
"248014","025-BX","2018/09/14 18:12:12","新北市五股區成泰路一段210號","121.43611","25.079015","6501500","五股區"
"248006","077-UY","2018/09/14 18:12:09","新北市五股區中興路二段53號","121.461888333333","25.0764916666667","6501500","五股區"
"248008","095-VK","2018/09/14 18:12:11","新北市蘆洲區永安南路二段294號","121.457271666667","25.08182","6501500","五股區"
"248018","225-UY","2018/09/14 18:12:13","新北市五股區成泰路三段71號","121.443456666667","25.089685","6501500","五股區"
"248012","247-BX","2018/09/14 18:12:15","新北市五股區新五路三段38號","121.444208333333","25.0876216666667","6501500","五股區"
"248016","261-SL","2018/09/14 18:12:04","新北市五股區新五路三段2號","121.444438333333","25.0880366666667","6501500","五股區"
"248010","272-BY","2018/09/14 18:12:04","新北市五股區成泰路一段204號","121.436005","25.0788666666667","6501500","五股區"
"248004","677-BX","2018/09/14 18:12:17","新北市五股區成泰路二段101號","121.43831","25.0842316666667","6501500","五股區"
"248002","678-BX","2018/09/14 18:12:02","新北市五股區新五路三段38號","121.444296666667","25.0878283333333","6501500","五股區"
"244023","069-UM","2018/09/14 18:12:18","新北市林口區東湖路105巷16號","121.383896666667","25.0725066666667","6501700","林口區"
"244007","080-UY","2018/09/14 18:12:13","新北市林口區林口路124巷8號","121.388945","25.0817983333333","6501700","林口區"
"244019","403-UM","2018/09/14 18:12:11","新北市林口區文化一路一段133號","121.373918333333","25.0717033333333","6501700","林口區"
"244013","KEA-2802","2018/09/14 18:12:07","新北市林口區中山路160巷3號","121.390846666667","25.07935","6501700","林口區"
"244017","485-VK","2018/09/14 18:12:17","新北市林口區八德路32號","121.367713333333","25.06668","6501700","林口區"
"244009","656-BX","2018/09/14 18:12:22","新北市林口區中山路490號","121.380133333333","25.0825533333333","6501700","林口區"
"244011","657-BX","2018/09/14 18:12:11","新北市林口區中正路70號","121.394795","25.077385","6501700","林口區"
"244025","837-TS","2018/09/14 18:12:09","新北市林口區文化北路一段299巷16號","121.359778333333","25.0732566666667","6501700","林口區"
"244021","838-TS","2018/09/14 18:12:22","新北市林口區仁愛路一段29號","121.39821","25.0681616666667","6501700","林口區"
"243013","AAD-798","2018/09/14 18:12:03","新北市泰山區南林路109號","121.415996666667","25.047865","6501600","泰山區"
"222003","436-BY","2018/09/14 18:12:14","新北市深坑區文山路二段31號","121.616663333333","24.9988266666667","6501800","深坑區"
"222002","659-BX","2018/09/14 18:12:19","新北市深坑區文化街13號","121.620273333333","25.0012566666667","6501800","深坑區"
"231041","002-UM","2018/09/14 18:12:08","新北市新店區安華路28-1號","121.519813333333","24.9609533333333","6500600","新店區"
"231059","046-UY","2018/09/14 18:12:19","新北市新店區安華路28-1號","121.5198","24.96106","6500600","新店區"
"231040","047-UY","2018/09/14 18:12:12","新北市新店區安華路28-1號","121.519075","24.9608816666667","6500600","新店區"
"231046","107-UY","2018/09/14 18:12:13","新北市新店區直潭路93號","121.532148333333","24.9398483333333","6500600","新店區"
"231053","108-UY","2018/09/14 18:12:14","新北市新店區安華路28-1號","121.519613333333","24.960975","6500600","新店區"
"231065","110-UY","2018/09/14 18:12:12","新北市新店區安一路一段1-1號","121.51889","24.9612266666667","6500600","新店區"
"231048","187-VK","2018/09/14 18:12:06","新北市新店區安一路一段1-1號","121.519723333333","24.9612183333333","6500600","新店區"
"231054","KEA-2219","2018/09/14 18:12:21","新北市新店區安一路一段1-1號","121.51974","24.961385","6500600","新店區"
"221015","KEA-2785","2018/09/14 18:12:17","新北市汐止區鄉長路二段63號","121.667001666667","25.0840383333333","6501100","汐止區"
"231057","256-BX","2018/09/14 18:12:21","新北市新店區安一路一段1-1號","121.51958","24.9611666666667","6500600","新店區"
"231042","268-BY","2018/09/14 18:12:06","新北市新店區安華路28-1號","121.519603333333","24.960675","6500600","新店區"
"231050","AAD-862","2018/09/14 18:12:06","新北市新店區安一路一段1-1號","121.519868333333","24.9612983333333","6500600","新店區"
"231044","355-BY","2018/09/14 18:12:13","新北市新店區安華路28-1號","121.519416666667","24.9609733333333","6500600","新店區"
"231058","3713-VJ","2018/09/14 18:12:07","新北市新店區安華路28-1號","121.519635","24.9607066666667","6500600","新店區"
"231066","4716-K9","2018/09/14 18:12:22","新北市新店區安一路一段1-1號","121.519358333333","24.96139","6500600","新店區"
"231056","4715-K9","2018/09/14 18:12:07","新北市新店區環河路29巷1號","121.535996666667","24.9611733333333","6500600","新店區"
"231067","4772-VM","2018/09/14 18:12:17","新北市新店區安華路28-1號","121.519345","24.96068","6500600","新店區"
"231049","513-UM","2018/09/14 18:12:21","新北市新店區安一路一段1-1號","121.519796666667","24.961105","6500600","新店區"
"231045","617-UM","2018/09/14 18:12:11","新北市新店區安華路28-1號","121.519573333333","24.9610216666667","6500600","新店區"
"231061","619-UM","2018/09/14 18:12:20","新北市新店區安華路28-1號","121.519606666667","24.960715","6500600","新店區"
"231063","641-BX","2018/09/14 18:12:07","新北市新店區安華路28-1號","121.519695","24.9605883333333","6500600","新店區"
"231064","719-UM","2018/09/14 18:07:15","新北市新店區安一路一段1-1號","121.519556666667","24.9614016666667","6500600","新店區"
"231062","720-UM","2018/09/14 18:12:08","新北市新店區安一路一段1-1號","121.51889","24.961705","6500600","新店區"
"231060","897-TW","2018/09/14 18:12:15","新北市新店區安華路28-1號","121.519731666667","24.9607983333333","6500600","新店區"
"231055","AKT-0513","2018/09/14 18:12:03","新北市新店區安華路1-1號","121.51963","24.96049","6500600","新店區"
"241007","398-BY","2018/09/14 18:03:01","新北市三重區車路頭街133號","121.484465","25.0761433333333","6500200","三重區"
"241033","AAC-255","2018/09/14 18:12:05","新北市三重區中興北街139號","121.469246666667","25.0513283333333","6500200","三重區"
"235066","003-UY","2018/09/14 18:12:13","新北市中和區景平路517號","121.499173333333","24.998685","6500300","中和區"
"235064","005-UY","2018/09/14 18:12:14","新北市中和區中正路161巷2號","121.49844","24.9935733333333","6500300","中和區"
"235063","006-UY","2018/09/14 18:12:08","新北市中和區員山路36巷16-3號","121.48505","24.9913666666667","6500300","中和區"
"235056","096-UM","2018/09/14 18:12:04","新北市中和區新生街163號","121.483693333333","25.0010783333333","6500300","中和區"
"235065","098-UM","2018/09/14 18:12:13","新北市中和區莊敬路49巷18號","121.50164","25.006195","6500300","中和區"
"235040","150-BY","2018/09/14 18:12:07","新北市中和區中正路571巷1弄4號","121.486786666667","24.993495","6500300","中和區"
"235058","151-BY","2018/09/14 18:12:12","新北市中和區圓通路367巷59弄16號","121.493081666667","24.98368","6500300","中和區"
"235055","183-VK","2018/09/14 18:12:18","新北市中和區員山路36巷16-2號","121.485165","24.9915583333333","6500300","中和區"
"235038","185-VK","2018/09/14 18:12:19","新北市中和區大智街6號","121.52015","24.9918666666667","6500300","中和區"
"235049","186-VK","2018/09/14 18:12:15","新北市中和區員山路36巷13號","121.484146666667","24.99076","6500300","中和區"
"235072","301-VK","2018/09/14 18:12:15","新北市中和區中正路515號","121.48824","24.9942816666667","6500300","中和區"
"235043","352-BY","2018/09/14 18:12:14","新北市中和區中正路637巷52弄1號","121.485488333333","24.9934666666667","6500300","中和區"
"235042","KEA-2878","2018/09/14 18:12:15","新北市中和區景平路279-5號","121.507635","24.9929433333333","6500300","中和區"
"235050","4979-A6","2018/09/14 18:12:16","新北市中和區中正路271-1號","121.495705","24.9935766666667","6500300","中和區"
"235069","4980-A6","2018/09/14 18:12:21","新北市中和區中正路13號","121.50303","24.9934183333333","6500300","中和區"
"235070","558-UM","2018/09/14 18:12:03","新北市中和區中正路416號","121.491895","24.9939816666667","6500300","中和區"
"235045","565-BX","2018/09/14 18:12:17","新北市中和區中正路171號","121.49777","24.9935733333333","6500300","中和區"
"235054","640-BX","2018/09/14 18:12:09","新北市土城區延壽路77巷2號","121.46914","24.9926716666667","6500300","中和區"
"235047","732-UM","2018/09/14 18:12:10","新北市中和區中興街204號","121.499995","24.9902616666667","6500300","中和區"
"235057","801-TS","2018/09/14 18:12:12","新北市中和區連城路469巷3號","121.483615","24.9958166666667","6500300","中和區"
"235041","802-TS","2018/09/14 18:12:21","新北市中和區和城路一段271巷1號","121.485608333333","24.99176","6500300","中和區"
"235052","805-TS","2018/09/14 18:12:18","新北市中和區中正路271號","121.49592","24.9936933333333","6500300","中和區"
"235048","896-TW","2018/09/14 18:12:11","新北市中和區員山路36巷16-2號","121.484998333333","24.9919516666667","6500300","中和區"
"235053","900-TW","2018/09/14 18:12:18","新北市中和區員山路36巷16-2號","121.485033333333","24.991825","6500300","中和區"
"235060","911-UM","2018/09/14 18:12:03","新北市中和區中正路637巷52弄11號","121.484803333333","24.993685","6500300","中和區"
"235051","157-BY","2018/09/14 18:12:18","新北市中和區捷運路16-2號","121.508748333333","24.9899966666667","6500300","中和區"
"235037","AAC-213","2018/09/14 18:12:15","新北市中和區景平路149號","121.513958333333","24.99199","6500300","中和區"
"235059","AAC-215","2018/09/14 17:59:11","新北市中和區員山路36巷13號","121.484611666667","24.990585","6500300","中和區"
"220065","072-UY","2018/09/14 18:12:03","新北市板橋區華東街1-9號","121.448228333333","24.994965","6500100","板橋區"
"226004","205-ST","2018/09/14 18:12:20","新北市平溪區薯榔里薯榔寮26號","121.714706666667","25.0195916666667","6502400","平溪區"
"235062","251-BX","2018/09/14 18:12:04","新北市中和區中山路二段437號","121.484855","25.0049333333333","6500300","中和區"
"228002","663-BX","2018/09/14 18:12:17","新北市貢寮區福連里馬崗街22號","122.002725","25.0137966666667","6502600","貢寮區"
"228001","670-TC","2018/09/14 18:12:17","新北市貢寮區真理里新港街26巷55弄2-1號","121.927405","25.0529116666667","6502600","貢寮區"
"228003","828-UM","2018/09/14 18:12:18","新北市貢寮區真理里美艷山街8-3號","121.929693333333","25.061905","6502600","貢寮區"
"224006","676-BX","2018/09/14 18:12:18","新北市瑞芳區三爪子坑路192號","121.806481666667","25.1051966666667","6501200","瑞芳區"
"224002","639-TC","2018/09/14 18:12:04","新北市瑞芳區三爪子坑路149巷22-2號","121.811336666667","25.1063833333333","6501200","瑞芳區"
"224008","285-BY","2018/09/14 18:12:10","新北市瑞芳區三爪子坑路89-17號","121.812203333333","25.1073733333333","6501200","瑞芳區"
"224007","275-VK","2018/09/14 18:12:17","新北市瑞芳區頂埔巷51-3號","121.767085","25.1044116666667","6501200","瑞芳區"
"224009","273-VK","2018/09/14 18:12:07","新北市瑞芳區金光路87號","121.856463333333","25.1069533333333","6501200","瑞芳區"
"224005","271-BY","2018/09/14 18:12:23","新北市瑞芳區建基路二段7號","121.808366666667","25.13257","6501200","瑞芳區"
"227011","642-TC","2018/09/14 18:12:20","新北市雙溪區牡丹里牡丹26號","121.852236666667","25.0614733333333","6502500","雙溪區"
"253006","032-BX","2018/09/14 18:12:21","新北市石門區老梅路52巷21號","121.546458333333","25.2885683333333","6502200","石門區"
"253005","295-VK","2018/09/14 18:12:12","新北市石門區中央路37-2號","121.568611666667","25.2949416666667","6502200","石門區"
"222001","KEA-2212","2018/09/14 18:12:03","新北市深坑區北深路二段130號","121.615971666667","25.0028983333333","6501800","深坑區"
"208002","KEA-2872","2018/09/14 18:12:15","新北市金山區清泉里西勢8號","121.62586","25.2345933333333","6502700","金山區"
"208003","665-BX","2018/09/14 18:12:14","新北市金山區民生路80號","121.648548333333","25.2238016666667","6502700","金山區"
"208001","761-BX","2018/09/14 18:12:14","新北市金山區磺港里磺港路31號","121.649061666667","25.2285733333333","6502700","金山區"
"251004","009-UM","2018/09/14 18:12:05","新北市淡水區民族路110巷34號","121.461676666667","25.135265","6501000","淡水區"
"251005","010-UM","2018/09/14 18:12:19","新北市淡水區水源街一段118號","121.447136666667","25.1718033333333","6501000","淡水區"
"251008","KEA-2871","2018/09/14 18:12:14","新北市淡水區淡金路12-3號","121.458346666667","25.1603733333333","6501000","淡水區"
"251010","413-VK","2018/09/14 18:12:03","新北市淡水區中正路二段50巷16號","121.420098333333","25.183365","6501000","淡水區"
"251012","441-VK","2018/09/14 18:12:06","新北市淡水區北新路二段157號","121.48309","25.1856","6501000","淡水區"
"251001","559-UM","2018/09/14 18:12:17","新北市淡水區自立路1巷19號","121.462665","25.1297083333333","6501000","淡水區"
"251006","561-UM","2018/09/14 18:12:13","新北市淡水區新民街76巷16號","121.438951666667","25.1768283333333","6501000","淡水區"
"251011","650-BX","2018/09/14 18:12:07","新北市淡水區三空泉6號","121.477676666667","25.1620516666667","6501000","淡水區"
"251002","672-BX","2018/09/14 18:12:20","新北市淡水區中正東路一段127巷2號","121.455441666667","25.1593666666667","6501000","淡水區"
"251003","766-UM","2018/09/14 18:12:11","新北市淡水區北新路182巷24號","121.44898","25.1779466666667","6501000","淡水區"
"207003","550-UM","2018/09/14 18:12:17","新北市萬里區野柳里港西路78-12號","121.686191666667","25.2065883333333","6502800","萬里區"
"207004","225-TW","2018/09/14 18:12:00","新北市萬里區中幅里中福路161號","121.673363333333","25.1661516666667","6502800","萬里區"
"252002","178-VK","2018/09/14 18:12:19","新北市三芝區中山路二段38號","121.502938333333","25.2551883333333","6502100","三芝區"
"252003","249-BX","2018/09/14 18:12:04","新北市三芝區古庄里山豬堀14號","121.492813333333","25.260265","6502100","三芝區"
"252001","292-VK","2018/09/14 18:12:17","新北市三芝區中興街二段2號","121.498436666667","25.256675","6502100","三芝區"
"237009","210-TH","2018/09/14 18:12:23","新北市三峽區大仁路66巷22號","121.364825","24.9382483333333","6500900","三峽區"
"237013","252-BX","2018/09/14 18:12:05","新北市三峽區長泰街42號","121.378393333333","24.9322366666667","6500900","三峽區"
"237012","275-BY","2018/09/14 18:12:05","新北市三峽區民生街1巷5-21號","121.37869","24.935695","6500900","三峽區"
"237008","302-VK","2018/09/14 18:12:17","新北市三峽區白雞44-50號","121.378431666667","24.9101866666667","6500900","三峽區"
"237014","433-BY","2018/09/14 18:12:11","新北市三峽區復興路110巷4弄14號","121.373375","24.938305","6500900","三峽區"
"237006","5529-G3","2018/09/14 18:12:09","新北市三峽區介壽路三段18號","121.395778333333","24.93633","6500900","三峽區"
"237015","649-BX","2018/09/14 18:12:04","新北市三峽區紫新路48號","121.422143333333","24.9218483333333","6500900","三峽區"
"237010","706-TV","2018/09/14 18:12:11","新北市三峽區中園街18號","121.368386666667","24.927165","6500900","三峽區"
"237011","760-BX","2018/09/14 18:12:08","新北市三峽區光明路94號","121.37568","24.92847","6500900","三峽區"
"237005","AKY-6261","2018/09/14 18:12:08","新北市三峽區忠孝街25-9號","121.371355","24.9343","6500900","三峽區"
"236069","105-UM","2018/09/14 18:12:14","新北市土城區明德路一段128巷7號","121.463281666667","24.979055","6501300","土城區"
"236042","107-UM","2018/09/14 18:12:14","新北市土城區中央路一段291巷16號","121.445086666667","24.9840933333333","6501300","土城區"
"236079","166-UM","2018/09/14 18:12:19","新北市土城區永和街5號","121.434613333333","24.96508","6501300","土城區"
"236030","253-BX","2018/09/14 18:12:15","新北市土城區員福街60號","121.440233333333","24.97926","6501300","土城區"
"236026","269-VK","2018/09/14 18:12:13","新北市土城區承天路18號","121.439268333333","24.9633916666667","6501300","土城區"
"236014","270-VK","2018/09/14 18:12:09","新北市土城區學府路二段168號","121.446256666667","24.9788916666667","6501300","土城區"
"236039","271-VK","2018/09/14 18:12:12","新北市土城區金城路二段10號","121.449091666667","24.9771583333333","6501300","土城區"
"236020","401-BY","2018/09/14 18:12:15","新北市土城區城林路6巷80號","121.438613333333","24.979765","6501300","土城區"
"236059","912-UM","2018/09/14 18:12:06","新北市土城區中央路四段215號","121.413786666667","24.955815","6501300","土城區"
"236048","913-UM","2018/09/14 18:12:20","新北市土城區金城路二段20號","121.449756666667","24.9776566666667","6501300","土城區"
"236063","915-UM","2018/09/14 18:12:12","新北市土城區金城路二段12號","121.449261666667","24.9773266666667","6501300","土城區"
"236055","AAC-216","2018/09/14 18:12:06","新北市土城區中華路二段2號","121.439325","24.9796283333333","6501300","土城區"
"242037","AAC-296","2018/09/14 18:12:02","新北市新莊區建福路48巷3號","121.426221666667","25.027465","6500500","新莊區"
"242058","986-R7","2018/09/14 18:12:15","新北市新莊區新北大道七段219號","121.413615","25.03012","6500500","新莊區"
"242056","751-BX","2018/09/14 18:12:17","新北市新莊區豐年街豐2巷9號","121.446988333333","25.030815","6500500","新莊區"
"242027","615-BX","2018/09/14 18:12:21","新北市新莊區幸福路597號","121.453415","25.049265","6500500","新莊區"
"242025","613-BX","2018/09/14 18:12:06","新北市三重區新北大道二段226-1號","121.467141666667","25.0616333333333","6500500","新莊區"
"242044","566-BX","2018/09/14 18:12:09","新北市新莊區雙鳳路72號","121.415296666667","25.02753","6500500","新莊區"
"242054","442-UM","2018/09/14 18:12:19","新北市新莊區民安西路396號","121.42864","25.010235","6500500","新莊區"
"242039","415-TV","2018/09/14 18:12:17","新北市新莊區民安東路182號","121.433521666667","25.0203133333333","6500500","新莊區"
"242046","400-BY","2018/09/14 18:12:11","新北市新莊區福營路227巷10號","121.430136666667","25.02927","6500500","新莊區"
"242060","353-BY","2018/09/14 18:12:06","新北市新莊區新樹路267號","121.434333333333","25.020985","6500500","新莊區"
"242011","132-UY","2018/09/14 18:12:10","新北市新莊區中港路591巷34號","121.449611666667","25.052325","6500500","新莊區"
"242041","133-UY","2018/09/14 18:12:04","新北市新莊區壽山路41號","121.414875","25.03048","6500500","新莊區"
"242007","176-VK","2018/09/14 18:12:11","新北市新莊區自治街37號","121.454198333333","25.0480633333333","6500500","新莊區"
"242002","347-TH","2018/09/14 18:12:09","新北市新莊區大觀街2號","121.454568333333","25.0341483333333","6500500","新莊區"
"242032","348-TH","2018/09/14 18:12:04","新北市新莊區新泰路255巷18號","121.445248333333","25.039765","6500500","新莊區"
"242005","349-TH","2018/09/14 18:12:06","新北市新莊區中港一街118號","121.448545","25.0452066666667","6500500","新莊區"
"242021","350-TH","2018/09/14 18:12:07","新北市新莊區中華路一段63巷40號","121.450075","25.0392833333333","6500500","新莊區"
"242015","351-TH","2018/09/14 18:12:11","新北市新莊區中平路198巷10號","121.445628333333","25.04843","6500500","新莊區"
"238015","755-BX","2018/09/14 18:12:03","新北市樹林區文德街3巷1號","121.419253333333","24.9914083333333","6500700","樹林區"
"238023","601-UM","2018/09/14 18:06:51","新北市樹林區三福街120號","121.406093333333","25.0162366666667","6500700","樹林區"
"238019","599-UM","2018/09/14 18:12:10","新北市樹林區國凱街136巷29弄1號","121.424101666667","24.979695","6500700","樹林區"
"238018","571-TV","2018/09/14 18:12:22","新北市樹林區博愛一街29巷1號","121.425643333333","24.990995","6500700","樹林區"
"238024","5061-A6","2018/09/14 18:12:09","新北市樹林區保安街一段220號","121.420901666667","24.9963533333333","6500700","樹林區"
"238025","303-VK","2018/09/14 18:12:07","新北市樹林區保安街一段328號","121.418226666667","24.9976833333333","6500700","樹林區"
"238017","283-BY","2018/09/14 18:12:09","新北市樹林區中正路755號","121.410475","25.0153566666667","6500700","樹林區"
"238014","282-BY","2018/09/14 18:12:17","新北市樹林區潭興街7號","121.424213333333","24.9977116666667","6500700","樹林區"
"238020","268-VK","2018/09/14 18:12:01","新北市樹林區俊興街263號","121.418166666667","25.0168133333333","6500700","樹林區"
"238026","172-UY","2018/09/14 18:12:11","新北市樹林區佳園路一段41巷38-5號","121.395201666667","24.97054","6500700","樹林區"
"238016","169-UY","2018/09/14 18:12:19","新北市樹林區文化街28號","121.419325","24.9876733333333","6500700","樹林區"
"239007","AAC-297","2018/09/14 18:12:13","新北市鶯歌區尖山埔路67號","121.348011666667","24.9509183333333","6500800","鶯歌區"
"239006","891-R6","2018/09/14 18:12:18","新北市鶯歌區德昌街140巷6號","121.332056666667","24.960865","6500800","鶯歌區"
"239008","527-UM","2018/09/14 18:12:07","新北市鶯歌區國際一路179號","121.336243333333","24.9765133333333","6500800","鶯歌區"
"239005","526-UM","2018/09/14 18:12:10","新北市鶯歌區鶯桃路668巷17號","121.328866666667","24.9702016666667","6500800","鶯歌區"
"239001","417-VK","2018/09/14 18:12:23","新北市鶯歌區國中街209號","121.33778","24.9388733333333","6500800","鶯歌區"
"239003","360-BY","2018/09/14 18:11:49","新北市鶯歌區福安街38號","121.334501666667","24.964275","6500800","鶯歌區"
"239002","359-BY","2018/09/14 18:12:01","新北市鶯歌區國慶街148號","121.350995","24.9532733333333","6500800","鶯歌區"
"239004","193-VK","2018/09/14 18:12:17","新北市鶯歌區尖山路212巷7號","121.343385","24.947225","6500800","鶯歌區"
"221008","489-VK","2018/09/14 18:12:21","新北市汐止區康寧街613號","121.636301666667","25.07109","6501100","汐止區"
"221036","130-UY","2018/09/14 18:12:23","新北市汐止區長安路60號","121.66888","25.078335","6501100","汐止區"
"221010","269-BY","2018/09/14 18:12:07","新北市汐止區祥雲街40號","121.647445","25.089485","6501100","汐止區"
"221012","278-VK","2018/09/14 18:12:17","新北市汐止區保一街9巷19號","121.674236666667","25.0811083333333","6501100","汐止區"
"221023","279-VK","2018/09/14 18:12:05","新北市汐止區中興路201號","121.629223333333","25.0684583333333","6501100","汐止區"
"221032","280-BY","2018/09/14 18:12:13","新北市汐止區力行街50號","121.616721666667","25.04973","6501100","汐止區"
"221027","281-BY","2018/09/14 18:12:19","新北市汐止區和平街8號","121.663365","25.0707616666667","6501100","汐止區"
"221029","298-VK","2018/09/14 18:12:10","新北市汐止區樟樹二路310號","121.641235","25.0697633333333","6501100","汐止區"
"221021","299-VK","2018/09/14 18:12:16","新北市汐止區龍安路202巷36號","121.652168333333","25.063575","6501100","汐止區"
"221031","353-TW","2018/09/14 18:12:18","新北市汐止區大同路一段219巷27號","121.633301666667","25.0582183333333","6501100","汐止區"
"221035","622-UM","2018/09/14 18:12:15","新北市汐止區汐萬路一段33號","121.655735","25.06788","6501100","汐止區"
"221025","623-UM","2018/09/14 18:12:19","新北市汐止區勤進路12巷23號","121.659266666667","25.0623383333333","6501100","汐止區"
"221038","646-BX","2018/09/14 18:12:13","新北市汐止區仁愛路202號","121.664911666667","25.0657683333333","6501100","汐止區"
"221002","707-TV","2018/09/14 18:12:02","新北市汐止區福德一路213巷33號","121.635701666667","25.0646966666667","6501100","汐止區"
"221018","753-BX","2018/09/14 18:10:58","新北市汐止區忠孝東路397號","121.665648333333","25.070845","6501100","汐止區"
"220073","985-R7","2018/09/14 18:12:08","新北市板橋區華東街1-10號","121.448358333333","24.9949683333333","6500100","板橋區"
"235061","KEA-2875","2018/09/14 18:12:22","新北市土城區延壽路77巷2號","121.469121666667","24.9927633333333","6500300","中和區"
