"lineid","car","time","location","longitude","latitude","cityid","cityname"
"234046","148-BY","2018/09/14 18:59:11","新北市永和區永元路52巷44號","121.524186666667","25.0007966666667","6500400","永和區"
"234007","207-UY","2018/09/14 18:59:20","新北市永和區中山路一段51號","121.512941666667","25.0104733333333","6500400","永和區"
"234081","298-R6","2018/09/14 18:59:20","新北市永和區國中路156號","121.522543333333","25.0066833333333","6500400","永和區"
"234038","336-UY","2018/09/14 18:59:21","新北市永和區成功路二段199-2號","121.526583333333","24.9960416666667","6500400","永和區"
"234064","337-UY","2018/09/14 18:59:21","新北市永和區秀朗路一段140號","121.517966666667","25.0034516666667","6500400","永和區"
"234086","338-UY","2018/09/14 18:59:22","新北市永和區中正路197號","121.51714","24.9993583333333","6500400","永和區"
"234070","552-UM","2018/09/14 18:59:19","新北市永和區中興街68巷5弄1號","121.51773","25.0113816666667","6500400","永和區"
"234017","745-BX","2018/09/14 18:59:14","新北市永和區永和路二段299號","121.515998333333","25.0161933333333","6500400","永和區"
"234030","746-BX","2018/09/14 18:59:13","新北市永和區秀朗路二段289號","121.526175","24.9980733333333","6500400","永和區"
"234054","KEA-2590","2018/09/14 18:59:14","新北市永和區竹林路57號","121.518351666667","25.0136816666667","6500400","永和區"
"234013","KEA-2591","2018/09/14 18:59:06","新北市永和區信義路17巷10號","121.513825","25.0117133333333","6500400","永和區"
"234061","AAD-866","2018/09/14 18:59:10","新北市永和區福和路309巷1號","121.51633","25.0070766666667","6500400","永和區"
"234050","863-TW","2018/09/14 18:59:13","新北市永和區保安路21-1號","121.510395","25.01674","6500400","永和區"
"234026","9371-KE","2018/09/14 18:59:19","新北市永和區安樂路453號","121.514266666667","25.0050316666667","6500400","永和區"
"234011","9373-KE","2018/09/14 18:59:10","新北市永和區信義路77號","121.512343333333","25.0131483333333","6500400","永和區"
"249005","172-UM","2018/09/14 18:59:02","新北市八里區長道坑11號","121.395341666667","25.12285","6502300","八里區"
"249001","173-UM","2018/09/14 18:59:06","新北市八里區龍米路二段228-1號","121.432821666667","25.1584566666667","6502300","八里區"
"248014","025-BX","2018/09/14 18:59:12","新北市五股區民義路一段114號","121.435165","25.0856733333333","6501500","五股區"
"248006","077-UY","2018/09/14 18:59:09","新北市五股區中興路一段13號","121.46918","25.0723433333333","6501500","五股區"
"248008","095-VK","2018/09/14 18:59:11","新北市五股區中興路一段128巷47號","121.465686666667","25.0751766666667","6501500","五股區"
"248018","225-UY","2018/09/14 18:59:13","新北市五股區民義路二段22巷10號","121.421045","25.09744","6501500","五股區"
"248012","247-BX","2018/09/14 18:59:15","新北市五股區工商路38號","121.439411666667","25.0837933333333","6501500","五股區"
"248016","261-SL","2018/09/14 18:59:04","新北市五股區成泰路三段543巷16號","121.45095","25.1022316666667","6501500","五股區"
"248010","272-BY","2018/09/14 18:59:24","新北市五股區水碓三路3-1號","121.4292","25.0707366666667","6501500","五股區"
"248004","677-BX","2018/09/14 18:59:09","新北市五股區民義路二段116號","121.403508333333","25.1125433333333","6501500","五股區"
"248002","678-BX","2018/09/14 18:59:13","新北市五股區凌雲路一段147號","121.449348333333","25.10222","6501500","五股區"
"234023","9380-KE","2018/09/14 18:59:17","新北市永和區竹林路75巷33弄47號","121.52111","25.0145616666667","6500400","永和區"
"234077","969-R7","2018/09/14 18:59:24","新北市永和區得和路104巷16號","121.517908333333","24.9994416666667","6500400","永和區"
"234074","AAC-211","2018/09/14 18:59:17","新北市永和區環河東路二段100號","121.524136666667","25.0103383333333","6500400","永和區"
"234067","AAC-212","2018/09/14 18:59:16","新北市永和區自由街70-8號","121.513553333333","25.0055133333333","6500400","永和區"
"234003","AAC-295","2018/09/14 18:59:04","新北市永和區和平街32號","121.513263333333","25.0099583333333","6500400","永和區"
"232011","375-UM","2018/09/14 18:59:17","新北市坪林區水聳淒坑27號","121.711375","24.9340683333333","6502000","坪林區"
"244023","069-UM","2018/09/14 18:59:18","新北市林口區文化三路二段41巷49號","121.372393333333","25.0794216666667","6501700","林口區"
"244007","080-UY","2018/09/14 18:59:13","新北市林口區太平里28號","121.376773333333","25.1184583333333","6501700","林口區"
"244019","403-UM","2018/09/14 18:59:11","新北市林口區麗園二街47巷13號","121.381451666667","25.06944","6501700","林口區"
"244013","KEA-2802","2018/09/14 18:59:07","新北市林口區麗園二街1巷8-2號","121.378595","25.07043","6501700","林口區"
"244017","485-VK","2018/09/14 18:59:16","新北市林口區文化二路一段68巷10-3號","121.366201666667","25.0687433333333","6501700","林口區"
"244009","656-BX","2018/09/14 18:59:02","新北市林口區竹林路361號","121.387965","25.08451","6501700","林口區"
"244011","657-BX","2018/09/14 18:59:11","新北市林口區仁愛路一段264號","121.394183333333","25.076015","6501700","林口區"
"244025","837-TS","2018/09/14 18:59:09","新北市林口區文化北路一段400-1號","121.363853333333","25.0756133333333","6501700","林口區"
"243013","AAD-798","2018/09/14 18:59:23","新北市泰山區明志路三段206巷3號","121.4233","25.0379166666667","6501600","泰山區"
"243009","297-R6","2018/09/14 18:59:16","新北市泰山區泰林路二段365號","121.42795","25.0637066666667","6501600","泰山區"
"243016","KEA-2801","2018/09/14 18:59:14","新北市泰山區明志路二段152-3號","121.42755","25.050445","6501600","泰山區"
"243015","421-VK","2018/09/14 18:59:17","新北市泰山區美寧街3號","121.430051666667","25.06344","6501600","泰山區"
"243011","KEA-2215","2018/09/14 18:59:13","新北市泰山區明志路二段246-1號","121.4271","25.0480583333333","6501600","泰山區"
"243010","KEA-2216","2018/09/14 18:59:18","新北市泰山區辭修路24號","121.429063333333","25.0581733333333","6501600","泰山區"
"243012","646-TV","2018/09/14 18:59:05","新北市泰山區福興三街158號","121.433023333333","25.0571966666667","6501600","泰山區"
"243014","680-BX","2018/09/14 18:59:13","新北市泰山區黎明路23號","121.420938333333","25.0626116666667","6501600","泰山區"
"222003","436-BY","2018/09/14 18:59:14","新北市深坑區深南路51-1號","121.621376666667","25.01014","6501800","深坑區"
"222002","659-BX","2018/09/14 18:59:18","新北市深坑區文山路一段31巷2號","121.629901666667","25.003295","6501800","深坑區"
"231041","002-UM","2018/09/14 18:59:08","新北市新店區環河路66號","121.537","24.96279","6500600","新店區"
"231059","046-UY","2018/09/14 18:59:19","新北市新店區安華路28-1號","121.519561666667","24.9608366666667","6500600","新店區"
"231040","047-UY","2018/09/14 18:59:12","新北市新店區中央路31號","121.532995","24.9778483333333","6500600","新店區"
"231046","107-UY","2018/09/14 18:59:24","新北市新店區直潭四街30號","121.533731666667","24.9416233333333","6500600","新店區"
"231053","108-UY","2018/09/14 18:59:18","新北市新店區屈尺路8號","121.549063333333","24.9225883333333","6500600","新店區"
"231065","110-UY","2018/09/14 18:59:12","新北市新店區安康路二段393號","121.494261666667","24.9539516666667","6500600","新店區"
"231048","187-VK","2018/09/14 18:59:06","新北市新店區德正街23巷10號","121.544485","24.9721166666667","6500600","新店區"
"231054","KEA-2219","2018/09/14 18:59:01","新北市新店區新店路13號","121.540215","24.9529333333333","6500600","新店區"
"221015","KEA-2785","2018/09/14 18:59:16","新北市汐止區汐萬路一段222號","121.651658333333","25.0729883333333","6501100","汐止區"
"231042","268-BY","2018/09/14 18:59:06","新北市新店區中正路70號","121.544033333333","24.970125","6500600","新店區"
"231051","278-BY","2018/09/14 18:59:21","新北市新店區中央路15號","121.533278333333","24.9783766666667","6500600","新店區"
"231050","AAD-862","2018/09/14 18:59:06","新北市新店區北宜路二段30巷5弄2號","121.548073333333","24.95082","6500600","新店區"
"231044","355-BY","2018/09/14 18:59:13","新北市新店區寶中路99號","121.548928333333","24.98019","6500600","新店區"
"231058","3713-VJ","2018/09/14 18:59:07","新北市新店區中興路一段140號","121.542261666667","24.9636533333333","6500600","新店區"
"231066","4716-K9","2018/09/14 18:59:22","新北市新店區車子路10-4號","121.504903333333","24.9545766666667","6500600","新店區"
"231056","4715-K9","2018/09/14 18:59:13","新北市新店區二十張路46巷37弄16號","121.536051666667","24.9817783333333","6500600","新店區"
"231067","4772-VM","2018/09/14 18:59:17","新北市新店區安康路一段355號","121.520025","24.9636633333333","6500600","新店區"
"231049","513-UM","2018/09/14 18:59:21","新北市新店區中央路11號","121.533426666667","24.9784966666667","6500600","新店區"
"231045","617-UM","2018/09/14 18:59:11","新北市新店區北新路一段75號","121.538486666667","24.96044","6500600","新店區"
"231061","619-UM","2018/09/14 18:59:20","新北市新店區安華路1-1號","121.519526666667","24.960155","6500600","新店區"
"231063","641-BX","2018/09/14 18:59:07","新北市新店區安華路16號","121.517186666667","24.9581016666667","6500600","新店區"
"231064","719-UM","2018/09/14 18:59:15","新北市新店區安一路一段1-1號","121.519485","24.961105","6500600","新店區"
"231062","720-UM","2018/09/14 18:59:08","新北市新店區車子路10-4號","121.505055","24.9545766666667","6500600","新店區"
"231060","897-TW","2018/09/14 18:59:15","新北市新店區安華路16號","121.517401666667","24.958105","6500600","新店區"
"231043","899-TW","2018/09/14 18:59:21","新北市新店區北新路二段18號","121.542791666667","24.9713016666667","6500600","新店區"
"231055","AKT-0513","2018/09/14 18:59:03","新北市新店區中央一街2號","121.528873333333","24.9722766666667","6500600","新店區"
"241026","066-VK","2018/09/14 18:59:22","新北市三重區泉州街106號","121.494953333333","25.05373","6500200","三重區"
"241007","398-BY","2018/09/14 18:59:16","新北市三重區車路頭街133號","121.484503333333","25.0760633333333","6500200","三重區"
"241035","462-BY","2018/09/14 18:59:20","新北市三重區重新路四段121號","121.48462","25.052065","6500200","三重區"
"235066","003-UY","2018/09/14 18:59:13","新北市中和區中山路二段131巷8號","121.502726666667","25.00238","6500300","中和區"
"235064","005-UY","2018/09/14 18:59:14","新北市中和區泰和街34號","121.499405","25.0002333333333","6500300","中和區"
"235063","006-UY","2018/09/14 18:59:07","新北市中和區錦和路168號","121.489673333333","24.9957166666667","6500300","中和區"
"235056","096-UM","2018/09/14 18:59:04","新北市中和區員山路466巷17弄18號","121.48052","25.007445","6500300","中和區"
"235039","097-UM","2018/09/14 18:59:16","新北市永和區安樂路76號","121.51465","24.9984116666667","6500300","中和區"
"235065","098-UM","2018/09/14 18:59:13","新北市中和區福祥路129號","121.498431666667","25.0071616666667","6500300","中和區"
"235040","150-BY","2018/09/14 18:59:07","新北市中和區安樂路87號","121.512928333333","24.9946233333333","6500300","中和區"
"235058","151-BY","2018/09/14 18:59:12","新北市中和區員山路143巷24號","121.479926666667","24.99581","6500300","中和區"
"235055","183-VK","2018/09/14 18:59:18","新北市中和區民德路25巷1號","121.469123333333","25.0027533333333","6500300","中和區"
"235038","185-VK","2018/09/14 18:59:19","新北市中和區立人街24-5號","121.518725","24.9940683333333","6500300","中和區"
"235049","186-VK","2018/09/14 18:59:23","新北市中和區景安路167巷32號","121.506931666667","24.9948366666667","6500300","中和區"
"235067","255-BX","2018/09/14 18:59:14","新北市中和區民樂路66號","121.484063333333","25.0011283333333","6500300","中和區"
"235044","293-VK","2018/09/14 18:59:09","新北市中和區中興街161巷10弄2號","121.501173333333","24.9909","6500300","中和區"
"235072","301-VK","2018/09/14 18:59:15","新北市中和區中山路二段177號","121.501088333333","25.0026333333333","6500300","中和區"
"235043","352-BY","2018/09/14 18:59:14","新北市中和區成功路48號","121.526061666667","24.9928066666667","6500300","中和區"
"235042","KEA-2878","2018/09/14 18:59:15","新北市中和區秀朗路三段50巷8弄1號","121.524898333333","24.99518","6500300","中和區"
"235050","4979-A6","2018/09/14 18:59:16","新北市中和區忠孝街29號","121.510538333333","24.9830933333333","6500300","中和區"
"235069","4980-A6","2018/09/14 18:59:21","新北市中和區景平路618巷6號","121.500898333333","24.9971733333333","6500300","中和區"
"235070","558-UM","2018/09/14 18:59:23","新北市中和區安和路217號","121.505951666667","24.99919","6500300","中和區"
"235045","565-BX","2018/09/14 18:59:17","新北市中和區景新街467巷20弄7號","121.514388333333","24.9879683333333","6500300","中和區"
"235054","640-BX","2018/09/14 18:59:09","新北市中和區民享街2巷2號","121.473753333333","25.0059083333333","6500300","中和區"
"235047","732-UM","2018/09/14 18:59:10","新北市中和區興南路二段54巷9弄2號","121.505991666667","24.98552","6500300","中和區"
"235046","733-UM","2018/09/14 18:59:18","新北市中和區興南路一段135巷22弄14號","121.50895","24.9866366666667","6500300","中和區"
"235057","801-TS","2018/09/14 18:59:16","新北市中和區民利街40巷1弄11號","121.47905","24.998875","6500300","中和區"
"235041","802-TS","2018/09/14 18:59:21","新北市中和區安平路103號","121.511495","24.997365","6500300","中和區"
"235052","805-TS","2018/09/14 18:59:18","新北市中和區興南路二段347號","121.500251666667","24.9801333333333","6500300","中和區"
"235048","896-TW","2018/09/14 18:59:11","新北市中和區華新街96號","121.508546666667","24.98313","6500300","中和區"
"235053","900-TW","2018/09/14 18:59:19","新北市中和區和平路200巷35弄1號","121.46527","24.9946866666667","6500300","中和區"
"235060","911-UM","2018/09/14 18:59:23","新北市中和區民治街23巷1號","121.475361666667","25.0021566666667","6500300","中和區"
"235051","157-BY","2018/09/14 18:58:58","新北市中和區忠孝街19巷2號","121.510161666667","24.983075","6500300","中和區"
"235037","AAC-213","2018/09/14 18:59:12","新北市中和區秀朗路三段10巷14弄43號","121.524065","24.9964266666667","6500300","中和區"
"235059","AAC-215","2018/09/14 18:59:11","新北市中和區圓通路369巷19弄7號","121.491321666667","24.98829","6500300","中和區"
"220065","072-UY","2018/09/14 18:59:23","新北市板橋區漢生東路340巷7號","121.471533333333","25.00733","6500100","板橋區"
"220086","073-UY","2018/09/14 18:59:18","新北市板橋區中正路250巷33號","121.457053333333","25.0195466666667","6500100","板橋區"
"220106","075-UY","2018/09/14 18:59:21","新北市板橋區文化路二段124巷14號","121.470853333333","25.0259233333333","6500100","板橋區"
"220069","AAD-861","2018/09/14 18:59:04","新北市板橋區華興街67號","121.457173333333","25.004975","6500100","板橋區"
"220090","120-SR","2018/09/14 18:59:13","新北市板橋區四維路167號","121.464728333333","25.0259633333333","6500100","板橋區"
"226004","205-ST","2018/09/14 18:59:20","新北市平溪區平溪里平溪街20號","121.73882","25.0251933333333","6502400","平溪區"
"235062","251-BX","2018/09/14 18:59:24","新北市中和區中山路二段356號","121.492863333333","25.0029466666667","6500300","中和區"
"228002","663-BX","2018/09/14 18:59:21","新北市貢寮區福隆里東興街106巷21弄2號","121.946151666667","25.0180316666667","6502600","貢寮區"
"228001","670-TC","2018/09/14 18:59:17","新北市貢寮區仁理村保健街73號","121.923715","25.051715","6502600","貢寮區"
"228003","828-UM","2018/09/14 18:59:18","新北市貢寮區和美里龍洞街56-3號","121.912616666667","25.114395","6502600","貢寮區"
"224010","AGQ-8101","2018/09/14 18:56:20","新北市瑞芳區基山街4-7號","121.845251666667","25.1094116666667","6501200","瑞芳區"
"224006","676-BX","2018/09/14 18:59:18","新北市瑞芳區三爪子坑路106巷1-11號","121.808056666667","25.1051733333333","6501200","瑞芳區"
"224008","285-BY","2018/09/14 18:59:09","新北市瑞芳區瑞芳街102號","121.801905","25.1104733333333","6501200","瑞芳區"
"224007","275-VK","2018/09/14 18:59:17","新北市瑞芳區中央路48巷180號","121.758401666667","25.1029083333333","6501200","瑞芳區"
"224009","273-VK","2018/09/14 18:59:07","新北市瑞芳區洞頂路101巷12號","121.860701666667","25.12117","6501200","瑞芳區"
"224005","271-BY","2018/09/14 18:59:23","新北市瑞芳區瑞芳街32-8號","121.822956666667","25.1209416666667","6501200","瑞芳區"
"227011","642-TC","2018/09/14 18:59:17","新北市雙溪區牡丹里中正路58巷23號","121.866463333333","25.0415816666667","6502500","雙溪區"
"227003","400-TW","2018/09/14 18:59:18","新北市雙溪區平林里康福家園10號","121.858808333333","25.03735","6502500","雙溪區"
"253006","032-BX","2018/09/14 18:59:21","新北市石門區下員坑42-2號","121.517536666667","25.2773483333333","6502200","石門區"
"253005","295-VK","2018/09/14 18:59:12","新北市石門區中央路6號","121.566601666667","25.2913266666667","6502200","石門區"
"222001","KEA-2212","2018/09/14 18:59:03","新北市深坑區翠谷街1號","121.626151666667","25.0073233333333","6501800","深坑區"
"208002","KEA-2872","2018/09/14 18:59:08","新北市金山區仁愛路37-14號","121.635673333333","25.2204","6502700","金山區"
"208003","665-BX","2018/09/14 18:59:14","新北市金山區中正路52號","121.634555","25.2220466666667","6502700","金山區"
"208001","761-BX","2018/09/14 18:59:14","新北市金山區民生路51巷1-2號","121.641873333333","25.2191766666667","6502700","金山區"
"251010","413-VK","2018/09/14 18:59:23","新北市淡水區淡海路92號","121.422851666667","25.1820383333333","6501000","淡水區"
"251001","559-UM","2018/09/14 18:59:17","新北市淡水區自強路58號","121.463163333333","25.1274916666667","6501000","淡水區"
"251009","575-R6","2018/09/14 18:59:13","新北市淡水區建設街1巷1-1號","121.439196666667","25.1727766666667","6501000","淡水區"
"251007","577-R6","2018/09/14 18:59:05","新北市淡水區民生路113巷1弄56號","121.46241","25.13858","6501000","淡水區"
"251002","672-BX","2018/09/14 18:59:20","新北市淡水區中山路8號","121.444981666667","25.1689333333333","6501000","淡水區"
"251003","766-UM","2018/09/14 18:59:11","新北市淡水區中山北路一段149巷33號","121.443126666667","25.1779816666667","6501000","淡水區"
"207003","550-UM","2018/09/14 18:59:17","新北市萬里區大鵬里頂社24-2號","121.657471666667","25.2103383333333","6502800","萬里區"
"207004","225-TW","2018/09/14 18:59:20","新北市萬里區萬里里獅頭路23號","121.693336666667","25.1783","6502800","萬里區"
"252002","178-VK","2018/09/14 18:59:19","新北市三芝區中正路一段54號","121.503561666667","25.2580333333333","6502100","三芝區"
"252003","249-BX","2018/09/14 18:59:04","新北市三芝區後厝里北勢子21-3號","121.473538333333","25.2537233333333","6502100","三芝區"
"252001","292-VK","2018/09/14 18:59:17","新北市三芝區中興街二段260號","121.501743333333","25.25308","6502100","三芝區"
"237009","210-TH","2018/09/14 18:59:23","新北市三峽區中山路321-1號","121.360788333333","24.93786","6500900","三峽區"
"237013","252-BX","2018/09/14 18:59:05","新北市三峽區光明路69巷25號","121.376568333333","24.9291316666667","6500900","三峽區"
"237012","275-BY","2018/09/14 18:59:04","新北市三峽區三樹路222巷236弄8號","121.39148","24.9426783333333","6500900","三峽區"
"237008","302-VK","2018/09/14 18:59:17","新北市三峽區中正路一段415號","121.370226666667","24.92044","6500900","三峽區"
"237014","433-BY","2018/09/14 18:59:11","新北市三峽區隆恩街243號","121.357833333333","24.9411283333333","6500900","三峽區"
"237006","5529-G3","2018/09/14 18:59:09","新北市三峽區橫溪路99巷20-2號","121.400965","24.9359916666667","6500900","三峽區"
"237015","649-BX","2018/09/14 18:59:04","新北市三峽區建安112號","121.457736666667","24.9221616666667","6500900","三峽區"
"237010","706-TV","2018/09/14 18:59:11","新北市三峽區國光街364巷21號","121.371168333333","24.940325","6500900","三峽區"
"237011","760-BX","2018/09/14 18:59:08","新北市三峽區介壽路三段231-3號","121.404985","24.9460783333333","6500900","三峽區"
"237005","AKY-6261","2018/09/14 18:59:08","新北市三峽區中山路459巷163-3號","121.348658333333","24.93289","6500900","三峽區"
"236069","105-UM","2018/09/14 18:59:14","新北市土城區金城路二段188號","121.454263333333","24.9815016666667","6501300","土城區"
"236042","107-UM","2018/09/14 18:59:14","新北市土城區學府路一段276號","121.450298333333","24.9832933333333","6501300","土城區"
"236079","166-UM","2018/09/14 18:59:19","新北市土城區中央路四段121號","121.416291666667","24.957545","6501300","土城區"
"236030","253-BX","2018/09/14 18:59:15","新北市土城區慶利街9號","121.43954","24.9736733333333","6501300","土城區"
"236026","269-VK","2018/09/14 18:59:13","新北市土城區慶安街26號","121.441581666667","24.9734366666667","6501300","土城區"
"236014","270-VK","2018/09/14 18:59:09","新北市土城區立德路34號","121.463265","24.987355","6501300","土城區"
"236039","271-VK","2018/09/14 18:59:11","新北市土城區仁愛路13巷1號","121.46029","24.9808283333333","6501300","土城區"
"236020","401-BY","2018/09/14 18:59:15","新北市土城區德峰街12號","121.468216666667","24.98584","6501300","土城區"
"236059","912-UM","2018/09/14 18:59:06","新北市土城區明德路一段385-1號","121.45313","24.9803483333333","6501300","土城區"
"236048","913-UM","2018/09/14 18:59:20","新北市土城區青雲路318-1號","121.45892","24.9773183333333","6501300","土城區"
"236063","915-UM","2018/09/14 18:59:12","新北市土城區金城路三段139巷11號","121.467815","24.9887016666667","6501300","土城區"
"236055","AAC-216","2018/09/14 18:59:06","新北市土城區學成路165號","121.44815","24.9890966666667","6501300","土城區"
"242025","613-BX","2018/09/14 18:59:06","新北市新莊區新泰路255巷83號","121.442183333333","25.039115","6500500","新莊區"
"242005","349-TH","2018/09/14 18:59:06","新北市新莊區三和路12-16號","121.44205","25.037405","6500500","新莊區"
"238023","601-UM","2018/09/14 18:59:15","新北市樹林區大慶街152號","121.396786666667","25.013475","6500700","樹林區"
"238019","599-UM","2018/09/14 18:59:10","新北市樹林區東榮街91巷1弄2號","121.416306666667","24.9823333333333","6500700","樹林區"
"238022","KEA-2213","2018/09/14 18:59:09","新北市樹林區東興街16巷2弄1號","121.409563333333","24.9782716666667","6500700","樹林區"
"238021","KEA-2539","2018/09/14 18:59:19","新北市樹林區柑園街二段276巷8-2號","121.373005","24.952935","6500700","樹林區"
"238025","303-VK","2018/09/14 18:59:07","新北市樹林區中山路三段22號","121.395666666667","24.9729733333333","6500700","樹林區"
"238017","283-BY","2018/09/14 18:59:09","新北市樹林區光興街44號","121.409891666667","25.0027633333333","6500700","樹林區"
"238014","282-BY","2018/09/14 18:59:17","新北市樹林區潭興街143巷10號","121.425463333333","25.000045","6500700","樹林區"
"238020","268-VK","2018/09/14 18:59:21","新北市樹林區俊英街155巷1號","121.42412","25.0122483333333","6500700","樹林區"
"238026","172-UY","2018/09/14 18:59:11","新北市樹林區佳園路一段39號","121.393138333333","24.97081","6500700","樹林區"
"238016","169-UY","2018/09/14 18:38:19","新北市樹林區日新街148巷33號","121.419636666667","24.987865","6500700","樹林區"
"239007","AAC-297","2018/09/14 18:59:13","新北市鶯歌區中山路6號","121.353041666667","24.9573366666667","6500800","鶯歌區"
"239006","891-R6","2018/09/14 18:59:18","新北市鶯歌區鶯桃路67巷2號","121.340918333333","24.9526966666667","6500800","鶯歌區"
"239008","527-UM","2018/09/14 18:59:07","新北市鶯歌區國際二路12巷4號","121.33792","24.9744616666667","6500800","鶯歌區"
"239005","526-UM","2018/09/14 18:59:10","新北市鶯歌區中湖街55號","121.349618333333","24.973495","6500800","鶯歌區"
"239001","417-VK","2018/09/14 18:59:23","新北市鶯歌區永智街43巷15號","121.337061666667","24.9539583333333","6500800","鶯歌區"
"239003","360-BY","2018/09/14 18:59:09","新北市鶯歌區鶯桃路417號","121.332783333333","24.9647383333333","6500800","鶯歌區"
"239002","359-BY","2018/09/14 18:59:21","新北市鶯歌區大湖路530巷37號","121.33819","24.97351","6500800","鶯歌區"
"239004","193-VK","2018/09/14 18:59:16","新北市鶯歌區中正三路291巷20弄2號","121.32978","24.9356816666667","6500800","鶯歌區"
"221008","489-VK","2018/09/14 18:59:21","新北市汐止區康寧街861巷1號","121.645748333333","25.0759766666667","6501100","汐止區"
"221036","130-UY","2018/09/14 18:59:03","新北市汐止區汐萬路一段160號","121.652653333333","25.07147","6501100","汐止區"
"221010","269-BY","2018/09/14 18:59:07","新北市汐止區康寧街901號","121.651376666667","25.0750016666667","6501100","汐止區"
"221012","278-VK","2018/09/14 18:59:17","新北市汐止區康寧街901號","121.650736666667","25.0752483333333","6501100","汐止區"
"221023","279-VK","2018/09/14 18:59:05","新北市汐止區康寧街901號","121.651021666667","25.0751883333333","6501100","汐止區"
"221032","280-BY","2018/09/14 18:59:13","新北市汐止區橫科路367巷24弄5號","121.623735","25.0481516666667","6501100","汐止區"
"221027","281-BY","2018/09/14 18:59:19","新北市汐止區康寧街901號","121.650875","25.075175","6501100","汐止區"
"221029","298-VK","2018/09/14 18:59:04","新北市汐止區樟樹一路230號","121.642473333333","25.066655","6501100","汐止區"
"221021","299-VK","2018/09/14 18:59:16","新北市汐止區康寧街901號","121.651501666667","25.0750183333333","6501100","汐止區"
"221031","353-TW","2018/09/14 18:59:18","新北市汐止區福德三路133號","121.63331","25.067395","6501100","汐止區"
"221035","622-UM","2018/09/14 18:59:15","新北市汐止區禮門街1號","121.656653333333","25.0671416666667","6501100","汐止區"
"221038","646-BX","2018/09/14 18:59:12","新北市汐止區汐萬路一段312號","121.650671666667","25.075325","6501100","汐止區"
"221002","707-TV","2018/09/14 18:59:22","台北市南港區南港路一段2號","121.620125","25.055085","6501100","汐止區"
"221018","753-BX","2018/09/14 18:59:18","新北市汐止區汐萬路一段261號","121.65073","25.0741233333333","6501100","汐止區"
"220079","145-BY","2018/09/14 18:59:20","新北市板橋區民權路202巷12弄2號","121.460546666667","25.0154633333333","6500100","板橋區"
"220080","200-UY","2018/09/14 18:59:13","新北市板橋區大觀路二段文和巷55-1號","121.443036666667","24.998785","6500100","板橋區"
"220082","610-BX","2018/09/14 18:59:16","新北市板橋區溪崑二街89號","121.427303333333","24.9893533333333","6500100","板橋區"
"220101","245-BX","2018/09/14 18:59:21","新北市板橋區文化路二段182巷7弄1號","121.471696666667","25.02685","6500100","板橋區"
"220098","257-TC","2018/09/14 18:59:11","新北市板橋區民有街12號","121.466393333333","25.024755","6500100","板橋區"
"220056","276-BY","2018/09/14 18:59:15","新北市板橋區信義路152號","121.458951666667","24.99167","6500100","板橋區"
"220072","277-BY","2018/09/14 18:59:11","新北市板橋區篤行路一段29號","121.432025","24.9946666666667","6500100","板橋區"
"220094","280-UM","2018/09/14 18:59:11","新北市板橋區莒光路9號","121.469816666667","25.024855","6500100","板橋區"
"220071","283-VK","2018/09/14 18:59:23","新北市板橋區忠孝路154巷1號","121.464113333333","25.00218","6500100","板橋區"
"220053","285-VK","2018/09/14 18:59:23","新北市板橋區中山路二段147號","121.475495","25.0166216666667","6500100","板橋區"
"220083","286-VK","2018/09/14 18:59:13","新北市板橋區大觀路一段38巷172號","121.441778333333","25.004605","6500100","板橋區"
"220081","287-VK","2018/09/14 18:59:24","新北市板橋區光華街44巷2-1號","121.453713333333","25.0129483333333","6500100","板橋區"
"220061","293-UM","2018/09/14 18:59:15","新北市板橋區富山街109巷70號","121.47532","25.0213366666667","6500100","板橋區"
"220097","299-UM","2018/09/14 18:59:20","新北市板橋區文化路一段88號","121.464405","25.0175283333333","6500100","板橋區"
"220075","303-R5","2018/09/14 18:59:09","新北市板橋區文昌街12號","121.455928333333","25.0104183333333","6500100","板橋區"
"220062","305-R5","2018/09/14 18:59:15","新北市板橋區民享街136號","121.477966666667","25.01641","6500100","板橋區"
"220092","307-R5","2018/09/14 18:59:16","新北市板橋區漢生東路21號","121.464878333333","25.01711","6500100","板橋區"
"220064","486-VK","2018/09/14 18:59:10","新北市板橋區中山路一段279號","121.469743333333","25.0138133333333","6500100","板橋區"
"220035","560-BX","2018/09/14 18:59:23","新北市板橋區中正路341巷35號","121.454163333333","25.019765","6500100","板橋區"
"220103","561-BX","2018/09/14 18:59:12","新北市板橋區縣民大道二段279號","121.470058333333","25.0178066666667","6500100","板橋區"
"220084","568-UM","2018/09/14 18:59:20","新北市板橋區龍興街65巷3號","121.443246666667","25.0013516666667","6500100","板橋區"
"220063","609-BX","2018/09/14 18:59:08","新北市板橋區中山路二段159號","121.475768333333","25.016745","6500100","板橋區"
"220091","637-BX","2018/09/14 18:59:19","新北市板橋區莒光路165巷38號","121.474328333333","25.0250216666667","6500100","板橋區"
"220057","686-BX","2018/09/14 18:59:18","新北市板橋區重慶路107號","121.46217","25.0052016666667","6500100","板橋區"
"220077","687-BX","2018/09/14 18:59:14","新北市板橋區大觀路二段142-1號","121.44264","24.9990716666667","6500100","板橋區"
"220093","689-BX","2018/09/14 18:59:08","新北市板橋區民生路三段66號","121.466958333333","25.0256316666667","6500100","板橋區"
"220054","741-BX","2018/09/14 18:59:02","新北市板橋區重慶路93巷45號","121.46332","25.0059783333333","6500100","板橋區"
"220102","KEA-2699","2018/09/14 18:59:13","新北市板橋區八德路二段62號","121.482075","25.0272233333333","6500100","板橋區"
"220055","827-TW","2018/09/14 18:59:05","新北市板橋區中山路一段158巷25號","121.466583333333","25.0112233333333","6500100","板橋區"
"220067","829-TW","2018/09/14 18:59:16","新北市板橋區三民路二段正隆巷12弄23號","121.477376666667","25.0137666666667","6500100","板橋區"
"220068","830-TW","2018/09/14 18:59:09","新北市板橋區中山路二段465巷78號","121.481243333333","25.0223183333333","6500100","板橋區"
"220096","831-TW","2018/09/14 18:59:19","新北市板橋區莒光路112號","121.472365","25.0239683333333","6500100","板橋區"
"220089","833-TW","2018/09/14 18:59:19","新北市板橋區文化路二段317號","121.472181666667","25.02992","6500100","板橋區"
"220074","895-R6","2018/09/14 18:59:20","新北市板橋區文昌街24巷9號","121.456156666667","25.0109516666667","6500100","板橋區"
"220073","985-R7","2018/09/14 18:59:11","新北市板橋區民權路254號","121.458191666667","25.0147683333333","6500100","板橋區"
"220070","AAC-253","2018/09/14 18:59:10","新北市板橋區四川路一段265號","121.45962","25.0022466666667","6500100","板橋區"
"235068","KEA-2873","2018/09/14 18:59:05","新北市中和區中正路211巷36弄6號","121.497093333333","24.9927716666667","6500300","中和區"
"235061","KEA-2875","2018/09/14 18:59:21","新北市中和區民治街134巷12號","121.47481","25.00216","6500300","中和區"
