"lineid","car","time","location","longitude","latitude","cityid","cityname"
"234081","298-R6","2018/09/14 20:38:20","新北市永和區永貞路84號","121.519971666667","25.0049116666667","6500400","永和區"
"234064","337-UY","2018/09/14 20:38:20","新北市永和區環河西路一段95巷2-1號","121.51192","25.017955","6500400","永和區"
"234030","746-BX","2018/09/14 20:38:11","新北市中和區中正路472號","121.489895","24.9942","6500400","永和區"
"234061","AAD-866","2018/09/14 20:38:22","新北市永和區中正路381號","121.517216666667","25.0037266666667","6500400","永和區"
"234042","862-TW","2018/09/14 20:38:18","新北市永和區自由街26號","121.514371666667","25.0064416666667","6500400","永和區"
"234050","863-TW","2018/09/14 20:38:07","新北市永和區環河西路二段185號","121.50235","25.0114116666667","6500400","永和區"
"249001","173-UM","2018/09/14 20:38:07","新北市八里區中山路三段367號","121.373418333333","25.1379366666667","6502300","八里區"
"249004","303-UY","2018/09/14 20:38:05","新北市八里區中山路一段157號","121.41281","25.1585516666667","6502300","八里區"
"249003","593-UM","2018/09/14 20:38:12","新北市八里區中山路三段409號","121.368526666667","25.1355266666667","6502300","八里區"
"234023","9380-KE","2018/09/14 20:38:22","新北市永和區竹林路23號","121.517311666667","25.0146416666667","6500400","永和區"
"234074","AAC-211","2018/09/14 20:38:18","新北市永和區竹林路119巷5號","121.520465","25.0114533333333","6500400","永和區"
"243016","KEA-2801","2018/09/14 20:38:14","新北市泰山區文程路7號","121.427898333333","25.04962","6501600","泰山區"
"243015","421-VK","2018/09/14 20:38:17","新北市泰山區泰林路三段745巷145號","121.405506666667","25.067895","6501600","泰山區"
"243011","KEA-2215","2018/09/14 20:38:13","新北市泰山區明志路三段42巷11弄4號","121.424233333333","25.0422933333333","6501600","泰山區"
"243010","KEA-2216","2018/09/14 20:38:18","新北市泰山區泰林路三段92號","121.41837","25.0652416666667","6501600","泰山區"
"243012","646-TV","2018/09/14 20:38:24","新北市泰山區泰林路三段28巷8號","121.418716666667","25.06523","6501600","泰山區"
"222003","436-BY","2018/09/14 20:38:13","新北市深坑區阿柔洋25-1號","121.613051666667","24.9991033333333","6501800","深坑區"
"222002","659-BX","2018/09/14 20:38:18","新北市深坑區萬福路43號","121.599368333333","25.006865","6501800","深坑區"
"231041","002-UM","2018/09/14 20:38:08","新北市新店區中正路683號","121.533945","24.9904233333333","6500600","新店區"
"231059","046-UY","2018/09/14 20:38:19","新北市新店區僑信路78號","121.499623333333","24.9484183333333","6500600","新店區"
"231040","047-UY","2018/09/14 20:38:12","新北市新店區中正路263號","121.53862","24.9736533333333","6500600","新店區"
"231053","108-UY","2018/09/14 20:38:14","新北市新店區廣興路5巷1號","121.545616666667","24.9116633333333","6500600","新店區"
"231065","110-UY","2018/09/14 20:38:14","新北市新店區安祥路102巷46弄81號","121.487193333333","24.9634966666667","6500600","新店區"
"231048","187-VK","2018/09/14 20:38:06","新北市新店區順安街86號","121.541025","24.9866666666667","6500600","新店區"
"231068","188-VK","2018/09/14 20:38:12","新北市新店區寶元路一段65號","121.542235","24.9858383333333","6500600","新店區"
"231054","KEA-2219","2018/09/14 20:38:21","新北市新店區北新路一段64巷39弄4號","121.542463333333","24.9657266666667","6500600","新店區"
"221015","KEA-2785","2018/09/14 20:38:16","新北市汐止區建成路37巷1號","121.663705","25.0728316666667","6501100","汐止區"
"231057","256-BX","2018/09/14 20:38:18","新北市新店區花園二路一段9-6號","121.556291666667","24.932915","6500600","新店區"
"231042","268-BY","2018/09/14 20:38:05","新北市新店區寶橋路238號","121.551528333333","24.9789716666667","6500600","新店區"
"231051","278-BY","2018/09/14 20:38:22","新北市新店區中央七街104號","121.525941666667","24.97747","6500600","新店區"
"231050","AAD-862","2018/09/14 20:38:06","新北市新店區中正路263巷8號","121.53829","24.9732766666667","6500600","新店區"
"231044","355-BY","2018/09/14 20:38:13","新北市新店區建國路293巷2號","121.537011666667","24.9858283333333","6500600","新店區"
"231058","3713-VJ","2018/09/14 20:38:07","新北市新店區平等街37號","121.536541666667","24.973375","6500600","新店區"
"231066","4716-K9","2018/09/14 20:38:22","新北市新店區安興路112號","121.514621666667","24.97759","6500600","新店區"
"231056","4715-K9","2018/09/14 20:38:26","新北市新店區中央三街85號","121.52597","24.97574","6500600","新店區"
"231067","4772-VM","2018/09/14 20:38:17","新北市新店區安華路28-1號","121.519708333333","24.9609366666667","6500600","新店區"
"231049","513-UM","2018/09/14 20:38:21","新北市新店區永業路81巷1弄1號","121.529661666667","24.94944","6500600","新店區"
"231045","617-UM","2018/09/14 20:38:11","新北市新店區長春路557-1號","121.553763333333","24.96065","6500600","新店區"
"231061","619-UM","2018/09/14 20:38:20","新北市新店區新和街36號","121.519265","24.984905","6500600","新店區"
"231063","641-BX","2018/09/14 20:38:07","新北市新店區玫瑰路4-1號","121.493666666667","24.95138","6500600","新店區"
"231064","719-UM","2018/09/14 20:38:14","新北市新店區安和路三段131號","121.517151666667","24.9853216666667","6500600","新店區"
"231062","720-UM","2018/09/14 20:38:08","新北市新店區安泰路60巷134弄86號","121.484091666667","24.943455","6500600","新店區"
"231060","897-TW","2018/09/14 20:38:15","新北市新店區安康路三段738號","121.473806666667","24.9420133333333","6500600","新店區"
"231043","899-TW","2018/09/14 20:38:21","新北市新店區建國路4號","121.539816666667","24.9732966666667","6500600","新店區"
"241011","013-R5","2018/09/14 20:38:06","新北市三重區龍濱路285號","121.501086666667","25.07334","6500200","三重區"
"241028","022-UY","2018/09/14 20:38:10","新北市三重區光興街89號","121.497478333333","25.05999","6500200","三重區"
"241008","059-VK","2018/09/14 20:38:16","新北市三重區下竹圍街50號","121.48087","25.0747933333333","6500200","三重區"
"241022","060-VK","2018/09/14 20:38:07","新北市三重區過圳街27-5號","121.487975","25.06227","6500200","三重區"
"241015","062-VK","2018/09/14 20:38:05","新北市三重區文化北路200弄1號","121.497951666667","25.068095","6500200","三重區"
"241017","063-VK","2018/09/14 20:38:08","新北市三重區大同北路269號","121.490875","25.0673016666667","6500200","三重區"
"241024","065-VK","2018/09/14 20:38:09","新北市三重區三民街260號","121.479145","25.0679233333333","6500200","三重區"
"241026","066-VK","2018/09/14 20:38:22","新北市三重區文化南路3號","121.500063333333","25.06246","6500200","三重區"
"241002","090-VK","2018/09/14 20:38:21","新北市三重區仁義街167巷12號","121.497518333333","25.0818483333333","6500200","三重區"
"241003","091-VK","2018/09/14 20:38:12","新北市三重區五華街141巷60號","121.493553333333","25.0867383333333","6500200","三重區"
"241016","266-UM","2018/09/14 20:38:15","新北市三重區長壽西街143-3號","121.494298333333","25.0667266666667","6500200","三重區"
"241009","267-UM","2018/09/14 20:38:25","新北市三重區碧華街57號","121.484791666667","25.0813066666667","6500200","三重區"
"241018","268-UM","2018/09/14 20:38:20","新北市三重區重陽路四段66號","121.491928333333","25.0704333333333","6500200","三重區"
"241032","269-UM","2018/09/14 20:38:10","新北市三重區重陽路一段120巷35號","121.485103333333","25.0602266666667","6500200","三重區"
"241013","270-UM","2018/09/14 20:38:17","新北市三重區三和路四段83號","121.489355","25.07551","6500200","三重區"
"241025","271-UM","2018/09/14 20:38:16","新北市三重區頂崁街210巷12弄10號","121.475791666667","25.0674","6500200","三重區"
"241007","398-BY","2018/09/14 20:38:16","新北市三重區三和路四段101巷18號","121.488763333333","25.077045","6500200","三重區"
"241035","462-BY","2018/09/14 20:38:20","新北市三重區正義北路281-1號","121.495018333333","25.0703166666667","6500200","三重區"
"241004","475-VK","2018/09/14 20:38:11","新北市三重區仁愛街409號","121.490831666667","25.08116","6500200","三重區"
"241020","478-VK","2018/09/14 20:38:22","新北市三重區忠孝路一段101號","121.489543333333","25.0721483333333","6500200","三重區"
"241030","480-VK","2018/09/14 20:38:17","新北市三重區成功路73巷9號","121.489421666667","25.0518766666667","6500200","三重區"
"241014","543-UM","2018/09/14 20:38:17","新北市三重區三和路二段119號","121.498918333333","25.0691916666667","6500200","三重區"
"241023","545-UM","2018/09/14 20:38:13","新北市三重區自由街37巷1號","121.478801666667","25.0669483333333","6500200","三重區"
"241001","547-UM","2018/09/14 20:38:23","新北市三重區自強路三段110巷31號","121.485611666667","25.0744933333333","6500200","三重區"
"241019","KEA-2593","2018/09/14 20:38:14","新北市三重區大智街125號","121.491248333333","25.07034","6500200","三重區"
"241006","AAD-863","2018/09/14 20:38:24","新北市三重區車路頭街139巷12號","121.484246666667","25.07624","6500200","三重區"
"241031","743-BX","2018/09/14 20:38:17","新北市三重區重陽路一段113巷1弄49號","121.488008333333","25.0584533333333","6500200","三重區"
"241005","887-TS","2018/09/14 20:38:19","新北市三重區碧華街448號","121.493205","25.0859833333333","6500200","三重區"
"241012","941-UM","2018/09/14 20:38:20","新北市三重區秀江街2號","121.502686666667","25.07305","6500200","三重區"
"241029","942-UM","2018/09/14 20:38:25","新北市三重區集美街126巷27號","121.490075","25.0538683333333","6500200","三重區"
"241033","AAC-255","2018/09/14 20:38:19","新北市三重區光復路二段87巷53號","121.475158333333","25.0581633333333","6500200","三重區"
"247012","KEA-2869","2018/09/14 20:38:17","新北市蘆洲區集賢路224巷72號","121.480588333333","25.08862","6501400","蘆洲區"
"235069","4980-A6","2018/09/14 20:38:21","新北市中和區中正路548號","121.487093333333","24.9944866666667","6500300","中和區"
"247002","893-R6","2018/09/14 20:38:11","新北市蘆洲區長榮路357號","121.459061666667","25.0882466666667","6501400","蘆洲區"
"247016","546-UM","2018/09/14 20:38:21","新北市蘆洲區中山二路224號","121.469785","25.079705","6501400","蘆洲區"
"247024","500-BY","2018/09/14 20:38:17","新北市蘆洲區長樂路81號","121.462591666667","25.0869283333333","6501400","蘆洲區"
"247006","337-TH","2018/09/14 20:38:11","新北市蘆洲區和平路121巷10號","121.467043333333","25.07974","6501400","蘆洲區"
"247008","336-TH","2018/09/14 20:38:19","新北市蘆洲區重陽一街23號","121.480795","25.0817966666667","6501400","蘆洲區"
"247020","057-VK","2018/09/14 20:38:14","新北市蘆洲區民族路424-1號","121.473825","25.0919","6501400","蘆洲區"
"247014","053-VK","2018/09/14 20:38:18","新北市蘆洲區成功路60號","121.472538333333","25.0804866666667","6501400","蘆洲區"
"247004","002-UY","2018/09/14 20:38:16","新北市蘆洲區長安街297號","121.458051666667","25.0848583333333","6501400","蘆洲區"
"247022","001-UY","2018/09/14 20:38:17","新北市蘆洲區中正路243巷18弄1號","121.467126666667","25.0864066666667","6501400","蘆洲區"
"222001","KEA-2212","2018/09/14 20:38:23","新北市深坑區北深路三段256號","121.59994","25.0043666666667","6501800","深坑區"
"251010","413-VK","2018/09/14 20:38:03","新北市淡水區沙崙路181巷15號","121.423921666667","25.18434","6501000","淡水區"
"251012","441-VK","2018/09/14 20:38:16","新北市淡水區興仁路105號","121.451616666667","25.2181433333333","6501000","淡水區"
"251001","559-UM","2018/09/14 20:38:18","新北市淡水區坪頂路27號","121.45629","25.162035","6501000","淡水區"
"251006","561-UM","2018/09/14 20:38:12","新北市淡水區商工路173號","121.448033333333","25.1883116666667","6501000","淡水區"
"251009","575-R6","2018/09/14 20:38:13","新北市淡水區民權路187巷17號","121.460346666667","25.1334433333333","6501000","淡水區"
"251007","577-R6","2018/09/14 20:38:05","新北市淡水區淡金路一段69號","121.458141666667","25.173435","6501000","淡水區"
"251002","672-BX","2018/09/14 20:38:20","新北市淡水區中正路32號","121.443823333333","25.1691333333333","6501000","淡水區"
"251003","766-UM","2018/09/14 20:38:10","新北市淡水區新民街152巷6弄20號","121.438696666667","25.1785066666667","6501000","淡水區"
"252002","178-VK","2018/09/14 20:38:19","新北市三芝區淡金路二段47-2號","121.50366","25.2605233333333","6502100","三芝區"
"252001","292-VK","2018/09/14 20:38:17","新北市三芝區中山路一段87號","121.501175","25.2566066666667","6502100","三芝區"
"237008","302-VK","2018/09/14 20:38:17","新北市三峽區學府路6號","121.372225","24.94805","6500900","三峽區"
"242037","AAC-296","2018/09/14 20:38:20","新北市新莊區建安街10-1號","121.42856","25.0264966666667","6500500","新莊區"
"242058","986-R7","2018/09/14 20:38:09","新北市新莊區四維路134號","121.423261666667","25.0237283333333","6500500","新莊區"
"242056","751-BX","2018/09/14 20:38:16","新北市新莊區瓊泰路94巷61號","121.444918333333","25.0294633333333","6500500","新莊區"
"242027","615-BX","2018/09/14 20:38:08","新北市新莊區中正路113號","121.460418333333","25.0385833333333","6500500","新莊區"
"242025","613-BX","2018/09/14 20:38:26","新北市新莊區化成路565號","121.46505","25.0656116666667","6500500","新莊區"
"242044","566-BX","2018/09/14 20:38:09","新北市新莊區龍安路66號","121.415116666667","25.021555","6500500","新莊區"
"242048","497-BY","2018/09/14 20:38:21","新北市新莊區中正路639號","121.430988333333","25.0314583333333","6500500","新莊區"
"242054","442-UM","2018/09/14 20:38:19","新北市新莊區西盛街324巷16號","121.427396666667","25.0148933333333","6500500","新莊區"
"242039","415-TV","2018/09/14 20:38:17","新北市新莊區新樹路164號","121.434951666667","25.0224666666667","6500500","新莊區"
"242046","400-BY","2018/09/14 20:38:11","新北市新莊區裕民街47號","121.418881666667","25.02484","6500500","新莊區"
"242023","362-BY","2018/09/14 20:38:21","新北市新莊區化成路416號","121.466048333333","25.0509366666667","6500500","新莊區"
"242060","353-BY","2018/09/14 20:38:26","新北市新莊區新樹路260號","121.432503333333","25.0151533333333","6500500","新莊區"
"242011","132-UY","2018/09/14 20:38:22","新北市新莊區中榮街122巷20號","121.446576666667","25.0535916666667","6500500","新莊區"
"242041","133-UY","2018/09/14 20:38:25","新北市新莊區天祥街47巷27號","121.416213333333","25.0279916666667","6500500","新莊區"
"242034","135-UY","2018/09/14 20:38:26","新北市新莊區中正路252號","121.447938333333","25.0352316666667","6500500","新莊區"
"242050","172-VK","2018/09/14 20:38:25","新北市新莊區民安西路142號","121.426168333333","25.016795","6500500","新莊區"
"242013","173-VK","2018/09/14 20:37:48","新北市新莊區中和街175巷11號","121.447295","25.0506433333333","6500500","新莊區"
"242019","175-VK","2018/09/14 20:38:12","新北市新莊區中港路60號","121.45549","25.0386833333333","6500500","新莊區"
"242007","176-VK","2018/09/14 20:38:19","新北市新莊區思源路183號","121.459803333333","25.0453683333333","6500500","新莊區"
"242002","347-TH","2018/09/14 20:38:09","新北市新莊區中港路29號","121.455071666667","25.0375366666667","6500500","新莊區"
"242032","348-TH","2018/09/14 20:38:24","新北市新莊區中正路563號","121.434888333333","25.0326616666667","6500500","新莊區"
"242005","349-TH","2018/09/14 20:38:26","新北市新莊區化成路349巷72號","121.463453333333","25.056505","6500500","新莊區"
"242021","350-TH","2018/09/14 20:38:23","新北市新莊區中華路一段73號","121.452248333333","25.040055","6500500","新莊區"
"242015","351-TH","2018/09/14 20:38:14","新北市新莊區中和街6號","121.448441666667","25.0429483333333","6500500","新莊區"
"221008","489-VK","2018/09/14 20:38:21","新北市汐止區康寧街861巷5號","121.645316666667","25.0761416666667","6501100","汐止區"
"221036","130-UY","2018/09/14 20:38:20","新北市汐止區新昌路82號","121.663756666667","25.0689666666667","6501100","汐止區"
"221012","278-VK","2018/09/14 20:38:17","新北市汐止區大同路三段241號","121.672683333333","25.0767033333333","6501100","汐止區"
"221023","279-VK","2018/09/14 20:38:25","新北市汐止區明峰街10號","121.635216666667","25.07148","6501100","汐止區"
"221032","280-BY","2018/09/14 20:38:13","新北市汐止區橫科路221巷19-1號","121.621538333333","25.04954","6501100","汐止區"
"221027","281-BY","2018/09/14 20:38:19","新北市汐止區大同路二段563號","121.662648333333","25.06988","6501100","汐止區"
"221029","298-VK","2018/09/14 20:38:14","新北市汐止區大同路一段515巷6號","121.645393333333","25.06251","6501100","汐止區"
"221021","299-VK","2018/09/14 20:38:16","新北市汐止區水源路一段284號","121.65419","25.058295","6501100","汐止區"
"221031","353-TW","2018/09/14 20:38:18","新北市汐止區中興路29號","121.635138333333","25.0613583333333","6501100","汐止區"
"221035","622-UM","2018/09/14 20:38:15","新北市汐止區長江街101-5號","121.658661666667","25.0732716666667","6501100","汐止區"
"221025","623-UM","2018/09/14 20:38:16","新北市汐止區水源路二段236號","121.658615","25.051395","6501100","汐止區"
"221038","646-BX","2018/09/14 20:38:12","新北市汐止區新江北路3號","121.652811666667","25.07073","6501100","汐止區"
"221002","707-TV","2018/09/14 20:38:22","新北市汐止區福德二路136號","121.630818333333","25.06526","6501100","汐止區"
"221018","753-BX","2018/09/14 20:38:19","新北市汐止區中華街67號","121.667953333333","25.0713533333333","6501100","汐止區"
"242017","281-VK","2018/09/14 20:38:22","新北市新莊區新泰路368號","121.444548333333","25.04276","6500500","新莊區"
"242009","280-VK","2018/09/14 20:38:18","新北市新莊區福壽街99巷11弄11號","121.45747","25.0500333333333","6500500","新莊區"
"220103","561-BX","2018/09/14 20:38:12","新北市板橋區漢生東路83巷27號","121.467435","25.0168216666667","6500100","板橋區"
"220070","AAC-253","2018/09/14 20:38:09","新北市五股區凌雲路三段24巷22號","121.432841666667","25.1078683333333","6500100","板橋區"
