"lineid","car","time","location","longitude","latitude","cityid","cityname"
"231059","046-UY","2018/09/14 21:09:19","新北市新店區僑信路22號","121.49975","24.95228","6500600","新店區"
"231040","047-UY","2018/09/14 21:09:12","新北市新店區北新路一段351號","121.541885","24.9693","6500600","新店區"
"231065","110-UY","2018/09/14 21:09:12","新北市新店區安祥路69巷89弄15號","121.482973333333","24.959955","6500600","新店區"
"231048","187-VK","2018/09/14 21:09:23","新北市新店區中興路三段160號","121.544508333333","24.98071","6500600","新店區"
"231054","KEA-2219","2018/09/14 21:09:21","新北市新店區大新街7巷7號","121.543693333333","24.96832","6500600","新店區"
"231042","268-BY","2018/09/14 21:09:05","新北市新店區寶興路60巷4號","121.549818333333","24.9718916666667","6500600","新店區"
"231051","278-BY","2018/09/14 21:09:21","新北市新店區中正路700巷82號","121.535943333333","24.9932666666667","6500600","新店區"
"231050","AAD-862","2018/09/14 21:09:06","新北市新店區中華路83巷4弄20號","121.538263333333","24.9689033333333","6500600","新店區"
"231067","4772-VM","2018/09/14 21:09:17","新北市新店區安康路二段316號","121.505538333333","24.9581416666667","6500600","新店區"
"231061","619-UM","2018/09/14 21:09:20","新北市新店區永安街1號","121.516706666667","24.9859983333333","6500600","新店區"
"231063","641-BX","2018/09/14 21:09:07","新北市新店區玫瑰路59巷1號","121.495858333333","24.9458183333333","6500600","新店區"
"231064","719-UM","2018/09/14 21:09:14","新北市新店區薏仁坑路自強巷1號","121.497365","24.957685","6500600","新店區"
"231060","897-TW","2018/09/14 21:09:15","新北市新店區薏仁坑路自強巷6號","121.496775","24.9584416666667","6500600","新店區"
"241011","013-R5","2018/09/14 21:09:06","新北市三重區秀江街99號","121.500091666667","25.0724166666667","6500200","三重區"
"241028","022-UY","2018/09/14 21:09:10","新北市三重區正義南路47號","121.49823","25.0606866666667","6500200","三重區"
"241008","059-VK","2018/09/14 21:09:16","新北市三重區三和路三段8號","121.497148333333","25.070115","6500200","三重區"
"241022","060-VK","2018/09/14 21:09:07","新北市三重區中正北路64巷20號","121.486145","25.06381","6500200","三重區"
"241015","062-VK","2018/09/14 21:09:23","新北市三重區長元街82-1號","121.501936666667","25.0664683333333","6500200","三重區"
"241017","063-VK","2018/09/14 21:09:28","新北市三重區國隆路31號","121.492423333333","25.064575","6500200","三重區"
"241024","065-VK","2018/09/14 21:09:09","新北市三重區大勇街49號","121.481306666667","25.0719833333333","6500200","三重區"
"241026","066-VK","2018/09/14 21:09:22","新北市三重區文化南路42號","121.500431666667","25.060235","6500200","三重區"
"241002","090-VK","2018/09/14 21:09:21","新北市三重區五華街16號","121.494866666667","25.08033","6500200","三重區"
"241003","091-VK","2018/09/14 21:09:12","新北市三重區仁義街224號","121.49489","25.0846833333333","6500200","三重區"
"241016","266-UM","2018/09/14 21:09:15","新北市三重區信義西街138號","121.495611666667","25.064255","6500200","三重區"
"241009","267-UM","2018/09/14 21:09:25","新北市三重區忠孝路二段126號","121.482928333333","25.0688033333333","6500200","三重區"
"241018","268-UM","2018/09/14 21:09:20","新北市三重區六張街39號","121.49425","25.0705266666667","6500200","三重區"
"241032","269-UM","2018/09/14 21:09:10","新北市三重區光復路二段143巷8-3號","121.476283333333","25.061585","6500200","三重區"
"241013","270-UM","2018/09/14 21:09:17","新北市三重區仁賢街12-1號","121.495735","25.0749566666667","6500200","三重區"
"241025","271-UM","2018/09/14 21:09:16","新北市三重區中正北路208巷8號","121.482331666667","25.0669666666667","6500200","三重區"
"241007","398-BY","2018/09/14 21:09:16","新北市三重區三和路四段145巷85號","121.486383333333","25.0787733333333","6500200","三重區"
"241004","475-VK","2018/09/14 21:09:11","新北市三重區仁愛街423-1號","121.49037","25.0814566666667","6500200","三重區"
"241020","478-VK","2018/09/14 21:09:22","新北市三重區忠孝路二段35號","121.485945","25.0710433333333","6500200","三重區"
"241030","480-VK","2018/09/14 21:09:17","新北市三重區五谷王北街20巷15弄1號","121.475066666667","25.0485","6500200","三重區"
"241014","543-UM","2018/09/14 21:09:13","新北市三重區三和路二段37-8號","121.501275","25.06754","6500200","三重區"
"241023","545-UM","2018/09/14 21:09:13","新北市三重區洛陽街45巷15號","121.48237","25.063765","6500200","三重區"
"241001","547-UM","2018/09/14 21:09:22","新北市三重區福隆路44號","121.49242","25.07839","6500200","三重區"
"241019","KEA-2593","2018/09/14 21:09:14","新北市三重區自強路二段74巷19號","121.487963333333","25.0699783333333","6500200","三重區"
"241006","AAD-863","2018/09/14 21:09:24","新北市三重區重陽路三段5巷1號","121.490696666667","25.0655266666667","6500200","三重區"
"241031","743-BX","2018/09/14 21:09:17","新北市三重區重新路五段328號","121.476793333333","25.0480483333333","6500200","三重區"
"241005","887-TS","2018/09/14 21:09:26","新北市三重區三信路182號","121.488061666667","25.0862016666667","6500200","三重區"
"241012","941-UM","2018/09/14 21:09:09","新北市三重區仁信街27號","121.501336666667","25.07558","6500200","三重區"
"241029","942-UM","2018/09/14 21:09:25","新北市三重區正義南路111號","121.4982","25.0585466666667","6500200","三重區"
"241033","AAC-255","2018/09/14 21:08:59","新北市三重區重光街107-1號","121.466368333333","25.06465","6500200","三重區"
"247012","KEA-2869","2018/09/14 21:09:15","新北市蘆洲區民族路48號","121.476883333333","25.0845","6501400","蘆洲區"
"235010","733-UM","2018/09/14 21:09:18","新北市中和區員山路36巷13號","121.484156666667","24.9908166666667","6500300","中和區"
"247002","893-R6","2018/09/14 21:09:11","新北市蘆洲區永樂街38巷40號","121.458576666667","25.090045","6501400","蘆洲區"
"247016","546-UM","2018/09/14 21:09:21","新北市蘆洲區中正路185巷90號","121.46548","25.0839416666667","6501400","蘆洲區"
"247024","500-BY","2018/09/14 21:09:17","新北市蘆洲區長興路50巷1號","121.46379","25.0838666666667","6501400","蘆洲區"
"247006","337-TH","2018/09/14 21:09:11","新北市蘆洲區九芎街15巷8號","121.468053333333","25.0780016666667","6501400","蘆洲區"
"247008","336-TH","2018/09/14 21:09:23","新北市蘆洲區民生街47號","121.475003333333","25.07887","6501400","蘆洲區"
"247020","057-VK","2018/09/14 21:09:14","新北市蘆洲區民族路448號","121.472468333333","25.092005","6501400","蘆洲區"
"247010","056-VK","2018/09/14 21:09:20","新北市蘆洲區鷺江街50號","121.477363333333","25.0832733333333","6501400","蘆洲區"
"247014","053-VK","2018/09/14 21:09:18","新北市蘆洲區復興路30-7號","121.472755","25.0845483333333","6501400","蘆洲區"
"247018","007-UY","2018/09/14 21:09:11","新北市蘆洲區民族路408巷10號","121.47481","25.0918316666667","6501400","蘆洲區"
"247004","002-UY","2018/09/14 21:09:16","新北市蘆洲區永安南路二段278號","121.458048333333","25.081","6501400","蘆洲區"
"247022","001-UY","2018/09/14 21:09:17","新北市蘆洲區民族路431號","121.467996666667","25.0891266666667","6501400","蘆洲區"
"251005","010-UM","2018/09/14 21:09:19","新北市淡水區博愛街47-1號","121.446728333333","25.16909","6501000","淡水區"
"251008","KEA-2871","2018/09/14 21:09:14","新北市淡水區北投子101號","121.464908333333","25.1776433333333","6501000","淡水區"
"251010","413-VK","2018/09/14 21:09:25","新北市淡水區中正路一段63巷9號","121.422496666667","25.177055","6501000","淡水區"
"251012","441-VK","2018/09/14 21:09:16","新北市淡水區淡金路五段87號","121.455361666667","25.2346466666667","6501000","淡水區"
"251001","559-UM","2018/09/14 21:09:17","新北市淡水區新市一路三段101巷16弄1號","121.446133333333","25.183775","6501000","淡水區"
"251009","575-R6","2018/09/14 21:09:12","新北市淡水區民權路187巷74弄9號","121.462073333333","25.1345033333333","6501000","淡水區"
"251011","650-BX","2018/09/14 21:09:19","新北市淡水區新民街120巷45弄2號","121.438388333333","25.179725","6501000","淡水區"
"251002","672-BX","2018/09/14 21:09:20","新北市淡水區水源街一段148號","121.448148333333","25.1715866666667","6501000","淡水區"
"251003","766-UM","2018/09/14 21:09:10","新北市淡水區新春街96號","121.43905","25.1824766666667","6501000","淡水區"
"237008","302-VK","2018/09/14 21:00:48","新北市三峽區中山路459巷137號","121.349803333333","24.9336366666667","6500900","三峽區"
"242058","986-R7","2018/09/14 21:09:09","新北市樹林區中山路三段210-2號","121.380788333333","24.9668233333333","6500500","新莊區"
"242007","176-VK","2018/09/14 21:09:19","新北市樹林區育德街121巷7號","121.389303333333","24.968245","6500500","新莊區"
"242017","281-VK","2018/09/14 21:09:22","新北市樹林區中山路三段214號","121.380025","24.9676883333333","6500500","新莊區"
"220070","AAC-253","2018/09/14 21:09:10","新北市八里區荖阡坑路15-66號","121.398438333333","25.1410183333333","6500100","板橋區"
