"lineid","car","time","location","longitude","latitude","cityid","cityname"
"251004","009-UM","2018/09/14 21:59:53","新北市淡水區民權路167號","121.459925","25.1358216666667","6501000","淡水區"
"251005","010-UM","2018/09/14 21:59:39","新北市淡水區鄧公路30巷2弄51號","121.453996666667","25.1692783333333","6501000","淡水區"
"251008","KEA-2871","2018/09/14 21:59:54","新北市淡水區學府路104號","121.449851666667","25.1718016666667","6501000","淡水區"
"251010","413-VK","2018/09/14 21:59:43","新北市淡水區中正路二段215號","121.426266666667","25.1893066666667","6501000","淡水區"
"251006","561-UM","2018/09/14 21:59:52","新北市淡水區中山路8號","121.444828333333","25.1688066666667","6501000","淡水區"
"251007","577-R6","2018/09/14 21:59:45","新北市淡水區北新路184巷19號","121.45023","25.1780866666667","6501000","淡水區"
"251011","650-BX","2018/09/14 21:59:59","新北市淡水區水碓街7號","121.443176666667","25.1771266666667","6501000","淡水區"
