"lineid","car","time","location","longitude","latitude","cityid","cityname"
"232004","290-BY","2018/09/15 06:49:22","新北市坪林區水柳腳16號","121.710721666667","24.93497","6502000","坪林區"
"232016","291-BY","2018/09/15 06:49:24","新北市坪林區水柳腳39號","121.709676666667","24.935145","6502000","坪林區"
"232010","375-UM","2018/09/15 06:49:25","新北市坪林區北宜路八段453號","121.706093333333","24.9238216666667","6502000","坪林區"
"232009","758-BX","2018/09/15 06:49:24","新北市坪林區九芎林39號","121.703065","24.920725","6502000","坪林區"
"244005","248-BX","2018/09/15 06:49:38","新北市林口區中山路194號","121.388948333333","25.07898","6501700","林口區"
"235001","611-BX","2018/09/15 06:49:21","新北市中和區圓通路278號","121.491851666667","24.990635","6500300","中和區"
"223006","022-BY","2018/09/15 06:49:19","新北市石碇區碇坪路一段46號","121.655346666667","24.9932116666667","6501900","石碇區"
"223002","KEA-2673","2018/09/15 06:49:27","新北市石碇區烏塗窟9號","121.655613333333","24.9748983333333","6501900","石碇區"
"223004","437-BY","2018/09/15 06:49:24","新北市石碇區下橫坪11-3號","121.666963333333","24.9854583333333","6501900","石碇區"
"223001","592-UM","2018/09/15 06:47:14","新北市石碇區湳窟31-3號","121.663313333333","24.99322","6501900","石碇區"
"223007","661-BX","2018/09/15 06:49:21","新北市石碇區雙溪84-1號","121.661325","25.009","6501900","石碇區"
"223005","677-TV","2018/09/15 06:49:24","新北市石碇區下橫坪11-3號","121.66701","24.9853","6501900","石碇區"
"227006","030-BX","2018/09/15 06:44:24","新北市雙溪區新基里自強路5號","121.866393333333","25.0389783333333","6502500","雙溪區"
"252007","AAC-283","2018/09/15 06:49:35","新北市三芝區埔坪里埔頭坑41號","121.504561666667","25.2646016666667","6502100","三芝區"
