"lineid","car","time","location","longitude","latitude","cityid","cityname"
"234078","298-R6","2018/04/21 12:19:35","新北市永和區福和路1號","121.52653","25.0100166666667","6500400","永和區"
"234068","552-UM","2018/04/21 12:19:54","新北市永和區福和路1號","121.525343333333","25.009445","6500400","永和區"
"234015","745-BX","2018/04/21 12:19:56","新北市永和區福和路1號","121.526405","25.0096083333333","6500400","永和區"
"231008","192-VK","2018/04/21 12:19:43","新北市新店區北宜路一段201號","121.547321666667","24.95227","6500600","新店區"
"235031","255-BX","2018/04/21 11:51:43","新北市中和區和城路一段271巷1號","121.485526666667","24.991865","6500300","中和區"
"228005","097-TW","2018/04/21 12:19:38","新北市貢寮區福連里福連街1號","121.988225","25.0156866666667","6502600","貢寮區"
"228004","212-TW","2018/04/21 12:19:47","新北市貢寮區貢寮里長泰路17-1號","121.891536666667","25.0213816666667","6502600","貢寮區"
"207001","662-BX","2018/04/21 12:19:53","新北市萬里區萬里里獅頭路15-1號","121.69712","25.1800366666667","6502800","萬里區"
