"lineid","car","time","location","longitude","latitude","cityid","cityname"
"234044","148-BY","2018/04/21 13:09:24","新北市永和區永元路18巷12弄2號","121.523025","25.000255","6500400","永和區"
"234005","207-UY","2018/04/21 13:09:28","新北市永和區中山路一段177號","121.509363333333","25.0090033333333","6500400","永和區"
"234078","298-R6","2018/04/21 13:09:15","新北市永和區福和路57巷14弄1號","121.522758333333","25.006915","6500400","永和區"
"234036","336-UY","2018/04/21 13:09:14","新北市永和區民樂街90巷1號","121.527318333333","24.9974","6500400","永和區"
"234062","337-UY","2018/04/21 13:09:22","新北市永和區秀朗路二段33號","121.52132","25.00242","6500400","永和區"
"234068","552-UM","2018/04/21 13:09:14","新北市永和區豫溪街95巷9號","121.518158333333","25.0106883333333","6500400","永和區"
"234066","553-UM","2018/04/21 13:09:26","新北市永和區永和路一段114-1號","121.513673333333","25.0074533333333","6500400","永和區"
"234015","745-BX","2018/04/21 13:09:15","新北市永和區文化路90巷9弄2號","121.51377","25.0157816666667","6500400","永和區"
"234028","746-BX","2018/04/21 13:09:22","新北市永和區民生路23號","121.522816666667","24.998825","6500400","永和區"
"234052","KEA-2590","2018/04/21 13:09:21","新北市永和區中興街102號","121.519085","25.0122766666667","6500400","永和區"
"234012","KEA-2591","2018/04/21 13:09:14","新北市永和區保福路二段20號","121.510946666667","25.01157","6500400","永和區"
"234060","AAD-866","2018/04/21 13:09:10","新北市永和區安樂路304巷8號","121.514641666667","25.0050733333333","6500400","永和區"
"234084","847-RS","2018/04/21 13:09:13","新北市永和區永貞路106號","121.51905","25.00448","6500400","永和區"
"234040","862-TW","2018/04/21 13:09:08","新北市永和區永貞路328號","121.51143","25.0054266666667","6500400","永和區"
"234048","863-TW","2018/04/21 13:09:27","新北市永和區仁愛路104巷7弄62號","121.510775","25.01421","6500400","永和區"
"234025","9371-KE","2018/04/21 13:09:19","新北市永和區福和路352號","121.514786666667","25.007405","6500400","永和區"
"234010","9373-KE","2018/04/21 13:09:16","新北市永和區仁愛路31巷2弄8號","121.513843333333","25.0129733333333","6500400","永和區"
"248017","225-UY","2018/04/21 13:09:14","新北市五股區成泰路三段101-1號","121.444218333333","25.0902566666667","6501500","五股區"
"234022","9380-KE","2018/04/21 13:09:22","新北市永和區中興街52巷9弄8號","121.517455","25.01111","6500400","永和區"
"234076","969-R7","2018/04/21 13:09:23","新北市永和區民光街9號","121.515476666667","24.99622","6500400","永和區"
"234072","AAC-211","2018/04/21 13:09:17","新北市永和區福和路47-1號","121.52334","25.0079283333333","6500400","永和區"
"234001","AAC-295","2018/04/21 13:09:10","新北市永和區中山路一段36號","121.513393333333","25.0107183333333","6500400","永和區"
"231005","001-UM","2018/04/21 13:09:16","新北市新店區安華路28-1號","121.51952","24.9607916666667","6500600","新店區"
"231002","002-UM","2018/04/21 13:09:06","新北市新店區安華路28-1號","121.519685","24.960945","6500600","新店區"
"231027","0293-UT","2018/04/21 13:09:18","新北市新店區安華路28-1號","121.51963","24.9606566666667","6500600","新店區"
"231001","047-UY","2018/04/21 13:09:16","新北市新店區安華路28-1號","121.519286666667","24.96096","6500600","新店區"
"231010","107-UY","2018/04/21 13:09:24","新北市新店區安華路28-1號","121.519508333333","24.9612833333333","6500600","新店區"
"231012","187-VK","2018/04/21 13:09:13","新北市新店區安華路28-1號","121.519686666667","24.9611816666667","6500600","新店區"
"231023","KEA-2219","2018/04/21 13:09:27","新北市新店區安華路28-1號","121.51995","24.9612433333333","6500600","新店區"
"231026","256-BX","2018/04/21 13:09:17","新北市新店區安華路28-1號","121.519691666667","24.961165","6500600","新店區"
"231018","278-BY","2018/04/21 13:03:37","新北市新店區安華路28-1號","121.5198","24.961155","6500600","新店區"
"231017","AAD-862","2018/04/21 13:09:23","新北市新店區安華路28-1號","121.519896666667","24.9611933333333","6500600","新店區"
"231028","355-BY","2018/04/21 13:09:17","新北市新店區安華路28-1號","121.519186666667","24.9607866666667","6500600","新店區"
"231037","4716-K9","2018/04/21 13:08:54","新北市新店區安華路28-1號","121.519783333333","24.9610566666667","6500600","新店區"
"231025","4715-K9","2018/04/21 13:09:24","新北市新店區安華路28-1號","121.519493333333","24.9606116666667","6500600","新店區"
"231036","512-UM","2018/04/21 13:09:20","新北市新店區安華路28-1號","121.519331666667","24.9612483333333","6500600","新店區"
"231013","513-UM","2018/04/21 13:09:14","新北市新店區安華路28-1號","121.519721666667","24.9611133333333","6500600","新店區"
"231006","617-UM","2018/04/21 13:09:12","新北市新店區安華路28-1號","121.51954","24.96097","6500600","新店區"
"231030","619-UM","2018/04/21 13:09:18","新北市新店區安華路28-1號","121.519711666667","24.9608833333333","6500600","新店區"
"231034","641-BX","2018/04/21 13:08:50","新北市新店區安華路28-1號","121.519543333333","24.960625","6500600","新店區"
"231003","645-TV","2018/04/21 13:09:19","新北市新店區安華路28-1號","121.519351666667","24.9606216666667","6500600","新店區"
"231035","719-UM","2018/04/21 13:09:23","新北市新店區安華路28-1號","121.519575","24.961315","6500600","新店區"
"231033","720-UM","2018/04/21 13:09:16","新北市新店區安華路28-1號","121.519153333333","24.9612783333333","6500600","新店區"
"231004","899-TW","2018/04/21 13:09:24","新北市新店區安華路30巷1號","121.519566666667","24.9598483333333","6500600","新店區"
"231024","AKT-0513","2018/04/21 13:09:11","新北市新店區安華路28-1號","121.519505","24.9606616666667","6500600","新店區"
"235028","005-UY","2018/04/21 13:09:13","新北市中和區中正路215號","121.496826666667","24.9936566666667","6500300","中和區"
"235027","006-UY","2018/04/21 13:09:17","新北市中和區員山路36巷16-3號","121.485135","24.991425","6500300","中和區"
"235029","098-UM","2018/04/21 13:09:20","新北市中和區福祥路90巷1號","121.49923","25.00561","6500300","中和區"
"235004","150-BY","2018/04/21 13:09:06","新北市中和區和城路一段271巷1號","121.48549","24.9917883333333","6500300","中和區"
"235022","151-BY","2018/04/21 13:09:07","新北市中和區圓通路367巷62-2號","121.492571666667","24.9830016666667","6500300","中和區"
"235002","185-VK","2018/04/21 13:09:25","新北市中和區大智街79號","121.521638333333","24.9922116666667","6500300","中和區"
"235031","255-BX","2018/04/21 13:09:09","新北市中和區新生街177巷13號","121.484441666667","25.0007616666667","6500300","中和區"
"235007","352-BY","2018/04/21 13:09:14","新北市中和區中正路637巷60弄61號","121.48542","24.9925133333333","6500300","中和區"
"235025","378-QA","2018/04/21 13:09:11","新北市中和區連城路607號","121.478476666667","24.9930616666667","6500300","中和區"
"235014","4979-A6","2018/04/21 13:09:13","新北市中和區員山路36巷16-3號","121.48484","24.991235","6500300","中和區"
"235033","4980-A6","2018/04/21 13:09:23","新北市中和區中正路571巷1弄4號","121.48674","24.9935316666667","6500300","中和區"
"235006","551-UM","2018/04/21 13:09:11","新北市中和區中正路273號","121.495625","24.993765","6500300","中和區"
"235018","640-BX","2018/04/21 13:09:18","新北市土城區延壽路117號","121.469068333333","24.9943283333333","6500300","中和區"
"235011","732-UM","2018/04/21 13:09:17","新北市中和區錦和路350-1號","121.49047","24.99358","6500300","中和區"
"235035","783-BX","2018/04/21 13:09:18","新北市中和區板南路520巷15號","121.483636666667","25.0088983333333","6500300","中和區"
"235026","800-TS","2018/04/21 13:09:18","新北市中和區橋和路56號","121.489373333333","25.00505","6500300","中和區"
"235021","801-TS","2018/04/21 13:09:09","新北市中和區員山路36巷16-3號","121.484923333333","24.9917083333333","6500300","中和區"
"235016","805-TS","2018/04/21 13:09:21","新北市中和區中正路545巷1號","121.48737","24.99355","6500300","中和區"
"235017","900-TW","2018/04/21 13:09:18","新北市中和區員山路36巷16-2號","121.485073333333","24.9917966666667","6500300","中和區"
"235030","911-UM","2018/04/21 13:09:19","新北市中和區廣福路116號","121.501976666667","25.000955","6500300","中和區"
"235015","157-BY","2018/04/21 13:09:08","新北市中和區板南路123-1號","121.502201666667","24.9925366666667","6500300","中和區"
"235001","AAC-213","2018/04/21 13:09:16","新北市中和區景平路149號","121.513913333333","24.99221","6500300","中和區"
"235005","251-BX","2018/04/21 13:09:14","新北市中和區員山路36巷16-2號","121.485371666667","24.991715","6500300","中和區"
"228005","097-TW","2018/04/21 13:09:18","新北市貢寮區仁理村尖山腳街20號","121.925006666667","25.04673","6502600","貢寮區"
"228004","212-TW","2018/04/21 13:09:20","新北市貢寮區吉林里內寮街71號","121.891363333333","24.9726383333333","6502600","貢寮區"
"253003","6232-TK","2018/04/21 13:09:26","新北市石門區石崩山20-1號","121.56562","25.2755233333333","6502200","石門區"
"253001","6251-TK","2018/04/21 13:09:27","新北市石門區老梅路43-2號","121.545375","25.289605","6502200","石門區"
"253002","637-UY","2018/04/21 13:09:16","新北市石門區九芎林1號","121.5559","25.2749333333333","6502200","石門區"
"253004","8270-PC","2018/04/21 13:09:26","新北市石門區阿里荖4-7號","121.611701666667","25.2793066666667","6502200","石門區"
"208003","665-BX","2018/04/21 13:09:25","基隆市七堵區華新一路118-1號","121.672273333333","25.099025","6502700","金山區"
"207002","749-BX","2018/04/21 13:09:15","新北市萬里區崁腳里崁腳路70號","121.648443333333","25.1596666666667","6502800","萬里區"
"207001","662-BX","2018/04/21 13:04:13","新北市萬里區萬里里獅頭路23號","121.693295","25.1783716666667","6502800","萬里區"
"252005","AAC-283","2018/04/21 13:09:15","新北市三芝區八賢里八連溪17號","121.510708333333","25.2428266666667","6502100","三芝區"
"236006","498-BY","2018/04/21 13:09:18","新北市土城區亞洲路21號","121.434086666667","24.9720383333333","6501300","土城區"
"221032","280-BY","2018/04/21 13:09:23","新北市汐止區龍安路183號","121.652918333333","25.0630316666667","6501100","汐止區"
