"lineid","car","time","location","longitude","latitude","cityid","cityname"
"234044","148-BY","2018/04/21 13:39:24","新北市永和區秀朗路二段97號","121.523378333333","25.00177","6500400","永和區"
"234005","207-UY","2018/04/21 13:39:08","新北市永和區永和路一段156-1號","121.514053333333","25.0086083333333","6500400","永和區"
"234078","298-R6","2018/04/21 13:39:21","新北市永和區國中路104巷6號","121.524738333333","25.0068733333333","6500400","永和區"
"234036","336-UY","2018/04/21 13:39:26","新北市永和區民樂街31巷10弄1號","121.52809","25.0008783333333","6500400","永和區"
"234062","337-UY","2018/04/21 13:39:22","新北市永和區秀朗路一段192巷6弄14號","121.519125","25.0022966666667","6500400","永和區"
"234068","552-UM","2018/04/21 13:39:14","新北市永和區永和路二段233號","121.515558333333","25.0141483333333","6500400","永和區"
"234066","553-UM","2018/04/21 13:39:26","新北市永和區中山路一段191巷16弄2號","121.509571666667","25.00807","6500400","永和區"
"234015","745-BX","2018/04/21 13:39:15","新北市永和區文化路90巷32弄7號","121.513383333333","25.01697","6500400","永和區"
"234028","746-BX","2018/04/21 13:39:21","新北市永和區民權路33號","121.520105","24.9977116666667","6500400","永和區"
"234052","KEA-2590","2018/04/21 13:39:21","新北市永和區竹林路39巷3號","121.518188333333","25.0144133333333","6500400","永和區"
"234012","KEA-2591","2018/04/21 13:39:14","新北市永和區永平路210號","121.50948","25.01017","6500400","永和區"
"234060","AAD-866","2018/04/21 13:39:10","新北市永和區中正路460號","121.517413333333","25.0030083333333","6500400","永和區"
"234084","847-RS","2018/04/21 13:39:13","新北市永和區永亨路165巷1號","121.525935","25.0040633333333","6500400","永和區"
"234040","862-TW","2018/04/21 13:39:15","新北市永和區中和路307號","121.506576666667","24.9998266666667","6500400","永和區"
"234048","863-TW","2018/04/21 13:39:27","新北市永和區保安路98號","121.509456666667","25.0159966666667","6500400","永和區"
"234010","9373-KE","2018/04/21 13:39:16","新北市永和區保福路二段15巷2號","121.510686666667","25.0110783333333","6500400","永和區"
"248017","225-UY","2018/04/21 13:39:14","新北市五股區民義路二段66-3號","121.406111666667","25.1085716666667","6501500","五股區"
"234022","9380-KE","2018/04/21 13:39:22","新北市永和區中正路702巷18號","121.516455","25.0105016666667","6500400","永和區"
"234076","969-R7","2018/04/21 13:39:23","新北市永和區得和路229-1號","121.519913333333","25.0002016666667","6500400","永和區"
"234072","AAC-211","2018/04/21 13:39:18","新北市永和區福和路68號","121.523268333333","25.0081216666667","6500400","永和區"
"234001","AAC-295","2018/04/21 13:39:10","新北市永和區秀朗路一段9號","121.513921666667","25.007435","6500400","永和區"
"231005","001-UM","2018/04/21 13:39:16","新北市新店區寶中路72號","121.547825","24.980635","6500600","新店區"
"231002","002-UM","2018/04/21 13:39:06","新北市新店區中央三街127號","121.524031666667","24.9769016666667","6500600","新店區"
"231027","0293-UT","2018/04/21 13:39:18","新北市新店區北宜路一段105巷4弄7號","121.54024","24.9555383333333","6500600","新店區"
"231001","047-UY","2018/04/21 13:39:16","新北市新店區中正路401號","121.53441","24.9775566666667","6500600","新店區"
"231010","107-UY","2018/04/21 13:39:24","新北市新店區平等街48巷15號","121.535365","24.9734266666667","6500600","新店區"
"231012","187-VK","2018/04/21 13:39:24","新北市新店區德正街27巷7號","121.544725","24.9715883333333","6500600","新店區"
"231023","KEA-2219","2018/04/21 13:39:27","新北市新店區新店路122號","121.537128333333","24.9549333333333","6500600","新店區"
"231026","256-BX","2018/04/21 13:39:18","新北市新店區北新路一段209號","121.540405","24.9650683333333","6500600","新店區"
"231020","260-TV","2018/04/21 13:39:09","新北市新店區永興路132-3號","121.544416666667","24.9316133333333","6500600","新店區"
"231018","278-BY","2018/04/21 13:39:17","新北市新店區百忍街42巷1號","121.533461666667","24.975935","6500600","新店區"
"231017","AAD-862","2018/04/21 13:39:23","新北市新店區竹林路2巷29弄7號","121.550366666667","24.95028","6500600","新店區"
"231028","355-BY","2018/04/21 13:39:17","新北市新店區安和路二段71號","121.51841","24.96867","6500600","新店區"
"231038","3712-VJ","2018/04/21 13:39:16","新北市新店區安華路30巷1號","121.519506666667","24.9592883333333","6500600","新店區"
"231037","4716-K9","2018/04/21 13:39:14","新北市新店區安康路二段335號","121.498975","24.9564366666667","6500600","新店區"
"231025","4715-K9","2018/04/21 13:39:24","新北市新店區中央六街58號","121.527898333333","24.9758183333333","6500600","新店區"
"231036","512-UM","2018/04/21 13:39:20","新北市新店區安祥路147巷60號","121.476103333333","24.9563216666667","6500600","新店區"
"231013","513-UM","2018/04/21 13:39:14","新北市新店區中正路454-5號","121.534421666667","24.9790983333333","6500600","新店區"
"231006","617-UM","2018/04/21 13:39:11","新北市新店區北宜路一段107號","121.539421666667","24.9551966666667","6500600","新店區"
"231030","619-UM","2018/04/21 13:39:25","新北市新店區安康路一段238號","121.522071666667","24.9637516666667","6500600","新店區"
"231034","641-BX","2018/04/21 13:39:10","新北市新店區車子路134號","121.504986666667","24.9486833333333","6500600","新店區"
"231003","645-TV","2018/04/21 13:39:19","新北市新店區中正路35號","121.545006666667","24.9697366666667","6500600","新店區"
"231035","719-UM","2018/04/21 13:39:23","新北市新店區安忠路8號","121.514728333333","24.9632616666667","6500600","新店區"
"231033","720-UM","2018/04/21 13:39:19","新北市新店區莒光路61巷1號","121.523606666667","24.9582","6500600","新店區"
"231029","897-TW","2018/04/21 13:39:09","新北市新店區安康路二段354號","121.502256666667","24.9574266666667","6500600","新店區"
"231004","899-TW","2018/04/21 13:39:24","新北市新店區北新路二段1號","121.542666666667","24.9712833333333","6500600","新店區"
"231024","AKT-0513","2018/04/21 13:39:11","新北市新店區中華路115號","121.538723333333","24.9696083333333","6500600","新店區"
"235028","005-UY","2018/04/21 13:39:13","新北市中和區連城路89巷9-2號","121.497511666667","24.99885","6500300","中和區"
"235027","006-UY","2018/04/21 13:39:17","新北市中和區連城路347巷16弄36號","121.486893333333","24.9951183333333","6500300","中和區"
"235020","096-UM","2018/04/21 13:39:07","新北市中和區員山路466巷21弄14號","121.481066666667","25.006905","6500300","中和區"
"235003","097-UM","2018/04/21 13:39:23","新北市中和區景平路278巷14弄6號","121.514355","24.9928133333333","6500300","中和區"
"235029","098-UM","2018/04/21 13:39:18","新北市中和區莊敬路33巷13號","121.500251666667","25.0068666666667","6500300","中和區"
"235004","150-BY","2018/04/21 13:10:46","新北市中和區和城路一段271巷1號","121.48549","24.9917883333333","6500300","中和區"
"235022","151-BY","2018/04/21 13:39:27","新北市中和區圓通路433巷8號","121.4875","24.9881633333333","6500300","中和區"
"235019","183-VK","2018/04/21 13:39:23","新北市中和區莒光路120巷15弄2號","121.471756666667","25.0011383333333","6500300","中和區"
"235002","185-VK","2018/04/21 13:39:18","新北市中和區大勇街41號","121.51772","24.9945333333333","6500300","中和區"
"235013","186-VK","2018/04/21 13:39:21","新北市中和區明義街11巷12弄2號","121.503655","24.9947233333333","6500300","中和區"
"235031","255-BX","2018/04/21 13:39:09","新北市中和區新生街220巷4號","121.482915","24.9985483333333","6500300","中和區"
"235008","293-VK","2018/04/21 13:39:25","新北市中和區景安路220巷1弄3號","121.503306666667","24.99064","6500300","中和區"
"235036","301-VK","2018/04/21 13:39:15","新北市中和區中山路二段193號","121.499936666667","25.0026983333333","6500300","中和區"
"235007","352-BY","2018/04/21 13:39:14","新北市中和區景平路177號","121.511861666667","24.9926633333333","6500300","中和區"
"235032","377-QA","2018/04/21 13:38:53","新北市中和區中興街168巷5號","121.499525","24.991295","6500300","中和區"
"235025","378-QA","2018/04/21 13:39:11","新北市中和區民享街30巷2號","121.473715","25.0036383333333","6500300","中和區"
"235014","4979-A6","2018/04/21 13:39:22","新北市中和區景新街496巷28弄7號","121.513458333333","24.9857066666667","6500300","中和區"
"235033","4980-A6","2018/04/21 13:39:23","新北市中和區連城路65巷7號","121.49792","25.00104","6500300","中和區"
"235006","551-UM","2018/04/21 13:39:11","新北市中和區成功路97巷18弄9號","121.526985","24.9914416666667","6500300","中和區"
"235009","565-BX","2018/04/21 13:39:17","新北市中和區南山路236巷53號","121.504805","24.988175","6500300","中和區"
"235018","640-BX","2018/04/21 13:39:18","新北市中和區民享街32巷22號","121.472796666667","25.0031783333333","6500300","中和區"
"235024","647-TV","2018/04/21 13:39:10","新北市中和區員山路449號","121.480651666667","25.0041416666667","6500300","中和區"
"235011","732-UM","2018/04/21 13:39:17","新北市中和區南山路320巷10弄11號","121.506816666667","24.9865633333333","6500300","中和區"
"235010","733-UM","2018/04/21 13:39:19","新北市中和區興南路一段106號","121.509795","24.9889433333333","6500300","中和區"
"235035","783-BX","2018/04/21 13:39:18","新北市中和區立德街32號","121.489021666667","25.0070983333333","6500300","中和區"
"235026","800-TS","2018/04/21 13:39:18","新北市中和區中山路二段312巷41號","121.495165","25.004085","6500300","中和區"
"235021","801-TS","2018/04/21 13:39:09","新北市中和區民享街97巷14號","121.475291666667","24.999615","6500300","中和區"
"235016","805-TS","2018/04/21 13:39:21","新北市中和區興南路三段62-3號","121.492835","24.9749016666667","6500300","中和區"
"235012","896-TW","2018/04/21 13:39:23","新北市中和區中正路135號","121.49953","24.993505","6500300","中和區"
"235017","900-TW","2018/04/21 13:39:18","新北市中和區華福街73號","121.467261666667","24.996545","6500300","中和區"
"235030","911-UM","2018/04/21 13:39:19","新北市中和區光華街50號","121.505146666667","25.0036","6500300","中和區"
"235015","157-BY","2018/04/21 13:39:08","新北市中和區華新街143巷106弄7號","121.506115","24.9788633333333","6500300","中和區"
"235001","AAC-213","2018/04/21 13:39:16","新北市中和區景平路111巷60弄40號","121.514998333333","24.99092","6500300","中和區"
"220013","072-UY","2018/04/21 13:39:13","新北市板橋區縣民大道二段1號","121.462038333333","25.011565","6500100","板橋區"
"220034","073-UY","2018/04/21 13:39:23","新北市板橋區南雅西路二段192巷1弄31號","121.452446666667","25.0154416666667","6500100","板橋區"
"220105","075-UY","2018/04/21 13:39:23","新北市板橋區民生路二段161巷5號","121.470295","25.019735","6500100","板橋區"
"220017","AAD-861","2018/04/21 13:39:18","新北市板橋區華東街1-10號","121.448333333333","24.9951233333333","6500100","板橋區"
"247005","336-TH","2018/04/21 13:39:26","新北市五股區工商路8號","121.440571666667","25.082475","6501400","蘆洲區"
"247007","056-VK","2018/04/21 13:39:16","新北市蘆洲區國道路二段115號","121.4704","25.075005","6501400","蘆洲區"
"235005","251-BX","2018/04/21 13:39:14","新北市中和區中和路400巷21號","121.511686666667","25.0023283333333","6500300","中和區"
"228005","097-TW","2018/04/21 13:39:18","新北市貢寮區美豐里文秀坑8號","121.902453333333","25.0503233333333","6502600","貢寮區"
"228004","212-TW","2018/04/21 13:37:27","新北市貢寮區龍崗里石壁坑街24號","121.911503333333","24.9979283333333","6502600","貢寮區"
"253003","6232-TK","2018/04/21 13:39:26","新北市石門區尖子鹿4號","121.573603333333","25.28385","6502200","石門區"
"253001","6251-TK","2018/04/21 13:39:27","新北市石門區白沙灣別墅39-1號","121.509293333333","25.2786266666667","6502200","石門區"
"253002","637-UY","2018/04/21 13:39:22","新北市石門區九芎林54號","121.565396666667","25.2492066666667","6502200","石門區"
"253004","8270-PC","2018/04/21 13:39:06","新北市石門區阿里荖60-1號","121.607695","25.269755","6502200","石門區"
"208003","665-BX","2018/04/21 13:39:25","新北市新店區薏仁坑路自強巷1號","121.497048333333","24.9578383333333","6502700","金山區"
"207002","749-BX","2018/04/21 13:39:11","新北市萬里區崁腳里崁腳路166號","121.645058333333","25.1558033333333","6502800","萬里區"
"207001","662-BX","2018/04/21 13:39:13","新北市萬里區大鵬里萬里加投78-3號","121.646716666667","25.2121816666667","6502800","萬里區"
"252005","AAC-283","2018/04/21 13:39:15","新北市三芝區圓山里內柑宅25-2號","121.536876666667","25.22771","6502100","三芝區"
"236068","105-UM","2018/04/21 13:39:16","新北市土城區城林路6巷80號","121.438678333333","24.979655","6501300","土城區"
"236074","166-UM","2018/04/21 13:39:19","新北市土城區光明街1號","121.442128333333","24.9749716666667","6501300","土城區"
"236024","269-VK","2018/04/21 13:39:19","新北市土城區城林路6巷80號","121.43866","24.9797966666667","6501300","土城區"
"236013","270-VK","2018/04/21 13:39:21","新北市土城區城林路6巷80號","121.43865","24.979765","6501300","土城區"
"236032","271-VK","2018/04/21 13:39:16","新北市土城區城林路6巷80號","121.438495","24.9798033333333","6501300","土城區"
"236006","498-BY","2018/04/21 13:39:18","新北市土城區中華路二段167號","121.438685","24.9754266666667","6501300","土城區"
"236057","912-UM","2018/04/21 13:39:27","新北市土城區城林路6巷80號","121.438421666667","24.9798166666667","6501300","土城區"
"236045","913-UM","2018/04/21 13:39:08","新北市土城區城林路6巷80號","121.438685","24.9797033333333","6501300","土城區"
"236060","915-UM","2018/04/21 13:39:14","新北市土城區城林路6巷80號","121.43845","24.979795","6501300","土城區"
"236054","AAC-216","2018/04/21 13:39:27","新北市土城區城林路6巷80號","121.438561666667","24.9798316666667","6501300","土城區"
"221032","280-BY","2018/04/21 13:39:22","新北市汐止區仁愛路23號","121.659361666667","25.063825","6501100","汐止區"
"220027","145-BY","2018/04/21 13:39:17","新北市板橋區幸福路70巷1號","121.460718333333","25.0199633333333","6500100","板橋區"
"220037","146-RM","2018/04/21 13:39:10","新北市板橋區民生路二段175號","121.469871666667","25.0202366666667","6500100","板橋區"
"220028","200-UY","2018/04/21 13:39:11","新北市板橋區大觀路二段265巷76弄37號","121.441081666667","24.9967583333333","6500100","板橋區"
"220030","610-BX","2018/04/21 13:39:20","新北市板橋區篤行路一段10號","121.432111666667","24.995475","6500100","板橋區"
"220052","257-TC","2018/04/21 13:39:20","新北市板橋區民生路二段120號","121.470378333333","25.0196516666667","6500100","板橋區"
"220004","276-BY","2018/04/21 13:39:16","新北市板橋區四川路二段橋頭6號","121.448145","24.9938166666667","6500100","板橋區"
"220020","277-BY","2018/04/21 13:39:15","新北市板橋區大觀路三段52號","121.432233333333","24.9959283333333","6500100","板橋區"
"220019","283-VK","2018/04/21 13:39:18","新北市板橋區四川路二段橋頭6號","121.448203333333","24.9939216666667","6500100","板橋區"
"220043","285-UM","2018/04/21 13:39:09","新北市板橋區民生路二段161巷1號","121.470111666667","25.0198816666667","6500100","板橋區"
"220001","285-VK","2018/04/21 13:39:21","新北市板橋區民生路二段161巷1號","121.470278333333","25.0199833333333","6500100","板橋區"
"220031","286-VK","2018/04/21 13:39:22","新北市板橋區大觀路二段57號","121.44662","25.002695","6500100","板橋區"
"220029","287-VK","2018/04/21 13:39:16","新北市板橋區大觀路一段2號","121.45075","25.0085716666667","6500100","板橋區"
"220032","296-UM","2018/04/21 13:39:11","新北市板橋區大觀路二段179巷32號","121.446146666667","24.9995616666667","6500100","板橋區"
"220023","303-R5","2018/04/21 13:39:13","新北市板橋區華東街268號","121.45258","25.0011266666667","6500100","板橋區"
"220010","305-R5","2018/04/21 13:39:19","新北市板橋區民生路二段120號","121.470368333333","25.01974","6500100","板橋區"
"220012","486-VK","2018/04/21 13:39:25","新北市板橋區板新路238號","121.468021666667","25.0160183333333","6500100","板橋區"
"220104","560-BX","2018/04/21 13:39:25","新北市板橋區南雅西路二段175巷7號","121.451483333333","25.0121283333333","6500100","板橋區"
"220011","609-BX","2018/04/21 13:39:11","新北市板橋區民生路二段175號","121.46968","25.02019","6500100","板橋區"
"220002","630-UY","2018/04/21 13:39:11","新北市板橋區華東街1-9號","121.44806","24.9949766666667","6500100","板橋區"
"220005","686-BX","2018/04/21 13:39:22","新北市板橋區華東街1-9號","121.448198333333","24.9949466666667","6500100","板橋區"
"220025","687-BX","2018/04/21 13:39:18","新北市板橋區沙崙街37號","121.430498333333","24.99448","6500100","板橋區"
"220003","827-TW","2018/04/21 13:39:17","新北市板橋區華東街1-9號","121.448161666667","24.9949283333333","6500100","板橋區"
"220022","895-R6","2018/04/21 13:39:19","新北市板橋區新興路27號","121.455896666667","25.0066983333333","6500100","板橋區"
"220021","985-R7","2018/04/21 13:39:08","新北市板橋區縣民大道一段94巷2號","121.456225","25.0048633333333","6500100","板橋區"
"220046","AAC-210","2018/04/21 13:38:02","新北市板橋區民生路二段161巷3號","121.470171666667","25.0198183333333","6500100","板橋區"
