"lineid","car","time","location","longitude","latitude","cityid","cityname"
"234044","148-BY","2018/04/21 13:49:24","新北市永和區永亨路174號","121.526126666667","25.0029066666667","6500400","永和區"
"234005","207-UY","2018/04/21 13:49:08","新北市中和區中和路472號","121.512426666667","25.00394","6500400","永和區"
"234078","298-R6","2018/04/21 13:49:15","新北市永和區國中路4號","121.524366666667","25.0044816666667","6500400","永和區"
"234036","336-UY","2018/04/21 13:49:14","新北市永和區民樂街55巷2號","121.527561666667","24.998445","6500400","永和區"
"234062","337-UY","2018/04/21 13:49:22","新北市永和區中正路368巷2號","121.517935","25.0008066666667","6500400","永和區"
"234068","552-UM","2018/04/21 13:49:14","新北市永和區竹林路78號","121.51929","25.012865","6500400","永和區"
"234066","553-UM","2018/04/21 13:49:26","新北市永和區保平路236巷25-1號","121.508088333333","25.0067966666667","6500400","永和區"
"234015","745-BX","2018/04/21 13:49:15","新北市永和區永和路二段282號","121.516145","25.015425","6500400","永和區"
"234028","746-BX","2018/04/21 13:49:23","新北市永和區民生路47巷5號","121.52316","24.9978266666667","6500400","永和區"
"234052","KEA-2590","2018/04/21 13:49:22","新北市永和區竹林路39巷28弄21號","121.519913333333","25.0144966666667","6500400","永和區"
"234012","KEA-2591","2018/04/21 13:49:14","新北市永和區仁愛路186巷2號","121.509898333333","25.0126066666667","6500400","永和區"
"234060","AAD-866","2018/04/21 13:49:10","新北市永和區中正路69號","121.514873333333","24.996705","6500400","永和區"
"234084","847-RS","2018/04/21 13:49:13","新北市永和區中正路562號","121.51732","25.0059733333333","6500400","永和區"
"234040","862-TW","2018/04/21 13:49:08","新北市永和區中和路389巷2-1號","121.508395","25.0003966666667","6500400","永和區"
"234048","863-TW","2018/04/21 13:49:27","新北市永和區保安路79號","121.508591666667","25.014875","6500400","永和區"
"234010","9373-KE","2018/04/21 13:49:16","新北市永和區保安路292號","121.505085","25.0117466666667","6500400","永和區"
"248017","225-UY","2018/04/21 13:49:14","新北市五股區民義路二段22巷24號","121.423926666667","25.0982766666667","6501500","五股區"
"234022","9380-KE","2018/04/21 13:49:22","新北市永和區永和路二段28號","121.5146","25.0104016666667","6500400","永和區"
"234076","969-R7","2018/04/21 13:49:23","新北市永和區民權路36巷10號","121.519593333333","24.998975","6500400","永和區"
"234072","AAC-211","2018/04/21 13:49:17","新北市永和區豫溪街189巷5號","121.522533333333","25.0103366666667","6500400","永和區"
"234001","AAC-295","2018/04/21 13:49:10","新北市永和區永和路一段85號","121.513198333333","25.0073916666667","6500400","永和區"
"231005","001-UM","2018/04/21 13:49:16","新北市新店區寶中路121-1號","121.549641666667","24.9794616666667","6500600","新店區"
"231002","002-UM","2018/04/21 13:49:26","新北市新店區溪園路393號","121.524308333333","24.9790483333333","6500600","新店區"
"231027","0293-UT","2018/04/21 13:49:18","新北市新店區北宜路一段3號","121.538471666667","24.9583933333333","6500600","新店區"
"231001","047-UY","2018/04/21 13:49:16","新北市新店區三民路71號","121.536181666667","24.9714616666667","6500600","新店區"
"231010","107-UY","2018/04/21 13:49:26","新北市新店區平等街63號","121.536025","24.9725333333333","6500600","新店區"
"231012","187-VK","2018/04/21 13:49:13","新北市新店區德正街25巷6號","121.544653333333","24.971675","6500600","新店區"
"231023","KEA-2219","2018/04/21 13:49:27","新北市新店區國校路20-1號","121.537896666667","24.9550533333333","6500600","新店區"
"231026","256-BX","2018/04/21 13:49:18","新北市新店區三民路94巷14號","121.53476","24.9733783333333","6500600","新店區"
"231020","260-TV","2018/04/21 13:49:09","新北市新店區湖子內路22號","121.542263333333","24.9308216666667","6500600","新店區"
"231018","278-BY","2018/04/21 13:49:17","新北市新店區中正路400巷4號","121.534915","24.9775916666667","6500600","新店區"
"231017","AAD-862","2018/04/21 13:49:23","新北市新店區竹林路94號","121.55383","24.9502683333333","6500600","新店區"
"231028","355-BY","2018/04/21 13:49:17","新北市新店區安興路141號","121.516838333333","24.9794383333333","6500600","新店區"
"231038","3712-VJ","2018/04/21 13:49:16","新北市新店區安康路一段222-3號","121.52251","24.9637216666667","6500600","新店區"
"231037","4716-K9","2018/04/21 13:49:14","新北市新店區安康路三段355巷1號","121.484415","24.9506633333333","6500600","新店區"
"231025","4715-K9","2018/04/21 13:49:24","新北市新店區中央五街1號","121.530095","24.9741133333333","6500600","新店區"
"231036","512-UM","2018/04/21 13:49:20","新北市新店區安祥路110巷30弄1號","121.473821666667","24.9564066666667","6500600","新店區"
"231013","513-UM","2018/04/21 13:49:14","新北市新店區二十張路25巷18弄16號","121.539215","24.981545","6500600","新店區"
"231006","617-UM","2018/04/21 13:49:11","新北市新店區北宜路一段260號","121.545678333333","24.9528133333333","6500600","新店區"
"231030","619-UM","2018/04/21 13:49:18","新北市新店區安康路一段42號","121.530905","24.9610666666667","6500600","新店區"
"231034","641-BX","2018/04/21 13:49:30","新北市新店區達觀路16號","121.503135","24.940765","6500600","新店區"
"231003","645-TV","2018/04/21 13:49:19","新北市新店區中興路一段162號","121.542656666667","24.9640216666667","6500600","新店區"
"231035","719-UM","2018/04/21 13:49:23","新北市新店區安忠路205巷8號","121.509548333333","24.95497","6500600","新店區"
"231033","720-UM","2018/04/21 13:49:16","新北市新店區青山路399巷2號","121.523991666667","24.9531783333333","6500600","新店區"
"231029","897-TW","2018/04/21 13:49:29","新北市新店區安康路二段125-1號","121.512385","24.9608816666667","6500600","新店區"
"231004","899-TW","2018/04/21 13:49:24","新北市新店區寶橋路132號","121.547366666667","24.975975","6500600","新店區"
"231024","AKT-0513","2018/04/21 13:49:11","新北市新店區北新路一段271巷8號","121.540476666667","24.966895","6500600","新店區"
"235028","005-UY","2018/04/21 13:49:13","新北市中和區連城路75巷9號","121.498438333333","24.9985366666667","6500300","中和區"
"235027","006-UY","2018/04/21 13:49:17","新北市中和區錦和路196巷6號","121.489738333333","24.994975","6500300","中和區"
"235020","096-UM","2018/04/21 13:49:27","新北市中和區立德街329號","121.481596666667","25.0104333333333","6500300","中和區"
"235003","097-UM","2018/04/21 13:49:23","新北市中和區大勇街25巷18號","121.51656","24.9934383333333","6500300","中和區"
"235029","098-UM","2018/04/21 13:49:18","新北市中和區勝利路35巷3弄10號","121.4995","25.0071166666667","6500300","中和區"
"235004","150-BY","2018/04/21 13:49:27","新北市中和區保健路67巷3弄3號","121.509738333333","24.9973133333333","6500300","中和區"
"235022","151-BY","2018/04/21 13:49:27","新北市中和區連城路518巷8號","121.47648","24.9925883333333","6500300","中和區"
"235019","183-VK","2018/04/21 13:49:23","新北市中和區德光路77巷6弄2號","121.469831666667","25.0034633333333","6500300","中和區"
"235002","185-VK","2018/04/21 13:49:18","新北市中和區立人街24-5號","121.518888333333","24.9941583333333","6500300","中和區"
"235013","186-VK","2018/04/21 13:49:21","新北市中和區景安路177巷22號","121.506343333333","24.99424","6500300","中和區"
"235031","255-BX","2018/04/21 13:49:09","新北市中和區新生街220巷1弄11號","121.48345","24.998105","6500300","中和區"
"235008","293-VK","2018/04/21 13:49:25","新北市中和區中興街134號","121.49984","24.9921883333333","6500300","中和區"
"235036","301-VK","2018/04/21 13:49:15","新北市中和區中山路二段43號","121.504468333333","25.0050883333333","6500300","中和區"
"235007","352-BY","2018/04/21 13:49:14","新北市中和區景平路1號","121.525696666667","24.9900516666667","6500300","中和區"
"235032","377-QA","2018/04/21 13:49:13","新北市中和區圓通路281巷1號","121.495676666667","24.99282","6500300","中和區"
"235025","378-QA","2018/04/21 13:49:11","新北市中和區民治街132巷8號","121.474953333333","25.0023866666667","6500300","中和區"
"235014","4979-A6","2018/04/21 13:49:13","新北市中和區忠孝街62巷7弄2號","121.512958333333","24.9837516666667","6500300","中和區"
"235033","4980-A6","2018/04/21 13:49:23","新北市中和區南山路81巷8弄4號","121.50247","24.9978333333333","6500300","中和區"
"235006","551-UM","2018/04/21 13:49:11","新北市中和區秀朗路三段70巷34號","121.525553333333","24.9945116666667","6500300","中和區"
"235009","565-BX","2018/04/21 13:49:17","新北市中和區景安路211號","121.504576666667","24.9917016666667","6500300","中和區"
"235018","640-BX","2018/04/21 13:49:19","新北市中和區自治街26號","121.474786666667","25.0031916666667","6500300","中和區"
"235024","647-TV","2018/04/21 13:49:18","新北市中和區中山路二段618號","121.481471666667","25.0054416666667","6500300","中和區"
"235011","732-UM","2018/04/21 13:49:17","新北市中和區興南路二段34巷59號","121.50497","24.985495","6500300","中和區"
"235010","733-UM","2018/04/21 13:49:18","新北市中和區仁愛街36巷31號","121.51117","24.9872583333333","6500300","中和區"
"235035","783-BX","2018/04/21 13:49:18","新北市中和區中山路二段482巷11弄1號","121.48851","25.0063933333333","6500300","中和區"
"235026","800-TS","2018/04/21 13:47:58","新北市中和區中山路二段340巷38號","121.493471666667","25.0039316666667","6500300","中和區"
"235021","801-TS","2018/04/21 13:49:29","新北市中和區員山路327巷52號","121.480223333333","25.0018866666667","6500300","中和區"
"235016","805-TS","2018/04/21 13:49:21","新北市中和區興南路二段399巷124號","121.501198333333","24.9755133333333","6500300","中和區"
"235012","896-TW","2018/04/21 13:49:25","新北市中和區南山路333號","121.505533333333","24.9910116666667","6500300","中和區"
"235017","900-TW","2018/04/21 13:49:18","新北市中和區民德路290巷7號","121.467","24.995815","6500300","中和區"
"235030","911-UM","2018/04/21 13:49:19","新北市中和區廣福路56巷6號","121.503503333333","25.0024466666667","6500300","中和區"
"235015","157-BY","2018/04/21 13:49:08","新北市中和區華新街111號","121.50846","24.9815033333333","6500300","中和區"
"235001","AAC-213","2018/04/21 13:49:16","新北市中和區秀朗路三段128巷2號","121.524678333333","24.992335","6500300","中和區"
"235023","AAC-215","2018/04/21 13:49:26","新北市中和區圓通路393巷2號","121.489648333333","24.9889483333333","6500300","中和區"
"220016","013-TV","2018/04/21 13:49:16","新北市板橋區民生路二段56-6號","121.470826666667","25.0186066666667","6500100","板橋區"
"220013","072-UY","2018/04/21 13:49:13","新北市板橋區漢生東路280號","121.471061666667","25.0093383333333","6500100","板橋區"
"220034","073-UY","2018/04/21 13:49:23","新北市板橋區大智街36號","121.455076666667","25.0150716666667","6500100","板橋區"
"220105","075-UY","2018/04/21 13:49:23","新北市板橋區民生路二段161巷7號","121.47026","25.0197066666667","6500100","板橋區"
"220017","AAD-861","2018/04/21 13:49:18","新北市板橋區縣民大道一段108號","121.456995","25.0057033333333","6500100","板橋區"
"247003","337-TH","2018/04/21 13:49:27","新北市蘆洲區中原路31號","121.460075","25.0826583333333","6501400","蘆洲區"
"247005","336-TH","2018/04/21 13:49:26","新北市蘆洲區和平路77號","121.469296666667","25.079065","6501400","蘆洲區"
"247007","056-VK","2018/04/21 13:49:16","新北市蘆洲區永安北路二段76巷22號","121.482796666667","25.08542","6501400","蘆洲區"
"247019","001-UY","2018/04/21 13:49:11","新北市蘆洲區民族路408巷46號","121.474848333333","25.0931033333333","6501400","蘆洲區"
"235005","251-BX","2018/04/21 13:49:14","新北市中和區永貞路280號","121.51314","25.0039983333333","6500300","中和區"
"228005","097-TW","2018/04/21 13:49:18","新北市雙溪區三港里雙澳路100號","121.888785","25.056485","6502600","貢寮區"
"228004","212-TW","2018/04/21 13:42:27","新北市貢寮區龍崗里嵩陽街41號","121.905125","25.01365","6502600","貢寮區"
"253003","6232-TK","2018/04/21 13:49:26","新北市石門區尖子鹿8號","121.57519","25.279995","6502200","石門區"
"253001","6251-TK","2018/04/21 13:49:07","新北市三芝區新庄里新庄子96號","121.515513333333","25.27572","6502200","石門區"
"253002","637-UY","2018/04/21 13:49:16","新北市石門區尖山湖18號","121.558631666667","25.2470233333333","6502200","石門區"
"253004","8270-PC","2018/04/21 13:49:26","新北市石門區草埔尾34-1號","121.603166666667","25.265115","6502200","石門區"
"208003","665-BX","2018/04/21 13:49:25","新北市新店區薏仁坑路自強巷1號","121.497563333333","24.9580016666667","6502700","金山區"
"207002","749-BX","2018/04/21 13:49:11","新北市萬里區崁腳里崁腳路166號","121.645016666667","25.1558266666667","6502800","萬里區"
"207001","662-BX","2018/04/21 13:49:13","新北市萬里區磺潭里磺溪10號","121.628546666667","25.2025566666667","6502800","萬里區"
"252005","AAC-283","2018/04/21 13:49:15","新北市三芝區圓山里二坪頂71號","121.537476666667","25.2401233333333","6502100","三芝區"
"236068","105-UM","2018/04/21 13:49:16","新北市土城區城林路6巷80號","121.43869","24.97963","6501300","土城區"
"236040","107-UM","2018/04/21 13:49:28","新北市土城區城林路6巷80號","121.438478333333","24.9797533333333","6501300","土城區"
"236074","166-UM","2018/04/21 13:49:17","新北市土城區中央路三段180號","121.430778333333","24.9650533333333","6501300","土城區"
"236029","253-BX","2018/04/21 13:49:18","新北市土城區城林路6巷80號","121.438361666667","24.97984","6501300","土城區"
"236024","269-VK","2018/04/21 13:49:19","新北市土城區城林路6巷80號","121.438541666667","24.9800733333333","6501300","土城區"
"236013","270-VK","2018/04/21 13:49:21","新北市土城區城林路6巷80號","121.438633333333","24.979745","6501300","土城區"
"236032","271-VK","2018/04/21 13:49:16","新北市土城區城林路6巷80號","121.438486666667","24.97978","6501300","土城區"
"236017","401-BY","2018/04/21 13:49:20","新北市土城區城林路6巷80號","121.438385","24.9797716666667","6501300","土城區"
"236006","498-BY","2018/04/21 13:49:18","新北市土城區學府路二段151號","121.446743333333","24.97923","6501300","土城區"
"236057","912-UM","2018/04/21 13:49:27","新北市土城區中華路二段56號","121.439073333333","24.9773816666667","6501300","土城區"
"236045","913-UM","2018/04/21 13:49:29","新北市土城區城林路6巷80號","121.438666666667","24.979735","6501300","土城區"
"236060","915-UM","2018/04/21 13:49:14","新北市土城區城林路6巷80號","121.438435","24.9797983333333","6501300","土城區"
"236054","AAC-216","2018/04/21 13:49:27","新北市土城區城林路6巷80號","121.438601666667","24.9797816666667","6501300","土城區"
"220027","145-BY","2018/04/21 13:49:17","新北市板橋區民權路202巷1弄2-3號","121.459481666667","25.0141983333333","6500100","板橋區"
"220037","146-RM","2018/04/21 13:49:10","新北市板橋區民生路二段175號","121.469868333333","25.0201983333333","6500100","板橋區"
"220028","200-UY","2018/04/21 13:49:11","新北市板橋區大觀路二段265巷60弄4號","121.442595","24.9980883333333","6500100","板橋區"
"220030","610-BX","2018/04/21 13:49:17","新北市板橋區篤行路三段64號","121.428038333333","24.98632","6500100","板橋區"
"220052","257-TC","2018/04/21 13:49:20","新北市板橋區民生路二段120號","121.47041","25.01961","6500100","板橋區"
"220040","267-BY","2018/04/21 13:49:07","新北市板橋區民生路二段161巷1號","121.47024","25.0200883333333","6500100","板橋區"
"220004","276-BY","2018/04/21 13:49:16","新北市板橋區四川路二段31號","121.454371666667","24.995545","6500100","板橋區"
"220020","277-BY","2018/04/21 13:49:15","新北市板橋區大觀路三段36巷76號","121.434516666667","24.9974016666667","6500100","板橋區"
"220019","283-VK","2018/04/21 13:49:18","新北市板橋區忠孝路176巷48號","121.465361666667","25.0016966666667","6500100","板橋區"
"220043","285-UM","2018/04/21 13:49:28","新北市板橋區民生路二段161巷1號","121.470065","25.0198683333333","6500100","板橋區"
"220001","285-VK","2018/04/21 13:49:28","新北市板橋區永豐街55巷48號","121.472085","25.0185833333333","6500100","板橋區"
"220031","286-VK","2018/04/21 13:49:25","新北市板橋區大觀路一段38巷156弄104號","121.443231666667","25.0074783333333","6500100","板橋區"
"220029","287-VK","2018/04/21 13:49:28","新北市板橋區光華街15巷3號","121.453781666667","25.0117683333333","6500100","板橋區"
"220039","288-VK","2018/04/21 13:48:59","新北市板橋區民生路二段120號","121.470456666667","25.0196233333333","6500100","板橋區"
"220009","295-UM","2018/04/21 13:49:17","新北市板橋區太和街5巷4號","121.473545","25.0200916666667","6500100","板橋區"
"220032","296-UM","2018/04/21 13:49:24","新北市板橋區大觀路二段146-5號","121.441828333333","24.9988566666667","6500100","板橋區"
"220023","303-R5","2018/04/21 13:49:13","新北市板橋區南雅西路一段174巷1弄8號","121.452926666667","25.00742","6500100","板橋區"
"220010","305-R5","2018/04/21 13:49:19","新北市板橋區觀光街2-1號","121.472368333333","25.0153833333333","6500100","板橋區"
"220041","307-R5","2018/04/21 13:49:23","新北市板橋區民生路二段120號","121.470438333333","25.0199383333333","6500100","板橋區"
"220047","317-R6","2018/04/21 13:49:28","新北市板橋區民生路二段120號","121.470638333333","25.0198333333333","6500100","板橋區"
"220012","486-VK","2018/04/21 13:49:14","新北市板橋區民生路二段36-1號","121.472076666667","25.016815","6500100","板橋區"
"220104","560-BX","2018/04/21 13:49:25","新北市板橋區中正路275巷3弄1號","121.454578333333","25.0184666666667","6500100","板橋區"
"220011","609-BX","2018/04/21 13:49:11","新北市板橋區中山路二段37號","121.473061666667","25.015675","6500100","板橋區"
"220002","630-UY","2018/04/21 13:49:11","新北市板橋區華東街1-9號","121.448071666667","24.9949783333333","6500100","板橋區"
"220005","686-BX","2018/04/21 13:49:22","新北市板橋區南雅南路二段118號","121.45242","25.0002833333333","6500100","板橋區"
"220025","687-BX","2018/04/21 13:49:19","新北市板橋區大觀路三段59巷17弄6-1號","121.43534","24.99542","6500100","板橋區"
"220042","689-BX","2018/04/21 13:49:19","新北市板橋區民生路二段188號","121.470126666667","25.02023","6500100","板橋區"
"220051","KEA-2699","2018/04/21 13:49:14","新北市板橋區民生路二段120號","121.470596666667","25.0195083333333","6500100","板橋區"
"220003","827-TW","2018/04/21 13:49:17","新北市板橋區縣民大道一段112號","121.45711","25.0059116666667","6500100","板橋區"
"220014","829-TW","2018/04/21 13:49:20","新北市板橋區中山路二段37號","121.47309","25.0156783333333","6500100","板橋區"
"220045","830-TW","2018/04/21 13:48:28","新北市板橋區民生路二段120號","121.470405","25.0197833333333","6500100","板橋區"
"220038","833-TW","2018/04/21 13:49:06","新北市板橋區民生路二段161巷1號","121.469985","25.020095","6500100","板橋區"
"220022","895-R6","2018/04/21 13:49:27","新北市板橋區南雅南路一段67號","121.455825","25.005895","6500100","板橋區"
"220021","985-R7","2018/04/21 13:49:28","新北市板橋區府中路32號","121.458045","25.0096416666667","6500100","板橋區"
"220046","AAC-210","2018/04/21 13:46:02","新北市板橋區民生路二段120號","121.470421666667","25.0198833333333","6500100","板橋區"
"220018","AAC-253","2018/04/21 13:49:30","新北市板橋區四川路一段95號","121.459775","25.0054866666667","6500100","板橋區"
