"lineid","car","time","location","longitude","latitude","cityid","cityname"
"234005","207-UY","2018/04/21 14:29:08","新北市永和區秀朗路一段185號","121.51748","25.0036666666667","6500400","永和區"
"234078","298-R6","2018/04/21 14:29:15","新北市永和區永亨路59號","121.520965","25.0063383333333","6500400","永和區"
"234062","337-UY","2018/04/21 14:29:22","新北市永和區中正路435號","121.51704","25.0051","6500400","永和區"
"234068","552-UM","2018/04/21 14:29:14","新北市永和區永亨路7號","121.519426666667","25.0057366666667","6500400","永和區"
"234028","746-BX","2018/04/21 14:29:21","新北市永和區民權路84號","121.519878333333","24.9970683333333","6500400","永和區"
"234052","KEA-2590","2018/04/21 14:29:21","新北市永和區環河東路一段80號","121.519591666667","25.0164883333333","6500400","永和區"
"234060","AAD-866","2018/04/21 14:29:17","新北市永和區秀安街11巷2號","121.515881666667","25.0032883333333","6500400","永和區"
"234084","847-RS","2018/04/21 14:29:18","新北市永和區永和路二段310號","121.516136666667","25.0161016666667","6500400","永和區"
"234040","862-TW","2018/04/21 14:29:08","新北市永和區安樂路348號","121.51446","25.006465","6500400","永和區"
"234048","863-TW","2018/04/21 14:27:27","新北市永和區新生路140號","121.506646666667","25.0143333333333","6500400","永和區"
"234025","9371-KE","2018/04/21 14:29:15","新北市中和區安樂路255號","121.514108333333","24.9998866666667","6500400","永和區"
"248017","225-UY","2018/04/21 14:18:35","新北市五股區壟路16號","121.415131666667","25.0854566666667","6501500","五股區"
"234072","AAC-211","2018/04/21 14:29:17","新北市永和區永和路二段247號","121.51587","25.0150183333333","6500400","永和區"
"234001","AAC-295","2018/04/21 14:29:10","新北市永和區大新街3號","121.51448","25.0086433333333","6500400","永和區"
"231005","001-UM","2018/04/21 14:29:16","新北市新店區北新路三段218號","121.541106666667","24.9843083333333","6500600","新店區"
"231002","002-UM","2018/04/21 14:29:26","新北市新店區中正路412號","121.534425","24.9777033333333","6500600","新店區"
"231027","0293-UT","2018/04/21 14:29:18","新北市新店區寶橋路85巷5弄3號","121.545985","24.97571","6500600","新店區"
"231001","047-UY","2018/04/21 14:29:16","新北市新店區中正路75巷71號","121.54307","24.9689783333333","6500600","新店區"
"231012","187-VK","2018/04/21 14:29:13","新北市新店區寶興路63巷2號","121.550891666667","24.9717466666667","6500600","新店區"
"231023","KEA-2219","2018/04/21 14:29:07","新北市新店區光明街170號","121.539526666667","24.9619883333333","6500600","新店區"
"231020","260-TV","2018/04/21 14:29:09","新北市新店區桂山路37號","121.561396666667","24.9047816666667","6500600","新店區"
"231018","278-BY","2018/04/21 14:29:17","新北市新店區中央路216-1號","121.529731666667","24.9732766666667","6500600","新店區"
"231017","AAD-862","2018/04/21 14:29:23","新北市新店區北宜路三段221號","121.592286666667","24.9532466666667","6500600","新店區"
"231028","355-BY","2018/04/21 14:29:17","新北市新店區安康路二段188號","121.511345","24.9601316666667","6500600","新店區"
"231038","3712-VJ","2018/04/21 14:29:16","新北市新店區溪洲路187-2號","121.529396666667","24.964335","6500600","新店區"
"231037","4716-K9","2018/04/21 14:29:14","新北市新店區安康路二段320巷6號","121.50451","24.958725","6500600","新店區"
"231036","512-UM","2018/04/21 14:29:00","新北市新店區安祥路109巷151弄1號","121.477936666667","24.9586133333333","6500600","新店區"
"231013","513-UM","2018/04/21 14:29:14","新北市新店區民權路90巷20號","121.536026666667","24.9837916666667","6500600","新店區"
"231006","617-UM","2018/04/21 14:29:11","新北市新店區北宜路二段393號","121.559365","24.9544683333333","6500600","新店區"
"231030","619-UM","2018/04/21 14:29:18","新北市新店區安民街72-1號","121.516533333333","24.96679","6500600","新店區"
"231034","641-BX","2018/04/21 14:29:30","新北市新店區黎明路61巷1號","121.50253","24.9469566666667","6500600","新店區"
"231003","645-TV","2018/04/21 14:29:20","新北市新店區中興路一段264號","121.544785","24.9671433333333","6500600","新店區"
"231035","719-UM","2018/04/21 14:29:23","新北市新店區光華街32號","121.5167","24.9694133333333","6500600","新店區"
"231033","720-UM","2018/04/21 14:29:16","新北市新店區安業街8巷1號","121.515943333333","24.9772666666667","6500600","新店區"
"231029","897-TW","2018/04/21 14:29:29","新北市新店區安康路二段454號","121.49445","24.95428","6500600","新店區"
"231004","899-TW","2018/04/21 14:29:23","新北市新店區中正路263-4號","121.538333333333","24.9738816666667","6500600","新店區"
"231024","AKT-0513","2018/04/21 14:29:11","新北市新店區中華路83巷33號","121.538638333333","24.9679033333333","6500600","新店區"
"235028","005-UY","2018/04/21 14:29:13","新北市中和區南華路45號","121.503841666667","24.9966416666667","6500300","中和區"
"235027","006-UY","2018/04/21 14:29:17","新北市中和區連城路203巷1號","121.494868333333","24.997715","6500300","中和區"
"235020","096-UM","2018/04/21 14:29:27","新北市中和區員山路514巷2號","121.479465","25.0096916666667","6500300","中和區"
"235003","097-UM","2018/04/21 14:29:23","新北市中和區秀峰街103巷7弄4號","121.519458333333","24.988975","6500300","中和區"
"235029","098-UM","2018/04/21 14:29:17","新北市中和區中山路二段178巷21號","121.500675","25.003445","6500300","中和區"
"235004","150-BY","2018/04/21 14:29:27","新北市中和區宜安路1巷22號","121.512665","24.994565","6500300","中和區"
"235022","151-BY","2018/04/21 14:29:27","新北市中和區連城路314號","121.483621666667","24.99617","6500300","中和區"
"235019","183-VK","2018/04/21 14:29:23","新北市中和區中山路三段181巷18弄11號","121.472685","25.0048333333333","6500300","中和區"
"235002","185-VK","2018/04/21 14:29:18","新北市中和區自立路23號","121.522548333333","24.995845","6500300","中和區"
"235013","186-VK","2018/04/21 14:29:21","新北市中和區景新街295巷27號","121.511085","24.99351","6500300","中和區"
"235031","255-BX","2018/04/21 14:29:09","新北市中和區連城路340巷4號","121.482813333333","24.9960533333333","6500300","中和區"
"235008","293-VK","2018/04/21 14:29:25","新北市中和區復興路262-1號","121.503396666667","24.9903783333333","6500300","中和區"
"235036","301-VK","2018/04/21 14:29:15","新北市中和區中山路二段3巷22弄31號","121.50591","25.0041766666667","6500300","中和區"
"235007","352-BY","2018/04/21 14:29:14","新北市中和區景平路334號","121.512078333333","24.9927966666667","6500300","中和區"
"235032","377-QA","2018/04/21 14:29:13","新北市中和區廟美街28號","121.500703333333","25.0017783333333","6500300","中和區"
"235025","378-QA","2018/04/21 14:29:11","新北市中和區民安街22巷4號","121.480323333333","25.0008883333333","6500300","中和區"
"235014","4979-A6","2018/04/21 14:29:13","新北市中和區中正路521號","121.488136666667","24.9938966666667","6500300","中和區"
"235006","551-UM","2018/04/21 14:29:11","新北市中和區中和路378巷19號","121.511433333333","25.00168","6500300","中和區"
"235034","558-UM","2018/04/21 14:29:16","新北市中和區景平路626巷1號","121.500383333333","24.99779","6500300","中和區"
"235009","565-BX","2018/04/21 14:29:17","新北市中和區景新街551號","121.514976666667","24.98656","6500300","中和區"
"235018","640-BX","2018/04/21 14:29:18","新北市中和區國光街112巷13弄1號","121.469691666667","25.0018633333333","6500300","中和區"
"235024","647-TV","2018/04/21 14:29:30","新北市中和區新生街114巷15號","121.482955","25.0023316666667","6500300","中和區"
"235011","732-UM","2018/04/21 14:29:17","新北市中和區景平路241巷64弄8號","121.507733333333","24.9926883333333","6500300","中和區"
"235010","733-UM","2018/04/21 14:29:18","新北市中和區忠孝街37巷52號","121.511141666667","24.9848633333333","6500300","中和區"
"235035","783-BX","2018/04/21 14:29:22","新北市中和區中正路637巷46號","121.485608333333","24.994265","6500300","中和區"
"235026","800-TS","2018/04/21 14:29:25","新北市中和區中山路二段526巷34弄4號","121.486068333333","25.00604","6500300","中和區"
"235021","801-TS","2018/04/21 14:29:12","新北市中和區員山路432號","121.480246666667","25.0053066666667","6500300","中和區"
"235016","805-TS","2018/04/21 14:29:21","新北市中和區華新街143巷63弄4號","121.506565","24.9793116666667","6500300","中和區"
"235012","896-TW","2018/04/21 14:29:23","新北市中和區忠孝街66號","121.511943333333","24.9839883333333","6500300","中和區"
"235017","900-TW","2018/04/21 14:29:18","新北市中和區民德路197號","121.469151666667","24.9981366666667","6500300","中和區"
"235030","911-UM","2018/04/21 14:29:19","新北市中和區中和路136號","121.503516666667","24.99931","6500300","中和區"
"235015","157-BY","2018/04/21 14:29:08","新北市中和區中興街126號","121.499701666667","24.99284","6500300","中和區"
"235001","AAC-213","2018/04/21 14:29:16","新北市中和區秀朗路三段10巷14弄2號","121.525283333333","24.9965316666667","6500300","中和區"
"235023","AAC-215","2018/04/21 14:29:26","新北市中和區圓通路252巷2-5號","121.493433333333","24.9914833333333","6500300","中和區"
"220016","013-TV","2018/04/21 14:29:16","新北市板橋區萬安街18號","121.48462","25.022775","6500100","板橋區"
"220013","072-UY","2018/04/21 14:29:13","新北市板橋區實踐路93巷86號","121.466991666667","25.0045516666667","6500100","板橋區"
"220034","073-UY","2018/04/21 14:29:23","新北市板橋區中正路250巷106號","121.45945","25.0199383333333","6500100","板橋區"
"220105","075-UY","2018/04/21 14:29:23","新北市板橋區江寧路三段131巷2號","121.473691666667","25.0334016666667","6500100","板橋區"
"220017","AAD-861","2018/04/21 14:29:18","新北市板橋區縣民大道一段66號","121.455335","25.00385","6500100","板橋區"
"247023","893-R6","2018/04/21 14:29:26","新北市蘆洲區中正路261號","121.4674","25.0873716666667","6501400","蘆洲區"
"247013","546-UM","2018/04/21 14:29:17","新北市蘆洲區中山二路211號","121.470471666667","25.0803883333333","6501400","蘆洲區"
"247009","341-TH","2018/04/21 14:29:11","新北市蘆洲區鷺江街16-4號","121.47854","25.0824483333333","6501400","蘆洲區"
"247011","339-TH","2018/04/21 14:29:15","新北市蘆洲區復興路302號","121.481311666667","25.0900366666667","6501400","蘆洲區"
"247003","337-TH","2018/04/21 14:29:27","新北市蘆洲區長安街220巷32號","121.459578333333","25.0850183333333","6501400","蘆洲區"
"247005","336-TH","2018/04/21 14:29:26","新北市蘆洲區長安街46巷5號","121.463666666667","25.0800166666667","6501400","蘆洲區"
"247017","057-VK","2018/04/21 14:29:23","新北市蘆洲區復興路231號","121.479991666667","25.0899066666667","6501400","蘆洲區"
"247007","056-VK","2018/04/21 14:29:16","新北市蘆洲區民生街34號","121.474338333333","25.07875","6501400","蘆洲區"
"247015","007-UY","2018/04/21 14:29:16","新北市蘆洲區中正路185巷78弄64號","121.465825","25.0855466666667","6501400","蘆洲區"
"247001","002-UY","2018/04/21 14:29:14","新北市蘆洲區永樂街38巷33弄46號","121.456803333333","25.089825","6501400","蘆洲區"
"247019","001-UY","2018/04/21 14:29:11","新北市蘆洲區仁愛街116號","121.469766666667","25.094945","6501400","蘆洲區"
"235005","251-BX","2018/04/21 14:29:14","新北市永和區中和路321號","121.507153333333","24.9997233333333","6500300","中和區"
"228005","097-TW","2018/04/21 14:29:18","新北市貢寮區美豐里巫里岸9-1號","121.901958333333","25.0701283333333","6502600","貢寮區"
"228004","212-TW","2018/04/21 14:29:27","新北市貢寮區雙玉里田寮洋街34-1號","121.931381666667","25.0149616666667","6502600","貢寮區"
"253003","6232-TK","2018/04/21 14:29:26","新北市石門區尖子鹿36號","121.581926666667","25.2563966666667","6502200","石門區"
"253001","6251-TK","2018/04/21 14:29:27","新北市石門區崁子腳64號","121.532061666667","25.28692","6502200","石門區"
"253002","637-UY","2018/04/21 14:29:16","新北市石門區老梅路83號","121.546376666667","25.28922","6502200","石門區"
"253004","8270-PC","2018/04/21 14:29:11","新北市石門區內阿里磅46號","121.580203333333","25.2421183333333","6502200","石門區"
"208003","665-BX","2018/04/21 14:29:25","基隆市安樂區基金一路129巷51號","121.71486","25.1396416666667","6502700","金山區"
"207002","749-BX","2018/04/21 14:29:11","新北市萬里區溪底里福德坑路2-2號","121.624356666667","25.1559666666667","6502800","萬里區"
"207001","662-BX","2018/04/21 14:29:13","新北市萬里區磺潭里清水5-1號","121.64116","25.2005166666667","6502800","萬里區"
"252005","AAC-283","2018/04/21 14:29:15","新北市三芝區橫山里大坑98-2號","121.526423333333","25.2604","6502100","三芝區"
"236068","105-UM","2018/04/21 14:29:16","新北市土城區永豐路211-2號","121.474673333333","24.9760216666667","6501300","土城區"
"236040","107-UM","2018/04/21 14:29:28","新北市土城區裕民路67巷14號","121.449906666667","24.9880683333333","6501300","土城區"
"236074","166-UM","2018/04/21 14:29:17","新北市土城區大暖路9號","121.422583333333","24.9613","6501300","土城區"
"236029","253-BX","2018/04/21 14:29:18","新北市土城區順風路6號","121.439906666667","24.9763866666667","6501300","土城區"
"236024","269-VK","2018/04/21 14:29:19","新北市土城區承天路18號","121.439523333333","24.96348","6501300","土城區"
"236013","270-VK","2018/04/21 14:29:21","新北市土城區青雲路39巷7號","121.460386666667","24.9875333333333","6501300","土城區"
"236032","271-VK","2018/04/21 14:29:16","新北市土城區青雲路449-1號","121.458771666667","24.974705","6501300","土城區"
"236017","401-BY","2018/04/21 14:29:20","新北市土城區永豐路202巷14號","121.466315","24.983335","6501300","土城區"
"236057","912-UM","2018/04/21 14:29:07","新北市土城區中央路四段25-4號","121.424806666667","24.9625483333333","6501300","土城區"
"236045","913-UM","2018/04/21 14:29:29","新北市土城區青雲路467號","121.458688333333","24.9741733333333","6501300","土城區"
"236060","915-UM","2018/04/21 14:29:26","新北市土城區延壽路118-4號","121.469105","24.994255","6501300","土城區"
"236054","AAC-216","2018/04/21 14:29:27","新北市土城區中華路二段1號","121.439631666667","24.9791083333333","6501300","土城區"
"220027","145-BY","2018/04/21 14:29:28","新北市板橋區復興街22號","121.457976666667","25.0172783333333","6500100","板橋區"
"220037","146-RM","2018/04/21 14:29:23","新北市板橋區雙十路二段85號","121.475675","25.027495","6500100","板橋區"
"220028","200-UY","2018/04/21 14:29:26","新北市板橋區大觀路二段37巷270號","121.449765","25.0014233333333","6500100","板橋區"
"220030","610-BX","2018/04/21 14:29:22","新北市板橋區金門街273號","121.431448333333","24.9884","6500100","板橋區"
"220050","245-BX","2018/04/21 14:29:24","新北市板橋區縣民大道三段107號","121.47642","25.0225916666667","6500100","板橋區"
"220052","257-TC","2018/04/21 14:29:20","新北市板橋區介壽街10號","121.467305","25.0202866666667","6500100","板橋區"
"220040","267-BY","2018/04/21 14:29:27","新北市板橋區文聖街135巷25號","121.478941666667","25.0290733333333","6500100","板橋區"
"220004","276-BY","2018/04/21 14:29:17","新北市板橋區信義路1巷26弄31號","121.458645","24.99674","6500100","板橋區"
"220020","277-BY","2018/04/21 14:29:15","新北市板橋區金門街253巷15號","121.43292","24.98852","6500100","板橋區"
"220019","283-VK","2018/04/21 14:29:18","新北市板橋區四川路一段283巷23號","121.459591666667","25.0005266666667","6500100","板橋區"
"220043","285-UM","2018/04/21 14:29:28","新北市板橋區松江街124巷7號","121.469488333333","25.0303333333333","6500100","板橋區"
"220001","285-VK","2018/04/21 14:29:21","新北市板橋區富山街53巷1弄7號","121.477651666667","25.0206883333333","6500100","板橋區"
"220031","286-VK","2018/04/21 14:29:02","新北市板橋區龍興街65巷61號","121.442098333333","25.0020266666667","6500100","板橋區"
"220029","287-VK","2018/04/21 14:29:25","新北市板橋區大觀路一段29巷10弄39號","121.449865","25.0055583333333","6500100","板橋區"
"220039","288-VK","2018/04/21 14:29:19","新北市板橋區裕民街87-4號","121.460466666667","25.0281233333333","6500100","板橋區"
"220009","295-UM","2018/04/21 14:29:17","新北市板橋區中山路一段265巷1弄1號","121.468403333333","25.0141","6500100","板橋區"
"220032","296-UM","2018/04/21 14:29:10","新北市板橋區滿平街84巷102號","121.426491666667","24.986615","6500100","板橋區"
"220023","303-R5","2018/04/21 14:29:13","新北市板橋區中正路305巷28弄2號","121.454441666667","25.01878","6500100","板橋區"
"220010","305-R5","2018/04/21 14:29:24","新北市板橋區三民路二段181巷3號","121.479715","25.014425","6500100","板橋區"
"220041","307-R5","2018/04/21 14:29:23","新北市板橋區光武街2巷23號","121.468513333333","25.0256133333333","6500100","板橋區"
"220047","317-R6","2018/04/21 14:29:27","新北市板橋區民生路三段299巷5號","121.463256666667","25.030345","6500100","板橋區"
"220012","486-VK","2018/04/21 14:29:14","新北市板橋區民族路47號","121.463163333333","25.0096616666667","6500100","板橋區"
"220104","560-BX","2018/04/21 14:29:25","新北市板橋區新生街89巷18號","121.457553333333","25.02261","6500100","板橋區"
"220011","609-BX","2018/04/21 14:29:10","新北市板橋區三民路二段205號","121.479066666667","25.0132066666667","6500100","板橋區"
"220002","630-UY","2018/04/21 14:29:21","新北市板橋區實踐路116號","121.463971666667","25.0042483333333","6500100","板橋區"
"220005","686-BX","2018/04/21 14:29:25","新北市板橋區和平路137-2號","121.461953333333","24.9948366666667","6500100","板橋區"
"220025","687-BX","2018/04/21 14:29:18","新北市板橋區僑中二街102巷1號","121.446051666667","25.00809","6500100","板橋區"
"220042","689-BX","2018/04/21 14:29:19","新北市板橋區雨農路60號","121.460645","25.0240566666667","6500100","板橋區"
"220051","KEA-2699","2018/04/21 14:29:18","新北市板橋區松柏街22巷18-3號","121.474785","25.029385","6500100","板橋區"
"220003","827-TW","2018/04/21 14:29:26","新北市板橋區國慶路167巷45號","121.461613333333","24.9984833333333","6500100","板橋區"
"220014","829-TW","2018/04/21 14:29:29","新北市板橋區漢生東路339號","121.47215","25.007305","6500100","板橋區"
"220045","830-TW","2018/04/21 14:29:08","新北市板橋區莒光路161號","121.473975","25.024195","6500100","板橋區"
"220038","833-TW","2018/04/21 14:29:26","新北市板橋區文化路一段39號","121.460458333333","25.0131983333333","6500100","板橋區"
"220022","895-R6","2018/04/21 14:29:27","新北市板橋區府中路29-2號","121.458603333333","25.0080366666667","6500100","板橋區"
"220021","985-R7","2018/04/21 14:29:28","新北市板橋區瑞安街63號","121.455511666667","25.0216433333333","6500100","板橋區"
"220046","AAC-210","2018/04/21 14:29:22","新北市板橋區新海路72巷16號","121.462781666667","25.022165","6500100","板橋區"
"220018","AAC-253","2018/04/21 14:29:31","新北市板橋區民族路180號","121.467778333333","25.0077683333333","6500100","板橋區"
