"lineid","car","time","location","longitude","latitude","cityid","cityname"
"234028","746-BX","2018/04/21 14:49:21","新北市新店區薏仁坑路2-2號","121.501273333333","24.9585216666667","6500400","永和區"
"234025","9371-KE","2018/04/21 14:49:15","新北市永和區雙和街52巷1號","121.508955","25.0032216666667","6500400","永和區"
"234072","AAC-211","2018/04/21 14:49:17","新北市中和區秀朗路三段109巷2弄12-1號","121.528093333333","24.9946916666667","6500400","永和區"
"231005","001-UM","2018/04/21 14:49:16","新北市新店區復興路2號","121.532526666667","24.988255","6500600","新店區"
"231002","002-UM","2018/04/21 14:49:30","新北市新店區民權路42-1號","121.540278333333","24.9829233333333","6500600","新店區"
"231027","0293-UT","2018/04/21 14:49:18","新北市新店區中央一街45號","121.527043333333","24.973805","6500600","新店區"
"231001","047-UY","2018/04/21 14:49:16","新北市新店區三民路118號","121.534408333333","24.97438","6500600","新店區"
"231012","187-VK","2018/04/21 14:49:13","新北市新店區寶橋路78巷1-5號","121.546553333333","24.9752766666667","6500600","新店區"
"231023","KEA-2219","2018/04/21 14:49:27","新北市新店區檳榔路109號","121.544456666667","24.961695","6500600","新店區"
"231026","256-BX","2018/04/21 14:49:23","新北市新店區秀山路68號","121.53091","24.960995","6500600","新店區"
"231020","260-TV","2018/04/21 14:49:29","新北市新店區永福路54-2號","121.558123333333","24.9287166666667","6500600","新店區"
"231018","278-BY","2018/04/21 14:49:17","新北市新店區中央路200號","121.530461666667","24.97427","6500600","新店區"
"231017","AAD-862","2018/04/21 14:49:23","新北市新店區北宜路三段132號","121.582653333333","24.9502316666667","6500600","新店區"
"231028","355-BY","2018/04/21 14:49:17","新北市新店區安德街116巷36號","121.508556666667","24.9612566666667","6500600","新店區"
"231038","3712-VJ","2018/04/21 14:49:16","新北市新店區安華路28-1號","121.519651666667","24.960995","6500600","新店區"
"231037","4716-K9","2018/04/21 14:49:14","新北市新店區薏仁坑路自強巷6號","121.496698333333","24.9585333333333","6500600","新店區"
"231025","4715-K9","2018/04/21 14:49:23","新北市新店區民族路104號","121.539105","24.9780783333333","6500600","新店區"
"231036","512-UM","2018/04/21 14:49:20","新北市新店區安祥路106巷155號","121.473535","24.9591","6500600","新店區"
"231013","513-UM","2018/04/21 14:49:14","新北市新店區北新路二段35號","121.54262","24.9725616666667","6500600","新店區"
"231006","617-UM","2018/04/21 14:49:11","新北市新店區北宜路一段152號","121.540276666667","24.953885","6500600","新店區"
"231030","619-UM","2018/04/21 14:49:18","新北市新店區安民街254號","121.51766","24.9732316666667","6500600","新店區"
"231034","641-BX","2018/04/21 14:49:10","新北市新店區安康路三段51號","121.492446666667","24.9523683333333","6500600","新店區"
"231003","645-TV","2018/04/21 14:49:19","新北市新店區中興路二段39號","121.546286666667","24.9699933333333","6500600","新店區"
"231039","718-UY","2018/04/21 14:49:17","新北市新店區碧潭路121號","121.534566666667","24.9589466666667","6500600","新店區"
"231035","719-UM","2018/04/21 14:49:23","新北市新店區安和路一段53號","121.517551666667","24.9659766666667","6500600","新店區"
"231029","897-TW","2018/04/21 14:49:09","新北市新店區錦秀路5號","121.479396666667","24.944835","6500600","新店區"
"231004","899-TW","2018/04/21 14:49:23","新北市新店區民族路102號","121.539183333333","24.9780933333333","6500600","新店區"
"231024","AKT-0513","2018/04/21 14:49:31","新北市新店區力行路32號","121.53905","24.964895","6500600","新店區"
"235020","096-UM","2018/04/21 14:49:27","新北市中和區中山路三段116號","121.476003333333","25.006115","6500300","中和區"
"235003","097-UM","2018/04/21 14:49:23","新北市中和區安平路148號","121.512363333333","24.9982483333333","6500300","中和區"
"235029","098-UM","2018/04/21 14:49:17","新北市中和區福祥路85巷6弄1號","121.498315","25.0056566666667","6500300","中和區"
"235004","150-BY","2018/04/21 14:49:27","新北市中和區安和路39號","121.509673333333","24.9949116666667","6500300","中和區"
"235022","151-BY","2018/04/21 14:49:27","新北市中和區員山路150巷2弄17號","121.481778333333","24.9979233333333","6500300","中和區"
"235019","183-VK","2018/04/21 14:49:23","新北市中和區民生街85巷5弄2號","121.469355","25.004045","6500300","中和區"
"235013","186-VK","2018/04/21 14:49:21","新北市中和區景平路520號","121.503401666667","24.9939883333333","6500300","中和區"
"235031","255-BX","2018/04/21 14:49:09","新北市中和區員山路148巷23弄60號","121.482271666667","24.9980483333333","6500300","中和區"
"235008","293-VK","2018/04/21 14:49:25","新北市中和區南山路389號","121.50641","24.9903266666667","6500300","中和區"
"235036","301-VK","2018/04/21 14:49:15","新北市中和區中和路115號","121.501478333333","25.000365","6500300","中和區"
"235007","352-BY","2018/04/21 14:49:14","新北市中和區安和路45號","121.509206666667","24.9947166666667","6500300","中和區"
"235032","377-QA","2018/04/21 14:49:13","新北市中和區福美路230號","121.499245","25.0054683333333","6500300","中和區"
"235014","4979-A6","2018/04/21 14:49:13","新北市中和區景平路241巷82弄36號","121.506433333333","24.99257","6500300","中和區"
"235033","4980-A6","2018/04/21 14:49:22","新北市中和區中正路637巷52弄1號","121.485465","24.9934266666667","6500300","中和區"
"235034","558-UM","2018/04/21 14:49:16","新北市中和區連勝街45號","121.498093333333","24.997595","6500300","中和區"
"235018","640-BX","2018/04/21 14:49:18","新北市中和區莒光路207-7號","121.470678333333","24.9967033333333","6500300","中和區"
"235024","647-TV","2018/04/21 14:49:18","新北市中和區員山路394巷5號","121.480975","25.0046966666667","6500300","中和區"
"235011","732-UM","2018/04/21 14:49:17","新北市中和區和平街80號","121.507748333333","24.991195","6500300","中和區"
"235010","733-UM","2018/04/21 14:49:18","新北市中和區仁愛街58號","121.511138333333","24.9879183333333","6500300","中和區"
"235026","800-TS","2018/04/21 14:49:18","新北市中和區橋和路121號","121.492093333333","25.00577","6500300","中和區"
"235016","805-TS","2018/04/21 14:49:21","新北市中和區華新街28-6號","121.507518333333","24.9844266666667","6500300","中和區"
"235012","896-TW","2018/04/21 14:49:23","新北市中和區忠孝街60巷7號","121.511675","24.983805","6500300","中和區"
"235017","900-TW","2018/04/21 14:46:02","新北市中和區國光街189巷29號","121.467721666667","25.0006683333333","6500300","中和區"
"235030","911-UM","2018/04/21 14:49:19","新北市中和區南工路32巷2號","121.505865","25.0009166666667","6500300","中和區"
"235015","157-BY","2018/04/21 14:49:28","新北市中和區景安路247巷11號","121.504541666667","24.9905966666667","6500300","中和區"
"235001","AAC-213","2018/04/21 14:49:29","新北市中和區自立路191號","121.524126666667","24.991295","6500300","中和區"
"235023","AAC-215","2018/04/21 14:49:26","新北市中和區圓通路305巷5弄38號","121.494576666667","24.9903066666667","6500300","中和區"
"220016","013-TV","2018/04/21 14:49:28","新北市板橋區光復街149號","121.485718333333","25.0200983333333","6500100","板橋區"
"220013","072-UY","2018/04/21 14:49:13","新北市中和區中山路三段229巷49號","121.46925","25.0054466666667","6500100","板橋區"
"220034","073-UY","2018/04/21 14:49:23","新北市板橋區館前西路160巷11號","121.452355","25.009065","6500100","板橋區"
"220105","075-UY","2018/04/21 14:49:23","新北市板橋區民治街57巷28號","121.480148333333","25.0340083333333","6500100","板橋區"
"220017","AAD-861","2018/04/21 14:49:18","新北市板橋區貴興路60號","121.456675","25.003035","6500100","板橋區"
"247013","546-UM","2018/04/21 14:49:17","新北市蘆洲區中央路56號","121.473311666667","25.083575","6501400","蘆洲區"
"247006","336-TH","2018/04/21 14:48:50","新北市五股區中興路三段2巷10號","121.449365","25.0810316666667","6501400","蘆洲區"
"247015","007-UY","2018/04/21 14:49:15","新北市蘆洲區和平路198號","121.466023333333","25.0818183333333","6501400","蘆洲區"
"247001","002-UY","2018/04/21 14:49:25","新北市蘆洲區永康街2巷10號","121.459325","25.0862733333333","6501400","蘆洲區"
"228005","097-TW","2018/04/21 14:49:18","新北市貢寮區美豐里丹裡街69號","121.90605","25.05696","6502600","貢寮區"
"228004","212-TW","2018/04/21 14:49:26","新北市貢寮區福隆里裕隆街5號","121.946146666667","25.0159683333333","6502600","貢寮區"
"253003","6232-TK","2018/04/21 14:49:26","新北市石門區尖子鹿101-2號","121.581033333333","25.2928533333333","6502200","石門區"
"253001","6251-TK","2018/04/21 14:49:07","新北市石門區崁子腳53-2號","121.537405","25.2821666666667","6502200","石門區"
"253002","637-UY","2018/04/21 14:49:16","新北市石門區七股10-5號","121.544913333333","25.2691283333333","6502200","石門區"
"253004","8270-PC","2018/04/21 14:49:11","新北市石門區茂林社區227-1號","121.591801666667","25.2704816666667","6502200","石門區"
"208003","665-BX","2018/04/21 14:49:25","新北市萬里區萬里里瑪鋉路18號","121.689775","25.1746933333333","6502700","金山區"
"207002","749-BX","2018/04/21 14:49:11","新北市萬里區崁腳里崁腳路73號","121.647616666667","25.1596483333333","6502800","萬里區"
"207001","662-BX","2018/04/21 14:49:13","新北市萬里區雙興里二坪路10號","121.646865","25.1754283333333","6502800","萬里區"
"252005","AAC-283","2018/04/21 14:49:15","新北市三芝區埔坪里埔頭坑92號","121.508668333333","25.2510266666667","6502100","三芝區"
"236068","105-UM","2018/04/21 14:49:16","新北市土城區金城路二段229號","121.455511666667","24.982405","6501300","土城區"
"236040","107-UM","2018/04/21 14:49:08","新北市土城區裕民路136巷7號","121.451368333333","24.9859283333333","6501300","土城區"
"236074","166-UM","2018/04/21 14:49:17","新北市土城區中央路四段67巷6號","121.417876666667","24.9576383333333","6501300","土城區"
"236029","253-BX","2018/04/21 14:49:25","新北市土城區忠義路34號","121.440436666667","24.9698316666667","6501300","土城區"
"236024","269-VK","2018/04/21 14:49:19","新北市土城區興城路96巷2號","121.440523333333","24.9716833333333","6501300","土城區"
"236013","270-VK","2018/04/21 14:49:21","新北市土城區金城路二段356號","121.461781666667","24.9851283333333","6501300","土城區"
"236032","271-VK","2018/04/21 14:49:16","新北市土城區明德路一段164號","121.462918333333","24.97841","6501300","土城區"
"236017","401-BY","2018/04/21 14:49:28","新北市土城區延安街42-5號","121.467528333333","24.9852383333333","6501300","土城區"
"236057","912-UM","2018/04/21 14:49:27","新北市土城區清水路3號","121.453018333333","24.980365","6501300","土城區"
"236045","913-UM","2018/04/21 14:49:28","新北市土城區青雲路107-1號","121.459051666667","24.9853483333333","6501300","土城區"
"236060","915-UM","2018/04/21 14:49:14","新北市土城區金城路三段207巷6弄6號","121.470433333333","24.9900633333333","6501300","土城區"
"236054","AAC-216","2018/04/21 14:49:27","新北市土城區裕民路189號","121.45359","24.98433","6501300","土城區"
"221002","707-TV","2018/04/21 14:49:22","新北市汐止區莊敬街21號","121.657321666667","25.0614733333333","6501100","汐止區"
"220027","145-BY","2018/04/21 14:49:17","新北市板橋區中正路135巷12-2號","121.455848333333","25.0156333333333","6500100","板橋區"
"220037","146-RM","2018/04/21 14:49:10","新北市板橋區仁化街85號","121.476161666667","25.0320216666667","6500100","板橋區"
"220028","200-UY","2018/04/21 14:49:21","新北市板橋區大觀路二段169巷23號","121.446493333333","24.9998366666667","6500100","板橋區"
"220030","610-BX","2018/04/21 14:49:17","新北市板橋區溪北路49號","121.427708333333","24.9899316666667","6500100","板橋區"
"220050","245-BX","2018/04/21 14:49:30","新北市板橋區縣民大道三段83號","121.475496666667","25.021795","6500100","板橋區"
"220052","257-TC","2018/04/21 14:49:20","新北市板橋區陽明街29巷32號","121.463696666667","25.0226833333333","6500100","板橋區"
"220040","267-BY","2018/04/21 14:49:27","新北市板橋區懷德街127巷26號","121.479838333333","25.0310933333333","6500100","板橋區"
"220004","276-BY","2018/04/21 14:49:16","新北市板橋區四川路二段140巷20號","121.449006666667","24.9935733333333","6500100","板橋區"
"220020","277-BY","2018/04/21 14:49:14","新北市板橋區篤行路二段31號","121.431823333333","24.9927383333333","6500100","板橋區"
"220019","283-VK","2018/04/21 14:49:18","新北市板橋區五權街30巷24弄15號","121.463755","24.9933166666667","6500100","板橋區"
"220043","285-UM","2018/04/21 14:49:28","新北市板橋區溪頭街72號","121.458446666667","25.0295466666667","6500100","板橋區"
"220001","285-VK","2018/04/21 14:49:21","新北市板橋區中山路二段60巷11號","121.474313333333","25.0152783333333","6500100","板橋區"
"220031","286-VK","2018/04/21 14:49:22","新北市板橋區僑中二街50號","121.446713333333","25.01054","6500100","板橋區"
"220029","287-VK","2018/04/21 14:49:16","新北市板橋區僑中一街80巷10弄1號","121.447991666667","25.0128866666667","6500100","板橋區"
"220039","288-VK","2018/04/21 14:49:19","新北市板橋區龍泉街72巷4-3號","121.456183333333","25.0262283333333","6500100","板橋區"
"220009","295-UM","2018/04/21 14:49:17","新北市板橋區觀光街55號","121.470545","25.01634","6500100","板橋區"
"220032","296-UM","2018/04/21 14:49:10","新北市樹林區水源街213號","121.424046666667","24.9872716666667","6500100","板橋區"
"220023","303-R5","2018/04/21 14:49:13","新北市板橋區金華街10巷20號","121.456315","25.0200583333333","6500100","板橋區"
"220010","305-R5","2018/04/21 14:49:24","新北市板橋區中山路二段416巷52-6號","121.48272","25.0193066666667","6500100","板橋區"
"220041","307-R5","2018/04/21 14:49:23","新北市板橋區陽明街164巷29號","121.464611666667","25.02469","6500100","板橋區"
"220047","317-R6","2018/04/21 14:49:27","新北市板橋區新海路385巷8號","121.458626666667","25.02576","6500100","板橋區"
"220012","486-VK","2018/04/21 14:49:17","新北市板橋區實踐路106號","121.464128333333","25.0047316666667","6500100","板橋區"
"220104","560-BX","2018/04/21 14:49:25","新北市板橋區新生街53巷20號","121.457601666667","25.0216033333333","6500100","板橋區"
"220011","609-BX","2018/04/21 14:49:10","新北市板橋區林森街3巷1弄6號","121.482558333333","25.0236266666667","6500100","板橋區"
"220002","630-UY","2018/04/21 14:49:11","新北市板橋區忠孝路192號","121.465096666667","25.0026383333333","6500100","板橋區"
"220005","686-BX","2018/04/21 14:49:22","新北市板橋區信義路52-2號","121.457186666667","24.9942966666667","6500100","板橋區"
"220025","687-BX","2018/04/21 14:49:23","新北市板橋區僑中一街124巷1弄2號","121.44591","25.01219","6500100","板橋區"
"220042","689-BX","2018/04/21 14:49:19","新北市板橋區民生路三段323號","121.463303333333","25.0312216666667","6500100","板橋區"
"220051","KEA-2699","2018/04/21 14:49:14","新北市板橋區文化路二段410巷1弄1號","121.474313333333","25.0311983333333","6500100","板橋區"
"220003","827-TW","2018/04/21 14:49:19","新北市板橋區仁愛路86巷9號","121.46104","24.9992033333333","6500100","板橋區"
"220014","829-TW","2018/04/21 14:49:20","新北市板橋區長安街138巷1弄118號","121.474288333333","25.010435","6500100","板橋區"
"220045","830-TW","2018/04/21 14:49:28","新北市板橋區民生路二段234巷77號","121.470283333333","25.0225416666667","6500100","板橋區"
"220038","833-TW","2018/04/21 14:49:26","新北市板橋區龍泉街135號","121.4577","25.0239316666667","6500100","板橋區"
"220022","895-R6","2018/04/21 14:49:27","新北市板橋區館前西路66號","121.45781","25.0070933333333","6500100","板橋區"
"220021","985-R7","2018/04/21 14:49:28","新北市板橋區南雅西路二段94號","121.452481666667","25.0113566666667","6500100","板橋區"
"220046","AAC-210","2018/04/21 14:49:22","新北市板橋區文化路一段285巷1弄23號","121.463875","25.0188633333333","6500100","板橋區"
"220018","AAC-253","2018/04/21 14:49:11","新北市板橋區實踐路78號","121.46368","25.00538","6500100","板橋區"
