"lineid","car","time","location","longitude","latitude","cityid","cityname"
"231046","107-UY","2018/04/21 16:29:28","新北市新店區灣潭路3-3號","121.538155","24.950755","6500600","新店區"
"241011","013-R5","2018/04/21 16:29:15","新北市三重區龍濱路269號","121.501301666667","25.0730116666667","6500200","三重區"
"241028","022-UY","2018/04/21 16:29:30","新北市三重區中正南路165號","121.493795","25.0558833333333","6500200","三重區"
"241008","059-VK","2018/04/21 16:29:30","新北市三重區永福街122-2號","121.479083333333","25.0753083333333","6500200","三重區"
"241009","060-VK","2018/04/21 16:29:22","新北市三重區三和路四段181巷100號","121.484726666667","25.07989","6500200","三重區"
"241031","061-VK","2018/04/21 16:29:23","新北市三重區重陽路一段45號","121.486696666667","25.0581483333333","6500200","三重區"
"241015","062-VK","2018/04/21 16:29:17","新北市三重區福德北路59號","121.50208","25.0654416666667","6500200","三重區"
"241017","063-VK","2018/04/21 16:29:27","新北市三重區重新路二段99號","121.495543333333","25.0619316666667","6500200","三重區"
"241024","065-VK","2018/04/21 16:29:26","新北市三重區中正北路315巷16弄24號","121.476058333333","25.0718866666667","6500200","三重區"
"241002","090-VK","2018/04/21 16:29:31","新北市三重區五華街9-2號","121.495248333333","25.0800266666667","6500200","三重區"
"241003","091-VK","2018/04/21 16:29:20","新北市三重區仁義街228巷11號","121.494371666667","25.0845633333333","6500200","三重區"
"241005","262-UM","2018/04/21 16:29:29","新北市三重區溪尾街264-1號","121.487436666667","25.083355","6500200","三重區"
"241026","265-UM","2018/04/21 16:29:20","新北市三重區光興街1號","121.500375","25.060425","6500200","三重區"
"241016","266-UM","2018/04/21 16:29:17","新北市三重區大智街23號","121.494195","25.0658516666667","6500200","三重區"
"241022","267-UM","2018/04/21 16:29:21","新北市三重區過圳街102號","121.486091666667","25.0621583333333","6500200","三重區"
"241018","268-UM","2018/04/21 16:29:22","新北市三重區重陽路四段81號","121.492621666667","25.0709533333333","6500200","三重區"
"241032","269-UM","2018/04/21 16:29:29","新北市三重區三陽路100巷3弄13號","121.482975","25.058035","6500200","三重區"
"241013","270-UM","2018/04/21 16:29:29","新北市三重區三和路三段83巷140號","121.498221666667","25.0732633333333","6500200","三重區"
"241025","271-UM","2018/04/21 16:29:31","新北市三重區中正北路560巷100弄2號","121.472446666667","25.068255","6500200","三重區"
"241007","398-BY","2018/04/21 16:29:32","新北市三重區三和路四段167巷170號","121.487773333333","25.0802633333333","6500200","三重區"
"241006","462-BY","2018/04/21 16:29:23","新北市三重區力行路二段182-3號","121.483348333333","25.0776266666667","6500200","三重區"
"241004","475-VK","2018/04/21 16:29:19","新北市三重區仁愛街377巷10號","121.491818333333","25.0805233333333","6500200","三重區"
"241020","478-VK","2018/04/21 16:29:29","新北市三重區後竹圍街205巷3號","121.485023333333","25.0717416666667","6500200","三重區"
"241030","480-VK","2018/04/21 16:29:12","新北市三重區成功路106-1號","121.487498333333","25.0516266666667","6500200","三重區"
"241014","543-UM","2018/04/21 16:29:23","新北市三重區河邊北街72-6號","121.504365","25.0685","6500200","三重區"
"241023","545-UM","2018/04/21 16:29:29","新北市三重區忠孝路三段50巷82號","121.482978333333","25.0645383333333","6500200","三重區"
"241001","547-UM","2018/04/21 16:29:20","新北市三重區福隆路26號","121.491681666667","25.0780983333333","6500200","三重區"
"241019","887-TS","2018/04/21 16:29:26","新北市三重區重陽路三段97號","121.49039","25.0679716666667","6500200","三重區"
"241012","941-UM","2018/04/21 16:29:16","新北市三重區河邊北街272號","121.50157","25.0766883333333","6500200","三重區"
"241029","942-UM","2018/04/21 16:29:13","新北市三重區集美街126巷14號","121.489541666667","25.0537333333333","6500200","三重區"
"241033","AAC-255","2018/04/21 16:29:26","新北市三重區重新路五段406-1號","121.476036666667","25.0478416666667","6500200","三重區"
"247008","056-VK","2018/04/21 16:29:17","新北市五股區中興路三段163號","121.44922","25.0805866666667","6501400","蘆洲區"
"224007","275-VK","2018/04/21 16:29:23","新北市瑞芳區瑞竹路36巷1號","121.764173333333","25.1035366666667","6501200","瑞芳區"
"224005","271-BY","2018/04/21 16:29:23","新北市瑞芳區阿美家園26號","121.821561666667","25.11662","6501200","瑞芳區"
"227002","642-TC","2018/04/21 16:29:12","新北市雙溪區上林里內平林120-2號","121.824471666667","25.0262716666667","6502500","雙溪區"
"227010","400-TW","2018/04/21 16:29:25","新北市雙溪區三港里雙澳路35-1號","121.868445","25.04995","6502500","雙溪區"
"251013","179-VK","2018/04/21 16:29:25","新北市淡水區北新路三段162號","121.492361666667","25.1914966666667","6501000","淡水區"
"251008","181-VK","2018/04/21 16:29:18","台北市北投區中央北路四段30巷160號","121.474085","25.1404333333333","6501000","淡水區"
"251015","182-VK","2018/04/21 16:29:10","新北市淡水區中正路一段156巷1號","121.420771666667","25.1801466666667","6501000","淡水區"
"251011","650-BX","2018/04/21 16:29:15","新北市淡水區中正路二段31號","121.419411666667","25.1817016666667","6501000","淡水區"
