"lineid","car","time","location","longitude","latitude","cityid","cityname"
"249005","172-UM","2018/04/21 16:59:17","新北市八里區渡船頭3-19號","121.433926666667","25.1516983333333","6502300","八里區"
"249001","173-UM","2018/04/21 16:59:17","新北市八里區中山路三段106號","121.391996666667","25.1428833333333","6502300","八里區"
"249004","303-UY","2018/04/21 16:59:26","新北市八里區挖子尾街46號","121.415568333333","25.1662033333333","6502300","八里區"
"249002","305-UY","2018/04/21 16:59:14","新北市八里區牛寮埔22號","121.432806666667","25.14257","6502300","八里區"
"249003","593-UM","2018/04/21 16:59:29","新北市八里區中山路二段398號","121.400551666667","25.1477583333333","6502300","八里區"
"244007","080-UY","2018/04/21 16:59:17","新北市林口區文化一路二段398號","121.386105","25.08605","6501700","林口區"
"244019","403-UM","2018/04/21 16:59:19","新北市林口區中山路73號","121.392615","25.0786283333333","6501700","林口區"
"244023","483-VK","2018/04/21 16:59:28","新北市林口區粉寮路二段167-1號","121.404376666667","25.0883266666667","6501700","林口區"
"244025","837-TS","2018/04/21 16:59:13","新北市林口區中山路154號","121.390958333333","25.07877","6501700","林口區"
"244021","838-TS","2018/04/21 16:59:22","新北市林口區粉寮69號","121.404848333333","25.0908466666667","6501700","林口區"
"231046","107-UY","2018/04/21 16:59:29","新北市新店區直潭八街46號","121.532961666667","24.9391116666667","6500600","新店區"
"241011","013-R5","2018/04/21 16:59:15","新北市三重區龍門路221號","121.50027","25.0732183333333","6500200","三重區"
"241028","022-UY","2018/04/21 16:59:30","新北市三重區中正南路40號","121.493823333333","25.0601283333333","6500200","三重區"
"241008","059-VK","2018/04/21 16:59:30","新北市三重區永福街179巷11號","121.478415","25.0749616666667","6500200","三重區"
"241009","060-VK","2018/04/21 16:59:22","新北市三重區仁美街108巷18號","121.484956666667","25.08055","6500200","三重區"
"241031","061-VK","2018/04/21 16:59:23","新北市三重區三寧街22號","121.489716666667","25.0600733333333","6500200","三重區"
"241015","062-VK","2018/04/21 16:59:27","新北市三重區福德北路82號","121.501668333333","25.0663966666667","6500200","三重區"
"241017","063-VK","2018/04/21 16:59:27","新北市三重區大仁街3巷13號","121.492095","25.0637483333333","6500200","三重區"
"241024","065-VK","2018/04/21 16:59:26","新北市三重區後竹圍街295號","121.478961666667","25.0699566666667","6500200","三重區"
"241002","090-VK","2018/04/21 16:59:28","新北市三重區仁義街205號","121.49689","25.0816333333333","6500200","三重區"
"241003","091-VK","2018/04/21 16:59:20","新北市三重區五華街141巷58號","121.493435","25.0866883333333","6500200","三重區"
"241005","262-UM","2018/04/21 16:59:29","新北市三重區碧華街112巷10號","121.484408333333","25.0821716666667","6500200","三重區"
"241026","265-UM","2018/04/21 16:59:20","新北市三重區光興街1號","121.500305","25.0603266666667","6500200","三重區"
"241016","266-UM","2018/04/21 16:59:25","新北市三重區大同北路107號","121.494225","25.06421","6500200","三重區"
"241022","267-UM","2018/04/21 16:59:21","新北市三重區忠孝路三段50巷98號","121.483593333333","25.064225","6500200","三重區"
"241018","268-UM","2018/04/21 16:59:22","新北市三重區六張街126巷2弄1號","121.49228","25.0691633333333","6500200","三重區"
"241032","269-UM","2018/04/21 16:59:29","新北市三重區重陽路一段120巷15號","121.486023333333","25.060185","6500200","三重區"
"241013","270-UM","2018/04/21 16:59:29","新北市三重區仁和街54號","121.497101666667","25.07381","6500200","三重區"
"241025","271-UM","2018/04/21 16:59:31","新北市三重區中正北路508巷5號","121.472638333333","25.0713583333333","6500200","三重區"
"241007","398-BY","2018/04/21 16:59:12","新北市三重區三和路四段181巷230號","121.487503333333","25.0804883333333","6500200","三重區"
"241006","462-BY","2018/04/21 16:59:23","新北市三重區車路頭街120號","121.48418","25.0752333333333","6500200","三重區"
"241004","475-VK","2018/04/21 16:59:19","新北市三重區五華街98巷6號","121.492078333333","25.081945","6500200","三重區"
"241020","478-VK","2018/04/21 16:59:29","新北市三重區後竹圍街175巷18號","121.485688333333","25.0725466666667","6500200","三重區"
"241030","480-VK","2018/04/21 16:59:30","新北市三重區昌隆街72號","121.490908333333","25.05078","6500200","三重區"
"241014","543-UM","2018/04/21 16:59:23","新北市三重區三和路二段173巷143號","121.500951666667","25.0707216666667","6500200","三重區"
"241023","545-UM","2018/04/21 16:59:28","新北市三重區忠孝路三段99巷4號","121.480185","25.0643","6500200","三重區"
"241001","547-UM","2018/04/21 16:59:20","新北市三重區仁愛街170號","121.494191666667","25.0766666666667","6500200","三重區"
"241019","887-TS","2018/04/21 16:59:26","新北市三重區三張街115號","121.48804","25.0700616666667","6500200","三重區"
"241012","941-UM","2018/04/21 16:59:16","新北市三重區仁和街173號","121.500011666667","25.0747816666667","6500200","三重區"
"241029","942-UM","2018/04/21 16:59:13","新北市三重區環河南路220-8號","121.49335","25.052685","6500200","三重區"
"241033","AAC-255","2018/04/21 16:59:17","新北市三重區中興北街275號","121.469298333333","25.0609066666667","6500200","三重區"
"235061","378-QA","2018/04/21 16:40:30","新北市中和區員山路36巷16-2號","121.485303333333","24.9917266666667","6500300","中和區"
"247024","893-R6","2018/04/21 16:59:31","新北市蘆洲區長興路255號","121.460526666667","25.0875266666667","6501400","蘆洲區"
"247014","546-UM","2018/04/21 16:59:17","新北市蘆洲區中山二路36巷33號","121.47398","25.08323","6501400","蘆洲區"
"247010","341-TH","2018/04/21 16:59:28","新北市蘆洲區信義路158-7號","121.479453333333","25.0838083333333","6501400","蘆洲區"
"247004","337-TH","2018/04/21 16:59:19","新北市蘆洲區長安街110號","121.461013333333","25.0815383333333","6501400","蘆洲區"
"247006","336-TH","2018/04/21 16:59:12","新北市蘆洲區永安南路二段242號","121.460375","25.0800183333333","6501400","蘆洲區"
"247018","057-VK","2018/04/21 16:59:17","新北市蘆洲區民族路304號","121.477636666667","25.089975","6501400","蘆洲區"
"247008","056-VK","2018/04/21 16:59:17","新北市蘆洲區信義路56號","121.475346666667","25.07967","6501400","蘆洲區"
"247016","007-UY","2018/04/21 16:59:19","新北市蘆洲區正和街3號","121.470433333333","25.08274","6501400","蘆洲區"
"247020","001-UY","2018/04/21 16:59:28","新北市蘆洲區民族路422巷82弄2號","121.473621666667","25.0936733333333","6501400","蘆洲區"
"228003","097-TW","2018/04/21 16:59:21","新北市貢寮區福隆里興隆街13-5號","121.944158333333","25.0165583333333","6502600","貢寮區"
"228001","212-TW","2018/04/21 16:59:14","新北市貢寮區貢寮里朝陽街1-2號","121.912185","25.0212633333333","6502600","貢寮區"
"228002","663-BX","2018/04/21 16:59:16","新北市貢寮區貢寮里朝陽街2號","121.91246","25.021475","6502600","貢寮區"
"224006","676-BX","2018/04/21 16:59:27","新北市瑞芳區大寮路2號","121.785378333333","25.1003683333333","6501200","瑞芳區"
"224008","285-BY","2018/04/21 16:59:26","新北市瑞芳區明燈路一段37號","121.822118333333","25.1072266666667","6501200","瑞芳區"
"224007","275-VK","2018/04/21 16:59:23","新北市瑞芳區楓子瀨路54-1號","121.768748333333","25.1038183333333","6501200","瑞芳區"
"224009","273-VK","2018/04/21 16:59:20","新北市瑞芳區明燈路一段1號","121.831848333333","25.11173","6501200","瑞芳區"
"224005","271-BY","2018/04/21 16:59:23","新北市瑞芳區哩咾路1號","121.877731666667","25.1226516666667","6501200","瑞芳區"
"227002","642-TC","2018/04/21 16:59:32","新北市雙溪區長源里柑腳41-1號","121.803095","25.0131016666667","6502500","雙溪區"
"227010","400-TW","2018/04/21 16:59:25","新北市雙溪區牡丹里聖南8號","121.859428333333","25.0520766666667","6502500","雙溪區"
"251009","008-UM","2018/04/21 16:59:19","新北市淡水區中正路257號","121.433191666667","25.1744833333333","6501000","淡水區"
"251004","009-UM","2018/04/21 16:59:32","新北市淡水區中山路45號","121.443415","25.170475","6501000","淡水區"
"251013","179-VK","2018/04/21 16:59:25","新北市淡水區泉洲厝32號","121.489315","25.1925933333333","6501000","淡水區"
"251014","180-VK","2018/04/21 16:59:17","新北市淡水區淡金路四段472巷24號","121.452951666667","25.2239983333333","6501000","淡水區"
"251008","181-VK","2018/04/21 16:59:18","新北市淡水區樹梅坑9號","121.472711666667","25.1427283333333","6501000","淡水區"
"251015","182-VK","2018/04/21 16:59:28","新北市淡水區淡金路一段102號","121.45783","25.174645","6501000","淡水區"
"251010","413-VK","2018/04/21 16:56:52","新北市淡水區淡金路二段599號","121.446376666667","25.1919133333333","6501000","淡水區"
"251012","441-VK","2018/04/21 16:59:26","新北市淡水區沙崙路214號","121.424908333333","25.1840933333333","6501000","淡水區"
"251016","442-VK","2018/04/21 16:59:31","新北市淡水區瓦坑7-3號","121.477963333333","25.1817216666667","6501000","淡水區"
"251005","443-VK","2018/04/21 16:59:15","新北市淡水區中正路一段76號","121.42511","25.1770983333333","6501000","淡水區"
"251007","577-R6","2018/04/21 16:59:22","新北市淡水區中正東路二段115號","121.45956","25.1504116666667","6501000","淡水區"
"251011","650-BX","2018/04/21 16:54:40","新北市淡水區坪頂路50號","121.457908333333","25.1624833333333","6501000","淡水區"
"252002","178-VK","2018/04/21 16:59:25","新北市三芝區忠孝街171號","121.505486666667","25.2613416666667","6502100","三芝區"
"252001","292-VK","2018/04/21 16:59:24","新北市三芝區淡金路二段81號","121.50386","25.260705","6502100","三芝區"
"242053","751-BX","2018/04/21 16:59:18","新北市新莊區新泰路357巷3弄57號","121.442136666667","25.0391983333333","6500500","新莊區"
"242029","612-BX","2018/04/21 16:59:25","新北市新莊區新泰路357巷3弄57號","121.442255","25.0393283333333","6500500","新莊區"
"242042","566-BX","2018/04/21 16:59:11","新北市新莊區新泰路255巷83號","121.44201","25.0389583333333","6500500","新莊區"
"242036","415-TV","2018/04/21 16:59:18","新北市新莊區新泰路357巷3弄57號","121.442218333333","25.0393966666667","6500500","新莊區"
"242007","413-TV","2018/04/21 16:59:17","新北市新莊區新泰路357巷3弄57號","121.442051666667","25.0395183333333","6500500","新莊區"
"242044","400-BY","2018/04/21 16:59:21","新北市新莊區新泰路357巷3弄57號","121.442305","25.03966","6500500","新莊區"
"242023","362-BY","2018/04/21 16:59:23","新北市新莊區新泰路255巷83號","121.442338333333","25.0386483333333","6500500","新莊區"
"242017","175-VK","2018/04/21 16:59:24","新北市新莊區三和路12-21號","121.441941666667","25.0386233333333","6500500","新莊區"
"242015","346-TH","2018/04/21 16:59:27","新北市新莊區三和路12-12號","121.442063333333","25.0370766666667","6500500","新莊區"
"238017","283-BY","2018/04/21 16:59:17","新北市樹林區育德街78-1號","121.388385","24.968235","6500700","樹林區"
"238014","282-BY","2018/04/21 16:59:25","新北市樹林區育德街78-1號","121.387711666667","24.9681333333333","6500700","樹林區"
"238020","268-VK","2018/04/21 16:59:20","新北市樹林區大安路626號","121.411225","24.982605","6500700","樹林區"
"239006","891-R6","2018/04/21 16:59:27","新北市鶯歌區二甲路37-15號","121.342253333333","24.9364383333333","6500800","鶯歌區"
"239008","527-UM","2018/04/21 16:59:16","新北市鶯歌區環河路177-1號","121.346426666667","24.9355366666667","6500800","鶯歌區"
"239001","417-VK","2018/04/21 16:59:30","新北市鶯歌區環河路177-1號","121.346233333333","24.935585","6500800","鶯歌區"
"239002","359-BY","2018/04/21 16:59:14","新北市鶯歌區環河路91號","121.348926666667","24.9413766666667","6500800","鶯歌區"
"239004","193-VK","2018/04/21 16:59:21","新北市鶯歌區環河路177-1號","121.34609","24.9357233333333","6500800","鶯歌區"
"242002","KEA-2550","2018/04/21 16:59:19","新北市新莊區三和路12-17號","121.442345","25.0375116666667","6500500","新莊區"
