"lineid","car","time","location","longitude","latitude","cityid","cityname"
"249005","172-UM","2018/04/21 17:19:16","新北市八里區荖阡坑路46號","121.410181666667","25.12235","6502300","八里區"
"249001","173-UM","2018/04/21 17:19:17","新北市八里區中華路二段165巷3號","121.407693333333","25.150865","6502300","八里區"
"249004","303-UY","2018/04/21 17:19:26","新北市八里區文化街78號","121.421521666667","25.1600983333333","6502300","八里區"
"249002","305-UY","2018/04/21 17:19:14","新北市八里區龍米路二段117巷37號","121.443431666667","25.14194","6502300","八里區"
"249003","593-UM","2018/04/21 17:19:29","新北市八里區中山路二段460號","121.399145","25.1473266666667","6502300","八里區"
"232011","375-UM","2018/04/21 17:19:22","新北市坪林區北宜路八段367號","121.709368333333","24.9322683333333","6502000","坪林區"
"244013","069-UM","2018/04/21 17:19:22","新北市林口區粉寮69號","121.404828333333","25.0907716666667","6501700","林口區"
"244007","080-UY","2018/04/21 17:19:17","新北市林口區湖子17-5號","121.385716666667","25.09086","6501700","林口區"
"244019","403-UM","2018/04/21 17:19:19","新北市林口區公園路191號","121.371916666667","25.0723283333333","6501700","林口區"
"244023","483-VK","2018/04/21 17:19:28","新北市林口區興林路2號","121.389411666667","25.076585","6501700","林口區"
"244025","837-TS","2018/04/21 17:19:13","新北市林口區仁愛二路92-1號","121.368768333333","25.0753483333333","6501700","林口區"
"244021","838-TS","2018/04/21 17:19:22","新北市林口區粉寮路二段281-2號","121.404698333333","25.09423","6501700","林口區"
"231046","107-UY","2018/04/21 17:19:28","新北市新店區直潭路92號","121.530901666667","24.9375933333333","6500600","新店區"
"241011","013-R5","2018/04/21 17:19:15","新北市三重區河邊北街100巷35號","121.502256666667","25.0701233333333","6500200","三重區"
"241028","022-UY","2018/04/21 17:19:30","新北市三重區仁化街66號","121.49392","25.05897","6500200","三重區"
"241008","059-VK","2018/04/21 17:19:30","新北市三重區永福街72巷33號","121.480188333333","25.0763233333333","6500200","三重區"
"241009","060-VK","2018/04/21 17:19:22","新北市三重區碧華街81號","121.485225","25.081535","6500200","三重區"
"241015","062-VK","2018/04/21 17:19:17","新北市三重區長元街82-1號","121.50183","25.0662716666667","6500200","三重區"
"241017","063-VK","2018/04/21 17:19:27","新北市三重區大同北路44巷1號","121.495031666667","25.0630183333333","6500200","三重區"
"241024","065-VK","2018/04/21 17:19:26","新北市三重區大勇街82巷15弄23號","121.480865","25.0719866666667","6500200","三重區"
"241002","090-VK","2018/04/21 17:19:28","新北市三重區五華街35巷36號","121.495325","25.0814","6500200","三重區"
"241003","091-VK","2018/04/21 17:19:20","新北市三重區富福街39號","121.491021666667","25.0837883333333","6500200","三重區"
"241005","262-UM","2018/04/21 17:19:29","新北市三重區永安北路二段25巷50號","121.483205","25.08202","6500200","三重區"
"241026","265-UM","2018/04/21 17:19:20","新北市三重區文化南路31-1號","121.500253333333","25.0616216666667","6500200","三重區"
"241016","266-UM","2018/04/21 17:19:17","新北市三重區大同北路54巷1號","121.49428","25.0635866666667","6500200","三重區"
"241022","267-UM","2018/04/21 17:19:21","新北市三重區重陽路二段36號","121.486813333333","25.0631033333333","6500200","三重區"
"241018","268-UM","2018/04/21 17:19:22","新北市三重區安慶街165號","121.494041666667","25.0686466666667","6500200","三重區"
"241032","269-UM","2018/04/21 17:19:29","新北市三重區中華路18號","121.48324","25.0607633333333","6500200","三重區"
"241013","270-UM","2018/04/21 17:19:29","新北市三重區三和路三段107巷25號","121.495161666667","25.0731216666667","6500200","三重區"
"241025","271-UM","2018/04/21 17:19:11","新北市三重區中正北路285號","121.474771666667","25.0711283333333","6500200","三重區"
"241007","398-BY","2018/04/21 17:19:32","新北市三重區三和路四段155巷29號","121.484708333333","25.07876","6500200","三重區"
"241006","462-BY","2018/04/21 17:19:23","新北市三重區三和路四段218巷11號","121.48565","25.07648","6500200","三重區"
"241004","475-VK","2018/04/21 17:19:19","新北市三重區五華街110巷1號","121.49203","25.0829483333333","6500200","三重區"
"241020","478-VK","2018/04/21 17:19:29","新北市三重區自強路三段72號","121.486801666667","25.073635","6500200","三重區"
"241030","480-VK","2018/04/21 17:19:12","新北市三重區成功路73巷40號","121.48978","25.0524816666667","6500200","三重區"
"241014","543-UM","2018/04/21 17:19:23","新北市三重區三和路二段83號","121.500096666667","25.0684433333333","6500200","三重區"
"241023","545-UM","2018/04/21 17:19:28","新北市三重區三民街174號","121.482056666667","25.0656066666667","6500200","三重區"
"241019","887-TS","2018/04/21 17:19:26","新北市三重區忠孝路二段99-1號","121.484038333333","25.0697616666667","6500200","三重區"
"241012","941-UM","2018/04/21 17:19:16","新北市三重區龍門路274巷45號","121.501126666667","25.0755116666667","6500200","三重區"
"241029","942-UM","2018/04/21 17:19:13","新北市三重區光復路二段180號","121.471783333333","25.06252","6500200","三重區"
"241033","AAC-255","2018/04/21 17:19:17","新北市三重區中興北街207號","121.469048333333","25.05778","6500200","三重區"
"247024","893-R6","2018/04/21 17:19:11","新北市蘆洲區長榮路262號","121.460438333333","25.08614","6501400","蘆洲區"
"247014","546-UM","2018/04/21 17:19:17","新北市蘆洲區中正路81號","121.470155","25.0835366666667","6501400","蘆洲區"
"247022","500-BY","2018/04/21 17:19:25","新北市蘆洲區三民路128巷35號","121.469891666667","25.0895766666667","6501400","蘆洲區"
"247010","341-TH","2018/04/21 17:19:28","新北市蘆洲區中山一路120巷7弄31號","121.47695","25.082535","6501400","蘆洲區"
"247012","339-TH","2018/04/21 17:19:24","新北市蘆洲區信義路319巷10弄17號","121.477458333333","25.0864966666667","6501400","蘆洲區"
"247004","337-TH","2018/04/21 17:19:14","新北市蘆洲區中原路93號","121.45755","25.081365","6501400","蘆洲區"
"247006","336-TH","2018/04/21 17:19:32","新北市蘆洲區長安街49巷7號","121.46298","25.0791633333333","6501400","蘆洲區"
"247018","057-VK","2018/04/21 17:19:17","新北市蘆洲區民權路68巷16號","121.47548","25.0878983333333","6501400","蘆洲區"
"247008","056-VK","2018/04/21 17:19:17","新北市蘆洲區永安北路一段72巷22號","121.476651666667","25.0771066666667","6501400","蘆洲區"
"247016","007-UY","2018/04/21 17:19:19","新北市蘆洲區正和街96巷20號","121.467805","25.0811483333333","6501400","蘆洲區"
"247002","002-UY","2018/04/21 17:19:27","新北市蘆洲區永樂街38巷33弄19號","121.457226666667","25.0896833333333","6501400","蘆洲區"
"247020","001-UY","2018/04/21 17:19:29","新北市蘆洲區仁愛街37號","121.472168333333","25.0928633333333","6501400","蘆洲區"
"228003","097-TW","2018/04/21 17:19:21","新北市貢寮區雙玉里田寮洋街21號","121.927228333333","25.02399","6502600","貢寮區"
"228001","212-TW","2018/04/21 17:19:14","新北市貢寮區仁理村尖山腳街18-3號","121.925498333333","25.0483266666667","6502600","貢寮區"
"228002","663-BX","2018/04/21 17:19:16","新北市貢寮區雙玉里下雙溪街26號","121.923341666667","25.00991","6502600","貢寮區"
"224006","676-BX","2018/04/21 17:19:19","新北市瑞芳區傑魚坑路280號","121.787466666667","25.1064616666667","6501200","瑞芳區"
"224008","285-BY","2018/04/21 17:19:26","新北市瑞芳區侯硐路184號","121.829055","25.0876983333333","6501200","瑞芳區"
"224007","275-VK","2018/04/21 17:19:23","新北市瑞芳區大寮路356-1號","121.784591666667","25.103345","6501200","瑞芳區"
"224009","273-VK","2018/04/21 17:19:21","新北市瑞芳區汽車路49號","121.84419","25.1096033333333","6501200","瑞芳區"
"224005","271-BY","2018/04/21 17:19:23","新北市瑞芳區鼻頭路247號","121.912251666667","25.12337","6501200","瑞芳區"
"227002","642-TC","2018/04/21 17:19:12","新北市雙溪區上林里內平林90號","121.827611666667","25.0274833333333","6502500","雙溪區"
"227010","400-TW","2018/04/21 17:19:25","新北市雙溪區三貂里十三層17-3號","121.853585","25.0792733333333","6502500","雙溪區"
"251009","008-UM","2018/04/21 17:19:19","新北市淡水區三民街20號","121.439038333333","25.1717233333333","6501000","淡水區"
"251004","009-UM","2018/04/21 17:19:32","新北市淡水區中正東路二段88巷15號","121.459101666667","25.1505","6501000","淡水區"
"251013","179-VK","2018/04/21 17:19:29","新北市淡水區破瓦厝子3-3號","121.472371666667","25.1971883333333","6501000","淡水區"
"251014","180-VK","2018/04/21 17:18:17","新北市淡水區番子田120-1號","121.464711666667","25.2281166666667","6501000","淡水區"
"251008","181-VK","2018/04/21 17:19:18","新北市淡水區大同路263號","121.466715","25.1421416666667","6501000","淡水區"
"251015","182-VK","2018/04/21 17:19:30","新北市淡水區樹林口168號","121.475633333333","25.1669383333333","6501000","淡水區"
"251010","413-VK","2018/04/21 17:19:26","新北市淡水區中正路二段211號","121.426213333333","25.1891216666667","6501000","淡水區"
"251012","441-VK","2018/04/21 17:19:26","新北市淡水區中山北路一段158號","121.444275","25.1779366666667","6501000","淡水區"
"251016","442-VK","2018/04/21 17:19:31","新北市淡水區鄒厝崙7號","121.470818333333","25.18806","6501000","淡水區"
"251005","443-VK","2018/04/21 17:19:15","新北市淡水區鄧公路19-1號","121.450263333333","25.16996","6501000","淡水區"
"251006","561-UM","2018/04/21 17:19:22","新北市淡水區大智街33號","121.442388333333","25.1743516666667","6501000","淡水區"
"251007","577-R6","2018/04/21 17:19:22","新北市淡水區民生路47-4號","121.462043333333","25.13802","6501000","淡水區"
"251011","650-BX","2018/04/21 17:19:22","新北市淡水區坪頂路297號","121.472596666667","25.1622","6501000","淡水區"
"251002","672-BX","2018/04/21 17:19:28","新北市淡水區中正路二段31號","121.419388333333","25.181635","6501000","淡水區"
"251003","673-BX","2018/04/21 17:19:28","新北市淡水區中正路二段31號","121.419123333333","25.1819916666667","6501000","淡水區"
"207003","550-UM","2018/04/21 17:19:17","新北市萬里區萬里里瑪鋉路314號","121.688215","25.182125","6502800","萬里區"
"252002","178-VK","2018/04/21 17:19:25","新北市三芝區忠孝街1-14號","121.505481666667","25.2539433333333","6502100","三芝區"
"252001","292-VK","2018/04/21 17:19:15","新北市三芝區長安街119號","121.49804","25.25966","6502100","三芝區"
"242034","AAC-296","2018/04/21 17:19:32","新北市新莊區瓊林路52號","121.445701666667","25.028775","6500500","新莊區"
"242053","751-BX","2018/04/21 17:19:17","新北市新莊區環河路636-7號","121.436826666667","25.0113566666667","6500500","新莊區"
"242027","615-BX","2018/04/21 17:19:23","新北市新莊區中平路82巷8號","121.445153333333","25.044795","6500500","新莊區"
"242025","613-BX","2018/04/21 17:19:23","新北市新莊區中平路90巷6號","121.445208333333","25.0451033333333","6500500","新莊區"
"242029","612-BX","2018/04/21 17:19:25","新北市新莊區幸福路785號","121.446676666667","25.04903","6500500","新莊區"
"242042","566-BX","2018/04/21 17:19:31","新北市新莊區中正路475號","121.441498333333","25.033835","6500500","新莊區"
"242046","497-BY","2018/04/21 17:19:16","新北市新莊區新樹路65-5號","121.439458333333","25.0308016666667","6500500","新莊區"
"242004","442-UM","2018/04/21 17:19:30","新北市新莊區中平路88號","121.444835","25.04513","6500500","新莊區"
"242051","441-UM","2018/04/21 17:19:20","新北市新莊區瓊林南路42巷1-1號","121.435945","25.0178666666667","6500500","新莊區"
"242056","440-UM","2018/04/21 17:19:19","新北市新莊區中正路471號","121.44205","25.0334133333333","6500500","新莊區"
"242036","415-TV","2018/04/21 17:19:18","新北市新莊區新樹路223號","121.435355","25.0229983333333","6500500","新莊區"
"242007","413-TV","2018/04/21 17:19:17","新北市新莊區中環路二段392-1號","121.442448333333","25.0454766666667","6500500","新莊區"
"242044","400-BY","2018/04/21 17:19:21","新北市新莊區富國路107號","121.423395","25.0249683333333","6500500","新莊區"
"242023","362-BY","2018/04/21 17:19:23","新北市新莊區中環路二段392-1號","121.44247","25.0453966666667","6500500","新莊區"
"242061","353-BY","2018/04/21 17:19:23","新北市泰山區磚雅厝3號","121.441928333333","25.0418166666667","6500500","新莊區"
"242039","133-UY","2018/04/21 17:19:15","新北市新莊區新樹路209號","121.435771666667","25.023715","6500500","新莊區"
"242031","135-UY","2018/04/21 17:19:32","新北市新莊區新泰路421-7號","121.442436666667","25.0452483333333","6500500","新莊區"
"242048","172-VK","2018/04/21 17:19:31","新北市新莊區龍安路252-2號","121.42118","25.0195116666667","6500500","新莊區"
"242017","175-VK","2018/04/21 17:19:24","新北市新莊區中環路二段392-1號","121.442385","25.0455183333333","6500500","新莊區"
"242015","346-TH","2018/04/21 17:19:27","新北市新莊區新泰路240號","121.446378333333","25.0395266666667","6500500","新莊區"
"242021","348-TH","2018/04/21 17:19:18","新北市新莊區中港路304號","121.452658333333","25.04489","6500500","新莊區"
"242013","351-TH","2018/04/21 17:19:28","新北市新莊區新泰路357巷3弄57號","121.442346666667","25.0392916666667","6500500","新莊區"
"238023","601-UM","2018/04/21 17:19:22","新北市樹林區中正路433-2號","121.415008333333","25.0083133333333","6500700","樹林區"
"238018","571-TV","2018/04/21 17:19:17","新北市樹林區鎮前街269巷46號","121.419026666667","24.9848416666667","6500700","樹林區"
"238022","KEA-2213","2018/04/21 17:19:13","新北市樹林區忠孝街19號","121.423436666667","24.9825516666667","6500700","樹林區"
"238021","KEA-2539","2018/04/21 17:19:12","新北市樹林區西圳街一段165巷2號","121.39534","24.9621733333333","6500700","樹林區"
"238017","283-BY","2018/04/21 17:19:17","新北市樹林區光武街32巷16號","121.416995","25.0053566666667","6500700","樹林區"
"238014","282-BY","2018/04/21 17:19:25","新北市樹林區長壽街70巷26號","121.421935","24.9949266666667","6500700","樹林區"
"238020","268-VK","2018/04/21 17:19:14","新北市樹林區中正路25號","121.427283333333","24.9993366666667","6500700","樹林區"
"238026","172-UY","2018/04/21 17:19:30","新北市樹林區味王街46巷32號","121.402901666667","24.9736666666667","6500700","樹林區"
"238016","169-UY","2018/04/21 17:19:32","新北市樹林區中山路一段374-3號","121.418816666667","24.9856766666667","6500700","樹林區"
"239007","AAC-297","2018/04/21 17:13:19","新北市鶯歌區光復街48巷9號","121.351646666667","24.95609","6500800","鶯歌區"
"239006","891-R6","2018/04/21 17:19:28","新北市鶯歌區福昌街28號","121.332831666667","24.9609583333333","6500800","鶯歌區"
"239008","527-UM","2018/04/21 17:19:15","新北市鶯歌區西湖街289巷16號","121.340881666667","24.969025","6500800","鶯歌區"
"239001","417-VK","2018/04/21 17:19:32","新北市鶯歌區黃厝街19號","121.342953333333","24.9456183333333","6500800","鶯歌區"
"239003","360-BY","2018/04/21 17:19:27","新北市鶯歌區德昌街50號","121.333168333333","24.9598633333333","6500800","鶯歌區"
"239002","359-BY","2018/04/21 17:19:14","新北市鶯歌區建國路156號","121.350696666667","24.9537266666667","6500800","鶯歌區"
"239004","193-VK","2018/04/21 17:19:21","新北市鶯歌區文化路256巷15弄31號","121.352256666667","24.9469233333333","6500800","鶯歌區"
"242002","KEA-2550","2018/04/21 17:19:19","新北市新莊區新泰路308號","121.445388333333","25.0412116666667","6500500","新莊區"
"242009","281-VK","2018/04/21 17:19:22","新北市新莊區新泰路486號","121.44248","25.045675","6500500","新莊區"
"242019","280-VK","2018/04/21 17:19:15","新北市新莊區中港路298號","121.452761666667","25.0447933333333","6500500","新莊區"
