"lineid","car","time","location","longitude","latitude","cityid","cityname"
"234026","9371-KE","2018/04/21 17:39:33","新北市永和區中正路736號","121.515263333333","25.010165","6500400","永和區"
"249005","172-UM","2018/04/21 17:39:16","新北市八里區荖阡坑路34號","121.402776666667","25.1297433333333","6502300","八里區"
"249001","173-UM","2018/04/21 17:39:17","新北市八里區龍米路二段150號","121.43573","25.1567666666667","6502300","八里區"
"249004","303-UY","2018/04/21 17:39:26","新北市八里區賢二街41號","121.418986666667","25.1577733333333","6502300","八里區"
"249002","305-UY","2018/04/21 17:39:34","新北市八里區石壁腳19號","121.441783333333","25.1353683333333","6502300","八里區"
"249003","593-UM","2018/04/21 17:39:29","新北市八里區中山路二段228號","121.405053333333","25.151305","6502300","八里區"
"232011","375-UM","2018/04/21 17:39:22","新北市坪林區北宜路八段99號","121.706028333333","24.93484","6502000","坪林區"
"244013","069-UM","2018/04/21 17:39:22","新北市林口區中正路555號","121.381153333333","25.0768633333333","6501700","林口區"
"244007","080-UY","2018/04/21 17:39:17","新北市林口區文化一路二段305號","121.3858","25.0858066666667","6501700","林口區"
"244019","403-UM","2018/04/21 17:39:19","新北市林口區忠孝路535號","121.371945","25.0689766666667","6501700","林口區"
"244023","483-VK","2018/04/21 17:39:28","新北市林口區東明一街121巷11號","121.390138333333","25.0702066666667","6501700","林口區"
"244009","656-BX","2018/04/21 17:39:32","新北市林口區中北三街309號","121.382793333333","25.0835883333333","6501700","林口區"
"244025","837-TS","2018/04/21 17:39:13","新北市林口區南勢街19號","121.365046666667","25.0737316666667","6501700","林口區"
"244021","838-TS","2018/04/21 17:39:22","新北市林口區粉寮路一段47號","121.396728333333","25.077615","6501700","林口區"
"243013","646-TV","2018/04/21 17:39:30","新北市泰山區錢厝坑8-3號","121.40861","25.0493233333333","6501600","泰山區"
"222002","659-BX","2018/04/21 17:39:26","新北市深坑區深南路1號","121.622041666667","25.0049383333333","6501800","深坑區"
"231046","107-UY","2018/04/21 17:39:28","新北市新店區下石厝路31號","121.533478333333","24.9316283333333","6500600","新店區"
"241024","065-VK","2018/04/21 17:39:26","新北市三重區車路頭街35號","121.483846666667","25.0713266666667","6500200","三重區"
"241002","090-VK","2018/04/21 17:39:28","新北市三重區仁義街241巷4號","121.496383333333","25.08288","6500200","三重區"
"241005","262-UM","2018/04/21 17:39:29","新北市三重區碧華街151號","121.486631666667","25.0821183333333","6500200","三重區"
"241016","266-UM","2018/04/21 17:39:17","新北市三重區重新路二段21號","121.497955","25.0625616666667","6500200","三重區"
"241018","268-UM","2018/04/21 17:39:22","新北市三重區新北大道一段106號","121.485228333333","25.0615216666667","6500200","三重區"
"241007","398-BY","2018/04/21 17:39:32","新北市三重區車路頭街79號","121.484433333333","25.07396","6500200","三重區"
"241014","543-UM","2018/04/21 17:39:22","新北市三重區龍濱路187號","121.50202","25.0709666666667","6500200","三重區"
"241023","545-UM","2018/04/21 17:39:28","新北市三重區中華路125號","121.483613333333","25.0641016666667","6500200","三重區"
"241019","887-TS","2018/04/21 17:39:26","新北市三重區安慶街387號","121.487048333333","25.06816","6500200","三重區"
"241012","941-UM","2018/04/21 17:39:20","新北市三重區仁興街39巷50號","121.501118333333","25.0766083333333","6500200","三重區"
"241033","AAC-255","2018/04/21 17:39:16","新北市三重區光復路一段53號","121.472195","25.048985","6500200","三重區"
"247024","893-R6","2018/04/21 17:39:31","新北市蘆洲區長樂路125-1號","121.462096666667","25.0881033333333","6501400","蘆洲區"
"247014","546-UM","2018/04/21 17:39:17","新北市蘆洲區中山二路130號","121.471711666667","25.0817016666667","6501400","蘆洲區"
"247022","500-BY","2018/04/21 17:39:24","新北市蘆洲區三民路289號","121.466971666667","25.0903283333333","6501400","蘆洲區"
"247010","341-TH","2018/04/21 17:39:28","新北市蘆洲區三民路50號","121.475506666667","25.0832583333333","6501400","蘆洲區"
"247012","339-TH","2018/04/21 17:39:24","新北市蘆洲區民權路3巷6號","121.476196666667","25.0854483333333","6501400","蘆洲區"
"247004","337-TH","2018/04/21 17:39:14","新北市蘆洲區長安街249巷28號","121.458216666667","25.082865","6501400","蘆洲區"
"247006","336-TH","2018/04/21 17:39:12","新北市蘆洲區長安街23巷23號","121.463365","25.07841","6501400","蘆洲區"
"247018","057-VK","2018/04/21 17:39:17","新北市蘆洲區民權路63號","121.473565","25.0880833333333","6501400","蘆洲區"
"247008","056-VK","2018/04/21 17:39:17","新北市蘆洲區民生街74號","121.472775","25.0791216666667","6501400","蘆洲區"
"247016","007-UY","2018/04/21 17:39:19","新北市蘆洲區光華路70巷5號","121.467841666667","25.0831016666667","6501400","蘆洲區"
"247002","002-UY","2018/04/21 17:39:27","新北市蘆洲區永平街36號","121.458385","25.0910533333333","6501400","蘆洲區"
"247020","001-UY","2018/04/21 17:39:28","新北市蘆洲區民族路355號","121.471866666667","25.0916883333333","6501400","蘆洲區"
"228003","097-TW","2018/04/21 17:39:21","新北市貢寮區仁理村仁和路268號","121.924208333333","25.054455","6502600","貢寮區"
"228002","663-BX","2018/04/21 17:39:16","新北市貢寮區福隆里外隆林街14-1號","121.959056666667","25.0036233333333","6502600","貢寮區"
"224010","AGQ-8101","2018/04/21 17:38:05","新北市瑞芳區岳王路17號","121.807225","25.1110366666667","6501200","瑞芳區"
"224006","676-BX","2018/04/21 17:39:24","新北市瑞芳區傑魚坑路73號","121.793215","25.1105083333333","6501200","瑞芳區"
"224008","285-BY","2018/04/21 17:39:31","新北市瑞芳區瑞柑新村4號","121.82907","25.1063066666667","6501200","瑞芳區"
"224007","275-VK","2018/04/21 17:39:23","新北市瑞芳區大寮路356-1號","121.784751666667","25.1032666666667","6501200","瑞芳區"
"224009","273-VK","2018/04/21 17:39:20","新北市瑞芳區山尖路213號","121.84917","25.11229","6501200","瑞芳區"
"224005","271-BY","2018/04/21 17:39:23","新北市瑞芳區海濱路27號","121.831","25.1249783333333","6501200","瑞芳區"
"227002","642-TC","2018/04/21 17:39:12","新北市雙溪區三貂里政光路3號","121.851496666667","25.0632","6502500","雙溪區"
"208002","KEA-2872","2018/04/21 17:39:14","新北市金山區磺清路121號","121.639815","25.2281583333333","6502700","金山區"
"208001","761-BX","2018/04/21 17:39:21","新北市金山區磺港里磺港路326號","121.645476666667","25.2291116666667","6502700","金山區"
"251009","008-UM","2018/04/21 17:39:19","新北市淡水區中正路38-1號","121.443738333333","25.1692583333333","6501000","淡水區"
"251004","009-UM","2018/04/21 17:39:32","新北市淡水區中正東路二段88巷37-21號","121.45925","25.1445266666667","6501000","淡水區"
"251013","179-VK","2018/04/21 17:39:25","新北市淡水區演戲埔腳1-3號","121.475728333333","25.193125","6501000","淡水區"
"251014","180-VK","2018/04/21 17:39:33","新北市淡水區水碓5號","121.475263333333","25.22197","6501000","淡水區"
"251008","181-VK","2018/04/21 17:39:18","新北市淡水區八勢路一段123巷7弄2號","121.466465","25.1572933333333","6501000","淡水區"
"251015","182-VK","2018/04/21 17:39:30","新北市淡水區糞箕湖9-1號","121.485286666667","25.17086","6501000","淡水區"
"251010","413-VK","2018/04/21 17:39:26","新北市淡水區淡海路276號","121.419958333333","25.1882933333333","6501000","淡水區"
"251012","441-VK","2018/04/21 17:39:26","新北市淡水區北新路200巷8號","121.451763333333","25.1796833333333","6501000","淡水區"
"251016","442-VK","2018/04/21 17:39:31","新北市淡水區埤島39-15號","121.452791666667","25.195845","6501000","淡水區"
"251005","443-VK","2018/04/21 17:39:15","新北市淡水區鄧公路33巷13號","121.451988333333","25.17089","6501000","淡水區"
"251006","561-UM","2018/04/21 17:39:22","新北市淡水區大信街24巷2號","121.441918333333","25.1766866666667","6501000","淡水區"
"251007","577-R6","2018/04/21 17:39:21","新北市淡水區民生路52巷35號","121.463211666667","25.13786","6501000","淡水區"
"251011","650-BX","2018/04/21 17:39:22","新北市淡水區小坪頂13-3號","121.486616666667","25.1561483333333","6501000","淡水區"
"251002","672-BX","2018/04/21 17:39:28","新北市淡水區清水街250號","121.440386666667","25.1722716666667","6501000","淡水區"
"251003","673-BX","2018/04/21 17:39:28","新北市淡水區中山北路一段76號","121.442228333333","25.1760583333333","6501000","淡水區"
"207003","550-UM","2018/04/21 17:39:17","新北市萬里區龜吼里漁澳路85-2號","121.690273333333","25.19797","6502800","萬里區"
"207004","225-TW","2018/04/21 17:39:27","新北市萬里區中幅里中福路8-1號","121.685445","25.1646966666667","6502800","萬里區"
"252002","178-VK","2018/04/21 17:39:25","新北市三芝區中正路二段11號","121.504573333333","25.2555083333333","6502100","三芝區"
"252001","292-VK","2018/04/21 17:39:15","新北市三芝區淡金路一段81號","121.502081666667","25.2587733333333","6502100","三芝區"
"237008","302-VK","2018/04/21 17:39:15","新北市三峽區中山路459巷52-1號","121.356393333333","24.9361016666667","6500900","三峽區"
"237012","280-TH","2018/04/21 17:39:23","新北市三峽區中山路459巷163-3號","121.348861666667","24.9332033333333","6500900","三峽區"
"237006","5529-G3","2018/04/21 17:39:31","新北市三峽區介壽路二段34-2號","121.391296666667","24.9351183333333","6500900","三峽區"
"236070","105-UM","2018/04/21 17:39:21","新北市土城區城林路6巷80號","121.438433333333","24.9797433333333","6501300","土城區"
"236079","166-UM","2018/04/21 17:39:18","新北市土城區中華路二段2號","121.439325","24.9796066666667","6501300","土城區"
"236030","253-BX","2018/04/21 17:39:19","新北市土城區城林路6巷80號","121.438446666667","24.979795","6501300","土城區"
"236014","270-VK","2018/04/21 17:39:22","新北市土城區城林路6巷80號","121.438506666667","24.9795633333333","6501300","土城區"
"236038","271-VK","2018/04/21 17:39:27","新北市土城區城林路6巷80號","121.438441666667","24.97978","6501300","土城區"
"236021","401-BY","2018/04/21 17:39:28","新北市土城區城林路6巷80號","121.438813333333","24.979605","6501300","土城區"
"242034","AAC-296","2018/04/21 17:39:15","新北市新莊區新莊路526號","121.445825","25.0330133333333","6500500","新莊區"
"242058","986-R7","2018/04/21 17:39:33","新北市新莊區中正路723-7號","121.423136666667","25.0291416666667","6500500","新莊區"
"242053","751-BX","2018/04/21 17:39:27","新北市新莊區新樹路699巷1-2號","121.432511666667","25.0020516666667","6500500","新莊區"
"242027","615-BX","2018/04/21 17:39:23","新北市新莊區福壽街114號","121.458025","25.0507683333333","6500500","新莊區"
"242025","613-BX","2018/04/21 17:39:33","新北市新莊區思源路92號","121.460128333333","25.0455583333333","6500500","新莊區"
"242029","612-BX","2018/04/21 17:39:25","新北市新莊區復興路一段183號","121.451543333333","25.0433983333333","6500500","新莊區"
"242042","566-BX","2018/04/21 17:39:31","新北市新莊區中正路514巷15號","121.433071666667","25.032955","6500500","新莊區"
"242046","497-BY","2018/04/21 17:39:15","新北市新莊區建國一路21號","121.43393","25.0315583333333","6500500","新莊區"
"242004","442-UM","2018/04/21 17:39:30","新北市新莊區自立街180號","121.456061666667","25.0454266666667","6500500","新莊區"
"242051","441-UM","2018/04/21 17:39:20","新北市新莊區龍安路537號","121.427978333333","25.017525","6500500","新莊區"
"242056","440-UM","2018/04/21 17:39:19","新北市新莊區泰豐街20號","121.448445","25.031505","6500500","新莊區"
"242036","415-TV","2018/04/21 17:39:18","新北市新莊區建福路59巷45號","121.428585","25.0278466666667","6500500","新莊區"
"242007","413-TV","2018/04/21 17:39:32","新北市新莊區自信街44號","121.454771666667","25.0482166666667","6500500","新莊區"
"242044","400-BY","2018/04/21 17:39:21","新北市新莊區中正路871巷9弄9號","121.418791666667","25.0270383333333","6500500","新莊區"
"242023","362-BY","2018/04/21 17:39:23","新北市新莊區公園路129-5號","121.457426666667","25.0408233333333","6500500","新莊區"
"242061","353-BY","2018/04/21 17:39:23","新北市新莊區瓊林南路103巷8弄41號","121.435221666667","25.0111833333333","6500500","新莊區"
"242039","133-UY","2018/04/21 17:39:15","新北市新莊區民安東路27號","121.42836","25.0209283333333","6500500","新莊區"
"242031","135-UY","2018/04/21 17:39:32","新北市新莊區新泰路368號","121.444286666667","25.0429433333333","6500500","新莊區"
"242048","172-VK","2018/04/21 17:39:31","新北市新莊區萬安街134號","121.420245","25.02151","6500500","新莊區"
"242011","173-VK","2018/04/21 17:39:19","新北市新莊區中港路572號","121.451751666667","25.0534116666667","6500500","新莊區"
"242017","175-VK","2018/04/21 17:39:30","新北市新莊區中和街30巷21號","121.449176666667","25.04403","6500500","新莊區"
"242015","346-TH","2018/04/21 17:39:27","新北市新莊區新泰路271號","121.445806666667","25.04031","6500500","新莊區"
"242021","348-TH","2018/04/21 17:38:58","新北市新莊區中華路一段65號","121.452151666667","25.0396","6500500","新莊區"
"242013","351-TH","2018/04/21 17:39:28","新北市新莊區中誠街97號","121.449951666667","25.04775","6500500","新莊區"
"238015","755-BX","2018/04/21 17:39:33","新北市樹林區啟智街26號","121.420975","24.9935483333333","6500700","樹林區"
"238023","601-UM","2018/04/21 17:39:22","新北市樹林區三福街132號","121.40579","25.0162583333333","6500700","樹林區"
"238018","571-TV","2018/04/21 17:39:32","新北市樹林區保安街一段3號","121.42713","24.9933366666667","6500700","樹林區"
"238022","KEA-2213","2018/04/21 17:39:33","新北市樹林區中華路185號","121.42055","24.9816116666667","6500700","樹林區"
"238021","KEA-2539","2018/04/21 17:39:19","新北市樹林區柑園街一段236號","121.392243333333","24.956365","6500700","樹林區"
"238025","303-VK","2018/04/21 17:39:23","新北市樹林區保安街二段209號","121.41349","25.0039166666667","6500700","樹林區"
"238017","283-BY","2018/04/21 17:39:17","新北市樹林區三德街23號","121.413536666667","25.0129966666667","6500700","樹林區"
"238014","282-BY","2018/04/21 17:39:25","新北市樹林區保安街一段336巷25號","121.417668333333","24.9990633333333","6500700","樹林區"
"238020","268-VK","2018/04/21 17:39:31","新北市樹林區俊英街216號","121.425021666667","25.009725","6500700","樹林區"
"238026","172-UY","2018/04/21 17:39:30","新北市樹林區新興街19巷6號","121.400535","24.9726266666667","6500700","樹林區"
"238016","169-UY","2018/04/21 17:39:13","新北市樹林區復興路236號","121.418615","24.9893933333333","6500700","樹林區"
"239007","AAC-297","2018/04/21 17:39:19","新北市鶯歌區鶯桃路永富巷5號","121.3389","24.9546383333333","6500800","鶯歌區"
"239006","891-R6","2018/04/21 17:39:28","新北市鶯歌區鶯桃路438號","121.333128333333","24.9648433333333","6500800","鶯歌區"
"239008","527-UM","2018/04/21 17:39:15","新北市鶯歌區大湖路732巷16弄4號","121.333661666667","24.9772733333333","6500800","鶯歌區"
"239001","417-VK","2018/04/21 17:39:30","新北市鶯歌區中正三路256-2號","121.329468333333","24.9363016666667","6500800","鶯歌區"
"239003","360-BY","2018/04/21 17:39:27","新北市鶯歌區鶯桃路206巷56號","121.338095","24.960235","6500800","鶯歌區"
"239002","359-BY","2018/04/21 17:39:30","新北市鶯歌區育智路88號","121.345088333333","24.9544166666667","6500800","鶯歌區"
"239004","193-VK","2018/04/21 17:39:21","新北市鶯歌區三鶯路5號","121.356833333333","24.940905","6500800","鶯歌區"
"221015","131-UY","2018/04/21 17:39:31","新北市汐止區汐萬路一段312號","121.650518333333","25.0753733333333","6501100","汐止區"
"221010","269-BY","2018/04/21 17:39:09","新北市汐止區汐萬路一段418巷46號","121.651091666667","25.0790833333333","6501100","汐止區"
"221023","279-VK","2018/04/21 17:39:22","新北市汐止區汐萬路一段256巷1號","121.651696666667","25.07486","6501100","汐止區"
"221032","280-BY","2018/04/21 17:39:22","新北市汐止區康寧街777-1號","121.644818333333","25.075615","6501100","汐止區"
"221021","299-VK","2018/04/21 17:39:26","新北市汐止區康寧街901號","121.65159","25.0749733333333","6501100","汐止區"
"221031","353-TW","2018/04/21 17:39:21","新北市汐止區汐萬路一段256巷1號","121.651735","25.0748816666667","6501100","汐止區"
"221008","129-UY","2018/04/21 17:39:12","新北市汐止區汐萬路一段256巷3號","121.652671666667","25.0744566666667","6501100","汐止區"
"221033","647-BX","2018/04/21 17:39:15","新北市汐止區橫科路407巷25弄17-5號","121.626815","25.0493333333333","6501100","汐止區"
"221018","753-BX","2018/04/21 17:39:12","新北市汐止區康寧街901號","121.651265","25.0750466666667","6501100","汐止區"
"242002","KEA-2550","2018/04/21 17:39:19","新北市新莊區新莊路264號","121.451855","25.0339783333333","6500500","新莊區"
"242009","281-VK","2018/04/21 17:39:21","新北市新莊區昌明街14巷6弄1號","121.45739","25.052985","6500500","新莊區"
"242019","280-VK","2018/04/21 17:39:15","新北市新莊區中港路110號","121.455348333333","25.039905","6500500","新莊區"
