"lineid","car","time","location","longitude","latitude","cityid","cityname"
"234007","207-UY","2018/04/21 18:19:21","新北市永和區光復街42號","121.51691","25.0179383333333","6500400","永和區"
"234042","862-TW","2018/04/21 18:19:18","新北市永和區福和路1號","121.525545","25.009535","6500400","永和區"
"234026","9371-KE","2018/04/21 18:19:13","新北市永和區豫溪街42巷5號","121.515496666667","25.0095283333333","6500400","永和區"
"234011","9373-KE","2018/04/21 18:19:23","新北市永和區保安路132號","121.508851666667","25.0151533333333","6500400","永和區"
"249005","172-UM","2018/04/21 18:19:16","新北市八里區荖阡坑路15-1號","121.40067","25.14003","6502300","八里區"
"249001","173-UM","2018/04/21 18:19:17","新北市八里區龍米路一段135號","121.452143333333","25.1268083333333","6502300","八里區"
"249004","303-UY","2018/04/21 18:19:26","新北市八里區龍米路二段230-2號","121.431675","25.158575","6502300","八里區"
"249002","305-UY","2018/04/21 18:19:14","新北市八里區龍形二街35號","121.450471666667","25.1328416666667","6502300","八里區"
"248014","025-BX","2018/04/21 18:19:13","新北市五股區自強路45號","121.433418333333","25.0737516666667","6501500","五股區"
"248016","026-BX","2018/04/21 18:19:23","新北市五股區成泰路三段493號","121.449251666667","25.099425","6501500","五股區"
"248006","077-UY","2018/04/21 18:19:17","新北市五股區中興路一段152號","121.464583333333","25.0737983333333","6501500","五股區"
"248008","095-VK","2018/04/21 18:19:34","新北市五股區更洲路32巷8弄17號","121.459271666667","25.07962","6501500","五股區"
"248020","225-UY","2018/04/21 18:18:53","新北市五股區孝義路47巷21號","121.45051","25.1093066666667","6501500","五股區"
"248012","247-BX","2018/04/21 18:19:34","新北市五股區御成路10號","121.441793333333","25.0911283333333","6501500","五股區"
"248010","272-BY","2018/04/21 18:19:26","新北市五股區成泰路一段139巷2弄2號","121.435106666667","25.07297","6501500","五股區"
"248004","677-BX","2018/04/21 18:19:20","新北市五股區成泰路二段149號","121.439156666667","25.0855283333333","6501500","五股區"
"248002","678-BX","2018/04/21 18:19:13","新北市五股區西雲路66號","121.443615","25.0916166666667","6501500","五股區"
"232011","375-UM","2018/04/21 18:19:03","新北市坪林區坪雙路一段31號","121.711693333333","24.9424133333333","6502000","坪林區"
"244013","069-UM","2018/04/21 18:19:02","新北市林口區中山路160巷14號","121.391595","25.0792083333333","6501700","林口區"
"244007","080-UY","2018/04/21 18:19:17","新北市林口區竹林路462號","121.38802","25.0847816666667","6501700","林口區"
"244019","403-UM","2018/04/21 18:19:19","新北市林口區忠孝路616巷23號","121.377283333333","25.0674016666667","6501700","林口區"
"244023","483-VK","2018/04/21 18:19:28","新北市林口區仁愛路二段25號","121.38551","25.075995","6501700","林口區"
"244017","485-VK","2018/04/21 18:19:25","新北市林口區八德路20巷17號","121.367555","25.067795","6501700","林口區"
"244009","656-BX","2018/04/21 18:19:32","新北市林口區文林三街43號","121.375373333333","25.0869266666667","6501700","林口區"
"244011","701-TV","2018/04/21 18:19:22","新北市林口區中正路74巷5弄1號","121.394576666667","25.0779866666667","6501700","林口區"
"244025","837-TS","2018/04/21 18:19:28","新北市林口區南勢六街57號","121.355535","25.0719283333333","6501700","林口區"
"244021","838-TS","2018/04/21 18:19:22","新北市林口區自強二街1號","121.39744","25.078485","6501700","林口區"
"243013","646-TV","2018/04/21 18:19:30","新北市泰山區明志路三段206巷3號","121.423258333333","25.0379483333333","6501600","泰山區"
"222003","436-BY","2018/04/21 18:19:17","新北市深坑區旺耽路67號","121.62627","25.0030233333333","6501800","深坑區"
"222002","659-BX","2018/04/21 18:19:26","新北市深坑區文化街13號","121.620358333333","25.00125","6501800","深坑區"
"231044","001-UM","2018/04/21 18:19:20","新北市新店區安華路28-1號","121.51952","24.96098","6500600","新店區"
"231041","002-UM","2018/04/21 18:19:14","新北市新店區安華路28-1號","121.519743333333","24.960775","6500600","新店區"
"231040","047-UY","2018/04/21 18:19:16","新北市新店區安華路28-1號","121.519338333333","24.9608316666667","6500600","新店區"
"231046","107-UY","2018/04/21 18:19:28","新北市新店區直潭七街60號","121.532273333333","24.9397683333333","6500600","新店區"
"231048","187-VK","2018/04/21 18:19:22","新北市新店區安華路28-1號","121.519548333333","24.9611883333333","6500600","新店區"
"231054","KEA-2219","2018/04/21 18:19:28","新北市新店區安華路28-1號","121.519888333333","24.9611983333333","6500600","新店區"
"231057","256-BX","2018/04/21 18:19:21","新北市新店區安華路28-1號","121.519668333333","24.9610816666667","6500600","新店區"
"231052","260-TV","2018/04/21 18:19:26","新北市新店區安康路一段355-10號","121.52027","24.9638133333333","6500600","新店區"
"231051","278-BY","2018/04/21 18:19:18","新北市新店區安華路28-1號","121.51979","24.96119","6500600","新店區"
"231050","AAD-862","2018/04/21 18:19:31","新北市新店區安華路28-1號","121.519768333333","24.96114","6500600","新店區"
"231059","355-BY","2018/04/21 18:19:22","新北市新店區安華路28-1號","121.519208333333","24.960995","6500600","新店區"
"231058","3713-VJ","2018/04/21 18:19:20","新北市新店區環河路29巷1號","121.536416666667","24.961205","6500600","新店區"
"231066","4716-K9","2018/04/21 18:19:26","新北市新店區安華路28-1號","121.519381666667","24.9611933333333","6500600","新店區"
"231056","4715-K9","2018/04/21 18:19:17","新北市新店區中央路63號","121.532621666667","24.9771316666667","6500600","新店區"
"231067","4772-VM","2018/04/21 18:19:31","新北市新店區安華路28-1號","121.519318333333","24.9606183333333","6500600","新店區"
"231065","512-UM","2018/04/21 18:19:28","新北市新店區安華路28-1號","121.519311666667","24.9611","6500600","新店區"
"231049","513-UM","2018/04/21 18:19:33","新北市新店區安華路28-1號","121.519603333333","24.9610833333333","6500600","新店區"
"231045","617-UM","2018/04/21 18:19:27","新北市新店區安華路28-1號","121.519471666667","24.961015","6500600","新店區"
"231061","619-UM","2018/04/21 18:19:33","新北市新店區安華路28-1號","121.519653333333","24.9606516666667","6500600","新店區"
"231063","641-BX","2018/04/21 18:19:19","新北市新店區安華路1-1號","121.51955","24.9605066666667","6500600","新店區"
"231042","645-TV","2018/04/21 18:19:29","新北市新店區安華路28-1號","121.519381666667","24.9607083333333","6500600","新店區"
"231064","719-UM","2018/04/21 18:19:18","新北市新店區安華路28-1號","121.519526666667","24.9613283333333","6500600","新店區"
"231062","720-UM","2018/04/21 18:19:14","新北市新店區安華路28-1號","121.519358333333","24.9611616666667","6500600","新店區"
"231060","897-TW","2018/04/21 18:19:30","新北市新店區安華路28-1號","121.51963","24.9608283333333","6500600","新店區"
"231043","899-TW","2018/04/21 18:19:15","新北市新店區安華路28-1號","121.519278333333","24.9608866666667","6500600","新店區"
"231055","AKT-0513","2018/04/21 18:19:22","新北市新店區安康路一段3-1號","121.535678333333","24.9609966666667","6500600","新店區"
"241024","065-VK","2018/04/21 18:19:26","新北市新莊區新莊路259巷15號","121.454946666667","25.0339666666667","6500200","三重區"
"241033","AAC-255","2018/04/21 18:19:16","新北市三重區光復路一段61巷27號","121.473535","25.04912","6500200","三重區"
"235064","005-UY","2018/04/21 18:19:19","新北市中和區圓通路145巷9弄2號","121.49807","24.99495","6500300","中和區"
"235063","006-UY","2018/04/21 18:19:24","新北市中和區中正路537號","121.487558333333","24.99417","6500300","中和區"
"235056","096-UM","2018/04/21 18:19:15","新北市板橋區民生路一段10號","121.478318333333","25.0112733333333","6500300","中和區"
"235039","097-UM","2018/04/21 18:19:29","新北市中和區圓通路141巷48弄15號","121.498091666667","24.99379","6500300","中和區"
"235065","098-UM","2018/04/21 18:19:16","新北市中和區莊敬路49巷18號","121.50165","25.0061166666667","6500300","中和區"
"235058","151-BY","2018/04/21 18:19:16","新北市中和區圓通路367巷60-2號","121.4921","24.9838366666667","6500300","中和區"
"235055","183-VK","2018/04/21 18:19:17","新北市中和區中正路637巷60弄61號","121.485453333333","24.9932716666667","6500300","中和區"
"235038","185-VK","2018/04/21 18:19:31","新北市中和區秀朗路三段128巷17弄11號","121.524021666667","24.9933133333333","6500300","中和區"
"235049","186-VK","2018/04/21 18:19:12","新北市中和區中正路501號","121.488936666667","24.9935566666667","6500300","中和區"
"235067","255-BX","2018/04/21 18:19:27","新北市中和區和城路一段271巷1號","121.485666666667","24.9917933333333","6500300","中和區"
"235072","301-VK","2018/04/21 18:19:14","新北市中和區連城路261-4號","121.492203333333","24.9965383333333","6500300","中和區"
"235043","352-BY","2018/04/21 18:19:13","新北市中和區景平路379號","121.504018333333","24.9933266666667","6500300","中和區"
"235068","377-QA","2018/04/21 18:19:14","新北市中和區員山路36巷16-3號","121.485145","24.9912366666667","6500300","中和區"
"235061","378-QA","2018/04/21 18:19:28","新北市中和區民德路188號","121.46823","24.999405","6500300","中和區"
"235050","4979-A6","2018/04/21 18:19:28","新北市中和區捷運路61巷3號","121.50887","24.9896516666667","6500300","中和區"
"235069","4980-A6","2018/04/21 18:19:11","新北市中和區錦和路85號","121.48994","24.99591","6500300","中和區"
"235042","551-UM","2018/04/21 18:19:33","新北市中和區大仁街20巷25弄24號","121.51938","24.9935616666667","6500300","中和區"
"235070","558-UM","2018/04/21 18:19:24","新北市中和區圓通路128號","121.4986","24.9957833333333","6500300","中和區"
"235045","565-BX","2018/04/21 18:19:23","新北市中和區景安路200巷1弄2號","121.503738333333","24.9914766666667","6500300","中和區"
"235054","640-BX","2018/04/21 18:19:28","新北市中和區民享街86巷26號","121.473415","25.0006566666667","6500300","中和區"
"235060","647-TV","2018/04/21 18:19:18","新北市中和區員山路160號","121.481306666667","24.9996733333333","6500300","中和區"
"235047","732-UM","2018/04/21 18:19:21","新北市中和區南山路300號","121.5079","24.987135","6500300","中和區"
"235046","733-UM","2018/04/21 18:19:34","新北市中和區員山路36巷13號","121.484488333333","24.9904466666667","6500300","中和區"
"235062","800-TS","2018/04/21 18:19:19","新北市中和區景平路989巷33號","121.495091666667","25.0050016666667","6500300","中和區"
"235057","801-TS","2018/04/21 18:19:32","新北市中和區民利街12號","121.480715","24.9991733333333","6500300","中和區"
"235052","805-TS","2018/04/21 18:19:25","新北市中和區興南路二段133號","121.505233333333","24.9841766666667","6500300","中和區"
"235048","896-TW","2018/04/21 18:19:15","新北市中和區中正路395號","121.489871666667","24.9936216666667","6500300","中和區"
"235053","900-TW","2018/04/21 18:19:12","新北市中和區員山路36巷16-2號","121.485291666667","24.9914416666667","6500300","中和區"
"235066","911-UM","2018/04/21 18:19:23","新北市中和區中山路二段120號","121.502741666667","25.00364","6500300","中和區"
"235051","157-BY","2018/04/21 18:19:15","新北市中和區興南路二段130號","121.504335","24.98351","6500300","中和區"
"235037","AAC-213","2018/04/21 18:19:26","新北市中和區景德街63號","121.517133333333","24.991425","6500300","中和區"
"235059","AAC-215","2018/04/21 18:19:20","新北市中和區員山路36巷16-3號","121.48491","24.991315","6500300","中和區"
"220086","073-UY","2018/04/21 18:19:30","新北市板橋區華東街1-10號","121.44826","24.9950583333333","6500100","板橋區"
"226004","312-R5","2018/04/21 18:19:23","新北市平溪區薯榔里一坑路68號","121.712836666667","25.02262","6502400","平溪區"
"235041","251-BX","2018/04/21 18:19:15","新北市中和區錦和路350-1號","121.49053","24.9936216666667","6500300","中和區"
"228003","097-TW","2018/04/21 18:19:21","新北市貢寮區和美里和美街63號","121.92238","25.0710566666667","6502600","貢寮區"
"228001","212-TW","2018/04/21 18:19:26","新北市貢寮區真理里新港街26巷55弄2-1號","121.927401666667","25.0528316666667","6502600","貢寮區"
"228002","663-BX","2018/04/21 18:19:36","新北市貢寮區福連里馬崗街1號","121.998808333333","25.0165066666667","6502600","貢寮區"
"224010","AGQ-8101","2018/04/21 18:00:25","新北市瑞芳區金光路334號","121.848566666667","25.1100983333333","6501200","瑞芳區"
"224006","676-BX","2018/04/21 18:19:14","新北市瑞芳區民權街3-2號","121.808251666667","25.1074833333333","6501200","瑞芳區"
"224002","639-TC","2018/04/21 18:19:29","新北市瑞芳區三爪子坑路149巷2號","121.810713333333","25.1063083333333","6501200","瑞芳區"
"224008","285-BY","2018/04/21 18:19:26","新北市瑞芳區逢甲路15號","121.809758333333","25.1086966666667","6501200","瑞芳區"
"224007","275-VK","2018/04/21 18:19:23","新北市瑞芳區大埔路67巷5-1號","121.764318333333","25.10153","6501200","瑞芳區"
"224009","273-VK","2018/04/21 18:19:20","新北市瑞芳區新山路31號","121.855918333333","25.1083516666667","6501200","瑞芳區"
"224005","271-BY","2018/04/21 18:19:23","新北市瑞芳區建基新村5號","121.81187","25.1310316666667","6501200","瑞芳區"
"227002","642-TC","2018/04/21 18:19:24","新北市雙溪區共和里中山路2號","121.863776666667","25.0338","6502500","雙溪區"
"227010","400-TW","2018/04/21 18:19:30","新北市雙溪區牡丹里牡丹73號","121.851708333333","25.05935","6502500","雙溪區"
"253005","032-BX","2018/04/21 18:19:31","新北市石門區中央路1-13號","121.561545","25.2910516666667","6502200","石門區"
"253006","295-VK","2018/04/21 18:19:24","新北市石門區老梅路99號","121.546923333333","25.2892916666667","6502200","石門區"
"222001","KEA-2212","2018/04/21 18:19:11","新北市深坑區北深路一段300號","121.62333","25.0053116666667","6501800","深坑區"
"208002","KEA-2872","2018/04/21 18:19:34","新北市金山區清泉里清水路60巷4號","121.629805","25.2357716666667","6502700","金山區"
"208003","665-BX","2018/04/21 18:19:23","新北市金山區中山路16號","121.641756666667","25.2182766666667","6502700","金山區"
"208001","761-BX","2018/04/21 18:19:21","新北市金山區中山路16號","121.641678333333","25.2178783333333","6502700","金山區"
"251004","009-UM","2018/04/21 18:19:32","新北市淡水區民族路31巷29號","121.462271666667","25.1364816666667","6501000","淡水區"
"251013","179-VK","2018/04/21 18:19:25","新北市淡水區行忠路657號","121.4698","25.1992566666667","6501000","淡水區"
"251014","180-VK","2018/04/21 18:19:17","新北市淡水區崙頂16-1號","121.488321666667","25.2217033333333","6501000","淡水區"
"251008","181-VK","2018/04/21 18:19:18","新北市淡水區水源街二段346巷1弄1號","121.46428","25.17547","6501000","淡水區"
"251015","182-VK","2018/04/21 18:19:30","新北市淡水區興福寮88巷1號","121.485401666667","25.1648866666667","6501000","淡水區"
"251010","413-VK","2018/04/21 18:19:26","新北市淡水區淡海路199號","121.420441666667","25.18481","6501000","淡水區"
"251012","441-VK","2018/04/21 18:19:26","新北市淡水區北新路二段77-5號","121.480511666667","25.1855183333333","6501000","淡水區"
"251016","442-VK","2018/04/21 18:19:31","新北市淡水區淡金路三段228巷12號","121.449358333333","25.20496","6501000","淡水區"
"251005","443-VK","2018/04/21 18:19:15","新北市淡水區水源街一段122巷39號","121.447176666667","25.1703533333333","6501000","淡水區"
"251001","559-UM","2018/04/21 18:19:26","新北市淡水區自強路110-11號","121.46225","25.1317616666667","6501000","淡水區"
"251006","561-UM","2018/04/21 18:19:21","新北市淡水區新民街35號","121.438893333333","25.1759016666667","6501000","淡水區"
"251011","650-BX","2018/04/21 18:19:22","新北市淡水區淡金路33-12號","121.457106666667","25.162065","6501000","淡水區"
"251002","672-BX","2018/04/21 18:19:28","新北市淡水區中正東路一段61-6號","121.453243333333","25.162715","6501000","淡水區"
"251003","673-BX","2018/04/21 18:19:28","新北市淡水區北新路186-3號","121.449525","25.1787433333333","6501000","淡水區"
"207003","550-UM","2018/04/21 18:19:17","新北市萬里區野柳里港東路61號","121.687548333333","25.2037833333333","6502800","萬里區"
"207004","225-TW","2018/04/21 18:19:27","新北市萬里區中幅里中福路38-1號","121.678546666667","25.1670666666667","6502800","萬里區"
"252002","178-VK","2018/04/21 18:19:25","新北市三芝區中山路二段43號","121.50295","25.2550433333333","6502100","三芝區"
"252003","249-BX","2018/04/21 18:19:13","新北市三芝區錫板里海尾14-33號","121.477995","25.2600433333333","6502100","三芝區"
"252001","292-VK","2018/04/21 18:19:15","新北市三芝區中興街二段2號","121.498386666667","25.2566216666667","6502100","三芝區"
"237004","KEA-2597","2018/04/21 18:19:31","新北市三峽區圳頭51-1號","121.377171666667","24.8840433333333","6500900","三峽區"
"237007","153-BY","2018/04/21 18:19:26","新北市三峽區中正路三段70巷18號","121.355858333333","24.9046466666667","6500900","三峽區"
"237009","210-TH","2018/04/21 18:19:20","新北市三峽區大勇路36巷15號","121.36587","24.9370783333333","6500900","三峽區"
"237013","252-BX","2018/04/21 18:19:27","新北市三峽區介壽路一段207號","121.378633333333","24.9305616666667","6500900","三峽區"
"237008","302-VK","2018/04/21 18:19:15","新北市三峽區白雞68-85號","121.39262","24.9086066666667","6500900","三峽區"
"237014","433-BY","2018/04/21 18:19:25","新北市三峽區復興路80巷9號","121.373393333333","24.937835","6500900","三峽區"
"237012","280-TH","2018/04/21 18:19:23","新北市三峽區民生街1巷5-21號","121.378741666667","24.9356966666667","6500900","三峽區"
"237006","5529-G3","2018/04/21 18:19:30","新北市三峽區溪東路371巷4弄2號","121.41224","24.9298616666667","6500900","三峽區"
"237005","AKY-6261","2018/04/21 18:19:20","新北市三峽區忠孝街31號","121.370971666667","24.93401","6500900","三峽區"
"236070","105-UM","2018/04/21 18:19:21","新北市土城區永豐路149-3號","121.46738","24.9825216666667","6501300","土城區"
"236042","107-UM","2018/04/21 18:19:15","新北市土城區裕生路21巷6弄47號","121.448665","24.98657","6501300","土城區"
"236079","166-UM","2018/04/21 18:19:18","新北市土城區永平街2巷2號","121.427388333333","24.9634433333333","6501300","土城區"
"236030","253-BX","2018/04/21 18:19:19","新北市土城區順風路41號","121.440696666667","24.97676","6501300","土城區"
"236026","269-VK","2018/04/21 18:19:14","新北市土城區承天路67號","121.439516666667","24.9635383333333","6501300","土城區"
"236014","270-VK","2018/04/21 18:19:22","新北市土城區青雲路39巷7號","121.460326666667","24.9874116666667","6501300","土城區"
"236038","271-VK","2018/04/21 18:19:28","新北市土城區青雲路451巷17號","121.459731666667","24.9747833333333","6501300","土城區"
"236021","401-BY","2018/04/21 18:19:28","新北市土城區明德路二段8巷2號","121.452151666667","24.9804066666667","6501300","土城區"
"236059","912-UM","2018/04/21 18:19:28","新北市土城區中央路四段440號","121.410618333333","24.9514316666667","6501300","土城區"
"236049","913-UM","2018/04/21 18:19:25","新北市土城區明德路一段361-1號","121.456681666667","24.9775916666667","6501300","土城區"
"236063","915-UM","2018/04/21 18:19:14","新北市土城區金城路三段202-3號","121.469473333333","24.98855","6501300","土城區"
"236055","AAC-216","2018/04/21 18:19:32","新北市土城區中華路二段92號","121.438161666667","24.97456","6501300","土城區"
"242058","986-R7","2018/04/21 18:19:33","新北市新莊區中正路742-2號","121.413546666667","25.0228766666667","6500500","新莊區"
"242053","751-BX","2018/04/21 18:19:17","新北市新莊區光華街60巷1號","121.428305","25.0118333333333","6500500","新莊區"
"242027","615-BX","2018/04/21 18:19:23","新北市新莊區幸福路820號","121.445411666667","25.0491266666667","6500500","新莊區"
"242025","613-BX","2018/04/21 18:19:23","新北市新莊區五工路71號","121.458563333333","25.0628516666667","6500500","新莊區"
"242029","612-BX","2018/04/21 18:19:25","新北市泰山區泰林路一段2號","121.441998333333","25.0478666666667","6500500","新莊區"
"242042","566-BX","2018/04/21 18:19:31","新北市新莊區天祥街77號","121.41568","25.029305","6500500","新莊區"
"242046","497-BY","2018/04/21 18:19:15","新北市新莊區中正路829巷19號","121.421118333333","25.0276116666667","6500500","新莊區"
"242051","441-UM","2018/04/21 18:19:20","新北市新莊區民安東路2號","121.427753333333","25.0209766666667","6500500","新莊區"
"242056","440-UM","2018/04/21 18:19:33","新北市新莊區豐年街豐2巷3號","121.446831666667","25.0307933333333","6500500","新莊區"
"242007","413-TV","2018/04/21 18:19:17","新北市新莊區自強街37巷9號","121.45402","25.0465016666667","6500500","新莊區"
"242044","400-BY","2018/04/21 18:19:21","新北市新莊區中山路三段551號","121.412338333333","25.0269083333333","6500500","新莊區"
"242061","353-BY","2018/04/21 18:19:23","新北市新莊區後港一路80號","121.427205","25.0265333333333","6500500","新莊區"
"242039","133-UY","2018/04/21 18:19:35","新北市新莊區新樹路485號","121.432671666667","25.0126116666667","6500500","新莊區"
"242031","135-UY","2018/04/21 18:19:32","新北市新莊區新泰路255巷68號","121.443441666667","25.0394583333333","6500500","新莊區"
"242048","172-VK","2018/04/21 18:19:31","新北市樹林區俊興街257號","121.418098333333","25.016345","6500500","新莊區"
"242011","173-VK","2018/04/21 18:19:32","新北市新莊區中榮街33號","121.45015","25.0527716666667","6500500","新莊區"
"242015","346-TH","2018/04/21 18:19:27","新北市新莊區中平路184巷10弄1號","121.445493333333","25.0480516666667","6500500","新莊區"
"242021","348-TH","2018/04/21 18:19:33","新北市新莊區新興街1號","121.450671666667","25.0361566666667","6500500","新莊區"
"242013","351-TH","2018/04/21 18:19:28","新北市新莊區環漢路三段532號","121.435361666667","25.0007983333333","6500500","新莊區"
"238015","755-BX","2018/04/21 18:19:23","新北市樹林區啟智街82-1號","121.419063333333","24.9906566666667","6500700","樹林區"
"238023","601-UM","2018/04/21 18:19:25","新北市樹林區三福街85巷8號","121.407171666667","25.015445","6500700","樹林區"
"238018","571-TV","2018/04/21 18:19:29","新北市樹林區樹新路34巷9號","121.428218333333","24.99451","6500700","樹林區"
"238024","5061-A6","2018/04/21 18:19:24","新北市樹林區中山路一段151號","121.422185","24.9890933333333","6500700","樹林區"
"238022","KEA-2213","2018/04/21 18:19:13","新北市樹林區中山路二段219號","121.402805","24.9762316666667","6500700","樹林區"
"238025","303-VK","2018/04/21 18:19:23","新北市樹林區保安街一段110號","121.423768333333","24.99484","6500700","樹林區"
"238017","283-BY","2018/04/21 18:19:17","新北市樹林區保安街二段335號","121.412446666667","25.007825","6500700","樹林區"
"238014","282-BY","2018/04/21 18:19:25","新北市樹林區大安路111巷6號","121.423108333333","24.997475","6500700","樹林區"
"238020","268-VK","2018/04/21 18:19:14","新北市樹林區三俊街21號","121.411856666667","25.0154983333333","6500700","樹林區"
"238026","172-UY","2018/04/21 18:19:30","新北市樹林區佳園路一段75巷104號","121.396586666667","24.9704733333333","6500700","樹林區"
"238016","169-UY","2018/04/21 18:19:32","新北市樹林區文化街23號","121.419345","24.98764","6500700","樹林區"
"239007","AAC-297","2018/04/21 18:19:18","新北市鶯歌區重慶街100號","121.348098333333","24.952315","6500800","鶯歌區"
"239006","891-R6","2018/04/21 18:19:27","新北市鶯歌區鶯桃路296巷46-3號","121.335813333333","24.9612916666667","6500800","鶯歌區"
"239008","527-UM","2018/04/21 18:19:15","新北市鶯歌區國際一路179號","121.33623","24.97653","6500800","鶯歌區"
"239001","417-VK","2018/04/21 18:19:30","新北市鶯歌區國中街197號","121.338235","24.9391583333333","6500800","鶯歌區"
"239003","360-BY","2018/04/21 18:19:27","新北市鶯歌區福安街58號","121.335613333333","24.965195","6500800","鶯歌區"
"239002","359-BY","2018/04/21 18:19:14","新北市鶯歌區文化路124號","121.351868333333","24.9518916666667","6500800","鶯歌區"
"239004","193-VK","2018/04/21 18:19:21","新北市鶯歌區尖山路206號","121.343386666667","24.9474433333333","6500800","鶯歌區"
"221036","130-UY","2018/04/21 18:19:21","新北市汐止區長安路77巷22弄12號","121.669535","25.07899","6501100","汐止區"
"221015","131-UY","2018/04/21 18:19:31","新北市汐止區鄉長路二段23巷20號","121.667806666667","25.0831283333333","6501100","汐止區"
"221010","269-BY","2018/04/21 18:19:29","新北市汐止區祥雲街32號","121.647026666667","25.0899066666667","6501100","汐止區"
"221002","278-VK","2018/04/21 18:19:25","新北市汐止區保長路35巷15弄8號","121.673041666667","25.080345","6501100","汐止區"
"221023","279-VK","2018/04/21 18:19:22","新北市汐止區康寧街474巷18-1號","121.63139","25.0676033333333","6501100","汐止區"
"221032","280-BY","2018/04/21 18:19:22","新北市汐止區力行街54號","121.616528333333","25.0495316666667","6501100","汐止區"
"221027","281-BY","2018/04/21 18:19:26","新北市汐止區和平街9號","121.663155","25.0707083333333","6501100","汐止區"
"221029","298-VK","2018/04/21 18:19:21","新北市汐止區樟樹二路330巷72-1號","121.642926666667","25.06997","6501100","汐止區"
"221021","299-VK","2018/04/21 18:19:26","新北市汐止區連興街120號","121.653706666667","25.0622916666667","6501100","汐止區"
"221031","353-TW","2018/04/21 18:19:21","新北市汐止區光復街7巷21號","121.639801666667","25.059255","6501100","汐止區"
"221008","129-UY","2018/04/21 18:19:12","新北市汐止區汐萬路一段256巷3號","121.652428333333","25.07462","6501100","汐止區"
"221025","623-UM","2018/04/21 18:19:22","新北市汐止區勤進路12巷29號","121.659236666667","25.0623583333333","6501100","汐止區"
"221038","646-BX","2018/04/21 18:19:35","新北市汐止區忠孝東路303號","121.664168333333","25.0689616666667","6501100","汐止區"
"221033","647-BX","2018/04/21 18:19:15","新北市汐止區宜興街50巷2號","121.622435","25.0423516666667","6501100","汐止區"
"221002","707-TV","2018/04/21 18:19:14","新北市汐止區福德一路213巷35號","121.635805","25.06475","6501100","汐止區"
"221018","753-BX","2018/04/21 18:19:13","新北市汐止區茄苳路122號","121.668013333333","25.0700416666667","6501100","汐止區"
"242002","KEA-2550","2018/04/21 18:19:19","新北市新莊區碧江街27號","121.453496666667","25.0336183333333","6500500","新莊區"
"220082","610-BX","2018/04/21 18:19:13","新北市板橋區華東街1-10號","121.448288333333","24.99495","6500100","板橋區"
"242009","281-VK","2018/04/21 18:19:21","新北市新莊區自立街62號","121.45399","25.04537","6500500","新莊區"
"220054","630-UY","2018/04/21 18:19:34","新北市板橋區華東街1-9號","121.448078333333","24.9949566666667","6500100","板橋區"
