"lineid","car","time","location","longitude","latitude","cityid","cityname"
"234007","207-UY","2018/04/21 20:19:20","新北市永和區環河西路二段229巷3號","121.50142","25.00992","6500400","永和區"
"234081","298-R6","2018/04/21 20:19:26","新北市永和區福和路7巷10弄7號","121.52491","25.0075","6500400","永和區"
"234038","336-UY","2018/04/21 20:19:22","新北市永和區成功路一段93巷11-1號","121.527628333333","25.0027316666667","6500400","永和區"
"234064","337-UY","2018/04/21 20:19:33","新北市永和區得和路106號","121.518025","25.0001633333333","6500400","永和區"
"234086","338-UY","2018/04/21 20:19:31","新北市永和區永和路二段55號","121.514696666667","25.0109333333333","6500400","永和區"
"234070","552-UM","2018/04/21 20:19:28","新北市永和區福和路263巷9號","121.517981666667","25.0068816666667","6500400","永和區"
"234067","553-UM","2018/04/21 20:19:34","新北市永和區保平路266號","121.508648333333","25.0051983333333","6500400","永和區"
"234017","745-BX","2018/04/21 20:19:33","新北市永和區仁愛路23號","121.514371666667","25.0134033333333","6500400","永和區"
"234030","746-BX","2018/04/21 20:19:22","新北市中和區自強路12號","121.52031","24.99577","6500400","永和區"
"234054","KEA-2590","2018/04/21 20:19:22","新北市永和區光復街2巷26弄1號","121.51768","25.0165883333333","6500400","永和區"
"234013","KEA-2591","2018/04/21 20:19:21","新北市永和區保生路40巷1號","121.505856666667","25.0082616666667","6500400","永和區"
"234061","AAD-866","2018/04/21 20:19:27","新北市永和區安樂路110號","121.514163333333","24.99977","6500400","永和區"
"234042","862-TW","2018/04/21 20:19:18","新北市永和區中和路463號","121.509896666667","25.0016233333333","6500400","永和區"
"234050","863-TW","2018/04/21 20:19:28","新北市永和區文化路230號","121.50981","25.0169116666667","6500400","永和區"
"249005","172-UM","2018/04/21 20:19:15","新北市八里區下罟子1-4號","121.388788333333","25.1419683333333","6502300","八里區"
"249001","173-UM","2018/04/21 20:19:26","新北市八里區中華路二段538-1號","121.39906","25.145005","6502300","八里區"
"249004","303-UY","2018/04/21 20:19:31","新北市八里區中山路一段129巷27號","121.414006666667","25.15863","6502300","八里區"
"249002","305-UY","2018/04/21 20:19:33","新北市八里區龍米路一段470號","121.45046","25.1349566666667","6502300","八里區"
"249003","593-UM","2018/04/21 20:19:14","新北市八里區訊塘路68號","121.397868333333","25.1459133333333","6502300","八里區"
"248014","025-BX","2018/04/21 20:19:25","新北市八里區商港路105巷15-1號","121.391851666667","25.1495416666667","6501500","五股區"
"248016","026-BX","2018/04/21 20:19:26","新北市五股區凌雲路一段158巷18號","121.448406666667","25.1034766666667","6501500","五股區"
"248012","247-BX","2018/04/21 20:19:14","新北市五股區六合街116號","121.430451666667","25.09089","6501500","五股區"
"248010","272-BY","2018/04/21 20:19:26","新北市泰山區新五路一段149號","121.439055","25.0641966666667","6501500","五股區"
"248004","677-BX","2018/04/21 20:19:20","新北市五股區成泰路二段82號","121.437453333333","25.0823083333333","6501500","五股區"
"248002","678-BX","2018/04/21 20:19:33","新北市五股區成泰路三段145號","121.444815","25.0913633333333","6501500","五股區"
"234023","9380-KE","2018/04/21 20:19:16","新北市永和區復興街16巷4號","121.51557","25.0125583333333","6500400","永和區"
"234077","969-R7","2018/04/21 20:19:30","新北市永和區智光街126號","121.514985","24.995645","6500400","永和區"
"234074","AAC-211","2018/04/21 20:19:15","新北市永和區竹林路201巷22弄15號","121.52264","25.00935","6500400","永和區"
"234003","AAC-295","2018/04/21 20:19:28","新北市永和區自強街10號","121.514703333333","25.0078666666667","6500400","永和區"
"243012","AAD-798","2018/04/21 20:19:32","新北市泰山區楓江路83巷1號","121.43674","25.063535","6501600","泰山區"
"243011","297-R6","2018/04/21 20:19:23","新北市泰山區壽山路134巷26號","121.418513333333","25.0313133333333","6501600","泰山區"
"243015","380-SR","2018/04/21 20:19:34","新北市泰山區明志路一段298號","121.43182","25.0597283333333","6501600","泰山區"
"243014","421-VK","2018/04/21 20:19:36","新北市泰山區泰林路二段353號","121.428225","25.0638466666667","6501600","泰山區"
"243010","KEA-2215","2018/04/21 20:19:24","新北市泰山區明志路二段254巷7號","121.426141666667","25.04778","6501600","泰山區"
"243009","KEA-2216","2018/04/21 20:19:21","新北市泰山區明志路一段195號","121.432801666667","25.0615633333333","6501600","泰山區"
"243013","646-TV","2018/04/21 20:19:27","新北市泰山區中央路5巷14號","121.427193333333","25.0433583333333","6501600","泰山區"
"243016","680-BX","2018/04/21 20:19:26","新北市泰山區明志路三段326號","121.422216666667","25.0356966666667","6501600","泰山區"
"222003","436-BY","2018/04/21 20:19:18","新北市深坑區文化街74號","121.618098333333","25.001785","6501800","深坑區"
"222002","659-BX","2018/04/21 20:19:26","新北市深坑區萬福路75巷48號","121.59822","25.00993","6501800","深坑區"
"231044","001-UM","2018/04/21 20:19:20","新北市新店區北新路三段89號","121.541405","24.981705","6500600","新店區"
"231041","002-UM","2018/04/21 20:19:34","新北市新店區二十張路3號","121.540256666667","24.982825","6500600","新店區"
"231040","047-UY","2018/04/21 20:19:35","新北市新店區中華路147號","121.53837","24.9706316666667","6500600","新店區"
"231048","187-VK","2018/04/21 20:19:22","新北市新店區寶橋路132號","121.547388333333","24.9759866666667","6500600","新店區"
"231054","KEA-2219","2018/04/21 20:19:28","新北市新店區檳榔路109號","121.544428333333","24.961615","6500600","新店區"
"231057","256-BX","2018/04/21 20:19:36","新北市新店區花園十二路1號","121.554791666667","24.93474","6500600","新店區"
"231052","260-TV","2018/04/21 20:19:26","新北市新店區松林路2號","121.54667","24.9110416666667","6500600","新店區"
"231051","278-BY","2018/04/21 20:19:18","新北市新店區溪園路461號","121.525351666667","24.97733","6500600","新店區"
"231059","355-BY","2018/04/21 20:19:21","新北市新店區安德街77號","121.510078333333","24.9614416666667","6500600","新店區"
"231066","4716-K9","2018/04/21 20:19:26","新北市新店區安民街341-1號","121.516821666667","24.97486","6500600","新店區"
"231056","4715-K9","2018/04/21 20:19:37","新北市新店區中正路328巷8號","121.537256666667","24.9753033333333","6500600","新店區"
"231067","4772-VM","2018/04/21 20:19:31","新北市新店區安華路28-1號","121.519525","24.9607933333333","6500600","新店區"
"231065","512-UM","2018/04/21 20:19:28","新北市新店區安祥路106巷40號","121.477076666667","24.9617933333333","6500600","新店區"
"231049","513-UM","2018/04/21 20:19:32","新北市新店區北新路一段128-3號","121.542165","24.96996","6500600","新店區"
"231045","617-UM","2018/04/21 20:19:27","新北市新店區五峰路145巷7號","121.546","24.9648916666667","6500600","新店區"
"231061","619-UM","2018/04/21 20:19:33","新北市新店區安興路65巷6號","121.515916666667","24.9728233333333","6500600","新店區"
"231063","641-BX","2018/04/21 20:19:18","新北市新店區車子路1-1號","121.504831666667","24.9578516666667","6500600","新店區"
"231042","645-TV","2018/04/21 20:19:29","新北市新店區中興路二段100巷1號","121.547583333333","24.97161","6500600","新店區"
"231068","718-UY","2018/04/21 20:19:26","新北市新店區寶安街30號","121.542013333333","24.9823683333333","6500600","新店區"
"231064","719-UM","2018/04/21 20:18:58","新北市新店區安樂街10號","121.52036","24.973605","6500600","新店區"
"231062","720-UM","2018/04/21 20:19:34","新北市新店區安泰路7巷16號","121.485661666667","24.9509816666667","6500600","新店區"
"231060","897-TW","2018/04/21 20:19:11","新北市新店區安康路三段578-2號","121.48038","24.94827","6500600","新店區"
"231043","899-TW","2018/04/21 20:19:27","新北市新店區民族路66號","121.539548333333","24.9783083333333","6500600","新店區"
"231055","AKT-0513","2018/04/21 20:19:22","新北市新店區光明街165號","121.539548333333","24.9625733333333","6500600","新店區"
"241011","013-R5","2018/04/21 20:19:32","新北市三重區龍門路148號","121.498435","25.0729883333333","6500200","三重區"
"241028","022-UY","2018/04/21 20:19:30","新北市三重區大同南路119號","121.496326666667","25.0582183333333","6500200","三重區"
"241008","059-VK","2018/04/21 20:19:29","新北市三重區永福街209號","121.479981666667","25.0744383333333","6500200","三重區"
"241009","060-VK","2018/04/21 20:19:22","新北市三重區永福街15號","121.481948333333","25.078455","6500200","三重區"
"241031","061-VK","2018/04/21 20:19:23","新北市三重區三寧街22號","121.489543333333","25.0599283333333","6500200","三重區"
"241015","062-VK","2018/04/21 20:19:21","新北市三重區重新路一段112號","121.500655","25.0632166666667","6500200","三重區"
"241017","063-VK","2018/04/21 20:19:26","新北市三重區自強路一段286號","121.491635","25.068155","6500200","三重區"
"241024","065-VK","2018/04/21 20:19:27","新北市三重區忠孝路三段9號","121.48177","25.0675216666667","6500200","三重區"
"241002","090-VK","2018/04/21 20:19:28","新北市三重區仁義街126號","121.497425","25.080405","6500200","三重區"
"241003","091-VK","2018/04/21 20:19:20","新北市三重區五華街105號","121.491711666667","25.08394","6500200","三重區"
"241026","265-UM","2018/04/21 20:19:32","新北市三重區重新路一段12號","121.504093333333","25.063835","6500200","三重區"
"241016","266-UM","2018/04/21 20:19:19","新北市三重區大同北路97-3號","121.49444","25.0636483333333","6500200","三重區"
"241022","267-UM","2018/04/21 20:19:32","新北市三重區市前街14號","121.489135","25.0623933333333","6500200","三重區"
"241018","268-UM","2018/04/21 20:19:28","新北市三重區雙園街99號","121.493805","25.0672866666667","6500200","三重區"
"241032","269-UM","2018/04/21 20:19:32","新北市三重區捷運路37巷26號","121.484085","25.0571083333333","6500200","三重區"
"241013","270-UM","2018/04/21 20:19:23","新北市三重區三和路三段167巷2號","121.492018333333","25.0741383333333","6500200","三重區"
"241025","271-UM","2018/04/21 20:19:33","新北市三重區頂崁街210巷16號","121.476501666667","25.06779","6500200","三重區"
"241007","398-BY","2018/04/21 20:19:32","新北市三重區仁美街55號","121.48699","25.0781033333333","6500200","三重區"
"241035","KEA-2210","2018/04/21 20:19:24","新北市三重區正義北路33巷13號","121.498085","25.0637333333333","6500200","三重區"
"241004","475-VK","2018/04/21 20:19:19","新北市三重區仁愛街390號","121.49093","25.0808316666667","6500200","三重區"
"241020","478-VK","2018/04/21 20:19:18","新北市三重區三和路四段16號","121.491083333333","25.07401","6500200","三重區"
"241030","480-VK","2018/04/21 20:19:32","新北市三重區環河南路254巷55號","121.487923333333","25.05226","6500200","三重區"
"241014","543-UM","2018/04/21 20:19:22","新北市三重區龍濱路249號","121.501485","25.0724833333333","6500200","三重區"
"241023","545-UM","2018/04/21 20:19:20","新北市三重區忠孝路三段99巷11號","121.480086666667","25.0645716666667","6500200","三重區"
"241001","547-UM","2018/04/21 20:19:33","新北市三重區溪尾街46-1號","121.490655","25.0771716666667","6500200","三重區"
"241019","887-TS","2018/04/21 20:19:26","新北市三重區忠孝路一段66號","121.490215","25.0717166666667","6500200","三重區"
"241012","941-UM","2018/04/21 20:19:35","新北市三重區河邊北街379-1號","121.501713333333","25.0764783333333","6500200","三重區"
"241029","942-UM","2018/04/21 20:19:33","新北市三重區集美街225號","121.491971666667","25.0551766666667","6500200","三重區"
"241033","AAC-255","2018/04/21 20:19:25","新北市三重區五谷王北街42巷10號","121.47538","25.0492033333333","6500200","三重區"
"235039","097-UM","2018/04/21 20:19:29","新北市中和區立人街34號","121.518298333333","24.9940783333333","6500300","中和區"
"235065","098-UM","2018/04/21 20:19:36","新北市中和區永和路128巷9號","121.497585","25.007035","6500300","中和區"
"235068","377-QA","2018/04/21 20:19:33","新北市中和區福美路249號","121.498945","25.0052133333333","6500300","中和區"
"235050","4979-A6","2018/04/21 20:19:28","新北市中和區景平路466號","121.505656666667","24.9936616666667","6500300","中和區"
"235069","4980-A6","2018/04/21 20:19:31","新北市中和區圓通路200號","121.496243333333","24.9942933333333","6500300","中和區"
"235026","800-TS","2018/04/21 20:19:18","新北市中和區員山路36巷16-3號","121.484825","24.9912866666667","6500300","中和區"
"235066","911-UM","2018/04/21 20:19:23","新北市中和區南工路107號","121.507321666667","25.0039316666667","6500300","中和區"
"235059","AAC-215","2018/04/21 20:19:20","新北市中和區員山路30-3號","121.483711666667","24.9878283333333","6500300","中和區"
"220068","013-TV","2018/04/21 20:19:29","新北市板橋區文化路二段656號","121.481551666667","25.0371583333333","6500100","板橋區"
"247024","893-R6","2018/04/21 20:19:21","新北市蘆洲區光榮路120巷8弄20號","121.46434","25.0877566666667","6501400","蘆洲區"
"247014","546-UM","2018/04/21 20:19:28","新北市蘆洲區中山二路137巷5號","121.472035","25.0813483333333","6501400","蘆洲區"
"247022","500-BY","2018/04/21 20:19:21","新北市蘆洲區民族路451號","121.467378333333","25.088625","6501400","蘆洲區"
"247010","341-TH","2018/04/21 20:19:16","新北市蘆洲區信義路188巷18弄1號","121.480401666667","25.0845416666667","6501400","蘆洲區"
"247012","339-TH","2018/04/21 20:19:34","新北市蘆洲區中興街38號","121.481236666667","25.0871116666667","6501400","蘆洲區"
"247004","337-TH","2018/04/21 20:19:34","新北市蘆洲區長安街301號","121.458013333333","25.08492","6501400","蘆洲區"
"247006","336-TH","2018/04/21 20:19:22","新北市蘆洲區九芎街140號","121.46488","25.0787783333333","6501400","蘆洲區"
"247018","057-VK","2018/04/21 20:19:21","新北市蘆洲區民族路408巷14號","121.474885","25.092045","6501400","蘆洲區"
"247008","056-VK","2018/04/21 20:19:34","新北市蘆洲區集賢路227-1號","121.482353333333","25.0861283333333","6501400","蘆洲區"
"247016","007-UY","2018/04/21 20:19:17","新北市蘆洲區光華路132巷39號","121.465815","25.0837616666667","6501400","蘆洲區"
"247002","002-UY","2018/04/21 20:19:18","新北市蘆洲區環堤大道104號","121.455468333333","25.0864083333333","6501400","蘆洲區"
"224010","AGQ-8101","2018/04/21 20:16:45","新北市瑞芳區輕便路131號","121.843591666667","25.1087183333333","6501200","瑞芳區"
"222001","KEA-2212","2018/04/21 20:19:31","新北市深坑區北深路三段223號","121.600213333333","25.0040483333333","6501800","深坑區"
"208002","KEA-2872","2018/04/21 20:19:34","新北市金山區磺港里磺港路169號","121.64358","25.22482","6502700","金山區"
"251013","179-VK","2018/04/21 20:19:25","新北市淡水區奎柔山路752巷79號","121.474993333333","25.2048316666667","6501000","淡水區"
"251014","180-VK","2018/04/21 20:19:37","新北市淡水區石頭厝3號","121.458706666667","25.2355516666667","6501000","淡水區"
"251008","181-VK","2018/04/21 20:19:37","新北市淡水區淡海路180巷22號","121.421708333333","25.184535","6501000","淡水區"
"251015","182-VK","2018/04/21 20:19:30","新北市淡水區淡金路二段605號","121.446396666667","25.1934933333333","6501000","淡水區"
"251010","413-VK","2018/04/21 20:19:26","新北市淡水區新民街一段134號","121.427558333333","25.1888933333333","6501000","淡水區"
"251012","441-VK","2018/04/21 20:19:26","新北市淡水區淡金路三段358號","121.449321666667","25.209275","6501000","淡水區"
"251016","442-VK","2018/04/21 20:19:31","新北市淡水區淡金路五段20號","121.453145","25.2324866666667","6501000","淡水區"
"251006","561-UM","2018/04/21 20:19:21","新北市淡水區淡金路一段575號","121.452441666667","25.1804033333333","6501000","淡水區"
"251002","672-BX","2018/04/21 20:19:27","新北市淡水區中正路55號","121.441766666667","25.16952","6501000","淡水區"
"251003","673-BX","2018/04/21 20:19:28","新北市淡水區中山北路一段229號","121.444406666667","25.1795116666667","6501000","淡水區"
"207004","225-TW","2018/04/21 20:19:27","新北市萬里區北基里仁一街1號","121.682705","25.175635","6502800","萬里區"
"252002","178-VK","2018/04/21 20:19:24","新北市三芝區中正路一段21號","121.50293","25.2586266666667","6502100","三芝區"
"252001","292-VK","2018/04/21 20:19:35","新北市三芝區中山路一段31號","121.500616666667","25.25807","6502100","三芝區"
"237006","5529-G3","2018/04/21 20:19:30","新北市三峽區嘉添1-3號","121.367773333333","24.9117766666667","6500900","三峽區"
"236070","105-UM","2018/04/21 20:19:21","新北市土城區中山路47號","121.420626666667","24.9630266666667","6501300","土城區"
"236079","166-UM","2018/04/21 20:19:18","新北市土城區金安街63號","121.420548333333","24.965055","6501300","土城區"
"236030","253-BX","2018/04/21 20:19:33","新北市土城區學成路128巷9號","121.449353333333","24.9899266666667","6501300","土城區"
"236026","269-VK","2018/04/21 20:19:34","新北市土城區裕生路86巷2號","121.44717","24.9851283333333","6501300","土城區"
"236014","270-VK","2018/04/21 20:19:22","新北市土城區廣明街90巷23號","121.455493333333","24.994605","6501300","土城區"
"242034","AAC-296","2018/04/21 20:19:22","新北市新莊區建中街90巷3弄10號","121.446365","25.0371633333333","6500500","新莊區"
"242058","986-R7","2018/04/21 20:19:34","新北市新莊區龍安路274號","121.422036666667","25.0192216666667","6500500","新莊區"
"242053","751-BX","2018/04/21 20:19:17","新北市新莊區民安西路261巷18號","121.426735","25.01305","6500500","新莊區"
"242027","615-BX","2018/04/21 20:19:22","新北市新莊區幸福路556號","121.454761666667","25.0493266666667","6500500","新莊區"
"242025","613-BX","2018/04/21 20:19:31","新北市新莊區五工一路80巷5號","121.461691666667","25.0671433333333","6500500","新莊區"
"242029","612-BX","2018/04/21 20:19:20","新北市新莊區中原路193號","121.45195","25.0541983333333","6500500","新莊區"
"242042","566-BX","2018/04/21 20:19:31","新北市新莊區壽山路69號","121.409935","25.03269","6500500","新莊區"
"242046","497-BY","2018/04/21 20:19:35","新北市新莊區中正路新生巷5號","121.41713","25.02415","6500500","新莊區"
"242004","442-UM","2018/04/21 20:19:36","新北市新莊區頭前路30號","121.467706666667","25.0525133333333","6500500","新莊區"
"242051","441-UM","2018/04/21 20:19:20","新北市新莊區民安西路194號","121.425873333333","25.01541","6500500","新莊區"
"242056","440-UM","2018/04/21 20:19:20","新北市新莊區豐年街28巷14號","121.445655","25.0324083333333","6500500","新莊區"
"242036","415-TV","2018/04/21 20:19:18","新北市新莊區建安街62巷3弄9號","121.426283333333","25.0248816666667","6500500","新莊區"
"242007","413-TV","2018/04/21 20:19:37","新北市新莊區福壽街96號","121.458241666667","25.0500683333333","6500500","新莊區"
"242044","400-BY","2018/04/21 20:19:32","新北市新莊區中正路893巷1-19號","121.413136666667","25.021095","6500500","新莊區"
"242023","362-BY","2018/04/21 20:19:31","新北市新莊區化成路858號","121.46473","25.06067","6500500","新莊區"
"242061","353-BY","2018/04/21 20:15:50","新北市新莊區瓊林路172-2號","121.440698333333","25.0227033333333","6500500","新莊區"
"242039","133-UY","2018/04/21 20:19:35","新北市新莊區龍安路435號","121.424006666667","25.0187233333333","6500500","新莊區"
"242031","135-UY","2018/04/21 20:19:32","新北市新莊區三和路13-6號","121.439218333333","25.03624","6500500","新莊區"
"242048","172-VK","2018/04/21 20:19:31","新北市新莊區四維路297號","121.421085","25.019755","6500500","新莊區"
"242011","173-VK","2018/04/21 20:13:59","新北市新莊區中和街181號","121.447666666667","25.05067","6500500","新莊區"
"242017","175-VK","2018/04/21 20:19:23","新北市新莊區中港一街116號","121.448606666667","25.0452016666667","6500500","新莊區"
"242015","346-TH","2018/04/21 20:19:34","新北市新莊區永樂街237巷2號","121.446361666667","25.044325","6500500","新莊區"
"242021","348-TH","2018/04/21 20:19:31","新北市新莊區復興路一段11號","121.445748333333","25.041585","6500500","新莊區"
"242013","351-TH","2018/04/21 20:19:28","新北市新莊區中和街155巷12號","121.446908333333","25.0497716666667","6500500","新莊區"
"221036","130-UY","2018/04/21 20:19:35","新北市汐止區福安街57巷1號","121.663788333333","25.063875","6501100","汐止區"
"221015","131-UY","2018/04/21 20:19:30","新北市汐止區建成路142巷19弄9號","121.662053333333","25.0738383333333","6501100","汐止區"
"221010","269-BY","2018/04/21 20:19:28","新北市汐止區八連路二段636-3號","121.62576","25.1098533333333","6501100","汐止區"
"221002","278-VK","2018/04/21 20:19:25","新北市汐止區保新街283號","121.692681666667","25.0683383333333","6501100","汐止區"
"221023","279-VK","2018/04/21 20:19:22","新北市汐止區湖前街110巷2弄12號","121.63194","25.071765","6501100","汐止區"
"221032","280-BY","2018/04/21 20:19:22","新北市汐止區弘道街53巷2號","121.61861","25.0484016666667","6501100","汐止區"
"221027","281-BY","2018/04/21 20:19:25","新北市汐止區大同路二段357號","121.65708","25.0673316666667","6501100","汐止區"
"221029","298-VK","2018/04/21 20:19:21","新北市汐止區樟樹二路101-1號","121.639616666667","25.0633783333333","6501100","汐止區"
"221021","299-VK","2018/04/21 20:19:26","新北市汐止區水源路一段284號","121.65411","25.058235","6501100","汐止區"
"221031","353-TW","2018/04/21 20:19:21","新北市汐止區中興路150巷15號","121.633145","25.06508","6501100","汐止區"
"221008","129-UY","2018/04/21 20:19:19","新北市汐止區康寧街139號","121.621388333333","25.0666133333333","6501100","汐止區"
"221035","622-UM","2018/04/21 20:19:21","新北市汐止區長江街101-5號","121.65896","25.073145","6501100","汐止區"
"221025","623-UM","2018/04/21 20:19:22","新北市汐止區水源路二段30號","121.654841666667","25.0573666666667","6501100","汐止區"
"221038","646-BX","2018/04/21 20:19:35","新北市汐止區忠孝東路449號","121.665978333333","25.072395","6501100","汐止區"
"221033","647-BX","2018/04/21 20:19:35","新北市汐止區東勢街201巷5號","121.633973333333","25.0424633333333","6501100","汐止區"
"221002","707-TV","2018/04/21 20:19:34","新北市汐止區福德三路75號","121.636391666667","25.06918","6501100","汐止區"
"221018","753-BX","2018/04/21 20:19:32","新北市汐止區茄苳路254號","121.671628333333","25.0682216666667","6501100","汐止區"
"220079","145-BY","2018/04/21 20:19:19","新北市樹林區八德街435號","121.40621","24.9694233333333","6500100","板橋區"
"242002","KEA-2550","2018/04/21 20:19:34","新北市新莊區化成路7號","121.46476","25.0429116666667","6500500","新莊區"
"220101","245-BX","2018/04/21 20:19:20","新北市板橋區雙十路一段44巷36號","121.477573333333","25.0249166666667","6500100","板橋區"
"220103","257-TC","2018/04/21 20:19:20","新北市板橋區新海路135巷1號","121.460751666667","25.0233133333333","6500100","板橋區"
"220083","286-VK","2018/04/21 20:19:32","新北市板橋區僑中二街102巷10號","121.44568","25.0083016666667","6500100","板橋區"
"220081","287-VK","2018/04/21 20:19:30","新北市板橋區僑中一街80巷5弄1-1號","121.447863333333","25.0124533333333","6500100","板橋區"
"220061","295-UM","2018/04/21 20:19:36","新北市板橋區四川路一段92號","121.459726666667","25.0049783333333","6500100","板橋區"
"220092","307-R5","2018/04/21 20:19:14","新北市板橋區民權路101巷2號","121.458621666667","25.01316","6500100","板橋區"
"220098","317-R6","2018/04/21 20:19:18","新北市板橋區長江路二段311巷18-1號","121.470375","25.0360116666667","6500100","板橋區"
"242019","280-VK","2018/04/21 20:18:43","新北市新莊區博愛路7巷2號","121.456115","25.04389","6500500","新莊區"
"220102","KEA-2699","2018/04/21 20:19:18","新北市板橋區縣民大道三段113號","121.476671666667","25.022565","6500100","板橋區"
"220055","827-TW","2018/04/21 20:19:36","新北市板橋區仁愛路23號","121.45893","24.9994316666667","6500100","板橋區"
"220067","829-TW","2018/04/21 20:19:29","新北市板橋區中山路一段206巷2弄2號","121.470011666667","25.0133566666667","6500100","板橋區"
"220089","833-TW","2018/04/21 20:19:27","新北市板橋區四維路137巷1弄2號","121.464708333333","25.0251066666667","6500100","板橋區"
"220097","AAC-210","2018/04/21 20:19:16","新北市板橋區光正街42號","121.461791666667","25.0175266666667","6500100","板橋區"
"220070","AAC-253","2018/04/21 20:19:32","新北市板橋區華東街328號","121.452795","25.0034133333333","6500100","板橋區"
