"lineid","car","time","location","longitude","latitude","cityid","cityname"
"234081","298-R6","2018/04/21 20:29:26","新北市永和區永貞路8號","121.520861666667","25.007225","6500400","永和區"
"234038","336-UY","2018/04/21 20:29:22","新北市永和區民樂街39巷23號","121.528911666667","25.0007166666667","6500400","永和區"
"234064","337-UY","2018/04/21 20:29:33","新北市永和區中正路433號","121.517135","25.0050616666667","6500400","永和區"
"234086","338-UY","2018/04/21 20:29:31","新北市永和區光復街11號","121.516351666667","25.0169666666667","6500400","永和區"
"234070","552-UM","2018/04/21 20:29:27","新北市永和區永亨路9號","121.519436666667","25.0058116666667","6500400","永和區"
"234067","553-UM","2018/04/21 20:29:34","新北市永和區保平路292巷42號","121.507595","25.0052866666667","6500400","永和區"
"234017","745-BX","2018/04/21 20:29:26","新北市永和區仁愛路87號","121.513133333333","25.01307","6500400","永和區"
"234030","746-BX","2018/04/21 20:29:22","新北市永和區民族街81巷60號","121.520151666667","24.9965166666667","6500400","永和區"
"234054","KEA-2590","2018/04/21 20:29:22","新北市永和區環河東路一段42號","121.518803333333","25.0170366666667","6500400","永和區"
"234013","KEA-2591","2018/04/21 20:29:21","新北市永和區環河西路二段219號","121.501203333333","25.0101883333333","6500400","永和區"
"234061","AAD-866","2018/04/21 20:29:27","新北市永和區安樂路194巷19號","121.515825","25.0010683333333","6500400","永和區"
"234042","862-TW","2018/04/21 20:29:18","新北市永和區安樂路270號","121.514475","25.0041716666667","6500400","永和區"
"234050","863-TW","2018/04/21 20:29:28","新北市永和區新生路120號","121.506935","25.0145966666667","6500400","永和區"
"249001","173-UM","2018/04/21 20:29:26","新北市八里區下罟子5-11號","121.386843333333","25.14231","6502300","八里區"
"249004","303-UY","2018/04/21 20:29:31","新北市八里區中山路一段129巷19-1號","121.413955","25.1586916666667","6502300","八里區"
"249002","305-UY","2018/04/21 20:29:33","新北市八里區龍米路二段125巷1號","121.446076666667","25.1451933333333","6502300","八里區"
"249003","593-UM","2018/04/21 20:29:22","新北市八里區中山路二段466巷36弄20號","121.398836666667","25.1486016666667","6502300","八里區"
"248010","272-BY","2018/04/21 20:29:26","新北市五股區新五路二段85號","121.436953333333","25.0739633333333","6501500","五股區"
"234023","9380-KE","2018/04/21 20:29:16","新北市永和區永和路二段324號","121.516271666667","25.016425","6500400","永和區"
"234074","AAC-211","2018/04/21 20:29:35","新北市永和區豫溪街217巷27號","121.524326666667","25.0101833333333","6500400","永和區"
"234003","AAC-295","2018/04/21 20:29:28","新北市永和區中正路618號","121.517043333333","25.00767","6500400","永和區"
"243012","AAD-798","2018/04/21 20:29:32","新北市泰山區忠孝街19巷1弄2號","121.427493333333","25.0657183333333","6501600","泰山區"
"243011","297-R6","2018/04/21 20:29:23","新北市泰山區中山路二段676-5號","121.426661666667","25.03719","6501600","泰山區"
"243015","380-SR","2018/04/21 20:29:34","新北市泰山區仁愛路69號","121.432963333333","25.05568","6501600","泰山區"
"243014","421-VK","2018/04/21 20:29:36","新北市泰山區泰林路二段583號","121.422008333333","25.0634733333333","6501600","泰山區"
"243010","KEA-2215","2018/04/21 20:29:24","新北市泰山區新生路33號","121.427498333333","25.04547","6501600","泰山區"
"243009","KEA-2216","2018/04/21 20:29:30","新北市泰山區忠孝街14號","121.427656666667","25.0649033333333","6501600","泰山區"
"243016","680-BX","2018/04/21 20:29:26","新北市泰山區明志路二段360號","121.425773333333","25.0451116666667","6501600","泰山區"
"222003","436-BY","2018/04/21 20:29:18","新北市深坑區文化街118號","121.615611666667","25.002015","6501800","深坑區"
"222002","659-BX","2018/04/21 20:29:33","新北市深坑區萬福路16巷16號","121.60672","25.0077766666667","6501800","深坑區"
"231044","001-UM","2018/04/21 20:29:20","新北市新店區建國路155號","121.538676666667","24.9787233333333","6500600","新店區"
"231041","002-UM","2018/04/21 20:29:34","新北市新店區中正路501-4號","121.533695","24.983785","6500600","新店區"
"231040","047-UY","2018/04/21 20:29:36","新北市新店區中正路283號","121.537458333333","24.9744466666667","6500600","新店區"
"231048","187-VK","2018/04/21 20:29:22","新北市新店區寶慶街58巷21-1號","121.54196","24.9872866666667","6500600","新店區"
"231054","KEA-2219","2018/04/21 20:29:28","新北市新店區檳榔路150號","121.544278333333","24.961625","6500600","新店區"
"231057","256-BX","2018/04/21 20:29:16","新北市新店區花園五路二段3號","121.553616666667","24.93422","6500600","新店區"
"231052","260-TV","2018/04/21 20:29:26","新北市新店區松林路38號","121.546281666667","24.9102466666667","6500600","新店區"
"231051","278-BY","2018/04/21 20:29:18","新北市新店區中央七街19號","121.529946666667","24.9751333333333","6500600","新店區"
"231050","AAD-862","2018/04/21 20:29:30","新北市新店區建興街9巷2號","121.539845","24.9763633333333","6500600","新店區"
"231059","355-BY","2018/04/21 20:29:21","新北市新店區安康路二段352號","121.502295","24.95748","6500600","新店區"
"231058","3713-VJ","2018/04/21 20:29:20","新北市新店區自由街51號","121.534506666667","24.97359","6500600","新店區"
"231066","4716-K9","2018/04/21 20:29:26","新北市新店區安民街339號","121.516871666667","24.9748533333333","6500600","新店區"
"231056","4715-K9","2018/04/21 20:29:17","新北市新店區中正路328巷1號","121.53688","24.9752633333333","6500600","新店區"
"231067","4772-VM","2018/04/21 20:29:31","新北市新店區安華路28-1號","121.519575","24.960835","6500600","新店區"
"231065","512-UM","2018/04/21 20:29:28","新北市新店區安祥路102巷30弄23號","121.484813333333","24.9632583333333","6500600","新店區"
"231049","513-UM","2018/04/21 20:29:35","新北市新店區永業路81巷60號","121.529386666667","24.948045","6500600","新店區"
"231045","617-UM","2018/04/21 20:29:28","新北市新店區新坡一街18巷6弄36號","121.548058333333","24.9600383333333","6500600","新店區"
"231061","619-UM","2018/04/21 20:29:33","新北市新店區安業街2號","121.515351666667","24.9785916666667","6500600","新店區"
"231063","641-BX","2018/04/21 20:29:19","新北市新店區玫瑰路4-1號","121.493425","24.9515383333333","6500600","新店區"
"231042","645-TV","2018/04/21 20:29:29","新北市新店區中興路二段248號","121.547555","24.9756016666667","6500600","新店區"
"231068","718-UY","2018/04/21 20:29:26","新北市新店區中興路三段238號","121.543128333333","24.9835466666667","6500600","新店區"
"231064","719-UM","2018/04/21 20:29:18","新北市新店區安和路三段83號","121.517936666667","24.9837683333333","6500600","新店區"
"231062","720-UM","2018/04/21 20:29:34","新北市新店區安泰路17號","121.4852","24.9499183333333","6500600","新店區"
"231060","897-TW","2018/04/21 20:29:31","新北市新店區錦秀路13號","121.479426666667","24.944785","6500600","新店區"
"231043","899-TW","2018/04/21 20:29:25","新北市新店區明德路69巷28號","121.540241666667","24.9775433333333","6500600","新店區"
"241011","013-R5","2018/04/21 20:29:32","新北市三重區龍門路128號","121.498046666667","25.0730183333333","6500200","三重區"
"241028","022-UY","2018/04/21 20:29:30","新北市三重區光興街91號","121.497421666667","25.0599033333333","6500200","三重區"
"241008","059-VK","2018/04/21 20:29:30","新北市三重區下竹圍街42號","121.481045","25.0749216666667","6500200","三重區"
"241009","060-VK","2018/04/21 20:29:22","新北市三重區永福街81號","121.480071666667","25.0775666666667","6500200","三重區"
"241031","061-VK","2018/04/21 20:29:23","新北市三重區三寧街22號","121.489545","25.059945","6500200","三重區"
"241015","062-VK","2018/04/21 20:29:21","新北市三重區文化北路47號","121.498855","25.06552","6500200","三重區"
"241017","063-VK","2018/04/21 20:29:27","新北市三重區自強路一段288號","121.491661666667","25.0682033333333","6500200","三重區"
"241024","065-VK","2018/04/21 20:29:27","新北市三重區三民街224號","121.479943333333","25.06736","6500200","三重區"
"241002","090-VK","2018/04/21 20:29:28","新北市三重區仁義街211巷23號","121.497553333333","25.082325","6500200","三重區"
"241003","091-VK","2018/04/21 20:29:20","新北市三重區富華街246號","121.494016666667","25.08565","6500200","三重區"
"241026","265-UM","2018/04/21 20:29:32","新北市三重區福德南路24巷15號","121.503403333333","25.0631816666667","6500200","三重區"
"241016","266-UM","2018/04/21 20:29:19","新北市三重區正義北路110號","121.497026666667","25.0651383333333","6500200","三重區"
"241022","267-UM","2018/04/21 20:29:34","新北市三重區民生街61巷18弄14號","121.48769","25.0626516666667","6500200","三重區"
"241018","268-UM","2018/04/21 20:29:28","新北市三重區正義北路220號","121.496196666667","25.0675533333333","6500200","三重區"
"241032","269-UM","2018/04/21 20:29:32","新北市三重區重陽路一段120巷48號","121.485045","25.0601566666667","6500200","三重區"
"241013","270-UM","2018/04/21 20:29:23","新北市三重區溪尾街5巷12號","121.492201666667","25.07453","6500200","三重區"
"241025","271-UM","2018/04/21 20:29:33","新北市三重區頂崁街210巷27號","121.475771666667","25.06816","6500200","三重區"
"241007","398-BY","2018/04/21 20:29:34","新北市三重區三和路四段101巷26號","121.48923","25.0772566666667","6500200","三重區"
"241035","KEA-2210","2018/04/21 20:29:24","新北市三重區正義北路17號","121.497645","25.0632733333333","6500200","三重區"
"241004","475-VK","2018/04/21 20:29:19","新北市三重區溪尾街206號","121.488113333333","25.0812016666667","6500200","三重區"
"241020","478-VK","2018/04/21 20:29:18","新北市三重區明德街15號","121.492856666667","25.0724483333333","6500200","三重區"
"241030","480-VK","2018/04/21 20:29:32","新北市三重區成功路70號","121.488508333333","25.0509683333333","6500200","三重區"
"241014","543-UM","2018/04/21 20:29:22","新北市三重區長興街99號","121.50184","25.0691933333333","6500200","三重區"
"241023","545-UM","2018/04/21 20:29:20","新北市三重區自由街17巷1號","121.479856666667","25.0666016666667","6500200","三重區"
"241001","547-UM","2018/04/21 20:29:33","新北市三重區自強路四段2號","121.488318333333","25.0760516666667","6500200","三重區"
"241019","887-TS","2018/04/21 20:29:26","新北市三重區安慶街四段66號","121.491915","25.0704","6500200","三重區"
"241012","941-UM","2018/04/21 20:29:35","新北市三重區龍濱路269號","121.501428333333","25.0728983333333","6500200","三重區"
"241029","942-UM","2018/04/21 20:29:33","新北市三重區集美街112巷21號","121.489723333333","25.0542233333333","6500200","三重區"
"241033","AAC-255","2018/04/21 20:29:25","新北市三重區五谷王北街82號","121.476066666667","25.052765","6500200","三重區"
"235039","097-UM","2018/04/21 20:29:29","新北市中和區大勇街27巷6號","121.517143333333","24.993825","6500300","中和區"
"235050","4979-A6","2018/04/21 20:29:28","新北市中和區景平路385巷11號","121.502406666667","24.9942383333333","6500300","中和區"
"235069","4980-A6","2018/04/21 20:29:31","新北市中和區中正路434號","121.491268333333","24.9942083333333","6500300","中和區"
"235026","800-TS","2018/04/21 20:23:24","新北市中和區員山路36巷16-3號","121.484903333333","24.9915116666667","6500300","中和區"
"235059","AAC-215","2018/04/21 20:29:20","新北市中和區員山路37-8號","121.482121666667","24.9901","6500300","中和區"
"220068","013-TV","2018/04/21 20:28:49","新北市五股區中直路21號","121.420976666667","25.112075","6500100","板橋區"
"247024","893-R6","2018/04/21 20:29:21","新北市蘆洲區光復路91號","121.464251666667","25.0856483333333","6501400","蘆洲區"
"247014","546-UM","2018/04/21 20:29:28","新北市蘆洲區中山二路173號","121.471041666667","25.0810633333333","6501400","蘆洲區"
"247022","500-BY","2018/04/21 20:26:02","新北市蘆洲區三民路222號","121.468793333333","25.089215","6501400","蘆洲區"
"247010","341-TH","2018/04/21 20:29:36","新北市蘆洲區信義路224號","121.479068333333","25.0852516666667","6501400","蘆洲區"
"247012","339-TH","2018/04/21 20:29:34","新北市蘆洲區復興路249號","121.480555","25.08991","6501400","蘆洲區"
"247004","337-TH","2018/04/21 20:29:34","新北市蘆洲區長安街297號","121.458053333333","25.0848833333333","6501400","蘆洲區"
"247006","336-TH","2018/04/21 20:29:30","新北市蘆洲區光華路185號","121.464898333333","25.0816033333333","6501400","蘆洲區"
"247018","057-VK","2018/04/21 20:29:21","新北市蘆洲區民族路327巷24號","121.47431","25.09119","6501400","蘆洲區"
"247008","056-VK","2018/04/21 20:29:14","新北市蘆洲區重陽二街25號","121.482326666667","25.0847633333333","6501400","蘆洲區"
"247016","007-UY","2018/04/21 20:29:37","新北市蘆洲區光華路80號","121.467923333333","25.0826833333333","6501400","蘆洲區"
"247002","002-UY","2018/04/21 20:29:18","新北市蘆洲區長安街347巷32號","121.4555","25.08706","6501400","蘆洲區"
"247020","001-UY","2018/04/21 20:29:27","新北市蘆洲區仁愛街127號","121.470288333333","25.0945666666667","6501400","蘆洲區"
"222001","KEA-2212","2018/04/21 20:29:31","新北市深坑區北深路三段329號","121.597185","25.005","6501800","深坑區"
"251013","179-VK","2018/04/21 20:29:25","新北市淡水區後坑子7號","121.463846666667","25.20562","6501000","淡水區"
"251014","180-VK","2018/04/21 20:29:17","新北市淡水區石頭厝8-2號","121.45985","25.2372816666667","6501000","淡水區"
"251008","181-VK","2018/04/21 20:29:18","新北市淡水區淡海路221號","121.420238333333","25.18534","6501000","淡水區"
"251010","413-VK","2018/04/21 20:29:26","新北市淡水區沙崙路181巷15號","121.423945","25.1842983333333","6501000","淡水區"
"251012","441-VK","2018/04/21 20:29:26","新北市淡水區頂田寮路43號","121.457043333333","25.2160683333333","6501000","淡水區"
"251016","442-VK","2018/04/21 20:29:31","新北市淡水區淡金路四段493號","121.451881666667","25.225255","6501000","淡水區"
"251001","559-UM","2018/04/21 20:29:26","新北市淡水區新市一路三段8號","121.445065","25.182845","6501000","淡水區"
"251006","561-UM","2018/04/21 20:29:37","新北市淡水區商工路329號","121.464028333333","25.1859466666667","6501000","淡水區"
"251011","650-BX","2018/04/21 20:29:32","新北市淡水區崁頂二路250號","121.436331666667","25.1979566666667","6501000","淡水區"
"251002","672-BX","2018/04/21 20:29:27","新北市淡水區中正路17號","121.442705","25.1696383333333","6501000","淡水區"
"251003","673-BX","2018/04/21 20:29:28","新北市淡水區新生街39號","121.440103333333","25.1748183333333","6501000","淡水區"
"252002","178-VK","2018/04/21 20:29:24","新北市三芝區淡金路二段47-2號","121.503701666667","25.260535","6502100","三芝區"
"252001","292-VK","2018/04/21 20:29:15","新北市三芝區中山路一段31號","121.500611666667","25.2580483333333","6502100","三芝區"
"242034","AAC-296","2018/04/21 20:29:35","新北市新莊區中正路222號","121.448723333333","25.0354416666667","6500500","新莊區"
"242058","986-R7","2018/04/21 20:29:37","新北市新莊區四維路205-3號","121.421716666667","25.0202966666667","6500500","新莊區"
"242053","751-BX","2018/04/21 20:29:17","新北市新莊區民安西路229巷8弄9號","121.426646666667","25.0136833333333","6500500","新莊區"
"242027","615-BX","2018/04/21 20:29:31","新北市新莊區思源路321號","121.459821666667","25.049315","6500500","新莊區"
"242025","613-BX","2018/04/21 20:29:34","新北市新莊區五工二路50巷2號","121.461465","25.0657383333333","6500500","新莊區"
"242029","612-BX","2018/04/21 20:29:20","新北市新莊區中華路二段160號","121.453275","25.0512016666667","6500500","新莊區"
"242042","566-BX","2018/04/21 20:29:30","新北市新莊區天祥街54巷2弄1號","121.416678333333","25.0292133333333","6500500","新莊區"
"242046","497-BY","2018/04/21 20:29:15","新北市新莊區中正路新雅巷2弄2號","121.417908333333","25.0253833333333","6500500","新莊區"
"242004","442-UM","2018/04/21 20:29:30","新北市新莊區化成路373-2號","121.465408333333","25.0578466666667","6500500","新莊區"
"242051","441-UM","2018/04/21 20:29:20","新北市新莊區民安西路252巷31號","121.425176666667","25.0136733333333","6500500","新莊區"
"242056","440-UM","2018/04/21 20:29:33","新北市新莊區瓊泰路187號","121.443165","25.03171","6500500","新莊區"
"242036","415-TV","2018/04/21 20:29:18","新北市新莊區後港一路76巷1弄2號","121.427208333333","25.0261033333333","6500500","新莊區"
"242007","413-TV","2018/04/21 20:29:17","新北市新莊區思源路287巷1弄7號","121.459393333333","25.0479916666667","6500500","新莊區"
"242044","400-BY","2018/04/21 20:29:32","新北市新莊區中正路新建巷55號","121.414668333333","25.021435","6500500","新莊區"
"242023","362-BY","2018/04/21 20:29:34","新北市新莊區化成路283號","121.466075","25.0547533333333","6500500","新莊區"
"242061","353-BY","2018/04/21 20:29:29","新北市新莊區民安東路132號","121.430943333333","25.020485","6500500","新莊區"
"242039","133-UY","2018/04/21 20:29:35","新北市新莊區成功街1號","121.426035","25.02196","6500500","新莊區"
"242031","135-UY","2018/04/21 20:29:31","新北市新莊區義豐街25巷10號","121.440576666667","25.03523","6500500","新莊區"
"242048","172-VK","2018/04/21 20:29:31","新北市新莊區中正路863-3號","121.4187","25.0276566666667","6500500","新莊區"
"242011","173-VK","2018/04/21 20:13:59","新北市新莊區中和街181號","121.447666666667","25.05067","6500500","新莊區"
"242017","175-VK","2018/04/21 20:29:23","新北市新莊區中港三街9巷1弄1號","121.451186666667","25.04636","6500500","新莊區"
"242015","346-TH","2018/04/21 20:29:18","新北市新莊區中平路46巷13號","121.44546","25.04387","6500500","新莊區"
"242021","348-TH","2018/04/21 20:29:31","新北市新莊區公園路10巷1號","121.447901666667","25.0387633333333","6500500","新莊區"
"242013","351-TH","2018/04/21 20:29:28","新北市新莊區中平路302巷12號","121.445408333333","25.0520283333333","6500500","新莊區"
"221036","130-UY","2018/04/21 20:29:21","新北市汐止區新台五路二段7號","121.662053333333","25.0659283333333","6501100","汐止區"
"221015","131-UY","2018/04/21 20:29:30","新北市汐止區建成路142巷19弄13號","121.661911666667","25.0739083333333","6501100","汐止區"
"221010","269-BY","2018/04/21 20:29:28","新北市汐止區八連路二段312號","121.629408333333","25.0991866666667","6501100","汐止區"
"221002","278-VK","2018/04/21 20:29:25","新北市汐止區大同路三段307號","121.674641666667","25.0742566666667","6501100","汐止區"
"221023","279-VK","2018/04/21 20:29:22","新北市汐止區湖東街76巷1號","121.63581","25.07353","6501100","汐止區"
"221032","280-BY","2018/04/21 20:29:22","新北市汐止區弘道街53巷14弄2號","121.618758333333","25.04897","6501100","汐止區"
"221027","281-BY","2018/04/21 20:29:27","新北市汐止區中正路198號","121.658523333333","25.06906","6501100","汐止區"
"221029","298-VK","2018/04/21 20:29:21","新北市汐止區樟樹一路135巷35號","121.640721666667","25.0655933333333","6501100","汐止區"
"221021","299-VK","2018/04/21 20:29:26","新北市汐止區水源路一段284號","121.654153333333","25.058275","6501100","汐止區"
"221031","353-TW","2018/04/21 20:29:21","新北市汐止區中興路110巷12號","121.63392","25.0642716666667","6501100","汐止區"
"221008","129-UY","2018/04/21 20:29:24","新北市汐止區康寧街543號","121.634255","25.0690516666667","6501100","汐止區"
"221035","622-UM","2018/04/21 20:29:21","新北市汐止區長江街101-5號","121.658846666667","25.073095","6501100","汐止區"
"221025","623-UM","2018/04/21 20:29:27","新北市汐止區水源路二段88巷2弄2號","121.656268333333","25.055935","6501100","汐止區"
"221038","646-BX","2018/04/21 20:29:15","新北市汐止區水源路一段72號","121.656641666667","25.065135","6501100","汐止區"
"221033","647-BX","2018/04/21 20:29:15","新北市汐止區林森街73巷15號","121.623938333333","25.0414133333333","6501100","汐止區"
"221002","707-TV","2018/04/21 20:29:14","新北市汐止區福德三路95號","121.63614","25.0690783333333","6501100","汐止區"
"221018","753-BX","2018/04/21 20:29:33","新北市汐止區茄苳路202號","121.670401666667","25.06904","6501100","汐止區"
"220079","145-BY","2018/04/21 20:29:39","新北市樹林區中山路三段210-2號","121.381478333333","24.9655516666667","6500100","板橋區"
"242002","KEA-2550","2018/04/21 20:29:18","新北市新莊區中正路80號","121.457633333333","25.0373466666667","6500500","新莊區"
"220103","257-TC","2018/04/21 20:29:20","新北市板橋區漢生東路33巷17號","121.465795","25.01742","6500100","板橋區"
"220083","286-VK","2018/04/21 20:29:32","新北市板橋區僑中二街106巷27號","121.44459","25.0077316666667","6500100","板橋區"
"220061","295-UM","2018/04/21 20:29:25","新北市板橋區文華街22號","121.457471666667","25.000665","6500100","板橋區"
"220098","317-R6","2018/04/21 20:29:18","新北市五股區孝義路9-18號","121.449271666667","25.1069983333333","6500100","板橋區"
"242019","280-VK","2018/04/21 20:29:23","新北市新莊區民樂街79號","121.457973333333","25.0429216666667","6500500","新莊區"
"220102","KEA-2699","2018/04/21 20:29:26","新北市板橋區文化路一段322-1號","121.46779","25.0224966666667","6500100","板橋區"
"220089","833-TW","2018/04/21 20:29:27","新北市板橋區四維路343號","121.462411666667","25.0297733333333","6500100","板橋區"
"220097","AAC-210","2018/04/21 20:29:37","新北市板橋區中正路12巷135弄13號","121.456321666667","25.0120833333333","6500100","板橋區"
"220070","AAC-253","2018/04/21 20:29:32","新北市五股區新五路二段258號","121.440478333333","25.0821016666667","6500100","板橋區"
