"lineid","car","time","location","longitude","latitude","cityid","cityname"
"234081","298-R6","2018/04/21 20:39:25","新北市永和區永貞路82號","121.52014","25.0050766666667","6500400","永和區"
"234030","746-BX","2018/04/21 20:39:22","新北市新店區安民街303巷22號","121.516195","24.9737783333333","6500400","永和區"
"234061","AAD-866","2018/04/21 20:39:27","新北市永和區秀朗路一段175號","121.51705","25.0036766666667","6500400","永和區"
"249001","173-UM","2018/04/21 20:39:26","新北市八里區下罟子15-9號","121.380566666667","25.1396216666667","6502300","八里區"
"249004","303-UY","2018/04/21 20:39:31","新北市八里區中山路一段125號","121.413531666667","25.1593633333333","6502300","八里區"
"234023","9380-KE","2018/04/21 20:39:16","新北市永和區竹林路25巷16號","121.517893333333","25.0147583333333","6500400","永和區"
"234074","AAC-211","2018/04/21 20:39:35","新北市永和區竹林路119巷16號","121.521011666667","25.0114233333333","6500400","永和區"
"243012","AAD-798","2018/04/21 20:39:32","新北市泰山區泰林路三段643號","121.403948333333","25.0703116666667","6501600","泰山區"
"243011","297-R6","2018/04/21 20:39:23","新北市泰山區公園路71號","121.426111666667","25.0555333333333","6501600","泰山區"
"243015","380-SR","2018/04/21 20:39:34","新北市泰山區福興三街9號","121.434681666667","25.0578633333333","6501600","泰山區"
"243010","KEA-2215","2018/04/21 20:39:24","新北市泰山區黎明路47號","121.422081666667","25.0578366666667","6501600","泰山區"
"243016","680-BX","2018/04/21 20:39:27","新北市泰山區明志路二段187號","121.427738333333","25.0495383333333","6501600","泰山區"
"222003","436-BY","2018/04/21 20:39:18","新北市深坑區深坑街156號","121.612913333333","25.0011666666667","6501800","深坑區"
"222002","659-BX","2018/04/21 20:39:26","新北市深坑區萬福路45號","121.599506666667","25.0067166666667","6501800","深坑區"
"231044","001-UM","2018/04/21 20:39:20","新北市新店區建國路259號","121.537276666667","24.9836066666667","6500600","新店區"
"231041","002-UM","2018/04/21 20:39:34","新北市新店區中正路543-4號","121.533693333333","24.987505","6500600","新店區"
"231040","047-UY","2018/04/21 20:39:35","新北市新店區中正路272號","121.538936666667","24.9735983333333","6500600","新店區"
"231048","187-VK","2018/04/21 20:39:22","新北市新店區寶慶街12-2號","121.543206666667","24.9868266666667","6500600","新店區"
"231054","KEA-2219","2018/04/21 20:39:28","新北市新店區北新路一段64巷37號","121.542185","24.9657083333333","6500600","新店區"
"231057","256-BX","2018/04/21 20:39:36","新北市新店區花園六路二段9-2號","121.555726666667","24.9329116666667","6500600","新店區"
"231052","260-TV","2018/04/21 20:39:26","新北市新店區松林路7號","121.547145","24.9111533333333","6500600","新店區"
"231051","278-BY","2018/04/21 20:39:38","新北市新店區中央七街99號","121.526251666667","24.97746","6500600","新店區"
"231050","AAD-862","2018/04/21 20:39:30","新北市新店區建安街15巷1號","121.539755","24.9753983333333","6500600","新店區"
"231059","355-BY","2018/04/21 20:39:21","新北市新店區僑愛七路53號","121.501543333333","24.9447","6500600","新店區"
"231058","3713-VJ","2018/04/21 20:39:20","新北市新店區平等街39號","121.536473333333","24.97332","6500600","新店區"
"231066","4716-K9","2018/04/21 20:39:26","新北市新店區安民街339號","121.516851666667","24.97482","6500600","新店區"
"231056","4715-K9","2018/04/21 20:39:17","新北市新店區中央七街61巷10號","121.528626666667","24.9763916666667","6500600","新店區"
"231067","4772-VM","2018/04/21 20:39:31","新北市新店區安華路28-1號","121.519595","24.9608483333333","6500600","新店區"
"231065","512-UM","2018/04/21 20:39:28","新北市新店區安祥路102巷146號","121.486781666667","24.9645116666667","6500600","新店區"
"231049","513-UM","2018/04/21 20:39:32","新北市新店區永業路81巷5弄10號","121.530541666667","24.9492516666667","6500600","新店區"
"231045","617-UM","2018/04/21 20:39:27","新北市新店區長春路83號","121.551176666667","24.9582233333333","6500600","新店區"
"231061","619-UM","2018/04/21 20:39:33","新北市新店區新和街36號","121.519308333333","24.984855","6500600","新店區"
"231063","641-BX","2018/04/21 20:39:18","新北市新店區玫瑰路4-1號","121.493565","24.9513816666667","6500600","新店區"
"231042","645-TV","2018/04/21 20:39:29","新北市新店區寶橋路210號","121.550896666667","24.9785","6500600","新店區"
"231068","718-UY","2018/04/21 20:39:26","新北市新店區寶元路一段85巷10號","121.543153333333","24.9860266666667","6500600","新店區"
"231064","719-UM","2018/04/21 20:39:38","新北市新店區永安街34巷12號","121.517956666667","24.98594","6500600","新店區"
"231062","720-UM","2018/04/21 20:39:34","新北市新店區安泰路60巷55弄103號","121.484595","24.9460833333333","6500600","新店區"
"231060","897-TW","2018/04/21 20:39:31","新北市新店區錦秀路1-3號","121.479066666667","24.945435","6500600","新店區"
"231043","899-TW","2018/04/21 20:39:35","新北市新店區博愛街13巷21號","121.540146666667","24.9738266666667","6500600","新店區"
"241011","013-R5","2018/04/21 20:39:33","新北市三重區河邊北街146號","121.50336","25.0725","6500200","三重區"
"241028","022-UY","2018/04/21 20:39:30","新北市三重區光興街91號","121.497425","25.0599166666667","6500200","三重區"
"241008","059-VK","2018/04/21 20:39:29","新北市三重區下竹圍街42號","121.481056666667","25.07496","6500200","三重區"
"241009","060-VK","2018/04/21 20:39:22","新北市三重區碧華街45號","121.484605","25.0812383333333","6500200","三重區"
"241031","061-VK","2018/04/21 20:39:23","新北市三重區重陽路一段113巷1弄49號","121.488","25.0584816666667","6500200","三重區"
"241015","062-VK","2018/04/21 20:39:21","新北市三重區文化北路103號","121.497901666667","25.0684133333333","6500200","三重區"
"241017","063-VK","2018/04/21 20:39:26","新北市三重區大同北路218號","121.490731666667","25.0672433333333","6500200","三重區"
"241024","065-VK","2018/04/21 20:39:27","新北市三重區三民街222號","121.480128333333","25.067175","6500200","三重區"
"241002","090-VK","2018/04/21 20:39:28","新北市三重區仁義街167巷8號","121.49739","25.0817416666667","6500200","三重區"
"241003","091-VK","2018/04/21 20:39:20","新北市三重區五華街141巷58號","121.493446666667","25.08669","6500200","三重區"
"241026","265-UM","2018/04/21 20:39:32","新北市三重區文化南路3號","121.500005","25.062405","6500200","三重區"
"241016","266-UM","2018/04/21 20:39:19","新北市三重區長壽西街143-3號","121.49444","25.0667","6500200","三重區"
"241022","267-UM","2018/04/21 20:39:22","新北市三重區新北大道一段46巷16號","121.487936666667","25.0620016666667","6500200","三重區"
"241018","268-UM","2018/04/21 20:39:28","新北市三重區自強路一段302號","121.491368333333","25.0683583333333","6500200","三重區"
"241032","269-UM","2018/04/21 20:39:32","新北市三重區重陽路一段120巷48號","121.484993333333","25.0601866666667","6500200","三重區"
"241013","270-UM","2018/04/21 20:39:23","新北市三重區三和路四段83號","121.48933","25.075575","6500200","三重區"
"241025","271-UM","2018/04/21 20:39:33","新北市三重區金華街82號","121.4771","25.0651466666667","6500200","三重區"
"241007","398-BY","2018/04/21 20:39:32","新北市三重區自強路四段10號","121.488286666667","25.076285","6500200","三重區"
"241035","KEA-2210","2018/04/21 20:39:24","新北市三重區正義北路340號","121.49442","25.0707683333333","6500200","三重區"
"241004","475-VK","2018/04/21 20:39:19","新北市三重區仁愛街418號","121.490436666667","25.081415","6500200","三重區"
"241020","478-VK","2018/04/21 20:39:18","新北市三重區忠孝路一段56號","121.49054","25.07199","6500200","三重區"
"241030","480-VK","2018/04/21 20:39:32","新北市三重區成功路73巷11號","121.489446666667","25.0519283333333","6500200","三重區"
"241014","543-UM","2018/04/21 20:39:22","新北市三重區萬壽街14號","121.499383333333","25.0693716666667","6500200","三重區"
"241023","545-UM","2018/04/21 20:39:20","新北市三重區自由街39巷14號","121.478415","25.06695","6500200","三重區"
"241001","547-UM","2018/04/21 20:39:33","新北市三重區自強路三段110巷7號","121.486425","25.0745483333333","6500200","三重區"
"241019","887-TS","2018/04/21 20:39:26","新北市三重區大智街141號","121.490663333333","25.0711316666667","6500200","三重區"
"241012","941-UM","2018/04/21 20:39:35","新北市三重區秀江街31號","121.501995","25.0728916666667","6500200","三重區"
"241029","942-UM","2018/04/21 20:39:33","新北市三重區集美街173號","121.491128333333","25.053805","6500200","三重區"
"241033","AAC-255","2018/04/21 20:39:25","新北市三重區光復路二段87巷35號","121.474288333333","25.0579016666667","6500200","三重區"
"235039","097-UM","2018/04/21 20:39:29","新北市中和區大勇街29巷9號","121.51593","24.9943716666667","6500300","中和區"
"235069","4980-A6","2018/04/21 20:39:31","新北市中和區新生街254號","121.48373","24.9975283333333","6500300","中和區"
"235026","800-TS","2018/04/21 20:23:24","新北市中和區員山路36巷16-3號","121.484903333333","24.9915116666667","6500300","中和區"
"220068","013-TV","2018/04/21 20:39:29","新北市八里區下罟子30-35號","121.36762","25.1352066666667","6500100","板橋區"
"247024","893-R6","2018/04/21 20:39:21","新北市蘆洲區長樂路125-1號","121.462165","25.0877033333333","6501400","蘆洲區"
"247014","546-UM","2018/04/21 20:39:28","新北市蘆洲區成功路65號","121.472781666667","25.0806366666667","6501400","蘆洲區"
"247022","500-BY","2018/04/21 20:39:21","新北市蘆洲區中正路263巷9號","121.466675","25.0868233333333","6501400","蘆洲區"
"247010","341-TH","2018/04/21 20:39:36","新北市蘆洲區集賢路406號","121.48004","25.0818016666667","6501400","蘆洲區"
"247012","339-TH","2018/04/21 20:39:34","新北市蘆洲區中興街55號","121.48145","25.0874083333333","6501400","蘆洲區"
"247004","337-TH","2018/04/21 20:39:34","新北市蘆洲區長安街297號","121.458025","25.0848466666667","6501400","蘆洲區"
"247006","336-TH","2018/04/21 20:39:22","新北市蘆洲區和平路121巷2號","121.467313333333","25.0798433333333","6501400","蘆洲區"
"247008","056-VK","2018/04/21 20:39:34","新北市蘆洲區重陽街10號","121.480626666667","25.0813083333333","6501400","蘆洲區"
"247016","007-UY","2018/04/21 20:39:37","新北市蘆洲區中山一路280號","121.471161666667","25.07918","6501400","蘆洲區"
"247002","002-UY","2018/04/21 20:39:18","新北市蘆洲區長安街375巷28號","121.45639","25.0879366666667","6501400","蘆洲區"
"247020","001-UY","2018/04/21 20:39:27","新北市蘆洲區民族路424號","121.473855","25.0917583333333","6501400","蘆洲區"
"222001","KEA-2212","2018/04/21 20:39:31","新北市深坑區北深路三段232號","121.6007","25.004185","6501800","深坑區"
"251013","179-VK","2018/04/21 20:39:25","新北市淡水區下圭柔山28巷7弄15號","121.458458333333","25.2040316666667","6501000","淡水區"
"251014","180-VK","2018/04/21 20:39:37","新北市淡水區桂竹圍12-9號","121.471603333333","25.232145","6501000","淡水區"
"251008","181-VK","2018/04/21 20:39:37","新北市淡水區新民街一段117號","121.428071666667","25.1878066666667","6501000","淡水區"
"251010","413-VK","2018/04/21 20:39:26","新北市淡水區沙崙路181巷15號","121.423838333333","25.18426","6501000","淡水區"
"251012","441-VK","2018/04/21 20:39:26","新北市淡水區興仁路99號","121.45163","25.21811","6501000","淡水區"
"251016","442-VK","2018/04/21 20:39:31","新北市淡水區後洲子16-1號","121.449508333333","25.224055","6501000","淡水區"
"251001","559-UM","2018/04/21 20:39:26","新北市淡水區淡金路65號","121.456018333333","25.1613933333333","6501000","淡水區"
"251006","561-UM","2018/04/21 20:39:21","新北市淡水區商工路196巷3號","121.450963333333","25.1871933333333","6501000","淡水區"
"251011","650-BX","2018/04/21 20:39:32","新北市淡水區新市一路一段361號","121.436191666667","25.1861883333333","6501000","淡水區"
"251002","672-BX","2018/04/21 20:39:27","新北市淡水區中正路36號","121.443768333333","25.1692333333333","6501000","淡水區"
"251003","673-BX","2018/04/21 20:39:34","新北市淡水區新民街120巷1號","121.43792","25.1778133333333","6501000","淡水區"
"252002","178-VK","2018/04/21 20:39:24","新北市三芝區淡金路二段47-2號","121.503701666667","25.2605416666667","6502100","三芝區"
"252001","292-VK","2018/04/21 20:39:15","新北市三芝區長安街25號","121.501596666667","25.2560933333333","6502100","三芝區"
"242034","AAC-296","2018/04/21 20:39:37","新北市新莊區中正路330號","121.445913333333","25.0347266666667","6500500","新莊區"
"242058","986-R7","2018/04/21 20:39:37","新北市新莊區四維路162號","121.422636666667","25.0223266666667","6500500","新莊區"
"242053","751-BX","2018/04/21 20:39:17","新北市新莊區西盛街323巷24號","121.428873333333","25.01469","6500500","新莊區"
"242027","615-BX","2018/04/21 20:39:22","新北市新莊區思源路59號","121.459825","25.0402933333333","6500500","新莊區"
"242025","613-BX","2018/04/21 20:39:08","新北市三重區重光街105-1號","121.466868333333","25.0646383333333","6500500","新莊區"
"242029","612-BX","2018/04/21 20:39:35","新北市新莊區中華路二段91號","121.452625","25.0493983333333","6500500","新莊區"
"242042","566-BX","2018/04/21 20:39:37","新北市新莊區中正路694巷3弄20號","121.417683333333","25.0281016666667","6500500","新莊區"
"242046","497-BY","2018/04/21 20:39:35","新北市新莊區龍安路108號","121.41843","25.0204716666667","6500500","新莊區"
"242051","441-UM","2018/04/21 20:39:23","新北市新莊區民安西路189巷28號","121.427183333333","25.015275","6500500","新莊區"
"242056","440-UM","2018/04/21 20:39:27","新北市新莊區瓊泰路60號","121.443476666667","25.028615","6500500","新莊區"
"242036","415-TV","2018/04/21 20:39:18","新北市新莊區建安街10-1號","121.428515","25.0264866666667","6500500","新莊區"
"242007","413-TV","2018/04/21 20:39:17","新北市新莊區思源路195號","121.45975","25.0455666666667","6500500","新莊區"
"242044","400-BY","2018/04/21 20:39:32","新北市新莊區龍安路74號","121.416973333333","25.0210316666667","6500500","新莊區"
"242023","362-BY","2018/04/21 20:39:31","新北市新莊區思源路123號","121.459795","25.04263","6500500","新莊區"
"242061","353-BY","2018/04/21 20:39:30","新北市新莊區新樹路260-2號","121.43237","25.0151716666667","6500500","新莊區"
"242039","133-UY","2018/04/21 20:39:35","新北市新莊區民安路391號","121.43216","25.0230583333333","6500500","新莊區"
"242031","135-UY","2018/04/21 20:39:31","新北市新莊區中正路508巷5弄2號","121.435025","25.0338666666667","6500500","新莊區"
"242048","172-VK","2018/04/21 20:39:31","新北市新莊區中正路639號","121.43092","25.0314966666667","6500500","新莊區"
"242011","173-VK","2018/04/21 20:13:59","新北市新莊區中和街181號","121.447666666667","25.05067","6500500","新莊區"
"242017","175-VK","2018/04/21 20:39:23","新北市新莊區中港一街161號","121.4471","25.044965","6500500","新莊區"
"242015","346-TH","2018/04/21 20:39:18","新北市新莊區中和街32號","121.448213333333","25.0437766666667","6500500","新莊區"
"242021","348-TH","2018/04/21 20:39:38","新北市新莊區公園路128號","121.451951666667","25.0401083333333","6500500","新莊區"
"242013","351-TH","2018/04/21 20:39:28","新北市新莊區中和街175巷11號","121.44718","25.05059","6500500","新莊區"
"221036","130-UY","2018/04/21 20:39:21","新北市汐止區新昌路85號","121.664003333333","25.069215","6501100","汐止區"
"221015","131-UY","2018/04/21 20:39:30","新北市汐止區建成路21號","121.664375","25.0726","6501100","汐止區"
"221010","269-BY","2018/04/21 20:39:28","新北市汐止區八連路一段338號","121.64019","25.087895","6501100","汐止區"
"221002","278-VK","2018/04/21 20:39:25","新北市汐止區大同路三段211號","121.672188333333","25.0768566666667","6501100","汐止區"
"221023","279-VK","2018/04/21 20:39:22","新北市汐止區明峰街2巷2號","121.635675","25.071045","6501100","汐止區"
"221032","280-BY","2018/04/21 20:39:22","新北市汐止區民權街二段28號","121.61931","25.05005","6501100","汐止區"
"221027","281-BY","2018/04/21 20:39:25","新北市汐止區大同路二段565號","121.662936666667","25.0696233333333","6501100","汐止區"
"221029","298-VK","2018/04/21 20:39:21","新北市汐止區大同路一段403巷1號","121.641365","25.06066","6501100","汐止區"
"221021","299-VK","2018/04/21 20:39:26","新北市汐止區水源路一段293號","121.65431","25.0583216666667","6501100","汐止區"
"221031","353-TW","2018/04/21 20:39:21","新北市汐止區中興路27巷22號","121.634046666667","25.0608216666667","6501100","汐止區"
"221008","129-UY","2018/04/21 20:39:19","新北市汐止區康寧街706-2號","121.638425","25.073025","6501100","汐止區"
"221035","622-UM","2018/04/21 20:39:21","新北市汐止區長江街101-5號","121.658763333333","25.07314","6501100","汐止區"
"221025","623-UM","2018/04/21 20:39:22","新北市汐止區水源路二段186號","121.6577","25.0535466666667","6501100","汐止區"
"221038","646-BX","2018/04/21 20:39:35","新北市汐止區汐萬路一段256巷3號","121.652515","25.0745766666667","6501100","汐止區"
"221033","647-BX","2018/04/21 20:39:35","新北市汐止區合順街18巷8弄5號","121.620308333333","25.041905","6501100","汐止區"
"221002","707-TV","2018/04/21 20:39:14","新北市汐止區福德二路132巷2號","121.631016666667","25.0653233333333","6501100","汐止區"
"221018","753-BX","2018/04/21 20:39:32","新北市汐止區中華街85號","121.668536666667","25.070665","6501100","汐止區"
"220079","145-BY","2018/04/21 20:39:19","新北市樹林區中華路1-6號","121.425643333333","24.9844283333333","6500100","板橋區"
"242002","KEA-2550","2018/04/21 20:39:18","新北市新莊區明中街12-3號","121.45834","25.0386266666667","6500500","新莊區"
"220103","257-TC","2018/04/21 20:39:20","新北市板橋區漢生東路53巷28號","121.466808333333","25.0172983333333","6500100","板橋區"
"242009","281-VK","2018/04/21 20:39:32","新北市新莊區福壽街99巷11弄8號","121.457415","25.0501866666667","6500500","新莊區"
"220098","317-R6","2018/04/21 20:39:18","新北市八里區中山路三段415號","121.370636666667","25.13707","6500100","板橋區"
"242019","280-VK","2018/04/21 20:39:23","新北市新莊區銘德街107號","121.455663333333","25.043305","6500500","新莊區"
"220097","AAC-210","2018/04/21 20:39:16","新北市板橋區大觀路三段63-1號","121.433538333333","24.99549","6500100","板橋區"
"220070","AAC-253","2018/04/21 20:39:32","新北市八里區商港路88-1號","121.393088333333","25.1497016666667","6500100","板橋區"
