"lineid","car","time","location","longitude","latitude","cityid","cityname"
"231040","047-UY","2018/04/21 21:09:35","新北市新店區北新路一段351號","121.541731666667","24.969295","6500600","新店區"
"231048","187-VK","2018/04/21 21:09:22","新北市新店區中興路三段160號","121.544523333333","24.98066","6500600","新店區"
"231054","KEA-2219","2018/04/21 21:09:28","新北市新店區大新街7巷23號","121.544176666667","24.96788","6500600","新店區"
"231051","278-BY","2018/04/21 21:09:38","新北市新店區中正路700巷26號","121.535371666667","24.9909983333333","6500600","新店區"
"231050","AAD-862","2018/04/21 21:09:30","新北市新店區中華路147號","121.538105","24.9703883333333","6500600","新店區"
"231059","355-BY","2018/04/21 21:09:21","新北市新店區僑義路17巷1號","121.500351666667","24.951435","6500600","新店區"
"231065","512-UM","2018/04/21 21:09:28","新北市新店區安祥路69巷43號","121.482178333333","24.9600766666667","6500600","新店區"
"231061","619-UM","2018/04/21 21:09:33","新北市新店區永安街30號","121.517706666667","24.9865866666667","6500600","新店區"
"231063","641-BX","2018/04/21 21:09:18","新北市新店區玫瑰路66巷2號","121.495873333333","24.9454883333333","6500600","新店區"
"231042","645-TV","2018/04/21 21:09:29","新北市新店區寶興路60巷6號","121.549743333333","24.9718","6500600","新店區"
"231062","720-UM","2018/04/21 21:09:34","新北市新店區安康路三段90號","121.491755","24.9519","6500600","新店區"
"231060","897-TW","2018/04/21 21:09:31","新北市新店區安康路二段391號","121.49447","24.9542","6500600","新店區"
"241011","013-R5","2018/04/21 21:09:32","新北市三重區龍濱路249號","121.501578333333","25.0724766666667","6500200","三重區"
"241028","022-UY","2018/04/21 21:09:30","新北市三重區正義南路60-1號","121.498243333333","25.0605666666667","6500200","三重區"
"241008","059-VK","2018/04/21 21:09:29","新北市三重區自強路一段73號","121.497221666667","25.0667933333333","6500200","三重區"
"241009","060-VK","2018/04/21 21:09:22","新北市三重區忠孝路二段122號","121.483015","25.0687766666667","6500200","三重區"
"241031","061-VK","2018/04/21 21:09:23","新北市三重區重新路五段408巷21-3號","121.476063333333","25.0456233333333","6500200","三重區"
"241015","062-VK","2018/04/21 21:09:21","新北市三重區三和路二段1號","121.501796666667","25.066345","6500200","三重區"
"241017","063-VK","2018/04/21 21:09:26","新北市三重區國隆路31號","121.492371666667","25.0645216666667","6500200","三重區"
"241024","065-VK","2018/04/21 21:09:27","新北市三重區國道路一段58巷20號","121.481258333333","25.0720533333333","6500200","三重區"
"241002","090-VK","2018/04/21 21:09:28","新北市三重區五華街16號","121.494863333333","25.080295","6500200","三重區"
"241003","091-VK","2018/04/21 21:09:20","新北市三重區仁義街337-1號","121.494968333333","25.084845","6500200","三重區"
"241026","265-UM","2018/04/21 21:09:31","新北市三重區文化南路42號","121.500303333333","25.0601866666667","6500200","三重區"
"241016","266-UM","2018/04/21 21:09:19","新北市三重區信義西街138號","121.495451666667","25.0643516666667","6500200","三重區"
"241022","267-UM","2018/04/21 21:09:22","新北市三重區中正北路64巷24號","121.486041666667","25.063635","6500200","三重區"
"241018","268-UM","2018/04/21 21:09:28","新北市三重區正義北路340號","121.494356666667","25.0708316666667","6500200","三重區"
"241032","269-UM","2018/04/21 21:09:32","新北市三重區新北大道一段250號","121.480608333333","25.0616116666667","6500200","三重區"
"241013","270-UM","2018/04/21 21:09:23","新北市三重區仁愛街129巷4號","121.495868333333","25.0750866666667","6500200","三重區"
"241025","271-UM","2018/04/21 21:09:33","新北市三重區中正北路208巷8號","121.482331666667","25.0670083333333","6500200","三重區"
"241007","398-BY","2018/04/21 21:09:32","新北市三重區三和路四段145巷81號","121.48636","25.078805","6500200","三重區"
"241006","462-BY","2018/04/21 21:09:34","新北市三重區明志街135號","121.48925","25.063235","6500200","三重區"
"241004","475-VK","2018/04/21 21:09:19","新北市三重區仁愛街420號","121.490383333333","25.081325","6500200","三重區"
"241020","478-VK","2018/04/21 21:09:18","新北市三重區忠孝路二段34號","121.485896666667","25.0709883333333","6500200","三重區"
"241030","480-VK","2018/04/21 21:09:32","新北市三重區五谷王北街20巷15弄1號","121.475031666667","25.0484416666667","6500200","三重區"
"241014","543-UM","2018/04/21 21:09:31","新北市三重區三和路二段37-9號","121.501323333333","25.0676983333333","6500200","三重區"
"241023","545-UM","2018/04/21 21:09:20","新北市三重區忠孝路三段50巷41弄64號","121.482326666667","25.0637666666667","6500200","三重區"
"241001","547-UM","2018/04/21 21:09:33","新北市三重區福隆路14號","121.491298333333","25.0778483333333","6500200","三重區"
"241019","887-TS","2018/04/21 21:09:26","新北市三重區自強路二段74巷23-1號","121.487955","25.06977","6500200","三重區"
"241012","941-UM","2018/04/21 21:09:35","新北市三重區龍門路300號","121.502573333333","25.0744733333333","6500200","三重區"
"241029","942-UM","2018/04/21 21:09:33","新北市三重區正義南路107號","121.498256666667","25.0585483333333","6500200","三重區"
"241033","AAC-255","2018/04/21 21:09:25","新北市三重區中興北街248-3號","121.469085","25.06272","6500200","三重區"
"247024","893-R6","2018/04/21 21:09:01","新北市蘆洲區長興路50巷1號","121.463795","25.083805","6501400","蘆洲區"
"247014","546-UM","2018/04/21 21:09:28","新北市蘆洲區復興路30-3號","121.472553333333","25.0847816666667","6501400","蘆洲區"
"247022","500-BY","2018/04/21 21:09:21","新北市蘆洲區中正路261號","121.467458333333","25.0873566666667","6501400","蘆洲區"
"247010","341-TH","2018/04/21 21:08:36","新北市蘆洲區鷺江街73號","121.477148333333","25.0831083333333","6501400","蘆洲區"
"247012","339-TH","2018/04/21 21:09:34","新北市蘆洲區民族路7號","121.475806666667","25.0841966666667","6501400","蘆洲區"
"247004","337-TH","2018/04/21 21:09:34","新北市蘆洲區永安南路二段276號","121.458088333333","25.080815","6501400","蘆洲區"
"247006","336-TH","2018/04/21 21:09:22","新北市蘆洲區永安南路二段16巷10號","121.467945","25.077395","6501400","蘆洲區"
"247018","057-VK","2018/04/21 21:09:21","新北市蘆洲區民族路408巷12號","121.474861666667","25.0919683333333","6501400","蘆洲區"
"247008","056-VK","2018/04/21 21:09:34","新北市蘆洲區民生街45號","121.475068333333","25.07882","6501400","蘆洲區"
"247016","007-UY","2018/04/21 21:09:37","新北市蘆洲區光華路162巷8弄10號","121.465271666667","25.0829633333333","6501400","蘆洲區"
"247002","002-UY","2018/04/21 21:09:18","新北市蘆洲區長榮路387號","121.45936","25.089565","6501400","蘆洲區"
"247020","001-UY","2018/04/21 21:09:27","新北市蘆洲區民族路375號","121.470691666667","25.0910083333333","6501400","蘆洲區"
"251009","008-UM","2018/04/21 21:09:34","新北市淡水區民族路112巷40號","121.46201","25.1343933333333","6501000","淡水區"
"251004","009-UM","2018/04/21 21:09:25","新北市淡水區竹林路120號","121.462825","25.1432166666667","6501000","淡水區"
"251013","179-VK","2018/04/21 21:09:24","新北市淡水區行忠路328號","121.460486666667","25.199675","6501000","淡水區"
"251014","180-VK","2018/04/21 21:09:37","新北市淡水區六塊厝2-6號","121.449493333333","25.241965","6501000","淡水區"
"251015","182-VK","2018/04/21 21:09:27","新北市淡水區淡金路四段542巷59號","121.454783333333","25.226975","6501000","淡水區"
"251010","413-VK","2018/04/21 21:09:26","新北市淡水區中正路一段63巷7弄2號","121.423005","25.1773083333333","6501000","淡水區"
"251012","441-VK","2018/04/21 21:09:26","新北市淡水區六塊厝15號","121.453185","25.2409033333333","6501000","淡水區"
"251016","442-VK","2018/04/21 21:09:31","新北市淡水區牛埔子7-8號","121.448028333333","25.2184083333333","6501000","淡水區"
"251005","443-VK","2018/04/21 21:09:15","新北市淡水區中正東路35巷28號","121.446841666667","25.1688466666667","6501000","淡水區"
"251001","559-UM","2018/04/21 21:09:26","新北市淡水區新市一路三段101巷16弄3號","121.446643333333","25.184045","6501000","淡水區"
"251006","561-UM","2018/04/21 21:09:21","新北市淡水區中正路二段31號","121.419571666667","25.1818066666667","6501000","淡水區"
"251011","650-BX","2018/04/21 21:09:32","新北市淡水區新民街120巷45弄2號","121.438403333333","25.1797616666667","6501000","淡水區"
"251002","672-BX","2018/04/21 21:08:44","新北市淡水區學府路172巷21號","121.44833","25.1748766666667","6501000","淡水區"
"251003","673-BX","2018/04/21 21:09:28","新北市淡水區新春街125巷51號","121.44058","25.1828983333333","6501000","淡水區"
"220070","AAC-253","2018/04/21 21:09:32","新北市八里區中華路三段7巷5號","121.397238333333","25.1440483333333","6500100","板橋區"
