"lineid","car","time","location","longitude","latitude","cityid","cityname"
"243003","297-R6","2018/04/21 21:14:46","新北市泰山區黎明路25號","121.422048333333","25.060645","6501600","泰山區"
"231063","641-BX","2018/04/21 21:29:18","新北市新店區如意街84號","121.49577","24.9470266666667","6500600","新店區"
"231060","897-TW","2018/04/21 21:29:31","新北市新店區薏仁坑路自強巷1號","121.497856666667","24.9576633333333","6500600","新店區"
"241011","013-R5","2018/04/21 21:29:33","新北市三重區龍濱路269號","121.50131","25.0730516666667","6500200","三重區"
"241017","063-VK","2018/04/21 21:29:26","新北市三重區中正北路25巷25弄2號","121.493231666667","25.0626416666667","6500200","三重區"
"241024","065-VK","2018/04/21 21:29:27","新北市三重區中正北路182號","121.483176666667","25.06695","6500200","三重區"
"241003","091-VK","2018/04/21 21:29:20","新北市三重區集賢路87-1號","121.493661666667","25.086875","6500200","三重區"
"241026","265-UM","2018/04/21 21:29:31","新北市三重區中正南路212號","121.493845","25.0554233333333","6500200","三重區"
"241016","266-UM","2018/04/21 21:29:19","新北市三重區信義西街138號","121.495598333333","25.0642066666667","6500200","三重區"
"241007","398-BY","2018/04/21 21:29:32","新北市三重區正義北路124號","121.496766666667","25.06553","6500200","三重區"
"247024","893-R6","2018/04/21 21:29:21","新北市五股區中直路21號","121.420921666667","25.1121033333333","6501400","蘆洲區"
"247022","500-BY","2018/04/21 21:29:21","新北市蘆洲區永樂街81號","121.455613333333","25.08857","6501400","蘆洲區"
"247010","341-TH","2018/04/21 21:29:36","新北市蘆洲區中山二路40號","121.47426","25.0822366666667","6501400","蘆洲區"
"251009","008-UM","2018/04/21 21:29:34","新北市淡水區民族路33巷16-3號","121.463446666667","25.1360266666667","6501000","淡水區"
"251004","009-UM","2018/04/21 21:29:25","新北市淡水區民族路2號","121.460341666667","25.1368983333333","6501000","淡水區"
"251013","179-VK","2018/04/21 21:29:24","新北市淡水區埤島40號","121.453043333333","25.197345","6501000","淡水區"
"251014","180-VK","2018/04/21 21:29:17","新北市淡水區六塊厝2-5號","121.448628333333","25.240485","6501000","淡水區"
"251008","181-VK","2018/04/21 21:29:18","新北市淡水區水源街二段112號","121.452403333333","25.174575","6501000","淡水區"
"251015","182-VK","2018/04/21 21:29:27","新北市淡水區淡金路四段542巷83弄20號","121.456448333333","25.226665","6501000","淡水區"
"251010","413-VK","2018/04/21 21:29:26","新北市淡水區沙崙路25巷21號","121.420505","25.18238","6501000","淡水區"
"251012","441-VK","2018/04/21 21:29:26","新北市淡水區淡金路五段35巷46號","121.45247","25.2347583333333","6501000","淡水區"
"251016","442-VK","2018/04/21 21:29:31","新北市淡水區前洲子28號","121.441046666667","25.2192016666667","6501000","淡水區"
"251005","443-VK","2018/04/21 21:29:35","新北市淡水區水源街一段34巷8號","121.44312","25.1719266666667","6501000","淡水區"
"251001","559-UM","2018/04/21 21:29:26","新北市淡水區濱海路一段221號","121.437945","25.1898916666667","6501000","淡水區"
"251006","561-UM","2018/04/21 21:29:21","新北市淡水區公明街39號","121.443253333333","25.1689733333333","6501000","淡水區"
"251011","650-BX","2018/04/21 21:29:32","新北市淡水區新民街180-8號","121.43666","25.1790566666667","6501000","淡水區"
"251002","672-BX","2018/04/21 21:08:44","新北市淡水區學府路172巷21號","121.44833","25.1748766666667","6501000","淡水區"
"251003","673-BX","2018/04/21 21:29:28","新北市淡水區崁頂15-5號","121.43899","25.1859","6501000","淡水區"
"220070","AAC-253","2018/04/21 21:29:32","新北市板橋區大觀路一段29巷131弄136號","121.451921666667","25.0038816666667","6500100","板橋區"
