"lineid","car","time","location","longitude","latitude","cityid","cityname"
"247010","341-TH","2018/04/21 21:59:36","新北市林口區太平里180號","121.36654","25.134625","6501400","蘆洲區"
"251004","009-UM","2018/04/21 21:59:25","新北市淡水區民權路229號","121.459945","25.1298733333333","6501000","淡水區"
"251008","181-VK","2018/04/21 21:59:18","新北市淡水區學府路104號","121.449863333333","25.1717883333333","6501000","淡水區"
"251010","413-VK","2018/04/21 21:59:26","新北市淡水區中正路二段211號","121.4262","25.189075","6501000","淡水區"
"251012","441-VK","2018/04/21 21:59:26","新北市淡水區中山北路三段165-5號","121.445435","25.1968733333333","6501000","淡水區"
"251005","443-VK","2018/04/21 21:59:35","新北市淡水區鄧公路30巷1弄1號","121.452585","25.1696933333333","6501000","淡水區"
"251006","561-UM","2018/04/21 21:59:21","新北市淡水區中正路11巷3號","121.437801666667","25.1707733333333","6501000","淡水區"
"251007","577-R6","2018/04/21 21:59:25","新北市淡水區北新路184巷57號","121.451103333333","25.1776516666667","6501000","淡水區"
"251011","650-BX","2018/04/21 21:59:32","新北市淡水區水碓街7號","121.44316","25.177135","6501000","淡水區"
"251003","673-BX","2018/04/21 21:59:28","新北市淡水區新春街83號","121.438841666667","25.1824483333333","6501000","淡水區"
"220070","AAC-253","2018/04/21 21:55:05","新北市板橋區華東街1-9號","121.448265","24.9948616666667","6500100","板橋區"
