"lineid","car","time","location","longitude","latitude","cityid","cityname"
"231007","189-VK","2018/05/22 10:19:19","新北市新店區新烏路三段215巷19號","121.506251666667","24.9039166666667","6500600","新店區"
"231009","192-VK","2018/05/22 10:19:22","新北市新店區小坑一路35巷2號","121.528113333333","24.9082516666667","6500600","新店區"
"227006","282-VK","2018/05/22 10:19:28","新北市雙溪區長源里柑腳21號","121.804576666667","25.01438","6502500","雙溪區"
"227012","030-BX","2018/05/22 10:19:27","新北市雙溪區泰平里料角坑43-1號","121.789593333333","24.9549316666667","6502500","雙溪區"
"252007","AAC-283","2018/05/22 10:19:10","新北市三芝區新庄里番社后27號","121.500123333333","25.2730933333333","6502100","三芝區"
"236002","339-SR","2018/05/22 10:19:23","新北市土城區中央路三段38號","121.438386666667","24.9687133333333","6501300","土城區"
