"lineid","car","time","location","longitude","latitude","cityid","cityname"
"234005","207-UY","2018/05/22 12:39:16","新北市永和區福和路1號","121.52543","25.0095933333333","6500400","永和區"
"234078","298-R6","2018/05/22 12:39:19","新北市永和區林森路81號","121.523885","25.0038866666667","6500400","永和區"
"234062","337-UY","2018/05/22 12:39:28","新北市永和區福和路1號","121.526473333333","25.0100216666667","6500400","永和區"
"234084","338-UY","2018/05/22 12:39:21","新北市永和區永貞路113號","121.517606666667","25.0043583333333","6500400","永和區"
"234068","552-UM","2018/05/22 12:39:10","新北市永和區豫溪街217巷1號","121.52526","25.009775","6500400","永和區"
"234015","745-BX","2018/05/22 12:39:11","新北市永和區福和路1號","121.526418333333","25.009595","6500400","永和區"
"234028","746-BX","2018/05/22 12:39:29","新北市永和區得和路321號","121.523418333333","24.9996016666667","6500400","永和區"
"234012","KEA-2591","2018/05/22 12:39:26","新北市永和區環河東路二段54號","121.523375","25.0118183333333","6500400","永和區"
"234040","862-TW","2018/05/22 12:39:20","新北市永和區中正路612號","121.517193333333","25.0074766666667","6500400","永和區"
"234048","863-TW","2018/05/22 12:39:25","新北市永和區福和路1號","121.526551666667","25.0098933333333","6500400","永和區"
"234025","9371-KE","2018/05/22 12:39:27","新北市永和區福和路1號","121.526761666667","25.00994","6500400","永和區"
"234010","9373-KE","2018/05/22 12:39:24","新北市永和區福和路1號","121.525865","25.00951","6500400","永和區"
"234022","9380-KE","2018/05/22 12:39:16","新北市永和區福和路1號","121.525986666667","25.00915","6500400","永和區"
"234076","969-R7","2018/05/22 12:39:15","新北市永和區中正路610-1號","121.51716","25.00739","6500400","永和區"
"234001","AAC-295","2018/05/22 12:39:27","新北市永和區福和路1號","121.526456666667","25.0099333333333","6500400","永和區"
"231010","188-VK","2018/05/22 12:39:20","新北市新店區安一路一段1-1號","121.519406666667","24.9611166666667","6500600","新店區"
"231023","KEA-2219","2018/05/22 12:39:22","新北市新店區安一路一段1-1號","121.519835","24.9611716666667","6500600","新店區"
"231015","AAD-862","2018/05/22 12:39:15","新北市新店區安一路一段1-1號","121.519868333333","24.9611416666667","6500600","新店區"
"231036","512-UM","2018/05/22 12:39:31","新北市新店區安一路一段1-1號","121.519318333333","24.961205","6500600","新店區"
"231035","719-UY","2018/05/22 12:39:14","新北市新店區安一路一段1-1號","121.519771666667","24.9610866666667","6500600","新店區"
"235029","098-UM","2018/05/22 12:39:28","新北市中和區員山路36巷16-3號","121.484968333333","24.9913683333333","6500300","中和區"
"235031","255-BX","2018/05/22 12:39:18","新北市中和區新生街120號","121.48335","25.0014433333333","6500300","中和區"
"235035","783-BX","2018/05/22 12:39:29","新北市中和區員山路36巷16-3號","121.485066666667","24.99136","6500300","中和區"
"228004","212-TW","2018/05/22 12:39:25","新北市貢寮區吉林里枋腳街6-2號","121.887245","25.00844","6502600","貢寮區"
"228005","828-UM","2018/05/22 12:39:28","新北市貢寮區福連里馬崗街37-4號","122.002108333333","25.0115","6502600","貢寮區"
"207002","749-BX","2018/05/22 12:39:27","新北市萬里區雙興里太和路7-2號","121.658658333333","25.1740633333333","6502800","萬里區"
"207001","662-BX","2018/05/22 12:39:21","新北市萬里區萬里里獅頭路15-2號","121.695008333333","25.1794816666667","6502800","萬里區"
"236006","498-BY","2018/05/22 12:39:21","新北市土城區永平街51號","121.427546666667","24.9591116666667","6501300","土城區"
