"lineid","car","time","location","longitude","latitude","cityid","cityname"
"234044","148-BY","2018/05/22 13:09:14","新北市永和區永元路18巷38弄1號","121.524076666667","25.00025","6500400","永和區"
"234005","207-UY","2018/05/22 13:09:16","新北市永和區中山路一段211-1號","121.508655","25.0083666666667","6500400","永和區"
"234078","298-R6","2018/05/22 13:09:28","新北市永和區永亨路63號","121.521115","25.0060766666667","6500400","永和區"
"234036","336-UY","2018/05/22 13:09:29","新北市永和區民樂街69巷11號","121.527686666667","24.997775","6500400","永和區"
"234062","337-UY","2018/05/22 13:09:28","新北市永和區秀朗路二段31號","121.521243333333","25.0025266666667","6500400","永和區"
"234084","338-UY","2018/05/22 13:09:21","新北市永和區永貞路108號","121.51897","25.0044516666667","6500400","永和區"
"234068","552-UM","2018/05/22 13:09:30","新北市永和區豫溪街137巷1弄8號","121.519391666667","25.01051","6500400","永和區"
"234015","745-BX","2018/05/22 13:09:31","新北市永和區文化路90巷24號","121.513775","25.0161733333333","6500400","永和區"
"234028","746-BX","2018/05/22 13:09:29","新北市永和區民生路21號","121.522811666667","24.9988566666667","6500400","永和區"
"234052","KEA-2590","2018/05/22 13:09:18","新北市永和區竹林路72巷8號","121.518821666667","25.0127916666667","6500400","永和區"
"234012","KEA-2591","2018/05/22 13:09:26","新北市永和區保福路二段48號","121.510996666667","25.0121283333333","6500400","永和區"
"234060","AAD-866","2018/05/22 13:09:30","新北市永和區安樂路340號","121.514408333333","25.0061516666667","6500400","永和區"
"234040","862-TW","2018/05/22 13:09:20","新北市永和區永貞路334號","121.51123","25.00551","6500400","永和區"
"234048","863-TW","2018/05/22 13:09:25","新北市永和區仁愛路104巷7弄23號","121.511035","25.014085","6500400","永和區"
"234025","9371-KE","2018/05/22 13:09:27","新北市永和區秀朗路一段10巷19號","121.513431666667","25.0061883333333","6500400","永和區"
"234010","9373-KE","2018/05/22 13:09:24","新北市永和區仁愛路31巷2弄3號","121.514028333333","25.0129166666667","6500400","永和區"
"248017","225-UY","2018/05/22 13:09:19","新北市五股區新五路二段367號","121.44431","25.0879466666667","6501500","五股區"
"234022","9380-KE","2018/05/22 13:09:16","新北市永和區中興街10巷17號","121.515838333333","25.0112016666667","6500400","永和區"
"234076","969-R7","2018/05/22 13:09:15","新北市永和區民光街2號","121.51523","24.9964266666667","6500400","永和區"
"234072","AAC-211","2018/05/22 13:09:24","新北市永和區竹林路211號","121.52069","25.0088366666667","6500400","永和區"
"234066","AAC-212","2018/05/22 13:09:32","新北市永和區保平路2-1號","121.513268333333","25.00762","6500400","永和區"
"234001","AAC-295","2018/05/22 13:09:27","新北市永和區永和路二段35號","121.514321666667","25.0103983333333","6500400","永和區"
"231002","002-UM","2018/05/22 13:09:24","新北市新店區安華路28-1號","121.519736666667","24.9607783333333","6500600","新店區"
"231028","046-UY","2018/05/22 13:09:28","新北市新店區安華路28-1號","121.519623333333","24.9608916666667","6500600","新店區"
"231001","047-UY","2018/05/22 13:09:14","新北市新店區安華路28-1號","121.519233333333","24.96091","6500600","新店區"
"231005","106-UY","2018/05/22 13:09:19","新北市新店區安華路28-1號","121.519701666667","24.96091","6500600","新店區"
"231020","108-UY","2018/05/22 13:09:17","新北市新店區安一路一段1-1號","121.519516666667","24.9614433333333","6500600","新店區"
"231012","187-VK","2018/05/22 13:09:15","新北市新店區安一路一段1-1號","121.519731666667","24.9613983333333","6500600","新店區"
"231010","188-VK","2018/05/22 13:09:20","新北市新店區安一路一段1-1號","121.518913333333","24.96119","6500600","新店區"
"231023","KEA-2219","2018/05/22 13:09:22","新北市新店區安一路一段1-1號","121.519666666667","24.9612516666667","6500600","新店區"
"231003","268-BY","2018/05/22 13:09:25","新北市新店區安華路28-1號","121.519411666667","24.9605416666667","6500600","新店區"
"231018","278-BY","2018/05/22 13:09:20","新北市新店區安一路一段1-1號","121.519516666667","24.9611283333333","6500600","新店區"
"231015","AAD-862","2018/05/22 13:09:15","新北市新店區安一路一段1-1號","121.51989","24.961215","6500600","新店區"
"231027","3713-VJ","2018/05/22 13:09:33","新北市新店區安華路28-1號","121.519806666667","24.9606433333333","6500600","新店區"
"231037","4716-K9","2018/05/22 13:09:25","新北市新店區安一路一段1-1號","121.519348333333","24.9612216666667","6500600","新店區"
"231025","4715-K9","2018/05/22 13:09:09","新北市新店區安華路28-1號","121.519293333333","24.960595","6500600","新店區"
"231036","512-UM","2018/05/22 13:09:11","新北市新店區安一路一段1-1號","121.519651666667","24.961085","6500600","新店區"
"231013","513-UM","2018/05/22 13:09:22","新北市新店區安一路一段1-1號","121.519761666667","24.9611866666667","6500600","新店區"
"231034","616-UM","2018/05/22 13:09:28","新北市新店區安華路1-1號","121.519463333333","24.960475","6500600","新店區"
"231006","617-UM","2018/05/22 13:09:24","新北市新店區安華路28-1號","121.519513333333","24.9607116666667","6500600","新店區"
"231035","719-UY","2018/05/22 13:09:34","新北市新店區安一路一段1-1號","121.520005","24.9610916666667","6500600","新店區"
"231032","720-UM","2018/05/22 13:09:18","新北市新店區安一路一段1-1號","121.519345","24.9612116666667","6500600","新店區"
"231029","897-TW","2018/05/22 13:09:22","新北市新店區安華路28-1號","121.519451666667","24.96071","6500600","新店區"
"231004","899-TW","2018/05/22 13:09:18","新北市新店區安華路28-1號","121.518991666667","24.9609316666667","6500600","新店區"
"231024","AKT-0513","2018/05/22 13:09:15","新北市新店區安華路28-1號","121.519313333333","24.9606533333333","6500600","新店區"
"235028","005-UY","2018/05/22 13:09:29","新北市中和區中正路209號","121.49727","24.993625","6500300","中和區"
"235011","031-BX","2018/05/22 13:09:14","新北市中和區中正路637巷60弄61號","121.485513333333","24.993065","6500300","中和區"
"235003","097-UM","2018/05/22 13:09:29","新北市中和區和城路一段271巷1號","121.485453333333","24.9917516666667","6500300","中和區"
"235029","098-UM","2018/05/22 13:09:28","新北市中和區中山路二段64巷16弄2號","121.503298333333","25.005785","6500300","中和區"
"235022","151-BY","2018/05/22 13:09:18","新北市中和區圓通路367巷33弄6-1號","121.493105","24.9856083333333","6500300","中和區"
"235002","185-VK","2018/05/22 13:09:26","新北市中和區大智街15號","121.519835","24.991875","6500300","中和區"
"235031","255-BX","2018/05/22 13:09:18","新北市中和區新生街114巷1號","121.48341","25.0023733333333","6500300","中和區"
"235025","378-QA","2018/05/22 13:09:21","新北市中和區連城路603號","121.478656666667","24.99341","6500300","中和區"
"235014","4979-A6","2018/05/22 13:09:11","新北市中和區中正路521號","121.488168333333","24.99354","6500300","中和區"
"235033","4980-A6","2018/05/22 13:09:28","新北市中和區中正路507號","121.488526666667","24.9937083333333","6500300","中和區"
"235034","558-UM","2018/05/22 13:09:30","新北市中和區錦和路350-1號","121.490538333333","24.993605","6500300","中和區"
"235009","565-BX","2018/05/22 13:09:27","新北市中和區員山路36巷13號","121.48418","24.9912016666667","6500300","中和區"
"235001","611-BX","2018/05/22 13:09:17","新北市中和區中山路三段136巷29號","121.4737","25.007705","6500300","中和區"
"235018","640-BX","2018/05/22 13:09:22","新北市土城區延壽路119號","121.469028333333","24.9944633333333","6500300","中和區"
"235035","783-BX","2018/05/22 13:09:29","新北市中和區板南路520巷15號","121.483731666667","25.0090516666667","6500300","中和區"
"235026","800-TS","2018/05/22 13:09:29","新北市中和區中山路二段386號","121.490586666667","25.0035866666667","6500300","中和區"
"235005","802-TS","2018/05/22 13:09:25","新北市中和區中正路507號","121.488523333333","24.993585","6500300","中和區"
"235016","805-TS","2018/05/22 13:09:26","新北市中和區中正路250號","121.495756666667","24.99391","6500300","中和區"
"235012","896-TW","2018/05/22 13:09:13","新北市中和區員山路36巷16-3號","121.48481","24.99191","6500300","中和區"
"235035","911-UM","2018/05/22 13:09:15","新北市中和區連勝街11號","121.498941666667","24.9983116666667","6500300","中和區"
"235015","157-BY","2018/05/22 13:09:29","新北市中和區捷運路8-18號","121.509541666667","24.98988","6500300","中和區"
"235001","AAC-213","2018/05/22 13:09:30","新北市中和區景平路149號","121.513873333333","24.9920966666667","6500300","中和區"
"235023","AAC-215","2018/05/22 13:09:30","新北市中和區連城路469巷3號","121.483745","24.9958116666667","6500300","中和區"
"228004","212-TW","2018/05/22 13:09:25","新北市貢寮區吉林里內寮街75號","121.891063333333","24.9718616666667","6502600","貢寮區"
"228005","828-UM","2018/05/22 13:09:28","新北市貢寮區仁理村仁和路19號","121.923188333333","25.0536233333333","6502600","貢寮區"
"207002","749-BX","2018/05/22 13:09:27","新北市萬里區崁腳里內崁路4號","121.64261","25.159545","6502800","萬里區"
"207001","662-BX","2018/05/22 13:09:21","新北市萬里區萬里里瑪鋉頂街41號","121.689168333333","25.1788816666667","6502800","萬里區"
"252005","AAC-283","2018/05/22 13:09:23","新北市三芝區八賢里八連溪33號","121.512151666667","25.23793","6502100","三芝區"
"236006","498-BY","2018/05/22 13:09:22","新北市土城區亞洲路23號","121.434015","24.9719466666667","6501300","土城區"
"242048","172-VK","2018/05/22 13:09:26","新北市新莊區龍安路100號","121.418196666667","25.020755","6500500","新莊區"
"221032","280-BY","2018/05/22 13:09:21","新北市汐止區大同路二段423號","121.658778333333","25.0672966666667","6501100","汐止區"
