"lineid","car","time","location","longitude","latitude","cityid","cityname"
"234044","148-BY","2018/05/22 13:39:28","新北市永和區永亨路166號","121.52607","25.0036016666667","6500400","永和區"
"234005","207-UY","2018/05/22 13:39:16","新北市永和區永和路一段125號","121.514003333333","25.0082833333333","6500400","永和區"
"234078","298-R6","2018/05/22 13:39:19","新北市永和區林森路20巷7號","121.525886666667","25.0057066666667","6500400","永和區"
"234036","336-UY","2018/05/22 13:39:29","新北市永和區民樂街41巷13號","121.528355","25.0000983333333","6500400","永和區"
"234062","337-UY","2018/05/22 13:39:28","新北市永和區秀朗路一段192巷6弄14號","121.519108333333","25.0023133333333","6500400","永和區"
"234084","338-UY","2018/05/22 13:39:28","新北市永和區永亨路127號","121.524583333333","25.0040966666667","6500400","永和區"
"234068","552-UM","2018/05/22 13:39:30","新北市永和區永和路二段216號","121.515746666667","25.01407","6500400","永和區"
"234015","745-BX","2018/05/22 13:39:13","新北市永和區永和路二段395-1號","121.515303333333","25.0169116666667","6500400","永和區"
"234028","746-BX","2018/05/22 13:39:29","新北市永和區民權路23號","121.52007","24.9978116666667","6500400","永和區"
"234052","KEA-2590","2018/05/22 13:39:18","新北市永和區竹林路39巷26號","121.519023333333","25.0147716666667","6500400","永和區"
"234012","KEA-2591","2018/05/22 13:39:26","新北市永和區永平路254號","121.508435","25.0112583333333","6500400","永和區"
"234060","AAD-866","2018/05/22 13:39:30","新北市永和區中正路416號","121.517515","25.00219","6500400","永和區"
"234040","862-TW","2018/05/22 13:39:20","新北市永和區中和路373號","121.508255","24.9997866666667","6500400","永和區"
"234048","863-TW","2018/05/22 13:39:26","新北市永和區保安路11號","121.510568333333","25.0168666666667","6500400","永和區"
"234010","9373-KE","2018/05/22 13:39:24","新北市永和區保福路二段9巷4號","121.510243333333","25.010885","6500400","永和區"
"248017","225-UY","2018/05/22 13:39:19","新北市五股區民義路二段84號","121.405953333333","25.1089916666667","6501500","五股區"
"234022","9380-KE","2018/05/22 13:39:20","新北市永和區中正路702巷12號","121.51643","25.0104583333333","6500400","永和區"
"234076","969-R7","2018/05/22 13:39:22","新北市永和區民權路12號","121.520275","24.9993816666667","6500400","永和區"
"234072","AAC-211","2018/05/22 13:39:24","新北市永和區竹林路213巷21號","121.522261666667","25.0090183333333","6500400","永和區"
"234066","AAC-212","2018/05/22 13:39:12","新北市永和區永平路173巷7號","121.510183333333","25.0083966666667","6500400","永和區"
"234001","AAC-295","2018/05/22 13:39:27","新北市永和區永和路一段116號","121.513865","25.0074983333333","6500400","永和區"
"244002","248-BX","2018/05/22 13:39:28","新北市林口區南勢里31號","121.352158333333","25.0704716666667","6501700","林口區"
"231002","002-UM","2018/05/22 13:39:24","新北市新店區溪園路415號","121.52442","24.97864","6500600","新店區"
"231028","046-UY","2018/05/22 13:39:28","新北市新店區安和路二段1號","121.517796666667","24.9668566666667","6500600","新店區"
"231001","047-UY","2018/05/22 13:39:34","新北市新店區中正路402號","121.534525","24.97743","6500600","新店區"
"231005","106-UY","2018/05/22 13:39:19","新北市新店區中正路30號","121.54506","24.9697816666667","6500600","新店區"
"231020","108-UY","2018/05/22 13:39:17","新北市新店區永興路90-1號","121.543908333333","24.9315283333333","6500600","新店區"
"231012","187-VK","2018/05/22 13:39:15","新北市新店區德正街23巷12號","121.544505","24.9721816666667","6500600","新店區"
"231010","188-VK","2018/05/22 13:39:20","新北市新店區平等街31號","121.536638333333","24.9735516666667","6500600","新店區"
"231023","KEA-2219","2018/05/22 13:39:22","新北市新店區新店路256號","121.537303333333","24.95708","6500600","新店區"
"231026","256-BX","2018/05/22 13:39:21","新北市新店區中正路327號","121.53615","24.9751616666667","6500600","新店區"
"231003","268-BY","2018/05/22 13:39:25","新北市新店區中正路47號","121.544753333333","24.9698766666667","6500600","新店區"
"231018","278-BY","2018/05/22 13:39:20","新北市新店區百忍街33號","121.533601666667","24.9757316666667","6500600","新店區"
"231015","AAD-862","2018/05/22 13:39:15","新北市新店區竹林路2巷27弄11號","121.550991666667","24.950865","6500600","新店區"
"231038","3712-VJ","2018/05/22 13:39:19","新北市新店區安康路一段79巷3號","121.529951666667","24.9612166666667","6500600","新店區"
"231027","3713-VJ","2018/05/22 13:39:13","新北市新店區北宜路一段105巷4弄9號","121.540323333333","24.9554716666667","6500600","新店區"
"231037","4716-K9","2018/05/22 13:39:06","新北市新店區薏仁坑路47-1號","121.494088333333","24.9641116666667","6500600","新店區"
"231025","4715-K9","2018/05/22 13:39:29","新北市新店區中央六街56號","121.527933333333","24.9757166666667","6500600","新店區"
"231036","512-UM","2018/05/22 13:39:33","新北市新店區安祥路147巷62號","121.47616","24.956185","6500600","新店區"
"231013","513-UM","2018/05/22 13:39:22","新北市新店區中正路450號","121.53438","24.979065","6500600","新店區"
"231034","616-UM","2018/05/22 13:39:28","新北市新店區車子路134號","121.505206666667","24.9493666666667","6500600","新店區"
"231006","617-UM","2018/05/22 13:39:24","新北市新店區北宜路一段116號","121.53916","24.9552666666667","6500600","新店區"
"231030","619-UM","2018/05/22 13:39:16","新北市新店區安康路一段351-1號","121.519485","24.9639033333333","6500600","新店區"
"231035","719-UY","2018/05/22 13:39:25","新北市新店區安忠路38號","121.51311","24.9595583333333","6500600","新店區"
"231032","720-UM","2018/05/22 13:39:17","新北市新店區安康路一段92-1號","121.52782","24.96205","6500600","新店區"
"231029","897-TW","2018/05/22 13:39:22","新北市新店區車子路1-1號","121.504606666667","24.9579266666667","6500600","新店區"
"231004","899-TW","2018/05/22 13:37:58","新北市新店區北新路二段1號","121.542705","24.9712583333333","6500600","新店區"
"231024","AKT-0513","2018/05/22 13:39:16","新北市新店區中華路47巷9號","121.539636666667","24.9673983333333","6500600","新店區"
"235028","005-UY","2018/05/22 13:39:29","新北市中和區連城路109巷75號","121.497366666667","24.99779","6500300","中和區"
"235027","006-UY","2018/05/22 13:39:22","新北市中和區連城路268-6號","121.486433333333","24.9963466666667","6500300","中和區"
"235011","031-BX","2018/05/22 13:39:22","新北市中和區南山路320巷17號","121.507298333333","24.9862933333333","6500300","中和區"
"235020","096-UM","2018/05/22 13:39:25","新北市中和區員山路466巷17弄4號","121.480556666667","25.007175","6500300","中和區"
"235003","097-UM","2018/05/22 13:39:29","新北市中和區大勇街29巷23弄1號","121.515468333333","24.994655","6500300","中和區"
"235029","098-UM","2018/05/22 13:39:28","新北市中和區中山路二段2巷81弄1號","121.50113","25.0075516666667","6500300","中和區"
"235004","150-BY","2018/05/22 13:39:30","新北市中和區保健路50巷68號","121.509225","24.9951566666667","6500300","中和區"
"235022","151-BY","2018/05/22 13:39:18","新北市中和區圓通路369巷55弄1號","121.490745","24.9841833333333","6500300","中和區"
"235019","183-VK","2018/05/22 13:39:17","新北市中和區莒光路120巷13弄2號","121.471658333333","25.001435","6500300","中和區"
"235002","185-VK","2018/05/22 13:39:25","新北市中和區立人街8-4號","121.51955","24.9942083333333","6500300","中和區"
"235013","186-VK","2018/05/22 13:39:24","新北市中和區明義街11巷5號","121.503835","24.994725","6500300","中和區"
"235031","255-BX","2018/05/22 13:39:18","新北市中和區新生街220巷4號","121.482888333333","24.998625","6500300","中和區"
"235008","293-VK","2018/05/22 13:39:15","新北市中和區復興路268號","121.50285","24.9904183333333","6500300","中和區"
"235036","301-VK","2018/05/22 13:39:29","新北市中和區連城路144巷4弄11號","121.495703333333","24.9988283333333","6500300","中和區"
"235007","352-BY","2018/05/22 13:39:29","新北市中和區景平路105號","121.516775","24.99188","6500300","中和區"
"235025","378-QA","2018/05/22 13:39:21","新北市中和區民享街92巷17號","121.474036666667","24.9997416666667","6500300","中和區"
"235014","4979-A6","2018/05/22 13:39:11","新北市中和區景新街496巷35弄1號","121.513513333333","24.9856933333333","6500300","中和區"
"235033","4980-A6","2018/05/22 13:39:31","新北市中和區連城路65巷6號","121.497821666667","25.0009666666667","6500300","中和區"
"235006","551-UM","2018/05/22 13:39:26","新北市中和區成功路107巷3號","121.52629","24.99127","6500300","中和區"
"235034","558-UM","2018/05/22 13:39:30","新北市中和區南華路1巷1號","121.501875","24.9954133333333","6500300","中和區"
"235009","565-BX","2018/05/22 13:39:27","新北市中和區南山路236巷63弄1號","121.503826666667","24.98766","6500300","中和區"
"235018","640-BX","2018/05/22 13:39:22","新北市中和區民享街32巷20號","121.472965","25.0031783333333","6500300","中和區"
"235024","647-TV","2018/05/22 13:39:27","新北市中和區中山路二段561號","121.480766666667","25.005625","6500300","中和區"
"235035","783-BX","2018/05/22 13:39:29","新北市中和區永和路356巷51號","121.487213333333","25.0142366666667","6500300","中和區"
"235026","800-TS","2018/05/22 13:39:29","新北市中和區中山路二段312巷33弄22號","121.49479","25.0043716666667","6500300","中和區"
"235021","801-TS","2018/05/22 13:39:17","新北市中和區民安街43號","121.47988","25.0002516666667","6500300","中和區"
"235005","802-TS","2018/05/22 13:39:25","新北市中和區中安街78號","121.512148333333","25.0019566666667","6500300","中和區"
"235016","805-TS","2018/05/22 13:39:26","新北市中和區興南路三段52-4號","121.493816666667","24.97551","6500300","中和區"
"235012","896-TW","2018/05/22 13:39:33","新北市中和區中正路79號","121.500768333333","24.99345","6500300","中和區"
"235017","900-TW","2018/05/22 13:39:13","新北市中和區莒光路213號","121.469028333333","24.99467","6500300","中和區"
"235035","911-UM","2018/05/22 13:39:15","新北市中和區水源路34巷1號","121.505016666667","25.0035683333333","6500300","中和區"
"235015","157-BY","2018/05/22 13:39:29","新北市中和區華新街143巷106弄17號","121.506416666667","24.9784916666667","6500300","中和區"
"235001","AAC-213","2018/05/22 13:39:30","新北市中和區景平路120號","121.519273333333","24.9918033333333","6500300","中和區"
"235023","AAC-215","2018/05/22 13:39:20","新北市中和區錦和路179號","121.490678333333","24.991145","6500300","中和區"
"220019","015-TV","2018/05/22 13:39:31","新北市板橋區四川路二段140巷18號","121.449401666667","24.993365","6500100","板橋區"
"220013","072-UY","2018/05/22 13:39:14","新北市板橋區漢生東路117號","121.467268333333","25.0148416666667","6500100","板橋區"
"220034","073-UY","2018/05/22 13:39:29","新北市板橋區華東街330號","121.452938333333","25.0035033333333","6500100","板橋區"
"220017","AAD-861","2018/05/22 13:39:17","新北市板橋區華東街1-10號","121.448676666667","24.9950333333333","6500100","板橋區"
"247005","336-TH","2018/05/22 13:39:12","新北市五股區工商路8號","121.440673333333","25.082655","6501400","蘆洲區"
"247007","056-VK","2018/05/22 13:39:26","新北市五股區四維路171巷8號","121.46754","25.075395","6501400","蘆洲區"
"247019","001-UY","2018/05/22 13:39:22","新北市五股區新五路三段260號","121.448278333333","25.09066","6501400","蘆洲區"
"228004","212-TW","2018/05/22 13:36:05","新北市貢寮區龍崗里石壁坑街24號","121.912231666667","24.9977533333333","6502600","貢寮區"
"228005","828-UM","2018/05/22 13:39:08","新北市貢寮區美豐里文秀坑3號","121.90422","25.052615","6502600","貢寮區"
"207002","749-BX","2018/05/22 13:39:27","新北市萬里區崁腳里崁腳路166號","121.645058333333","25.155775","6502800","萬里區"
"207001","662-BX","2018/05/22 13:39:21","新北市金山區月眉21-2號","121.63691","25.2152116666667","6502800","萬里區"
"252005","AAC-283","2018/05/22 13:39:23","新北市三芝區圓山里二坪頂71號","121.537818333333","25.2413966666667","6502100","三芝區"
"236065","105-UM","2018/05/22 13:39:27","新北市土城區城林路6巷80號","121.4385","24.97982","6501300","土城區"
"236074","166-UM","2018/05/22 13:39:32","新北市土城區城林路6巷80號","121.43866","24.9796666666667","6501300","土城區"
"236013","270-VK","2018/05/22 13:39:17","新北市土城區城林路6巷80號","121.438573333333","24.979715","6501300","土城區"
"236032","271-VK","2018/05/22 13:39:31","新北市土城區城林路6巷80號","121.438533333333","24.9797966666667","6501300","土城區"
"236006","498-BY","2018/05/22 13:39:22","新北市土城區慶祥街41號","121.436273333333","24.973595","6501300","土城區"
"236057","912-UM","2018/05/22 13:39:13","新北市土城區城林路6巷80號","121.438456666667","24.97974","6501300","土城區"
"236045","913-UM","2018/05/22 13:39:31","新北市土城區城林路6巷80號","121.438363333333","24.9797983333333","6501300","土城區"
"236060","915-UM","2018/05/22 13:39:32","新北市土城區城林路6巷80號","121.438441666667","24.97979","6501300","土城區"
"242048","172-VK","2018/05/22 13:39:26","新北市新莊區成德街60號","121.424031666667","25.0222733333333","6500500","新莊區"
"221032","280-BY","2018/05/22 13:39:21","新北市汐止區新興路6號","121.656311666667","25.06492","6501100","汐止區"
"220030","610-BX","2018/05/22 13:39:32","新北市板橋區篤行路二段71號","121.431728333333","24.9920316666667","6500100","板橋區"
"220027","256-TC","2018/05/22 13:39:19","新北市板橋區南雅西路二段193號","121.451801666667","25.0131716666667","6500100","板橋區"
"220043","267-BY","2018/05/22 13:39:30","新北市板橋區民生路二段120號","121.470545","25.01989","6500100","板橋區"
"220004","276-BY","2018/05/22 13:39:20","新北市板橋區四川路二段140巷20號","121.449171666667","24.993415","6500100","板橋區"
"220020","277-BY","2018/05/22 13:39:25","新北市板橋區大觀路三段54號","121.43345","24.9955533333333","6500100","板橋區"
"220031","286-VK","2018/05/22 13:39:20","新北市板橋區板城路271號","121.45006","24.9979216666667","6500100","板橋區"
"220029","287-VK","2018/05/22 13:39:24","新北市板橋區大觀路二段153巷39號","121.446958333333","25.0004233333333","6500100","板橋區"
"220039","288-VK","2018/05/22 13:39:26","新北市板橋區民生路二段120號","121.470511666667","25.0197716666667","6500100","板橋區"
"220009","293-UM","2018/05/22 13:39:21","新北市板橋區民生路二段120號","121.470355","25.0199416666667","6500100","板橋區"
"220032","296-UM","2018/05/22 13:39:31","新北市板橋區大觀路二段108號","121.444336666667","24.99954","6500100","板橋區"
"220023","303-R5","2018/05/22 13:39:16","新北市板橋區南雅南路二段116號","121.45243","25.0003333333333","6500100","板橋區"
"220047","317-R6","2018/05/22 13:39:32","新北市板橋區民生路二段120號","121.470461666667","25.0196566666667","6500100","板橋區"
"220012","486-VK","2018/05/22 13:39:18","新北市板橋區縣民大道二段22號","121.46375","25.013165","6500100","板橋區"
"220104","560-BX","2018/05/22 13:39:27","新北市板橋區南雅西路二段145巷4號","121.45165","25.0116516666667","6500100","板橋區"
"220028","630-UY","2018/05/22 13:39:22","新北市板橋區大觀路二段265巷76弄37號","121.441088333333","24.9967716666667","6500100","板橋區"
"220005","686-BX","2018/05/22 13:39:12","新北市板橋區華東街1-9號","121.448185","24.99493","6500100","板橋區"
"220025","687-BX","2018/05/22 13:39:15","新北市板橋區大觀路三段212巷70號","121.429815","24.9935083333333","6500100","板橋區"
"220002","741-BX","2018/05/22 13:39:24","新北市板橋區華東街1-9號","121.448086666667","24.9949266666667","6500100","板橋區"
"220003","827-TW","2018/05/22 13:39:21","新北市板橋區華東街1-9號","121.448151666667","24.9949516666667","6500100","板橋區"
"220022","895-R6","2018/05/22 13:39:23","新北市板橋區南雅南路一段8號","121.45597","25.0063183333333","6500100","板橋區"
"220021","985-R7","2018/05/22 13:39:12","新北市板橋區南雅南路二段11-5號","121.454001666667","25.0021916666667","6500100","板橋區"
"220018","AAC-253","2018/05/22 13:39:11","新北市板橋區華東街1-9號","121.448266666667","24.9948883333333","6500100","板橋區"
"235032","KEA-2873","2018/05/22 13:39:15","新北市中和區中正路167巷15號","121.498448333333","24.9927733333333","6500300","中和區"
