"lineid","car","time","location","longitude","latitude","cityid","cityname"
"234005","207-UY","2018/05/22 14:19:16","新北市永和區中正路682號","121.516765","25.0092866666667","6500400","永和區"
"234078","298-R6","2018/05/22 14:19:23","新北市永和區國中路132巷13號","121.523881666667","25.0075266666667","6500400","永和區"
"234036","336-UY","2018/05/22 14:19:33","新北市永和區成功路一段5號","121.527161666667","25.00518","6500400","永和區"
"234062","337-UY","2018/05/22 14:19:28","新北市永和區得和路101號","121.518046666667","25.0002283333333","6500400","永和區"
"234084","338-UY","2018/05/22 14:19:21","新北市永和區中正路659號","121.514725","25.0102016666667","6500400","永和區"
"234068","552-UM","2018/05/22 14:19:30","新北市永和區福和路263巷7弄1號","121.517915","25.0069716666667","6500400","永和區"
"234028","746-BX","2018/05/22 14:19:29","新北市永和區民權路49巷9號","121.520603333333","24.9972966666667","6500400","永和區"
"234052","KEA-2590","2018/05/22 14:19:18","新北市永和區光復街2巷23號","121.51714","25.0167","6500400","永和區"
"234060","AAD-866","2018/05/22 14:19:30","新北市永和區安樂路192號","121.515203333333","25.001295","6500400","永和區"
"234040","862-TW","2018/05/22 14:19:20","新北市中和區安平路161號","121.512478333333","24.9985066666667","6500400","永和區"
"234048","863-TW","2018/05/22 14:19:31","新北市永和區新生路75號","121.508606666667","25.0161133333333","6500400","永和區"
"234025","9371-KE","2018/05/22 14:19:27","新北市永和區得和路42巷23號","121.515348333333","24.9996283333333","6500400","永和區"
"234010","9373-KE","2018/05/22 14:19:24","新北市永和區保生路55-1號","121.504508333333","25.01088","6500400","永和區"
"248017","225-UY","2018/05/22 14:19:19","新北市五股區壟路7-2號","121.416296666667","25.0896733333333","6501500","五股區"
"234022","9380-KE","2018/05/22 14:19:16","新北市永和區竹林路23號","121.517211666667","25.0147016666667","6500400","永和區"
"234076","969-R7","2018/05/22 14:19:15","新北市永和區民族街81巷58號","121.520043333333","24.9964933333333","6500400","永和區"
"234072","AAC-211","2018/05/22 14:19:24","新北市永和區豫溪街191巷7弄29號","121.523205","25.0110733333333","6500400","永和區"
"234066","AAC-212","2018/05/22 14:19:19","新北市永和區保平路268巷20號","121.507775","25.00621","6500400","永和區"
"234001","AAC-295","2018/05/22 14:19:27","新北市永和區自強街32巷10號","121.516135","25.0076916666667","6500400","永和區"
"244002","248-BX","2018/05/22 14:19:28","新北市林口區竹林路271號","121.389571666667","25.08102","6501700","林口區"
"231002","002-UM","2018/05/22 14:19:24","新北市新店區中央路208-1號","121.53015","24.973745","6500600","新店區"
"231028","046-UY","2018/05/22 14:19:28","新北市新店區安和路二段167號","121.518696666667","24.9744516666667","6500600","新店區"
"231001","047-UY","2018/05/22 14:19:34","新北市新店區中正路75巷71號","121.543105","24.9688633333333","6500600","新店區"
"231005","106-UY","2018/05/22 14:19:26","新北市新店區中興路三段213號","121.54356","24.9819183333333","6500600","新店區"
"231020","108-UY","2018/05/22 14:19:17","新北市新店區桂山路37號","121.559926666667","24.9017983333333","6500600","新店區"
"231012","187-VK","2018/05/22 14:19:15","新北市新店區中興路一段302號","121.54659","24.9695133333333","6500600","新店區"
"231023","KEA-2219","2018/05/22 14:19:22","新北市新店區光明街138巷13弄3號","121.540323333333","24.9612133333333","6500600","新店區"
"231003","268-BY","2018/05/22 14:19:25","新北市新店區中興路一段216號","121.543843333333","24.9659366666667","6500600","新店區"
"231018","278-BY","2018/05/22 14:19:20","新北市新店區中央四街21號","121.529166666667","24.9741866666667","6500600","新店區"
"231015","AAD-862","2018/05/22 14:19:35","新北市新店區北宜路二段392巷4號","121.565503333333","24.9533866666667","6500600","新店區"
"231038","3712-VJ","2018/05/22 14:19:18","新北市新店區溪洲路6巷5號","121.533968333333","24.9614566666667","6500600","新店區"
"231027","3713-VJ","2018/05/22 14:19:13","新北市新店區北新路二段70號","121.542953333333","24.9725933333333","6500600","新店區"
"231037","4716-K9","2018/05/22 14:19:25","新北市新店區車子路27號","121.504355","24.9522183333333","6500600","新店區"
"231036","512-UM","2018/05/22 14:19:13","新北市新店區安祥路109巷121號","121.476431666667","24.9580066666667","6500600","新店區"
"231013","513-UM","2018/05/22 14:19:22","新北市新店區大豐路80號","121.538761666667","24.9792933333333","6500600","新店區"
"231034","616-UM","2018/05/22 14:19:28","新北市新店區車子路11號","121.503028333333","24.9519783333333","6500600","新店區"
"231006","617-UM","2018/05/22 14:19:24","新北市新店區北宜路二段446號","121.569956666667","24.956295","6500600","新店區"
"231030","619-UM","2018/05/22 14:19:16","新北市新店區吉安街39號","121.515276666667","24.9664433333333","6500600","新店區"
"231035","719-UY","2018/05/22 14:19:34","新北市新店區安和路二段113巷3弄5號","121.518053333333","24.9699066666667","6500600","新店區"
"231032","720-UM","2018/05/22 14:19:17","新北市新店區溪洲路17號","121.534181666667","24.959495","6500600","新店區"
"231029","897-TW","2018/05/22 14:19:22","新北市新店區安康路二段247號","121.507716666667","24.9584116666667","6500600","新店區"
"231004","899-TW","2018/05/22 14:19:18","新北市新店區中正路160號","121.541428333333","24.9717966666667","6500600","新店區"
"231024","AKT-0513","2018/05/22 14:19:15","新北市新店區安民街121巷12號","121.51541","24.9692233333333","6500600","新店區"
"235028","005-UY","2018/05/22 14:19:29","新北市中和區連城路2號","121.49929","25.0024216666667","6500300","中和區"
"235027","006-UY","2018/05/22 14:19:18","新北市中和區連勝街121巷16號","121.495118333333","24.9945616666667","6500300","中和區"
"235011","031-BX","2018/05/22 14:19:22","新北市中和區景平路239巷73號","121.50813","24.9920683333333","6500300","中和區"
"235020","096-UM","2018/05/22 14:19:25","新北市中和區民富街34號","121.47685","25.0065733333333","6500300","中和區"
"235003","097-UM","2018/05/22 14:19:29","新北市中和區景德街1號","121.519141666667","24.9913733333333","6500300","中和區"
"235029","098-UM","2018/05/22 14:19:28","新北市中和區莊敬路23號","121.500115","25.00456","6500300","中和區"
"235004","150-BY","2018/05/22 14:19:30","新北市中和區宜安路1巷28弄2號","121.512425","24.9942233333333","6500300","中和區"
"235022","151-BY","2018/05/22 14:19:18","新北市中和區連城路523巷11弄1號","121.481713333333","24.994285","6500300","中和區"
"235019","183-VK","2018/05/22 14:19:17","新北市中和區中山路三段181巷4號","121.472825","25.00588","6500300","中和區"
"235002","185-VK","2018/05/22 14:19:25","新北市中和區大仁街10巷27弄3號","121.519166666667","24.9927216666667","6500300","中和區"
"235013","186-VK","2018/05/22 14:19:24","新北市中和區景新街230巷3號","121.50817","24.9941166666667","6500300","中和區"
"235031","255-BX","2018/05/22 14:19:17","新北市中和區連城路280號","121.484378333333","24.996255","6500300","中和區"
"235008","293-VK","2018/05/22 14:19:15","新北市中和區中興街266巷2號","121.498465","24.9875083333333","6500300","中和區"
"235036","301-VK","2018/05/22 14:19:29","新北市中和區中山路二段3巷22弄38號","121.5058","25.0040933333333","6500300","中和區"
"235007","352-BY","2018/05/22 14:19:29","新北市中和區景平路298號","121.512763333333","24.992635","6500300","中和區"
"235025","378-QA","2018/05/22 14:19:23","新北市中和區民利街87號","121.478233333333","24.9981183333333","6500300","中和區"
"235014","4979-A6","2018/05/22 14:19:31","新北市中和區復興路56號","121.503826666667","24.9904466666667","6500300","中和區"
"235033","4980-A6","2018/05/22 14:19:28","新北市中和區福祥路2號","121.49963","25.00285","6500300","中和區"
"235006","551-UM","2018/05/22 14:19:26","新北市中和區安樂路191巷6號","121.514545","24.9981533333333","6500300","中和區"
"235034","558-UM","2018/05/22 14:19:30","新北市中和區景平路680號","121.496873333333","25.0014333333333","6500300","中和區"
"235009","565-BX","2018/05/22 14:19:27","新北市中和區景新街383巷38號","121.5138","24.9906883333333","6500300","中和區"
"235018","640-BX","2018/05/22 14:19:22","新北市中和區國光街107巷2弄1號","121.470095","24.9999366666667","6500300","中和區"
"235024","647-TV","2018/05/22 14:19:26","新北市中和區員山路437-3號","121.480775","25.00396","6500300","中和區"
"235010","733-UM","2018/05/22 14:19:32","新北市中和區忠孝街2巷13弄2號","121.510476666667","24.98188","6500300","中和區"
"235035","783-BX","2018/05/22 14:19:29","新北市中和區中正路776號","121.485338333333","25.0002716666667","6500300","中和區"
"235026","800-TS","2018/05/22 14:19:29","新北市中和區中山路二段352號","121.492788333333","25.0027416666667","6500300","中和區"
"235021","801-TS","2018/05/22 14:19:13","新北市中和區員山路307號","121.481246666667","25.000215","6500300","中和區"
"235005","802-TS","2018/05/22 14:19:25","新北市中和區安平路100號","121.511516666667","24.997235","6500300","中和區"
"235016","805-TS","2018/05/22 14:19:32","新北市中和區華新街232巷12號","121.505775","24.9822766666667","6500300","中和區"
"235012","896-TW","2018/05/22 14:19:33","新北市中和區華新街109巷5號","121.50916","24.98189","6500300","中和區"
"235017","900-TW","2018/05/22 14:19:13","新北市中和區華安街17巷9號","121.466848333333","24.9982716666667","6500300","中和區"
"235035","911-UM","2018/05/22 14:19:15","新北市中和區中和路122號","121.503195","24.9996083333333","6500300","中和區"
"235015","157-BY","2018/05/22 14:19:29","新北市中和區和平街86號","121.507535","24.9912366666667","6500300","中和區"
"235001","AAC-213","2018/05/22 14:19:30","新北市中和區自立路15巷1號","121.52242","24.9962683333333","6500300","中和區"
"235023","AAC-215","2018/05/22 14:19:22","新北市中和區圓通路268-1號","121.492563333333","24.9907583333333","6500300","中和區"
"220019","015-TV","2018/05/22 14:19:31","新北市板橋區忠孝路24巷20號","121.460163333333","25.0012483333333","6500100","板橋區"
"220013","072-UY","2018/05/22 14:19:21","新北市板橋區國泰街75巷2弄1號","121.467481666667","25.006295","6500100","板橋區"
"220034","073-UY","2018/05/22 14:15:01","新北市板橋區華東街1-10號","121.44824","24.9951433333333","6500100","板橋區"
"220105","075-UY","2018/05/22 14:19:20","新北市板橋區雙十路三段26號","121.470993333333","25.0309183333333","6500100","板橋區"
"220017","AAD-861","2018/05/22 14:19:28","新北市板橋區華興街52號","121.458173333333","25.004755","6500100","板橋區"
"247023","893-R6","2018/05/22 14:19:22","新北市蘆洲區三民路559號","121.462648333333","25.09203","6501400","蘆洲區"
"247013","546-UM","2018/05/22 14:19:27","新北市蘆洲區中山二路137巷33號","121.472621666667","25.0806","6501400","蘆洲區"
"247021","500-BY","2018/05/22 14:19:21","新北市蘆洲區仁愛街212巷228-1號","121.46434","25.0941","6501400","蘆洲區"
"247009","341-TH","2018/05/22 14:19:22","新北市蘆洲區三民路26巷30號","121.477803333333","25.0830216666667","6501400","蘆洲區"
"247011","339-TH","2018/05/22 14:19:19","新北市蘆洲區民權路3巷26號","121.475285","25.0853883333333","6501400","蘆洲區"
"247003","337-TH","2018/05/22 14:19:20","新北市蘆洲區長安街172巷35弄15號","121.460206666667","25.0845783333333","6501400","蘆洲區"
"247005","336-TH","2018/05/22 14:19:32","新北市蘆洲區長安街22巷16號","121.464645","25.0796983333333","6501400","蘆洲區"
"247017","057-VK","2018/05/22 14:19:23","新北市蘆洲區民權路116號","121.47349","25.0884933333333","6501400","蘆洲區"
"247015","007-UY","2018/05/22 14:19:30","新北市蘆洲區中正路185巷31弄9號","121.466536666667","25.0840616666667","6501400","蘆洲區"
"247001","002-UY","2018/05/22 14:19:32","新北市蘆洲區永樂街52-1號","121.457496666667","25.0884716666667","6501400","蘆洲區"
"247019","001-UY","2018/05/22 14:19:22","新北市蘆洲區民族路448號","121.472578333333","25.0920766666667","6501400","蘆洲區"
"228004","212-TW","2018/05/22 14:19:25","新北市貢寮區雙玉里田寮洋街26號","121.926363333333","25.0137433333333","6502600","貢寮區"
"228005","828-UM","2018/05/22 14:19:28","新北市貢寮區美豐里雞母嶺街67號","121.896213333333","25.0646333333333","6502600","貢寮區"
"207002","749-BX","2018/05/22 14:18:47","新北市萬里區溪底里溪底路13號","121.614515","25.1491466666667","6502800","萬里區"
"207001","662-BX","2018/05/22 14:19:21","新北市萬里區磺潭里清水18號","121.637758333333","25.19769","6502800","萬里區"
"252005","AAC-283","2018/05/22 14:19:23","新北市三芝區橫山里大坑98-2號","121.526426666667","25.2603883333333","6502100","三芝區"
"236065","105-UM","2018/05/22 14:19:27","新北市土城區明德路一段128巷5號","121.463295","24.9790733333333","6501300","土城區"
"236040","107-UM","2018/05/22 14:19:25","新北市土城區樂利街3巷10號","121.448453333333","24.9862233333333","6501300","土城區"
"236074","166-UM","2018/05/22 14:19:32","新北市土城區中央路三段270號","121.42694","24.96379","6501300","土城區"
"236029","253-BX","2018/05/22 14:19:32","新北市土城區順風路63號","121.44011","24.9771966666667","6501300","土城區"
"236024","269-VK","2018/05/22 14:19:29","新北市土城區承天路65號","121.439721666667","24.9637216666667","6501300","土城區"
"236013","270-VK","2018/05/22 14:18:57","新北市土城區青雲路39巷7號","121.460308333333","24.98754","6501300","土城區"
"236032","271-VK","2018/05/22 14:19:31","新北市土城區青雲路451巷8弄9號","121.459581666667","24.9744183333333","6501300","土城區"
"236017","401-BY","2018/05/22 14:19:28","新北市土城區金城路二段204號","121.455005","24.9819116666667","6501300","土城區"
"236006","498-BY","2018/05/22 14:19:22","新北市土城區中華路一段70巷6號","121.444845","24.98851","6501300","土城區"
"236057","912-UM","2018/05/22 14:19:33","新北市土城區中央路四段450號","121.41046","24.9511966666667","6501300","土城區"
"236045","913-UM","2018/05/22 14:19:31","新北市土城區明德路一段280-1號","121.45716","24.97754","6501300","土城區"
"236060","915-UM","2018/05/22 14:19:31","新北市土城區延壽路46號","121.470833333333","24.991665","6501300","土城區"
"236054","AAC-216","2018/05/22 14:19:17","新北市土城區中華路二段104號","121.438043333333","24.9742966666667","6501300","土城區"
"242048","172-VK","2018/05/22 14:19:26","新北市板橋區金門街215巷57弄22-1號","121.43502","24.9899183333333","6500500","新莊區"
"220030","610-BX","2018/05/22 14:19:32","新北市板橋區金門街338號","121.428183333333","24.9845916666667","6500100","板橋區"
"220050","245-BX","2018/05/22 14:19:24","新北市板橋區莊敬路31-2號","121.473586666667","25.0276233333333","6500100","板橋區"
"220027","256-TC","2018/05/22 14:19:19","新北市板橋區民權路202巷17弄42號","121.459015","25.0166016666667","6500100","板橋區"
"220001","257-TC","2018/05/22 14:19:12","新北市板橋區縣民大道三段270巷12號","121.478426666667","25.02295","6500100","板橋區"
"220043","267-BY","2018/05/22 14:19:30","新北市板橋區吳鳳路19-5號","121.467083333333","25.0309366666667","6500100","板橋區"
"220004","276-BY","2018/05/22 14:19:28","新北市板橋區干城路12號","121.45969","24.9938383333333","6500100","板橋區"
"220020","277-BY","2018/05/22 14:19:25","新北市板橋區金門街337巷9弄1號","121.430378333333","24.9847033333333","6500100","板橋區"
"220038","280-UM","2018/05/22 14:19:31","新北市板橋區文化路二段31號","121.468876666667","25.0247033333333","6500100","板橋區"
"220031","286-VK","2018/05/22 14:19:31","新北市板橋區龍興街73巷6號","121.443665","25.0022166666667","6500100","板橋區"
"220029","287-VK","2018/05/22 14:19:24","新北市板橋區南雅南路一段106號","121.454923333333","25.004295","6500100","板橋區"
"220039","288-VK","2018/05/22 14:19:26","新北市板橋區長江路一段106巷13弄4號","121.46018","25.0291116666667","6500100","板橋區"
"220009","293-UM","2018/05/22 14:19:21","新北市板橋區中山路二段255巷7號","121.477015","25.0179516666667","6500100","板橋區"
"220010","295-UM","2018/05/22 14:19:32","新北市板橋區三民路二段153巷36弄2號","121.481165","25.0141316666667","6500100","板橋區"
"220032","296-UM","2018/05/22 14:19:30","新北市板橋區篤行路三段玉平巷76弄8號","121.427741666667","24.985695","6500100","板橋區"
"220034","297-UM","2018/05/22 14:19:12","新北市板橋區大智街22號","121.455685","25.01486","6500100","板橋區"
"220023","303-R5","2018/05/22 14:19:16","新北市板橋區南雅南路一段5巷19號","121.456393333333","25.00548","6500100","板橋區"
"220041","307-R5","2018/05/22 14:19:31","新北市板橋區光武街48巷18號","121.467841666667","25.0267833333333","6500100","板橋區"
"220047","317-R6","2018/05/22 14:19:13","新北市板橋區四維路206號","121.464046666667","25.0272666666667","6500100","板橋區"
"220012","486-VK","2018/05/22 14:19:20","新北市板橋區中山路一段32號","121.460548333333","25.0085133333333","6500100","板橋區"
"220037","491-VK","2018/05/22 14:19:29","新北市板橋區雙十路二段149號","121.47474","25.0281766666667","6500100","板橋區"
"220104","560-BX","2018/05/22 14:19:27","新北市板橋區中正路360巷9號","121.454885","25.0237416666667","6500100","板橋區"
"220052","561-BX","2018/05/22 14:19:24","新北市板橋區文化路一段188巷7弄16號","121.467641666667","25.0197016666667","6500100","板橋區"
"220011","609-BX","2018/05/22 14:19:15","新北市板橋區三民路二段203-2號","121.47916","25.01362","6500100","板橋區"
"220028","630-UY","2018/05/22 14:19:22","新北市板橋區大觀路二段19巷15號","121.447501666667","25.003205","6500100","板橋區"
"220040","637-BX","2018/05/22 14:19:14","新北市板橋區文聖街221號","121.480366666667","25.0257533333333","6500100","板橋區"
"220005","686-BX","2018/05/22 14:19:32","新北市中和區和平路200巷1-8號","121.46443","24.9953083333333","6500100","板橋區"
"220025","687-BX","2018/05/22 14:19:23","新北市板橋區大觀路二段115號","121.445998333333","25.001555","6500100","板橋區"
"220042","689-BX","2018/05/22 14:19:29","新北市板橋區漢生西路26號","121.46354","25.018185","6500100","板橋區"
"220002","741-BX","2018/05/22 14:19:04","新北市板橋區實踐路189號","121.464416666667","25.0032616666667","6500100","板橋區"
"220051","KEA-2699","2018/05/22 14:19:33","新北市板橋區大同街52號","121.47878","25.0275316666667","6500100","板橋區"
"220003","827-TW","2018/05/22 14:19:21","新北市板橋區館前東路156巷10號","121.464308333333","25.0072533333333","6500100","板橋區"
"220014","829-TW","2018/05/22 14:19:19","新北市板橋區長安街138巷3弄47號","121.474018333333","25.00968","6500100","板橋區"
"220016","830-TW","2018/05/22 14:19:22","新北市板橋區翠華街6巷70號","121.481733333333","25.025005","6500100","板橋區"
"220045","831-TW","2018/05/22 14:19:32","新北市板橋區大同街50巷26號","121.478915","25.0267116666667","6500100","板橋區"
"220022","895-R6","2018/05/22 14:19:23","新北市板橋區府中路111號","121.456543333333","25.0095983333333","6500100","板橋區"
"220021","985-R7","2018/05/22 14:19:32","新北市板橋區中正路360巷5號","121.45499","25.0240066666667","6500100","板橋區"
"220046","AAC-210","2018/05/22 14:19:34","新北市板橋區漢生西路89巷3弄28號","121.461305","25.019795","6500100","板橋區"
"220018","AAC-253","2018/05/22 14:19:32","新北市板橋區忠孝路120號","121.463068333333","25.002275","6500100","板橋區"
"235032","KEA-2873","2018/05/22 14:19:18","新北市中和區枋寮街4號","121.502321666667","24.9998216666667","6500300","中和區"
