"lineid","car","time","location","longitude","latitude","cityid","cityname"
"234068","552-UM","2018/05/22 14:49:30","新北市五股區新五路二段372巷20號","121.447738333333","25.0863866666667","6500400","永和區"
"234025","9371-KE","2018/05/22 14:49:29","新北市永和區雙和街43號","121.508926666667","25.0029233333333","6500400","永和區"
"248017","225-UY","2018/05/22 14:32:19","新北市五股區外寮路6-1號","121.42526","25.0753016666667","6501500","五股區"
"244002","248-BX","2018/05/22 14:49:28","新北市林口區竹林路269號","121.389551666667","25.0809966666667","6501700","林口區"
"231002","002-UM","2018/05/22 14:49:33","新北市新店區民權路46號","121.54014","24.9829783333333","6500600","新店區"
"231028","046-UY","2018/05/22 14:49:28","新北市新店區安德街106號","121.509423333333","24.96089","6500600","新店區"
"231001","047-UY","2018/05/22 14:49:34","新北市新店區三民路103號","121.53522","24.9720283333333","6500600","新店區"
"231005","106-UY","2018/05/22 14:49:19","新北市新店區復興路2號","121.532445","24.988255","6500600","新店區"
"231020","108-UY","2018/05/22 14:49:17","新北市新店區永福路54號","121.55816","24.9286583333333","6500600","新店區"
"231012","187-VK","2018/05/22 14:49:35","新北市新店區寶橋路77號","121.545811666667","24.975325","6500600","新店區"
"231023","KEA-2219","2018/05/22 14:49:22","新北市新店區檳榔路105號","121.544551666667","24.96173","6500600","新店區"
"231026","256-BX","2018/05/22 14:49:21","新北市新店區安康路一段206號","121.524123333333","24.9634833333333","6500600","新店區"
"231003","268-BY","2018/05/22 14:49:25","新北市新店區中興路二段197號","121.548281666667","24.973845","6500600","新店區"
"231018","278-BY","2018/05/22 14:49:20","新北市新店區中央六街6號","121.530291666667","24.9743983333333","6500600","新店區"
"231015","AAD-862","2018/05/22 14:49:15","新北市新店區北宜路二段617號","121.571265","24.9567516666667","6500600","新店區"
"231038","3712-VJ","2018/05/22 14:49:18","新北市新店區安一路一段1-1號","121.51959","24.961155","6500600","新店區"
"231027","3713-VJ","2018/05/22 14:49:33","新北市新店區安興路141號","121.51695","24.97944","6500600","新店區"
"231037","4716-K9","2018/05/22 14:47:25","新北市新店區柴埕路60巷32號","121.50597","24.96807","6500600","新店區"
"231025","4715-K9","2018/05/22 14:49:29","新北市新店區民族路104號","121.539103333333","24.97808","6500600","新店區"
"231036","512-UM","2018/05/22 14:49:13","新北市新店區安祥路104巷6弄36號","121.483088333333","24.9629583333333","6500600","新店區"
"231013","513-UM","2018/05/22 14:49:22","新北市新店區北新路一段128號","121.542175","24.9699683333333","6500600","新店區"
"231006","617-UM","2018/05/22 14:49:24","新北市新店區北宜路一段109巷2-1號","121.539826666667","24.9548216666667","6500600","新店區"
"231030","619-UM","2018/05/22 14:49:16","新北市新店區安民街316號","121.517558333333","24.9741883333333","6500600","新店區"
"231039","718-UY","2018/05/22 14:49:32","新北市新店區安一路一段1-1號","121.519728333333","24.9617366666667","6500600","新店區"
"231035","719-UY","2018/05/22 14:49:14","新北市新店區安利街26號","121.51924","24.9745716666667","6500600","新店區"
"231029","897-TW","2018/05/22 14:49:22","新北市新店區錦秀路11巷1號","121.479753333333","24.9447533333333","6500600","新店區"
"231004","899-TW","2018/05/22 14:49:18","新北市新店區建國路133號","121.539225","24.9782133333333","6500600","新店區"
"231024","AKT-0513","2018/05/22 14:49:15","新北市新店區力行路44號","121.538815","24.9653","6500600","新店區"
"235028","005-UY","2018/05/22 14:49:29","新北市中和區圓通路40號","121.500891666667","24.9977383333333","6500300","中和區"
"235027","006-UY","2018/05/22 14:49:18","新北市中和區連城路263巷23號","121.492621666667","24.9947983333333","6500300","中和區"
"235020","096-UM","2018/05/22 14:49:25","新北市中和區中山路三段100號","121.477046666667","25.00588","6500300","中和區"
"235003","097-UM","2018/05/22 14:49:29","新北市中和區安樂路217巷53號","121.51309","24.9976016666667","6500300","中和區"
"235029","098-UM","2018/05/22 14:49:28","新北市中和區福美路256巷8號","121.498165","25.005705","6500300","中和區"
"235004","150-BY","2018/05/22 14:49:30","新北市中和區安平路30號","121.509563333333","24.9948166666667","6500300","中和區"
"235022","151-BY","2018/05/22 14:49:18","新北市中和區員山路146巷24號","121.482491666667","24.9967916666667","6500300","中和區"
"235002","185-VK","2018/05/22 14:49:25","新北市中和區立人街24-4號","121.518893333333","24.9942216666667","6500300","中和區"
"235013","186-VK","2018/05/22 14:49:24","新北市中和區中正路62號","121.501355","24.99373","6500300","中和區"
"235031","255-BX","2018/05/22 14:49:17","新北市中和區新生街150號","121.483645","25.00062","6500300","中和區"
"235008","293-VK","2018/05/22 14:49:15","新北市中和區南山路231號","121.50358","24.9934466666667","6500300","中和區"
"235036","301-VK","2018/05/22 14:49:29","新北市中和區中和路74號","121.500758333333","25.0002433333333","6500300","中和區"
"235007","352-BY","2018/05/22 14:49:30","新北市中和區景平路336號","121.511856666667","24.9928983333333","6500300","中和區"
"235014","4979-A6","2018/05/22 14:49:31","新北市中和區景平路241巷82弄34號","121.506501666667","24.9924483333333","6500300","中和區"
"235033","4980-A6","2018/05/22 14:49:28","新北市中和區南山路37巷3弄9號","121.502596666667","24.9988016666667","6500300","中和區"
"235034","558-UM","2018/05/22 14:49:30","新北市中和區連勝街45號","121.498105","24.997575","6500300","中和區"
"235018","640-BX","2018/05/22 14:49:22","新北市中和區莒光路222-8號","121.469063333333","24.9948683333333","6500300","中和區"
"235024","647-TV","2018/05/22 14:49:26","新北市中和區員山路451號","121.48055","25.0041866666667","6500300","中和區"
"235010","733-UM","2018/05/22 14:49:12","新北市中和區仁愛街6號","121.510623333333","24.989225","6500300","中和區"
"235035","783-BX","2018/05/22 14:49:29","新北市中和區建一路92號","121.48796","25.00124","6500300","中和區"
"235026","800-TS","2018/05/22 14:49:29","新北市中和區中山路二段480號","121.48755","25.0048466666667","6500300","中和區"
"235021","801-TS","2018/05/22 14:49:33","新北市中和區員山路140號","121.481215","24.9964616666667","6500300","中和區"
"235005","802-TS","2018/05/22 14:49:25","新北市中和區宜安路98號","121.510521666667","24.9977433333333","6500300","中和區"
"235016","805-TS","2018/05/22 14:49:26","新北市中和區華新街146號","121.50783","24.9826683333333","6500300","中和區"
"235012","896-TW","2018/05/22 14:49:13","新北市中和區忠孝街103號","121.512045","24.986265","6500300","中和區"
"235017","900-TW","2018/05/22 14:49:33","新北市中和區國光街150號","121.468056666667","25.0014733333333","6500300","中和區"
"235035","911-UM","2018/05/22 14:49:15","新北市中和區南工路60號","121.5061","25.00176","6500300","中和區"
"235015","157-BY","2018/05/22 14:49:29","新北市中和區景安路198號","121.504263333333","24.9913533333333","6500300","中和區"
"235001","AAC-213","2018/05/22 14:49:31","新北市中和區秀朗路三段128巷1弄22號","121.523676666667","24.9915933333333","6500300","中和區"
"235023","AAC-215","2018/05/22 14:49:20","新北市中和區圓通路365號","121.491416666667","24.9896683333333","6500300","中和區"
"220019","015-TV","2018/05/22 14:49:30","新北市板橋區和平路153號","121.46343","24.9956833333333","6500100","板橋區"
"220013","072-UY","2018/05/22 14:49:16","新北市板橋區民族路278號","121.469996666667","25.00679","6500100","板橋區"
"220034","073-UY","2018/05/22 14:29:47","新北市板橋區華東街1-10號","121.448241666667","24.9950933333333","6500100","板橋區"
"220105","075-UY","2018/05/22 14:49:19","新北市板橋區民治街57巷26號","121.480135","25.0338483333333","6500100","板橋區"
"220017","AAD-861","2018/05/22 14:49:19","新北市板橋區大明街20巷19弄16號","121.458041666667","25.00335","6500100","板橋區"
"247013","546-UM","2018/05/22 14:49:27","新北市蘆洲區中山二路68號","121.47344","25.0820933333333","6501400","蘆洲區"
"247001","002-UY","2018/05/22 14:49:32","新北市蘆洲區長榮路317號","121.459186666667","25.086425","6501400","蘆洲區"
"228004","212-TW","2018/05/22 14:49:25","新北市貢寮區福隆里福隆街2巷29號","121.946316666667","25.0157633333333","6502600","貢寮區"
"228005","828-UM","2018/05/22 14:49:28","新北市貢寮區美豐里丹裡街65號","121.909405","25.0589116666667","6502600","貢寮區"
"207002","749-BX","2018/05/22 14:49:27","新北市萬里區崁腳里崁腳路73號","121.64754","25.1596266666667","6502800","萬里區"
"207001","662-BX","2018/05/22 14:49:21","新北市萬里區雙興里二坪路1-1號","121.650596666667","25.17693","6502800","萬里區"
"252005","AAC-283","2018/05/22 14:49:23","新北市三芝區埔坪里埔頭坑118號","121.517805","25.2450533333333","6502100","三芝區"
"236065","105-UM","2018/05/22 14:49:27","新北市土城區明德路二段65號","121.451606666667","24.9809316666667","6501300","土城區"
"236040","107-UM","2018/05/22 14:49:25","新北市土城區學府路一段225號","121.451291666667","24.984235","6501300","土城區"
"236074","166-UM","2018/05/22 14:49:32","新北市土城區中央路四段125巷7號","121.416691666667","24.9572666666667","6501300","土城區"
"236029","253-BX","2018/05/22 14:49:32","新北市土城區忠義路26巷10號","121.43983","24.9699083333333","6501300","土城區"
"236024","269-VK","2018/05/22 14:49:29","新北市土城區慶安街58號","121.44092","24.9730883333333","6501300","土城區"
"236013","270-VK","2018/05/22 14:49:17","新北市土城區金城路二段356號","121.461508333333","24.9851033333333","6501300","土城區"
"236032","271-VK","2018/05/22 14:49:31","新北市土城區明德路一段195巷3弄1號","121.464243333333","24.978495","6501300","土城區"
"236017","401-BY","2018/05/22 14:49:28","新北市土城區德峰街39號","121.467448333333","24.9856566666667","6501300","土城區"
"236057","912-UM","2018/05/22 14:49:33","新北市土城區和平路51-1號","121.44334","24.971795","6501300","土城區"
"236045","913-UM","2018/05/22 14:49:31","新北市土城區青雲路113號","121.458901666667","24.9848083333333","6501300","土城區"
"236060","915-UM","2018/05/22 14:49:31","新北市土城區金城路三段149巷9號","121.468093333333","24.98879","6501300","土城區"
"236054","AAC-216","2018/05/22 14:49:17","新北市土城區裕民路193號","121.453631666667","24.984245","6501300","土城區"
"221002","707-TV","2018/05/22 14:49:32","新北市汐止區莊敬街30號","121.657123333333","25.0614516666667","6501100","汐止區"
"220030","610-BX","2018/05/22 14:49:28","新北市板橋區篤行路二段105號","121.43172","24.9912366666667","6500100","板橋區"
"220050","245-BX","2018/05/22 14:49:20","新北市板橋區縣民大道三段79巷14號","121.475185","25.022035","6500100","板橋區"
"220027","256-TC","2018/05/22 14:49:25","新北市板橋區中正路183巷15號","121.455653333333","25.0160716666667","6500100","板橋區"
"220001","257-TC","2018/05/22 14:49:32","新北市板橋區中山路二段60巷39弄1號","121.47457","25.0146533333333","6500100","板橋區"
"220043","267-BY","2018/05/22 14:49:30","新北市板橋區長江路一段108號","121.459676666667","25.0295983333333","6500100","板橋區"
"220004","276-BY","2018/05/22 14:49:20","新北市板橋區四川路二段38號","121.453778333333","24.99542","6500100","板橋區"
"220020","277-BY","2018/05/22 14:49:25","新北市板橋區金門街151巷3弄20號","121.433265","24.9911","6500100","板橋區"
"220038","280-UM","2018/05/22 14:49:26","新北市板橋區英士路192-1號","121.458291666667","25.02364","6500100","板橋區"
"220031","286-VK","2018/05/22 14:49:20","新北市板橋區僑中二街48巷26號","121.445261666667","25.0104533333333","6500100","板橋區"
"220029","287-VK","2018/05/22 14:49:24","新北市板橋區僑中一街80巷12弄1號","121.448105","25.0132116666667","6500100","板橋區"
"220039","288-VK","2018/05/22 14:49:26","新北市板橋區新海路109巷1弄2號","121.460698333333","25.0224183333333","6500100","板橋區"
"220009","293-UM","2018/05/22 14:49:21","新北市板橋區觀光街68號","121.469895","25.01675","6500100","板橋區"
"220010","295-UM","2018/05/22 14:49:32","新北市板橋區中山路二段416巷56-3號","121.482835","25.019195","6500100","板橋區"
"220034","297-UM","2018/05/22 14:41:44","新北市板橋區中正路216巷116號","121.459355","25.0192366666667","6500100","板橋區"
"220023","303-R5","2018/05/22 14:49:30","新北市板橋區金華街1號","121.455436666667","25.0200833333333","6500100","板橋區"
"220041","307-R5","2018/05/22 14:49:31","新北市板橋區四維路259巷57號","121.461221666667","25.027025","6500100","板橋區"
"220047","317-R6","2018/05/22 14:49:32","新北市板橋區新海路385巷30號","121.457648333333","25.02538","6500100","板橋區"
"220012","486-VK","2018/05/22 14:49:18","新北市板橋區館前東路112號","121.463483333333","25.0076433333333","6500100","板橋區"
"220037","491-VK","2018/05/22 14:49:18","新北市板橋區松柏街85號","121.47682","25.03091","6500100","板橋區"
"220104","560-BX","2018/05/22 14:49:27","新北市板橋區新生街23巷4號","121.456136666667","25.0214983333333","6500100","板橋區"
"220052","561-BX","2018/05/22 14:49:24","新北市板橋區陽明街29巷8號","121.464931666667","25.0219","6500100","板橋區"
"220011","609-BX","2018/05/22 14:49:27","新北市板橋區中山路二段539巷18弄1號","121.48303","25.02236","6500100","板橋區"
"220028","630-UY","2018/05/22 14:49:31","新北市板橋區大觀路二段153巷21號","121.446478333333","25.0004383333333","6500100","板橋區"
"220040","637-BX","2018/05/22 14:49:14","新北市板橋區民治街81巷7號","121.480121666667","25.0322833333333","6500100","板橋區"
"220005","686-BX","2018/05/22 14:49:32","新北市板橋區信義路48號","121.457143333333","24.9944316666667","6500100","板橋區"
"220025","687-BX","2018/05/22 14:49:18","新北市板橋區僑中一街112號","121.446273333333","25.0117616666667","6500100","板橋區"
"220042","689-BX","2018/05/22 14:49:20","新北市板橋區民生路三段323號","121.463348333333","25.0311016666667","6500100","板橋區"
"220002","741-BX","2018/05/22 14:49:28","新北市板橋區忠孝路忠義巷9弄1-2號","121.465176666667","25.0045433333333","6500100","板橋區"
"220051","KEA-2699","2018/05/22 14:49:33","新北市板橋區文化路二段410巷10號","121.474073333333","25.031275","6500100","板橋區"
"220003","827-TW","2018/05/22 14:49:21","新北市板橋區仁愛路49巷1號","121.459861666667","24.9994783333333","6500100","板橋區"
"220014","829-TW","2018/05/22 14:49:19","新北市板橋區長安街331巷93弄1-4號","121.472113333333","25.0124483333333","6500100","板橋區"
"220016","830-TW","2018/05/22 14:49:26","新北市板橋區光復街180號","121.48526","25.0197016666667","6500100","板橋區"
"220045","831-TW","2018/05/22 14:49:30","新北市板橋區莒光路39巷18號","121.471031666667","25.0253183333333","6500100","板橋區"
"220022","895-R6","2018/05/22 14:49:23","新北市板橋區府中路11號","121.459788333333","25.009565","6500100","板橋區"
"220021","985-R7","2018/05/22 14:49:32","新北市板橋區南雅西路二段2-5號","121.453091666667","25.0091533333333","6500100","板橋區"
"220046","AAC-210","2018/05/22 14:49:19","新北市板橋區漢生西路56號","121.46308","25.0187183333333","6500100","板橋區"
"220018","AAC-253","2018/05/22 14:49:31","新北市板橋區館前東路116號","121.463683333333","25.0077966666667","6500100","板橋區"
"235032","KEA-2873","2018/05/22 14:49:17","新北市中和區福祥路87號","121.499013333333","25.0058133333333","6500300","中和區"
