"lineid","car","time","location","longitude","latitude","cityid","cityname"
"234068","552-UM","2018/05/22 15:09:30","新北市林口區太平里180號","121.368226666667","25.1346233333333","6500400","永和區"
"248017","225-UY","2018/05/22 15:09:19","新北市五股區水碓五路41號","121.428363333333","25.0709766666667","6501500","五股區"
"244002","248-BX","2018/05/22 15:09:28","新北市林口區竹林路265號","121.389648333333","25.0807366666667","6501700","林口區"
"231002","002-UM","2018/05/22 15:09:24","新北市新店區中正路543-4號","121.533748333333","24.987435","6500600","新店區"
"231028","046-UY","2018/05/22 15:09:28","新北市新店區僑信路111號","121.500585","24.9462783333333","6500600","新店區"
"231001","047-UY","2018/05/22 15:09:34","新北市新店區中正路188號","121.54085","24.9722066666667","6500600","新店區"
"231005","106-UY","2018/05/22 15:09:19","新北市新店區北新路三段126號","121.541588333333","24.9817816666667","6500600","新店區"
"231020","108-UY","2018/05/22 15:09:17","新北市新店區永福路36-8號","121.562095","24.928575","6500600","新店區"
"231012","187-VK","2018/05/22 15:09:35","新北市新店區寶元路一段65號","121.542235","24.985825","6500600","新店區"
"231023","KEA-2219","2018/05/22 15:09:22","新北市新店區檳榔路43巷2號","121.542993333333","24.9630266666667","6500600","新店區"
"231026","256-BX","2018/05/22 15:09:21","新北市新店區明德路61巷8號","121.540871666667","24.9760866666667","6500600","新店區"
"231003","268-BY","2018/05/22 15:09:25","新北市新店區寶橋路156-2號","121.548625","24.977005","6500600","新店區"
"231018","278-BY","2018/05/22 15:09:20","新北市新店區中央六街127號","121.524713333333","24.97778","6500600","新店區"
"231015","AAD-862","2018/05/22 15:02:15","新北市新店區明山路5號","121.563303333333","24.9553866666667","6500600","新店區"
"231038","3712-VJ","2018/05/22 15:09:18","新北市新店區安一路一段1-1號","121.519485","24.9611416666667","6500600","新店區"
"231037","4716-K9","2018/05/22 15:09:25","新北市新店區安興路56號","121.516615","24.974865","6500600","新店區"
"231025","4715-K9","2018/05/22 15:09:29","新北市新店區民權路107-2號","121.536443333333","24.9820833333333","6500600","新店區"
"231036","512-UM","2018/05/22 15:09:33","新北市新店區安祥路102巷98弄2號","121.487335","24.963645","6500600","新店區"
"231034","616-UM","2018/05/22 15:09:28","新北市新店區玫瑰路4-1號","121.493628333333","24.9514133333333","6500600","新店區"
"231006","617-UM","2018/05/22 15:09:24","新北市新店區新坡一街82號","121.547671666667","24.962175","6500600","新店區"
"231039","718-UY","2018/05/22 15:09:32","新北市新店區民權路21號","121.541903333333","24.9827533333333","6500600","新店區"
"231035","719-UY","2018/05/22 15:09:34","新北市新店區安和路三段110巷9號","121.517515","24.9857716666667","6500600","新店區"
"231032","720-UM","2018/05/22 15:09:17","新北市新店區安泰路76號","121.486056666667","24.945325","6500600","新店區"
"231029","897-TW","2018/05/22 15:09:22","新北市新店區安康路三段738號","121.473858333333","24.94204","6500600","新店區"
"231004","899-TW","2018/05/22 15:09:25","新北市新店區建國路33巷2號","121.540321666667","24.9742666666667","6500600","新店區"
"231024","AKT-0513","2018/05/22 15:09:15","新北市新店區北新路一段297巷8號","121.541058333333","24.9676216666667","6500600","新店區"
"235020","096-UM","2018/05/22 15:09:25","新北市中和區中山路三段170巷2弄15號","121.473323333333","25.0067733333333","6500300","中和區"
"235003","097-UM","2018/05/22 15:09:29","新北市新店區安民街133巷26號","121.515456666667","24.9696533333333","6500300","中和區"
"235004","150-BY","2018/05/22 15:09:30","新北市中和區保健路19巷2弄2號","121.508325","24.9982733333333","6500300","中和區"
"235036","301-VK","2018/05/22 15:09:29","新北市中和區中正路440號","121.491058333333","24.9942266666667","6500300","中和區"
"235007","352-BY","2018/05/22 15:09:29","新北市中和區興南路二段159巷1-2號","121.505158333333","24.98335","6500300","中和區"
"235014","4979-A6","2018/05/22 15:09:31","新北市中和區景新街323-1號","121.511311666667","24.9921233333333","6500300","中和區"
"235033","4980-A6","2018/05/22 15:09:28","新北市中和區中正路550號","121.487116666667","24.99474","6500300","中和區"
"235034","558-UM","2018/05/22 15:09:30","新北市中和區中正路292號","121.494508333333","24.9941216666667","6500300","中和區"
"235035","783-BX","2018/05/22 15:09:29","新北市中和區中正路988巷7號","121.481973333333","25.0099033333333","6500300","中和區"
"235012","896-TW","2018/05/22 15:09:33","新北市中和區興南路二段32巷1號","121.507236666667","24.9856466666667","6500300","中和區"
"235030","911-UM","2018/05/22 15:09:15","新北市中和區水源路127巷2弄2號","121.508126666667","25.0040133333333","6500300","中和區"
"235001","AAC-213","2018/05/22 15:09:30","新北市中和區秀朗路三段179號","121.524455","24.990615","6500300","中和區"
"235023","AAC-215","2018/05/22 15:09:20","新北市中和區圓通路367巷13弄81號","121.493633333333","24.9877266666667","6500300","中和區"
"220019","015-TV","2018/05/22 15:09:30","新北市土城區四川路16號","121.455473333333","24.9960266666667","6500100","板橋區"
"228004","212-TW","2018/05/22 15:09:25","新北市貢寮區雙玉里田寮洋街17號","121.921821666667","25.0247533333333","6502600","貢寮區"
"207002","749-BX","2018/05/22 15:09:27","新北市萬里區崁腳里內中福路89號","121.655065","25.16525","6502800","萬里區"
"207001","662-BX","2018/05/22 15:09:01","新北市萬里區大鵬里萬里加投14號","121.650006666667","25.2087966666667","6502800","萬里區"
"236065","105-UM","2018/05/22 15:09:27","新北市土城區學成路132號","121.449085","24.9895666666667","6501300","土城區"
"236040","107-UM","2018/05/22 15:09:25","新北市土城區金城路二段245巷40號","121.455438333333","24.983175","6501300","土城區"
"236074","166-UM","2018/05/22 15:09:34","新北市土城區中州路27巷68-1號","121.412751666667","24.9565316666667","6501300","土城區"
"236029","253-BX","2018/05/22 15:09:32","新北市土城區中央路二段80巷11弄2號","121.441113333333","24.979445","6501300","土城區"
"236024","269-VK","2018/05/22 15:09:29","新北市土城區中央路二段149巷18號","121.442986666667","24.976575","6501300","土城區"
"236013","270-VK","2018/05/22 15:09:17","新北市土城區學府路一段23巷36號","121.457341666667","24.9869733333333","6501300","土城區"
"236032","271-VK","2018/05/22 15:09:31","新北市土城區明德路一段163號","121.464593333333","24.97954","6501300","土城區"
"236017","401-BY","2018/05/22 15:09:28","新北市土城區峰廷街18號","121.469016666667","24.9873116666667","6501300","土城區"
"236057","912-UM","2018/05/22 15:09:13","新北市土城區金城路2段39巷3-1號","121.449846666667","24.9778916666667","6501300","土城區"
"236045","913-UM","2018/05/22 15:09:31","新北市土城區清水路217號","121.46063","24.9821383333333","6501300","土城區"
"236060","915-UM","2018/05/22 15:09:31","新北市土城區延平街35號","121.468018333333","24.9917833333333","6501300","土城區"
"236054","AAC-216","2018/05/22 15:09:17","新北市土城區學府路一段276號","121.44999","24.9830966666667","6501300","土城區"
"220034","200-UY","2018/05/22 15:09:32","新北市板橋區中正路250巷74號","121.458328333333","25.019715","6500100","板橋區"
"220050","245-BX","2018/05/22 15:09:20","新北市板橋區雙十路二段47巷2弄14號","121.475806666667","25.0265883333333","6500100","板橋區"
"220001","257-TC","2018/05/22 15:09:32","新北市板橋區中山路二段244號","121.478525","25.018195","6500100","板橋區"
"220020","277-BY","2018/05/22 15:09:25","新北市板橋區華東街1-8號","121.447721666667","24.994895","6500100","板橋區"
"220038","280-UM","2018/05/22 15:09:26","新北市板橋區互助街89號","121.459703333333","25.025795","6500100","板橋區"
"220031","286-VK","2018/05/22 15:09:20","新北市板橋區僑中二街104巷3號","121.445791666667","25.0079083333333","6500100","板橋區"
"220009","293-UM","2018/05/22 15:09:01","新北市板橋區四川路一段286巷14號","121.458178333333","25.0010333333333","6500100","板橋區"
"220010","295-UM","2018/05/22 15:09:32","新北市板橋區民生路二段120號","121.470313333333","25.0199166666667","6500100","板橋區"
"220034","297-UM","2018/05/22 15:09:29","新北市板橋區中正路48號","121.456415","25.014135","6500100","板橋區"
"220041","307-R5","2018/05/22 15:09:32","新北市板橋區文化路一段101巷7號","121.460636666667","25.0142666666667","6500100","板橋區"
"220012","486-VK","2018/05/22 15:09:23","新北市板橋區漢生東路193巷21-2號","121.470803333333","25.0121666666667","6500100","板橋區"
"220037","491-VK","2018/05/22 15:09:18","新北市板橋區懷德街127巷26-3號","121.479646666667","25.0312233333333","6500100","板橋區"
"220052","561-BX","2018/05/22 15:09:24","新北市板橋區陽明街279巷42-4號","121.460801666667","25.0255816666667","6500100","板橋區"
"220011","609-BX","2018/05/22 15:09:15","新北市板橋區中山路二段91號","121.474211666667","25.0159066666667","6500100","板橋區"
"220025","687-BX","2018/05/22 15:09:32","新北市板橋區大觀路一段28巷1弄104號","121.45149","25.0061366666667","6500100","板橋區"
"220042","689-BX","2018/05/22 15:09:20","新北市板橋區長江路二段278-1號","121.469813333333","25.0328883333333","6500100","板橋區"
"220051","KEA-2699","2018/05/22 15:09:13","新北市板橋區文聖街76號","121.477241666667","25.03029","6500100","板橋區"
"220003","827-TW","2018/05/22 15:09:21","新北市板橋區南雅南路二段114號","121.453515","25.00048","6500100","板橋區"
"220014","829-TW","2018/05/22 15:09:19","新北市板橋區中山路二段268號","121.479031666667","25.01855","6500100","板橋區"
"220016","830-TW","2018/05/22 15:09:21","新北市板橋區中山路二段492號","121.485361666667","25.0220733333333","6500100","板橋區"
"220046","AAC-210","2018/05/22 15:09:19","新北市板橋區光正街36號","121.462003333333","25.01748","6500100","板橋區"
"220018","AAC-253","2018/05/22 15:09:31","新北市板橋區四川路二段245巷37弄12號","121.45235","24.99256","6500100","板橋區"
"235032","KEA-2873","2018/05/22 15:09:31","新北市中和區錦和路142巷1號","121.489296666667","24.997555","6500300","中和區"
