"lineid","car","time","location","longitude","latitude","cityid","cityname"
"231020","108-UY","2018/05/22 15:49:17","新北市新店區新烏路一段107號","121.545746666667","24.9403466666667","6500600","新店區"
"231012","187-VK","2018/05/22 15:49:22","新北市新店區中興路三段156號","121.544591666667","24.980715","6500600","新店區"
"231046","188-VK","2018/05/22 15:49:23","新北市新店區安華路28-1號","121.519645","24.961015","6500600","新店區"
"231023","KEA-2219","2018/05/22 15:49:22","新北市新店區北新路一段103號","121.53914","24.962155","6500600","新店區"
"231026","256-BX","2018/05/22 15:49:21","新北市新店區中正路541-1號","121.53346","24.9866816666667","6500600","新店區"
"231003","268-BY","2018/05/22 15:49:25","新北市新店區寶興路60巷3號","121.549926666667","24.9718183333333","6500600","新店區"
"231018","278-BY","2018/05/22 15:49:20","新北市新店區中正路663巷1弄2號","121.533006666667","24.9900166666667","6500600","新店區"
"231015","AAD-862","2018/05/22 15:49:34","新北市新店區中華路83巷4弄10號","121.538573333333","24.9684733333333","6500600","新店區"
"231038","3712-VJ","2018/05/22 15:49:18","新北市新店區安康路二段228巷35弄7號","121.509435","24.96006","6500600","新店區"
"231037","4716-K9","2018/05/22 15:49:25","新北市新店區安興路61號","121.516096666667","24.972545","6500600","新店區"
"231013","513-UM","2018/05/22 15:49:32","新北市新店區永業路81巷1弄1-1號","121.529668333333","24.949395","6500600","新店區"
"231034","616-UM","2018/05/22 15:49:28","新北市新店區吉祥街15巷1號","121.497778333333","24.9455866666667","6500600","新店區"
"231030","619-UM","2018/05/22 15:49:35","新北市新店區永安街58號","121.518571666667","24.986835","6500600","新店區"
"231035","719-UY","2018/05/22 15:49:34","新北市新店區安興路96-1號","121.515196666667","24.9765266666667","6500600","新店區"
"231032","720-UM","2018/05/22 15:49:17","新北市新店區雙城路60巷16弄13號","121.491731666667","24.9478566666667","6500600","新店區"
"241011","013-R5","2018/05/22 15:49:36","新北市三重區三和路二段228號","121.497541666667","25.0696583333333","6500200","三重區"
"241028","022-UY","2018/05/22 15:49:16","新北市三重區中正南路46號","121.493915","25.0599733333333","6500200","三重區"
"241008","059-VK","2018/05/22 15:49:19","新北市三重區忠孝路三段84巷5號","121.48015","25.0643716666667","6500200","三重區"
"241015","062-VK","2018/05/22 15:49:19","新北市三重區重新路四段121號","121.485225","25.0518866666667","6500200","三重區"
"241017","063-VK","2018/05/22 15:49:15","新北市三重區大仁街38號","121.49163","25.0642283333333","6500200","三重區"
"241005","262-UM","2018/05/22 15:49:27","新北市三重區環河南路99號","121.500983333333","25.0578266666667","6500200","三重區"
"241016","266-UM","2018/05/22 15:49:30","新北市三重區重新路四段121號","121.485155","25.0520833333333","6500200","三重區"
"241013","270-UM","2018/05/22 15:49:15","新北市三重區三和路三段42號","121.495823333333","25.0707483333333","6500200","三重區"
"241025","271-UM","2018/05/22 15:49:26","新北市三重區捷運路36號","121.48295","25.0550516666667","6500200","三重區"
"241007","398-BY","2018/05/22 15:49:33","新北市三重區捷運路36號","121.48289","25.055055","6500200","三重區"
"241004","475-VK","2018/05/22 15:49:21","新北市三重區重新路四段121號","121.484853333333","25.0519","6500200","三重區"
"241030","480-VK","2018/05/22 15:49:19","新北市三重區重新路四段121號","121.484835","25.0526533333333","6500200","三重區"
"241014","543-UM","2018/05/22 15:49:28","新北市三重區重新路四段121號","121.485095","25.0518316666667","6500200","三重區"
"241023","545-UM","2018/05/22 15:49:28","新北市三重區捷運路36號","121.482976666667","25.0550233333333","6500200","三重區"
"241001","547-UM","2018/05/22 15:49:26","新北市三重區重新路四段121號","121.484613333333","25.052255","6500200","三重區"
"241019","KEA-2593","2018/05/22 15:49:20","新北市三重區重新路四段121號","121.485106666667","25.051845","6500200","三重區"
"241006","AAD-863","2018/05/22 15:49:15","新北市三重區重新路四段121號","121.48474","25.0520683333333","6500200","三重區"
"241024","887-TS","2018/05/22 15:49:24","新北市三重區名源街29巷2號","121.48018","25.0605333333333","6500200","三重區"
"241012","941-UM","2018/05/22 15:49:18","新北市三重區文化北路85巷2號","121.498371666667","25.0671883333333","6500200","三重區"
"241029","942-UM","2018/05/22 15:49:26","新北市三重區大同南路159號","121.496885","25.0558283333333","6500200","三重區"
"241033","AAC-255","2018/05/22 15:49:29","新北市三重區興德路82號","121.474151666667","25.05297","6500200","三重區"
"235046","733-UM","2018/05/22 15:30:36","新北市中和區員山路36巷13號","121.484165","24.9908066666667","6500300","中和區"
"235026","800-TS","2018/05/22 15:49:29","新北市中和區板南路448-1號","121.48974","25.005305","6500300","中和區"
"235023","AAC-215","2018/05/22 15:49:20","新北市中和區員山路49號","121.481245","24.9927516666667","6500300","中和區"
"227009","642-TC","2018/05/22 15:49:18","新北市雙溪區牡丹里中正路54號","121.865461666667","25.04028","6502500","雙溪區"
"227003","400-TW","2018/05/22 15:49:31","新北市雙溪區平林里外平林44號","121.85291","25.0363366666667","6502500","雙溪區"
"236065","105-UM","2018/05/22 15:49:27","新北市土城區中山路38號","121.42535","24.964275","6501300","土城區"
"236074","166-UM","2018/05/22 15:49:32","新北市土城區福安街2-1號","121.420136666667","24.96513","6501300","土城區"
"236029","253-BX","2018/05/22 15:49:32","新北市土城區永和街2巷4號","121.434515","24.964945","6501300","土城區"
"236017","401-BY","2018/05/22 15:49:36","新北市土城區和城路二段253號","121.473105","24.9874233333333","6501300","土城區"
"236057","912-UM","2018/05/22 15:49:33","新北市土城區中央路二段94號","121.44232","24.9786433333333","6501300","土城區"
"236054","AAC-216","2018/05/22 15:49:27","新北市土城區中華路一段208-2號","121.440088333333","24.9804066666667","6501300","土城區"
"220034","297-UM","2018/05/22 15:23:46","新北市板橋區板城路327號","121.449318333333","24.9977616666667","6500100","板橋區"
"220018","AAC-253","2018/05/22 15:38:30","新北市板橋區華東街1-9號","121.448261666667","24.99488","6500100","板橋區"
