"lineid","car","time","location","longitude","latitude","cityid","cityname"
"234007","207-UY","2018/05/22 18:09:29","新北市永和區環河東路二段30號","121.522715","25.012725","6500400","永和區"
"234042","862-TW","2018/05/22 18:09:35","新北市永和區福和路1號","121.526418333333","25.00959","6500400","永和區"
"234026","9371-KE","2018/05/22 18:09:31","新北市永和區中和路625號","121.512923333333","25.004985","6500400","永和區"
"234011","9373-KE","2018/05/22 17:49:44","新北市永和區福和路1號","121.525628333333","25.009315","6500400","永和區"
"249005","172-UM","2018/05/22 18:09:32","新北市八里區荖阡坑路15-40號","121.401726666667","25.1397083333333","6502300","八里區"
"249001","173-UM","2018/05/22 18:09:29","新北市八里區龍米路二段36號","121.448636666667","25.14017","6502300","八里區"
"249004","303-UY","2018/05/22 18:09:29","新北市八里區龍米路二段148號","121.436731666667","25.1562416666667","6502300","八里區"
"249002","305-UY","2018/05/22 18:09:38","新北市八里區龍米路一段386巷8號","121.452358333333","25.1317783333333","6502300","八里區"
"249003","593-UM","2018/05/22 18:09:20","新北市八里區中華路二段249-5號","121.40435","25.1487033333333","6502300","八里區"
"248006","077-UY","2018/05/22 18:09:20","新北市五股區中興路二段82號","121.460808333333","25.0772633333333","6501500","五股區"
"248008","095-VK","2018/05/22 18:09:27","新北市五股區中興路二段182巷15弄13號","121.457306666667","25.0814816666667","6501500","五股區"
"248020","225-UY","2018/05/22 18:09:21","新北市五股區成泰路三段544-1號","121.454591666667","25.100445","6501500","五股區"
"248014","261-SL","2018/05/22 18:09:38","新北市五股區成泰路一段189巷19號","121.433868333333","25.07649","6501500","五股區"
"248004","677-BX","2018/05/22 18:09:23","新北市五股區工商路48號","121.43914","25.083985","6501500","五股區"
"248002","678-BX","2018/05/22 18:09:33","新北市五股區成泰路三段101-1號","121.444181666667","25.0903116666667","6501500","五股區"
"248010","682-TV","2018/05/22 18:09:29","新北市五股區成泰路一段229-1號","121.43419","25.0776566666667","6501500","五股區"
"232011","375-UM","2018/05/22 18:09:27","新北市坪林區國中路4號","121.713458333333","24.938775","6502000","坪林區"
"244013","069-UM","2018/05/22 18:09:36","新北市林口區中山路20號","121.396066666667","25.0783766666667","6501700","林口區"
"244007","080-UY","2018/05/22 18:09:37","新北市林口區林口路197號","121.387646666667","25.0825783333333","6501700","林口區"
"244019","403-UM","2018/05/22 18:09:27","新北市林口區忠孝路555號","121.372466666667","25.0684833333333","6501700","林口區"
"244009","410-SL","2018/05/22 18:09:28","新北市林口區佳林路97號","121.385846666667","25.0802733333333","6501700","林口區"
"244023","483-VK","2018/05/22 18:09:30","新北市林口區東湖路153巷135號","121.382186666667","25.0735833333333","6501700","林口區"
"244017","485-VK","2018/05/22 18:09:35","新北市林口區文化一路一段57-2號","121.371035","25.0698483333333","6501700","林口區"
"244011","657-BX","2018/05/22 18:09:33","新北市林口區粉寮路一段41號","121.396528333333","25.0773966666667","6501700","林口區"
"244025","837-TS","2018/05/22 18:09:31","新北市林口區文化北路一段192-100號","121.357595","25.070545","6501700","林口區"
"244021","838-TS","2018/05/22 18:09:30","新北市林口區自強一街113號","121.400783333333","25.0763983333333","6501700","林口區"
"222003","436-BY","2018/05/22 18:09:33","新北市深坑區阿柔洋47號","121.611788333333","24.9972716666667","6501800","深坑區"
"222002","659-BX","2018/05/22 18:09:23","新北市深坑區文化街52號","121.618931666667","25.0015316666667","6501800","深坑區"
"231041","002-UM","2018/05/22 18:09:23","新北市新店區安華路28-1號","121.519593333333","24.9608583333333","6500600","新店區"
"231059","046-UY","2018/05/22 18:09:36","新北市新店區安華路28-1號","121.519515","24.9608233333333","6500600","新店區"
"231040","047-UY","2018/05/22 18:09:31","新北市新店區安華路28-1號","121.51932","24.9609216666667","6500600","新店區"
"231044","106-UY","2018/05/22 18:09:38","新北市新店區安華路28-1號","121.519716666667","24.9608366666667","6500600","新店區"
"231053","108-UY","2018/05/22 18:09:30","新北市新店區安華路28-1號","121.519445","24.9609633333333","6500600","新店區"
"231046","188-VK","2018/05/22 18:09:23","新北市新店區直潭七街60號","121.532245","24.939865","6500600","新店區"
"231054","KEA-2219","2018/05/22 18:09:32","新北市新店區安一路一段1-1號","121.519321666667","24.9612166666667","6500600","新店區"
"231042","268-BY","2018/05/22 18:09:27","新北市新店區安華路1-1號","121.519385","24.9605066666667","6500600","新店區"
"231050","AAD-862","2018/05/22 18:09:36","新北市新店區安一路一段1-1號","121.519676666667","24.96112","6500600","新店區"
"231058","3713-VJ","2018/05/22 18:09:20","新北市新店區安華路28-1號","121.519241666667","24.9606816666667","6500600","新店區"
"231037","4716-K9","2018/05/22 18:09:38","新北市新店區安一路一段1-1號","121.519436666667","24.961085","6500600","新店區"
"231056","4715-K9","2018/05/22 18:09:22","新北市新店區安華路1-1號","121.519391666667","24.9605366666667","6500600","新店區"
"231049","513-UM","2018/05/22 18:09:39","新北市新店區安一路一段1-1號","121.519633333333","24.9611233333333","6500600","新店區"
"231063","616-UM","2018/05/22 18:09:35","新北市新店區安華路1-1號","121.51945","24.9604633333333","6500600","新店區"
"231045","617-UM","2018/05/22 18:09:31","新北市新店區安華路28-1號","121.519456666667","24.9607966666667","6500600","新店區"
"231061","619-UM","2018/05/22 18:09:21","新北市新店區安華路28-1號","121.519533333333","24.9608633333333","6500600","新店區"
"231064","719-UY","2018/05/22 18:09:26","新北市新店區安一路一段1-1號","121.519558333333","24.9610783333333","6500600","新店區"
"231062","720-UM","2018/05/22 18:09:31","新北市新店區安一路一段1-1號","121.519396666667","24.9611783333333","6500600","新店區"
"231055","AKT-0513","2018/05/22 18:09:23","新北市新店區安華路28-1號","121.51944","24.9605516666667","6500600","新店區"
"241028","022-UY","2018/05/22 18:09:36","新北市三重區光復路二段178號","121.471668333333","25.0622583333333","6500200","三重區"
"241024","887-TS","2018/05/22 18:09:24","新北市三重區中正北路203號","121.476836666667","25.0700016666667","6500200","三重區"
"241033","AAC-255","2018/05/22 18:09:29","新北市三重區中興北街62號","121.468955","25.0516716666667","6500200","三重區"
"235064","005-UY","2018/05/22 18:09:30","新北市中和區中正路161巷2號","121.498405","24.993515","6500300","中和區"
"235063","006-UY","2018/05/22 18:09:28","新北市中和區員山路36巷16-3號","121.485116666667","24.99127","6500300","中和區"
"235047","031-BX","2018/05/22 18:09:31","新北市中和區錦和路350-1號","121.490545","24.993565","6500300","中和區"
"235065","098-UM","2018/05/22 18:09:18","新北市中和區莊敬路49巷18號","121.501678333333","25.00614","6500300","中和區"
"235058","151-BY","2018/05/22 18:09:30","新北市中和區圓通路367巷33弄4號","121.49365","24.9854683333333","6500300","中和區"
"235038","185-VK","2018/05/22 18:09:28","新北市中和區大仁街120號","121.520725","24.9919616666667","6500300","中和區"
"235067","255-BX","2018/05/22 18:09:27","新北市中和區和城路一段271巷1號","121.485976666667","24.991785","6500300","中和區"
"235043","352-BY","2018/05/22 18:09:27","新北市中和區中正路637巷52弄1號","121.485503333333","24.99342","6500300","中和區"
"235050","4979-A6","2018/05/22 18:09:27","新北市中和區錦和路350-1號","121.490448333333","24.9935633333333","6500300","中和區"
"235069","4980-A6","2018/05/22 18:09:26","新北市中和區中正路637巷52弄1號","121.485448333333","24.99345","6500300","中和區"
"235042","551-UM","2018/05/22 18:09:28","新北市中和區興南路一段20-1號","121.511333333333","24.9910083333333","6500300","中和區"
"235070","558-UM","2018/05/22 18:09:31","新北市中和區中正路305號","121.492305","24.9938833333333","6500300","中和區"
"235045","565-BX","2018/05/22 18:09:20","新北市中和區錦和路350-1號","121.49046","24.9935983333333","6500300","中和區"
"235054","640-BX","2018/05/22 18:09:23","新北市中和區莒光路207-8號","121.470473333333","24.996395","6500300","中和區"
"235060","647-TV","2018/05/22 18:09:32","新北市中和區員山路36巷16-3號","121.484878333333","24.9916166666667","6500300","中和區"
"235062","800-TS","2018/05/22 18:07:52","新北市中和區民樂路76號","121.484311666667","25.0011666666667","6500300","中和區"
"235057","801-TS","2018/05/22 18:09:36","新北市中和區員山路36巷13號","121.484263333333","24.9907633333333","6500300","中和區"
"235052","805-TS","2018/05/22 18:09:28","新北市中和區錦和路350-1號","121.490078333333","24.99356","6500300","中和區"
"235053","900-TW","2018/05/22 18:09:27","新北市中和區員山路36巷16-2號","121.485046666667","24.9918166666667","6500300","中和區"
"235066","911-UM","2018/05/22 18:09:29","新北市中和區中正路222號","121.4964","24.9940433333333","6500300","中和區"
"235051","157-BY","2018/05/22 18:09:35","新北市中和區南山路152號","121.504256666667","24.9921516666667","6500300","中和區"
"235037","AAC-213","2018/05/22 18:09:29","新北市中和區景平路149號","121.51383","24.9922566666667","6500300","中和區"
"226004","312-R5","2018/05/22 18:09:09","新北市平溪區薯榔里薯榔寮20號","121.71636","25.0196116666667","6502400","平溪區"
"228001","212-TW","2018/05/22 18:09:20","新北市貢寮區真理里新港街26巷55弄2-1號","121.927388333333","25.0528716666667","6502600","貢寮區"
"228002","663-BX","2018/05/22 18:09:24","新北市貢寮區福連里馬崗街2-7號","121.999158333333","25.0138633333333","6502600","貢寮區"
"228003","828-UM","2018/05/22 18:09:36","新北市貢寮區真理里美艷山街6-2號","121.92875","25.06076","6502600","貢寮區"
"224006","676-BX","2018/05/22 18:09:30","新北市瑞芳區民權街3-2號","121.8082","25.1074766666667","6501200","瑞芳區"
"224002","639-TC","2018/05/22 18:09:31","新北市瑞芳區三爪子坑路64-38號","121.808731666667","25.1055216666667","6501200","瑞芳區"
"224008","285-BY","2018/05/22 18:09:37","新北市瑞芳區員山子路23號","121.82139","25.103005","6501200","瑞芳區"
"224007","275-VK","2018/05/22 18:09:39","新北市瑞芳區四腳亭坑路3-1號","121.776886666667","25.109385","6501200","瑞芳區"
"224009","273-VK","2018/05/22 18:09:21","新北市瑞芳區金光路117號","121.853578333333","25.1062366666667","6501200","瑞芳區"
"224005","271-BY","2018/05/22 18:09:24","新北市瑞芳區深澳路1號","121.81632","25.1283433333333","6501200","瑞芳區"
"227009","642-TC","2018/05/22 18:09:18","新北市雙溪區三貂里定福路1-2號","121.85075","25.06338","6502500","雙溪區"
"253005","032-BX","2018/05/22 18:09:35","新北市石門區福安街17號","121.568701666667","25.292655","6502200","石門區"
"253006","295-VK","2018/05/22 18:09:17","新北市石門區老梅路52巷21號","121.546416666667","25.288595","6502200","石門區"
"222001","KEA-2212","2018/05/22 18:09:30","新北市深坑區北深路二段184號","121.61407","25.0022983333333","6501800","深坑區"
"208002","KEA-2872","2018/05/22 18:09:28","新北市金山區三界壇路99巷5號","121.622016666667","25.228815","6502700","金山區"
"208003","665-BX","2018/05/22 18:09:24","新北市金山區磺港里磺港路307號","121.643836666667","25.22731","6502700","金山區"
"208001","761-BX","2018/05/22 18:09:28","新北市金山區磺港里磺港路109號","121.646411666667","25.2268366666667","6502700","金山區"
"251004","009-UM","2018/05/22 18:09:22","新北市淡水區民族路53號","121.462871666667","25.1351733333333","6501000","淡水區"
"251005","010-UM","2018/05/22 18:09:31","新北市淡水區水源街一段139號","121.447168333333","25.171875","6501000","淡水區"
"251001","011-UM","2018/05/22 18:09:39","新北市淡水區自立路8-2號","121.46289","25.12968","6501000","淡水區"
"251002","012-UM","2018/05/22 18:09:33","新北市淡水區中正東路一段127巷2號","121.455466666667","25.1593233333333","6501000","淡水區"
"251013","KEA-2871","2018/05/22 18:09:27","新北市淡水區竹圍子9-6號","121.476653333333","25.1926733333333","6501000","淡水區"
"251016","179-VK","2018/05/22 18:09:30","新北市淡水區下圭柔山14-1號","121.45096","25.20068","6501000","淡水區"
"251014","180-VK","2018/05/22 18:09:36","新北市淡水區南平15號","121.488568333333","25.21899","6501000","淡水區"
"251008","181-VK","2018/05/22 18:09:35","新北市淡水區淡金路16巷62弄1號","121.459988333333","25.1609816666667","6501000","淡水區"
"251015","182-VK","2018/05/22 18:09:29","新北市淡水區興福寮66巷539號","121.484578333333","25.1650966666667","6501000","淡水區"
"251010","413-VK","2018/05/22 18:09:34","新北市淡水區中正路二段50巷10號","121.419843333333","25.1833416666667","6501000","淡水區"
"251012","443-VK","2018/05/22 18:09:37","新北市淡水區北新路三段174號","121.492851666667","25.1928333333333","6501000","淡水區"
"251006","561-UM","2018/05/22 18:09:27","新北市淡水區新民街65號","121.438491666667","25.176405","6501000","淡水區"
"251009","575-R6","2018/05/22 18:09:22","新北市淡水區大忠街34巷23號","121.444275","25.1757783333333","6501000","淡水區"
"251011","650-BX","2018/05/22 18:09:30","新北市淡水區三空泉9-2號","121.474016666667","25.1634383333333","6501000","淡水區"
"251003","673-BX","2018/05/22 18:09:27","新北市淡水區大忠街113巷29號","121.447591666667","25.1774616666667","6501000","淡水區"
"207003","550-UM","2018/05/22 18:09:21","新北市萬里區野柳里港西路701-2號","121.685328333333","25.204655","6502800","萬里區"
"207004","225-TW","2018/05/22 18:09:25","新北市萬里區中幅里中福路93號","121.675513333333","25.1697266666667","6502800","萬里區"
"252002","178-VK","2018/05/22 18:09:31","新北市三芝區中山路二段41號","121.502938333333","25.25508","6502100","三芝區"
"252003","249-BX","2018/05/22 18:09:30","新北市三芝區埔頭里埔頭37號","121.498473333333","25.2602933333333","6502100","三芝區"
"252001","292-VK","2018/05/22 18:09:20","新北市三芝區中興街二段2號","121.498326666667","25.256655","6502100","三芝區"
"237004","KEA-2597","2018/05/22 18:09:19","新北市三峽區大埔路357號","121.371193333333","24.8956683333333","6500900","三峽區"
"237007","153-BY","2018/05/22 18:09:20","新北市三峽區中正路二段370巷75號","121.364495","24.9113916666667","6500900","三峽區"
"237011","572-TV","2018/05/22 18:09:20","新北市三峽區溪東路182號","121.406675","24.9325733333333","6500900","三峽區"
"237009","210-TH","2018/05/22 18:09:33","新北市三峽區大仁路52號","121.36534","24.9376266666667","6500900","三峽區"
"237013","252-BX","2018/05/22 18:09:27","新北市三峽區長泰街5巷21號","121.377746666667","24.9312583333333","6500900","三峽區"
"237012","275-BY","2018/05/22 18:09:30","新北市三峽區民生街1巷6-12號","121.377235","24.9358766666667","6500900","三峽區"
"237008","302-VK","2018/05/22 18:09:36","新北市三峽區白雞44號","121.378756666667","24.910515","6500900","三峽區"
"237014","433-BY","2018/05/22 18:09:25","新北市三峽區復興路110巷3弄13號","121.372638333333","24.9386","6500900","三峽區"
"237006","5529-G3","2018/05/22 18:09:27","新北市三峽區溪東路34巷19號","121.400261666667","24.934225","6500900","三峽區"
"237016","649-BX","2018/05/22 18:09:35","新北市三峽區紫新路47號","121.422161666667","24.9218","6500900","三峽區"
"237005","AKY-6261","2018/05/22 18:09:31","新北市三峽區文化路152號","121.370318333333","24.9361416666667","6500900","三峽區"
"236070","105-UM","2018/05/22 18:09:34","新北市土城區石門路28號","121.45789","24.9649583333333","6501300","土城區"
"236042","107-UM","2018/05/22 18:09:28","新北市土城區中華路二段2號","121.439325","24.9796783333333","6501300","土城區"
"236079","166-UM","2018/05/22 18:09:36","新北市土城區永安街76號","121.432273333333","24.9637966666667","6501300","土城區"
"236030","253-BX","2018/05/22 18:09:21","新北市土城區城林路6巷80號","121.438665","24.9796816666667","6501300","土城區"
"236026","269-VK","2018/05/22 18:09:37","新北市土城區承天路18號","121.43947","24.96351","6501300","土城區"
"236014","270-VK","2018/05/22 18:09:23","新北市土城區學府路一段276號","121.449985","24.9828933333333","6501300","土城區"
"236038","271-VK","2018/05/22 18:09:19","新北市土城區金城路二段20號","121.449961666667","24.9778183333333","6501300","土城區"
"236021","401-BY","2018/05/22 18:09:23","新北市土城區城林路6巷80號","121.438785","24.97967","6501300","土城區"
"236059","912-UM","2018/05/22 18:09:32","新北市土城區中央路四段123號","121.416406666667","24.95769","6501300","土城區"
"236049","913-UM","2018/05/22 18:09:32","新北市土城區員林街1號","121.442275","24.9781866666667","6501300","土城區"
"236063","915-UM","2018/05/22 18:09:31","新北市土城區金城路二段48號","121.451413333333","24.9789783333333","6501300","土城區"
"236055","AAC-216","2018/05/22 18:09:21","新北市土城區城林路6巷80號","121.438333333333","24.9796916666667","6501300","土城區"
"242034","AAC-296","2018/05/22 18:09:22","新北市新莊區中正路377巷16號","121.446253333333","25.0337616666667","6500500","新莊區"
"242058","986-R7","2018/05/22 18:09:21","新北市新莊區新北大道七段318號","121.413751666667","25.0304733333333","6500500","新莊區"
"242054","751-BX","2018/05/22 18:09:25","新北市新莊區民安西路366號","121.427503333333","25.0109866666667","6500500","新莊區"
"242027","615-BX","2018/05/22 18:09:27","新北市新莊區幸福路565號","121.454246666667","25.04922","6500500","新莊區"
"242025","613-BX","2018/05/22 18:09:34","新北市新莊區五權一路110號","121.45992","25.067905","6500500","新莊區"
"242029","612-BX","2018/05/22 18:09:19","新北市新莊區幸福路829號","121.444906666667","25.0489516666667","6500500","新莊區"
"242042","566-BX","2018/05/22 18:09:33","新北市新莊區天祥街122號","121.41462","25.02989","6500500","新莊區"
"242046","442-UM","2018/05/22 18:09:32","新北市新莊區福營路363號","121.423995","25.027875","6500500","新莊區"
"242051","441-UM","2018/05/22 18:09:29","新北市新莊區民本街11巷28號","121.429","25.0202833333333","6500500","新莊區"
"242056","440-UM","2018/05/22 18:09:28","新北市新莊區豐年街豐1巷14號","121.44714","25.03117","6500500","新莊區"
"242037","415-TV","2018/05/22 18:09:22","新北市新莊區建福路48巷13號","121.425626666667","25.0273233333333","6500500","新莊區"
"242007","413-TV","2018/05/22 18:09:21","新北市新莊區自強街23巷1號","121.45444","25.046365","6500500","新莊區"
"242023","362-BY","2018/05/22 18:09:19","新北市泰山區泰林路一段2號","121.44201","25.04784","6500500","新莊區"
"242061","353-BY","2018/05/22 18:09:34","新北市新莊區新樹路255號","121.434871666667","25.0220216666667","6500500","新莊區"
"242009","132-UY","2018/05/22 18:09:25","新北市新莊區昌平街71巷15號","121.453796666667","25.0535933333333","6500500","新莊區"
"242039","133-UY","2018/05/22 18:09:37","新北市新莊區民安西路38巷11號","121.426895","25.0207133333333","6500500","新莊區"
"242032","135-UY","2018/05/22 18:09:35","新北市新莊區新泰路255巷22號","121.445131666667","25.0397433333333","6500500","新莊區"
"242048","172-VK","2018/05/22 18:09:32","新北市新莊區後港一路19號","121.424033333333","25.026045","6500500","新莊區"
"242011","173-VK","2018/05/22 18:09:27","新北市新莊區中信街94巷1號","121.448073333333","25.0536616666667","6500500","新莊區"
"242017","175-VK","2018/05/22 18:09:30","新北市新莊區中港路287號","121.452741666667","25.0439583333333","6500500","新莊區"
"242005","176-VK","2018/05/22 18:09:36","新北市新莊區自立街111號","121.455528333333","25.04542","6500500","新莊區"
"242015","346-TH","2018/05/22 18:09:36","新北市新莊區中平路152巷42號","121.446623333333","25.047315","6500500","新莊區"
"242021","348-TH","2018/05/22 18:09:29","新北市新莊區新興街106號","121.45064","25.039045","6500500","新莊區"
"242019","350-TH","2018/05/22 18:09:20","新北市新莊區長青街37巷22弄5號","121.456053333333","25.041125","6500500","新莊區"
"238015","755-BX","2018/05/22 18:09:24","新北市樹林區大安路323巷10弄16號","121.416991666667","24.9911983333333","6500700","樹林區"
"238023","601-UM","2018/05/22 18:09:35","新北市樹林區龍興街29號","121.403271666667","25.0159933333333","6500700","樹林區"
"238019","599-UM","2018/05/22 18:09:22","新北市樹林區太平路186號","121.41836","24.9765433333333","6500700","樹林區"
"238018","571-TV","2018/05/22 18:09:36","新北市樹林區保安街一段16巷40號","121.428813333333","24.99468","6500700","樹林區"
"238024","5061-A6","2018/05/22 18:09:36","新北市樹林區大安路380號","121.4159","24.9898066666667","6500700","樹林區"
"238022","KEA-2213","2018/05/22 18:09:23","新北市樹林區太平路174巷29弄1號","121.41763","24.97657","6500700","樹林區"
"238021","KEA-2539","2018/05/22 18:09:27","新北市樹林區柑園街二段149巷1號","121.382336666667","24.9538483333333","6500700","樹林區"
"238025","303-VK","2018/05/22 18:09:35","新北市樹林區保安街二段73號","121.416023333333","25.000715","6500700","樹林區"
"238017","283-BY","2018/05/22 18:09:37","新北市樹林區中正路803號","121.409533333333","25.0166633333333","6500700","樹林區"
"238014","282-BY","2018/05/22 18:09:33","新北市樹林區潭興街107巷21弄12號","121.423993333333","24.998955","6500700","樹林區"
"238020","268-VK","2018/05/22 18:09:23","新北市樹林區三龍街130號","121.416096666667","25.01843","6500700","樹林區"
"238026","172-UY","2018/05/22 18:09:31","新北市樹林區佳園路一段82-1號","121.393328333333","24.9696866666667","6500700","樹林區"
"238016","169-UY","2018/05/22 18:09:31","新北市樹林區中山路一段233號","121.420855","24.987","6500700","樹林區"
"239007","AAC-297","2018/05/22 18:09:19","新北市鶯歌區尖山埔路114號","121.344133333333","24.9502416666667","6500800","鶯歌區"
"239006","891-R6","2018/05/22 18:09:34","新北市鶯歌區鶯桃路457號","121.332215","24.9657283333333","6500800","鶯歌區"
"239008","527-UM","2018/05/22 18:09:28","新北市鶯歌區國際一路179號","121.336233333333","24.9765233333333","6500800","鶯歌區"
"239005","526-UM","2018/05/22 18:09:40","新北市鶯歌區鶯桃路668巷73號","121.329908333333","24.97177","6500800","鶯歌區"
"239001","417-VK","2018/05/22 18:09:32","新北市鶯歌區中正三路福德巷2弄7號","121.339353333333","24.94108","6500800","鶯歌區"
"239003","360-BY","2018/05/22 18:09:31","新北市鶯歌區福安街30號","121.334485","24.964145","6500800","鶯歌區"
"239002","359-BY","2018/05/22 18:09:21","新北市鶯歌區中山路329巷6弄12號","121.343565","24.9558183333333","6500800","鶯歌區"
"239004","193-VK","2018/05/22 18:09:37","新北市鶯歌區尖山路166巷3號","121.345453333333","24.9481583333333","6500800","鶯歌區"
"221008","489-VK","2018/05/22 18:09:21","新北市汐止區康寧街309號","121.6271","25.0673766666667","6501100","汐止區"
"221036","130-UY","2018/05/22 18:09:31","新北市汐止區大同路三段95號","121.668081666667","25.0774583333333","6501100","汐止區"
"221015","131-UY","2018/05/22 18:09:22","新北市汐止區鄉長路二段116號","121.66477","25.0860066666667","6501100","汐止區"
"221010","269-BY","2018/05/22 18:09:30","新北市汐止區汐萬路二段275巷1弄1號","121.645763333333","25.0888966666667","6501100","汐止區"
"221012","278-VK","2018/05/22 18:09:18","新北市汐止區保一街81-1號","121.674633333333","25.0802116666667","6501100","汐止區"
"221032","280-BY","2018/05/22 18:09:33","新北市汐止區橫科路16號","121.618028333333","25.05113","6501100","汐止區"
"221027","281-BY","2018/05/22 18:09:36","新北市汐止區大同路二段585號","121.663556666667","25.0702833333333","6501100","汐止區"
"221029","298-VK","2018/05/22 18:09:31","新北市汐止區樟樹二路134號","121.640048333333","25.0656183333333","6501100","汐止區"
"221021","299-VK","2018/05/22 18:09:25","新北市汐止區連興街54號","121.653863333333","25.0630866666667","6501100","汐止區"
"221031","353-TW","2018/05/22 18:09:20","新北市汐止區中興路179-3號","121.63065","25.0666966666667","6501100","汐止區"
"221025","623-UM","2018/05/22 18:09:35","新北市汐止區勤進路1號","121.660418333333","25.0621016666667","6501100","汐止區"
"221038","646-BX","2018/05/22 18:09:12","新北市汐止區莊敬街141巷5號","121.654543333333","25.0603716666667","6501100","汐止區"
"221033","647-BX","2018/05/22 18:09:25","新北市汐止區宜興街40巷22弄6號","121.622698333333","25.0411666666667","6501100","汐止區"
"221002","707-TV","2018/05/22 18:09:33","新北市汐止區福德一路205號","121.635328333333","25.065595","6501100","汐止區"
"221018","753-BX","2018/05/22 18:09:33","新北市汐止區忠孝東路388號","121.665596666667","25.0703016666667","6501100","汐止區"
"242002","KEA-2550","2018/05/22 18:09:24","新北市新莊區新莊路36號","121.458316666667","25.03708","6500500","新莊區"
"242044","281-VK","2018/05/22 18:09:33","新北市新莊區中正路726-4號","121.416113333333","25.024335","6500500","新莊區"
