"lineid","car","time","location","longitude","latitude","cityid","cityname"
"234007","207-UY","2018/05/22 18:29:29","新北市永和區新生路2-7號","121.509305","25.0169983333333","6500400","永和區"
"234081","298-R6","2018/05/22 18:29:26","新北市永和區福和路1號","121.526153333333","25.0095783333333","6500400","永和區"
"234086","338-UY","2018/05/22 18:29:36","新北市永和區福和路1號","121.526321666667","25.0095933333333","6500400","永和區"
"234013","KEA-2591","2018/05/22 18:29:31","新北市永和區福和路1號","121.526321666667","25.0093716666667","6500400","永和區"
"234042","862-TW","2018/05/22 18:29:35","新北市永和區福和路1號","121.525613333333","25.0093733333333","6500400","永和區"
"234050","863-TW","2018/05/22 18:29:39","新北市永和區福和路1號","121.526508333333","25.0097","6500400","永和區"
"234026","9371-KE","2018/05/22 18:29:31","新北市永和區中山路一段50號","121.51328","25.0106083333333","6500400","永和區"
"234011","9373-KE","2018/05/22 18:29:34","新北市永和區保福路二段156號","121.509156666667","25.0150216666667","6500400","永和區"
"249005","172-UM","2018/05/22 18:29:32","新北市八里區中華路三段134號","121.392068333333","25.1344433333333","6502300","八里區"
"249001","173-UM","2018/05/22 18:29:29","新北市八里區龍米路一段142號","121.452916666667","25.1256366666667","6502300","八里區"
"249004","303-UY","2018/05/22 18:29:28","新北市八里區忠孝路80號","121.42612","25.1604","6502300","八里區"
"249002","305-UY","2018/05/22 18:29:23","新北市八里區龍形三街26號","121.447891666667","25.1318683333333","6502300","八里區"
"248016","026-BX","2018/05/22 18:29:18","新北市五股區凌雲路一段83巷7弄2號","121.449821666667","25.100735","6501500","五股區"
"248006","077-UY","2018/05/22 18:29:26","新北市五股區四維路69號","121.467258333333","25.0719833333333","6501500","五股區"
"248008","095-VK","2018/05/22 18:29:27","新北市五股區四維路185巷46號","121.463306666667","25.0776483333333","6501500","五股區"
"248020","225-UY","2018/05/22 18:29:21","新北市五股區孝義路55巷3號","121.451328333333","25.1119266666667","6501500","五股區"
"248012","247-BX","2018/05/22 18:29:28","新北市五股區御成路143號","121.440981666667","25.094235","6501500","五股區"
"248014","261-SL","2018/05/22 18:29:28","新北市五股區明德路7巷16號","121.434725","25.0708483333333","6501500","五股區"
"248004","677-BX","2018/05/22 18:29:21","新北市五股區工商路107號","121.436916666667","25.085505","6501500","五股區"
"248002","678-BX","2018/05/22 18:29:33","新北市五股區西雲路163號","121.446148333333","25.0944616666667","6501500","五股區"
"248010","682-TV","2018/05/22 18:29:29","新北市五股區明德路12巷1號","121.43329","25.071685","6501500","五股區"
"234023","9380-KE","2018/05/22 18:29:30","新北市永和區福和路1號","121.52562","25.00931","6500400","永和區"
"234074","AAC-211","2018/05/22 18:29:38","新北市永和區福和路1號","121.526248333333","25.0096333333333","6500400","永和區"
"244013","069-UM","2018/05/22 18:29:36","新北市林口區佳林路101巷36號","121.386986666667","25.080025","6501700","林口區"
"244007","080-UY","2018/05/22 18:29:37","新北市林口區林口路296號","121.38591","25.0855066666667","6501700","林口區"
"244019","403-UM","2018/05/22 18:29:27","新北市林口區麗園二街12巷4-2號","121.378385","25.0683716666667","6501700","林口區"
"244009","410-SL","2018/05/22 18:29:28","新北市林口區民生路46號","121.376541666667","25.0871233333333","6501700","林口區"
"244023","483-VK","2018/05/22 18:29:30","新北市林口區四維路245巷47號","121.382623333333","25.0753683333333","6501700","林口區"
"244017","485-VK","2018/05/22 18:29:35","新北市林口區文化二路一段36號","121.364906666667","25.0676716666667","6501700","林口區"
"244011","657-BX","2018/05/22 18:29:33","新北市林口區興林路15號","121.389661666667","25.0770633333333","6501700","林口區"
"244025","837-TS","2018/05/22 18:29:31","新北市林口區南勢街280號","121.357568333333","25.076335","6501700","林口區"
"244021","838-TS","2018/05/22 18:29:25","新北市林口區自強二街12號","121.397581666667","25.0781466666667","6501700","林口區"
"243013","AAD-798","2018/05/22 18:28:32","新北市泰山區明志路三段206巷3號","121.423306666667","25.037915","6501600","泰山區"
"243004","646-TV","2018/05/22 18:29:31","新北市泰山區泰林路二段601號","121.42155","25.0634916666667","6501600","泰山區"
"222003","436-BY","2018/05/22 18:29:20","新北市深坑區文山路一段28-1號","121.630776666667","25.00537","6501800","深坑區"
"222002","659-BX","2018/05/22 18:29:23","新北市深坑區雲鄉路141號","121.62224","24.99822","6501800","深坑區"
"231041","002-UM","2018/05/22 18:29:23","新北市新店區安華路28-1號","121.519618333333","24.9608466666667","6500600","新店區"
"231059","046-UY","2018/05/22 18:29:36","新北市新店區安華路28-1號","121.519556666667","24.9608316666667","6500600","新店區"
"231040","047-UY","2018/05/22 18:29:31","新北市新店區安華路28-1號","121.519235","24.9609066666667","6500600","新店區"
"231044","106-UY","2018/05/22 18:29:38","新北市新店區安華路28-1號","121.519658333333","24.96083","6500600","新店區"
"231053","108-UY","2018/05/22 18:29:30","新北市新店區新烏路一段17巷12號","121.546158333333","24.950665","6500600","新店區"
"231048","187-VK","2018/05/22 18:29:32","新北市新店區安一路一段1-1號","121.519553333333","24.9611333333333","6500600","新店區"
"231046","188-VK","2018/05/22 18:29:23","新北市新店區直潭七街60號","121.532256666667","24.9398716666667","6500600","新店區"
"231054","KEA-2219","2018/05/22 18:29:32","新北市新店區安一路一段1-1號","121.519871666667","24.9612383333333","6500600","新店區"
"231057","256-BX","2018/05/22 18:29:19","新北市新店區安康路一段33-1號","121.53237","24.9604383333333","6500600","新店區"
"231042","268-BY","2018/05/22 18:29:27","新北市新店區安華路1-1號","121.519383333333","24.9604","6500600","新店區"
"231051","278-BY","2018/05/22 18:29:23","新北市新店區安一路一段1-1號","121.519585","24.9611716666667","6500600","新店區"
"231050","AAD-862","2018/05/22 18:29:36","新北市新店區安一路一段1-1號","121.519753333333","24.961215","6500600","新店區"
"231058","3713-VJ","2018/05/22 18:29:40","新北市新店區北新路一段41號","121.538026666667","24.9593","6500600","新店區"
"231066","4716-K9","2018/05/22 18:29:18","新北市新店區安一路一段1-1號","121.519336666667","24.961305","6500600","新店區"
"231056","4715-K9","2018/05/22 18:29:22","新北市新店區二十張路129巷5弄4號","121.536618333333","24.9787333333333","6500600","新店區"
"231067","4772-VM","2018/05/22 18:29:38","新北市新店區安華路1-1號","121.519281666667","24.9604833333333","6500600","新店區"
"231065","512-UM","2018/05/22 18:29:20","新北市新店區安華路28-1號","121.519355","24.9609366666667","6500600","新店區"
"231049","513-UM","2018/05/22 18:29:39","新北市新店區安一路一段1-1號","121.519663333333","24.9610833333333","6500600","新店區"
"231063","616-UM","2018/05/22 18:29:35","新北市新店區安華路1-1號","121.519446666667","24.9604966666667","6500600","新店區"
"231045","617-UM","2018/05/22 18:29:31","新北市新店區安華路28-1號","121.51947","24.96099","6500600","新店區"
"231061","619-UM","2018/05/22 18:29:21","新北市新店區安華路28-1號","121.519518333333","24.9608083333333","6500600","新店區"
"231064","719-UY","2018/05/22 18:29:27","新北市新店區安華路28-1號","121.51963","24.96099","6500600","新店區"
"231062","720-UM","2018/05/22 18:29:31","新北市新店區安一路一段1-1號","121.519346666667","24.9615466666667","6500600","新店區"
"231060","897-TW","2018/05/22 18:29:21","新北市新店區安華路28-1號","121.519575","24.9608066666667","6500600","新店區"
"231043","899-TW","2018/05/22 18:29:38","新北市新店區安華路3號","121.518748333333","24.9608483333333","6500600","新店區"
"231055","AKT-0513","2018/05/22 18:29:23","新北市新店區三民路21巷1號","121.539265","24.9716466666667","6500600","新店區"
"241028","022-UY","2018/05/22 18:20:36","新北市三重區光興街73號","121.497845","25.060025","6500200","三重區"
"235064","005-UY","2018/05/22 18:29:35","新北市中和區連城路139巷66號","121.496826666667","24.9968233333333","6500300","中和區"
"235063","006-UY","2018/05/22 18:29:28","新北市中和區連城路389巷9號","121.486561666667","24.9952266666667","6500300","中和區"
"235047","031-BX","2018/05/22 18:29:31","新北市中和區南山路300號","121.507808333333","24.98712","6500300","中和區"
"235056","096-UM","2018/05/22 18:29:23","新北市中和區員山路611巷5弄1號","121.477906666667","25.01117","6500300","中和區"
"235039","097-UM","2018/05/22 18:29:28","新北市中和區安平路186號","121.513053333333","24.9990433333333","6500300","中和區"
"235065","098-UM","2018/05/22 18:29:38","新北市中和區莊敬路49巷20弄32號","121.50306","25.0051466666667","6500300","中和區"
"235040","150-BY","2018/05/22 18:29:23","新北市中和區安平路38號","121.509846666667","24.99499","6500300","中和區"
"235058","151-BY","2018/05/22 18:29:30","新北市中和區圓通路369巷30弄70號","121.488856666667","24.98503","6500300","中和區"
"235055","183-VK","2018/05/22 18:29:38","新北市中和區莒光路207-1號","121.470945","24.997","6500300","中和區"
"235038","185-VK","2018/05/22 18:29:28","新北市中和區立人街14巷45號","121.519128333333","24.9955083333333","6500300","中和區"
"235049","186-VK","2018/05/22 18:29:35","新北市中和區景安路142號","121.505113333333","24.9941666666667","6500300","中和區"
"235067","255-BX","2018/05/22 18:29:28","新北市中和區新生街37號","121.48332","25.0033466666667","6500300","中和區"
"235072","301-VK","2018/05/22 18:29:16","新北市中和區連城路165號","121.495696666667","24.9983966666667","6500300","中和區"
"235043","352-BY","2018/05/22 18:29:27","新北市中和區景平路295-1號","121.50691","24.99315","6500300","中和區"
"235061","378-QA","2018/05/22 18:29:28","新北市中和區民享街92號","121.474855","24.9998083333333","6500300","中和區"
"235050","4979-A6","2018/05/22 18:29:27","新北市中和區景新街362巷5號","121.511953333333","24.990115","6500300","中和區"
"235069","4980-A6","2018/05/22 18:29:26","新北市中和區景平路634-3號","121.499516666667","24.9989783333333","6500300","中和區"
"235042","551-UM","2018/05/22 18:29:28","新北市中和區自立路56巷11號","121.522936666667","24.9917033333333","6500300","中和區"
"235070","558-UM","2018/05/22 18:29:31","新北市中和區景平路429-3號","121.501265","24.9955116666667","6500300","中和區"
"235045","565-BX","2018/05/22 18:29:39","新北市中和區南山路236巷24弄21號","121.504896666667","24.9889083333333","6500300","中和區"
"235054","640-BX","2018/05/22 18:29:23","新北市中和區民享街89巷4弄2號","121.47486","25.0016883333333","6500300","中和區"
"235060","647-TV","2018/05/22 18:29:32","新北市中和區員山路431號","121.480873333333","25.0036933333333","6500300","中和區"
"235046","733-UM","2018/05/22 18:29:26","新北市中和區南山路148號","121.504163333333","24.992235","6500300","中和區"
"235062","800-TS","2018/05/22 18:29:32","新北市中和區景平路753巷3號","121.496106666667","25.0043983333333","6500300","中和區"
"235057","801-TS","2018/05/22 18:29:36","新北市中和區民安街178號","121.476576666667","24.9998966666667","6500300","中和區"
"235041","802-TS","2018/05/22 18:29:33","新北市中和區景安路102號","121.5055","24.9954833333333","6500300","中和區"
"235052","805-TS","2018/05/22 18:29:28","新北市中和區興南路二段133號","121.505278333333","24.9842116666667","6500300","中和區"
"235048","896-TW","2018/05/22 18:29:32","新北市中和區中正路83號","121.50067","24.9934833333333","6500300","中和區"
"235053","900-TW","2018/05/22 18:29:27","新北市中和區民享街463號","121.46996","24.9927533333333","6500300","中和區"
"235066","911-UM","2018/05/22 18:29:29","新北市中和區中山路二段117號","121.502966666667","25.00374","6500300","中和區"
"235051","157-BY","2018/05/22 18:29:35","新北市中和區興南路二段142巷19弄19-1號","121.502503333333","24.9833133333333","6500300","中和區"
"235037","AAC-213","2018/05/22 18:29:29","新北市中和區景德街97號","121.515663333333","24.9912583333333","6500300","中和區"
"220071","015-TV","2018/05/22 18:29:36","新北市板橋區華東街1-9號","121.448121666667","24.9947966666667","6500100","板橋區"
"220065","072-UY","2018/05/22 18:29:35","新北市板橋區南雅南路二段18號","121.454625","25.00348","6500100","板橋區"
"226004","312-R5","2018/05/22 18:29:29","新北市平溪區靜安路二段358號","121.737655","25.02448","6502400","平溪區"
"228001","212-TW","2018/05/22 18:29:20","新北市貢寮區仁理村仁和路11號","121.923106666667","25.0516933333333","6502600","貢寮區"
"228002","663-BX","2018/05/22 18:29:24","新北市貢寮區福連里香蘭街16-2號","121.98309","25.0217433333333","6502600","貢寮區"
"228003","828-UM","2018/05/22 18:29:36","新北市貢寮區和美里和美街44-2號","121.916163333333","25.0949766666667","6502600","貢寮區"
"224006","676-BX","2018/05/22 18:29:30","新北市瑞芳區明燈路二段66號","121.809553333333","25.10744","6501200","瑞芳區"
"224002","639-TC","2018/05/22 18:29:31","新北市瑞芳區三爪子坑路251號","121.812621666667","25.1061733333333","6501200","瑞芳區"
"224008","285-BY","2018/05/22 18:29:37","新北市瑞芳區逢甲路210號","121.806741666667","25.1103","6501200","瑞芳區"
"224007","275-VK","2018/05/22 18:29:19","新北市瑞芳區大埔路國宅新村28號","121.76472","25.1002566666667","6501200","瑞芳區"
"224009","273-VK","2018/05/22 18:29:21","新北市瑞芳區五號路51號","121.855058333333","25.1108816666667","6501200","瑞芳區"
"224005","271-BY","2018/05/22 18:29:24","新北市瑞芳區瑞濱路34號","121.820391666667","25.1204883333333","6501200","瑞芳區"
"227009","642-TC","2018/05/22 18:29:38","新北市雙溪區牡丹里牡丹159-1號","121.850913333333","25.05911","6502500","雙溪區"
"227003","400-TW","2018/05/22 18:29:33","新北市雙溪區魚行里坤溪21-1號","121.870558333333","25.0277766666667","6502500","雙溪區"
"253005","032-BX","2018/05/22 18:29:35","新北市石門區老崩山11-1號","121.552473333333","25.2909283333333","6502200","石門區"
"253006","295-VK","2018/05/22 18:29:37","新北市石門區公地47-3號","121.545503333333","25.2901716666667","6502200","石門區"
"222001","KEA-2212","2018/05/22 18:29:37","新北市深坑區北深路一段199號","121.630646666667","25.0092516666667","6501800","深坑區"
"208002","KEA-2872","2018/05/22 18:29:21","新北市金山區民生路31號","121.643453333333","25.2218566666667","6502700","金山區"
"208003","665-BX","2018/05/22 18:29:25","新北市金山區中山路165號","121.63876","25.2205616666667","6502700","金山區"
"208001","761-BX","2018/05/22 18:29:28","新北市金山區溫泉路21巷1號","121.637805","25.2228433333333","6502700","金山區"
"251004","009-UM","2018/05/22 18:29:22","新北市淡水區民族路31巷38號","121.462593333333","25.136865","6501000","淡水區"
"251001","011-UM","2018/05/22 18:29:38","新北市淡水區自強路122巷1號","121.46446","25.1330833333333","6501000","淡水區"
"251002","012-UM","2018/05/22 18:29:33","新北市淡水區竿蓁二街19巷7弄2號","121.453075","25.1636033333333","6501000","淡水區"
"251013","KEA-2871","2018/05/22 18:29:27","新北市淡水區椿子林20號","121.479958333333","25.2038316666667","6501000","淡水區"
"251016","179-VK","2018/05/22 18:29:30","新北市淡水區下圭柔山105-5號","121.445215","25.2104183333333","6501000","淡水區"
"251014","180-VK","2018/05/22 18:29:35","新北市淡水區南平26-1號","121.494005","25.2146883333333","6501000","淡水區"
"251008","181-VK","2018/05/22 18:29:35","新北市淡水區北投子86-5號","121.469166666667","25.1824116666667","6501000","淡水區"
"251015","182-VK","2018/05/22 18:29:29","新北市淡水區興福寮88巷216號","121.485961666667","25.16661","6501000","淡水區"
"251010","413-VK","2018/05/22 18:29:33","新北市淡水區沙崙路181巷1號","121.424163333333","25.184195","6501000","淡水區"
"251012","443-VK","2018/05/22 18:29:37","新北市淡水區北新路一段169-1號","121.459088333333","25.18225","6501000","淡水區"
"251006","561-UM","2018/05/22 18:29:27","新北市淡水區中山北路二段98號","121.444416666667","25.183795","6501000","淡水區"
"251011","650-BX","2018/05/22 18:29:30","新北市淡水區中正東路27號","121.448143333333","25.1662916666667","6501000","淡水區"
"251003","673-BX","2018/05/22 18:29:27","新北市淡水區北新路169巷35-1號","121.44964","25.1800683333333","6501000","淡水區"
"207003","550-UM","2018/05/22 18:29:29","新北市萬里區野柳里港東路73號","121.688311666667","25.2051416666667","6502800","萬里區"
"207004","225-TW","2018/05/22 18:29:38","新北市萬里區萬里里瑪鋉路252號","121.688995","25.180635","6502800","萬里區"
"252002","178-VK","2018/05/22 18:29:31","新北市三芝區中山路二段41號","121.50289","25.255025","6502100","三芝區"
"252003","249-BX","2018/05/22 18:29:30","新北市三芝區後厝里北勢子42-1號","121.471673333333","25.2523816666667","6502100","三芝區"
"252001","292-VK","2018/05/22 18:29:21","新北市三芝區中興街二段2號","121.498291666667","25.2566133333333","6502100","三芝區"
"237004","KEA-2597","2018/05/22 18:29:19","新北市三峽區圳頭94號","121.38007","24.8778933333333","6500900","三峽區"
"237007","153-BY","2018/05/22 18:29:20","新北市三峽區中正路三段170巷1號","121.352493333333","24.9035933333333","6500900","三峽區"
"237011","572-TV","2018/05/22 18:29:20","新北市三峽區溪東路1號","121.399211666667","24.9352783333333","6500900","三峽區"
"237009","210-TH","2018/05/22 18:29:32","新北市三峽區大同路255號","121.366595","24.92598","6500900","三峽區"
"237013","252-BX","2018/05/22 18:29:27","新北市三峽區光明路69巷25號","121.376581666667","24.9291233333333","6500900","三峽區"
"237012","275-BY","2018/05/22 18:29:30","新北市三峽區三樹路168巷30號","121.37952","24.9406133333333","6500900","三峽區"
"237008","302-VK","2018/05/22 18:29:35","新北市三峽區白雞68-119號","121.391595","24.9082583333333","6500900","三峽區"
"237014","433-BY","2018/05/22 18:29:25","新北市三峽區和平街65號","121.37014","24.9367116666667","6500900","三峽區"
"237006","5529-G3","2018/05/22 18:29:27","新北市三峽區溪東路315巷100號","121.412393333333","24.931345","6500900","三峽區"
"237016","649-BX","2018/05/22 18:29:35","新北市三峽區紫微南路36號","121.421785","24.915035","6500900","三峽區"
"237005","AKY-6261","2018/05/22 18:29:31","新北市三峽區民族街5巷35號","121.369965","24.9324733333333","6500900","三峽區"
"236070","105-UM","2018/05/22 18:29:39","新北市土城區永豐路255巷27弄21號","121.476161666667","24.9730333333333","6501300","土城區"
"236042","107-UM","2018/05/22 18:29:28","新北市土城區學成路99巷11號","121.449995","24.9883483333333","6501300","土城區"
"236079","166-UM","2018/05/22 18:29:37","新北市土城區大暖路26號","121.423505","24.9599016666667","6501300","土城區"
"236030","253-BX","2018/05/22 18:29:21","新北市土城區福仁街30巷10號","121.439406666667","24.97594","6501300","土城區"
"236026","269-VK","2018/05/22 18:29:37","新北市土城區南天母路43號","121.446193333333","24.956885","6501300","土城區"
"236014","270-VK","2018/05/22 18:29:23","新北市土城區青雲路39巷7號","121.460271666667","24.9874183333333","6501300","土城區"
"236038","271-VK","2018/05/22 18:29:39","新北市土城區青雲路449-1號","121.458835","24.9747933333333","6501300","土城區"
"236021","401-BY","2018/05/22 18:29:23","新北市土城區永豐路202巷14號","121.466161666667","24.9834166666667","6501300","土城區"
"236059","912-UM","2018/05/22 18:29:27","新北市土城區中央路四段187號","121.414878333333","24.9566716666667","6501300","土城區"
"236049","913-UM","2018/05/22 18:29:32","新北市土城區青雲路384號","121.458758333333","24.973155","6501300","土城區"
"236063","915-UM","2018/05/22 18:29:31","新北市土城區延壽路77巷6弄7號","121.468365","24.9929283333333","6501300","土城區"
"236055","AAC-216","2018/05/22 18:29:21","新北市土城區中華路二段1號","121.439598333333","24.9790233333333","6501300","土城區"
"242058","986-R7","2018/05/22 18:29:21","新北市新莊區中正路889-8號","121.415146666667","25.02366","6500500","新莊區"
"242054","751-BX","2018/05/22 18:29:25","新北市新莊區大安路10巷1號","121.43117","25.0062166666667","6500500","新莊區"
"242042","566-BX","2018/05/22 18:29:33","新北市新莊區壽山路41號","121.415038333333","25.0304783333333","6500500","新莊區"
"242046","442-UM","2018/05/22 18:29:32","新北市新莊區民安路16-27號","121.42251","25.0281","6500500","新莊區"
"242051","441-UM","2018/05/22 18:29:29","新北市新莊區環漢路三段532號","121.43526","25.0004866666667","6500500","新莊區"
"242056","440-UM","2018/05/22 18:29:33","新北市新莊區瓊泰路63巷21弄12號","121.44258","25.0283116666667","6500500","新莊區"
"242061","353-BY","2018/05/22 18:29:34","新北市新莊區富國路176巷5號","121.424171666667","25.024145","6500500","新莊區"
"242009","132-UY","2018/05/22 18:29:25","新北市新莊區中平路82巷3號","121.445046666667","25.0448866666667","6500500","新莊區"
"242011","173-VK","2018/05/22 18:21:41","新北市新莊區中榮街43號","121.449735","25.0527166666667","6500500","新莊區"
"238015","755-BX","2018/05/22 18:29:24","新北市樹林區備前街120號","121.414618333333","24.9867933333333","6500700","樹林區"
"238023","601-UM","2018/05/22 18:29:35","新北市樹林區中正路648號","121.409755","25.016365","6500700","樹林區"
"238019","599-UM","2018/05/22 18:29:27","新北市樹林區忠孝街106號","121.42474","24.980375","6500700","樹林區"
"238018","571-TV","2018/05/22 18:29:35","新北市樹林區樹新路34巷12號","121.427705","24.9944566666667","6500700","樹林區"
"238024","5061-A6","2018/05/22 18:29:36","新北市樹林區中山路二段110-4號","121.41389","24.9831833333333","6500700","樹林區"
"238025","303-VK","2018/05/22 18:29:25","新北市樹林區中山路二段209號","121.403798333333","24.9771533333333","6500700","樹林區"
"238017","283-BY","2018/05/22 18:29:17","新北市樹林區光榮街79號","121.412118333333","25.00292","6500700","樹林區"
"238014","282-BY","2018/05/22 18:29:28","新北市樹林區大安路111巷11號","121.423086666667","24.9976383333333","6500700","樹林區"
"238020","268-VK","2018/05/22 18:29:23","新北市樹林區三龍街117號","121.4177","25.0182683333333","6500700","樹林區"
"238026","172-UY","2018/05/22 18:29:31","新北市樹林區八德街1206號","121.390896666667","24.96879","6500700","樹林區"
"238016","169-UY","2018/05/22 18:28:31","新北市樹林區文化街27號","121.419183333333","24.9876183333333","6500700","樹林區"
"239007","AAC-297","2018/05/22 18:29:39","新北市鶯歌區重慶街63-1號","121.349633333333","24.9516733333333","6500800","鶯歌區"
"239006","891-R6","2018/05/22 18:29:33","新北市鶯歌區國華路2號","121.34268","24.9569033333333","6500800","鶯歌區"
"239008","527-UM","2018/05/22 18:29:28","新北市鶯歌區國際一路179號","121.336253333333","24.9765083333333","6500800","鶯歌區"
"239005","526-UM","2018/05/22 18:29:20","新北市鶯歌區鳳吉二街146號","121.32859","24.974955","6500800","鶯歌區"
"239001","417-VK","2018/05/22 18:29:32","新北市鶯歌區高職南街13號","121.337545","24.939195","6500800","鶯歌區"
"239003","360-BY","2018/05/22 18:29:30","新北市鶯歌區鶯桃路405號","121.333145","24.9642266666667","6500800","鶯歌區"
"239002","359-BY","2018/05/22 18:29:21","新北市鶯歌區中正一路460號","121.364333333333","24.95642","6500800","鶯歌區"
"239004","193-VK","2018/05/22 18:29:37","新北市鶯歌區尖山路302巷22號","121.342056666667","24.9433933333333","6500800","鶯歌區"
"221008","489-VK","2018/05/22 18:29:21","新北市汐止區康寧街901號","121.651428333333","25.0751583333333","6501100","汐止區"
"221036","130-UY","2018/05/22 18:29:35","新北市汐止區大同路三段41號","121.666898333333","25.07655","6501100","汐止區"
"221015","131-UY","2018/05/22 18:29:22","新北市汐止區鄉友街54號","121.669296666667","25.081915","6501100","汐止區"
"221010","269-BY","2018/05/22 18:29:30","新北市汐止區瑞松街18巷9號","121.645126666667","25.1048","6501100","汐止區"
"221012","278-VK","2018/05/22 18:29:38","新北市汐止區大同路三段275號","121.676173333333","25.0756683333333","6501100","汐止區"
"221032","280-BY","2018/05/22 18:29:33","新北市汐止區民權街二段102號","121.618665","25.0468416666667","6501100","汐止區"
"221027","281-BY","2018/05/22 18:29:33","新北市汐止區和平街66號","121.661905","25.0708583333333","6501100","汐止區"
"221029","298-VK","2018/05/22 18:29:31","新北市汐止區樟樹一路153號","121.642473333333","25.0679733333333","6501100","汐止區"
"221021","299-VK","2018/05/22 18:29:25","新北市汐止區復興路42號","121.656526666667","25.0629533333333","6501100","汐止區"
"221031","353-TW","2018/05/22 18:29:20","新北市汐止區大同路一段160-7號","121.635586666667","25.0553016666667","6501100","汐止區"
"221025","623-UM","2018/05/22 18:29:31","新北市汐止區仁愛路124號","121.66295","25.06384","6501100","汐止區"
"221038","646-BX","2018/05/22 18:29:32","新北市汐止區大同路二段423號","121.658763333333","25.0673216666667","6501100","汐止區"
"221033","647-BX","2018/05/22 18:29:25","新北市汐止區宜興街1號","121.620846666667","25.0411666666667","6501100","汐止區"
"221002","707-TV","2018/05/22 18:29:33","新北市汐止區福德一路145號","121.636663333333","25.06685","6501100","汐止區"
"221018","753-BX","2018/05/22 18:29:33","新北市汐止區茄苳路225巷2號","121.671008333333","25.0686833333333","6501100","汐止區"
"242002","KEA-2550","2018/05/22 18:29:23","新北市新莊區瓊林路59-75號","121.444581666667","25.0269516666667","6500500","新莊區"
"220082","610-BX","2018/05/22 18:29:39","新北市板橋區華東街1-10號","121.448228333333","24.9949916666667","6500100","板橋區"
"242044","281-VK","2018/05/22 18:29:33","新北市新莊區中正路新旺巷43號","121.416513333333","25.02248","6500500","新莊區"
"220064","486-VK","2018/05/22 18:29:19","新北市板橋區南雅南路二段120-16號","121.452101666667","24.99919","6500100","板橋區"
"220057","686-BX","2018/05/22 18:29:26","新北市板橋區華東街1-10號","121.44827","24.9949083333333","6500100","板橋區"
"220074","895-R6","2018/05/22 18:29:27","新北市板橋區華東街1-9號","121.448213333333","24.9949616666667","6500100","板橋區"
"220073","985-R7","2018/05/22 18:29:17","新北市板橋區華東街1-10號","121.448353333333","24.9950316666667","6500100","板橋區"
"220070","AAC-253","2018/05/22 18:29:26","新北市板橋區華東街1-9號","121.448285","24.9948733333333","6500100","板橋區"
"235068","KEA-2873","2018/05/22 18:29:16","新北市中和區錦和路350-1號","121.490528333333","24.9935283333333","6500300","中和區"
