"lineid","car","time","location","longitude","latitude","cityid","cityname"
"234046","148-BY","2018/05/22 19:39:22","新北市永和區永元路94號","121.522465","25.0017433333333","6500400","永和區"
"234007","207-UY","2018/05/22 19:39:37","新北市永和區中和路625號","121.512988333333","25.0048816666667","6500400","永和區"
"234081","298-R6","2018/05/22 19:39:26","新北市永和區國中路104巷8弄10號","121.524988333333","25.0067016666667","6500400","永和區"
"234038","336-UY","2018/05/22 19:39:31","新北市永和區民樂街31巷4號","121.527856666667","25.0014866666667","6500400","永和區"
"234064","337-UY","2018/05/22 19:39:30","新北市永和區秀朗路一段192巷6弄14號","121.519175","25.0023133333333","6500400","永和區"
"234086","338-UY","2018/05/22 19:39:36","新北市永和區永亨路165巷10號","121.526236666667","25.0041966666667","6500400","永和區"
"234070","552-UM","2018/05/22 19:39:24","新北市永和區永和路二段237-1號","121.515631666667","25.01448","6500400","永和區"
"234017","745-BX","2018/05/22 19:39:33","新北市永和區永和路二段425巷75弄5號","121.513381666667","25.01704","6500400","永和區"
"234030","746-BX","2018/05/22 19:39:27","新北市永和區四維街113號","121.523455","24.9980833333333","6500400","永和區"
"234054","KEA-2590","2018/05/22 19:39:25","新北市永和區竹林路39巷10號","121.518273333333","25.0144533333333","6500400","永和區"
"234013","KEA-2591","2018/05/22 19:39:31","新北市永和區永平路224號","121.509063333333","25.0106566666667","6500400","永和區"
"234061","AAD-866","2018/05/22 19:39:33","新北市永和區中正路456號","121.517535","25.0029166666667","6500400","永和區"
"234042","862-TW","2018/05/22 19:39:35","新北市中和區中和路262號","121.50826","24.99957","6500400","永和區"
"234050","863-TW","2018/05/22 19:39:18","新北市永和區保福路二段162巷2號","121.508986666667","25.0152566666667","6500400","永和區"
"234026","9371-KE","2018/05/22 19:39:31","新北市永和區中和路501巷10號","121.51063","25.002765","6500400","永和區"
"249004","303-UY","2018/05/22 19:39:33","新北市八里區中山路一段268巷5弄11號","121.414251666667","25.1603183333333","6502300","八里區"
"249002","305-UY","2018/05/22 19:39:38","新北市八里區頂寮二街42號","121.450448333333","25.125215","6502300","八里區"
"249003","593-UM","2018/05/22 19:39:35","新北市八里區中華路二段542號","121.399031666667","25.145415","6502300","八里區"
"248016","026-BX","2018/05/22 19:39:29","新北市五股區成泰路三段625-2號","121.452885","25.1045266666667","6501500","五股區"
"248008","095-VK","2018/05/22 19:39:27","新北市五股區四維路153號","121.467676666667","25.0744966666667","6501500","五股區"
"248020","225-UY","2018/05/22 19:39:33","新北市五股區中直路28-3號","121.424043333333","25.112135","6501500","五股區"
"248012","247-BX","2018/05/22 19:39:28","新北市五股區成泰路二段81號","121.438146666667","25.08385","6501500","五股區"
"248014","261-SL","2018/05/22 19:39:36","新北市五股區五福路23巷8號","121.433405","25.0888583333333","6501500","五股區"
"248004","677-BX","2018/05/22 19:39:41","新北市五股區成泰路二段82號","121.437395","25.0822233333333","6501500","五股區"
"248002","678-BX","2018/05/22 19:39:33","新北市五股區成泰路三段577巷49號","121.450755","25.103175","6501500","五股區"
"248010","682-TV","2018/05/22 19:39:29","新北市五股區自強路111號","121.432321666667","25.07055","6501500","五股區"
"234077","969-R7","2018/05/22 19:39:33","新北市永和區民權路33號","121.520025","24.9977816666667","6500400","永和區"
"234074","AAC-211","2018/05/22 19:39:21","新北市永和區竹林路225巷12號","121.521306666667","25.0085016666667","6500400","永和區"
"234067","AAC-212","2018/05/22 19:39:31","新北市永和區中山路一段201號","121.50896","25.0087166666667","6500400","永和區"
"234003","AAC-295","2018/05/22 19:39:24","新北市永和區自由街58號","121.51386","25.0059","6500400","永和區"
"244023","483-VK","2018/05/22 19:39:30","新北市林口區民族路302-99號","121.370863333333","25.0795666666667","6501700","林口區"
"243013","AAD-798","2018/05/22 19:37:29","新北市泰山區應化街7號","121.423873333333","25.043715","6501600","泰山區"
"243009","297-R6","2018/05/22 19:39:24","新北市泰山區美寧街71號","121.431013333333","25.0647083333333","6501600","泰山區"
"243016","380-SR","2018/05/22 19:39:42","新北市泰山區明志路三段324號","121.42183","25.03667","6501600","泰山區"
"243015","421-VK","2018/05/22 19:39:20","新北市泰山區民權街99號","121.428445","25.0495033333333","6501600","泰山區"
"243011","KEA-2215","2018/05/22 19:39:28","新北市泰山區新北大道五段487號","121.430843333333","25.0415966666667","6501600","泰山區"
"243010","KEA-2216","2018/05/22 19:39:38","新北市泰山區明志路二段7巷18號","121.43081","25.0531966666667","6501600","泰山區"
"243012","646-TV","2018/05/22 19:39:36","新北市泰山區全興路246號","121.435648333333","25.053375","6501600","泰山區"
"243014","680-BX","2018/05/22 19:39:24","新北市泰山區泰林路二段33-7號","121.435216666667","25.0564883333333","6501600","泰山區"
"222003","436-BY","2018/05/22 19:39:40","新北市深坑區深南路51-1號","121.621271666667","25.0097966666667","6501800","深坑區"
"222002","659-BX","2018/05/22 19:39:23","新北市深坑區北深路一段177號","121.632545","25.01091","6501800","深坑區"
"231041","002-UM","2018/05/22 19:39:23","新北市新店區中正路487號","121.533646666667","24.9820616666667","6500600","新店區"
"231059","046-UY","2018/05/22 19:39:36","新北市新店區安和路三段83號","121.51785","24.9838166666667","6500600","新店區"
"231040","047-UY","2018/05/22 19:39:31","新北市新店區中正路75巷71號","121.54318","24.96883","6500600","新店區"
"231044","106-UY","2018/05/22 19:39:38","新北市新店區北新路三段137號","121.541093333333","24.9830533333333","6500600","新店區"
"231053","108-UY","2018/05/22 19:39:30","新北市新店區廣興路96-2號","121.53837","24.912805","6500600","新店區"
"231048","187-VK","2018/05/22 19:39:32","新北市新店區五峰路63巷22號","121.546483333333","24.9690216666667","6500600","新店區"
"231046","188-VK","2018/05/22 19:39:23","新北市新店區福園街3-1號","121.53343","24.9729866666667","6500600","新店區"
"231054","KEA-2219","2018/05/22 19:39:32","新北市新店區北宜路一段41號","121.538331666667","24.9573816666667","6500600","新店區"
"231057","256-BX","2018/05/22 19:39:38","新北市新店區橘園一路7號","121.548003333333","24.93395","6500600","新店區"
"231042","268-BY","2018/05/22 19:39:27","新北市新店區中興路一段216號","121.543825","24.9656883333333","6500600","新店區"
"231051","278-BY","2018/05/22 19:39:23","新北市新店區中央四街19號","121.529221666667","24.9741266666667","6500600","新店區"
"231050","AAD-862","2018/05/22 19:39:36","新北市新店區郵政路1號","121.557661666667","24.952575","6500600","新店區"
"231058","3713-VJ","2018/05/22 19:39:21","新北市新店區中正路102巷8弄4號","121.543456666667","24.9711266666667","6500600","新店區"
"231066","4716-K9","2018/05/22 19:39:38","新北市新店區安康路三段83號","121.49186","24.9519333333333","6500600","新店區"
"231056","4715-K9","2018/05/22 19:39:22","新北市新店區安民街365巷10弄5號","121.515496666667","24.975745","6500600","新店區"
"231067","4772-VM","2018/05/22 19:39:38","新北市新店區精忠路10-1號","121.532653333333","24.9590483333333","6500600","新店區"
"231065","512-UM","2018/05/22 19:39:40","新北市新店區安祥路109巷59號","121.477166666667","24.959835","6500600","新店區"
"231049","513-UM","2018/05/22 19:39:39","新北市新店區大豐路43號","121.540283333333","24.9798033333333","6500600","新店區"
"231063","616-UM","2018/05/22 19:39:35","新北市新店區達觀路43號","121.503561666667","24.9383216666667","6500600","新店區"
"231045","617-UM","2018/05/22 19:39:31","新北市新店區北宜路二段425號","121.560538333333","24.9544483333333","6500600","新店區"
"231061","619-UM","2018/05/22 19:39:21","新北市新店區安民街50號","121.516126666667","24.9658116666667","6500600","新店區"
"231064","719-UY","2018/05/22 19:39:26","新北市新店區安和路一段52巷2-1號","121.517633333333","24.966295","6500600","新店區"
"231062","720-UM","2018/05/22 19:39:31","新北市新店區合作路36號","121.533098333333","24.957555","6500600","新店區"
"231060","897-TW","2018/05/22 19:39:41","新北市新店區安康路二段139號","121.51179","24.9603133333333","6500600","新店區"
"231043","899-TW","2018/05/22 19:39:38","新北市新店區北新路二段12號","121.542828333333","24.9711866666667","6500600","新店區"
"231055","AKT-0513","2018/05/22 19:39:23","新北市新店區力行路14巷12號","121.539243333333","24.96524","6500600","新店區"
"241011","013-R5","2018/05/22 19:39:30","新北市三重區秀江街205號","121.497661666667","25.0716466666667","6500200","三重區"
"241028","022-UY","2018/05/22 19:39:27","新北市三重區中正南路190號","121.493923333333","25.0560633333333","6500200","三重區"
"241008","059-VK","2018/05/22 19:39:36","新北市三重區永福街117號","121.479075","25.07714","6500200","三重區"
"241031","061-VK","2018/05/22 19:39:34","新北市三重區重新路四段248-1號","121.486206666667","25.0534816666667","6500200","三重區"
"241015","062-VK","2018/05/22 19:39:25","新北市三重區福德北路34號","121.50215","25.065155","6500200","三重區"
"241017","063-VK","2018/05/22 19:39:35","新北市三重區大同北路219號","121.491538333333","25.0660583333333","6500200","三重區"
"241026","066-VK","2018/05/22 19:39:36","新北市三重區光興街51號","121.499076666667","25.06017","6500200","三重區"
"241003","091-VK","2018/05/22 19:39:29","新北市三重區五華街93巷91號","121.494015","25.0850333333333","6500200","三重區"
"241022","742-BX","2018/05/22 19:39:33","新北市三重區三民街157巷2號","121.48377","25.0645966666667","6500200","三重區"
"241009","265-UM","2018/05/22 19:39:33","新北市三重區三和路四段400巷23號","121.480236666667","25.0792","6500200","三重區"
"241032","269-UM","2018/05/22 19:39:26","新北市三重區重陽路一段60巷53號","121.484718333333","25.0582916666667","6500200","三重區"
"241013","270-UM","2018/05/22 19:39:23","新北市三重區仁愛街117號","121.495463333333","25.07447","6500200","三重區"
"241025","271-UM","2018/05/22 19:39:31","新北市三重區忠孝路三段99巷11號","121.480083333333","25.0645333333333","6500200","三重區"
"241007","398-BY","2018/05/22 19:39:32","新北市三重區溪尾街126巷66號","121.488115","25.07881","6500200","三重區"
"241035","462-BY","2018/05/22 19:39:30","新北市三重區正義北路65號","121.497328333333","25.064585","6500200","三重區"
"241020","478-VK","2018/05/22 19:39:30","新北市三重區自強路三段43巷7號","121.487315","25.0728133333333","6500200","三重區"
"241030","480-VK","2018/05/22 19:39:38","新北市三重區中正南路269號","121.492916666667","25.0525183333333","6500200","三重區"
"241014","543-UM","2018/05/22 19:39:28","新北市三重區河邊北街84號","121.504175","25.06925","6500200","三重區"
"241023","545-UM","2018/05/22 19:39:28","新北市三重區忠孝路三段99巷6號","121.479813333333","25.064225","6500200","三重區"
"241001","547-UM","2018/05/22 19:39:20","新北市三重區仁愛街315巷25號","121.493775","25.07982","6500200","三重區"
"241019","KEA-2593","2018/05/22 19:39:20","新北市三重區六張街194巷1弄18號","121.488148333333","25.0680766666667","6500200","三重區"
"241006","AAD-863","2018/05/22 19:39:34","新北市三重區聯華街94號","121.485568333333","25.0751916666667","6500200","三重區"
"241012","941-UM","2018/05/22 19:39:40","新北市三重區河邊北街256巷43號","121.500316666667","25.0757483333333","6500200","三重區"
"241029","942-UM","2018/05/22 19:39:40","新北市三重區重安街102號","121.492985","25.055955","6500200","三重區"
"235064","005-UY","2018/05/22 19:39:30","新北市中和區南山路127巷12號","121.50314","24.9972716666667","6500300","中和區"
"235063","006-UY","2018/05/22 19:39:28","新北市中和區連城路176號","121.493143333333","24.9969916666667","6500300","中和區"
"235047","031-BX","2018/05/22 19:39:31","新北市中和區南山路283巷12號","121.50458","24.99256","6500300","中和區"
"235056","096-UM","2018/05/22 19:39:23","新北市中和區員山路581巷31弄24號","121.476621666667","25.010475","6500300","中和區"
"235039","097-UM","2018/05/22 19:39:28","新北市中和區景平路172號","121.517013333333","24.9926933333333","6500300","中和區"
"235065","098-UM","2018/05/22 19:39:18","新北市中和區永和路24號","121.499523333333","25.00353","6500300","中和區"
"235040","150-BY","2018/05/22 19:39:23","新北市中和區安平路30號","121.50961","24.9948266666667","6500300","中和區"
"235058","151-BY","2018/05/22 19:39:30","新北市中和區員山路124巷40號","121.482593333333","24.9960516666667","6500300","中和區"
"235055","183-VK","2018/05/22 19:39:38","新北市中和區中山路三段181巷2號","121.472808333333","25.0059716666667","6500300","中和區"
"235038","185-VK","2018/05/22 19:39:28","新北市中和區自強路27巷2號","121.52099","24.99292","6500300","中和區"
"235049","186-VK","2018/05/22 19:39:39","新北市中和區景平路568號","121.502061666667","24.9953166666667","6500300","中和區"
"235067","255-BX","2018/05/22 19:39:27","新北市中和區新生街241號","121.48389","24.9988816666667","6500300","中和區"
"235044","293-VK","2018/05/22 19:39:34","新北市中和區興南路一段95號","121.50958","24.9884016666667","6500300","中和區"
"235072","301-VK","2018/05/22 19:39:37","新北市中和區連城路263巷4弄4號","121.49166","24.995725","6500300","中和區"
"235043","352-BY","2018/05/22 19:39:27","新北市中和區華新街151號","121.506223333333","24.9815883333333","6500300","中和區"
"235061","378-QA","2018/05/22 19:39:28","新北市中和區民安街38號","121.479915","25.0005016666667","6500300","中和區"
"235050","4979-A6","2018/05/22 19:39:27","新北市中和區錦和路350-1號","121.490378333333","24.9935366666667","6500300","中和區"
"235042","551-UM","2018/05/22 19:39:28","新北市中和區中和路262巷22號","121.509755","24.999045","6500300","中和區"
"235070","558-UM","2018/05/22 19:39:31","新北市中和區連勝街37號","121.4983","24.9977616666667","6500300","中和區"
"235045","565-BX","2018/05/22 19:39:20","新北市中和區景新街462號","121.513446666667","24.9873616666667","6500300","中和區"
"235054","640-BX","2018/05/22 19:39:22","新北市中和區國光街107巷2弄29號","121.469261666667","24.9989133333333","6500300","中和區"
"235060","647-TV","2018/05/22 19:39:32","新北市中和區中山路二段523巷11號","121.481743333333","25.0041233333333","6500300","中和區"
"235046","733-UM","2018/05/22 19:39:26","新北市中和區四維街7號","121.513413333333","24.9872666666667","6500300","中和區"
"235071","783-BX","2018/05/22 19:39:28","新北市中和區中正路839巷29號","121.483603333333","25.0023666666667","6500300","中和區"
"235057","801-TS","2018/05/22 19:39:35","新北市中和區員山路176號","121.481461666667","25.0000183333333","6500300","中和區"
"235041","802-TS","2018/05/22 19:39:33","新北市中和區永貞路249巷20號","121.512406666667","25.00356","6500300","中和區"
"235052","805-TS","2018/05/22 19:39:28","新北市中和區華新街206巷21弄2號","121.505931666667","24.982775","6500300","中和區"
"235048","896-TW","2018/05/22 19:39:32","新北市中和區忠孝街1巷2-1號","121.509115","24.98308","6500300","中和區"
"235053","900-TW","2018/05/22 19:39:26","新北市中和區國光街184巷24號","121.467541666667","25.0020633333333","6500300","中和區"
"235066","911-UM","2018/05/22 19:39:29","新北市中和區中和路196巷9弄1號","121.505243333333","24.9992016666667","6500300","中和區"
"235051","157-BY","2018/05/22 19:39:35","新北市中和區南華路1巷1號","121.50189","24.9954516666667","6500300","中和區"
"235037","AAC-213","2018/05/22 19:39:29","新北市中和區秀朗路三段97號","121.52653","24.994985","6500300","中和區"
"235059","AAC-215","2018/05/22 19:39:26","新北市中和區錦和路203巷9號","121.491318333333","24.99047","6500300","中和區"
"220071","015-TV","2018/05/22 19:39:36","新北市板橋區四川路一段325巷3弄5號","121.459495","25.0004233333333","6500100","板橋區"
"220065","072-UY","2018/05/22 19:39:35","新北市板橋區國泰街39巷2弄1號","121.468448333333","25.0062283333333","6500100","板橋區"
"220106","075-UY","2018/05/22 19:39:28","新北市板橋區文化路二段394號","121.473518333333","25.0311633333333","6500100","板橋區"
"220069","AAD-861","2018/05/22 19:39:36","新北市板橋區貴興路76號","121.456418333333","25.00288","6500100","板橋區"
"247004","337-TH","2018/05/22 19:39:37","新北市蘆洲區中華街42巷4號","121.462291666667","25.0811583333333","6501400","蘆洲區"
"247008","056-VK","2018/05/22 19:39:37","新北市蘆洲區中山一路162號","121.474686666667","25.0814683333333","6501400","蘆洲區"
"226004","312-R5","2018/05/22 19:39:29","新北市平溪區十分里十分街58巷6號","121.775461666667","25.0419566666667","6502400","平溪區"
"228001","212-TW","2018/05/22 19:39:36","新北市貢寮區真理里延平街49號","121.924585","25.0556116666667","6502600","貢寮區"
"228003","828-UM","2018/05/22 19:39:36","新北市貢寮區真理里美艷山街15-3號","121.923663333333","25.06804","6502600","貢寮區"
"224010","AGQ-8101","2018/05/22 19:37:04","新北市瑞芳區烏勢巷145號","121.848016666667","25.109255","6501200","瑞芳區"
"224002","639-TC","2018/05/22 19:39:35","新北市瑞芳區民享新村14號","121.816131666667","25.1057983333333","6501200","瑞芳區"
"227009","642-TC","2018/05/22 19:39:38","新北市雙溪區新基里新基北街20號","121.867245","25.03888","6502500","雙溪區"
"227003","400-TW","2018/05/22 19:39:33","新北市雙溪區雙溪里內挖路47號","121.863286666667","25.03669","6502500","雙溪區"
"222001","KEA-2212","2018/05/22 19:39:30","新北市深坑區北深路二段198號","121.613086666667","25.00161","6501800","深坑區"
"208002","KEA-2872","2018/05/22 19:39:41","新北市金山區中正路4號","121.635568333333","25.2224816666667","6502700","金山區"
"208003","665-BX","2018/05/22 19:39:24","新北市金山區中山路158號","121.638585","25.2208833333333","6502700","金山區"
"208001","761-BX","2018/05/22 19:39:31","新北市金山區六股里下六股59-3號","121.615051666667","25.222405","6502700","金山區"
"251005","010-UM","2018/05/22 19:39:31","新北市淡水區原德路106號","121.44334","25.173405","6501000","淡水區"
"251001","011-UM","2018/05/22 19:39:38","新北市淡水區民權路51號","121.459786666667","25.1390683333333","6501000","淡水區"
"251013","KEA-2871","2018/05/22 19:39:27","新北市淡水區頂田寮路147號","121.462343333333","25.2164566666667","6501000","淡水區"
"251016","179-VK","2018/05/22 19:39:30","新北市淡水區下圭柔山119-51號","121.450723333333","25.2084366666667","6501000","淡水區"
"251014","180-VK","2018/05/22 19:39:35","新北市淡水區北勢子20號","121.476206666667","25.2315483333333","6501000","淡水區"
"251008","181-VK","2018/05/22 19:39:35","新北市淡水區中正路一段8巷1弄11號","121.428203333333","25.1757116666667","6501000","淡水區"
"251015","182-VK","2018/05/22 19:39:29","新北市淡水區泉洲厝8號","121.485453333333","25.18883","6501000","淡水區"
"251010","413-VK","2018/05/22 19:39:33","新北市淡水區新市五路二段83號","121.432028333333","25.199785","6501000","淡水區"
"251007","442-VK","2018/05/22 19:39:34","新北市淡水區中正東路一段111巷1號","121.454203333333","25.1602616666667","6501000","淡水區"
"251012","443-VK","2018/05/22 19:39:37","新北市淡水區中山北路三段156號","121.445578333333","25.1956583333333","6501000","淡水區"
"251006","561-UM","2018/05/22 19:39:27","新北市淡水區中山北路一段136號","121.443408333333","25.1774483333333","6501000","淡水區"
"251009","575-R6","2018/05/22 19:39:33","新北市淡水區中山北路一段192號","121.444443333333","25.1792116666667","6501000","淡水區"
"251011","650-BX","2018/05/22 19:39:34","新北市淡水區八勢路20號","121.460721666667","25.153665","6501000","淡水區"
"207003","550-UM","2018/05/22 19:39:21","新北市萬里區大鵬里下社1號","121.647875","25.21506","6502800","萬里區"
"207004","225-TW","2018/05/22 19:39:39","新北市萬里區萬里里瑪鋉路33-1號","121.687545","25.1756766666667","6502800","萬里區"
"252002","178-VK","2018/05/22 19:39:31","新北市三芝區三民街33-1號","121.504625","25.2585983333333","6502100","三芝區"
"252001","292-VK","2018/05/22 19:39:41","新北市三芝區公正街9號","121.499756666667","25.25748","6502100","三芝區"
"237004","KEA-2597","2018/05/22 19:39:39","新北市三峽區插角24號","121.402351666667","24.87299","6500900","三峽區"
"237007","153-BY","2018/05/22 19:39:20","新北市三峽區二鬮路136巷24弄1號","121.355848333333","24.9101333333333","6500900","三峽區"
"237009","210-TH","2018/05/22 19:39:33","新北市三峽區中園街91號","121.367898333333","24.9249383333333","6500900","三峽區"
"237013","252-BX","2018/05/22 19:39:27","新北市三峽區介壽路二段6巷2-1號","121.389361666667","24.9345166666667","6500900","三峽區"
"237012","275-BY","2018/05/22 19:39:30","新北市三峽區光明路36號","121.373801666667","24.9305983333333","6500900","三峽區"
"237008","302-VK","2018/05/22 19:39:35","新北市三峽區中正路一段292巷12弄4號","121.370985","24.9261216666667","6500900","三峽區"
"237014","433-BY","2018/05/22 19:39:24","新北市三峽區添福1-1號","121.370755","24.9089433333333","6500900","三峽區"
"237006","5529-G3","2018/05/22 19:39:27","新北市三峽區中正路一段336巷15弄2號","121.369975","24.9249533333333","6500900","三峽區"
"237016","649-BX","2018/05/22 19:39:35","新北市三峽區成福路251巷5號","121.427208333333","24.9242916666667","6500900","三峽區"
"237005","AKY-6261","2018/05/22 19:39:31","新北市三峽區中山路169巷5號","121.364391666667","24.9361433333333","6500900","三峽區"
"236070","105-UM","2018/05/22 19:39:34","新北市土城區金城路二段2巷5號","121.447423333333","24.976075","6501300","土城區"
"236042","107-UM","2018/05/22 19:39:28","新北市土城區學士路13號","121.45359","24.9828916666667","6501300","土城區"
"236079","166-UM","2018/05/22 19:39:36","新北市土城區溪頭路51號","121.41189","24.95488","6501300","土城區"
"236030","253-BX","2018/05/22 19:39:32","新北市土城區福祥街93號","121.441313333333","24.9813566666667","6501300","土城區"
"236026","269-VK","2018/05/22 19:39:37","新北市土城區中央路二段61巷26號","121.443276666667","24.97873","6501300","土城區"
"236038","271-VK","2018/05/22 19:39:39","新北市土城區青雲路269巷12號","121.459938333333","24.98058","6501300","土城區"
"236021","401-BY","2018/05/22 19:39:23","新北市土城區明峰街83號","121.468885","24.9873766666667","6501300","土城區"
"236049","913-UM","2018/05/22 19:39:32","新北市土城區明德路一段55號","121.465343333333","24.984675","6501300","土城區"
"236063","915-UM","2018/05/22 19:39:31","新北市土城區延平街65號","121.467828333333","24.9927516666667","6501300","土城區"
"236055","AAC-216","2018/05/22 19:39:21","新北市土城區學府路一段85號","121.456565","24.9880333333333","6501300","土城區"
"242029","612-BX","2018/05/22 19:39:35","新北市新莊區新泰路357巷3弄57號","121.442268333333","25.0392966666667","6500500","新莊區"
"242046","442-UM","2018/05/22 19:39:27","新北市新莊區瓊林南路77-41號","121.437461666667","25.0120983333333","6500500","新莊區"
"242051","441-UM","2018/05/22 19:39:28","新北市新莊區瓊林路204-18號","121.436773333333","25.0216316666667","6500500","新莊區"
"242037","415-TV","2018/05/22 19:39:21","新北市新莊區民安路181巷2弄9號","121.426478333333","25.0226766666667","6500500","新莊區"
"242007","413-TV","2018/05/22 19:39:21","新北市新莊區思源路593巷30號","121.457643333333","25.0597116666667","6500500","新莊區"
"242023","362-BY","2018/05/22 19:39:39","新北市新莊區復興路三段117號","121.464438333333","25.0445333333333","6500500","新莊區"
"242032","135-UY","2018/05/22 19:39:34","新北市新莊區新泰路213巷27號","121.445036666667","25.0384","6500500","新莊區"
"242048","172-VK","2018/05/22 19:39:39","新北市新莊區後港一路15號","121.42435","25.0264233333333","6500500","新莊區"
"242011","173-VK","2018/05/22 19:39:21","新北市新莊區三和路12-21號","121.442108333333","25.0387066666667","6500500","新莊區"
"242005","176-VK","2018/05/22 19:39:29","新北市新莊區化成路29巷69號","121.462151666667","25.0439933333333","6500500","新莊區"
"242021","348-TH","2018/05/22 19:39:28","新北市新莊區新莊路496號","121.446386666667","25.0334616666667","6500500","新莊區"
"242013","351-TH","2018/05/22 19:39:35","新北市新莊區中誠街123號","121.449361666667","25.047525","6500500","新莊區"
"238015","755-BX","2018/05/22 19:39:33","新北市樹林區育英街64號","121.421133333333","24.989315","6500700","樹林區"
"238023","601-UM","2018/05/22 19:39:35","新北市樹林區三福街125巷1號","121.405335","25.0159616666667","6500700","樹林區"
"238019","599-UM","2018/05/22 19:39:42","新北市樹林區鎮前街411巷1弄18號","121.415626666667","24.9831583333333","6500700","樹林區"
"238024","5061-A6","2018/05/22 19:39:36","新北市樹林區育德街76巷1號","121.388576666667","24.9681933333333","6500700","樹林區"
"238022","KEA-2213","2018/05/22 19:39:23","新北市樹林區名園街51巷6弄46號","121.42109","24.9781033333333","6500700","樹林區"
"238021","KEA-2539","2018/05/22 19:39:35","新北市樹林區佳園路三段145巷16號","121.386955","24.9490716666667","6500700","樹林區"
"238025","303-VK","2018/05/22 19:39:38","新北市樹林區中山路一段414號","121.417896666667","24.9851233333333","6500700","樹林區"
"238017","283-BY","2018/05/22 19:39:37","新北市樹林區保安街二段45巷21弄9號","121.415038333333","24.99972","6500700","樹林區"
"238014","282-BY","2018/05/22 19:39:28","新北市樹林區千歲街42號","121.42582","24.9968883333333","6500700","樹林區"
"239007","AAC-297","2018/05/22 19:26:19","新北市鶯歌區西湖街53巷19號","121.34051","24.9599233333333","6500800","鶯歌區"
"239006","891-R6","2018/05/22 19:39:30","新北市鶯歌區中正二路8號","121.351765","24.9519583333333","6500800","鶯歌區"
"221008","489-VK","2018/05/22 19:39:41","新北市汐止區康寧街61巷24號","121.619383333333","25.0673016666667","6501100","汐止區"
"221036","130-UY","2018/05/22 19:39:29","新北市汐止區康寧街901號","121.650913333333","25.0754","6501100","汐止區"
"221015","131-UY","2018/05/22 19:39:22","新北市汐止區康寧街901號","121.651588333333","25.075015","6501100","汐止區"
"221010","269-BY","2018/05/22 19:39:30","新北市汐止區汐萬路一段355-1號","121.650043333333","25.0775416666667","6501100","汐止區"
"221012","278-VK","2018/05/22 19:39:18","新北市汐止區汐平路一段5號","121.680783333333","25.0711483333333","6501100","汐止區"
"221027","281-BY","2018/05/22 19:39:33","新北市汐止區忠孝東路9號","121.658253333333","25.065955","6501100","汐止區"
"221021","299-VK","2018/05/22 19:39:31","新北市汐止區新台五路一段129號","121.6523","25.0618","6501100","汐止區"
"221031","353-TW","2018/05/22 19:39:20","新北市汐止區康寧街901號","121.651043333333","25.0751616666667","6501100","汐止區"
"221025","623-UM","2018/05/22 19:39:31","新北市汐止區福安街12-1號","121.662266666667","25.06527","6501100","汐止區"
"221038","646-BX","2018/05/22 19:39:32","新北市汐止區忠孝東路218號","121.662153333333","25.0666516666667","6501100","汐止區"
"221033","647-BX","2018/05/22 19:39:25","台北市南港區舊莊街二段10巷1號","121.626366666667","25.0376283333333","6501100","汐止區"
"221002","707-TV","2018/05/22 19:39:33","新北市汐止區大同路一段219巷27號","121.633401666667","25.0583166666667","6501100","汐止區"
"220080","200-UY","2018/05/22 19:39:23","新北市板橋區大觀路二段37巷254號","121.450008333333","25.002065","6500100","板橋區"
"220082","610-BX","2018/05/22 19:39:41","新北市板橋區大觀路三段160巷34弄5-1號","121.430165","24.9943133333333","6500100","板橋區"
"220101","245-BX","2018/05/22 19:39:32","新北市板橋區莊敬路234號","121.473308333333","25.0214283333333","6500100","板橋區"
"220079","256-TC","2018/05/22 19:39:30","新北市板橋區建國街54巷10號","121.459228333333","25.0168","6500100","板橋區"
"220103","257-TC","2018/05/22 19:39:30","新北市板橋區文化路一段339號","121.466581666667","25.0207283333333","6500100","板橋區"
"220094","267-BY","2018/05/22 19:39:40","新北市板橋區宏國路97-3號","121.469813333333","25.03234","6500100","板橋區"
"220056","276-BY","2018/05/22 19:39:35","新北市板橋區四川路二段47巷3弄2號","121.454228333333","24.9946583333333","6500100","板橋區"
"220072","277-BY","2018/05/22 19:39:21","新北市板橋區金門街237號","121.432173333333","24.9894733333333","6500100","板橋區"
"220089","280-UM","2018/05/22 19:39:33","新北市板橋區英士路39號","121.461526666667","25.0248716666667","6500100","板橋區"
"220053","285-VK","2018/05/22 19:39:35","新北市板橋區中山路二段253號","121.477326666667","25.0174683333333","6500100","板橋區"
"220083","286-VK","2018/05/22 19:39:31","新北市板橋區大觀路二段174巷122號","121.441395","25.002065","6500100","板橋區"
"220081","287-VK","2018/05/22 19:39:25","新北市板橋區大觀路一段75巷41號","121.449026666667","25.0041083333333","6500100","板橋區"
"220090","288-VK","2018/05/22 19:39:30","新北市板橋區長江路一段48巷12號","121.459463333333","25.027915","6500100","板橋區"
"220061","293-UM","2018/05/22 19:39:40","新北市板橋區中山路一段265巷16號","121.468695","25.0146683333333","6500100","板橋區"
"220062","295-UM","2018/05/22 19:39:25","新北市板橋區三民路二段81巷3號","121.479765","25.016715","6500100","板橋區"
"220084","296-UM","2018/05/22 19:39:28","新北市板橋區滿平街84巷80號","121.42614","24.9871666666667","6500100","板橋區"
"220075","303-R5","2018/05/22 19:39:34","新北市板橋區金華街3號","121.455568333333","25.0200966666667","6500100","板橋區"
"220092","307-R5","2018/05/22 19:39:39","新北市板橋區文化路一段387巷17號","121.466146666667","25.0221383333333","6500100","板橋區"
"220098","317-R6","2018/05/22 19:39:26","新北市板橋區四維路269巷45號","121.461273333333","25.02739","6500100","板橋區"
"220064","486-VK","2018/05/22 19:39:38","新北市板橋區民權路33號","121.462218333333","25.0110233333333","6500100","板橋區"
"220088","491-VK","2018/05/22 19:39:36","新北市板橋區仁化街160號","121.478016666667","25.0335016666667","6500100","板橋區"
"220035","560-BX","2018/05/22 19:39:23","新北市板橋區新生街89巷1號","121.45813","25.0218116666667","6500100","板橋區"
"220063","609-BX","2018/05/22 19:39:32","新北市板橋區萬安街27巷22號","121.483861666667","25.0228366666667","6500100","板橋區"
"220086","630-UY","2018/05/22 19:39:33","新北市板橋區中正路74號","121.456526666667","25.0144316666667","6500100","板橋區"
"220091","637-BX","2018/05/22 19:39:18","新北市板橋區懷德街139巷20弄6-2號","121.480061666667","25.0306816666667","6500100","板橋區"
"220057","686-BX","2018/05/22 19:39:26","新北市板橋區國慶路158巷32號","121.461058333333","24.9951433333333","6500100","板橋區"
"220077","687-BX","2018/05/22 19:39:36","新北市板橋區僑中二街108巷2號","121.445885","25.0073066666667","6500100","板橋區"
"220093","689-BX","2018/05/22 19:39:27","新北市板橋區長江路一段61號","121.459021666667","25.0293","6500100","板橋區"
"220054","741-BX","2018/05/22 19:39:27","新北市板橋區忠孝路239巷6號","121.466385","25.0030383333333","6500100","板橋區"
"220102","KEA-2699","2018/05/22 19:39:25","新北市板橋區松柏街36巷5號","121.475348333333","25.0297266666667","6500100","板橋區"
"220055","827-TW","2018/05/22 19:39:36","新北市板橋區國慶路149巷21弄5號","121.460675","24.9973333333333","6500100","板橋區"
"220067","829-TW","2018/05/22 19:39:27","新北市板橋區漢生東路279巷12號","121.47191","25.00919","6500100","板橋區"
"220068","830-TW","2018/05/22 19:39:38","新北市板橋區中山路二段511號","121.482766666667","25.0213466666667","6500100","板橋區"
"220096","831-TW","2018/05/22 19:39:41","新北市板橋區文化路一段372-5號","121.469935","25.0232033333333","6500100","板橋區"
"220074","895-R6","2018/05/22 19:39:40","新北市板橋區倉後街10號","121.455693333333","25.0088783333333","6500100","板橋區"
"220073","985-R7","2018/05/22 19:39:37","新北市板橋區國光路51號","121.458076666667","25.0179866666667","6500100","板橋區"
"220097","AAC-210","2018/05/22 19:39:23","新北市板橋區幸福路32巷6號","121.461623333333","25.0206083333333","6500100","板橋區"
"220070","AAC-253","2018/05/22 19:39:26","新北市板橋區民族路292號","121.470338333333","25.006765","6500100","板橋區"
"235068","KEA-2873","2018/05/22 19:39:16","新北市中和區景平路493巷14號","121.499175","24.9970516666667","6500300","中和區"
