"lineid","car","time","location","longitude","latitude","cityid","cityname"
"234046","148-BY","2018/05/22 20:09:29","新北市永和區得和路396號","121.525391666667","24.9991466666667","6500400","永和區"
"234007","207-UY","2018/05/22 20:09:29","新北市永和區保生路22巷6號","121.50724","25.0077733333333","6500400","永和區"
"234081","298-R6","2018/05/22 20:09:26","新北市永和區國中路101號","121.52419","25.006265","6500400","永和區"
"234038","336-UY","2018/05/22 20:09:31","新北市永和區成功路一段45號","121.52712","25.0041233333333","6500400","永和區"
"234064","337-UY","2018/05/22 20:09:30","新北市永和區秀朗路二段43號","121.521538333333","25.0024183333333","6500400","永和區"
"234086","338-UY","2018/05/22 20:09:36","新北市永和區中正路575號","121.51675","25.0087816666667","6500400","永和區"
"234070","552-UM","2018/05/22 20:09:24","新北市永和區福和路173號","121.520018333333","25.00742","6500400","永和區"
"234017","745-BX","2018/05/22 20:09:37","新北市永和區文化路95-1號","121.51327","25.0152466666667","6500400","永和區"
"234030","746-BX","2018/05/22 20:09:27","新北市永和區民權路49巷40號","121.522093333333","24.997595","6500400","永和區"
"234054","KEA-2590","2018/05/22 20:09:25","新北市永和區博愛街20巷2號","121.517718333333","25.0157983333333","6500400","永和區"
"234013","KEA-2591","2018/05/22 20:09:31","新北市永和區永貞路415號","121.507373333333","25.0093616666667","6500400","永和區"
"234061","AAD-866","2018/05/22 20:09:33","新北市永和區中正路151巷1號","121.516113333333","24.9983633333333","6500400","永和區"
"234042","862-TW","2018/05/22 20:09:36","新北市永和區雙和街43號","121.508903333333","25.002845","6500400","永和區"
"234050","863-TW","2018/05/22 20:09:32","新北市永和區新生路245號","121.50596","25.0135416666667","6500400","永和區"
"234011","9373-KE","2018/05/22 20:09:34","新北市永和區仁愛路352巷122弄13號","121.50073","25.0088683333333","6500400","永和區"
"249005","172-UM","2018/05/22 20:09:32","新北市八里區下罟子58-10號","121.38765","25.1373683333333","6502300","八里區"
"249001","173-UM","2018/05/22 20:09:29","新北市八里區中華路二段318號","121.403515","25.14813","6502300","八里區"
"249004","303-UY","2018/05/22 20:09:33","新北市八里區中山路一段398巷51弄20號","121.410736666667","25.1587","6502300","八里區"
"249002","305-UY","2018/05/22 20:09:38","新北市八里區龍米路一段17號","121.457385","25.1157316666667","6502300","八里區"
"249003","593-UM","2018/05/22 20:09:35","新北市八里區中山路二段540巷9弄2號","121.396953333333","25.14718","6502300","八里區"
"248016","026-BX","2018/05/22 20:09:29","新北市五股區天乙路60號","121.448143333333","25.1047266666667","6501500","五股區"
"248008","095-VK","2018/05/22 20:09:27","新北市三重區中正北路560巷37弄19號","121.470006666667","25.07086","6501500","五股區"
"248020","225-UY","2018/05/22 20:09:35","新北市五股區凌雲路二段40-2號","121.43987","25.1025933333333","6501500","五股區"
"248012","247-BX","2018/05/22 20:09:28","新北市五股區民義路一段212號","121.430476666667","25.0895333333333","6501500","五股區"
"248014","261-SL","2018/05/22 20:09:36","新北市五股區成泰路三段83號","121.443798333333","25.0899333333333","6501500","五股區"
"248004","677-BX","2018/05/22 20:09:41","新北市五股區成泰路一段135號","121.435548333333","25.0728066666667","6501500","五股區"
"248002","678-BX","2018/05/22 20:09:33","新北市五股區新城三路1號","121.447408333333","25.0939733333333","6501500","五股區"
"248010","682-TV","2018/05/22 20:09:29","新北市五股區成泰路一段7巷48弄8號","121.43276","25.0678266666667","6501500","五股區"
"234023","9380-KE","2018/05/22 20:09:30","新北市永和區中正路702巷18號","121.516458333333","25.0105666666667","6500400","永和區"
"234077","969-R7","2018/05/22 20:09:33","新北市永和區智光街107巷15號","121.515778333333","24.99595","6500400","永和區"
"234074","AAC-211","2018/05/22 20:09:29","新北市永和區豫溪街136巷1號","121.52132","25.01034","6500400","永和區"
"234067","AAC-212","2018/05/22 20:09:42","新北市永和區保平路214巷12弄2號","121.509128333333","25.006695","6500400","永和區"
"234003","AAC-295","2018/05/22 20:09:24","新北市永和區中正路626號","121.517101666667","25.007965","6500400","永和區"
"243013","AAD-798","2018/05/22 20:09:38","新北市泰山區明志路三段74巷17號","121.424195","25.0417216666667","6501600","泰山區"
"243009","297-R6","2018/05/22 20:09:24","新北市泰山區泰林路二段116巷4弄1號","121.435211666667","25.0595566666667","6501600","泰山區"
"243016","380-SR","2018/05/22 20:09:21","新北市泰山區新北大道六段235號","121.425153333333","25.03509","6501600","泰山區"
"243015","421-VK","2018/05/22 20:09:40","新北市泰山區明志路一段278號","121.432001666667","25.0600633333333","6501600","泰山區"
"243011","KEA-2215","2018/05/22 20:09:28","新北市泰山區明志路三段182巷55號","121.42271","25.0398","6501600","泰山區"
"243010","KEA-2216","2018/05/22 20:09:38","新北市泰山區明志路二段136巷10號","121.426853333333","25.0506816666667","6501600","泰山區"
"243012","646-TV","2018/05/22 20:09:31","新北市泰山區楓江路142-1號","121.439985","25.0652416666667","6501600","泰山區"
"243014","680-BX","2018/05/22 20:09:24","新北市泰山區明志路一段31號","121.43371","25.06551","6501600","泰山區"
"222003","436-BY","2018/05/22 20:09:20","新北市深坑區埔新街65號","121.620225","25.00232","6501800","深坑區"
"222002","659-BX","2018/05/22 20:09:23","新北市深坑區北深路三段22號","121.609378333333","25.0010433333333","6501800","深坑區"
"231041","002-UM","2018/05/22 20:09:23","新北市新店區中正路468號","121.533985","24.9793916666667","6500600","新店區"
"231059","046-UY","2018/05/22 20:09:35","新北市新店區安成街28號","121.510186666667","24.9610166666667","6500600","新店區"
"231040","047-UY","2018/05/22 20:09:31","新北市新店區中正路108號","121.543006666667","24.97046","6500600","新店區"
"231044","106-UY","2018/05/22 20:09:38","新北市新店區寶慶街58巷4號","121.542088333333","24.9869233333333","6500600","新店區"
"231053","108-UY","2018/05/22 20:09:30","新北市新店區新烏路三段寶島巷2弄3號","121.552021666667","24.898645","6500600","新店區"
"231048","187-VK","2018/05/22 20:09:32","新北市新店區寶橋路59-1號","121.545148333333","24.9750316666667","6500600","新店區"
"231046","188-VK","2018/05/22 20:09:23","新北市新店區薏仁坑路自強巷6號","121.496425","24.9584866666667","6500600","新店區"
"231054","KEA-2219","2018/05/22 20:09:34","新北市新店區檳榔路44號","121.541645","24.9636666666667","6500600","新店區"
"231057","256-BX","2018/05/22 20:09:38","新北市新店區百齡一路12號","121.553231666667","24.932405","6500600","新店區"
"231042","268-BY","2018/05/22 20:09:27","新北市新店區中興路二段89號","121.547135","24.9714833333333","6500600","新店區"
"231051","278-BY","2018/05/22 20:09:23","新北市新店區中央六街3號","121.530375","24.9744666666667","6500600","新店區"
"231050","AAD-862","2018/05/22 20:09:36","新北市新店區北新路一段335號","121.541865","24.9686383333333","6500600","新店區"
"231058","3713-VJ","2018/05/22 20:09:20","新北市新店區安德街60巷19-1號","121.510431666667","24.9632433333333","6500600","新店區"
"231066","4716-K9","2018/05/22 20:09:38","新北市新店區柴埕路34-1號","121.513505","24.965045","6500600","新店區"
"231056","4715-K9","2018/05/22 20:09:38","新北市新店區中正路269號","121.537785","24.9741583333333","6500600","新店區"
"231067","4772-VM","2018/05/22 20:09:38","新北市新店區溪洲路6巷88號","121.53321","24.9636233333333","6500600","新店區"
"231065","512-UM","2018/05/22 20:09:20","新北市新店區安祥路106巷343號","121.47287","24.9593133333333","6500600","新店區"
"231049","513-UM","2018/05/22 20:09:19","新北市新店區北新路二段171巷9號","121.54221","24.9764283333333","6500600","新店區"
"231063","616-UM","2018/05/22 20:09:15","新北市新店區黎明路53巷1號","121.502331666667","24.9487033333333","6500600","新店區"
"231045","617-UM","2018/05/22 20:09:31","新北市新店區北宜路一段152-2號","121.540273333333","24.95376","6500600","新店區"
"231061","619-UM","2018/05/22 20:09:21","新北市新店區安民街315號","121.517543333333","24.9741366666667","6500600","新店區"
"231068","718-UY","2018/05/22 20:09:32","新北市新店區寶高路102巷20號","121.553413333333","24.9726416666667","6500600","新店區"
"231064","719-UY","2018/05/22 20:09:27","新北市新店區安康路二段118-11號","121.513115","24.9634883333333","6500600","新店區"
"231062","720-UM","2018/05/22 20:09:31","新北市新店區安康路一段206號","121.524068333333","24.9634883333333","6500600","新店區"
"231060","897-TW","2018/05/22 20:09:21","新北市新店區安康路三段450號","121.484503333333","24.95119","6500600","新店區"
"231043","899-TW","2018/05/22 20:09:38","新北市新店區民族路190號","121.536396666667","24.9755766666667","6500600","新店區"
"231055","AKT-0513","2018/05/22 20:09:31","新北市新店區中華路42巷14號","121.540541666667","24.96862","6500600","新店區"
"241011","013-R5","2018/05/22 20:09:30","新北市三重區仁愛街28號","121.496416666667","25.0716716666667","6500200","三重區"
"241028","022-UY","2018/05/22 20:09:27","新北市三重區仁化街137號","121.494683333333","25.05748","6500200","三重區"
"241008","059-VK","2018/05/22 20:09:28","新北市三重區永福街197巷17號","121.478805","25.07431","6500200","三重區"
"241031","061-VK","2018/05/22 20:09:34","新北市三重區過圳街9-1號","121.488771666667","25.0601233333333","6500200","三重區"
"241015","062-VK","2018/05/22 20:09:05","新北市三重區福德北路43號","121.502368333333","25.0649283333333","6500200","三重區"
"241017","063-VK","2018/05/22 20:09:35","新北市三重區大智街108-3號","121.493025","25.0665866666667","6500200","三重區"
"241026","066-VK","2018/05/22 20:09:36","新北市三重區福德南路26號","121.502845","25.0630933333333","6500200","三重區"
"241002","090-VK","2018/05/22 20:09:31","新北市三重區五華街35巷80號","121.496096666667","25.08208","6500200","三重區"
"241003","091-VK","2018/05/22 20:09:29","新北市三重區仁愛街472號","121.489683333333","25.0824116666667","6500200","三重區"
"241022","742-BX","2018/05/22 20:09:33","新北市三重區重陽路二段1號","121.48688","25.0617416666667","6500200","三重區"
"241005","262-UM","2018/05/22 20:09:27","新北市三重區溪尾街327號","121.48846","25.0848283333333","6500200","三重區"
"241009","265-UM","2018/05/22 20:09:33","新北市三重區三和路四段382巷94弄5號","121.479255","25.0780633333333","6500200","三重區"
"241016","266-UM","2018/05/22 20:09:30","新北市三重區中正北路25巷2號","121.493295","25.0627216666667","6500200","三重區"
"241018","268-UM","2018/05/22 20:09:29","新北市三重區正義北路256巷112號","121.493666666667","25.0678683333333","6500200","三重區"
"241032","269-UM","2018/05/22 20:09:26","新北市三重區捷運路36號","121.483448333333","25.055405","6500200","三重區"
"241013","270-UM","2018/05/22 20:09:23","新北市三重區三和路三段151巷35號","121.493611666667","25.0741266666667","6500200","三重區"
"241025","271-UM","2018/05/22 20:09:31","新北市三重區中正北路193巷37號","121.475778333333","25.0707966666667","6500200","三重區"
"241007","398-BY","2018/05/22 20:09:32","新北市三重區三和路四段111-30號","121.486916666667","25.0776133333333","6500200","三重區"
"241035","462-BY","2018/05/22 20:09:30","新北市三重區文化北路25號","121.499618333333","25.0636966666667","6500200","三重區"
"241004","475-VK","2018/05/22 20:09:24","新北市三重區自強路四段107號","121.4916","25.0799383333333","6500200","三重區"
"241020","478-VK","2018/05/22 20:09:30","新北市三重區三和路三段168號","121.492665","25.0732433333333","6500200","三重區"
"241030","480-VK","2018/05/22 20:09:38","新北市三重區集美街75巷27號","121.487983333333","25.0530216666667","6500200","三重區"
"241014","543-UM","2018/05/22 20:09:28","新北市三重區長壽街120巷45號","121.502203333333","25.0696433333333","6500200","三重區"
"241023","545-UM","2018/05/22 20:09:28","新北市三重區頂崁街221號","121.47706","25.06795","6500200","三重區"
"241001","547-UM","2018/05/22 20:09:20","新北市三重區三和路四段89巷4號","121.489195","25.0757483333333","6500200","三重區"
"241019","KEA-2593","2018/05/22 20:09:40","新北市三重區自強路二段33巷58號","121.490776666667","25.0699166666667","6500200","三重區"
"241006","AAD-863","2018/05/22 20:09:34","新北市三重區車路頭街135-1號","121.484278333333","25.0761583333333","6500200","三重區"
"241024","887-TS","2018/05/22 20:09:24","新北市三重區中正北路169號","121.478693333333","25.06934","6500200","三重區"
"241012","941-UM","2018/05/22 20:09:40","新北市三重區仁福街64巷32號","121.497498333333","25.07572","6500200","三重區"
"241029","942-UM","2018/05/22 20:09:20","新北市三重區光明路32巷28號","121.492035","25.058745","6500200","三重區"
"241033","AAC-255","2018/05/22 20:09:22","新北市三重區光復路一段68巷16號","121.471271666667","25.0492633333333","6500200","三重區"
"235039","097-UM","2018/05/22 20:09:28","新北市中和區立人街24-5號","121.518868333333","24.994185","6500300","中和區"
"235065","098-UM","2018/05/22 20:09:18","新北市中和區福美路256巷10號","121.4981","25.0058416666667","6500300","中和區"
"235040","150-BY","2018/05/22 20:09:23","新北市中和區保健路10巷21弄31號","121.508583333333","24.9977366666667","6500300","中和區"
"235050","4979-A6","2018/05/22 20:09:33","新北市中和區安樂路37號","121.511891666667","24.9929883333333","6500300","中和區"
"235069","4980-A6","2018/05/22 20:09:26","新北市中和區景新街64巷11弄2號","121.503838333333","24.998365","6500300","中和區"
"235070","558-UM","2018/05/22 20:09:31","新北市中和區建一路177號","121.488296666667","24.9987983333333","6500300","中和區"
"235046","733-UM","2018/05/22 20:09:26","新北市中和區忠孝街79號","121.512138333333","24.9851666666667","6500300","中和區"
"235041","802-TS","2018/05/22 20:09:33","新北市板橋區民生路三段106號","121.466478333333","25.0260683333333","6500300","中和區"
"235052","805-TS","2018/05/22 20:09:28","新北市中和區忠孝街95號","121.512115","24.98572","6500300","中和區"
"235066","911-UM","2018/05/22 20:09:29","新北市中和區水源路127巷2弄2號","121.508043333333","25.0040133333333","6500300","中和區"
"235051","157-BY","2018/05/22 20:09:35","新北市中和區景安路225號","121.504275","24.9913366666667","6500300","中和區"
"235037","AAC-213","2018/05/22 20:09:29","新北市中和區立人街33-3號","121.520853333333","24.9941583333333","6500300","中和區"
"235059","AAC-215","2018/05/22 20:09:26","新北市中和區圓通路367巷13弄29-6號","121.493095","24.9883416666667","6500300","中和區"
"220071","015-TV","2018/05/22 20:09:36","新北市板橋區和平路174巷1弄7號","121.464293333333","24.9953266666667","6500100","板橋區"
"220065","072-UY","2018/05/22 20:09:35","新北市板橋區萬安街142-2號","121.483728333333","25.02645","6500100","板橋區"
"220069","AAD-861","2018/05/22 20:09:36","新北市板橋區大明街23號","121.45862","25.0025266666667","6500100","板橋區"
"247024","893-R6","2018/05/22 20:09:28","新北市蘆洲區光明路112號","121.463593333333","25.08819","6501400","蘆洲區"
"247014","546-UM","2018/05/22 20:09:32","新北市蘆洲區中山二路269號","121.46984","25.0794383333333","6501400","蘆洲區"
"247022","500-BY","2018/05/22 20:09:35","新北市蘆洲區三民路130號","121.470776666667","25.087495","6501400","蘆洲區"
"247010","341-TH","2018/05/22 20:09:20","新北市蘆洲區信義路132-1號","121.47951","25.0828883333333","6501400","蘆洲區"
"247012","339-TH","2018/05/22 20:09:23","新北市蘆洲區民族路266號","121.478795","25.088935","6501400","蘆洲區"
"247004","337-TH","2018/05/22 20:09:37","新北市蘆洲區永安南路二段328巷2號","121.457015","25.0830883333333","6501400","蘆洲區"
"247006","336-TH","2018/05/22 20:09:21","新北市蘆洲區中山二路309號","121.468746666667","25.07708","6501400","蘆洲區"
"247018","057-VK","2018/05/22 20:09:40","新北市蘆洲區民族路314巷5號","121.47756","25.0903216666667","6501400","蘆洲區"
"247016","007-UY","2018/05/22 20:09:32","新北市蘆洲區光華路165號","121.465101666667","25.0820533333333","6501400","蘆洲區"
"247002","002-UY","2018/05/22 20:09:19","新北市蘆洲區長榮路269巷22號","121.459678333333","25.0861416666667","6501400","蘆洲區"
"247020","001-UY","2018/05/22 20:09:29","新北市蘆洲區民權路106巷5弄2-1號","121.474431666667","25.0890366666667","6501400","蘆洲區"
"224010","AGQ-8101","2018/05/22 20:09:24","新北市瑞芳區汽車路10號","121.846421666667","25.1105516666667","6501200","瑞芳區"
"222001","KEA-2212","2018/05/22 20:09:30","新北市深坑區北深路三段191號","121.601191666667","25.0036433333333","6501800","深坑區"
"208002","KEA-2872","2018/05/22 20:09:41","新北市金山區環金路466號","121.629978333333","25.22481","6502700","金山區"
"251004","009-UM","2018/05/22 20:09:35","新北市淡水區民族路31巷33號","121.462238333333","25.1366366666667","6501000","淡水區"
"251001","011-UM","2018/05/22 20:09:38","新北市淡水區新市二路四段265號","121.445723333333","25.19246","6501000","淡水區"
"251013","KEA-2871","2018/05/22 20:09:27","新北市淡水區奎柔山路460號","121.463758333333","25.2045966666667","6501000","淡水區"
"251016","179-VK","2018/05/22 20:09:30","新北市淡水區番子田18-4號","121.45666","25.2294533333333","6501000","淡水區"
"251014","180-VK","2018/05/22 20:09:35","新北市淡水區石頭厝1號","121.45872","25.2355333333333","6501000","淡水區"
"251008","181-VK","2018/05/22 20:09:35","新北市淡水區沙崙路156巷15號","121.423841666667","25.1824983333333","6501000","淡水區"
"251015","182-VK","2018/05/22 20:09:29","新北市淡水區埤島3-23號","121.447743333333","25.1897416666667","6501000","淡水區"
"251010","413-VK","2018/05/22 20:09:33","新北市淡水區新市二路二段12號","121.424128333333","25.1967416666667","6501000","淡水區"
"251012","443-VK","2018/05/22 20:09:37","新北市淡水區淡金路三段266號","121.44895","25.2065966666667","6501000","淡水區"
"251006","561-UM","2018/05/22 20:09:27","新北市淡水區北新路141巷29號","121.448206666667","25.1795816666667","6501000","淡水區"
"251009","575-R6","2018/05/22 20:09:22","新北市淡水區清水街9-8號","121.444558333333","25.1702433333333","6501000","淡水區"
"251003","673-BX","2018/05/22 20:09:27","新北市淡水區新市一路二段255號","121.443738333333","25.183495","6501000","淡水區"
"207003","550-UM","2018/05/22 20:09:41","新北市萬里區大鵬里萬里加投172號","121.64322","25.2157483333333","6502800","萬里區"
"207004","225-TW","2018/05/22 20:09:25","新北市萬里區北基里仁一街30號","121.682438333333","25.1766883333333","6502800","萬里區"
"252002","178-VK","2018/05/22 20:09:31","新北市三芝區三民街8巷1號","121.503956666667","25.2582016666667","6502100","三芝區"
"252001","292-VK","2018/05/22 20:09:40","新北市三芝區長安街89號","121.499641666667","25.2575816666667","6502100","三芝區"
"237006","5529-G3","2018/05/22 20:09:27","新北市三峽區大利路24號","121.367261666667","24.91167","6500900","三峽區"
"237016","649-BX","2018/05/22 20:09:34","新北市三峽區介壽路二段138巷1弄62號","121.396656666667","24.93339","6500900","三峽區"
"237005","AKY-6261","2018/05/22 20:09:31","新北市三峽區三樹路98巷74弄16號","121.384781666667","24.9385016666667","6500900","三峽區"
"236070","105-UM","2018/05/22 20:09:34","新北市土城區中央路三段185-6號","121.431686666667","24.964825","6501300","土城區"
"236042","107-UM","2018/05/22 20:09:28","新北市土城區學成路8號","121.453396666667","24.9865533333333","6501300","土城區"
"236079","166-UM","2018/05/22 20:09:36","新北市土城區福安街11號","121.420186666667","24.965065","6501300","土城區"
"236030","253-BX","2018/05/22 20:09:38","新北市土城區中央路一段141號","121.446753333333","24.9879716666667","6501300","土城區"
"236026","269-VK","2018/05/22 20:09:37","新北市土城區裕生路83巷32號","121.447956666667","24.9838333333333","6501300","土城區"
"236014","270-VK","2018/05/22 20:09:23","新北市土城區德興街137號","121.455121666667","24.9916983333333","6501300","土城區"
"236038","271-VK","2018/05/22 20:09:39","新北市土城區明德路一段48巷12號","121.464676666667","24.98372","6501300","土城區"
"236021","401-BY","2018/05/22 20:09:23","新北市土城區和城路二段255巷140號","121.475765","24.9877416666667","6501300","土城區"
"236059","912-UM","2018/05/22 20:09:27","新北市土城區中央路二段191號","121.442116666667","24.9754233333333","6501300","土城區"
"236049","913-UM","2018/05/22 20:09:32","新北市土城區金城路三段21號","121.465121666667","24.98648","6501300","土城區"
"236055","AAC-216","2018/05/22 20:09:21","新北市土城區中華路一段166號","121.441453333333","24.9831166666667","6501300","土城區"
"242034","AAC-296","2018/05/22 20:09:40","新北市新莊區中正路318巷16號","121.446465","25.0359666666667","6500500","新莊區"
"242058","986-R7","2018/05/22 20:09:36","新北市新莊區八德街135號","121.423845","25.0203216666667","6500500","新莊區"
"242054","751-BX","2018/05/22 20:09:25","新北市新莊區西盛街395巷23弄2號","121.428258333333","25.0125933333333","6500500","新莊區"
"242027","615-BX","2018/05/22 20:09:37","新北市新莊區幸福路741號","121.448708333333","25.0491133333333","6500500","新莊區"
"242025","613-BX","2018/05/22 20:09:41","新北市新莊區五工路68巷2號","121.45901","25.06428","6500500","新莊區"
"242029","612-BX","2018/05/22 20:09:35","新北市新莊區中原路261號","121.448515","25.0543266666667","6500500","新莊區"
"242042","566-BX","2018/05/22 20:09:27","新北市新莊區青山路一段179號","121.400403333333","25.0301566666667","6500500","新莊區"
"242046","442-UM","2018/05/22 20:09:27","新北市新莊區裕民街103巷11號","121.419011666667","25.0229716666667","6500500","新莊區"
"242051","441-UM","2018/05/22 20:09:28","新北市新莊區民安西路172巷15號","121.425221666667","25.0160333333333","6500500","新莊區"
"242056","440-UM","2018/05/22 20:09:33","新北市新莊區新莊路649巷15弄1號","121.445023333333","25.0315016666667","6500500","新莊區"
"242037","415-TV","2018/05/22 20:09:35","新北市新莊區建安街9巷9號","121.429358333333","25.0266966666667","6500500","新莊區"
"242007","413-TV","2018/05/22 20:09:21","新北市新莊區福壽街202巷16號","121.458851666667","25.05368","6500500","新莊區"
"242023","362-BY","2018/05/22 20:09:39","新北市新莊區化成路323號","121.465876666667","25.0559466666667","6500500","新莊區"
"242061","353-BY","2018/05/22 20:09:34","新北市新莊區瓊林路瓊英巷1弄1號","121.443855","25.0272433333333","6500500","新莊區"
"242009","132-UY","2018/05/22 20:09:19","新北市新莊區昌盛街35巷2弄1號","121.454171666667","25.050405","6500500","新莊區"
"242039","133-UY","2018/05/22 20:09:26","新北市新莊區民安西路102號","121.426798333333","25.0190116666667","6500500","新莊區"
"242032","135-UY","2018/05/22 20:09:34","新北市新莊區中正路360號","121.443643333333","25.0344","6500500","新莊區"
"242048","172-VK","2018/05/22 20:09:32","新北市新莊區四維路182巷8號","121.421891666667","25.0218816666667","6500500","新莊區"
"242011","173-VK","2018/05/22 20:09:41","新北市新莊區中信街63巷2弄10號","121.448713333333","25.0506066666667","6500500","新莊區"
"242017","175-VK","2018/05/22 20:09:30","新北市新莊區中港路373號","121.451751666667","25.046505","6500500","新莊區"
"242005","176-VK","2018/05/22 20:09:29","新北市新莊區頭興街7巷2號","121.462535","25.053485","6500500","新莊區"
"242015","346-TH","2018/05/22 20:09:33","新北市新莊區中平路26巷31號","121.446281666667","25.0435183333333","6500500","新莊區"
"242021","348-TH","2018/05/22 20:09:38","新北市新莊區中興街9號","121.449233333333","25.035995","6500500","新莊區"
"242019","350-TH","2018/05/22 20:09:30","新北市新莊區博愛路2巷2號","121.456523333333","25.04278","6500500","新莊區"
"242013","351-TH","2018/05/22 20:09:35","新北市新莊區幸福路710巷1弄12號","121.449156666667","25.0496666666667","6500500","新莊區"
"221008","489-VK","2018/05/22 20:09:21","台北市內湖區康樂街139號","121.619726666667","25.0741566666667","6501100","汐止區"
"221036","130-UY","2018/05/22 20:09:35","新北市汐止區新台五路二段102號","121.662526666667","25.0659783333333","6501100","汐止區"
"221015","131-UY","2018/05/22 20:09:22","新北市汐止區建成路29號","121.664068333333","25.07268","6501100","汐止區"
"221010","269-BY","2018/05/22 20:09:30","新北市汐止區八連路二段36巷14號","121.637003333333","25.094455","6501100","汐止區"
"221012","278-VK","2018/05/22 20:09:38","新北市汐止區汐平路二段66號","121.697936666667","25.0612","6501100","汐止區"
"221032","280-BY","2018/05/22 20:09:33","新北市汐止區弘道街8巷1弄1號","121.617021666667","25.048445","6501100","汐止區"
"221027","281-BY","2018/05/22 20:09:33","新北市汐止區光明街28號","121.660191666667","25.0686183333333","6501100","汐止區"
"221029","298-VK","2018/05/22 20:09:31","新北市汐止區樟樹一路119巷10弄1號","121.641213333333","25.0645383333333","6501100","汐止區"
"221021","299-VK","2018/05/22 20:09:27","新北市汐止區水源路一段238巷1號","121.654235","25.0604166666667","6501100","汐止區"
"221031","353-TW","2018/05/22 20:09:40","新北市汐止區原興路74巷2號","121.632118333333","25.0661966666667","6501100","汐止區"
"221035","622-UM","2018/05/22 20:09:30","新北市汐止區長江街79巷16號","121.65788","25.0729533333333","6501100","汐止區"
"221025","623-UM","2018/05/22 20:09:30","新北市汐止區秀峰路74號","121.659923333333","25.06428","6501100","汐止區"
"221038","646-BX","2018/05/22 20:09:32","新北市汐止區大同路三段66號","121.668096666667","25.0770066666667","6501100","汐止區"
"221033","647-BX","2018/05/22 20:09:25","新北市汐止區東勢街201巷129弄2號","121.63346","25.0428333333333","6501100","汐止區"
"221002","707-TV","2018/05/22 20:09:33","新北市汐止區工建路366號","121.633291666667","25.0594466666667","6501100","汐止區"
"221018","753-BX","2018/05/22 20:09:33","新北市汐止區茄苳路308號","121.673416666667","25.0667566666667","6501100","汐止區"
"220080","200-UY","2018/05/22 20:09:23","新北市板橋區大觀路二段169巷4號","121.445463333333","25.0001033333333","6500100","板橋區"
"242002","KEA-2550","2018/05/22 20:09:36","新北市新莊區中正路143號","121.459703333333","25.0384416666667","6500500","新莊區"
"220101","245-BX","2018/05/22 20:09:32","新北市板橋區莒光路171巷1弄18-3號","121.474558333333","25.024755","6500100","板橋區"
"220103","257-TC","2018/05/22 20:09:38","新北市板橋區英士路60號","121.46085","25.0248283333333","6500100","板橋區"
"220072","277-BY","2018/05/22 20:09:21","新北市板橋區金門街139號","121.432861666667","24.9910583333333","6500100","板橋區"
"220089","280-UM","2018/05/22 20:09:33","新北市板橋區互助街34號","121.462166666667","25.0271366666667","6500100","板橋區"
"220053","285-VK","2018/05/22 20:09:35","新北市板橋區懷仁街75號","121.47728","25.0184483333333","6500100","板橋區"
"220083","286-VK","2018/05/22 20:09:39","新北市板橋區僑中二街90巷8號","121.446005","25.0092133333333","6500100","板橋區"
"220081","287-VK","2018/05/22 20:09:25","新北市板橋區大觀路一段28巷90號","121.450011666667","25.0109933333333","6500100","板橋區"
"220061","293-UM","2018/05/22 20:09:20","新北市板橋區中山路一段156-3號","121.465281666667","25.0118183333333","6500100","板橋區"
"242044","281-VK","2018/05/22 20:09:41","新北市新莊區中正路895-50號","121.411863333333","25.02179","6500500","新莊區"
"220092","307-R5","2018/05/22 20:09:39","新北市板橋區文化路一段81巷6號","121.460735","25.0141433333333","6500100","板橋區"
"220098","317-R6","2018/05/22 20:09:26","新北市板橋區新海路72巷5弄11號","121.46183","25.0225016666667","6500100","板橋區"
"220064","486-VK","2018/05/22 20:09:38","新北市板橋區長安街331巷22-2號","121.473963333333","25.0125033333333","6500100","板橋區"
"220088","491-VK","2018/05/22 20:09:27","新北市板橋區民治街51巷1號","121.479083333333","25.03372","6500100","板橋區"
"220093","689-BX","2018/05/22 20:09:32","新北市板橋區長江路一段70號","121.459165","25.02923","6500100","板橋區"
"220102","KEA-2699","2018/05/22 20:09:25","新北市板橋區民治街137號","121.477643333333","25.030675","6500100","板橋區"
"220055","827-TW","2018/05/22 20:09:36","新北市板橋區仁愛路75號","121.461026666667","24.9997","6500100","板橋區"
"220067","829-TW","2018/05/22 20:09:27","新北市板橋區板新路117巷1號","121.472188333333","25.0146233333333","6500100","板橋區"
"220068","830-TW","2018/05/22 20:09:38","新北市板橋區中山路二段362號","121.481656666667","25.0201666666667","6500100","板橋區"
"220074","895-R6","2018/05/22 20:09:36","新北市板橋區府後街1巷1號","121.459091666667","25.0107416666667","6500100","板橋區"
"220097","AAC-210","2018/05/22 20:09:03","新北市板橋區光正街9巷22弄7號","121.462305","25.0165316666667","6500100","板橋區"
"220070","AAC-253","2018/05/22 20:09:26","新北市板橋區德興街33號","121.453535","24.9939083333333","6500100","板橋區"
"235068","KEA-2873","2018/05/22 20:09:34","新北市中和區中山路二段250巷12號","121.49752","25.0030183333333","6500300","中和區"
