"lineid","car","time","location","longitude","latitude","cityid","cityname"
"234081","298-R6","2018/05/22 20:29:26","新北市永和區永貞路29號","121.52108","25.00676","6500400","永和區"
"234038","336-UY","2018/05/22 20:29:31","新北市永和區民樂街31巷10弄12號","121.528908333333","25.0008466666667","6500400","永和區"
"234064","337-UY","2018/05/22 20:29:30","新北市永和區中正路532號","121.517226666667","25.0051616666667","6500400","永和區"
"234086","338-UY","2018/05/22 20:29:36","新北市永和區光復街21號","121.516491666667","25.0173866666667","6500400","永和區"
"234070","552-UM","2018/05/22 20:29:24","新北市永和區永亨路9號","121.519515","25.0057616666667","6500400","永和區"
"234017","745-BX","2018/05/22 20:29:33","新北市永和區仁愛路97號","121.51288","25.0130816666667","6500400","永和區"
"234030","746-BX","2018/05/22 20:29:27","新北市永和區民族街81巷58號","121.520026666667","24.99649","6500400","永和區"
"234054","KEA-2590","2018/05/22 20:29:39","新北市永和區環河東路一段42號","121.518883333333","25.0169383333333","6500400","永和區"
"234061","AAD-866","2018/05/22 20:29:33","新北市永和區安樂路194巷37號","121.516401666667","25.001325","6500400","永和區"
"234042","862-TW","2018/05/22 20:29:35","新北市永和區安樂路284號","121.514351666667","25.0044483333333","6500400","永和區"
"234050","863-TW","2018/05/22 20:29:39","新北市永和區新生路128號","121.506858333333","25.0144383333333","6500400","永和區"
"249001","173-UM","2018/05/22 20:29:29","新北市八里區下罟子5-11號","121.38689","25.1423116666667","6502300","八里區"
"249004","303-UY","2018/05/22 20:29:33","新北市八里區中山路一段129巷27號","121.414063333333","25.1585883333333","6502300","八里區"
"249002","305-UY","2018/05/22 20:29:38","新北市八里區龍米路二段125巷23號","121.445751666667","25.1455133333333","6502300","八里區"
"249003","593-UM","2018/05/22 20:29:35","新北市八里區舊城路21號","121.399748333333","25.1470616666667","6502300","八里區"
"234023","9380-KE","2018/05/22 20:29:35","新北市永和區永和路二段290號","121.516066666667","25.01559","6500400","永和區"
"234074","AAC-211","2018/05/22 20:29:41","新北市永和區豫溪街191巷7弄24號","121.523228333333","25.0111533333333","6500400","永和區"
"234067","AAC-212","2018/05/22 20:29:31","新北市永和區保平路292巷4號","121.507903333333","25.0048133333333","6500400","永和區"
"234003","AAC-295","2018/05/22 20:29:24","新北市永和區中正路620號","121.51696","25.0078333333333","6500400","永和區"
"243013","AAD-798","2018/05/22 20:29:38","新北市泰山區貴子路7號","121.425456666667","25.04216","6501600","泰山區"
"243009","297-R6","2018/05/22 20:29:34","新北市泰山區忠孝街14-1號","121.427665","25.0649333333333","6501600","泰山區"
"243016","380-SR","2018/05/22 20:29:24","新北市泰山區新生路22巷9號","121.428895","25.044625","6501600","泰山區"
"243015","421-VK","2018/05/22 20:29:40","新北市泰山區泰林路二段256號","121.431823333333","25.06226","6501600","泰山區"
"243011","KEA-2215","2018/05/22 20:29:28","新北市泰山區德安街19-1號","121.418686666667","25.0314816666667","6501600","泰山區"
"243010","KEA-2216","2018/05/22 20:29:39","新北市泰山區明志路二段255巷3弄1號","121.427971666667","25.0475333333333","6501600","泰山區"
"243014","680-BX","2018/05/22 20:29:24","新北市泰山區泰林路二段519號","121.423976666667","25.0636666666667","6501600","泰山區"
"222003","436-BY","2018/05/22 20:29:40","新北市深坑區北深路二段125號","121.61593","25.0024166666667","6501800","深坑區"
"222002","659-BX","2018/05/22 20:29:23","新北市深坑區萬福路16巷16號","121.605743333333","25.0074466666667","6501800","深坑區"
"231041","002-UM","2018/05/22 20:29:23","新北市新店區中正路501-5號","121.533633333333","24.9838683333333","6500600","新店區"
"231059","046-UY","2018/05/22 20:29:35","新北市新店區安康路二段266號","121.508615","24.958985","6500600","新店區"
"231040","047-UY","2018/05/22 20:29:31","新北市新店區中正路327號","121.536255","24.9751466666667","6500600","新店區"
"231044","106-UY","2018/05/22 20:29:40","新北市新店區建國路153號","121.538808333333","24.9789683333333","6500600","新店區"
"231053","108-UY","2018/05/22 20:29:30","新北市新店區松林路36號","121.545758333333","24.91026","6500600","新店區"
"231048","187-VK","2018/05/22 20:29:32","新北市新店區寶慶街58巷21-1號","121.542015","24.98729","6500600","新店區"
"231054","KEA-2219","2018/05/22 20:29:32","新北市新店區檳榔路109號","121.544458333333","24.9616283333333","6500600","新店區"
"231057","256-BX","2018/05/22 20:29:38","新北市新店區花園五路二段1號","121.553521666667","24.93415","6500600","新店區"
"231042","268-BY","2018/05/22 20:29:27","新北市新店區寶橋路158-1號","121.548878333333","24.9771416666667","6500600","新店區"
"231051","278-BY","2018/05/22 20:29:23","新北市新店區中央七街16號","121.530026666667","24.9750066666667","6500600","新店區"
"231050","AAD-862","2018/05/22 20:29:36","新北市新店區建興街9巷1號","121.539911666667","24.9762883333333","6500600","新店區"
"231058","3713-VJ","2018/05/22 20:29:40","新北市新店區自由街43-1號","121.534575","24.9737","6500600","新店區"
"231066","4716-K9","2018/05/22 20:29:38","新北市新店區安興路102號","121.515205","24.97681","6500600","新店區"
"231056","4715-K9","2018/05/22 20:29:32","新北市新店區民生路75巷221號","121.532096666667","24.9817816666667","6500600","新店區"
"231067","4772-VM","2018/05/22 20:29:38","新北市新店區安華路28-1號","121.519653333333","24.9607933333333","6500600","新店區"
"231065","512-UM","2018/05/22 20:29:40","新北市新店區安祥路102巷30弄23號","121.484813333333","24.9632533333333","6500600","新店區"
"231049","513-UM","2018/05/22 20:29:39","新北市新店區華城路36號","121.52847","24.9557966666667","6500600","新店區"
"231063","616-UM","2018/05/22 20:29:35","新北市新店區薏仁坑路23號","121.497758333333","24.9589","6500600","新店區"
"231045","617-UM","2018/05/22 20:29:31","新北市新店區長春路21巷2號","121.548675","24.9570933333333","6500600","新店區"
"231061","619-UM","2018/05/22 20:29:40","新北市新店區安民街133巷26號","121.515465","24.969585","6500600","新店區"
"231068","718-UY","2018/05/22 20:29:32","新北市新店區民權路8號","121.542471666667","24.982925","6500600","新店區"
"231064","719-UY","2018/05/22 20:29:26","新北市新店區安和路三段99號","121.517826666667","24.98431","6500600","新店區"
"231062","720-UM","2018/05/22 20:29:38","新北市新店區安泰路60巷55弄131號","121.484356666667","24.946875","6500600","新店區"
"231060","897-TW","2018/05/22 20:29:41","新北市新店區錦秀路33號","121.479235","24.94394","6500600","新店區"
"231043","899-TW","2018/05/22 20:29:38","新北市新店區民族路65號","121.539681666667","24.9783033333333","6500600","新店區"
"241011","013-R5","2018/05/22 20:29:30","新北市三重區龍門路60號","121.496648333333","25.0725416666667","6500200","三重區"
"241028","022-UY","2018/05/22 20:29:27","新北市三重區光興街24號","121.497546666667","25.059895","6500200","三重區"
"241008","059-VK","2018/05/22 20:29:37","新北市三重區下竹圍街93巷1號","121.481183333333","25.0746716666667","6500200","三重區"
"241031","061-VK","2018/05/22 20:29:34","新北市三重區三寧街15號","121.489528333333","25.0597416666667","6500200","三重區"
"241015","062-VK","2018/05/22 20:29:25","新北市三重區長元西街1號","121.498776666667","25.0655683333333","6500200","三重區"
"241017","063-VK","2018/05/22 20:29:35","新北市三重區自強路一段193-1號","121.491793333333","25.06817","6500200","三重區"
"241026","066-VK","2018/05/22 20:29:36","新北市三重區福德南路8巷10號","121.503266666667","25.0635866666667","6500200","三重區"
"241002","090-VK","2018/05/22 20:29:31","新北市三重區仁義街211巷15號","121.497471666667","25.0821716666667","6500200","三重區"
"241003","091-VK","2018/05/22 20:29:29","新北市三重區富華街196號","121.493156666667","25.0849566666667","6500200","三重區"
"241022","742-BX","2018/05/22 20:29:33","新北市三重區中正北路20巷2號","121.488155","25.0628866666667","6500200","三重區"
"241005","262-UM","2018/05/22 20:29:27","新北市三重區碧華街317號","121.49103","25.0841966666667","6500200","三重區"
"241009","265-UM","2018/05/22 20:29:33","新北市三重區三和路四段382巷98號","121.478828333333","25.0780466666667","6500200","三重區"
"241016","266-UM","2018/05/22 20:29:29","新北市三重區正義北路89號","121.49708","25.0651583333333","6500200","三重區"
"241018","268-UM","2018/05/22 20:29:29","新北市三重區正義北路206號","121.49639","25.06748","6500200","三重區"
"241032","269-UM","2018/05/22 20:29:26","新北市三重區重陽路一段120巷31號","121.485368333333","25.0601566666667","6500200","三重區"
"241013","270-UM","2018/05/22 20:29:23","新北市三重區三和路三段167巷4號","121.492016666667","25.0742383333333","6500200","三重區"
"241025","271-UM","2018/05/22 20:29:31","新北市三重區頂崁街210巷23弄1號","121.475853333333","25.068135","6500200","三重區"
"241007","398-BY","2018/05/22 20:29:12","新北市三重區福隆路2號","121.489406666667","25.07749","6500200","三重區"
"241035","462-BY","2018/05/22 20:29:30","新北市三重區正義北路98號","121.497013333333","25.0649416666667","6500200","三重區"
"241004","475-VK","2018/05/22 20:29:24","新北市三重區溪尾街209號","121.488435","25.0809116666667","6500200","三重區"
"241020","478-VK","2018/05/22 20:29:30","新北市三重區三和路三段170巷8弄22號","121.492598333333","25.0723983333333","6500200","三重區"
"241030","480-VK","2018/05/22 20:29:38","新北市三重區成功路62號","121.48862","25.051005","6500200","三重區"
"241014","543-UM","2018/05/22 20:29:28","新北市三重區長興街99號","121.501846666667","25.069135","6500200","三重區"
"241023","545-UM","2018/05/22 20:29:28","新北市三重區自由街17巷1號","121.479923333333","25.0667583333333","6500200","三重區"
"241001","547-UM","2018/05/22 20:29:40","新北市三重區自強路三段114號","121.487128333333","25.0747033333333","6500200","三重區"
"241019","KEA-2593","2018/05/22 20:29:40","新北市三重區重陽路四段83號","121.492588333333","25.07108","6500200","三重區"
"241006","AAD-863","2018/05/22 20:29:34","新北市三重區車路頭街135-1號","121.484205","25.0761466666667","6500200","三重區"
"241024","887-TS","2018/05/22 20:29:24","新北市三重區三民街257號","121.479546666667","25.0676933333333","6500200","三重區"
"241012","941-UM","2018/05/22 20:29:40","新北市三重區龍濱路269號","121.501408333333","25.0730933333333","6500200","三重區"
"241029","942-UM","2018/05/22 20:29:40","新北市三重區集美街118號","121.488663333333","25.0536633333333","6500200","三重區"
"241033","AAC-255","2018/05/22 20:29:42","新北市三重區五谷王北街139號","121.476145","25.0521466666667","6500200","三重區"
"235039","097-UM","2018/05/22 20:29:28","新北市中和區大勇街29巷12-1號","121.51591","24.9945366666667","6500300","中和區"
"235050","4979-A6","2018/05/22 20:29:27","新北市中和區景新街160巷12號","121.505055","24.9968666666667","6500300","中和區"
"235069","4980-A6","2018/05/22 20:29:26","新北市中和區中正路450號","121.490843333333","24.99419","6500300","中和區"
"235026","800-TS","2018/05/22 20:24:20","新北市中和區員山路36巷16-5號","121.484933333333","24.99199","6500300","中和區"
"235066","911-UM","2018/05/22 20:29:29","新北市中和區保平路362巷11號","121.50581","25.00398","6500300","中和區"
"235059","AAC-215","2018/05/22 20:29:26","新北市中和區員山路49-7號","121.480608333333","24.9914133333333","6500300","中和區"
"247024","893-R6","2018/05/22 20:29:28","新北市蘆洲區光復路78號","121.464416666667","25.0856","6501400","蘆洲區"
"247014","546-UM","2018/05/22 20:29:32","新北市蘆洲區中山二路119號","121.472325","25.0816483333333","6501400","蘆洲區"
"247022","500-BY","2018/05/22 20:29:35","新北市蘆洲區民族路457號","121.46721","25.0886066666667","6501400","蘆洲區"
"247010","341-TH","2018/05/22 20:29:40","新北市蘆洲區信義路228號","121.478871666667","25.0854383333333","6501400","蘆洲區"
"247012","339-TH","2018/05/22 20:29:24","新北市蘆洲區復興路216號","121.47891","25.08919","6501400","蘆洲區"
"247004","337-TH","2018/05/22 20:29:40","新北市蘆洲區永康街27號","121.457715","25.0850583333333","6501400","蘆洲區"
"247006","336-TH","2018/05/22 20:29:41","新北市蘆洲區光華路175巷56號","121.465535","25.0809266666667","6501400","蘆洲區"
"247018","057-VK","2018/05/22 20:29:20","新北市蘆洲區民族路327巷11弄1號","121.474663333333","25.09088","6501400","蘆洲區"
"247008","056-VK","2018/05/22 20:29:37","新北市蘆洲區重陽二街11號","121.482858333333","25.08454","6501400","蘆洲區"
"247016","007-UY","2018/05/22 20:29:32","新北市蘆洲區光華路23-1號","121.46946","25.083265","6501400","蘆洲區"
"247002","002-UY","2018/05/22 20:29:39","新北市蘆洲區長安街361巷26號","121.456001666667","25.0875183333333","6501400","蘆洲區"
"247020","001-UY","2018/05/22 20:29:29","新北市蘆洲區仁愛街145巷3-1號","121.46988","25.0948183333333","6501400","蘆洲區"
"222001","KEA-2212","2018/05/22 20:29:30","新北市深坑區北深路三段329號","121.597335","25.0050783333333","6501800","深坑區"
"251001","011-UM","2018/05/22 20:29:38","新北市淡水區淡金路二段81號","121.451863333333","25.1812083333333","6501000","淡水區"
"251013","KEA-2871","2018/05/22 20:29:39","新北市淡水區奎柔山路417號","121.463713333333","25.2050533333333","6501000","淡水區"
"251016","179-VK","2018/05/22 20:29:30","新北市淡水區後洲子12號","121.450931666667","25.22381","6501000","淡水區"
"251014","180-VK","2018/05/22 20:29:35","新北市淡水區石頭厝2-3號","121.459006666667","25.2364666666667","6501000","淡水區"
"251008","181-VK","2018/05/22 20:29:35","新北市淡水區淡海路189巷10號","121.41962","25.1845083333333","6501000","淡水區"
"251015","182-VK","2018/05/22 20:29:29","新北市淡水區淡金路四段478號","121.452038333333","25.22444","6501000","淡水區"
"251010","413-VK","2018/05/22 20:29:33","新北市淡水區沙崙路181巷1號","121.424003333333","25.1843233333333","6501000","淡水區"
"251007","442-VK","2018/05/22 20:29:33","新北市淡水區中山北路三段165-1號","121.445248333333","25.19675","6501000","淡水區"
"251012","443-VK","2018/05/22 20:29:37","新北市淡水區興仁路108號","121.45169","25.2181333333333","6501000","淡水區"
"251006","561-UM","2018/05/22 20:29:27","新北市淡水區商工路306號","121.461233333333","25.18588","6501000","淡水區"
"251003","673-BX","2018/05/22 20:29:27","新北市淡水區新生街108巷2號","121.440133333333","25.1747516666667","6501000","淡水區"
"207004","225-TW","2018/05/22 20:29:25","新北市萬里區北基里忠三街16號","121.6847","25.1756183333333","6502800","萬里區"
"252002","178-VK","2018/05/22 20:29:31","新北市三芝區淡金路二段18-1號","121.5027","25.25952","6502100","三芝區"
"252001","292-VK","2018/05/22 20:29:40","新北市三芝區中山路一段34號","121.500865","25.2576233333333","6502100","三芝區"
"237016","649-BX","2018/05/22 20:29:34","新北市三峽區介壽路二段167號","121.39469","24.935935","6500900","三峽區"
"242034","AAC-296","2018/05/22 20:29:36","新北市新莊區新泰路207號","121.44693","25.0384566666667","6500500","新莊區"
"242058","986-R7","2018/05/22 20:29:36","新北市新莊區四維路193號","121.421973333333","25.0208633333333","6500500","新莊區"
"242054","751-BX","2018/05/22 20:29:41","新北市新莊區西盛街362巷23號","121.426733333333","25.0135916666667","6500500","新莊區"
"242027","615-BX","2018/05/22 20:29:37","新北市新莊區思源路237號","121.45987","25.0467383333333","6500500","新莊區"
"242025","613-BX","2018/05/22 20:29:41","新北市新莊區化成路579巷2號","121.463973333333","25.0661766666667","6500500","新莊區"
"242029","612-BX","2018/05/22 20:29:35","新北市新莊區昌隆街56號","121.454841666667","25.05079","6500500","新莊區"
"242042","566-BX","2018/05/22 20:29:25","新北市新莊區天祥街54巷2弄1號","121.41665","25.0291833333333","6500500","新莊區"
"242046","442-UM","2018/05/22 20:29:27","新北市新莊區中正路新雅巷7號","121.417978333333","25.0254433333333","6500500","新莊區"
"242051","441-UM","2018/05/22 20:29:28","新北市新莊區民安西路252巷5號","121.425351666667","25.0135116666667","6500500","新莊區"
"242056","440-UM","2018/05/22 20:29:33","新北市新莊區瓊泰路152號","121.443188333333","25.03238","6500500","新莊區"
"242037","415-TV","2018/05/22 20:29:21","新北市新莊區後港一路76巷10弄4號","121.42703","25.0260366666667","6500500","新莊區"
"242007","413-TV","2018/05/22 20:29:21","新北市新莊區福壽街124巷16號","121.458721666667","25.0513083333333","6500500","新莊區"
"242023","362-BY","2018/05/22 20:29:40","新北市新莊區化成路568號","121.466246666667","25.0542166666667","6500500","新莊區"
"242061","353-BY","2018/05/22 20:29:34","新北市新莊區民全街2號","121.429061666667","25.0210383333333","6500500","新莊區"
"242009","132-UY","2018/05/22 20:29:39","新北市新莊區昌隆街76號","121.455521666667","25.0508066666667","6500500","新莊區"
"242039","133-UY","2018/05/22 20:29:32","新北市新莊區成功街8號","121.42556","25.0214483333333","6500500","新莊區"
"242032","135-UY","2018/05/22 20:29:34","新北市新莊區中正路508巷18號","121.438581666667","25.0349016666667","6500500","新莊區"
"242048","172-VK","2018/05/22 20:29:32","新北市新莊區中正路875號","121.418081666667","25.02687","6500500","新莊區"
"242011","173-VK","2018/05/22 20:29:21","新北市新莊區中義街18號","121.450848333333","25.0512933333333","6500500","新莊區"
"242017","175-VK","2018/05/22 20:29:41","新北市新莊區中港三街12號","121.450826666667","25.0464833333333","6500500","新莊區"
"242005","176-VK","2018/05/22 20:29:29","新北市新莊區化成路746巷2號","121.465961666667","25.05774","6500500","新莊區"
"242015","346-TH","2018/05/22 20:29:24","新北市新莊區中平路46巷30號","121.445916666667","25.0437666666667","6500500","新莊區"
"242021","348-TH","2018/05/22 20:29:28","新北市新莊區公園路98號","121.450705","25.039645","6500500","新莊區"
"242019","350-TH","2018/05/22 20:29:30","新北市新莊區銘德街53號","121.457091666667","25.04365","6500500","新莊區"
"242013","351-TH","2018/05/22 20:29:35","新北市新莊區中平路292巷1弄15號","121.445521666667","25.05196","6500500","新莊區"
"221008","489-VK","2018/05/22 20:29:41","新北市汐止區康寧街543號","121.634421666667","25.0691666666667","6501100","汐止區"
"221036","130-UY","2018/05/22 20:29:29","新北市汐止區新台五路二段69號","121.663911666667","25.06665","6501100","汐止區"
"221015","131-UY","2018/05/22 20:29:42","新北市汐止區建成路142巷19弄11號","121.66198","25.073865","6501100","汐止區"
"221010","269-BY","2018/05/22 20:29:30","新北市汐止區八連路二段376-1號","121.629595","25.1014533333333","6501100","汐止區"
"221012","278-VK","2018/05/22 20:29:38","新北市汐止區大同路三段99號","121.668171666667","25.077525","6501100","汐止區"
"221032","280-BY","2018/05/22 20:29:33","新北市汐止區弘道街53巷16號","121.61872","25.04914","6501100","汐止區"
"221027","281-BY","2018/05/22 20:29:33","新北市汐止區中正路214號","121.65832","25.0688966666667","6501100","汐止區"
"221029","298-VK","2018/05/22 20:29:31","新北市汐止區大同路一段515巷47弄68號","121.642308333333","25.0635966666667","6501100","汐止區"
"221021","299-VK","2018/05/22 20:29:24","新北市汐止區水源路一段288號","121.65419","25.0581116666667","6501100","汐止區"
"221031","353-TW","2018/05/22 20:29:40","新北市汐止區中興路110巷36號","121.634398333333","25.06464","6501100","汐止區"
"221035","622-UM","2018/05/22 20:29:30","新北市汐止區長江街101-5號","121.658681666667","25.073125","6501100","汐止區"
"221025","623-UM","2018/05/22 20:29:30","新北市汐止區水源路二段88巷1弄5號","121.65644","25.0556716666667","6501100","汐止區"
"221038","646-BX","2018/05/22 20:29:32","新北市汐止區忠孝東路9號","121.657766666667","25.065875","6501100","汐止區"
"221033","647-BX","2018/05/22 20:29:25","新北市汐止區林森街73巷15號","121.623855","25.0414083333333","6501100","汐止區"
"221002","707-TV","2018/05/22 20:29:37","新北市汐止區福德二路21-1號","121.635256666667","25.0682366666667","6501100","汐止區"
"221018","753-BX","2018/05/22 20:29:33","新北市汐止區中華街131巷5號","121.669743333333","25.0703683333333","6501100","汐止區"
"242002","KEA-2550","2018/05/22 20:29:23","新北市新莊區中正路145-13號","121.458743333333","25.0378716666667","6500500","新莊區"
"220103","257-TC","2018/05/22 20:29:30","新北市板橋區漢生東路43巷28號","121.466468333333","25.0176016666667","6500100","板橋區"
"220089","280-UM","2018/05/22 20:29:33","新北市板橋區長江路一段188號","121.46213","25.0303316666667","6500100","板橋區"
"220083","286-VK","2018/05/22 20:29:31","新北市板橋區僑中二街106巷30號","121.44474","25.007785","6500100","板橋區"
"220081","287-VK","2018/05/22 20:29:25","新北市板橋區僑中一街102巷5弄2號","121.446773333333","25.0126233333333","6500100","板橋區"
"242044","281-VK","2018/05/22 20:29:30","新北市新莊區中正路新建巷3號","121.413968333333","25.0227283333333","6500500","新莊區"
"220102","KEA-2699","2018/05/22 20:29:25","新北市板橋區民生路二段165號","121.469713333333","25.0199416666667","6500100","板橋區"
"220070","AAC-253","2018/05/22 20:29:25","新北市新莊區新莊路751巷126號","121.442428333333","25.0295466666667","6500100","板橋區"
"235068","KEA-2873","2018/05/22 20:29:16","新北市中和區勝利路35巷7號","121.499466666667","25.006985","6500300","中和區"
