"lineid","car","time","location","longitude","latitude","cityid","cityname"
"234064","337-UY","2018/05/22 20:39:30","台北市文山區溪洲街82巷15號","121.533946666667","25.0088933333333","6500400","永和區"
"234030","746-BX","2018/05/22 20:39:27","新北市新店區安和路三段1-1號","121.517043333333","24.9795133333333","6500400","永和區"
"234061","AAD-866","2018/05/22 20:39:33","新北市永和區秀朗路一段175號","121.51701","25.0036416666667","6500400","永和區"
"234042","862-TW","2018/05/22 20:39:35","新北市永和區永利路2號","121.517376666667","25.005935","6500400","永和區"
"249001","173-UM","2018/05/22 20:39:29","新北市八里區下罟子23號","121.376968333333","25.138725","6502300","八里區"
"249004","303-UY","2018/05/22 20:39:33","新北市八里區中山路一段157巷15號","121.413061666667","25.1583116666667","6502300","八里區"
"249002","305-UY","2018/05/22 20:39:38","新北市八里區大崁腳48-53號","121.424863333333","25.15921","6502300","八里區"
"234023","9380-KE","2018/05/22 20:39:29","新北市永和區竹林路39巷1號","121.518068333333","25.0143466666667","6500400","永和區"
"234074","AAC-211","2018/05/22 20:39:21","新北市永和區竹林路119巷4弄2號","121.520295","25.0114116666667","6500400","永和區"
"243016","380-SR","2018/05/22 20:39:22","新北市泰山區文程路19-1號","121.428296666667","25.0492983333333","6501600","泰山區"
"243011","KEA-2215","2018/05/22 20:39:28","新北市泰山區明志路三段40號","121.424648333333","25.042475","6501600","泰山區"
"243014","680-BX","2018/05/22 20:39:24","新北市泰山區泰林路三段641號","121.405476666667","25.0702216666667","6501600","泰山區"
"222003","436-BY","2018/05/22 20:39:40","新北市深坑區阿柔洋8-1號","121.61276","24.9995066666667","6501800","深坑區"
"222002","659-BX","2018/05/22 20:39:23","新北市深坑區萬福路45號","121.599465","25.0068233333333","6501800","深坑區"
"231041","002-UM","2018/05/22 20:39:23","新北市新店區中正路566號","121.533775","24.9875233333333","6500600","新店區"
"231059","046-UY","2018/05/22 20:39:35","新北市新店區僑信路130號","121.500713333333","24.945915","6500600","新店區"
"231040","047-UY","2018/05/22 20:39:31","新北市新店區中正路268號","121.538995","24.973565","6500600","新店區"
"231044","106-UY","2018/05/22 20:39:38","新北市新店區建國路293巷1號","121.53683","24.9859416666667","6500600","新店區"
"231053","108-UY","2018/05/22 20:39:30","新北市新店區新烏路二段124號","121.549533333333","24.920785","6500600","新店區"
"231048","187-VK","2018/05/22 20:39:32","新北市新店區寶慶街34號","121.543051666667","24.9867716666667","6500600","新店區"
"231054","KEA-2219","2018/05/22 20:39:32","新北市新店區北新路一段64巷43號","121.542288333333","24.9656766666667","6500600","新店區"
"231057","256-BX","2018/05/22 20:39:38","新北市新店區花園二路一段9-7號","121.556001666667","24.9328866666667","6500600","新店區"
"231042","268-BY","2018/05/22 20:39:27","新北市新店區寶橋路238號","121.551641666667","24.978935","6500600","新店區"
"231051","278-BY","2018/05/22 20:39:23","新北市新店區中央八街120號","121.525428333333","24.9782","6500600","新店區"
"231050","AAD-862","2018/05/22 20:39:36","新北市新店區中正路263-5號","121.538175","24.97388","6500600","新店區"
"231058","3713-VJ","2018/05/22 20:39:20","新北市新店區平等街19號","121.5368","24.9738433333333","6500600","新店區"
"231066","4716-K9","2018/05/22 20:39:38","新北市新店區安民街365巷1弄8號","121.516321666667","24.9752366666667","6500600","新店區"
"231056","4715-K9","2018/05/22 20:39:22","新北市新店區中央七街61巷4號","121.5284","24.976495","6500600","新店區"
"231067","4772-VM","2018/05/22 20:39:38","新北市新店區安華路28-1號","121.519715","24.96093","6500600","新店區"
"231065","512-UM","2018/05/22 20:39:40","新北市新店區安祥路102巷146號","121.486818333333","24.9645283333333","6500600","新店區"
"231049","513-UM","2018/05/22 20:39:39","新北市新店區永業路81巷3弄2號","121.529906666667","24.9491383333333","6500600","新店區"
"231063","616-UM","2018/05/22 20:39:35","新北市新店區玫瑰路4-1號","121.493583333333","24.9514333333333","6500600","新店區"
"231045","617-UM","2018/05/22 20:39:31","新北市新店區長春路39號","121.549876666667","24.957505","6500600","新店區"
"231061","619-UM","2018/05/22 20:39:21","新北市新店區新和街34號","121.519261666667","24.9848633333333","6500600","新店區"
"231068","718-UY","2018/05/22 20:39:32","新北市新店區寶慶街37號","121.543135","24.986635","6500600","新店區"
"231064","719-UY","2018/05/22 20:39:38","新北市新店區安和路三段171號","121.515995","24.98606","6500600","新店區"
"231062","720-UM","2018/05/22 20:39:31","新北市新店區安泰路60巷55弄125號","121.484546666667","24.9464716666667","6500600","新店區"
"231060","897-TW","2018/05/22 20:39:41","新北市新店區安康路三段628號","121.478158333333","24.9456216666667","6500600","新店區"
"231043","899-TW","2018/05/22 20:39:38","新北市新店區博愛街13巷23號","121.540343333333","24.97414","6500600","新店區"
"241011","013-R5","2018/05/22 20:39:30","新北市三重區龍濱路217號","121.501951666667","25.0720116666667","6500200","三重區"
"241028","022-UY","2018/05/22 20:39:27","新北市三重區光興街24號","121.497555","25.059845","6500200","三重區"
"241008","059-VK","2018/05/22 20:39:28","新北市三重區下竹圍街42-1號","121.48106","25.0748466666667","6500200","三重區"
"241031","061-VK","2018/05/22 20:39:34","新北市三重區重陽路一段113巷1弄48號","121.488315","25.0586966666667","6500200","三重區"
"241015","062-VK","2018/05/22 20:39:25","新北市三重區文化北路200弄1號","121.497968333333","25.068135","6500200","三重區"
"241017","063-VK","2018/05/22 20:39:35","新北市三重區大同北路269號","121.490873333333","25.0673166666667","6500200","三重區"
"241026","066-VK","2018/05/22 20:39:36","新北市三重區文化南路3號","121.499985","25.0624716666667","6500200","三重區"
"241002","090-VK","2018/05/22 20:39:31","新北市三重區仁義街167巷16號","121.497595","25.081875","6500200","三重區"
"241003","091-VK","2018/05/22 20:39:29","新北市三重區五華街141巷60號","121.49349","25.0866716666667","6500200","三重區"
"241022","742-BX","2018/05/22 20:39:33","新北市三重區中山路33巷12號","121.487876666667","25.0620416666667","6500200","三重區"
"241005","262-UM","2018/05/22 20:39:27","新北市三重區碧華街436號","121.492808333333","25.0856366666667","6500200","三重區"
"241009","265-UM","2018/05/22 20:39:33","新北市三重區碧華街57號","121.484748333333","25.0812333333333","6500200","三重區"
"241016","266-UM","2018/05/22 20:39:29","新北市三重區長壽西街107號","121.494518333333","25.0668866666667","6500200","三重區"
"241018","268-UM","2018/05/22 20:39:33","新北市三重區重陽路三段115號","121.490835","25.06875","6500200","三重區"
"241032","269-UM","2018/05/22 20:39:26","新北市三重區重陽路一段120巷35號","121.485295","25.0601483333333","6500200","三重區"
"241013","270-UM","2018/05/22 20:39:23","新北市三重區三和路四段6號","121.491543333333","25.073845","6500200","三重區"
"241025","271-UM","2018/05/22 20:39:31","新北市三重區頂崁街157號","121.478365","25.06496","6500200","三重區"
"241007","398-BY","2018/05/22 20:39:32","新北市三重區自強路四段22號","121.48864","25.0764033333333","6500200","三重區"
"241035","462-BY","2018/05/22 20:39:30","新北市三重區正義北路281-1號","121.494945","25.07041","6500200","三重區"
"241004","475-VK","2018/05/22 20:39:31","新北市三重區仁愛街406巷3號","121.490601666667","25.0812216666667","6500200","三重區"
"241020","478-VK","2018/05/22 20:39:30","新北市三重區三和路三段140號","121.493298333333","25.07245","6500200","三重區"
"241030","480-VK","2018/05/22 20:39:38","新北市三重區成功路73巷11號","121.489483333333","25.0519433333333","6500200","三重區"
"241014","543-UM","2018/05/22 20:39:28","新北市三重區萬壽街14號","121.499336666667","25.0694616666667","6500200","三重區"
"241023","545-UM","2018/05/22 20:39:28","新北市三重區自由街35巷1號","121.47904","25.066885","6500200","三重區"
"241001","547-UM","2018/05/22 20:39:40","新北市三重區車路頭街109巷8號","121.485216666667","25.0743583333333","6500200","三重區"
"241019","KEA-2593","2018/05/22 20:39:40","新北市三重區忠孝路一段10巷35號","121.491068333333","25.0713283333333","6500200","三重區"
"241006","AAD-863","2018/05/22 20:39:34","新北市三重區車路頭街139巷14號","121.484336666667","25.076215","6500200","三重區"
"241024","887-TS","2018/05/22 20:39:24","新北市三重區中正北路175號","121.47794","25.0693983333333","6500200","三重區"
"241012","941-UM","2018/05/22 20:39:39","新北市三重區龍濱路243巷12號","121.502028333333","25.0728666666667","6500200","三重區"
"241029","942-UM","2018/05/22 20:39:40","新北市三重區集美街126巷24號","121.48993","25.0539133333333","6500200","三重區"
"241033","AAC-255","2018/05/22 20:39:22","新北市三重區五谷王北街181-1號","121.477321666667","25.0542866666667","6500200","三重區"
"235047","031-BX","2018/05/22 20:39:31","新北市中和區中正路637巷52弄1號","121.485566666667","24.9938766666667","6500300","中和區"
"235069","4980-A6","2018/05/22 20:39:26","新北市中和區中正路524號","121.487986666667","24.9944233333333","6500300","中和區"
"235026","800-TS","2018/05/22 20:24:20","新北市中和區員山路36巷16-5號","121.484933333333","24.99199","6500300","中和區"
"247024","893-R6","2018/05/22 20:39:28","新北市蘆洲區長樂路157號","121.461918333333","25.0883633333333","6501400","蘆洲區"
"247014","546-UM","2018/05/22 20:39:32","新北市蘆洲區成功路77-1號","121.47314","25.0809466666667","6501400","蘆洲區"
"247022","500-BY","2018/05/22 20:39:35","新北市蘆洲區中正路243巷7弄11號","121.467623333333","25.0860316666667","6501400","蘆洲區"
"247010","341-TH","2018/05/22 20:39:40","新北市蘆洲區重陽街68號","121.481731666667","25.08419","6501400","蘆洲區"
"247012","339-TH","2018/05/22 20:39:28","新北市蘆洲區集賢路224巷46弄32-1號","121.481401666667","25.0875866666667","6501400","蘆洲區"
"247004","337-TH","2018/05/22 20:39:37","新北市蘆洲區長安街297號","121.458063333333","25.08485","6501400","蘆洲區"
"247006","336-TH","2018/05/22 20:39:41","新北市蘆洲區和平路130號","121.46719","25.0804333333333","6501400","蘆洲區"
"247008","056-VK","2018/05/22 20:39:37","新北市蘆洲區重陽一街23號","121.480766666667","25.0816533333333","6501400","蘆洲區"
"247016","007-UY","2018/05/22 20:39:32","新北市蘆洲區中山二路309號","121.469178333333","25.0771","6501400","蘆洲區"
"247002","002-UY","2018/05/22 20:39:19","新北市蘆洲區長安街375巷29號","121.455928333333","25.087885","6501400","蘆洲區"
"247020","001-UY","2018/05/22 20:39:28","新北市蘆洲區民族路424號","121.473901666667","25.0917733333333","6501400","蘆洲區"
"222001","KEA-2212","2018/05/22 20:39:30","新北市深坑區北深路三段234號","121.600588333333","25.0040333333333","6501800","深坑區"
"251004","009-UM","2018/05/22 20:31:38","新北市淡水區中正東路二段143巷2弄1號","121.460523333333","25.1471666666667","6501000","淡水區"
"251001","011-UM","2018/05/22 20:39:18","新北市淡水區淡金路196號","121.459385","25.1661333333333","6501000","淡水區"
"251013","KEA-2871","2018/05/22 20:39:27","新北市淡水區下圭柔山28巷17號","121.457846666667","25.2038933333333","6501000","淡水區"
"251016","179-VK","2018/05/22 20:39:30","新北市淡水區後洲子8-2號","121.449675","25.2240166666667","6501000","淡水區"
"251014","180-VK","2018/05/22 20:39:35","新北市淡水區公埔子28號","121.466053333333","25.2329883333333","6501000","淡水區"
"251015","182-VK","2018/05/22 20:39:29","新北市淡水區淡金路四段478號","121.452041666667","25.2244333333333","6501000","淡水區"
"251010","413-VK","2018/05/22 20:39:33","新北市淡水區沙崙路181巷15號","121.424","25.1843266666667","6501000","淡水區"
"251007","442-VK","2018/05/22 20:39:33","新北市淡水區淡金路一段69號","121.45808","25.173495","6501000","淡水區"
"251012","443-VK","2018/05/22 20:39:37","新北市淡水區興仁路108號","121.451723333333","25.21813","6501000","淡水區"
"251006","561-UM","2018/05/22 20:39:27","新北市淡水區商工路173號","121.447895","25.1883133333333","6501000","淡水區"
"251003","673-BX","2018/05/22 20:39:27","新北市淡水區新民街120巷19號","121.438315","25.1779966666667","6501000","淡水區"
"252002","178-VK","2018/05/22 20:39:31","新北市三芝區淡金路二段47-2號","121.503666666667","25.2605383333333","6502100","三芝區"
"252001","292-VK","2018/05/22 20:39:41","新北市三芝區育英街29-1號","121.50129","25.2573683333333","6502100","三芝區"
"242034","AAC-296","2018/05/22 20:39:33","新北市新莊區中正路334巷25弄25號","121.44534","25.0359783333333","6500500","新莊區"
"242058","986-R7","2018/05/22 20:39:36","新北市新莊區四維路123-1號","121.42301","25.0229533333333","6500500","新莊區"
"242054","751-BX","2018/05/22 20:39:32","新北市新莊區西盛街323巷9號","121.42872","25.0147183333333","6500500","新莊區"
"242027","615-BX","2018/05/22 20:39:37","新北市新莊區思源路38號","121.460158333333","25.0422883333333","6500500","新莊區"
"242025","613-BX","2018/05/22 20:39:41","新北市五股區成泰路三段544-1號","121.454566666667","25.103175","6500500","新莊區"
"242029","612-BX","2018/05/22 20:39:35","新北市新莊區中華路二段83號","121.452508333333","25.047915","6500500","新莊區"
"242042","566-BX","2018/05/22 20:39:25","新北市新莊區中正路694巷3弄3號","121.418246666667","25.02815","6500500","新莊區"
"242046","442-UM","2018/05/22 20:39:27","新北市新莊區龍安路108號","121.418473333333","25.0204983333333","6500500","新莊區"
"242051","441-UM","2018/05/22 20:39:28","新北市新莊區西盛街280巷6號","121.427676666667","25.01535","6500500","新莊區"
"242056","440-UM","2018/05/22 20:39:36","新北市新莊區瓊泰路53號","121.443421666667","25.0285183333333","6500500","新莊區"
"242037","415-TV","2018/05/22 20:39:21","新北市新莊區建安街10號","121.428511666667","25.0265783333333","6500500","新莊區"
"242007","413-TV","2018/05/22 20:39:41","新北市新莊區思源路287巷2弄7號","121.459326666667","25.04858","6500500","新莊區"
"242023","362-BY","2018/05/22 20:39:39","新北市新莊區復興路三段40號","121.461425","25.0443583333333","6500500","新莊區"
"242061","353-BY","2018/05/22 20:39:36","新北市新莊區新樹路258巷1-1號","121.432195","25.015505","6500500","新莊區"
"242009","132-UY","2018/05/22 20:39:39","新北市新莊區昌隆街104號","121.456778333333","25.0509","6500500","新莊區"
"242039","133-UY","2018/05/22 20:39:26","新北市新莊區民安路379號","121.43179","25.0230516666667","6500500","新莊區"
"242032","135-UY","2018/05/22 20:39:33","新北市新莊區福營路92號","121.437005","25.0328616666667","6500500","新莊區"
"242048","172-VK","2018/05/22 20:39:32","新北市新莊區中正路639號","121.430936666667","25.03144","6500500","新莊區"
"242011","173-VK","2018/05/22 20:39:26","新北市新莊區中榮街104巷13號","121.447155","25.053545","6500500","新莊區"
"242017","175-VK","2018/05/22 20:39:30","新北市新莊區中港一街142號","121.446713333333","25.0449033333333","6500500","新莊區"
"242015","346-TH","2018/05/22 20:39:24","新北市新莊區中和街28號","121.448363333333","25.0438066666667","6500500","新莊區"
"242021","348-TH","2018/05/22 20:39:28","新北市新莊區中正路206號","121.449376666667","25.035485","6500500","新莊區"
"242019","350-TH","2018/05/22 20:39:33","新北市新莊區中港路50號","121.455421666667","25.0382566666667","6500500","新莊區"
"242013","351-TH","2018/05/22 20:39:35","新北市新莊區中和街175巷11號","121.4472","25.0505583333333","6500500","新莊區"
"221008","489-VK","2018/05/22 20:39:21","新北市汐止區康寧街706-2號","121.638611666667","25.0730116666667","6501100","汐止區"
"221036","130-UY","2018/05/22 20:39:29","新北市汐止區新昌路76號","121.663631666667","25.06889","6501100","汐止區"
"221015","131-UY","2018/05/22 20:39:42","新北市汐止區建成路26號","121.664543333333","25.0727283333333","6501100","汐止區"
"221012","278-VK","2018/05/22 20:39:38","新北市汐止區汐萬路一段39號","121.65498","25.0690416666667","6501100","汐止區"
"221032","280-BY","2018/05/22 20:39:33","新北市汐止區弘道街53巷30弄6號","121.619255","25.0500516666667","6501100","汐止區"
"221027","281-BY","2018/05/22 20:39:33","新北市汐止區大同路二段565號","121.6628","25.0698966666667","6501100","汐止區"
"221029","298-VK","2018/05/22 20:39:31","新北市汐止區大同路一段421號","121.642701666667","25.0612266666667","6501100","汐止區"
"221021","299-VK","2018/05/22 20:39:24","新北市汐止區水源路一段282巷1號","121.654086666667","25.0581533333333","6501100","汐止區"
"221031","353-TW","2018/05/22 20:39:20","新北市汐止區工建路202號","121.637106666667","25.062765","6501100","汐止區"
"221035","622-UM","2018/05/22 20:39:30","新北市汐止區長江街101-5號","121.658723333333","25.0731383333333","6501100","汐止區"
"221025","623-UM","2018/05/22 20:39:30","新北市汐止區水源路二段234號","121.6584","25.0517066666667","6501100","汐止區"
"221038","646-BX","2018/05/22 20:39:32","新北市汐止區新江北路1號","121.652788333333","25.0708566666667","6501100","汐止區"
"221033","647-BX","2018/05/22 20:39:25","新北市汐止區合順街18巷8弄5號","121.620371666667","25.0419766666667","6501100","汐止區"
"221002","707-TV","2018/05/22 20:39:32","新北市汐止區福德二路138號","121.630748333333","25.0652783333333","6501100","汐止區"
"221018","753-BX","2018/05/22 20:39:33","新北市汐止區茄苳路49號","121.66601","25.07079","6501100","汐止區"
"242002","KEA-2550","2018/05/22 20:39:23","新北市新莊區明中街4號","121.458803333333","25.0381966666667","6500500","新莊區"
"220103","257-TC","2018/05/22 20:39:30","新北市板橋區漢生東路63巷2號","121.465916666667","25.016315","6500100","板橋區"
"220083","286-VK","2018/05/22 20:39:31","新北市板橋區僑中二街116巷39號","121.444015","25.0066016666667","6500100","板橋區"
"242044","281-VK","2018/05/22 20:39:40","新北市新莊區龍安路90號","121.417653333333","25.0209083333333","6500500","新莊區"
"220070","AAC-253","2018/05/22 20:39:25","新北市五股區凌雲路三段32-1號","121.431796666667","25.108055","6500100","板橋區"
