"lineid","car","time","location","longitude","latitude","cityid","cityname"
"234040","862-TW","2018/05/22 21:29:35","新北市永和區福和路1號","121.52572","25.0094716666667","6500400","永和區"
"243001","297-R6","2018/05/22 21:07:04","新北市泰山區黎明路25號","121.421858333333","25.0608516666667","6501600","泰山區"
"231048","187-VK","2018/05/22 21:29:32","新北市新店區安德街116巷46號","121.507608333333","24.961495","6500600","新店區"
"231063","616-UM","2018/05/22 21:29:35","新北市新店區如意街96號","121.496128333333","24.946925","6500600","新店區"
"231060","897-TW","2018/05/22 21:29:41","新北市新店區薏仁坑路自強巷6號","121.4964","24.9581783333333","6500600","新店區"
"241031","061-VK","2018/05/22 21:29:14","新北市三重區光復路二段129巷2號","121.474861666667","25.05935","6500200","三重區"
"241003","091-VK","2018/05/22 21:29:29","新北市三重區五華街141巷60號","121.493485","25.086615","6500200","三重區"
"241005","262-UM","2018/05/22 21:29:27","新北市三重區仁華街118巷6號","121.485688333333","25.0831","6500200","三重區"
"241018","268-UM","2018/05/22 21:29:29","新北市五股區天乙路102-18號","121.446595","25.10713","6500200","三重區"
"241007","398-BY","2018/05/22 21:29:32","新北市三重區正義北路101號","121.496908333333","25.0654916666667","6500200","三重區"
"241006","AAD-863","2018/05/22 21:29:34","新北市五股區天乙路101-6號","121.445395","25.1070133333333","6500200","三重區"
"241024","887-TS","2018/05/22 21:29:24","新北市三重區中正北路145巷8弄2號","121.484105","25.06776","6500200","三重區"
"247024","893-R6","2018/05/22 21:29:08","新北市五股區中興路三段2巷10號","121.44839","25.0833583333333","6501400","蘆洲區"
"247022","500-BY","2018/05/22 21:29:35","新北市蘆洲區長安街313巷46號","121.455296666667","25.085635","6501400","蘆洲區"
"247010","341-TH","2018/05/22 21:29:40","新北市蘆洲區中山二路62號","121.47359","25.08212","6501400","蘆洲區"
"247012","339-TH","2018/05/22 21:29:22","新北市蘆洲區中正路520巷30-18號","121.471273333333","25.098175","6501400","蘆洲區"
"251004","009-UM","2018/05/22 21:29:39","新北市淡水區民權路119號","121.460215","25.136845","6501000","淡水區"
"251005","010-UM","2018/05/22 21:29:31","新北市淡水區水源街一段34巷9號","121.44326","25.1718133333333","6501000","淡水區"
"251001","011-UM","2018/05/22 21:29:38","新北市淡水區新市二路三段18號","121.433185","25.1936383333333","6501000","淡水區"
"251013","KEA-2871","2018/05/22 21:29:27","新北市淡水區埤島59號","121.459388333333","25.195345","6501000","淡水區"
"251016","179-VK","2018/05/22 21:29:30","新北市淡水區前洲子28號","121.441125","25.219195","6501000","淡水區"
"251014","180-VK","2018/05/22 21:29:15","新北市淡水區六塊厝2-5號","121.449403333333","25.2402583333333","6501000","淡水區"
"251008","181-VK","2018/05/22 21:29:36","新北市淡水區水源街二段118-1號","121.452918333333","25.17471","6501000","淡水區"
"251015","182-VK","2018/05/22 21:29:29","新北市淡水區淡金路三段161號","121.448635","25.2028566666667","6501000","淡水區"
"251010","413-VK","2018/05/22 21:29:33","新北市淡水區沙崙路25巷21號","121.42062","25.182335","6501000","淡水區"
"251007","442-VK","2018/05/22 21:29:33","新北市淡水區淡金路一段69號","121.458186666667","25.1735016666667","6501000","淡水區"
"251012","443-VK","2018/05/22 21:29:37","新北市淡水區淡金路五段35巷46號","121.452483333333","25.23475","6501000","淡水區"
"251009","575-R6","2018/05/22 21:29:37","新北市淡水區民族路33巷16-2號","121.463151666667","25.13607","6501000","淡水區"
"251011","650-BX","2018/05/22 21:29:34","新北市淡水區真理街32號","121.436865","25.1784833333333","6501000","淡水區"
"251003","673-BX","2018/05/22 21:29:27","新北市淡水區崁頂15-5號","121.438996666667","25.1858583333333","6501000","淡水區"
"220070","AAC-253","2018/05/22 21:29:25","新北市泰山區楓里路12號","121.44161","25.0595066666667","6500100","板橋區"
