"lineid","car","time","location","longitude","latitude","cityid","cityname"
"234040","862-TW","2018/05/22 21:39:35","新北市永和區福和路1號","121.526321666667","25.0096266666667","6500400","永和區"
"231060","897-TW","2018/05/22 21:39:20","新北市新店區薏仁坑路自強巷6號","121.496665","24.9583166666667","6500600","新店區"
"241031","061-VK","2018/05/22 21:39:34","新北市八里區荖阡坑路28-2號","121.403108333333","25.1280583333333","6500200","三重區"
"241003","091-VK","2018/05/22 21:39:29","新北市五股區凌雲路一段22巷11號","121.454278333333","25.10026","6500200","三重區"
"241005","262-UM","2018/05/22 21:39:27","新北市三重區碧華街1號","121.483435","25.0811683333333","6500200","三重區"
"241018","268-UM","2018/05/22 21:39:29","新北市八里區中山路三段386號","121.36847","25.13594","6500200","三重區"
"241006","AAD-863","2018/05/22 21:39:14","新北市八里區中山路三段386號","121.368383333333","25.1360366666667","6500200","三重區"
"247010","341-TH","2018/05/22 21:39:40","新北市五股區天乙路102-22號","121.448201666667","25.1071133333333","6501400","蘆洲區"
"251004","009-UM","2018/05/22 21:39:24","新北市淡水區民生路1-2號","121.460243333333","25.1378666666667","6501000","淡水區"
"251005","010-UM","2018/05/22 21:39:31","新北市淡水區學府路88號","121.449125","25.171055","6501000","淡水區"
"251001","011-UM","2018/05/22 21:39:38","新北市淡水區新市二路三段152號","121.435386666667","25.194255","6501000","淡水區"
"251002","012-UM","2018/05/22 21:39:33","新北市淡水區學府路152號","121.44643","25.1742966666667","6501000","淡水區"
"251016","179-VK","2018/05/22 21:39:30","新北市淡水區淡金路三段73號","121.448085","25.1998283333333","6501000","淡水區"
"251014","180-VK","2018/05/22 21:39:35","新北市淡水區淡金路四段151號","121.450916666667","25.2203533333333","6501000","淡水區"
"251008","181-VK","2018/05/22 21:39:38","新北市淡水區水源街二段62號","121.45098","25.1741483333333","6501000","淡水區"
"251010","413-VK","2018/05/22 21:39:33","新北市淡水區沙崙路232號","121.425538333333","25.1846433333333","6501000","淡水區"
"251007","442-VK","2018/05/22 21:39:33","新北市淡水區忠愛街4號","121.45977","25.1713333333333","6501000","淡水區"
"251012","443-VK","2018/05/22 21:39:37","新北市淡水區淡金路四段455號","121.451743333333","25.2229783333333","6501000","淡水區"
"251009","575-R6","2018/05/22 21:39:42","新北市淡水區民生路52巷22弄5號","121.462685","25.13745","6501000","淡水區"
"251011","650-BX","2018/05/22 21:39:34","新北市淡水區新民街101號","121.436141666667","25.1807066666667","6501000","淡水區"
"251003","673-BX","2018/05/22 21:39:27","新北市淡水區新春街38號","121.437146666667","25.181605","6501000","淡水區"
"220070","AAC-253","2018/05/22 21:39:25","新北市板橋區華東街1-9號","121.448103333333","24.9949016666667","6500100","板橋區"
