"lineid","car","time","location","longitude","latitude","cityid","cityname"
"234040","862-TW","2018/05/22 21:47:09","新北市永和區福和路1號","121.526398333333","25.0097533333333","6500400","永和區"
"241005","262-UM","2018/05/22 21:49:27","新北市三重區五華街133號","121.491046666667","25.0844083333333","6500200","三重區"
"241018","268-UM","2018/05/22 21:49:29","新北市八里區中山路三段415號","121.370405","25.1367283333333","6500200","三重區"
"247010","341-TH","2018/05/22 21:49:40","新北市八里區中山路三段386號","121.368451666667","25.1359916666667","6501400","蘆洲區"
"251004","009-UM","2018/05/22 21:49:24","新北市淡水區自強路201巷39號","121.462145","25.1267783333333","6501000","淡水區"
"251005","010-UM","2018/05/22 21:49:43","新北市淡水區鄧公路30巷32弄1號","121.453536666667","25.1700833333333","6501000","淡水區"
"251001","011-UM","2018/05/22 21:49:38","新北市淡水區後洲路一段157號","121.427725","25.1986116666667","6501000","淡水區"
"251002","012-UM","2018/05/22 21:49:33","新北市淡水區大忠街159號","121.448248333333","25.1766083333333","6501000","淡水區"
"251008","181-VK","2018/05/22 21:49:36","新北市淡水區學府路104號","121.449855","25.1717683333333","6501000","淡水區"
"251010","413-VK","2018/05/22 21:49:33","新北市淡水區新民街一段117號","121.42816","25.1879266666667","6501000","淡水區"
"251007","442-VK","2018/05/22 21:49:33","新北市淡水區水源街二段177巷66號","121.452663333333","25.1769816666667","6501000","淡水區"
"251012","443-VK","2018/05/22 21:49:37","新北市淡水區淡金路三段254號","121.449041666667","25.2062616666667","6501000","淡水區"
"251009","575-R6","2018/05/22 21:49:37","新北市淡水區民族路35巷17號","121.464805","25.1368683333333","6501000","淡水區"
"251011","650-BX","2018/05/22 21:49:34","新北市淡水區新民街322巷9號","121.436303333333","25.1828283333333","6501000","淡水區"
"251003","673-BX","2018/05/22 21:49:27","新北市淡水區新春街81號","121.438768333333","25.18234","6501000","淡水區"
"220070","AAC-253","2018/05/22 21:49:25","新北市板橋區華東街1-9號","121.448265","24.9948616666667","6500100","板橋區"
