"lineid","car","time","location","longitude","latitude","cityid","cityname"
"234040","862-TW","2018/05/22 22:00:58","新北市永和區福和路1號","121.526381666667","25.00971","6500400","永和區"
"241018","268-UM","2018/05/22 22:29:29","新北市五股區更洲路47-1號","121.45671","25.0793","6500200","三重區"
"247010","341-TH","2018/05/22 22:29:40","新北市五股區中興路三段2巷10號","121.448873333333","25.08109","6501400","蘆洲區"
"247005","336-TH","2018/05/22 22:29:41","新北市五股區中興路三段163號","121.449085","25.0807766666667","6501400","蘆洲區"
"251004","009-UM","2018/05/22 22:29:24","新北市淡水區民族路33號","121.462325","25.1358183333333","6501000","淡水區"
"251008","181-VK","2018/05/22 22:29:36","新北市淡水區學府路123號","121.450513333333","25.1730383333333","6501000","淡水區"
"251010","413-VK","2018/05/22 22:29:33","新北市淡水區沙崙路200號","121.424746666667","25.1839416666667","6501000","淡水區"
"251007","442-VK","2018/05/22 22:29:33","新北市淡水區北新路180號","121.449381666667","25.1787483333333","6501000","淡水區"
"251011","650-BX","2018/05/22 22:29:34","新北市淡水區水碓街7號","121.443178333333","25.1772183333333","6501000","淡水區"
