"lineid","car","time","location","longitude","latitude","cityid","cityname"
"248005","653-BX","2018/10/19 08:47:29","新北市五股區明德路12巷6號","121.433403333333","25.0718583333333","6501500","五股區"
"222005","289-BY","2018/10/19 08:47:33","新北市深坑區風格街7號","121.625796666667","25.0166433333333","6501800","深坑區"
"231007","189-VK","2018/10/19 08:47:44","新北市新店區環湖路5-1號","121.528808333333","24.92593","6500600","新店區"
"231009","192-VK","2018/10/19 08:47:44","新北市新店區新烏路三段寶島巷12號","121.552038333333","24.8987283333333","6500600","新店區"
"235001","611-BX","2018/10/19 08:47:38","新北市中和區莒光路84巷32號","121.471453333333","25.0025416666667","6500300","中和區"
"226005","5620-A6","2018/10/19 08:47:22","新北市平溪區十分里十分街96-2號","121.77669","25.0426516666667","6502400","平溪區"
"226001","7418-A5","2018/10/19 08:40:38","新北市平溪區東勢里番仔坑16號","121.754825","24.9911733333333","6502400","平溪區"
"226006","AGD-0702","2018/10/19 08:47:45","新北市平溪區靜安路三段86號","121.77006","25.034815","6502400","平溪區"
"223006","022-BY","2018/10/19 08:39:31","新北市石碇區溪邊寮2-2號","121.657616666667","24.9761116666667","6501900","石碇區"
"223008","406-TH","2018/10/19 08:45:20","新北市石碇區光明路17-2號","121.685145","25.0319133333333","6501900","石碇區"
"223004","437-BY","2018/10/19 08:47:29","新北市石碇區崩山53號","121.682386666667","24.9689033333333","6501900","石碇區"
"223001","592-UM","2018/10/19 08:47:42","新北市石碇區北宜路六段水底寮巷10號","121.665288333333","24.947695","6501900","石碇區"
"223007","661-BX","2018/10/19 08:47:30","新北市石碇區光明路13號","121.67997","25.0334816666667","6501900","石碇區"
"223005","677-TV","2018/10/19 08:47:36","新北市石碇區崩山53-1號","121.682398333333","24.9675483333333","6501900","石碇區"
"227005","282-VK","2018/10/19 08:47:30","新北市雙溪區泰平里泰平1-5號","121.847543333333","24.9938916666667","6502500","雙溪區"
"237001","159-UY","2018/10/19 08:47:26","新北市三峽區學成路311號","121.376486666667","24.9442783333333","6500900","三峽區"
