"lineid","car","time","location","longitude","latitude","cityid","cityname"
"234044","148-BY","2018/10/19 12:49:16","新北市永和區秀朗路二段163號","121.525123333333","25.001625","6500400","永和區"
"234005","207-UY","2018/10/19 12:49:05","新北市永和區文化路170號","121.511998333333","25.01543","6500400","永和區"
"234078","298-R6","2018/10/19 12:49:17","新北市永和區永利路130號","121.521698333333","25.00298","6500400","永和區"
"234036","336-UY","2018/10/19 12:49:11","新北市永和區成功路二段217巷3號","121.526538333333","24.99572","6500400","永和區"
"234062","337-UY","2018/10/19 12:49:20","新北市永和區環河東路二段102號","121.524546666667","25.01049","6500400","永和區"
"234084","338-UY","2018/10/19 12:49:19","新北市永和區中正路63號","121.514788333333","24.996545","6500400","永和區"
"234068","552-UM","2018/10/19 12:49:03","新北市永和區竹林路153號","121.520456666667","25.010405","6500400","永和區"
"234015","745-BX","2018/10/19 12:49:16","新北市永和區忠孝街26巷8號","121.515353333333","25.016785","6500400","永和區"
"234028","746-BX","2018/10/19 12:49:01","新北市永和區得和路325號","121.523458333333","24.9996016666667","6500400","永和區"
"234052","KEA-2590","2018/10/19 12:49:07","新北市永和區豫溪街215巷25號","121.523588333333","25.010385","6500400","永和區"
"234012","KEA-2591","2018/10/19 12:49:18","新北市永和區保福路二段131號","121.509698333333","25.0139066666667","6500400","永和區"
"234060","AAD-866","2018/10/19 12:48:59","新北市永和區福和路273號","121.517595","25.0073866666667","6500400","永和區"
"234040","862-TW","2018/10/19 12:49:17","新北市永和區永貞路310號","121.511828333333","25.004925","6500400","永和區"
"234025","9371-KE","2018/10/19 12:49:09","新北市永和區豫溪街33號","121.516405","25.0098916666667","6500400","永和區"
"234010","9373-KE","2018/10/19 12:49:14","新北市永和區竹林路91巷60弄70號","121.523088333333","25.01212","6500400","永和區"
"234022","9380-KE","2018/10/19 12:49:15","新北市永和區竹林路119巷45號","121.521891666667","25.011895","6500400","永和區"
"234076","969-R7","2018/10/19 12:49:05","新北市中和區安和路55號","121.508911666667","24.994825","6500400","永和區"
"234066","AAC-212","2018/10/19 12:49:18","新北市永和區中和路625號","121.5129","25.0048166666667","6500400","永和區"
"234001","AAC-295","2018/10/19 12:49:02","新北市永和區中正路742-1號","121.515041666667","25.0102733333333","6500400","永和區"
"231001","047-UY","2018/10/19 12:49:11","新北市新店區安華路28-1號","121.519291666667","24.9608366666667","6500600","新店區"
"231012","187-VK","2018/10/19 12:49:10","新北市新店區安一路一段1-1號","121.519498333333","24.9611083333333","6500600","新店區"
"231023","KEA-2219","2018/10/19 12:49:13","新北市新店區安一路一段1-1號","121.519768333333","24.9612216666667","6500600","新店區"
"231003","268-BY","2018/10/19 12:49:14","新北市新店區安華路28-1號","121.5195","24.9605616666667","6500600","新店區"
"231016","AAD-862","2018/10/19 12:49:14","新北市新店區安一路一段1-1號","121.519666666667","24.9612866666667","6500600","新店區"
"231036","512-UM","2018/10/19 12:49:17","新北市新店區安一路一段1-1號","121.519115","24.961225","6500600","新店區"
"231013","513-UM","2018/10/19 12:49:02","新北市新店區安一路一段1-1號","121.51974","24.9611566666667","6500600","新店區"
"231034","616-UM","2018/10/19 12:49:18","新北市新店區安華路1-1號","121.519616666667","24.9604783333333","6500600","新店區"
"231030","619-UM","2018/10/19 12:49:18","新北市新店區安華路28-1號","121.519683333333","24.96086","6500600","新店區"
"231035","719-UM","2018/10/19 12:49:08","新北市新店區安一路一段1-1號","121.519675","24.9613083333333","6500600","新店區"
"231032","720-UM","2018/10/19 12:49:18","新北市新店區安一路一段1-1號","121.519238333333","24.9611066666667","6500600","新店區"
"235028","005-UY","2018/10/19 12:49:10","新北市中和區員山路36巷16-3號","121.485036666667","24.991495","6500300","中和區"
"235027","006-UY","2018/10/19 12:49:00","新北市中和區員山路36巷16-3號","121.485001666667","24.991325","6500300","中和區"
"235029","098-UM","2018/10/19 12:49:07","新北市中和區建八路116號","121.488083333333","24.99842","6500300","中和區"
"235022","151-BY","2018/10/19 12:49:07","新北市中和區員山路36巷16-2號","121.485196666667","24.9916016666667","6500300","中和區"
"235002","185-VK","2018/10/19 12:49:20","新北市中和區中正路505號","121.488566666667","24.9941416666667","6500300","中和區"
"235031","255-BX","2018/10/19 12:49:16","新北市中和區中正路1155號","121.481881666667","25.0082566666667","6500300","中和區"
"235001","611-BX","2018/10/19 12:49:13","新北市中和區中山路三段120-17號","121.474206666667","25.0085583333333","6500300","中和區"
"207002","749-BX","2018/10/19 12:49:01","新北市萬里區雙興里二坪路31號","121.645065","25.1685933333333","6502800","萬里區"
"207001","662-BX","2018/10/19 12:49:05","新北市萬里區萬里里瑪鋉路217號","121.690213333333","25.179515","6502800","萬里區"
"221010","269-BY","2018/10/19 12:49:10","新北市汐止區康寧街471號","121.631928333333","25.0683666666667","6501100","汐止區"
"221032","280-BY","2018/10/19 12:49:21","新北市汐止區汐萬路一段20號","121.655978333333","25.0675333333333","6501100","汐止區"
"221033","647-BX","2018/10/19 12:49:12","新北市汐止區汐萬路一段24號","121.6557","25.0680183333333","6501100","汐止區"
