"lineid","car","time","location","longitude","latitude","cityid","cityname"
"234044","148-BY","2018/10/19 13:29:16","新北市永和區秀朗路二段194號","121.526436666667","25.0006266666667","6500400","永和區"
"234005","207-UY","2018/10/19 13:29:05","新北市永和區中山路一段174號","121.509056666667","25.0090983333333","6500400","永和區"
"234078","298-R6","2018/10/19 13:29:17","新北市永和區福和路1號","121.525105","25.0088316666667","6500400","永和區"
"234036","336-UY","2018/10/19 13:29:11","新北市永和區民樂街31巷8弄2號","121.528103333333","25.0010683333333","6500400","永和區"
"234062","337-UY","2018/10/19 13:29:20","新北市永和區中正路368巷1弄84號","121.52032","25.000725","6500400","永和區"
"234084","338-UY","2018/10/19 13:29:05","新北市永和區成功路一段18巷15號","121.52625","25.0050033333333","6500400","永和區"
"234068","552-UM","2018/10/19 13:29:03","新北市永和區中興街143號","121.51893","25.0124133333333","6500400","永和區"
"234015","745-BX","2018/10/19 13:29:15","新北市永和區環河西路一段1號","121.515241666667","25.0180583333333","6500400","永和區"
"234028","746-BX","2018/10/19 13:29:01","新北市永和區四維街74號","121.523641666667","24.99836","6500400","永和區"
"234052","KEA-2590","2018/10/19 13:29:07","新北市永和區永和路二段170號","121.515375","25.01313","6500400","永和區"
"234012","KEA-2591","2018/10/19 13:29:18","新北市永和區永平路201號","121.50941","25.0100483333333","6500400","永和區"
"234060","AAD-866","2018/10/19 13:29:19","新北市永和區永貞路176號","121.516575","25.004335","6500400","永和區"
"234040","862-TW","2018/10/19 13:29:17","新北市永和區中和路519巷8號","121.510898333333","25.003105","6500400","永和區"
"234048","863-TW","2018/10/19 13:29:18","新北市永和區信義路115號","121.51229","25.0148116666667","6500400","永和區"
"234025","9371-KE","2018/10/19 13:29:09","新北市永和區中山路一段17巷4弄16號","121.513103333333","25.01013","6500400","永和區"
"234010","9373-KE","2018/10/19 13:29:14","新北市永和區仁愛路141巷30弄5號","121.511878333333","25.0115016666667","6500400","永和區"
"248019","225-UY","2018/10/19 13:29:19","新北市五股區天乙路114號","121.446995","25.1132366666667","6501500","五股區"
"234022","9380-KE","2018/10/19 13:29:15","新北市永和區竹林路91巷70號","121.521825","25.0135116666667","6500400","永和區"
"234076","969-R7","2018/10/19 13:29:15","新北市永和區智光街24號","121.517961666667","24.9990733333333","6500400","永和區"
"234072","AAC-211","2018/10/19 13:29:16","新北市永和區光復街13號","121.516483333333","25.0171283333333","6500400","永和區"
"234066","AAC-212","2018/10/19 13:29:19","新北市永和區永貞路416號","121.508863333333","25.0079983333333","6500400","永和區"
"234001","AAC-295","2018/10/19 13:29:02","新北市永和區永和路一段115號","121.51367","25.0081016666667","6500400","永和區"
"244004","248-BX","2018/10/19 13:29:03","新北市林口區忠福路356號","121.357026666667","25.0802966666667","6501700","林口區"
"231002","002-UM","2018/10/19 13:29:06","新北市新店區環河路66號","121.536975","24.962785","6500600","新店區"
"231027","0293-UT","2018/10/19 13:29:21","新北市新店區北新路一段41號","121.538008333333","24.9593","6500600","新店區"
"231028","046-UY","2018/10/19 13:29:16","新北市新店區安華路28-1號","121.519533333333","24.960875","6500600","新店區"
"231001","047-UY","2018/10/19 13:29:11","新北市新店區安康路一段9-2號","121.533958333333","24.96065","6500600","新店區"
"231010","107-UY","2018/10/19 13:29:15","新北市新店區中正路374號","121.535003333333","24.9764133333333","6500600","新店區"
"231022","108-UY","2018/10/19 13:29:19","新北市新店區新烏路一段65號","121.546003333333","24.9437516666667","6500600","新店區"
"231012","187-VK","2018/10/19 13:29:10","新北市新店區北新路一段91號","121.538795","24.961775","6500600","新店區"
"231023","KEA-2219","2018/10/19 13:29:13","新北市新店區新店路13號","121.540315","24.9528966666667","6500600","新店區"
"231026","256-BX","2018/10/19 13:29:01","新北市新店區安康路一段50-1號","121.529681666667","24.9613633333333","6500600","新店區"
"231003","268-BY","2018/10/19 13:29:14","新北市新店區安康路一段100號","121.527511666667","24.9623516666667","6500600","新店區"
"231018","278-BY","2018/10/19 13:29:14","新北市新店區中央路208號","121.53019","24.9739716666667","6500600","新店區"
"231016","AAD-862","2018/10/19 13:29:14","新北市新店區北宜路二段56巷1弄2號","121.549161666667","24.9510583333333","6500600","新店區"
"231038","3712-VJ","2018/10/19 13:29:10","新北市新店區安華路1-1號","121.519126666667","24.960565","6500600","新店區"
"231037","4716-K9","2018/10/19 13:29:17","新北市新店區安豐路30-1號","121.500788333333","24.9567233333333","6500600","新店區"
"231025","4715-K9","2018/10/19 13:29:12","新北市新店區中央六街58號","121.527865","24.9758116666667","6500600","新店區"
"231036","512-UM","2018/10/19 13:29:17","新北市新店區建業路102-1號","121.479021666667","24.9553066666667","6500600","新店區"
"231013","513-UM","2018/10/19 13:29:02","新北市新店區環河路114巷4-1號","121.537018333333","24.96498","6500600","新店區"
"231034","616-UM","2018/10/19 13:29:18","新北市新店區安華路30巷1號","121.519338333333","24.9595966666667","6500600","新店區"
"231006","617-UM","2018/10/19 13:29:22","新北市新店區安康路一段229號","121.525506666667","24.963155","6500600","新店區"
"231005","618-UM","2018/10/19 13:29:13","新北市新店區北新路一段89號","121.538588333333","24.9616866666667","6500600","新店區"
"231030","619-UM","2018/10/19 13:29:18","新北市新店區安華路1-1號","121.519668333333","24.9601266666667","6500600","新店區"
"231035","719-UM","2018/10/19 13:29:08","新北市新店區安一路一段1-1號","121.519468333333","24.9612816666667","6500600","新店區"
"231032","720-UM","2018/10/19 13:29:18","新北市新店區安豐路60-2號","121.49798","24.9538316666667","6500600","新店區"
"231029","897-TW","2018/10/19 13:29:11","新北市新店區安華路30巷3號","121.51903","24.9591466666667","6500600","新店區"
"231004","899-TW","2018/10/19 13:29:09","新北市新店區安康路一段355-10號","121.520823333333","24.9638983333333","6500600","新店區"
"231024","AKT-0513","2018/10/19 13:29:11","新北市新店區華興街2號","121.538118333333","24.9700216666667","6500600","新店區"
"235030","003-UY","2018/10/19 13:29:08","新北市中和區中山路二段120號","121.502646666667","25.0037566666667","6500300","中和區"
"235028","005-UY","2018/10/19 13:29:09","新北市中和區連城路139巷34號","121.496465","24.9978483333333","6500300","中和區"
"235027","006-UY","2018/10/19 13:29:20","新北市中和區連城路347巷2弄2號","121.488008333333","24.99589","6500300","中和區"
"235020","096-UM","2018/10/19 13:29:12","新北市中和區中正路879號","121.484581666667","25.0041383333333","6500300","中和區"
"235003","097-UM","2018/10/19 13:29:04","新北市中和區大勇街27巷12號","121.51689","24.9937","6500300","中和區"
"235029","098-UM","2018/10/19 13:29:07","新北市中和區中山路二段64巷12號","121.503463333333","25.0052433333333","6500300","中和區"
"235004","150-BY","2018/10/19 13:29:07","新北市中和區安平路59號","121.50944","24.995255","6500300","中和區"
"235022","151-BY","2018/10/19 13:29:07","新北市中和區圓通路369巷72號","121.490128333333","24.9822433333333","6500300","中和區"
"235019","183-VK","2018/10/19 13:29:22","新北市中和區莒光路80號","121.472288333333","25.00284","6500300","中和區"
"235002","185-VK","2018/10/19 13:29:00","新北市中和區自強路2號","121.520328333333","24.9960016666667","6500300","中和區"
"235013","186-VK","2018/10/19 13:29:19","新北市中和區景安路138號","121.504991666667","24.994255","6500300","中和區"
"235031","255-BX","2018/10/19 13:29:16","新北市中和區新生街220巷15弄5號","121.482963333333","24.9981416666667","6500300","中和區"
"235036","301-VK","2018/10/19 13:29:11","新北市中和區連城路204號","121.491806666667","24.9966633333333","6500300","中和區"
"235007","352-BY","2018/10/19 13:29:09","新北市中和區景平路289號","121.507245","24.9930083333333","6500300","中和區"
"235006","KEA-2878","2018/10/19 13:29:14","新北市中和區秀朗路三段128巷1弄15號","121.523741666667","24.9916083333333","6500300","中和區"
"235014","4979-A6","2018/10/19 13:29:11","新北市中和區景新街368號","121.512041666667","24.9903966666667","6500300","中和區"
"235033","4980-A6","2018/10/19 13:29:05","新北市中和區連城路127巷19號","121.496751666667","24.9981716666667","6500300","中和區"
"235034","558-UM","2018/10/19 13:29:17","新北市中和區南華路39-2號","121.50326","24.9962883333333","6500300","中和區"
"235009","565-BX","2018/10/19 13:29:17","新北市中和區南山路236巷24弄52號","121.504486666667","24.9887233333333","6500300","中和區"
"235018","640-BX","2018/10/19 13:29:20","新北市中和區民享街82號","121.474338333333","25.0012816666667","6500300","中和區"
"235024","647-TV","2018/10/19 13:29:22","新北市中和區員山路429號","121.480898333333","25.0035916666667","6500300","中和區"
"235011","732-UM","2018/10/19 13:29:09","新北市中和區建一路150號","121.487395","24.9985983333333","6500300","中和區"
"235035","783-BX","2018/10/19 13:29:03","新北市中和區環中路130號","121.481901666667","25.0127733333333","6500300","中和區"
"235026","800-TS","2018/10/19 13:29:13","新北市中和區景平路756號","121.49638","25.0046483333333","6500300","中和區"
"235021","801-TS","2018/10/19 13:29:07","新北市中和區民安街111巷4弄3號","121.476296666667","24.9991166666667","6500300","中和區"
"235016","805-TS","2018/10/19 13:29:07","新北市中和區興南路二段96號","121.50519","24.9842466666667","6500300","中和區"
"235017","900-TW","2018/10/19 13:29:19","新北市土城區金城路三段259-1號","121.471991666667","24.9900933333333","6500300","中和區"
"235015","157-BY","2018/10/19 13:29:08","新北市中和區興南路二段142巷25弄34號","121.502558333333","24.9843533333333","6500300","中和區"
"235001","AAC-213","2018/10/19 13:29:07","新北市中和區景德街95-1號","121.515548333333","24.9914983333333","6500300","中和區"
"235023","AAC-215","2018/10/19 13:29:01","新北市中和區員山路36巷16-3號","121.484995","24.991315","6500300","中和區"
"220013","072-UY","2018/10/19 13:29:09","新北市板橋區文化路一段52巷29號","121.461546666667","25.011025","6500100","板橋區"
"220017","AAD-861","2018/10/19 13:29:10","新北市板橋區華東街1-10號","121.44832","24.995125","6500100","板橋區"
"247013","339-TH","2018/10/19 13:29:22","新北市五股區中興路三段2巷10號","121.449218333333","25.0809316666667","6501400","蘆洲區"
"247007","336-TH","2018/10/19 13:29:08","新北市五股區工商路8號","121.440468333333","25.0824866666667","6501400","蘆洲區"
"247009","056-VK","2018/10/19 13:28:59","新北市五股區中興路三段2巷10號","121.449248333333","25.0808716666667","6501400","蘆洲區"
"235005","251-BX","2018/10/19 13:28:50","新北市中和區中和路324巷8號","121.509875","25.00075","6500300","中和區"
"207002","749-BX","2018/10/19 13:29:01","新北市萬里區崁腳里崁腳路166號","121.645025","25.1557933333333","6502800","萬里區"
"207001","662-BX","2018/10/19 13:28:05","新北市萬里區龜吼里石角路55號","121.684788333333","25.19284","6502800","萬里區"
"242051","172-VK","2018/10/19 13:29:06","新北市新莊區民安西路88巷5弄4號","121.425988333333","25.0196566666667","6500500","新莊區"
"221010","269-BY","2018/10/19 13:29:10","新北市汐止區長青路12號","121.609463333333","25.1065233333333","6501100","汐止區"
"221032","280-BY","2018/10/19 13:29:00","新北市汐止區水源路一段56號","121.65738","25.0656416666667","6501100","汐止區"
"220028","200-UY","2018/10/19 13:26:48","新北市板橋區華東街1-9號","121.448015","24.994965","6500100","板橋區"
"220030","610-BX","2018/10/19 13:29:01","新北市板橋區華東街1-10號","121.448265","24.99492","6500100","板橋區"
"220019","283-VK","2018/10/19 13:29:08","新北市板橋區華東街1-9號","121.448055","24.9948783333333","6500100","板橋區"
"220029","287-VK","2018/10/19 13:29:11","新北市板橋區華東街1-10號","121.448235","24.99503","6500100","板橋區"
"220023","303-R5","2018/10/19 13:29:07","新北市板橋區華東街1-9號","121.448193333333","24.9950166666667","6500100","板橋區"
"220104","560-BX","2018/10/19 13:28:59","新北市板橋區南雅南路二段118號","121.453096666667","24.9999766666667","6500100","板橋區"
"220005","686-BX","2018/10/19 13:29:05","新北市板橋區華東街1-10號","121.448278333333","24.9949666666667","6500100","板橋區"
"220025","687-BX","2018/10/19 13:29:10","新北市板橋區篤行路一段32號","121.43186","24.99397","6500100","板橋區"
"220022","895-R6","2018/10/19 13:29:17","新北市板橋區南雅南路二段140號","121.451716666667","24.99625","6500100","板橋區"
"235032","KEA-2873","2018/10/19 13:29:13","新北市中和區圓通路284號","121.491455","24.9905883333333","6500300","中和區"
"235025","KEA-2875","2018/10/19 13:29:08","新北市中和區民享街89巷4弄15號","121.475378333333","25.0010783333333","6500300","中和區"
