"lineid","car","time","location","longitude","latitude","cityid","cityname"
"234040","862-TW","2018/10/19 14:59:17","新北市永和區中山路一段341號","121.505975","25.005815","6500400","永和區"
"234025","9371-KE","2018/10/19 14:59:08","新北市永和區水源街29號","121.511121666667","25.0043316666667","6500400","永和區"
"248019","225-UY","2018/10/19 14:59:21","新北市五股區中直路44號","121.419311666667","25.117365","6501500","五股區"
"244004","248-BX","2018/10/19 14:59:23","新北市林口區竹林路266號","121.38966","25.080755","6501700","林口區"
"231002","002-UM","2018/10/19 14:59:06","新北市新店區民權路72號","121.538095","24.983085","6500600","新店區"
"231027","0293-UT","2018/10/19 14:59:21","新北市新店區安康路二段414巷2號","121.495865","24.9578116666667","6500600","新店區"
"231028","046-UY","2018/10/19 14:59:16","新北市新店區安康路二段348號","121.50266","24.9575716666667","6500600","新店區"
"231001","047-UY","2018/10/19 14:59:11","新北市新店區中正路272號","121.538963333333","24.97369","6500600","新店區"
"231022","108-UY","2018/10/19 14:59:18","新北市新店區金興路24-2號","121.551968333333","24.9297183333333","6500600","新店區"
"231012","187-VK","2018/10/19 14:59:10","新北市新店區寶橋路132號","121.547365","24.9760433333333","6500600","新店區"
"231023","KEA-2219","2018/10/19 14:59:13","新北市新店區檳榔路109號","121.544446666667","24.9616033333333","6500600","新店區"
"231026","256-BX","2018/10/19 14:59:05","新北市新店區博愛街3號","121.540645","24.9727133333333","6500600","新店區"
"231003","268-BY","2018/10/19 14:59:13","新北市新店區中興路二段100巷2號","121.547316666667","24.971135","6500600","新店區"
"231018","278-BY","2018/10/19 14:59:14","新北市新店區環河路121號","121.529256666667","24.9714916666667","6500600","新店區"
"231016","AAD-862","2018/10/19 14:59:14","新北市新店區北宜路二段581巷5號","121.566438333333","24.954125","6500600","新店區"
"231038","3712-VJ","2018/10/19 14:59:10","新北市新店區安華路28-1號","121.519771666667","24.9609616666667","6500600","新店區"
"231037","4716-K9","2018/10/19 14:59:17","新北市新店區薏仁坑路自強巷6號","121.496866666667","24.9585933333333","6500600","新店區"
"231025","4715-K9","2018/10/19 14:59:11","新北市新店區大豐路52號","121.539831666667","24.979975","6500600","新店區"
"231036","512-UM","2018/10/19 14:59:20","新北市新店區安祥路102巷46弄35號","121.48578","24.963685","6500600","新店區"
"231034","616-UM","2018/10/19 14:59:18","新北市新店區玫瑰路4-1號","121.493606666667","24.951435","6500600","新店區"
"231006","617-UM","2018/10/19 14:59:22","新北市新店區新坡一街72號","121.548963333333","24.9645466666667","6500600","新店區"
"231005","618-UM","2018/10/19 14:59:22","新北市新店區寶慶街58巷2號","121.542113333333","24.9868833333333","6500600","新店區"
"231030","619-UM","2018/10/19 14:59:18","新北市新店區安民街341-1號","121.516798333333","24.97491","6500600","新店區"
"231035","719-UM","2018/10/19 14:59:08","新北市新店區安業街33號","121.517221666667","24.9774283333333","6500600","新店區"
"231039","719-UY","2018/10/19 14:59:12","新北市新店區寶中路45號","121.545273333333","24.9789366666667","6500600","新店區"
"231032","720-UM","2018/10/19 14:59:18","新北市新店區安康路三段58號","121.492345","24.9522516666667","6500600","新店區"
"231029","897-TW","2018/10/19 14:59:11","新北市新店區安康路三段740號","121.473798333333","24.9419866666667","6500600","新店區"
"231004","899-TW","2018/10/19 14:59:09","新北市新店區民族路26號","121.54072","24.9788283333333","6500600","新店區"
"231024","AKT-0513","2018/10/19 14:59:11","新北市新店區中華路48巷10號","121.540176666667","24.96873","6500600","新店區"
"235030","003-UY","2018/10/19 14:59:08","新北市永和區保平路292巷38號","121.507826666667","25.0049683333333","6500300","中和區"
"235020","096-UM","2018/10/19 14:59:12","新北市中和區漢民路411號","121.472311666667","25.0069333333333","6500300","中和區"
"235003","097-UM","2018/10/19 14:59:04","新北市中和區安樂路143巷38弄1號","121.512868333333","24.9964533333333","6500300","中和區"
"235029","098-UM","2018/10/19 14:59:07","新北市中和區福美路310號","121.496863333333","25.0048016666667","6500300","中和區"
"235004","150-BY","2018/10/19 14:59:06","新北市中和區景安路79巷21號","121.50705","24.9968033333333","6500300","中和區"
"235013","186-VK","2018/10/19 14:59:18","新北市中和區圓通路19號","121.501445","24.997915","6500300","中和區"
"235031","255-BX","2018/10/19 14:59:16","新北市板橋區民生路一段28-9號","121.476826666667","25.0121216666667","6500300","中和區"
"235036","301-VK","2018/10/19 14:59:11","新北市中和區板南路337號","121.493978333333","24.99801","6500300","中和區"
"235007","352-BY","2018/10/19 14:59:14","新北市中和區華新街232巷2號","121.505936666667","24.98184","6500300","中和區"
"235014","4979-A6","2018/10/19 14:59:11","新北市中和區景平路239巷57號","121.508683333333","24.992205","6500300","中和區"
"235033","4980-A6","2018/10/19 14:58:44","新北市中和區景平路634-2號","121.500856666667","24.9983483333333","6500300","中和區"
"235034","558-UM","2018/10/19 14:59:17","新北市中和區中正路226號","121.496276666667","24.9940566666667","6500300","中和區"
"235018","640-BX","2018/10/19 14:59:25","新北市中和區民享街91-12號","121.47463","25.0006766666667","6500300","中和區"
"235010","733-UM","2018/10/19 14:59:07","新北市中和區興南路一段105巷20弄16號","121.510348333333","24.9854783333333","6500300","中和區"
"235035","783-BX","2018/10/19 14:59:09","新北市中和區中正路774號","121.485388333333","25.0001783333333","6500300","中和區"
"235016","805-TS","2018/10/19 14:59:07","新北市中和區忠孝街79號","121.512168333333","24.98524","6500300","中和區"
"235012","896-TW","2018/10/19 14:59:18","新北市中和區忠孝街5巷9號","121.509246666667","24.98308","6500300","中和區"
"235017","900-TW","2018/10/19 14:59:20","新北市中和區民德路250號","121.468008333333","24.99721","6500300","中和區"
"235015","157-BY","2018/10/19 14:59:08","新北市中和區復興路257號","121.503055","24.99029","6500300","中和區"
"235001","AAC-213","2018/10/19 14:59:07","新北市中和區自立路99巷22弄7號","121.523355","24.994155","6500300","中和區"
"235023","AAC-215","2018/10/19 14:59:21","新北市中和區圓通路335巷1弄3號","121.492173333333","24.99043","6500300","中和區"
"220013","072-UY","2018/10/19 14:59:09","新北市板橋區實踐路100號","121.464075","25.0048783333333","6500100","板橋區"
"220017","AAD-861","2018/10/19 14:59:17","新北市板橋區大明街25巷4弄6號","121.457815","25.0021316666667","6500100","板橋區"
"247001","893-R6","2018/10/19 14:59:19","新北市五股區中興路三段3-8號","121.450203333333","25.079655","6501400","蘆洲區"
"247014","339-TH","2018/10/19 14:56:21","新北市五股區中興路三段163號","121.449288333333","25.0807783333333","6501400","蘆洲區"
"207002","749-BX","2018/10/19 14:59:21","新北市萬里區崁腳里崁腳路70號","121.64843","25.1596933333333","6502800","萬里區"
"207001","662-BX","2018/10/19 14:59:04","新北市萬里區雙興里二坪路5-1號","121.649473333333","25.1757016666667","6502800","萬里區"
"236067","105-UM","2018/10/19 14:59:05","新北市土城區裕生路84巷2號","121.447233333333","24.9855083333333","6501300","土城區"
"236040","KED-0685","2018/10/19 14:59:18","新北市土城區裕民路256巷4弄2號","121.454055","24.9825466666667","6501300","土城區"
"236077","166-UM","2018/10/19 14:59:18","新北市土城區中州路12巷17號","121.415156666667","24.95752","6501300","土城區"
"236029","253-BX","2018/10/19 14:59:21","新北市土城區福仁街65號","121.439531666667","24.9746566666667","6501300","土城區"
"236024","269-VK","2018/10/19 14:59:08","新北市土城區中正路74巷2弄2號","121.44459","24.9752033333333","6501300","土城區"
"236013","270-VK","2018/10/19 14:59:10","新北市土城區永豐路31巷22號","121.463736666667","24.9881716666667","6501300","土城區"
"236032","271-VK","2018/10/19 14:59:14","新北市土城區清水路145號","121.458391666667","24.9817966666667","6501300","土城區"
"236016","401-BY","2018/10/19 14:59:17","新北市土城區延吉街217巷11弄1號","121.468978333333","24.9843316666667","6501300","土城區"
"236057","912-UM","2018/10/19 14:59:03","新北市土城區金城路二段240號","121.456708333333","24.9830466666667","6501300","土城區"
"236045","913-UM","2018/10/19 14:59:02","新北市土城區青雲路318-1號","121.458913333333","24.9778566666667","6501300","土城區"
"236060","915-UM","2018/10/19 14:59:19","新北市土城區延和路49號","121.466308333333","24.9895266666667","6501300","土城區"
"236054","AAC-216","2018/10/19 14:59:09","新北市土城區學成路11號","121.453211666667","24.9865383333333","6501300","土城區"
"221010","269-BY","2018/10/19 14:59:10","新北市汐止區汐萬路一段310號","121.65028","25.0748433333333","6501100","汐止區"
"220050","245-BX","2018/10/19 14:59:11","新北市板橋區莒光路170號","121.474098333333","25.0231233333333","6500100","板橋區"
"220043","283-UM","2018/10/19 14:59:24","新北市板橋區陽明街239號","121.46303","25.0245466666667","6500100","板橋區"
"220019","283-VK","2018/10/19 14:59:11","新北市板橋區廣權路117號","121.465193333333","24.993065","6500100","板橋區"
"220001","285-VK","2018/10/19 14:59:21","新北市板橋區懷仁街45號","121.476715","25.0191933333333","6500100","板橋區"
"220031","286-VK","2018/10/19 14:59:16","新北市板橋區僑中二街90巷16號","121.445526666667","25.009325","6500100","板橋區"
"220029","287-VK","2018/10/19 14:59:10","新北市板橋區僑中一街80巷7弄22號","121.44686","25.012895","6500100","板橋區"
"220039","288-VK","2018/10/19 14:59:07","新北市板橋區龍泉街90巷1號","121.45625","25.0249416666667","6500100","板橋區"
"220009","293-UM","2018/10/19 14:59:22","新北市板橋區中山路一段161號","121.465395","25.0120066666667","6500100","板橋區"
"220010","295-UM","2018/10/19 14:59:22","新北市板橋區萬安街140-3號","121.483935","25.026295","6500100","板橋區"
"220032","296-UM","2018/10/19 14:59:21","新北市板橋區溪崑二街136號","121.42593","24.98767","6500100","板橋區"
"220016","299-UM","2018/10/19 14:59:23","新北市板橋區中山路二段412號","121.48283","25.02095","6500100","板橋區"
"220041","307-R5","2018/10/19 14:59:08","新北市板橋區裕民街116號","121.459348333333","25.0276566666667","6500100","板橋區"
"220047","317-R6","2018/10/19 14:59:04","新北市板橋區新海路72巷5弄11號","121.461805","25.0224733333333","6500100","板橋區"
"220012","486-VK","2018/10/19 14:59:06","新北市板橋區漢生東路193巷11號","121.470568333333","25.0118816666667","6500100","板橋區"
"220038","487-VK","2018/10/19 14:59:24","新北市板橋區龍泉街81號","121.456726666667","25.0250983333333","6500100","板橋區"
"220037","491-VK","2018/10/19 14:59:16","新北市板橋區文聖街83號","121.477458333333","25.0301183333333","6500100","板橋區"
"220104","560-BX","2018/10/19 14:59:19","新北市板橋區大觀路二段153巷46弄182號","121.451458333333","25.0001466666667","6500100","板橋區"
"220052","561-BX","2018/10/19 14:59:16","新北市板橋區文化路一段435巷31弄16號","121.466681666667","25.0229916666667","6500100","板橋區"
"220011","609-BX","2018/10/19 14:59:15","新北市板橋區三民路一段131號","121.479333333333","25.020315","6500100","板橋區"
"220040","637-BX","2018/10/19 14:59:11","新北市板橋區民治街121號","121.478226666667","25.03104","6500100","板橋區"
"220005","686-BX","2018/10/19 14:59:05","新北市板橋區南雅南路二段43號","121.451358333333","24.9944216666667","6500100","板橋區"
"220025","687-BX","2018/10/19 14:59:10","新北市板橋區僑中一街124巷72-3號","121.448441666667","25.0167583333333","6500100","板橋區"
"220042","689-BX","2018/10/19 14:59:19","新北市板橋區長江路三段149號","121.476028333333","25.0347733333333","6500100","板橋區"
"220051","KEA-2699","2018/10/19 14:59:21","新北市板橋區文聖街61號","121.476798333333","25.0310516666667","6500100","板橋區"
"220018","806-UM","2018/10/19 14:59:10","新北市板橋區四川路二段47巷4弄17號","121.453455","24.9943583333333","6500100","板橋區"
"220003","827-TW","2018/10/19 14:59:13","新北市板橋區國慶路167巷23號","121.461803333333","24.9975966666667","6500100","板橋區"
"220014","829-TW","2018/10/19 14:59:19","新北市板橋區板新路97號","121.472986666667","25.0140066666667","6500100","板橋區"
"220105","830-TW","2018/10/19 14:59:20","新北市板橋區懷德街20號","121.476668333333","25.0329916666667","6500100","板橋區"
"220045","831-TW","2018/10/19 14:59:20","新北市板橋區莒光路79巷13-3號","121.472053333333","25.0246733333333","6500100","板橋區"
"220022","895-R6","2018/10/19 14:59:16","新北市板橋區館前西路66號","121.457775","25.0071333333333","6500100","板橋區"
"220046","AAC-210","2018/10/19 14:59:12","新北市板橋區光正街18巷13號","121.462648333333","25.0176933333333","6500100","板橋區"
"235032","KEA-2873","2018/10/19 14:59:13","新北市中和區連城路71號","121.497416666667","25.0012283333333","6500300","中和區"
