"lineid","car","time","location","longitude","latitude","cityid","cityname"
"234038","336-UY","2018/10/19 16:18:51","新北市永和區福和路1號","121.526586666667","25.0100733333333","6500400","永和區"
"231046","107-UY","2018/10/19 16:18:46","新北市新店區灣潭路3-2號","121.538268333333","24.9507816666667","6500600","新店區"
"231018","278-BY","2018/10/19 16:18:54","新北市新店區溪園路87號","121.528868333333","24.986905","6500600","新店區"
"241011","013-R5","2018/10/19 16:18:43","新北市三重區龍濱路285號","121.501053333333","25.0734383333333","6500200","三重區"
"241028","022-UY","2018/10/19 16:18:52","新北市三重區正義南路181巷1號","121.499041666667","25.0571066666667","6500200","三重區"
"241008","059-VK","2018/10/19 16:18:51","新北市三重區永福街175-2號","121.478975","25.0753416666667","6500200","三重區"
"241022","060-VK","2018/10/19 16:18:54","新北市三重區過圳街31巷2號","121.489055","25.06063","6500200","三重區"
"241031","061-VK","2018/10/19 16:18:44","新北市三重區捷運路36號","121.483001666667","25.0548366666667","6500200","三重區"
"241015","062-VK","2018/10/19 16:18:46","新北市三重區福德北路77號","121.501936666667","25.065845","6500200","三重區"
"241017","063-VK","2018/10/19 16:18:49","新北市三重區大同北路91號","121.494745","25.0636483333333","6500200","三重區"
"241024","065-VK","2018/10/19 16:18:44","新北市三重區中正北路145巷3弄11號","121.483688333333","25.0674066666667","6500200","三重區"
"241026","066-VK","2018/10/19 16:18:43","新北市三重區正義南路87-1號","121.498356666667","25.0597216666667","6500200","三重區"
"241002","090-VK","2018/10/19 16:18:47","新北市三重區仁義街91號","121.499756666667","25.07948","6500200","三重區"
"241003","091-VK","2018/10/19 16:18:42","新北市三重區五華街57巷22號","121.493575","25.0829633333333","6500200","三重區"
"241012","265-UM","2018/10/19 16:18:47","新北市三重區河邊北街311號","121.502441666667","25.0748366666667","6500200","三重區"
"241016","266-UM","2018/10/19 16:18:48","新北市三重區大仁街37號","121.492958333333","25.0653966666667","6500200","三重區"
"241018","268-UM","2018/10/19 16:18:45","新北市三重區重陽路三段142-1號","121.489391666667","25.06716","6500200","三重區"
"241032","269-UM","2018/10/19 16:18:51","新北市三重區三陽路100巷3弄13號","121.483008333333","25.057985","6500200","三重區"
"241013","270-UM","2018/10/19 16:18:36","新北市三重區三和路三段83巷82號","121.497208333333","25.0729466666667","6500200","三重區"
"241025","271-UM","2018/10/19 16:18:37","新北市三重區中正北路560巷100弄2號","121.47241","25.0682233333333","6500200","三重區"
"241007","398-BY","2018/10/19 16:18:48","新北市三重區三和路四段163巷60號","121.48649","25.0795916666667","6500200","三重區"
"241004","475-VK","2018/10/19 16:18:47","新北市三重區自強路五段65號","121.494803333333","25.081985","6500200","三重區"
"241020","478-VK","2018/10/19 16:18:55","新北市三重區三張街272號","121.483793333333","25.07114","6500200","三重區"
"241030","480-VK","2018/10/19 16:18:45","新北市三重區重新路四段121號","121.484921666667","25.0524616666667","6500200","三重區"
"241014","543-UM","2018/10/19 16:18:49","新北市三重區河邊北街96-1號","121.504041666667","25.0699683333333","6500200","三重區"
"241023","545-UM","2018/10/19 16:17:44","新北市三重區忠孝路二段138號","121.48249","25.0682583333333","6500200","三重區"
"241001","547-UM","2018/10/19 16:18:54","新北市三重區自強路四段82號","121.490653333333","25.0789616666667","6500200","三重區"
"241019","KEA-2593","2018/10/19 16:18:40","新北市三重區重陽路三段188號","121.490205","25.0682283333333","6500200","三重區"
"241006","AAD-863","2018/10/19 16:18:57","新北市三重區永福街58巷3弄27號","121.480613333333","25.0774516666667","6500200","三重區"
"241005","743-BX","2018/10/19 15:49:10","新北市三重區環河北路三段86號","121.496371666667","25.0862133333333","6500200","三重區"
"241009","887-TS","2018/10/19 16:18:44","新北市三重區溪尾街192號","121.488121666667","25.080895","6500200","三重區"
"241029","942-UM","2018/10/19 16:18:38","新北市三重區中正南路252巷5號","121.493441666667","25.0526716666667","6500200","三重區"
"241033","AAC-255","2018/10/19 16:18:47","新北市三重區五谷王南街28號","121.474518333333","25.04634","6500200","三重區"
"235064","005-UY","2018/10/19 16:11:50","新北市中和區員山路36巷16-3號","121.485066666667","24.9914083333333","6500300","中和區"
"235026","800-TS","2018/10/19 16:18:50","新北市中和區中山路二段327巷1號","121.493141666667","25.0014933333333","6500300","中和區"
"224007","275-VK","2018/10/19 16:18:43","新北市瑞芳區大埔路222號","121.761355","25.1023433333333","6501200","瑞芳區"
"224005","271-BY","2018/10/19 16:18:44","新北市瑞芳區大寮路356-1號","121.784991666667","25.1032133333333","6501200","瑞芳區"
"227003","642-TC","2018/10/19 16:18:49","新北市雙溪區上林里內平林80號","121.828285","25.02791","6502500","雙溪區"
"227011","400-TW","2018/10/19 16:18:54","新北市雙溪區三港里雙澳路80號","121.88382","25.0538866666667","6502500","雙溪區"
"251008","KEA-2871","2018/10/19 16:18:49","新北市淡水區中正東路二段48巷20號","121.45725","25.15851","6501000","淡水區"
