"lineid","car","time","location","longitude","latitude","cityid","cityname"
"234046","148-BY","2018/10/19 19:39:28","新北市永和區永利路358號","121.526163333333","25.0031716666667","6500400","永和區"
"234007","207-UY","2018/10/19 19:39:19","新北市中和區中和路362號","121.510456666667","25.00181","6500400","永和區"
"234081","298-R6","2018/10/19 19:39:08","新北市永和區國中路104巷8弄1號","121.524833333333","25.0068566666667","6500400","永和區"
"234038","336-UY","2018/10/19 19:39:11","新北市永和區環河東路四段26號","121.528573333333","24.9994016666667","6500400","永和區"
"234064","337-UY","2018/10/19 19:39:13","新北市永和區秀朗路一段192巷6弄10號","121.519096666667","25.0023616666667","6500400","永和區"
"234086","338-UY","2018/10/19 19:39:14","新北市永和區成功路一段18巷15號","121.526225","25.00498","6500400","永和區"
"234070","552-UM","2018/10/19 19:39:21","新北市永和區永和路二段237-1號","121.515661666667","25.0143783333333","6500400","永和區"
"234017","745-BX","2018/10/19 19:39:18","新北市永和區永和路二段425巷70號","121.513546666667","25.0171333333333","6500400","永和區"
"234030","746-BX","2018/10/19 19:39:26","新北市永和區四維街103巷5號","121.523965","24.9978666666667","6500400","永和區"
"234054","KEA-2590","2018/10/19 19:39:23","新北市永和區竹林路39巷18號","121.51865","25.0145783333333","6500400","永和區"
"234013","KEA-2591","2018/10/19 19:39:23","新北市永和區仁愛路235號","121.509166666667","25.0121116666667","6500400","永和區"
"234061","AAD-866","2018/10/19 19:39:24","新北市永和區中正路456號","121.517523333333","25.0029183333333","6500400","永和區"
"234042","862-TW","2018/10/19 19:39:19","新北市永和區中和路305巷2弄1號","121.506678333333","25.0000833333333","6500400","永和區"
"234050","863-TW","2018/10/19 19:39:20","新北市永和區保安路53號","121.509383333333","25.0157383333333","6500400","永和區"
"234026","9371-KE","2018/10/19 19:39:27","新北市永和區中和路501巷5號","121.510476666667","25.0026433333333","6500400","永和區"
"234011","9373-KE","2018/10/19 19:39:12","新北市永和區保生路55號","121.50472","25.0106116666667","6500400","永和區"
"249004","303-UY","2018/10/19 19:39:10","新北市八里區中山路一段268巷31號","121.413566666667","25.1605416666667","6502300","八里區"
"249002","305-UY","2018/10/19 19:39:15","新北市八里區頂寮二街33-1號","121.450365","25.1251683333333","6502300","八里區"
"249003","593-UM","2018/10/19 19:39:19","新北市八里區華峰三街27號","121.399385","25.1460266666667","6502300","八里區"
"248008","095-VK","2018/10/19 19:39:24","新北市五股區四維路118巷10弄1號","121.468833333333","25.074345","6501500","五股區"
"248018","225-UY","2018/10/19 19:39:17","新北市五股區外寮路1-5號","121.42597","25.07688","6501500","五股區"
"248012","247-BX","2018/10/19 19:39:26","新北市五股區成泰路一段241巷9號","121.436031666667","25.0809683333333","6501500","五股區"
"248014","261-SL","2018/10/19 19:39:26","新北市五股區五福路43號","121.433275","25.0896316666667","6501500","五股區"
"248010","272-BY","2018/10/19 19:39:16","新北市五股區自強路148號","121.43223","25.07053","6501500","五股區"
"248004","677-BX","2018/10/19 19:39:11","新北市五股區成泰路二段182號","121.438603333333","25.0845183333333","6501500","五股區"
"248002","678-BX","2018/10/19 19:39:12","新北市五股區成泰路三段577巷56號","121.450508333333","25.1032766666667","6501500","五股區"
"234023","9380-KE","2018/10/19 19:39:24","新北市永和區豫溪街57巷8弄6號","121.517631666667","25.010395","6500400","永和區"
"234077","969-R7","2018/10/19 19:39:17","新北市永和區民治街59巷11號","121.518773333333","24.9972416666667","6500400","永和區"
"234074","AAC-211","2018/10/19 19:39:12","新北市永和區竹林路225巷17號","121.521781666667","25.0086366666667","6500400","永和區"
"234067","AAC-212","2018/10/19 19:39:17","新北市永和區中山路一段191巷9弄6號","121.509923333333","25.0079883333333","6500400","永和區"
"234003","AAC-295","2018/10/19 19:39:14","新北市永和區福和路346號","121.514911666667","25.00731","6500400","永和區"
"243013","AAD-798","2018/10/19 19:39:22","新北市泰山區應化街7號","121.42385","25.0437316666667","6501600","泰山區"
"243009","297-R6","2018/10/19 19:39:24","新北市泰山區美寧街60號","121.430971666667","25.0646833333333","6501600","泰山區"
"243016","KEA-2801","2018/10/19 19:39:22","新北市泰山區明志路三段440號","121.420903333333","25.03279","6501600","泰山區"
"243015","421-VK","2018/10/19 19:39:10","新北市泰山區明志路二段239號","121.427295","25.0481566666667","6501600","泰山區"
"243011","KEA-2215","2018/10/19 19:39:24","新北市泰山區貴子路61號","121.430256666667","25.0396166666667","6501600","泰山區"
"243010","KEA-2216","2018/10/19 19:39:15","新北市泰山區民生路33號","121.430625","25.0521483333333","6501600","泰山區"
"243012","646-TV","2018/10/19 19:39:11","新北市泰山區仁愛路100巷9號","121.433543333333","25.0552783333333","6501600","泰山區"
"243014","680-BX","2018/10/19 19:39:16","新北市泰山區泰林路二段33-7號","121.435206666667","25.0564","6501600","泰山區"
"222003","436-BY","2018/10/19 19:30:24","新北市深坑區深南路51-1號","121.621231666667","25.009845","6501800","深坑區"
"222002","659-BX","2018/10/19 19:39:25","新北市深坑區北深路一段177號","121.632558333333","25.01091","6501800","深坑區"
"231041","002-UM","2018/10/19 19:39:11","新北市新店區中正路487號","121.53384","24.982065","6500600","新店區"
"231059","046-UY","2018/10/19 19:39:16","新北市新店區安和路三段89號","121.517811666667","24.983995","6500600","新店區"
"231040","047-UY","2018/10/19 19:39:10","新北市新店區北新路一段96巷23號","121.543006666667","24.96891","6500600","新店區"
"231046","107-UY","2018/10/19 19:39:06","新北市新店區中正路329巷1弄2號","121.535578333333","24.9748533333333","6500600","新店區"
"231053","108-UY","2018/10/19 19:39:21","新北市新店區新烏路二段478號","121.552931666667","24.9080033333333","6500600","新店區"
"231048","187-VK","2018/10/19 19:39:22","新北市新店區五峰路63巷8弄38號","121.547683333333","24.96903","6500600","新店區"
"231054","KEA-2219","2018/10/19 19:39:20","新北市新店區文中路40號","121.539696666667","24.9566366666667","6500600","新店區"
"231057","256-BX","2018/10/19 19:39:04","新北市新店區橘園一路11號","121.547953333333","24.93405","6500600","新店區"
"231042","268-BY","2018/10/19 19:39:12","新北市新店區中興路一段180號","121.543113333333","24.9647016666667","6500600","新店區"
"231051","278-BY","2018/10/19 19:39:27","新北市新店區中央路133巷8號","121.530636666667","24.973585","6500600","新店區"
"231050","AAD-862","2018/10/19 19:39:28","新北市新店區北宜路二段277號","121.555008333333","24.9537083333333","6500600","新店區"
"231058","3713-VJ","2018/10/19 19:39:22","新北市新店區中正路102巷8弄2號","121.543411666667","24.971035","6500600","新店區"
"231066","4716-K9","2018/10/19 19:39:13","新北市新店區安康路三段456號","121.484341666667","24.951085","6500600","新店區"
"231056","4715-K9","2018/10/19 19:39:15","新北市新店區安和路三段4巷3號","121.518831666667","24.980835","6500600","新店區"
"231067","4772-VM","2018/10/19 19:39:10","新北市新店區柴埕路116號","121.50424","24.9596766666667","6500600","新店區"
"231065","512-UM","2018/10/19 19:39:14","新北市新店區安祥路109巷90弄20號","121.477411666667","24.9594433333333","6500600","新店區"
"231049","513-UM","2018/10/19 19:39:21","新北市新店區大豐路53號","121.539953333333","24.9797516666667","6500600","新店區"
"231063","616-UM","2018/10/19 19:39:17","新北市新店區達觀路16號","121.503196666667","24.940765","6500600","新店區"
"231045","617-UM","2018/10/19 19:39:17","新北市新店區北宜路二段431號","121.56074","24.9543083333333","6500600","新店區"
"231044","618-UM","2018/10/19 19:39:17","新北市新店區北新路三段218號","121.541078333333","24.9843766666667","6500600","新店區"
"231061","619-UM","2018/10/19 19:39:26","新北市新店區安民街80號","121.516591666667","24.9670516666667","6500600","新店區"
"231064","719-UM","2018/10/19 19:38:05","新北市新店區安和路一段2-3號","121.517238333333","24.9642316666667","6500600","新店區"
"231062","720-UM","2018/10/19 19:39:21","新北市新店區太平路25-1號","121.533908333333","24.9580883333333","6500600","新店區"
"231060","897-TW","2018/10/19 19:39:22","新北市新店區安康路二段159巷2號","121.510311666667","24.95935","6500600","新店區"
"231043","899-TW","2018/10/19 19:39:28","新北市新店區中正路125號","121.542005","24.971265","6500600","新店區"
"231055","AKT-0513","2018/10/19 19:39:17","新北市新店區溪園路365-8號","121.52159","24.9805983333333","6500600","新店區"
"241011","013-R5","2018/10/19 19:39:12","新北市三重區秀江街232號","121.496641666667","25.071355","6500200","三重區"
"241028","022-UY","2018/10/19 19:39:19","新北市三重區中正南路163號","121.493731666667","25.0560783333333","6500200","三重區"
"241008","059-VK","2018/10/19 19:39:13","新北市三重區永福街135巷7號","121.478411666667","25.076885","6500200","三重區"
"241022","060-VK","2018/10/19 19:39:11","新北市三重區中正北路142號","121.484961666667","25.0657066666667","6500200","三重區"
"241031","061-VK","2018/10/19 19:39:24","新北市三重區重新路四段248號","121.486085","25.05354","6500200","三重區"
"241015","062-VK","2018/10/19 19:39:13","新北市三重區福德北路30號","121.502216666667","25.06502","6500200","三重區"
"241017","063-VK","2018/10/19 19:39:28","新北市三重區重陽路三段5巷48號","121.49214","25.064805","6500200","三重區"
"241026","066-VK","2018/10/19 19:39:09","新北市三重區文化南路63號","121.499961666667","25.0608516666667","6500200","三重區"
"241003","091-VK","2018/10/19 19:39:22","新北市三重區五華街93巷77號","121.49357","25.0847583333333","6500200","三重區"
"241012","265-UM","2018/10/19 19:39:16","新北市三重區仁義街8號","121.499985","25.0757816666667","6500200","三重區"
"241032","269-UM","2018/10/19 19:39:22","新北市三重區重陽路一段60巷35號","121.48509","25.058245","6500200","三重區"
"241013","270-UM","2018/10/19 19:39:13","新北市三重區仁賢街9號","121.49594","25.0746133333333","6500200","三重區"
"241025","271-UM","2018/10/19 19:39:17","新北市三重區忠孝路三段84巷5號","121.48022","25.0643133333333","6500200","三重區"
"241035","KEA-2210","2018/10/19 19:39:12","新北市三重區正義北路90號","121.497076666667","25.0647616666667","6500200","三重區"
"241004","475-VK","2018/10/19 19:39:11","新北市三重區仁愛街377巷132號","121.493531666667","25.081915","6500200","三重區"
"241020","478-VK","2018/10/19 19:39:26","新北市三重區三和路四段15號","121.491233333333","25.0740916666667","6500200","三重區"
"241030","480-VK","2018/10/19 19:39:25","新北市三重區新興路5號","121.492745","25.0530516666667","6500200","三重區"
"241014","543-UM","2018/10/19 19:39:29","新北市三重區河邊北街82號","121.504255","25.0689716666667","6500200","三重區"
"241023","545-UM","2018/10/19 19:39:23","新北市三重區忠孝路三段99巷22號","121.47944","25.06425","6500200","三重區"
"241001","547-UM","2018/10/19 19:39:22","新北市三重區仁愛街294號","121.492425","25.0791566666667","6500200","三重區"
"241019","KEA-2593","2018/10/19 19:39:23","新北市三重區六張街194巷1弄1號","121.488476666667","25.0682416666667","6500200","三重區"
"241006","AAD-863","2018/10/19 19:39:16","新北市三重區聯華街81號","121.485726666667","25.0753266666667","6500200","三重區"
"241009","887-TS","2018/10/19 19:39:24","新北市三重區三和路四段406巷18號","121.480501666667","25.0794883333333","6500200","三重區"
"241029","942-UM","2018/10/19 19:39:24","新北市三重區中正南路184-1號","121.49422","25.056355","6500200","三重區"
"235066","003-UY","2018/10/19 19:39:28","新北市中和區中和路196巷6號","121.50504","24.9991283333333","6500300","中和區"
"235064","005-UY","2018/10/19 19:39:25","新北市中和區南華路36號","121.503643333333","24.996295","6500300","中和區"
"235063","006-UY","2018/10/19 19:39:20","新北市中和區連城路139巷64號","121.496608333333","24.9967116666667","6500300","中和區"
"235056","096-UM","2018/10/19 19:39:26","新北市中和區中山路三段114巷68號","121.475915","25.0076816666667","6500300","中和區"
"235039","097-UM","2018/10/19 19:39:24","新北市中和區景平路148號","121.518216666667","24.99193","6500300","中和區"
"235065","098-UM","2018/10/19 19:39:26","新北市中和區中山路二段178巷17-1號","121.500471666667","25.0033066666667","6500300","中和區"
"235040","150-BY","2018/10/19 19:39:26","新北市中和區宜安路96號","121.510758333333","24.9976966666667","6500300","中和區"
"235058","151-BY","2018/10/19 19:39:17","新北市中和區員山路124巷44號","121.482596666667","24.9961816666667","6500300","中和區"
"235055","183-VK","2018/10/19 19:39:25","新北市中和區莒光路3巷7號","121.472135","25.0060866666667","6500300","中和區"
"235038","185-VK","2018/10/19 19:39:17","新北市中和區自強路27巷22號","121.52161","24.9932683333333","6500300","中和區"
"235049","186-VK","2018/10/19 19:39:26","新北市中和區南華路14號","121.502505","24.9955533333333","6500300","中和區"
"235067","255-BX","2018/10/19 19:39:19","新北市中和區新生街186巷12號","121.483066666667","24.9996866666667","6500300","中和區"
"235044","293-VK","2018/10/19 19:39:08","新北市中和區興南路一段156號","121.50835","24.98683","6500300","中和區"
"235072","301-VK","2018/10/19 19:39:19","新北市中和區錦和路212號","121.490421666667","24.9946766666667","6500300","中和區"
"235043","352-BY","2018/10/19 19:39:07","新北市中和區興南路一段63-6號","121.510351666667","24.989575","6500300","中和區"
"235042","KEA-2878","2018/10/19 19:39:12","新北市中和區景安路79巷37弄4號","121.507723333333","24.9963016666667","6500300","中和區"
"235050","4979-A6","2018/10/19 19:39:13","新北市中和區中正路637巷52弄1號","121.485435","24.9933833333333","6500300","中和區"
"235070","558-UM","2018/10/19 19:39:14","新北市中和區連勝街37號","121.498278333333","24.9977583333333","6500300","中和區"
"235045","565-BX","2018/10/19 19:39:27","新北市中和區景新街438號","121.513145","24.9882783333333","6500300","中和區"
"235054","640-BX","2018/10/19 19:39:12","新北市中和區德光路92-2號","121.468811666667","25.0035333333333","6500300","中和區"
"235060","647-TV","2018/10/19 19:39:12","新北市中和區新生街16巷23號","121.482121666667","25.0043083333333","6500300","中和區"
"235047","732-UM","2018/10/19 19:39:23","新北市中和區景平路369號","121.504331666667","24.9933783333333","6500300","中和區"
"235046","733-UM","2018/10/19 19:39:25","新北市中和區四維街7號","121.513466666667","24.987285","6500300","中和區"
"235071","783-BX","2018/10/19 19:39:15","新北市中和區新生街163號","121.483741666667","25.00114","6500300","中和區"
"235057","801-TS","2018/10/19 19:39:18","新北市中和區員山路178號","121.481368333333","25.0001466666667","6500300","中和區"
"235052","805-TS","2018/10/19 19:39:19","新北市中和區華新街206巷20號","121.506183333333","24.9828033333333","6500300","中和區"
"235048","896-TW","2018/10/19 19:39:24","新北市中和區忠孝街1巷2-1號","121.509101666667","24.98301","6500300","中和區"
"235053","900-TW","2018/10/19 19:39:11","新北市中和區國光街215巷10弄13-2號","121.466863333333","25.00044","6500300","中和區"
"235051","157-BY","2018/10/19 19:39:19","新北市中和區中興街132巷11號","121.498838333333","24.9916016666667","6500300","中和區"
"235037","AAC-213","2018/10/19 19:39:19","新北市中和區秀朗路三段50巷7-1號","121.525763333333","24.9954083333333","6500300","中和區"
"235059","AAC-215","2018/10/19 19:39:20","新北市中和區錦和路350號","121.490751666667","24.9922","6500300","中和區"
"220065","072-UY","2018/10/19 19:38:55","新北市板橋區國泰街39巷9弄6號","121.468753333333","25.0053383333333","6500100","板橋區"
"220086","073-UY","2018/10/19 19:39:13","新北市板橋區林園街2號","121.454355","25.0092716666667","6500100","板橋區"
"220069","AAD-861","2018/10/19 19:39:19","新北市板橋區南雅南路二段1-1號","121.454751666667","25.0035783333333","6500100","板橋區"
"247008","336-TH","2018/10/19 19:39:20","新北市蘆洲區中山二路45巷30號","121.474305","25.081155","6501400","蘆洲區"
"247004","002-UY","2018/10/19 19:39:15","新北市蘆洲區長安街102巷26號","121.462908333333","25.0821","6501400","蘆洲區"
"226004","205-ST","2018/10/19 19:39:09","新北市平溪區靜安路三段392巷3號","121.784475","25.0495716666667","6502400","平溪區"
"235041","251-BX","2018/10/19 19:39:16","新北市永和區中和路603號","121.512478333333","25.004215","6500300","中和區"
"228001","670-TC","2018/10/19 19:39:23","新北市貢寮區真理里延平街61號","121.92456","25.0556566666667","6502600","貢寮區"
"228003","828-UM","2018/10/19 19:39:17","新北市貢寮區真理里美艷山街19-1號","121.923513333333","25.068365","6502600","貢寮區"
"224010","AGQ-8101","2018/10/19 19:39:15","新北市瑞芳區烏勢巷145號","121.848055","25.1093483333333","6501200","瑞芳區"
"224002","639-TC","2018/10/19 19:39:18","新北市瑞芳區三爪子坑路335號","121.81899","25.1048133333333","6501200","瑞芳區"
"227003","642-TC","2018/10/19 19:39:08","新北市雙溪區雙溪里太平路77號","121.865268333333","25.0360416666667","6502500","雙溪區"
"227011","400-TW","2018/10/19 19:39:14","新北市雙溪區新基里新基北街22號","121.867211666667","25.0389033333333","6502500","雙溪區"
"253006","032-BX","2018/10/19 19:39:28","新北市石門區小坑12-8號","121.594993333333","25.2853716666667","6502200","石門區"
"222001","KEA-2212","2018/10/19 19:39:23","新北市深坑區深坑街146號","121.613071666667","25.001445","6501800","深坑區"
"208002","KEA-2872","2018/10/19 19:39:25","新北市金山區三民街1號","121.634773333333","25.2222816666667","6502700","金山區"
"208003","665-BX","2018/10/19 19:39:13","新北市金山區仁愛路1巷1號","121.638606666667","25.2200733333333","6502700","金山區"
"208001","761-BX","2018/10/19 19:39:14","新北市金山區重和里牛埔仔1-4號","121.607521666667","25.2230366666667","6502700","金山區"
"251005","010-UM","2018/10/19 19:39:17","新北市淡水區原德路108巷2號","121.443326666667","25.1735283333333","6501000","淡水區"
"251001","011-UM","2018/10/19 19:39:18","新北市淡水區民權路41號","121.459765","25.1400383333333","6501000","淡水區"
"251008","KEA-2871","2018/10/19 19:39:25","新北市淡水區中正路32巷1號","121.43114","25.1755366666667","6501000","淡水區"
"251010","413-VK","2018/10/19 19:39:28","新北市淡水區新市五路二段75號","121.431736666667","25.199165","6501000","淡水區"
"251012","441-VK","2018/10/19 19:39:28","新北市淡水區埤島7-4號","121.445628333333","25.1928033333333","6501000","淡水區"
"251007","442-VK","2018/10/19 19:39:08","新北市淡水區中正東路一段111巷14號","121.454735","25.1607883333333","6501000","淡水區"
"251006","561-UM","2018/10/19 19:39:17","新北市淡水區中山北路一段207巷33號","121.443216666667","25.17924","6501000","淡水區"
"251009","575-R6","2018/10/19 19:39:21","新北市淡水區中山北路一段38號","121.441731666667","25.1753533333333","6501000","淡水區"
"251011","650-BX","2018/10/19 19:39:13","新北市淡水區紅樹林路101號","121.45967","25.159955","6501000","淡水區"
"207003","550-UM","2018/10/19 19:39:24","新北市萬里區大鵬里下社49號","121.648518333333","25.2159666666667","6502800","萬里區"
"207004","225-TW","2018/10/19 19:39:08","新北市萬里區萬里里瑪鋉路5-3號","121.686966666667","25.1753066666667","6502800","萬里區"
"252002","178-VK","2018/10/19 19:39:23","新北市三芝區中正路一段18巷56號","121.504253333333","25.2586933333333","6502100","三芝區"
"252001","292-VK","2018/10/19 19:39:19","新北市三芝區公正街9號","121.499783333333","25.2575","6502100","三芝區"
"237007","153-BY","2018/10/19 19:39:10","新北市三峽區二鬮路136巷24弄49號","121.35701","24.9105266666667","6500900","三峽區"
"237009","210-TH","2018/10/19 19:39:13","新北市三峽區中園街63號","121.368145","24.9258266666667","6500900","三峽區"
"237013","252-BX","2018/10/19 19:39:10","新北市三峽區橫溪路11號","121.39619","24.935985","6500900","三峽區"
"237012","275-BY","2018/10/19 19:39:27","新北市三峽區光明路39-1號","121.374665","24.9299266666667","6500900","三峽區"
"237008","302-VK","2018/10/19 19:39:14","新北市三峽區中正路一段108巷11號","121.373511666667","24.93009","6500900","三峽區"
"237014","433-BY","2018/10/19 19:39:17","新北市三峽區嘉添105號","121.369948333333","24.90957","6500900","三峽區"
"237006","5529-G3","2018/10/19 19:39:17","新北市三峽區中正路一段336巷15弄2號","121.369955","24.9249283333333","6500900","三峽區"
"237011","KEA-2596","2018/10/19 19:39:21","新北市三峽區中正路一段512號","121.369738333333","24.920195","6500900","三峽區"
"237015","649-BX","2018/10/19 19:39:18","新北市三峽區溪東路218巷24弄2號","121.406851666667","24.9304266666667","6500900","三峽區"
"237005","AKY-6261","2018/10/19 19:39:23","新北市三峽區中山路157號","121.364733333333","24.9364083333333","6500900","三峽區"
"236069","105-UM","2018/10/19 19:39:28","新北市土城區金城路二段2巷5號","121.447285","24.9759683333333","6501300","土城區"
"236042","KED-0685","2018/10/19 19:39:17","新北市土城區裕民路251-1號","121.45467","24.9830766666667","6501300","土城區"
"236079","166-UM","2018/10/19 19:39:18","新北市土城區溪頭路111號","121.410003333333","24.9516633333333","6501300","土城區"
"236030","253-BX","2018/10/19 19:39:21","新北市土城區中央路一段318巷21號","121.442418333333","24.9818983333333","6501300","土城區"
"236026","269-VK","2018/10/19 19:39:10","新北市土城區中央路二段61巷28號","121.443345","24.9786616666667","6501300","土城區"
"236039","271-VK","2018/10/19 19:39:16","新北市土城區青雲路281巷13弄4號","121.459843333333","24.9802833333333","6501300","土城區"
"236020","401-BY","2018/10/19 19:39:21","新北市土城區明峰街83號","121.468888333333","24.987345","6501300","土城區"
"236059","912-UM","2018/10/19 19:39:13","新北市土城區中央路二段63號","121.442641666667","24.97894","6501300","土城區"
"236048","913-UM","2018/10/19 19:39:16","新北市土城區明德路一段71號","121.465563333333","24.98341","6501300","土城區"
"236063","915-UM","2018/10/19 19:39:08","新北市土城區延平街69巷4號","121.467483333333","24.9928266666667","6501300","土城區"
"236055","AAC-216","2018/10/19 19:39:23","新北市土城區學府路一段76號","121.45656","24.9882","6501300","土城區"
"242037","AAC-296","2018/10/19 19:39:12","新北市新莊區民安路207巷4號","121.426518333333","25.0225833333333","6500500","新莊區"
"242029","612-BX","2018/10/19 19:39:18","新北市新莊區新泰路357巷3弄57號","121.441983333333","25.039175","6500500","新莊區"
"242048","497-BY","2018/10/19 19:39:12","新北市新莊區民安路37巷7號","121.423998333333","25.02691","6500500","新莊區"
"242015","442-UM","2018/10/19 19:38:43","新北市板橋區僑中一街124巷76-1號","121.447638333333","25.01725","6500500","新莊區"
"242023","362-BY","2018/10/19 19:39:16","新北市新莊區化成路11巷89弄14號","121.461873333333","25.0427116666667","6500500","新莊區"
"242013","173-VK","2018/10/19 19:39:20","新北市新莊區中誠街147巷8號","121.448863333333","25.0469966666667","6500500","新莊區"
"242007","176-VK","2018/10/19 19:39:26","新北市新莊區思源路593巷30號","121.457633333333","25.0597616666667","6500500","新莊區"
"242032","348-TH","2018/10/19 19:39:16","新北市新莊區公園一路139號","121.446315","25.038275","6500500","新莊區"
"242005","349-TH","2018/10/19 19:39:22","新北市新莊區思源路42巷5號","121.460821666667","25.043985","6500500","新莊區"
"238023","601-UM","2018/10/19 19:39:16","新北市樹林區三福街4號","121.4091","25.0169016666667","6500700","樹林區"
"238019","599-UM","2018/10/19 19:39:17","新北市樹林區中山路二段230號","121.409223333333","24.98036","6500700","樹林區"
"238024","5061-A6","2018/10/19 19:39:14","新北市樹林區中山路三段88號","121.393355","24.97229","6500700","樹林區"
"238022","KEA-2213","2018/10/19 19:39:15","新北市樹林區國凱街50巷3號","121.420511666667","24.9785116666667","6500700","樹林區"
"238021","KEA-2539","2018/10/19 19:39:19","新北市樹林區佳園路三段101巷38弄6號","121.39118","24.950545","6500700","樹林區"
"238025","303-VK","2018/10/19 19:39:26","新北市樹林區中山路一段179-1號","121.421501666667","24.9882966666667","6500700","樹林區"
"238017","283-BY","2018/10/19 19:39:25","新北市樹林區保安街二段111號","121.415386666667","25.0012716666667","6500700","樹林區"
"238014","282-BY","2018/10/19 19:39:22","新北市樹林區千歲街30巷26弄5號","121.426335","24.9959033333333","6500700","樹林區"
"238020","268-VK","2018/10/19 19:39:12","新北市板橋區大觀路三段50巷57號","121.431888333333","24.9960433333333","6500700","樹林區"
"238026","172-UY","2018/10/19 19:39:20","新北市樹林區佳園路二段91號","121.390651666667","24.959355","6500700","樹林區"
"239006","891-R6","2018/10/19 19:39:24","新北市鶯歌區文化路124號","121.35182","24.9519033333333","6500800","鶯歌區"
"221008","489-VK","2018/10/19 19:39:28","新北市汐止區康寧街61巷49號","121.61976","25.067585","6501100","汐止區"
"221036","130-UY","2018/10/19 19:39:25","新北市汐止區康寧街901號","121.651526666667","25.07499","6501100","汐止區"
"221015","131-UY","2018/10/19 19:39:16","新北市汐止區康寧街901號","121.650981666667","25.0751933333333","6501100","汐止區"
"221010","269-BY","2018/10/19 19:39:26","新北市汐止區汐萬路一段411號","121.649263333333","25.07948","6501100","汐止區"
"221012","278-VK","2018/10/19 19:39:13","新北市汐止區汐平路一段9號","121.68095","25.0712983333333","6501100","汐止區"
"221023","279-VK","2018/10/19 19:39:22","新北市汐止區中興路282號","121.628536666667","25.06923","6501100","汐止區"
"221032","280-BY","2018/10/19 19:39:08","新北市汐止區新台五路一段91號","121.649883333333","25.0615516666667","6501100","汐止區"
"221027","281-BY","2018/10/19 19:39:21","新北市汐止區忠孝東路9號","121.658308333333","25.0659883333333","6501100","汐止區"
"221021","299-VK","2018/10/19 19:39:16","新北市汐止區南興路6巷4號","121.651785","25.0630883333333","6501100","汐止區"
"221031","353-TW","2018/10/19 19:39:11","新北市汐止區康寧街901號","121.65089","25.0752583333333","6501100","汐止區"
"221025","623-UM","2018/10/19 19:39:24","新北市汐止區福安街17號","121.662476666667","25.0653533333333","6501100","汐止區"
"221038","646-BX","2018/10/19 19:39:28","新北市汐止區忠孝東路244號","121.662721666667","25.06723","6501100","汐止區"
"221033","647-BX","2018/10/19 19:39:09","新北市汐止區南勢街3號","121.62706","25.0373983333333","6501100","汐止區"
"221002","707-TV","2018/10/19 19:39:11","新北市汐止區汐萬路一段312號","121.65047","25.0754166666667","6501100","汐止區"
"220079","145-BY","2018/10/19 19:39:11","新北市板橋區建國街54巷18號","121.459551666667","25.0169283333333","6500100","板橋區"
"220080","200-UY","2018/10/19 19:39:26","新北市板橋區大觀路二段37巷49號","121.449111666667","25.0026033333333","6500100","板橋區"
"220082","610-BX","2018/10/19 19:39:22","新北市板橋區大觀路三段175號","121.432005","24.99376","6500100","板橋區"
"220101","245-BX","2018/10/19 19:39:28","新北市板橋區莒光路196巷23號","121.47311","25.0224066666667","6500100","板橋區"
"220056","276-BY","2018/10/19 19:39:16","新北市板橋區四川路二段47巷4弄1號","121.454151666667","24.9946233333333","6500100","板橋區"
"220094","283-UM","2018/10/19 19:39:30","新北市板橋區松江街109巷5號","121.46897","25.0306383333333","6500100","板橋區"
"220071","283-VK","2018/10/19 19:39:16","新北市板橋區五權街34-1號","121.464226666667","24.9922733333333","6500100","板橋區"
"220053","285-VK","2018/10/19 19:39:23","新北市板橋區民享街56號","121.476105","25.0151266666667","6500100","板橋區"
"220083","286-VK","2018/10/19 19:39:27","新北市板橋區龍興街65巷7號","121.44321","25.0014983333333","6500100","板橋區"
"220081","287-VK","2018/10/19 19:39:26","新北市板橋區大觀路一段29巷179弄20號","121.449006666667","25.0047033333333","6500100","板橋區"
"220090","288-VK","2018/10/19 19:39:30","新北市板橋區新海路431巷16號","121.457808333333","25.0268716666667","6500100","板橋區"
"220061","293-UM","2018/10/19 19:39:15","新北市板橋區中山路一段265巷1弄1號","121.468361666667","25.01412","6500100","板橋區"
"220062","295-UM","2018/10/19 19:39:14","新北市板橋區三民路二段29巷5號","121.481566666667","25.0180816666667","6500100","板橋區"
"220084","296-UM","2018/10/19 19:39:23","新北市板橋區滿平二街4號","121.425525","24.9863866666667","6500100","板橋區"
"220068","299-UM","2018/10/19 19:39:25","新北市板橋區中山路二段581號","121.484461666667","25.0220083333333","6500100","板橋區"
"220075","303-R5","2018/10/19 19:39:09","新北市板橋區大勇街3巷2號","121.454803333333","25.0173483333333","6500100","板橋區"
"220092","307-R5","2018/10/19 19:39:27","新北市板橋區文化路一段383號","121.467116666667","25.0217766666667","6500100","板橋區"
"220098","317-R6","2018/10/19 19:39:25","新北市板橋區四維路269巷64號","121.46072","25.0272716666667","6500100","板橋區"
"220064","486-VK","2018/10/19 19:39:21","新北市板橋區民權路45號","121.461973333333","25.01146","6500100","板橋區"
"220089","487-VK","2018/10/19 19:39:12","新北市板橋區英士路59號","121.460543333333","25.0244366666667","6500100","板橋區"
"220088","491-VK","2018/10/19 19:39:15","新北市板橋區民治街25號","121.478125","25.0342716666667","6500100","板橋區"
"220035","560-BX","2018/10/19 19:39:21","新北市板橋區金華街102號","121.458516666667","25.0207966666667","6500100","板橋區"
"220103","561-BX","2018/10/19 19:39:17","新北市板橋區文化路一段202號","121.466226666667","25.020035","6500100","板橋區"
"220063","609-BX","2018/10/19 19:39:10","新北市板橋區中山路二段559-2號","121.484248333333","25.02206","6500100","板橋區"
"220091","637-BX","2018/10/19 19:39:20","新北市板橋區懷德街127巷14弄1號","121.479321666667","25.0310716666667","6500100","板橋區"
"220057","686-BX","2018/10/19 19:39:20","新北市板橋區和平路63巷2號","121.461176666667","24.9948333333333","6500100","板橋區"
"220077","687-BX","2018/10/19 19:39:27","新北市板橋區僑中一街100號","121.446735","25.011755","6500100","板橋區"
"220093","689-BX","2018/10/19 19:39:13","新北市板橋區長江路一段128號","121.460208333333","25.029945","6500100","板橋區"
"220054","741-BX","2018/10/19 19:39:16","新北市板橋區實踐路181-2號","121.46428","25.0035033333333","6500100","板橋區"
"220102","KEA-2699","2018/10/19 19:39:11","新北市板橋區雙十路二段130巷2弄76號","121.47564","25.0292016666667","6500100","板橋區"
"220070","806-UM","2018/10/19 19:39:26","新北市板橋區民族路170巷2-2號","121.467416666667","25.007825","6500100","板橋區"
"220055","827-TW","2018/10/19 19:39:16","新北市板橋區國慶路149巷23-2號","121.461088333333","24.9974783333333","6500100","板橋區"
"220067","829-TW","2018/10/19 19:39:18","新北市板橋區長安街251巷38號","121.471935","25.0113183333333","6500100","板橋區"
"220106","830-TW","2018/10/19 19:39:22","新北市板橋區文化路二段410巷2號","121.473828333333","25.03157","6500100","板橋區"
"220096","831-TW","2018/10/19 19:39:22","新北市板橋區民生路二段240巷25號","121.469165","25.0231216666667","6500100","板橋區"
"220074","895-R6","2018/10/19 19:39:15","新北市板橋區文化路一段46巷23號","121.460446666667","25.0114033333333","6500100","板橋區"
"220073","985-R7","2018/10/19 19:39:24","新北市板橋區國光路31巷32號","121.457956666667","25.0184483333333","6500100","板橋區"
"220097","AAC-210","2018/10/19 19:39:23","新北市板橋區幸福路32巷6號","121.46162","25.0206333333333","6500100","板橋區"
"235068","KEA-2873","2018/10/19 19:39:03","新北市中和區中和路53號","121.500558333333","25.0014683333333","6500300","中和區"
"235061","KEA-2875","2018/10/19 19:39:23","新北市中和區民利街31巷2弄13號","121.479861666667","24.9986083333333","6500300","中和區"
