"lineid","car","time","location","longitude","latitude","cityid","cityname"
"234030","746-BX","2018/10/19 20:49:26","新北市五股區凌雲路三段15-3號","121.429466666667","25.1086233333333","6500400","永和區"
"248018","225-UY","2018/10/19 20:49:17","新北市八里區荖阡坑路15-66號","121.398501666667","25.1394916666667","6501500","五股區"
"234074","AAC-211","2018/10/19 20:49:28","新北市永和區環河東路二段30號","121.522528333333","25.012715","6500400","永和區"
"222003","436-BY","2018/10/19 20:49:30","新北市深坑區文山路三段48-1號","121.609966666667","24.9985083333333","6501800","深坑區"
"222002","659-BX","2018/10/19 20:49:26","新北市深坑區北深路三段93巷40號","121.604545","25.00043","6501800","深坑區"
"231059","046-UY","2018/10/19 20:49:27","新北市新店區僑愛三路15號","121.499553333333","24.944615","6500600","新店區"
"231040","047-UY","2018/10/19 20:49:10","新北市新店區中正路268號","121.539075","24.9736316666667","6500600","新店區"
"231053","108-UY","2018/10/19 20:49:21","新北市新店區新烏路一段215號","121.548903333333","24.9311466666667","6500600","新店區"
"231048","187-VK","2018/10/19 20:49:22","新北市新店區寶元路一段109號","121.545708333333","24.983105","6500600","新店區"
"231054","KEA-2219","2018/10/19 20:49:20","新北市新店區中正路75巷71號","121.543193333333","24.9687383333333","6500600","新店區"
"231057","256-BX","2018/10/19 20:49:24","新北市新店區新烏路一段3號","121.54741","24.9518066666667","6500600","新店區"
"231042","268-BY","2018/10/19 20:49:27","新北市新店區寶高路120巷1號","121.554588333333","24.9760616666667","6500600","新店區"
"231051","278-BY","2018/10/19 20:49:27","新北市新店區中正路663巷1弄2號","121.532958333333","24.99006","6500600","新店區"
"231050","AAD-862","2018/10/19 20:49:28","新北市新店區三民路117巷2弄2號","121.534768333333","24.972015","6500600","新店區"
"231058","3713-VJ","2018/10/19 20:49:22","新北市新店區平等街48巷1號","121.53569","24.973115","6500600","新店區"
"231066","4716-K9","2018/10/19 20:49:13","新北市新店區安興路83-8號","121.515141666667","24.975715","6500600","新店區"
"231056","4715-K9","2018/10/19 20:49:15","新北市新店區薏仁坑路自強巷6號","121.496631666667","24.9584583333333","6500600","新店區"
"231067","4772-VM","2018/10/19 20:49:10","新北市新店區安華路28-1號","121.519841666667","24.9608683333333","6500600","新店區"
"231065","512-UM","2018/10/19 20:49:14","新北市新店區安祥路69巷19號","121.481923333333","24.9612916666667","6500600","新店區"
"231049","513-UM","2018/10/19 20:49:21","新北市新店區華城路6號","121.53017","24.9604616666667","6500600","新店區"
"231063","616-UM","2018/10/19 20:49:17","新北市新店區如意街15號","121.494741666667","24.9481716666667","6500600","新店區"
"231045","617-UM","2018/10/19 20:49:17","新北市新店區光明街145號","121.539251666667","24.96226","6500600","新店區"
"231044","618-UM","2018/10/19 20:49:17","新北市新店區中正路366號","121.535313333333","24.9760666666667","6500600","新店區"
"231061","619-UM","2018/10/19 20:49:26","新北市新店區新和街93巷2號","121.521166666667","24.9865166666667","6500600","新店區"
"231064","719-UM","2018/10/19 20:49:25","新北市新店區安民街365巷8號","121.516125","24.97566","6500600","新店區"
"231068","719-UY","2018/10/19 20:49:16","新北市新店區中興路三段228巷28號","121.544801666667","24.9834483333333","6500600","新店區"
"231062","720-UM","2018/10/19 20:49:10","新北市新店區和成街19巷40號","121.488143333333","24.9459716666667","6500600","新店區"
"231060","897-TW","2018/10/19 20:49:22","新北市新店區安康路三段622號","121.479508333333","24.9463166666667","6500600","新店區"
"231043","899-TW","2018/10/19 20:49:28","新北市新店區建國路101號","121.540266666667","24.9773016666667","6500600","新店區"
"241011","013-R5","2018/10/19 20:49:12","新北市三重區秀江街119號","121.499711666667","25.0721666666667","6500200","三重區"
"241028","022-UY","2018/10/19 20:49:19","新北市三重區仁化街34號","121.49348","25.0600233333333","6500200","三重區"
"241008","059-VK","2018/10/19 20:49:13","新北市三重區永福街72巷11號","121.479483333333","25.076755","6500200","三重區"
"241022","060-VK","2018/10/19 20:49:31","新北市三重區過圳街27-5號","121.487963333333","25.0624133333333","6500200","三重區"
"241031","061-VK","2018/10/19 20:49:24","新北市三重區重陽路一段113巷3號","121.487511666667","25.059815","6500200","三重區"
"241015","062-VK","2018/10/19 20:49:13","新北市三重區自強路一段12號","121.498886666667","25.0682","6500200","三重區"
"241017","063-VK","2018/10/19 20:49:29","新北市三重區自強路一段270號","121.492253333333","25.0677166666667","6500200","三重區"
"241024","065-VK","2018/10/19 20:49:24","新北市三重區大勇街82巷13號","121.479548333333","25.0717716666667","6500200","三重區"
"241026","066-VK","2018/10/19 20:49:29","新北市三重區文化南路3號","121.500033333333","25.06238","6500200","三重區"
"241002","090-VK","2018/10/19 20:49:27","新北市三重區仁義街157巷29號","121.497966666667","25.0813466666667","6500200","三重區"
"241003","091-VK","2018/10/19 20:49:22","新北市三重區集賢路87-1號","121.493796666667","25.0869166666667","6500200","三重區"
"241012","265-UM","2018/10/19 20:49:16","新北市三重區龍門路274巷45號","121.501225","25.0755416666667","6500200","三重區"
"241016","266-UM","2018/10/19 20:49:23","新北市三重區自強路一段147-1號","121.494023333333","25.0668233333333","6500200","三重區"
"241018","268-UM","2018/10/19 20:49:23","新北市三重區雙園街120-1號","121.494428333333","25.0673533333333","6500200","三重區"
"241032","269-UM","2018/10/19 20:49:22","新北市三重區重陽路一段120巷35號","121.485083333333","25.0601683333333","6500200","三重區"
"241013","270-UM","2018/10/19 20:49:13","新北市三重區仁賢街6號","121.495631666667","25.0748383333333","6500200","三重區"
"241025","271-UM","2018/10/19 20:49:17","新北市三重區貴陽街14號","121.484183333333","25.061825","6500200","三重區"
"241007","398-BY","2018/10/19 20:49:17","新北市三重區三和路四段145巷5號","121.484521666667","25.0782933333333","6500200","三重區"
"241035","KEA-2210","2018/10/19 20:49:12","新北市三重區文化北路101號","121.49795","25.0683183333333","6500200","三重區"
"241004","475-VK","2018/10/19 20:49:11","新北市三重區分子尾街36-1號","121.489448333333","25.0810666666667","6500200","三重區"
"241020","478-VK","2018/10/19 20:49:20","新北市三重區忠孝路一段101號","121.489535","25.07214","6500200","三重區"
"241030","480-VK","2018/10/19 20:49:24","新北市三重區昌隆街26號","121.491995","25.052275","6500200","三重區"
"241014","543-UM","2018/10/19 20:49:29","新北市三重區萬全街82號","121.501693333333","25.070265","6500200","三重區"
"241023","545-UM","2018/10/19 20:49:23","新北市三重區忠孝路三段84巷1號","121.480278333333","25.0645616666667","6500200","三重區"
"241001","547-UM","2018/10/19 20:49:22","新北市三重區自強路三段97號","121.487678333333","25.0751366666667","6500200","三重區"
"241019","KEA-2593","2018/10/19 20:49:23","新北市三重區三張街76號","121.490811666667","25.0708683333333","6500200","三重區"
"241006","AAD-863","2018/10/19 20:49:16","新北市三重區力行路二段125號","121.483088333333","25.0767283333333","6500200","三重區"
"241005","743-BX","2018/10/19 20:30:30","新北市三重區碧華街380號","121.491241666667","25.084525","6500200","三重區"
"241009","887-TS","2018/10/19 20:49:24","新北市三重區三和路四段197號","121.482118333333","25.079265","6500200","三重區"
"241029","942-UM","2018/10/19 20:49:24","新北市三重區重安街28號","121.490523333333","25.0579066666667","6500200","三重區"
"241033","AAC-255","2018/10/19 20:49:18","新北市三重區光復路二段1號","121.47223","25.0533366666667","6500200","三重區"
"247012","KEA-2869","2018/10/19 20:49:19","新北市三重區集賢路186號","121.484175","25.0883783333333","6501400","蘆洲區"
"235069","4980-A6","2018/10/19 20:49:14","新北市中和區新生街277號","121.483795","24.9978","6500300","中和區"
"247002","893-R6","2018/10/19 20:49:29","新北市蘆洲區長安街248號","121.457568333333","25.0861","6501400","蘆洲區"
"247016","546-UM","2018/10/19 20:49:16","新北市蘆洲區中正路69號","121.47036","25.082725","6501400","蘆洲區"
"247024","500-BY","2018/10/19 20:49:24","新北市蘆洲區長樂路136號","121.462141666667","25.09005","6501400","蘆洲區"
"247014","339-TH","2018/10/19 20:49:13","新北市蘆洲區三民路97號","121.473568333333","25.0852233333333","6501400","蘆洲區"
"247006","337-TH","2018/10/19 20:49:30","新北市蘆洲區永安南路二段16巷8號","121.467778333333","25.0771833333333","6501400","蘆洲區"
"247008","336-TH","2018/10/19 20:49:20","新北市蘆洲區中山一路136號","121.476378333333","25.0816483333333","6501400","蘆洲區"
"247020","057-VK","2018/10/19 20:49:25","新北市蘆洲區仁愛街66號","121.471498333333","25.0938566666667","6501400","蘆洲區"
"247010","056-VK","2018/10/19 20:49:14","新北市蘆洲區民族路34號","121.476485","25.0842766666667","6501400","蘆洲區"
"247004","002-UY","2018/10/19 20:49:15","新北市蘆洲區長安街100號","121.461606666667","25.080875","6501400","蘆洲區"
"247022","001-UY","2018/10/19 20:49:15","新北市蘆洲區水湳街36-7號","121.47122","25.0898166666667","6501400","蘆洲區"
"222001","KEA-2212","2018/10/19 20:49:26","新北市深坑區北深路三段129號","121.604053333333","25.0024683333333","6501800","深坑區"
"251001","011-UM","2018/10/19 20:49:18","新北市淡水區淡金路218號","121.460496666667","25.16719","6501000","淡水區"
"251002","012-UM","2018/10/19 20:49:17","新北市淡水區中正東路6號","121.447005","25.167045","6501000","淡水區"
"251010","413-VK","2018/10/19 20:49:08","新北市淡水區沙崙路126號","121.423416666667","25.1828966666667","6501000","淡水區"
"251012","441-VK","2018/10/19 20:49:28","新北市淡水區淡金路四段514號","121.452053333333","25.2257933333333","6501000","淡水區"
"251011","650-BX","2018/10/19 20:49:13","新北市淡水區新民街一段13-1號","121.433061666667","25.184535","6501000","淡水區"
"251003","673-BX","2018/10/19 20:49:23","新北市淡水區中山北路一段207巷52號","121.442406666667","25.1792866666667","6501000","淡水區"
"242037","AAC-296","2018/10/19 20:49:12","新北市新莊區中正路449號","121.443148333333","25.0339233333333","6500500","新莊區"
"242029","612-BX","2018/10/19 20:49:18","新北市三重區光復路一段66號","121.471895","25.0491816666667","6500500","新莊區"
"242015","442-UM","2018/10/19 20:49:24","新北市新莊區中正路459號","121.44229","25.0335766666667","6500500","新莊區"
"242054","441-UM","2018/10/19 20:49:24","新北市新莊區民安西路492號","121.432748333333","25.0071483333333","6500500","新莊區"
"242023","362-BY","2018/10/19 20:49:17","新北市三重區光復路二段170號","121.472203333333","25.0612466666667","6500500","新莊區"
"242011","132-UY","2018/10/19 20:49:14","新北市五股區新五路二段137號","121.439553333333","25.0806016666667","6500500","新莊區"
"242034","135-UY","2018/10/19 20:49:25","新北市新莊區新豐街68巷5號","121.44632","25.033965","6500500","新莊區"
"242050","172-VK","2018/10/19 20:49:17","新北市新莊區新樹路75號","121.437788333333","25.0276116666667","6500500","新莊區"
"242009","347-TH","2018/10/19 20:49:29","新北市新莊區中正路119號","121.46055","25.0381433333333","6500500","新莊區"
"242005","349-TH","2018/10/19 20:49:22","新北市八里區商港路120號","121.392861666667","25.150065","6500500","新莊區"
"221036","130-UY","2018/10/19 20:49:25","新北市汐止區汐萬路一段188號","121.65222","25.07212","6501100","汐止區"
"221027","281-BY","2018/10/19 20:49:21","新北市汐止區大同路二段364號","121.657565","25.06719","6501100","汐止區"
"221029","298-VK","2018/10/19 20:49:08","新北市汐止區康寧街901號","121.65105","25.0752533333333","6501100","汐止區"
"221035","622-UM","2018/10/19 20:49:15","新北市汐止區康寧街901號","121.650895","25.07524","6501100","汐止區"
"221038","646-BX","2018/10/19 20:49:28","新北市汐止區汐萬路一段256巷3號","121.652195","25.07483","6501100","汐止區"
"221033","647-BX","2018/10/19 20:49:29","新北市汐止區合順街18巷8弄5號","121.620348333333","25.041935","6501100","汐止區"
"221002","707-TV","2018/10/19 20:49:11","新北市汐止區福德二路191號","121.629958333333","25.0648566666667","6501100","汐止區"
"221018","753-BX","2018/10/19 20:49:15","新北市汐止區汐萬路一段39號","121.65509","25.0691366666667","6501100","汐止區"
"242002","281-VK","2018/10/19 20:49:14","新北市新莊區中正路219號","121.450828333333","25.0357383333333","6500500","新莊區"
"220077","687-BX","2018/10/19 20:49:20","新北市新莊區中正路384號","121.442035","25.0348766666667","6500100","板橋區"
"220070","806-UM","2018/10/19 20:49:20","新北市林口區汕頭32號","121.366348333333","25.1349","6500100","板橋區"
