"lineid","car","time","location","longitude","latitude","cityid","cityname"
"247012","KEA-2869","2018/10/19 21:51:39","新北市林口區太平里180號","121.366608333333","25.1340483333333","6501400","蘆洲區"
"251005","010-UM","2018/10/19 21:58:57","新北市淡水區鄧公路30巷2弄31號","121.453401666667","25.1691516666667","6501000","淡水區"
"251008","KEA-2871","2018/10/19 21:58:49","新北市淡水區學府路104號","121.449855","25.1717733333333","6501000","淡水區"
"251010","413-VK","2018/10/19 21:58:48","新北市淡水區中正路二段208號","121.426303333333","25.18932","6501000","淡水區"
"251012","441-VK","2018/10/19 21:58:47","新北市淡水區下圭柔山90-8號","121.431216666667","25.21021","6501000","淡水區"
"251007","442-VK","2018/10/19 21:58:47","新北市淡水區北新路184巷60號","121.45125","25.177595","6501000","淡水區"
"251004","443-VK","2018/10/19 21:58:25","新北市淡水區民權路233號","121.461291666667","25.128355","6501000","淡水區"
"251006","561-UM","2018/10/19 21:58:57","新北市淡水區中正路11巷3號","121.437816666667","25.170755","6501000","淡水區"
"251011","650-BX","2018/10/19 21:58:53","新北市淡水區水碓街7號","121.443211666667","25.1771233333333","6501000","淡水區"
"251003","673-BX","2018/10/19 21:59:03","新北市淡水區新春街81號","121.438823333333","25.1823783333333","6501000","淡水區"
