"lineid","car","time","location","longitude","latitude","cityid","cityname"
"247012","KEA-2869","2018/10/19 22:18:59","新北市八里區中山路三段193號","121.383496666667","25.1408166666667","6501400","蘆洲區"
"251008","KEA-2871","2018/10/19 22:18:49","新北市淡水區學府路104號","121.449846666667","25.1717833333333","6501000","淡水區"
"251010","413-VK","2018/10/19 22:18:48","新北市淡水區沙崙路200號","121.424711666667","25.1838916666667","6501000","淡水區"
"251007","442-VK","2018/10/19 22:18:47","新北市淡水區北新路186-3號","121.449601666667","25.178715","6501000","淡水區"
"251004","443-VK","2018/10/19 22:18:45","新北市淡水區民族路33號","121.462321666667","25.1358233333333","6501000","淡水區"
"251011","650-BX","2018/10/19 22:18:53","新北市淡水區水碓街7號","121.443223333333","25.1771716666667","6501000","淡水區"
