"lineid","car","time","location","longitude","latitude","cityid","cityname"
"232001","290-BY","2018/04/26 07:59:00","新北市坪林區下坑子口12號","121.72038","24.9421833333333","6502000","坪林區"
"232014","291-BY","2018/04/26 07:59:21","新北市坪林區金瓜寮34-1號","121.677413333333","24.90624","6502000","坪林區"
"232010","375-UM","2018/04/26 07:53:32","新北市坪林區厚德岡坑2號","121.72936","24.9410566666667","6502000","坪林區"
"244012","069-UM","2018/04/26 07:59:20","新北市林口區粉寮69號","121.405066666667","25.0908133333333","6501700","林口區"
"244003","248-BX","2018/04/26 07:59:17","新北市林口區頂福5-3號","121.342193333333","25.0996866666667","6501700","林口區"
"244022","483-VK","2018/04/26 07:59:26","新北市林口區粉寮69號","121.404858333333","25.09076","6501700","林口區"
"244016","485-VK","2018/04/26 07:59:30","新北市林口區粉寮69號","121.405066666667","25.0908683333333","6501700","林口區"
"244008","656-BX","2018/04/26 07:59:35","新北市林口區粉寮69號","121.404908333333","25.0908066666667","6501700","林口區"
"244018","657-BX","2018/04/26 07:59:30","新北市林口區粉寮路1號","121.39768","25.0801483333333","6501700","林口區"
"244024","837-TS","2018/04/26 07:59:36","新北市林口區粉寮路二段160巷28號","121.405188333333","25.09075","6501700","林口區"
"244020","838-TS","2018/04/26 07:59:23","新北市林口區粉寮69號","121.404811666667","25.09081","6501700","林口區"
"222006","289-BY","2018/04/26 07:51:33","新北市深坑區文化街102號","121.616758333333","25.001725","6501800","深坑區"
"231069","188-VK","2018/04/26 07:59:29","新北市新店區安華路8號","121.519896666667","24.9625816666667","6500600","新店區"
"231008","192-VK","2018/04/26 07:59:30","新北市新店區安華路28-1號","121.519261666667","24.9614166666667","6500600","新店區"
"235044","293-VK","2018/04/26 07:59:22","新北市中和區和平街29-1號","121.507455","24.991085","6500300","中和區"
"235001","611-BX","2018/04/26 07:59:35","新北市中和區圓通路367巷4號","121.491536666667","24.9894283333333","6500300","中和區"
"226005","5620-A6","2018/04/26 07:59:24","新北市平溪區石底里公園街18-3號","121.733391666667","25.0256666666667","6502400","平溪區"
"226002","7418-A5","2018/04/26 07:59:29","新北市平溪區南山里乾坑11號","121.782768333333","25.0471533333333","6502400","平溪區"
"226003","AGD-0702","2018/04/26 07:59:19","新北市平溪區新寮里頂寮子4號","121.773691666667","25.0518416666667","6502400","平溪區"
"223006","022-BY","2018/04/26 07:59:31","新北市石碇區八分寮47-1號","121.643218333333","25.0137533333333","6501900","石碇區"
"223002","KEA-2673","2018/04/26 07:59:28","新北市石碇區北宜路五段濕水子巷14號","121.636061666667","24.9429416666667","6501900","石碇區"
"223001","205-TH","2018/04/26 07:58:59","新北市石碇區月扇湖1號","121.657575","24.955825","6501900","石碇區"
"223008","406-TH","2018/04/26 07:59:21","新北市石碇區靜安路一段326號","121.694541666667","25.007025","6501900","石碇區"
"223001","592-UM","2018/04/26 07:59:21","新北市石碇區月扇湖1號","121.656891666667","24.9542633333333","6501900","石碇區"
"223004","660-BX","2018/04/26 07:59:28","新北市石碇區碇坪路一段10號","121.651563333333","25.0060883333333","6501900","石碇區"
"223007","661-BX","2018/04/26 07:59:28","新北市石碇區靜安路一段277號","121.694343333333","25.0069933333333","6501900","石碇區"
"223005","677-TV","2018/04/26 07:59:36","新北市石碇區靜安路一段75號","121.65127","25.007155","6501900","石碇區"
"227007","282-VK","2018/04/26 07:59:34","新北市雙溪區平林里梅竹蹊30號","121.861566666667","25.0359816666667","6502500","雙溪區"
"252004","249-BX","2018/04/26 07:59:38","新北市三芝區店子里菜公坑81-3號","121.510393333333","25.2018316666667","6502100","三芝區"
"252007","AAC-283","2018/04/26 07:59:20","新北市三芝區海景一街2-1號","121.47411","25.2457666666667","6502100","三芝區"
"237001","159-UY","2018/04/26 07:59:18","新北市三峽區三樹路128-1號","121.377948333333","24.939875","6500900","三峽區"
"236009","165-UM","2018/04/26 07:59:27","新北市土城區永豐路202巷14號","121.466426666667","24.9835216666667","6501300","土城區"
"236003","339-SR","2018/04/26 07:59:28","新北市土城區龍泉路89-1號","121.446325","24.9421183333333","6501300","土城區"
"242033","AAC-296","2018/04/26 07:59:26","新北市新莊區新莊路386號","121.449006666667","25.03345","6500500","新莊區"
"242057","986-R7","2018/04/26 07:59:30","新北市新莊區中正路530號","121.430956666667","25.0315816666667","6500500","新莊區"
"242052","751-BX","2018/04/26 07:59:26","新北市新莊區瓊林南路305巷3號","121.434771666667","25.0054333333333","6500500","新莊區"
"242026","615-BX","2018/04/26 07:59:29","新北市新莊區思源路32號","121.460265","25.040975","6500500","新莊區"
"242028","612-BX","2018/04/26 07:59:18","新北市新莊區復興路二段184號","121.458973333333","25.0443783333333","6500500","新莊區"
"242040","566-BX","2018/04/26 07:59:36","新北市新莊區新樹路113巷21號","121.439295","25.0263666666667","6500500","新莊區"
"242045","497-BY","2018/04/26 07:59:32","新北市新莊區新樹路23號","121.440475","25.032455","6500500","新莊區"
"242049","441-UM","2018/04/26 07:59:30","新北市新莊區新樹路451號","121.432923333333","25.013445","6500500","新莊區"
"242055","440-UM","2018/04/26 07:59:32","新北市新莊區新泰路53號","121.449493333333","25.0339216666667","6500500","新莊區"
"242035","415-TV","2018/04/26 07:59:36","新北市新莊區建國二路1號","121.43505","25.0237016666667","6500500","新莊區"
"242006","413-TV","2018/04/26 07:59:29","新北市新莊區福樂街116號","121.457181666667","25.047905","6500500","新莊區"
"242043","400-BY","2018/04/26 07:59:29","新北市新莊區富國路62號","121.419603333333","25.0259983333333","6500500","新莊區"
"242022","362-BY","2018/04/26 07:59:27","新北市新莊區公園路148號","121.453101666667","25.0401233333333","6500500","新莊區"
"242059","353-BY","2018/04/26 07:59:18","新北市新莊區瓊林路192號","121.439128333333","25.02078","6500500","新莊區"
"242038","133-UY","2018/04/26 07:59:32","新北市新莊區民安路270號","121.427598333333","25.0213366666667","6500500","新莊區"
"242030","135-UY","2018/04/26 07:59:27","新北市新莊區新泰路401巷29-1號","121.442508333333","25.0439416666667","6500500","新莊區"
"242047","172-VK","2018/04/26 07:59:35","新北市新莊區四維路215號","121.421636666667","25.0199083333333","6500500","新莊區"
"242010","173-VK","2018/04/26 07:58:06","新北市新莊區中港路360-1號","121.45214","25.0468833333333","6500500","新莊區"
"242016","175-VK","2018/04/26 07:59:26","新北市新莊區復興路一段187號","121.451658333333","25.0436666666667","6500500","新莊區"
"242003","176-VK","2018/04/26 07:59:35","新北市新莊區中港路286號","121.453001666667","25.0442916666667","6500500","新莊區"
"242014","346-TH","2018/04/26 07:59:38","新北市新莊區新泰路161號","121.447726666667","25.0369866666667","6500500","新莊區"
"242020","348-TH","2018/04/26 07:59:32","新北市新莊區中華路一段10號","121.452031666667","25.0370466666667","6500500","新莊區"
"242012","351-TH","2018/04/26 07:59:28","新北市新莊區中誠街14號","121.45196","25.0482633333333","6500500","新莊區"
"242001","KEA-2550","2018/04/26 07:59:26","新北市新莊區新莊路154號","121.455198333333","25.035485","6500500","新莊區"
"220070","282-UM","2018/04/26 07:59:20","新北市板橋區大觀路二段265巷7-7號","121.444066666667","24.9945466666667","6500100","板橋區"
"242008","281-VK","2018/04/26 07:59:35","新北市新莊區中原路189-1號","121.452403333333","25.054265","6500500","新莊區"
"242018","280-VK","2018/04/26 07:59:22","新北市新莊區中港路71號","121.45541","25.0387366666667","6500500","新莊區"
