"lineid","car","time","location","longitude","latitude","cityid","cityname"
"232001","290-BY","2018/04/26 08:09:20","新北市坪林區坪雙路一段115號","121.728195","24.948225","6502000","坪林區"
"232014","291-BY","2018/04/26 08:09:21","新北市坪林區金瓜寮3-2號","121.681175","24.9186016666667","6502000","坪林區"
"244012","069-UM","2018/04/26 08:09:20","新北市林口區中山路43號","121.394703333333","25.0784566666667","6501700","林口區"
"244006","080-UY","2018/04/26 08:09:33","新北市林口區中湖48-11號","121.380251666667","25.0932783333333","6501700","林口區"
"244003","248-BX","2018/04/26 08:09:37","新北市林口區嘉寶里5號","121.336768333333","25.1072283333333","6501700","林口區"
"244022","483-VK","2018/04/26 08:09:26","新北市林口區仁愛路一段619號","121.389861666667","25.0766133333333","6501700","林口區"
"244016","485-VK","2018/04/26 08:09:30","新北市林口區中山路138號","121.391758333333","25.0786166666667","6501700","林口區"
"244008","656-BX","2018/04/26 08:09:35","新北市林口區林口路296號","121.386125","25.0854316666667","6501700","林口區"
"244018","657-BX","2018/04/26 08:09:30","新北市林口區仁愛路二段172號","121.381091666667","25.0739666666667","6501700","林口區"
"244010","701-TV","2018/04/26 08:09:31","新北市林口區仁愛路一段410號","121.386611666667","25.0767","6501700","林口區"
"244024","837-TS","2018/04/26 08:09:36","新北市林口區中山路299號","121.38423","25.080195","6501700","林口區"
"244020","838-TS","2018/04/26 08:09:23","新北市林口區粉寮路二段160巷8號","121.40494","25.0932633333333","6501700","林口區"
"222006","289-BY","2018/04/26 07:51:33","新北市深坑區文化街102號","121.616758333333","25.001725","6501800","深坑區"
"231069","188-VK","2018/04/26 08:09:29","新北市新店區新潭路一段21號","121.523118333333","24.9430366666667","6500600","新店區"
"231008","192-VK","2018/04/26 08:09:30","新北市新店區光明街219號","121.540085","24.9640633333333","6500600","新店區"
"235044","293-VK","2018/04/26 08:09:23","新北市中和區安樂路19號","121.511691666667","24.9922333333333","6500300","中和區"
"235001","611-BX","2018/04/26 08:09:35","新北市中和區圓通路367巷33弄107號","121.4953","24.9840583333333","6500300","中和區"
"226005","5620-A6","2018/04/26 08:09:24","新北市平溪區靜安路三段10號","121.750193333333","25.0262916666667","6502400","平溪區"
"226002","7418-A5","2018/04/26 08:09:29","新北市平溪區十分里十分街1號","121.77316","25.0391266666667","6502400","平溪區"
"226003","AGD-0702","2018/04/26 08:09:19","新北市平溪區新寮里頂寮子62號","121.775583333333","25.045525","6502400","平溪區"
"223006","022-BY","2018/04/26 08:09:31","新北市深坑區文山路一段33號","121.629461666667","25.0040133333333","6501900","石碇區"
"223002","KEA-2673","2018/04/26 08:09:28","新北市石碇區北宜路五段66號","121.638381666667","24.95354","6501900","石碇區"
"223001","205-TH","2018/04/26 08:09:19","新北市石碇區北宜路五段80號","121.646328333333","24.9517216666667","6501900","石碇區"
"223008","406-TH","2018/04/26 08:09:21","新北市石碇區番子坑109號","121.674918333333","25.011175","6501900","石碇區"
"223001","592-UM","2018/04/26 08:09:21","新北市石碇區北宜路五段80號","121.64652","24.951635","6501900","石碇區"
"223004","660-BX","2018/04/26 08:09:28","新北市石碇區外按11-5號","121.651298333333","24.999365","6501900","石碇區"
"223007","661-BX","2018/04/26 08:09:28","新北市石碇區靜安路一段189號","121.672656666667","25.0082066666667","6501900","石碇區"
"223005","677-TV","2018/04/26 08:09:31","新北市石碇區外按9-2號","121.650605","24.9974466666667","6501900","石碇區"
"252004","249-BX","2018/04/26 08:09:18","新北市三芝區興華里車埕24號","121.501955","25.1957633333333","6502100","三芝區"
"252007","AAC-283","2018/04/26 08:09:20","新北市三芝區後厝里大片頭88號","121.45743","25.24562","6502100","三芝區"
"237001","159-UY","2018/04/26 08:09:38","新北市三峽區學成路269號","121.375715","24.943","6500900","三峽區"
"236009","165-UM","2018/04/26 08:09:27","新北市土城區青雲路322巷28號","121.457491666667","24.9754316666667","6501300","土城區"
"236003","339-SR","2018/04/26 08:09:28","新北市土城區龍泉路61號","121.42262","24.94315","6501300","土城區"
"236005","498-BY","2018/04/26 08:09:34","新北市土城區永平街51號","121.42763","24.9591716666667","6501300","土城區"
"242033","AAC-296","2018/04/26 08:09:26","新北市新莊區新莊路695號","121.44416","25.0328666666667","6500500","新莊區"
"242057","986-R7","2018/04/26 08:09:31","新北市新莊區中正路726-12號","121.415315","25.0238466666667","6500500","新莊區"
"242052","751-BX","2018/04/26 08:09:26","新北市樹林區樹新路120巷16號","121.430563333333","24.99692","6500500","新莊區"
"242026","615-BX","2018/04/26 08:09:29","新北市新莊區福壽街101號","121.458025","25.050525","6500500","新莊區"
"242028","612-BX","2018/04/26 08:09:18","新北市新莊區復興路一段115號","121.449493333333","25.0429533333333","6500500","新莊區"
"242040","566-BX","2018/04/26 08:09:36","新北市泰山區新北大道六段217號","121.4251","25.03506","6500500","新莊區"
"242045","497-BY","2018/04/26 08:09:32","新北市新莊區建國一路94號","121.434448333333","25.0299483333333","6500500","新莊區"
"242049","441-UM","2018/04/26 08:09:30","新北市新莊區西盛街264號","121.427985","25.01574","6500500","新莊區"
"242055","440-UM","2018/04/26 08:09:32","新北市新莊區泰豐街30巷20號","121.448973333333","25.03192","6500500","新莊區"
"242035","415-TV","2018/04/26 08:09:30","新北市新莊區建福路69巷30號","121.428183333333","25.02724","6500500","新莊區"
"242006","413-TV","2018/04/26 08:09:28","新北市新莊區福樂街132巷2號","121.45674","25.048195","6500500","新莊區"
"242043","400-BY","2018/04/26 08:09:29","新北市新莊區中正路871巷9弄3號","121.41872","25.0268766666667","6500500","新莊區"
"242022","362-BY","2018/04/26 08:09:39","新北市新莊區民樂街67號","121.457946666667","25.04191","6500500","新莊區"
"242059","353-BY","2018/04/26 08:09:38","新北市新莊區瓊林南路118-21號","121.433833333333","25.0108933333333","6500500","新莊區"
"242038","133-UY","2018/04/26 08:09:36","新北市新莊區民安東路17號","121.428006666667","25.0209716666667","6500500","新莊區"
"242030","135-UY","2018/04/26 08:09:33","新北市新莊區新泰路321巷3弄1號","121.444568333333","25.0413483333333","6500500","新莊區"
"242047","172-VK","2018/04/26 08:09:28","新北市新莊區萬安街135號","121.42057","25.0221016666667","6500500","新莊區"
"242010","173-VK","2018/04/26 08:09:26","新北市新莊區中港路633號","121.45108","25.0541066666667","6500500","新莊區"
"242016","175-VK","2018/04/26 08:09:20","新北市新莊區復興路一段149巷4號","121.450396666667","25.0435016666667","6500500","新莊區"
"242003","176-VK","2018/04/26 08:09:28","新北市新莊區自立街214巷7號","121.457143333333","25.0450716666667","6500500","新莊區"
"242014","346-TH","2018/04/26 08:09:30","新北市新莊區新泰路345號","121.444731666667","25.042055","6500500","新莊區"
"242020","348-TH","2018/04/26 08:09:31","新北市新莊區中華路一段166號","121.452691666667","25.0418316666667","6500500","新莊區"
"242012","351-TH","2018/04/26 08:09:28","新北市新莊區中誠街144號","121.448725","25.0475866666667","6500500","新莊區"
"242001","KEA-2550","2018/04/26 08:09:26","新北市新莊區新莊路435號","121.45011","25.0335283333333","6500500","新莊區"
"220070","282-UM","2018/04/26 08:09:20","新北市樹林區八德街262-1號","121.417865","24.9722066666667","6500100","板橋區"
"242008","281-VK","2018/04/26 08:09:35","新北市新莊區昌明街12號","121.457421666667","25.05241","6500500","新莊區"
"242018","280-VK","2018/04/26 08:09:38","新北市新莊區中港路177號","121.454913333333","25.04145","6500500","新莊區"
