"lineid","car","time","location","longitude","latitude","cityid","cityname"
"232001","290-BY","2018/04/26 08:49:20","新北市坪林區虎寮潭1號","121.740916666667","24.950515","6502000","坪林區"
"244012","069-UM","2018/04/26 08:49:26","新北市林口區中山路156號","121.390873333333","25.078775","6501700","林口區"
"244006","080-UY","2018/04/26 08:49:33","新北市林口區林口路138號","121.38812","25.081945","6501700","林口區"
"244003","248-BX","2018/04/26 08:49:17","新北市林口區下福里135-2號","121.295416666667","25.1198783333333","6501700","林口區"
"244022","483-VK","2018/04/26 08:49:26","新北市林口區東湖路90號","121.386251666667","25.0738116666667","6501700","林口區"
"244016","485-VK","2018/04/26 08:49:30","新北市林口區公園路24號","121.366681666667","25.0673483333333","6501700","林口區"
"244008","656-BX","2018/04/26 08:49:35","新北市林口區文化二路二段166號","121.380381666667","25.0836183333333","6501700","林口區"
"244018","657-BX","2018/04/26 08:49:30","新北市林口區文化一路一段89-5號","121.371896666667","25.0704333333333","6501700","林口區"
"244010","701-TV","2018/04/26 08:49:31","新北市林口區仁愛路一段272巷6號","121.393576666667","25.075995","6501700","林口區"
"244024","837-TS","2018/04/26 08:49:36","新北市林口區南勢六街246號","121.355885","25.0747183333333","6501700","林口區"
"244020","838-TS","2018/04/26 08:49:22","新北市林口區粉寮路一段66號","121.397183333333","25.078615","6501700","林口區"
"222006","289-BY","2018/04/26 08:49:27","新北市深坑區大坪街19號","121.630726666667","25.0207416666667","6501800","深坑區"
"231069","188-VK","2018/04/26 08:47:49","新北市新店區新潭路三段236號","121.501528333333","24.9032633333333","6500600","新店區"
"231008","192-VK","2018/04/26 08:49:10","新北市新店區新烏路三段286號","121.549671666667","24.8982783333333","6500600","新店區"
"235001","611-BX","2018/04/26 08:49:35","新北市中和區民德路183號","121.468598333333","24.9993383333333","6500300","中和區"
"226005","5620-A6","2018/04/26 08:49:24","新北市平溪區十分里十分街164號","121.778328333333","25.0435683333333","6502400","平溪區"
"226002","7418-A5","2018/04/26 08:49:29","新北市平溪區東勢里芊蓁坑30號","121.727473333333","24.9792333333333","6502400","平溪區"
"226003","AGD-0702","2018/04/26 08:49:19","新北市平溪區十分里十分街249號","121.777728333333","25.0447883333333","6502400","平溪區"
"223006","022-BY","2018/04/26 08:49:19","新北市石碇區石碇西街21號","121.658678333333","24.9880333333333","6501900","石碇區"
"223001","205-TH","2018/04/26 08:38:39","新北市石碇區北宜路六段柑腳巷2號","121.659576666667","24.9380366666667","6501900","石碇區"
"223008","406-TH","2018/04/26 08:49:34","新北市石碇區光明路13號","121.680063333333","25.0336316666667","6501900","石碇區"
"223001","592-UM","2018/04/26 08:49:21","新北市石碇區北宜路六段柑腳巷2號","121.659595","24.9380816666667","6501900","石碇區"
"223004","660-BX","2018/04/26 08:49:28","新北市石碇區崩山53號","121.682395","24.9688766666667","6501900","石碇區"
"223007","661-BX","2018/04/26 08:49:28","新北市石碇區碇南路二段鹿窟巷19號","121.666696666667","25.0321183333333","6501900","石碇區"
"223005","677-TV","2018/04/26 08:49:21","新北市石碇區崩山43號","121.679925","24.9665733333333","6501900","石碇區"
"252004","249-BX","2018/04/26 08:49:18","新北市三芝區興華里田心子18-3號","121.494468333333","25.2026266666667","6502100","三芝區"
"252007","AAC-283","2018/04/26 08:49:25","新北市三芝區錫板里海尾15-9號","121.476693333333","25.2547633333333","6502100","三芝區"
"237001","159-UY","2018/04/26 08:49:18","新北市三峽區學勤路26號","121.373985","24.9458033333333","6500900","三峽區"
"236009","165-UM","2018/04/26 08:49:27","新北市土城區清水路144號","121.458886666667","24.98151","6501300","土城區"
"236003","339-SR","2018/04/26 08:49:28","新北市土城區中央路三段183號","121.431165","24.9651616666667","6501300","土城區"
"236005","498-BY","2018/04/26 08:49:34","新北市土城區永和街79-1號","121.435801666667","24.9582266666667","6501300","土城區"
"242033","AAC-296","2018/04/26 08:49:26","新北市新莊區新泰路199巷20號","121.445671666667","25.0378883333333","6500500","新莊區"
"242057","986-R7","2018/04/26 08:49:30","新北市新莊區中正路881-5號","121.41743","25.02549","6500500","新莊區"
"242052","751-BX","2018/04/26 08:49:26","新北市新莊區光華街60巷1號","121.428303333333","25.0117716666667","6500500","新莊區"
"242026","615-BX","2018/04/26 08:49:29","新北市新莊區立信三街28號","121.443065","25.0505716666667","6500500","新莊區"
"242024","613-BX","2018/04/26 08:49:38","新北市新莊區五權一路12巷21弄1號","121.457583333333","25.06455","6500500","新莊區"
"242028","612-BX","2018/04/26 08:49:19","新北市新莊區中榮街152巷13號","121.445883333333","25.0534983333333","6500500","新莊區"
"242040","566-BX","2018/04/26 08:49:36","新北市新莊區天祥街82巷14號","121.415988333333","25.0299466666667","6500500","新莊區"
"242045","497-BY","2018/04/26 08:49:32","新北市新莊區民安路16-9號","121.42288","25.0281133333333","6500500","新莊區"
"242049","441-UM","2018/04/26 08:49:30","新北市新莊區民安西路172巷2弄2號","121.425813333333","25.01604","6500500","新莊區"
"242055","440-UM","2018/04/26 08:49:32","新北市新莊區瓊林路56-70號","121.443276666667","25.025405","6500500","新莊區"
"242035","415-TV","2018/04/26 08:49:23","新北市新莊區民安路207巷27號","121.42725","25.0235416666667","6500500","新莊區"
"242006","413-TV","2018/04/26 08:49:28","新北市新莊區福壽街164巷20號","121.459261666667","25.0527966666667","6500500","新莊區"
"242043","400-BY","2018/04/26 08:49:29","新北市新莊區龍安路59號","121.415595","25.0218566666667","6500500","新莊區"
"242022","362-BY","2018/04/26 08:49:18","新北市新莊區化成路652號","121.465976666667","25.0557183333333","6500500","新莊區"
"242059","353-BY","2018/04/26 08:49:36","新北市新莊區富國路119號","121.424036666667","25.0245933333333","6500500","新莊區"
"242038","133-UY","2018/04/26 08:49:32","新北市新莊區民安路292號","121.428068333333","25.0217283333333","6500500","新莊區"
"242030","135-UY","2018/04/26 08:49:38","新北市新莊區新泰路225巷22弄1號","121.445216666667","25.039295","6500500","新莊區"
"242047","172-VK","2018/04/26 08:49:28","新北市新莊區民安路137巷2弄6號","121.425431666667","25.0240933333333","6500500","新莊區"
"242010","173-VK","2018/04/26 08:48:46","新北市新莊區中港路中慶巷3號","121.450996666667","25.05363","6500500","新莊區"
"242016","175-VK","2018/04/26 08:49:40","新北市新莊區中港一街95號","121.449261666667","25.0452333333333","6500500","新莊區"
"242003","176-VK","2018/04/26 08:49:35","新北市新莊區化成路63巷17號","121.464441666667","25.045825","6500500","新莊區"
"242014","346-TH","2018/04/26 08:49:30","新北市新莊區新泰路327號","121.444993333333","25.04166","6500500","新莊區"
"242020","348-TH","2018/04/26 08:49:31","新北市新莊區建中街24號","121.449176666667","25.0375333333333","6500500","新莊區"
"242012","351-TH","2018/04/26 08:49:28","新北市新莊區幸福路710巷8號","121.449773333333","25.04964","6500500","新莊區"
"242001","KEA-2550","2018/04/26 08:49:26","新北市新莊區中正路170號","121.450956666667","25.0358716666667","6500500","新莊區"
"242008","281-VK","2018/04/26 08:49:35","新北市新莊區昌隆街48號","121.454586666667","25.0508566666667","6500500","新莊區"
"242018","280-VK","2018/04/26 08:49:21","新北市新莊區民樂街63號","121.457685","25.041775","6500500","新莊區"
