"lineid","car","time","location","longitude","latitude","cityid","cityname"
"244022","483-VK","2018/04/26 10:19:26","新北市林口區頂福里82號","121.37106","25.0831233333333","6501700","林口區"
"222006","289-BY","2018/04/26 10:19:37","新北市深坑區王軍寮3-3號","121.617383333333","24.9840283333333","6501800","深坑區"
"231069","188-VK","2018/04/26 10:19:37","新北市新店區小坑三路52-1號","121.51729","24.908345","6500600","新店區"
"231008","192-VK","2018/04/26 10:19:30","新北市新店區小坑一路35巷2號","121.52775","24.9081533333333","6500600","新店區"
"223001","205-TH","2018/04/26 10:19:37","新北市石碇區碇格路二段24號","121.643973333333","24.96243","6501900","石碇區"
"252007","AAC-283","2018/04/26 10:19:40","新北市三芝區新庄里番社后12號","121.500656666667","25.2684516666667","6502100","三芝區"
"242010","173-VK","2018/04/26 10:19:26","新北市板橋區溪城路90-2號","121.42981","24.9805616666667","6500500","新莊區"
