"lineid","car","time","location","longitude","latitude","cityid","cityname"
"234044","148-BY","2018/04/26 13:39:15","新北市永和區秀朗路二段84號","121.523228333333","25.0016483333333","6500400","永和區"
"234005","207-UY","2018/04/26 13:39:07","新北市永和區中山路一段40號","121.513396666667","25.0107916666667","6500400","永和區"
"234078","298-R6","2018/04/26 13:39:22","新北市永和區林森路42號","121.525166666667","25.004885","6500400","永和區"
"234036","336-UY","2018/04/26 13:39:06","新北市永和區民樂街31巷4號","121.527776666667","25.0014683333333","6500400","永和區"
"234062","337-UY","2018/04/26 13:39:09","新北市永和區秀朗路一段192巷6弄12號","121.519078333333","25.0023316666667","6500400","永和區"
"234084","338-UY","2018/04/26 13:39:07","新北市永和區成功路一段18巷20號","121.526213333333","25.0051133333333","6500400","永和區"
"234068","552-UM","2018/04/26 13:39:04","新北市永和區永和路二段170號","121.515451666667","25.0132516666667","6500400","永和區"
"234066","553-UM","2018/04/26 13:39:10","新北市永和區中山路一段191巷16弄2號","121.509595","25.00806","6500400","永和區"
"234015","745-BX","2018/04/26 13:39:25","新北市永和區永和路二段425巷75弄6號","121.513358333333","25.017","6500400","永和區"
"234028","746-BX","2018/04/26 13:39:19","新北市永和區民權路29巷4號","121.520298333333","24.9977433333333","6500400","永和區"
"234052","KEA-2590","2018/04/26 13:39:11","新北市永和區竹林路39巷22號","121.518976666667","25.0147566666667","6500400","永和區"
"234012","KEA-2591","2018/04/26 13:39:08","新北市永和區永平路238巷12號","121.50957","25.0116933333333","6500400","永和區"
"234060","AAD-866","2018/04/26 13:39:18","新北市永和區永貞路166號","121.517015","25.0044566666667","6500400","永和區"
"234040","862-TW","2018/04/26 13:39:22","新北市永和區中和路305巷2弄1號","121.506651666667","25.0000583333333","6500400","永和區"
"234048","863-TW","2018/04/26 13:39:20","新北市永和區保安路53號","121.50941","25.015835","6500400","永和區"
"234025","9371-KE","2018/04/26 13:39:15","新北市永和區中山路一段147號","121.510211666667","25.0094483333333","6500400","永和區"
"234010","9373-KE","2018/04/26 13:39:06","新北市永和區保福路二段9巷7號","121.510663333333","25.01085","6500400","永和區"
"248015","026-BX","2018/04/26 13:39:19","新北市五股區凌雲路一段149巷42號","121.448601666667","25.1008933333333","6501500","五股區"
"248005","077-UY","2018/04/26 13:39:07","新北市五股區中興路一段54號","121.467961666667","25.0726933333333","6501500","五股區"
"248007","095-VK","2018/04/26 13:39:10","新北市五股區中興路一段150巷21號","121.464628333333","25.074655","6501500","五股區"
"248017","225-UY","2018/04/26 13:39:17","新北市五股區民義路二段84號","121.406126666667","25.1091233333333","6501500","五股區"
"248011","247-BX","2018/04/26 13:39:22","新北市五股區成泰路三段2巷1-20號","121.441243333333","25.086645","6501500","五股區"
"248013","261-SL","2018/04/26 13:39:10","新北市五股區中興路四段72號","121.436861666667","25.0835083333333","6501500","五股區"
"248009","272-BY","2018/04/26 13:39:06","新北市五股區水碓七路168號","121.430803333333","25.0740133333333","6501500","五股區"
"248003","677-BX","2018/04/26 13:39:17","新北市五股區民義路一段236-6號","121.427445","25.0912766666667","6501500","五股區"
"248001","678-BX","2018/04/26 13:39:10","新北市五股區西雲路268號","121.449245","25.0976483333333","6501500","五股區"
"234022","9380-KE","2018/04/26 13:39:09","新北市永和區環河西路一段99號","121.51141","25.0179116666667","6500400","永和區"
"234076","969-R7","2018/04/26 13:39:22","新北市永和區得和路198號","121.520336666667","24.9999366666667","6500400","永和區"
"234072","AAC-211","2018/04/26 13:39:16","新北市永和區福和路76巷4號","121.52306","25.0083483333333","6500400","永和區"
"234001","AAC-295","2018/04/26 13:39:05","新北市永和區秀朗路一段38號","121.514276666667","25.00657","6500400","永和區"
"244003","248-BX","2018/04/26 13:39:07","新北市林口區瑞樹坑51號","121.348856666667","25.11827","6501700","林口區"
"243004","AAD-798","2018/04/26 13:39:19","新北市泰山區泰林路二段282號","121.4313","25.0625666666667","6501600","泰山區"
"243003","297-R6","2018/04/26 13:39:20","新北市泰山區黎明路25號","121.421891666667","25.0609","6501600","泰山區"
"243007","380-SR","2018/04/26 13:35:42","新北市泰山區黎明路25號","121.422403333333","25.0606883333333","6501600","泰山區"
"243005","646-TV","2018/04/26 13:39:23","新北市泰山區明志路三段206巷12號","121.423136666667","25.0380733333333","6501600","泰山區"
"231002","002-UM","2018/04/26 13:39:08","新北市新店區中央三街127號","121.524018333333","24.97693","6500600","新店區"
"231027","0293-UT","2018/04/26 13:39:15","新北市新店區北宜路一段105巷4弄7號","121.540271666667","24.9555016666667","6500600","新店區"
"231001","047-UY","2018/04/26 13:39:14","新北市新店區中正路390號","121.5346","24.9772466666667","6500600","新店區"
"231005","106-UY","2018/04/26 13:39:10","新北市新店區寶中路72號","121.547823333333","24.98063","6500600","新店區"
"231010","107-UY","2018/04/26 13:39:09","新北市新店區平等街48巷19號","121.535301666667","24.9734783333333","6500600","新店區"
"231021","108-UY","2018/04/26 13:39:23","新北市新店區永興路132-3號","121.544426666667","24.9315233333333","6500600","新店區"
"231011","187-VK","2018/04/26 13:39:17","新北市新店區德正街27巷1號","121.544538333333","24.9714383333333","6500600","新店區"
"231023","KEA-2219","2018/04/26 13:39:03","新北市新店區新店路128號","121.537171666667","24.95506","6500600","新店區"
"231026","256-BX","2018/04/26 13:39:11","新北市新店區北新路一段86號","121.541576666667","24.9676866666667","6500600","新店區"
"231003","268-BY","2018/04/26 13:39:19","新北市新店區中興路一段280號","121.54568","24.9683483333333","6500600","新店區"
"231018","278-BY","2018/04/26 13:39:09","新北市新店區百忍街32號","121.533928333333","24.975865","6500600","新店區"
"231017","AAD-862","2018/04/26 13:39:14","新北市新店區竹林路2巷27弄11號","121.550936666667","24.9509066666667","6500600","新店區"
"231028","355-BY","2018/04/26 13:39:18","新北市新店區安和路二段73-1號","121.518411666667","24.9687083333333","6500600","新店區"
"231038","3712-VJ","2018/04/26 13:39:20","新北市新店區安華路30巷3號","121.519588333333","24.9592216666667","6500600","新店區"
"231037","4716-K9","2018/04/26 13:39:18","新北市新店區薏仁坑路45號","121.49328","24.9634233333333","6500600","新店區"
"231025","4715-K9","2018/04/26 13:39:09","新北市新店區中央五街55號","121.527773333333","24.9756133333333","6500600","新店區"
"231036","512-UM","2018/04/26 13:39:17","新北市新店區安祥路147巷78號","121.475751666667","24.9555016666667","6500600","新店區"
"231013","513-UM","2018/04/26 13:39:09","新北市新店區中央路196號","121.53081","24.9745116666667","6500600","新店區"
"231030","619-UM","2018/04/26 13:39:21","新北市新店區安康路一段238號","121.522033333333","24.963795","6500600","新店區"
"231034","641-BX","2018/04/26 13:39:12","新北市新店區車子路110號","121.505213333333","24.952095","6500600","新店區"
"231035","719-UM","2018/04/26 13:39:19","新北市新店區安忠路57巷1-2號","121.5134","24.95994","6500600","新店區"
"231031","720-UM","2018/04/26 13:39:22","新北市新店區安康路一段355-3號","121.519718333333","24.9621816666667","6500600","新店區"
"231029","897-TW","2018/04/26 13:39:12","新北市新店區安康路二段241號","121.50807","24.9585583333333","6500600","新店區"
"231006","898-TW","2018/04/26 13:39:16","新北市新店區光明街1-1號","121.538073333333","24.9590433333333","6500600","新店區"
"231004","899-TW","2018/04/26 13:39:08","新北市新店區北新路二段7號","121.542725","24.9713","6500600","新店區"
"231024","AKT-0513","2018/04/26 13:39:24","新北市新店區中華路47巷2弄2號","121.539663333333","24.9676316666667","6500600","新店區"
"235028","005-UY","2018/04/26 13:39:08","新北市中和區連城路107號","121.496456666667","24.9994516666667","6500300","中和區"
"235027","006-UY","2018/04/26 13:39:09","新北市中和區連城路389巷10弄2號","121.486313333333","24.9957316666667","6500300","中和區"
"235013","031-BX","2018/04/26 13:39:22","新北市中和區景平路480號","121.505165","24.993815","6500300","中和區"
"235020","096-UM","2018/04/26 13:39:13","新北市中和區員山路466巷17弄18號","121.480483333333","25.007445","6500300","中和區"
"235003","097-UM","2018/04/26 13:39:13","新北市中和區大勇街25巷38弄1號","121.515761666667","24.993715","6500300","中和區"
"235029","098-UM","2018/04/26 13:39:20","新北市中和區莊敬路33巷11號","121.50018","25.0067916666667","6500300","中和區"
"235004","150-BY","2018/04/26 13:39:15","新北市中和區安平路59號","121.509666666667","24.9952183333333","6500300","中和區"
"235022","151-BY","2018/04/26 13:39:19","新北市中和區圓通路369巷39號","121.489703333333","24.9860316666667","6500300","中和區"
"235019","183-VK","2018/04/26 13:39:07","新北市中和區莒光路120巷17弄4號","121.471841666667","25.0008883333333","6500300","中和區"
"235002","185-VK","2018/04/26 13:39:14","新北市中和區自強路6號","121.520071666667","24.99605","6500300","中和區"
"235031","255-BX","2018/04/26 13:39:03","新北市中和區新生街186巷5弄21號","121.482808333333","24.9990016666667","6500300","中和區"
"235008","293-VK","2018/04/26 13:39:05","新北市中和區復興路276號","121.502625","24.9908533333333","6500300","中和區"
"235007","352-BY","2018/04/26 13:39:15","新北市中和區景平路133號","121.51474","24.9921933333333","6500300","中和區"
"235032","377-QA","2018/04/26 13:39:18","新北市中和區中正路167巷15號","121.49829","24.9928866666667","6500300","中和區"
"235025","378-QA","2018/04/26 13:39:14","新北市中和區民享街30巷7號","121.473598333333","25.0034733333333","6500300","中和區"
"235014","4979-A6","2018/04/26 13:39:22","新北市中和區景新街496巷35弄2號","121.513543333333","24.9855383333333","6500300","中和區"
"235033","4980-A6","2018/04/26 13:39:11","新北市中和區連城路87號","121.49675","25.0003066666667","6500300","中和區"
"235006","551-UM","2018/04/26 13:39:22","新北市中和區成功路41巷5號","121.526496666667","24.9932183333333","6500300","中和區"
"235034","558-UM","2018/04/26 13:39:06","新北市中和區南華路52號","121.504355","24.9968766666667","6500300","中和區"
"235009","565-BX","2018/04/26 13:39:06","新北市中和區南山路236巷53號","121.504843333333","24.98823","6500300","中和區"
"235018","640-BX","2018/04/26 13:39:14","新北市中和區民享街86巷19號","121.473518333333","25.0006233333333","6500300","中和區"
"235024","647-TV","2018/04/26 13:39:08","新北市中和區中山路二段620號","121.481465","25.0055166666667","6500300","中和區"
"235011","732-UM","2018/04/26 13:39:14","新北市中和區南山路320巷10弄11號","121.506873333333","24.9866083333333","6500300","中和區"
"235035","783-BX","2018/04/26 13:39:09","新北市中和區永和路356巷33號","121.486835","25.01379","6500300","中和區"
"235026","800-TS","2018/04/26 13:39:21","新北市中和區中山路二段284號","121.496256666667","25.0025916666667","6500300","中和區"
"235021","801-TS","2018/04/26 13:39:24","新北市中和區員山路327巷48號","121.480243333333","25.0017816666667","6500300","中和區"
"235005","802-TS","2018/04/26 13:39:14","新北市中和區中和路400巷27號","121.511776666667","25.0022183333333","6500300","中和區"
"235016","805-TS","2018/04/26 13:39:21","新北市中和區興南路三段42號","121.496021666667","24.9774","6500300","中和區"
"235012","896-TW","2018/04/26 13:39:05","新北市中和區中正路25號","121.502341666667","24.9933516666667","6500300","中和區"
"235017","900-TW","2018/04/26 13:39:22","新北市土城區延壽路119號","121.469063333333","24.9943766666667","6500300","中和區"
"235030","911-UM","2018/04/26 13:39:22","新北市中和區水源路31號","121.504221666667","25.003595","6500300","中和區"
"235015","157-BY","2018/04/26 13:39:24","新北市中和區華新街143巷106弄32號","121.506211666667","24.978725","6500300","中和區"
"235001","AAC-213","2018/04/26 13:39:06","新北市中和區景德街52號","121.517546666667","24.99165","6500300","中和區"
"220016","013-TV","2018/04/26 13:39:20","新北市板橋區民生路二段120號","121.470318333333","25.019825","6500100","板橋區"
"220013","072-UY","2018/04/26 13:39:10","新北市板橋區漢生東路282號","121.471288333333","25.00896","6500100","板橋區"
"220017","AAD-861","2018/04/26 13:39:19","新北市板橋區華東街1-10號","121.448575","24.99497","6500100","板橋區"
"247007","056-VK","2018/04/26 13:39:19","新北市蘆洲區國道路二段105號","121.470436666667","25.0750183333333","6501400","蘆洲區"
"247017","053-VK","2018/04/26 13:39:09","新北市蘆洲區民族路422巷82弄33號","121.474266666667","25.0969316666667","6501400","蘆洲區"
"247019","001-UY","2018/04/26 13:39:18","新北市五股區凌雲路一段22巷11號","121.452846666667","25.1008966666667","6501400","蘆洲區"
"235036","251-BX","2018/04/26 13:39:10","新北市中和區連城路189號","121.494978333333","24.9982383333333","6500300","中和區"
"228005","097-TW","2018/04/26 13:39:15","新北市貢寮區美豐里文秀坑8號","121.902593333333","25.0505066666667","6502600","貢寮區"
"228004","212-TW","2018/04/26 13:35:41","新北市貢寮區龍崗里石壁坑街24-1號","121.911538333333","24.9981933333333","6502600","貢寮區"
"253003","6232-TK","2018/04/26 13:39:26","新北市石門區內石門17-1號","121.574391666667","25.2751366666667","6502200","石門區"
"253001","6251-TK","2018/04/26 13:39:12","新北市石門區白沙灣別墅38號","121.508966666667","25.2787933333333","6502200","石門區"
"253002","637-UY","2018/04/26 13:39:25","新北市石門區九芎林35-1號","121.568118333333","25.2557633333333","6502200","石門區"
"253004","8270-PC","2018/04/26 13:37:54","新北市石門區五爪崙8號","121.605996666667","25.2624783333333","6502200","石門區"
"207002","749-BX","2018/04/26 13:39:20","新北市萬里區崁腳里崁腳路166號","121.64504","25.1558216666667","6502800","萬里區"
"252005","073-UM","2018/04/26 13:39:23","新北市三芝區圓山里內柑宅22-2號","121.53706","25.217455","6502100","三芝區"
"207001","662-BX","2018/04/26 13:39:23","新北市萬里區磺潭里公館崙58號","121.628766666667","25.20556","6502800","萬里區"
"236074","166-UM","2018/04/26 13:39:26","新北市土城區城林路6巷80號","121.438786666667","24.9796833333333","6501300","土城區"
"236012","270-VK","2018/04/26 13:39:15","新北市土城區城林路6巷80號","121.438518333333","24.979715","6501300","土城區"
"236032","271-VK","2018/04/26 13:39:19","新北市土城區城林路6巷80號","121.438413333333","24.979745","6501300","土城區"
"236005","498-BY","2018/04/26 13:39:18","新北市土城區中華路二段90號","121.438333333333","24.9748516666667","6501300","土城區"
"236057","912-UM","2018/04/26 13:39:19","新北市土城區城林路6巷80號","121.43846","24.9797783333333","6501300","土城區"
"236054","AAC-216","2018/04/26 13:39:05","新北市土城區城林路6巷80號","121.438611666667","24.9797983333333","6501300","土城區"
"221032","280-BY","2018/04/26 13:39:07","新北市汐止區秀峰路60號","121.659586666667","25.0652533333333","6501100","汐止區"
"220027","145-BY","2018/04/26 13:39:19","新北市板橋區南雅西路二段192巷1弄5號","121.452035","25.0145283333333","6500100","板橋區"
"220028","200-UY","2018/04/26 13:39:24","新北市板橋區大觀路二段265巷76弄30號","121.441346666667","24.99679","6500100","板橋區"
"220030","610-BX","2018/04/26 13:39:21","新北市板橋區大觀路三段50巷43號","121.432111666667","24.9956183333333","6500100","板橋區"
"220004","276-BY","2018/04/26 13:39:03","新北市板橋區四川路二段橋頭6號","121.448231666667","24.993645","6500100","板橋區"
"220020","277-BY","2018/04/26 13:39:15","新北市板橋區大觀路三段54號","121.433326666667","24.9955883333333","6500100","板橋區"
"220019","283-VK","2018/04/26 13:39:07","新北市板橋區四川路二段橋頭6號","121.448143333333","24.9937516666667","6500100","板橋區"
"220043","285-UM","2018/04/26 13:39:22","新北市板橋區民生路二段161巷1號","121.470043333333","25.019845","6500100","板橋區"
"220001","285-VK","2018/04/26 13:39:06","新北市板橋區民生路二段120號","121.470518333333","25.01964","6500100","板橋區"
"220031","286-VK","2018/04/26 13:39:08","新北市板橋區大觀路二段179巷33號","121.446508333333","24.9994683333333","6500100","板橋區"
"220029","287-VK","2018/04/26 13:39:18","新北市板橋區大觀路二段91號","121.446231666667","25.0019983333333","6500100","板橋區"
"220039","288-VK","2018/04/26 13:39:07","新北市板橋區民生路二段161巷7號","121.470086666667","25.0196066666667","6500100","板橋區"
"220009","295-UM","2018/04/26 13:39:24","新北市板橋區民生路二段120號","121.470363333333","25.0196966666667","6500100","板橋區"
"220032","296-UM","2018/04/26 13:39:18","新北市板橋區大觀路二段187巷25號","121.4461","24.9993733333333","6500100","板橋區"
"220023","303-R5","2018/04/26 13:39:12","新北市板橋區南雅西路一段122號","121.45234","25.0065016666667","6500100","板橋區"
"220010","305-R5","2018/04/26 13:39:12","新北市板橋區民生路二段120號","121.470363333333","25.019715","6500100","板橋區"
"220012","486-VK","2018/04/26 13:39:19","新北市板橋區民權路45號","121.462041666667","25.0112516666667","6500100","板橋區"
"220104","560-BX","2018/04/26 13:39:20","新北市板橋區南雅西路二段7巷25號","121.451911666667","25.009525","6500100","板橋區"
"220052","561-BX","2018/04/26 13:39:20","新北市板橋區民生路二段89-6號","121.470765","25.0193283333333","6500100","板橋區"
"220011","609-BX","2018/04/26 13:39:11","新北市板橋區民生路二段175號","121.469848333333","25.0202166666667","6500100","板橋區"
"220003","630-UY","2018/04/26 13:39:26","新北市板橋區華東街1-9號","121.448141666667","24.99497","6500100","板橋區"
"220040","637-BX","2018/04/26 13:39:23","新北市板橋區民生路二段161巷1號","121.470025","25.0200166666667","6500100","板橋區"
"220005","686-BX","2018/04/26 13:39:08","新北市板橋區華東街1-9號","121.448141666667","24.9949383333333","6500100","板橋區"
"220025","687-BX","2018/04/26 13:39:03","新北市板橋區沙崙街37號","121.430513333333","24.99448","6500100","板橋區"
"220042","689-BX","2018/04/26 13:39:21","新北市板橋區民生路二段120號","121.470368333333","25.0201216666667","6500100","板橋區"
"220002","741-BX","2018/04/26 13:39:23","新北市板橋區華東街1-9號","121.448076666667","24.9949333333333","6500100","板橋區"
"220014","829-TW","2018/04/26 13:39:13","新北市板橋區民生路二段120號","121.470465","25.0195366666667","6500100","板橋區"
"220045","830-TW","2018/04/26 13:39:09","新北市板橋區民生路二段120號","121.470501666667","25.0198233333333","6500100","板橋區"
"220022","895-R6","2018/04/26 13:39:17","新北市板橋區南雅南路一段125號","121.455225","25.0046","6500100","板橋區"
"220021","985-R7","2018/04/26 13:39:04","新北市板橋區縣民大道一段92-1號","121.456198333333","25.00472","6500100","板橋區"
"220018","AAC-253","2018/04/26 13:39:13","新北市板橋區華東街1-9號","121.448258333333","24.9949083333333","6500100","板橋區"
