"lineid","car","time","location","longitude","latitude","cityid","cityname"
"234005","207-UY","2018/04/26 14:39:27","新北市永和區中正路514號","121.517341666667","25.0047033333333","6500400","永和區"
"234028","746-BX","2018/04/26 14:39:32","新北市新店區安德街148巷31號","121.506868333333","24.9611383333333","6500400","永和區"
"234048","863-TW","2018/04/26 14:39:20","新北市永和區保安路69號","121.509011666667","25.0153716666667","6500400","永和區"
"234025","9371-KE","2018/04/26 14:39:35","新北市永和區中和路499號","121.510583333333","25.00223","6500400","永和區"
"248015","026-BX","2018/04/26 14:39:22","新北市五股區成泰路三段601巷21號","121.451681666667","25.1031216666667","6501500","五股區"
"248007","095-VK","2018/04/26 14:39:30","新北市五股區四維路157號","121.467648333333","25.07461","6501500","五股區"
"248017","225-UY","2018/04/26 14:19:17","新北市五股區壟路16號","121.415268333333","25.085565","6501500","五股區"
"248011","247-BX","2018/04/26 14:39:23","新北市五股區民義路一段84號","121.435998333333","25.0849866666667","6501500","五股區"
"248013","261-SL","2018/04/26 14:39:21","新北市五股區五福路42巷22號","121.434713333333","25.0899283333333","6501500","五股區"
"248009","272-BY","2018/04/26 14:39:32","新北市五股區登林路76-9號","121.42991","25.069445","6501500","五股區"
"248003","677-BX","2018/04/26 14:39:17","新北市五股區成泰路二段82號","121.437401666667","25.0822716666667","6501500","五股區"
"248001","678-BX","2018/04/26 14:39:29","新北市五股區成泰路三段311-1號","121.447738333333","25.09493","6501500","五股區"
"234022","9380-KE","2018/04/26 14:39:29","新北市永和區保安路65號","121.509161666667","25.0155016666667","6500400","永和區"
"234072","AAC-211","2018/04/26 14:39:31","新北市永和區環河東路二段8號","121.522136666667","25.013395","6500400","永和區"
"234001","AAC-295","2018/04/26 14:39:25","新北市永和區中正路624巷2號","121.5171","25.007885","6500400","永和區"
"243004","AAD-798","2018/04/26 14:39:22","新北市泰山區楓江路17號","121.433925","25.0624683333333","6501600","泰山區"
"243003","297-R6","2018/04/26 14:39:20","新北市泰山區明志路三段204巷10弄20號","121.422981666667","25.0387783333333","6501600","泰山區"
"243007","380-SR","2018/04/26 14:39:23","新北市泰山區明志路二段237巷13號","121.427765","25.04805","6501600","泰山區"
"243006","421-VK","2018/04/26 14:39:24","新北市泰山區泰林路二段33-7號","121.435183333333","25.0564566666667","6501600","泰山區"
"243002","KEA-2215","2018/04/26 14:39:30","新北市泰山區明志路二段136巷19號","121.426205","25.0518333333333","6501600","泰山區"
"243001","KEA-2216","2018/04/26 14:39:33","新北市泰山區楓江路16巷27號","121.434246666667","25.061365","6501600","泰山區"
"243005","646-TV","2018/04/26 14:39:21","新北市泰山區應化街13號","121.42378","25.0436566666667","6501600","泰山區"
"243008","680-BX","2018/04/26 14:39:35","新北市泰山區貴鳳街31號","121.423006666667","25.0306783333333","6501600","泰山區"
"231002","002-UM","2018/04/26 14:39:28","新北市新店區中央路21號","121.533213333333","24.978165","6500600","新店區"
"231027","0293-UT","2018/04/26 14:39:35","新北市新店區中正路328巷1號","121.536963333333","24.9752633333333","6500600","新店區"
"231001","047-UY","2018/04/26 14:39:34","新北市新店區中正路30號","121.545093333333","24.96971","6500600","新店區"
"231005","106-UY","2018/04/26 14:39:30","新北市新店區順安街55號","121.540748333333","24.9862183333333","6500600","新店區"
"231021","108-UY","2018/04/26 14:39:23","新北市新店區新烏路二段140號","121.548933333333","24.919235","6500600","新店區"
"231011","187-VK","2018/04/26 14:39:17","新北市新店區寶橋路162號","121.549055","24.9771683333333","6500600","新店區"
"231023","KEA-2219","2018/04/26 14:39:23","新北市新店區檳榔路48號","121.54175","24.9635883333333","6500600","新店區"
"231003","268-BY","2018/04/26 14:39:18","新北市新店區中興路一段290號","121.546033333333","24.9690333333333","6500600","新店區"
"231018","278-BY","2018/04/26 14:39:28","新北市新店區中央五街30號","121.528768333333","24.974645","6500600","新店區"
"231017","AAD-862","2018/04/26 14:39:35","新北市新店區北宜路三段221號","121.592381666667","24.9532516666667","6500600","新店區"
"231028","355-BY","2018/04/26 14:39:18","新北市新店區安德街53號","121.510961666667","24.96217","6500600","新店區"
"231038","3712-VJ","2018/04/26 14:39:20","新北市新店區安康路一段351-1號","121.519656666667","24.9635433333333","6500600","新店區"
"231037","4716-K9","2018/04/26 14:39:18","新北市新店區安康路二段320巷15弄18號","121.502435","24.9590116666667","6500600","新店區"
"231036","512-UM","2018/04/26 14:39:17","新北市新店區安祥路106-19號","121.476176666667","24.9604766666667","6500600","新店區"
"231013","513-UM","2018/04/26 14:39:35","新北市新店區明德路28-3號","121.541528333333","24.9776516666667","6500600","新店區"
"231030","619-UM","2018/04/26 14:39:35","新北市新店區安民街153號","121.516611666667","24.9698666666667","6500600","新店區"
"231034","641-BX","2018/04/26 14:39:32","新北市新店區黎明路53巷1號","121.502296666667","24.9487533333333","6500600","新店區"
"231035","719-UM","2018/04/26 14:39:33","新北市新店區安民街3巷6弄2號","121.514965","24.96425","6500600","新店區"
"231029","897-TW","2018/04/26 14:39:32","新北市新店區安康路三段312號","121.487165","24.9518366666667","6500600","新店區"
"231006","898-TW","2018/04/26 14:39:24","新北市新店區北宜路二段115號","121.550455","24.95284","6500600","新店區"
"231004","899-TW","2018/04/26 14:39:28","新北市新店區中正路277號","121.537613333333","24.9742583333333","6500600","新店區"
"231024","AKT-0513","2018/04/26 14:39:24","新北市新店區新生街5巷4號","121.540118333333","24.9658683333333","6500600","新店區"
"235028","005-UY","2018/04/26 14:39:28","新北市中和區圓通路40號","121.500921666667","24.9977316666667","6500300","中和區"
"235027","006-UY","2018/04/26 14:39:30","新北市中和區連城路237-1號","121.493811666667","24.9974883333333","6500300","中和區"
"235013","031-BX","2018/04/26 14:39:29","新北市中和區安平路16號","121.509235","24.99419","6500300","中和區"
"235020","096-UM","2018/04/26 14:39:33","新北市中和區中山路三段114巷70號","121.47597","25.007675","6500300","中和區"
"235003","097-UM","2018/04/26 14:39:32","新北市永和區中正路62號","121.51352","24.9946516666667","6500300","中和區"
"235029","098-UM","2018/04/26 14:39:20","新北市中和區福祥路90巷5號","121.499616666667","25.0057933333333","6500300","中和區"
"235004","150-BY","2018/04/26 14:39:35","新北市中和區宜安路23巷22號","121.512203333333","24.995155","6500300","中和區"
"235022","151-BY","2018/04/26 14:39:19","新北市中和區員山路142巷1號","121.481535","24.9965816666667","6500300","中和區"
"235019","183-VK","2018/04/26 14:39:27","新北市中和區民生街10巷2號","121.471006666667","25.0057533333333","6500300","中和區"
"235002","185-VK","2018/04/26 14:39:34","新北市中和區立人街69巷11號","121.520285","24.9934316666667","6500300","中和區"
"235031","255-BX","2018/04/26 14:39:23","新北市中和區新生街286號","121.483628333333","24.9965933333333","6500300","中和區"
"235008","293-VK","2018/04/26 14:39:25","新北市中和區興南路一段107號","121.509393333333","24.9882566666667","6500300","中和區"
"235007","352-BY","2018/04/26 14:39:34","新北市中和區南山路94號","121.502855","24.994655","6500300","中和區"
"235032","377-QA","2018/04/26 14:39:18","新北市中和區莊敬路10號","121.49974","25.0043516666667","6500300","中和區"
"235014","4979-A6","2018/04/26 14:39:22","新北市中和區中正路271號","121.495798333333","24.993725","6500300","中和區"
"235006","551-UM","2018/04/26 14:39:22","新北市中和區景安路5號","121.507993333333","24.9991866666667","6500300","中和區"
"235034","558-UM","2018/04/26 14:39:26","新北市中和區景平路668號","121.497165","25.0008933333333","6500300","中和區"
"235009","565-BX","2018/04/26 14:39:26","新北市中和區安樂路33號","121.511711666667","24.992365","6500300","中和區"
"235018","640-BX","2018/04/26 14:39:34","新北市中和區國光街102巷11弄18號","121.470748333333","25.0012033333333","6500300","中和區"
"235024","647-TV","2018/04/26 14:39:28","新北市中和區中山路二段523巷16號","121.481628333333","25.0043083333333","6500300","中和區"
"235011","732-UM","2018/04/26 14:39:33","新北市中和區南山路277號","121.504115","24.9923983333333","6500300","中和區"
"235010","733-UM","2018/04/26 14:39:26","新北市中和區四維街34號","121.512635","24.9870316666667","6500300","中和區"
"235035","783-BX","2018/04/26 14:39:29","新北市中和區連城路467-1號","121.483995","24.9962183333333","6500300","中和區"
"235026","800-TS","2018/04/26 14:39:21","新北市中和區中山路二段530-1號","121.485738333333","25.0050833333333","6500300","中和區"
"235021","801-TS","2018/04/26 14:39:24","新北市中和區員山路253號","121.481385","24.9988766666667","6500300","中和區"
"235005","802-TS","2018/04/26 14:39:34","新北市中和區宜安路137號","121.509501666667","24.9985333333333","6500300","中和區"
"235016","805-TS","2018/04/26 14:39:21","新北市中和區華新街232巷39號","121.505531666667","24.9824983333333","6500300","中和區"
"235012","896-TW","2018/04/26 14:39:25","新北市中和區忠孝街137號","121.512755","24.9882933333333","6500300","中和區"
"235017","900-TW","2018/04/26 14:39:29","新北市中和區國光街215巷71-2號","121.467881666667","24.99962","6500300","中和區"
"235030","911-UM","2018/04/26 14:39:22","新北市中和區景新街137號","121.506095","24.997025","6500300","中和區"
"235015","157-BY","2018/04/26 14:39:24","新北市中和區中興街276號","121.498496666667","24.9882516666667","6500300","中和區"
"235001","AAC-213","2018/04/26 14:39:25","新北市中和區秀朗路三段50巷4弄2號","121.525725","24.9956466666667","6500300","中和區"
"235023","AAC-215","2018/04/26 14:39:35","新北市中和區圓通路303號","121.493415","24.99081","6500300","中和區"
"220016","013-TV","2018/04/26 14:39:20","新北市板橋區中山路二段412巷15號","121.483341666667","25.0204233333333","6500100","板橋區"
"220013","072-UY","2018/04/26 14:39:30","新北市板橋區國泰街99號","121.466821666667","25.006405","6500100","板橋區"
"220034","073-UY","2018/04/26 14:39:26","新北市板橋區漢生西路89巷4弄12號","121.461221666667","25.018655","6500100","板橋區"
"220105","075-UY","2018/04/26 14:39:37","新北市板橋區江寧路三段117號","121.473211666667","25.033","6500100","板橋區"
"220017","AAD-861","2018/04/26 14:39:34","新北市板橋區縣民大道一段64巷21號","121.455953333333","25.0033833333333","6500100","板橋區"
"247023","893-R6","2018/04/26 14:39:33","新北市蘆洲區中山二路222巷13號","121.469433333333","25.0802483333333","6501400","蘆洲區"
"247013","546-UM","2018/04/26 14:39:34","新北市蘆洲區中山二路130號","121.471866666667","25.0816366666667","6501400","蘆洲區"
"247021","500-BY","2018/04/26 14:39:35","新北市蘆洲區三民路126號","121.471038333333","25.0875","6501400","蘆洲區"
"247009","341-TH","2018/04/26 14:39:31","新北市蘆洲區信義路222巷45號","121.480385","25.0856316666667","6501400","蘆洲區"
"247011","339-TH","2018/04/26 14:39:32","新北市蘆洲區集賢路224巷37弄1號","121.480735","25.0880366666667","6501400","蘆洲區"
"247003","337-TH","2018/04/26 14:39:26","新北市蘆洲區永安南路二段328巷15弄2號","121.456725","25.0837966666667","6501400","蘆洲區"
"247005","336-TH","2018/04/26 14:39:36","新北市蘆洲區長安街68巷23號","121.46368","25.0808466666667","6501400","蘆洲區"
"247007","056-VK","2018/04/26 14:39:19","新北市蘆洲區信義路1號","121.473586666667","25.0791283333333","6501400","蘆洲區"
"247017","053-VK","2018/04/26 14:39:29","新北市蘆洲區民族路314巷16號","121.478111666667","25.090485","6501400","蘆洲區"
"247015","007-UY","2018/04/26 14:39:32","新北市蘆洲區光華路73巷35號","121.468798333333","25.0817283333333","6501400","蘆洲區"
"247001","002-UY","2018/04/26 14:39:27","新北市蘆洲區永樂街38巷43號","121.458318333333","25.0897216666667","6501400","蘆洲區"
"247019","001-UY","2018/04/26 14:39:17","新北市蘆洲區民權路174巷6號","121.472131666667","25.0900966666667","6501400","蘆洲區"
"226001","4501-MT","2018/04/26 14:39:35","新北市平溪區靜安路二段340號","121.737511666667","25.0234516666667","6502400","平溪區"
"235036","251-BX","2018/04/26 14:39:30","新北市中和區保平路340巷18號","121.506036666667","25.00451","6500300","中和區"
"228005","097-TW","2018/04/26 14:39:35","新北市貢寮區美豐里雞母嶺街6-6號","121.902136666667","25.0642183333333","6502600","貢寮區"
"228004","212-TW","2018/04/26 14:39:21","新北市貢寮區福隆里龜壽谷街30-5號","121.94686","25.0138116666667","6502600","貢寮區"
"253003","6232-TK","2018/04/26 14:39:26","新北市石門區尖子鹿87號","121.578133333333","25.2908583333333","6502200","石門區"
"253001","6251-TK","2018/04/26 14:39:32","新北市石門區崁子腳80號","121.53131","25.2782033333333","6502200","石門區"
"253002","637-UY","2018/04/26 14:34:25","新北市三芝區橫山里橫山39-5號","121.545805","25.2530766666667","6502200","石門區"
"253004","8270-PC","2018/04/26 14:39:34","新北市石門區內阿里磅49號","121.57952","25.2430016666667","6502200","石門區"
"207002","749-BX","2018/04/26 14:39:20","新北市萬里區崁腳里崁腳路106-4號","121.646571666667","25.1590616666667","6502800","萬里區"
"252005","073-UM","2018/04/26 14:39:22","新北市三芝區茂長里陳厝坑16號","121.518165","25.2555133333333","6502100","三芝區"
"207001","662-BX","2018/04/26 14:39:23","新北市萬里區雙興里達天路20號","121.639848333333","25.1810983333333","6502800","萬里區"
"236068","105-UM","2018/04/26 14:39:24","新北市土城區永豐路255巷38號","121.475715","24.972855","6501300","土城區"
"236040","107-UM","2018/04/26 14:39:25","新北市土城區裕民路57號","121.44899","24.98799","6501300","土城區"
"236074","166-UM","2018/04/26 14:39:36","新北市土城區頂埔街60號","121.417746666667","24.9596016666667","6501300","土城區"
"236029","253-BX","2018/04/26 14:39:21","新北市土城區中華路二段171號","121.43847","24.9751316666667","6501300","土城區"
"236024","269-VK","2018/04/26 14:39:33","新北市土城區忠義路47號","121.440495","24.969335","6501300","土城區"
"236012","270-VK","2018/04/26 14:39:35","新北市土城區清水路196號","121.460351666667","24.981795","6501300","土城區"
"236032","271-VK","2018/04/26 14:39:34","新北市土城區明德路一段291巷5號","121.460278333333","24.9769033333333","6501300","土城區"
"236017","401-BY","2018/04/26 14:39:29","新北市土城區明德路一段67號","121.46551","24.9842733333333","6501300","土城區"
"236057","912-UM","2018/04/26 14:39:19","新北市土城區中央路三段231-4號","121.42862","24.9642516666667","6501300","土城區"
"236045","913-UM","2018/04/26 14:39:30","新北市土城區明德路一段137-4號","121.46538","24.980885","6501300","土城區"
"236060","915-UM","2018/04/26 14:39:25","新北市中和區民享街465號","121.47009","24.99207","6501300","土城區"
"236054","AAC-216","2018/04/26 14:39:34","新北市土城區裕民路24號","121.447751666667","24.9886316666667","6501300","土城區"
"220027","145-BY","2018/04/26 14:39:19","新北市板橋區復興街31號","121.458078333333","25.0174483333333","6500100","板橋區"
"220037","146-RM","2018/04/26 14:38:48","新北市板橋區三民路一段129-2號","121.479523333333","25.0207366666667","6500100","板橋區"
"220028","200-UY","2018/04/26 14:39:24","新北市板橋區大觀路二段37巷340號","121.450358333333","25.0023033333333","6500100","板橋區"
"220030","610-BX","2018/04/26 14:39:33","新北市板橋區金門街180-3號","121.432738333333","24.9910166666667","6500100","板橋區"
"220050","245-BX","2018/04/26 14:39:29","新北市板橋區莊敬路208巷4弄1號","121.471521666667","25.0209183333333","6500100","板橋區"
"220004","276-BY","2018/04/26 14:39:23","新北市板橋區國慶路49巷1號","121.459415","24.9954333333333","6500100","板橋區"
"220020","277-BY","2018/04/26 14:39:15","新北市板橋區金門街253巷16弄7號","121.432758333333","24.9879866666667","6500100","板橋區"
"220019","283-VK","2018/04/26 14:39:27","新北市板橋區信義路279巷11號","121.461926666667","24.98944","6500100","板橋區"
"220043","285-UM","2018/04/26 14:39:22","新北市板橋區宏國路103號","121.470058333333","25.0322883333333","6500100","板橋區"
"220001","285-VK","2018/04/26 14:39:27","新北市板橋區中山路二段144號","121.476573333333","25.0170366666667","6500100","板橋區"
"220031","286-VK","2018/04/26 14:39:36","新北市板橋區僑中二街10巷34號","121.445618333333","25.011165","6500100","板橋區"
"220029","287-VK","2018/04/26 14:39:19","新北市板橋區大觀路一段29巷131弄16號","121.45059","25.0049966666667","6500100","板橋區"
"220039","288-VK","2018/04/26 14:39:28","新北市板橋區長江路一段131號","121.460421666667","25.0300733333333","6500100","板橋區"
"220009","295-UM","2018/04/26 14:39:24","新北市板橋區板新路202號","121.46897","25.0159966666667","6500100","板橋區"
"220032","296-UM","2018/04/26 14:39:18","新北市板橋區溪崑二街112巷33弄10號","121.425288333333","24.9887","6500100","板橋區"
"220023","303-R5","2018/04/26 14:39:32","新北市板橋區大勇街77號","121.452898333333","25.0165766666667","6500100","板橋區"
"220010","305-R5","2018/04/26 14:39:32","新北市板橋區三民路二段125號","121.479283333333","25.0156133333333","6500100","板橋區"
"220041","307-R5","2018/04/26 14:39:37","新北市板橋區文化路一段387巷30號","121.465953333333","25.0223733333333","6500100","板橋區"
"220047","317-R6","2018/04/26 14:39:21","新北市板橋區四維路269巷27號","121.462116666667","25.027875","6500100","板橋區"
"220012","486-VK","2018/04/26 14:39:19","新北市板橋區民權路4號","121.463398333333","25.0096816666667","6500100","板橋區"
"220104","560-BX","2018/04/26 14:39:29","新北市板橋區中正路328-1號","121.454561666667","25.0213416666667","6500100","板橋區"
"220052","561-BX","2018/04/26 14:39:20","新北市板橋區文化路一段292號","121.467491666667","25.0215483333333","6500100","板橋區"
"220011","609-BX","2018/04/26 14:39:32","新北市板橋區三民路二段140-3號","121.479146666667","25.01578","6500100","板橋區"
"220003","630-UY","2018/04/26 14:39:26","新北市板橋區國慶路149巷2弄1-3號","121.461295","24.9966083333333","6500100","板橋區"
"220040","637-BX","2018/04/26 14:39:23","新北市板橋區懷德街181巷26號","121.480481666667","25.03003","6500100","板橋區"
"220005","686-BX","2018/04/26 14:39:34","新北市板橋區和平路31號","121.460188333333","24.9958216666667","6500100","板橋區"
"220025","687-BX","2018/04/26 14:39:27","新北市板橋區僑中二街106巷1號","121.445953333333","25.0075633333333","6500100","板橋區"
"220042","689-BX","2018/04/26 14:39:21","新北市板橋區新海路360號","121.459791666667","25.0250933333333","6500100","板橋區"
"220002","741-BX","2018/04/26 14:39:24","新北市板橋區忠孝路239巷33號","121.467048333333","25.0035166666667","6500100","板橋區"
"220051","KEA-2699","2018/04/26 14:39:38","新北市板橋區雙十路二段70巷35號","121.476261666667","25.0288516666667","6500100","板橋區"
"220014","829-TW","2018/04/26 14:39:33","新北市板橋區漢生東路279巷28-3號","121.47233","25.0093783333333","6500100","板橋區"
"220045","830-TW","2018/04/26 14:39:29","新北市板橋區民生路二段226巷6弄1號","121.469655","25.0218566666667","6500100","板橋區"
"220038","833-TW","2018/04/26 14:39:10","新北市板橋區英士路70號","121.46051","25.0244683333333","6500100","板橋區"
"220022","895-R6","2018/04/26 14:39:37","新北市板橋區東門街1號","121.458085","25.00879","6500100","板橋區"
"220021","985-R7","2018/04/26 14:39:28","新北市板橋區瑞安街26號","121.455218333333","25.02285","6500100","板橋區"
"220046","AAC-210","2018/04/26 14:39:22","新北市板橋區幸福路32巷2弄3號","121.461866666667","25.02089","6500100","板橋區"
"220018","AAC-253","2018/04/26 14:39:32","新北市板橋區民族路165號","121.46839","25.0076816666667","6500100","板橋區"
