"lineid","car","time","location","longitude","latitude","cityid","cityname"
"249005","172-UM","2018/04/26 16:59:08","新北市八里區渡船頭3-7號","121.434306666667","25.153035","6502300","八里區"
"249001","173-UM","2018/04/26 16:59:20","新北市八里區中山路三段106號","121.391556666667","25.1425583333333","6502300","八里區"
"249002","305-UY","2018/04/26 16:59:09","新北市八里區牛寮埔22號","121.432778333333","25.1425233333333","6502300","八里區"
"249003","593-UM","2018/04/26 16:59:20","新北市八里區中山路二段370號","121.401033333333","25.1481216666667","6502300","八里區"
"244013","069-UM","2018/04/26 16:59:28","新北市林口區粉寮69號","121.405066666667","25.0908283333333","6501700","林口區"
"244007","080-UY","2018/04/26 16:59:11","新北市林口區中湖43-5號","121.381761666667","25.0923916666667","6501700","林口區"
"244019","742-UY","2018/04/26 16:59:26","新北市林口區竹林路15號","121.386496666667","25.0769983333333","6501700","林口區"
"244023","483-VK","2018/04/26 16:59:22","新北市林口區粉寮69號","121.40482","25.0907433333333","6501700","林口區"
"244009","656-BX","2018/04/26 16:59:12","新北市林口區粉寮69號","121.405016666667","25.0908683333333","6501700","林口區"
"231046","107-UY","2018/04/26 16:59:28","新北市新店區新潭路一段2號","121.523315","24.9445316666667","6500600","新店區"
"241011","013-R5","2018/04/26 16:59:14","新北市三重區仁愛街55巷128號","121.498976666667","25.07285","6500200","三重區"
"241008","059-VK","2018/04/26 16:59:21","新北市三重區永福街179-2號","121.478835","25.0749883333333","6500200","三重區"
"241009","060-VK","2018/04/26 16:59:27","新北市三重區仁美街108巷1號","121.485473333333","25.0807466666667","6500200","三重區"
"241031","061-VK","2018/04/26 16:59:23","新北市三重區三寧街18號","121.489311666667","25.05981","6500200","三重區"
"241015","062-VK","2018/04/26 16:59:11","新北市三重區福德北路82號","121.50157","25.06635","6500200","三重區"
"241017","063-VK","2018/04/26 16:59:15","新北市三重區大同北路112號","121.49323","25.0638616666667","6500200","三重區"
"241024","065-VK","2018/04/26 16:59:19","新北市三重區大勇街82巷26弄9號","121.479116666667","25.0722433333333","6500200","三重區"
"241002","090-VK","2018/04/26 16:59:15","新北市三重區仁義街101巷24號","121.498758333333","25.0802866666667","6500200","三重區"
"241003","091-VK","2018/04/26 16:59:17","新北市三重區集賢路87-1號","121.493626666667","25.0868166666667","6500200","三重區"
"241005","262-UM","2018/04/26 16:59:13","新北市三重區仁華街62巷5號","121.483961666667","25.083065","6500200","三重區"
"241028","265-UM","2018/04/26 16:59:13","新北市三重區中正南路50號","121.493965","25.0599066666667","6500200","三重區"
"241016","266-UM","2018/04/26 16:59:19","新北市三重區信義西街142號","121.49542","25.0640716666667","6500200","三重區"
"241022","267-UM","2018/04/26 16:59:20","新北市三重區中華路88號","121.483471666667","25.06285","6500200","三重區"
"241018","268-UM","2018/04/26 16:59:06","新北市三重區民生東街1-1號","121.492808333333","25.0684233333333","6500200","三重區"
"241032","269-UM","2018/04/26 16:59:08","新北市三重區三光街27號","121.484668333333","25.0608383333333","6500200","三重區"
"241013","270-UM","2018/04/26 16:59:14","新北市三重區仁愛街89號","121.49582","25.0734433333333","6500200","三重區"
"241025","271-UM","2018/04/26 16:59:11","新北市三重區中正北路508巷5號","121.472676666667","25.071365","6500200","三重區"
"241007","398-BY","2018/04/26 16:59:11","新北市三重區三和路四段145巷211號","121.488763333333","25.079405","6500200","三重區"
"241004","475-VK","2018/04/26 16:59:13","新北市三重區五華街98巷7號","121.492225","25.0822233333333","6500200","三重區"
"241020","478-VK","2018/04/26 16:59:15","新北市三重區後竹圍街175巷2弄1號","121.485855","25.0721366666667","6500200","三重區"
"241030","480-VK","2018/04/26 16:59:20","新北市三重區昌隆街60號","121.491333333333","25.0511333333333","6500200","三重區"
"241014","543-UM","2018/04/26 16:59:18","新北市三重區介壽路39巷102號","121.500811666667","25.0706933333333","6500200","三重區"
"241023","545-UM","2018/04/26 16:59:26","新北市三重區新北大道一段252號","121.480021666667","25.06159","6500200","三重區"
"241001","547-UM","2018/04/26 16:59:08","新北市三重區仁政街1號","121.493526666667","25.07606","6500200","三重區"
"241019","KEA-2593","2018/04/26 16:59:27","新北市三重區自強路二段74巷21號","121.487935","25.0699116666667","6500200","三重區"
"241006","AAD-863","2018/04/26 16:59:18","新北市三重區車路頭街117巷37號","121.48531","25.0755716666667","6500200","三重區"
"241026","887-TS","2018/04/26 16:59:27","新北市三重區文化南路42號","121.500358333333","25.060315","6500200","三重區"
"241012","941-UM","2018/04/26 16:59:21","新北市三重區仁壽街196號","121.50076","25.0749366666667","6500200","三重區"
"241029","942-UM","2018/04/26 16:59:19","新北市三重區重安街93-1號","121.493095","25.0555483333333","6500200","三重區"
"241033","AAC-255","2018/04/26 16:59:25","新北市三重區中興北街271號","121.469145","25.0606616666667","6500200","三重區"
"235062","800-TS","2018/04/26 16:49:38","新北市中和區員山路36巷16-3號","121.484983333333","24.9914633333333","6500300","中和區"
"247024","893-R6","2018/04/26 16:59:14","新北市蘆洲區長興路255號","121.460515","25.0875016666667","6501400","蘆洲區"
"247014","546-UM","2018/04/26 16:59:24","新北市蘆洲區中山二路36巷35號","121.47405","25.0833766666667","6501400","蘆洲區"
"247010","341-TH","2018/04/26 16:59:28","新北市蘆洲區信義路154號","121.479305","25.0834216666667","6501400","蘆洲區"
"247012","339-TH","2018/04/26 16:59:21","新北市蘆洲區復興路186號","121.478086666667","25.0886483333333","6501400","蘆洲區"
"247004","337-TH","2018/04/26 16:59:18","新北市蘆洲區長安街108巷5弄2號","121.46139","25.0818533333333","6501400","蘆洲區"
"247006","336-TH","2018/04/26 16:59:24","新北市蘆洲區永安南路二段234號","121.46054","25.07959","6501400","蘆洲區"
"247008","056-VK","2018/04/26 16:59:25","新北市蘆洲區民生街2巷7號","121.475635","25.0796516666667","6501400","蘆洲區"
"247018","053-VK","2018/04/26 16:59:21","新北市蘆洲區民族路300號","121.477601666667","25.089865","6501400","蘆洲區"
"247016","007-UY","2018/04/26 16:59:20","新北市蘆洲區光華路41巷22號","121.469641666667","25.082335","6501400","蘆洲區"
"247020","001-UY","2018/04/26 16:59:11","新北市蘆洲區民族路422巷35-1號","121.473551666667","25.0936333333333","6501400","蘆洲區"
"228003","097-TW","2018/04/26 16:59:15","新北市貢寮區福隆里興隆街36號","121.941681666667","25.0169333333333","6502600","貢寮區"
"228001","212-TW","2018/04/26 16:59:14","新北市貢寮區貢寮里朝陽街1-2號","121.912198333333","25.02125","6502600","貢寮區"
"228002","585-TW","2018/04/26 16:59:21","新北市貢寮區貢寮里朝陽街100號","121.90845","25.022205","6502600","貢寮區"
"224006","676-BX","2018/04/26 16:59:13","新北市瑞芳區大寮路2-2號","121.785513333333","25.1020566666667","6501200","瑞芳區"
"224008","285-BY","2018/04/26 16:59:22","新北市瑞芳區明燈路一段171號","121.819243333333","25.10754","6501200","瑞芳區"
"224007","275-VK","2018/04/26 16:59:18","新北市瑞芳區頂埔巷19號","121.765895","25.10299","6501200","瑞芳區"
"224009","273-VK","2018/04/26 16:59:10","新北市瑞芳區明燈路一段1號","121.832321666667","25.1117966666667","6501200","瑞芳區"
"224005","271-BY","2018/04/26 16:59:22","新北市瑞芳區南雅路29-1號","121.887905","25.120745","6501200","瑞芳區"
"227004","642-TC","2018/04/26 16:59:23","新北市雙溪區長源里柑腳44號","121.80116","25.012885","6502500","雙溪區"
"227010","400-TW","2018/04/26 16:59:11","新北市雙溪區牡丹里聖南21號","121.858568333333","25.05314","6502500","雙溪區"
"251009","008-UM","2018/04/26 16:59:10","新北市淡水區中正路二段18號","121.419958333333","25.1813133333333","6501000","淡水區"
"251004","009-UM","2018/04/26 16:59:18","新北市淡水區中正路二段31號","121.419293333333","25.1817283333333","6501000","淡水區"
"251005","010-UM","2018/04/26 16:59:25","新北市淡水區中正路二段31號","121.419381666667","25.1816383333333","6501000","淡水區"
"251013","179-VK","2018/04/26 16:59:12","新北市淡水區泉洲厝32號","121.48934","25.192575","6501000","淡水區"
"251014","180-VK","2018/04/26 16:59:15","新北市淡水區淡金路四段472巷24號","121.453028333333","25.2239816666667","6501000","淡水區"
"251008","181-VK","2018/04/26 16:59:08","新北市淡水區樹梅坑9號","121.47269","25.1427633333333","6501000","淡水區"
"251015","182-VK","2018/04/26 16:59:27","新北市淡水區淡金路一段102號","121.457803333333","25.17464","6501000","淡水區"
"251010","413-VK","2018/04/26 16:59:17","新北市淡水區沙崙路97號","121.422391666667","25.182175","6501000","淡水區"
"251012","441-VK","2018/04/26 16:59:20","新北市淡水區新民街一段79號","121.431545","25.1837533333333","6501000","淡水區"
"251016","442-VK","2018/04/26 16:59:12","新北市淡水區瓦坑3號","121.477585","25.1809516666667","6501000","淡水區"
"251007","577-R6","2018/04/26 16:59:13","新北市淡水區中山路21號","121.444151666667","25.1700116666667","6501000","淡水區"
"251011","650-BX","2018/04/26 16:59:20","新北市淡水區中山路26-1號","121.444405","25.1696483333333","6501000","淡水區"
"252002","178-VK","2018/04/26 16:59:26","新北市三芝區忠孝街171號","121.505453333333","25.261335","6502100","三芝區"
"252001","292-VK","2018/04/26 16:59:18","新北市三芝區淡金路二段89號","121.503866666667","25.2607433333333","6502100","三芝區"
"242034","AAC-296","2018/04/26 16:59:12","新北市新莊區新泰路357巷3弄57號","121.44234","25.0393083333333","6500500","新莊區"
"242029","612-BX","2018/04/26 16:59:22","新北市新莊區新泰路357巷3弄57號","121.442071666667","25.03916","6500500","新莊區"
"242042","566-BX","2018/04/26 16:59:20","新北市新莊區新泰路255巷83號","121.442076666667","25.03899","6500500","新莊區"
"242023","362-BY","2018/04/26 16:59:11","新北市新莊區新泰路255巷83號","121.442286666667","25.0387883333333","6500500","新莊區"
"242061","353-BY","2018/04/26 16:59:28","新北市新莊區新泰路255巷83號","121.442248333333","25.038855","6500500","新莊區"
"242017","175-VK","2018/04/26 16:59:25","新北市新莊區三和路12-21號","121.441996666667","25.038535","6500500","新莊區"
"242004","176-VK","2018/04/26 16:59:17","新北市新莊區三和路12-21號","121.442061666667","25.0386233333333","6500500","新莊區"
"242036","349-TH","2018/04/26 16:59:09","新北市新莊區三和路12-16號","121.441895","25.037455","6500500","新莊區"
"242013","351-TH","2018/04/26 16:59:20","新北市新莊區新泰路357巷3弄57號","121.442008333333","25.0395666666667","6500500","新莊區"
"238005","571-TV","2018/04/26 16:59:17","新北市樹林區八德街660號","121.396428333333","24.9690666666667","6500700","樹林區"
"238017","283-BY","2018/04/26 16:59:13","新北市樹林區光武街2-1號","121.415123333333","25.004085","6500700","樹林區"
"238001","282-BY","2018/04/26 16:59:27","新北市樹林區中正路22-1號","121.427818333333","24.99964","6500700","樹林區"
"239006","891-R6","2018/04/26 16:59:14","新北市鶯歌區環河路177-23號","121.345108333333","24.9356216666667","6500800","鶯歌區"
"239001","417-VK","2018/04/26 16:59:22","新北市鶯歌區二甲路171-1號","121.3443","24.9357066666667","6500800","鶯歌區"
"239002","359-BY","2018/04/26 16:59:11","新北市鶯歌區環河路177-3號","121.34614","24.935125","6500800","鶯歌區"
"242019","280-VK","2018/04/26 16:59:11","新北市新莊區三和路12-21號","121.44205","25.0381966666667","6500500","新莊區"
