"lineid","car","time","location","longitude","latitude","cityid","cityname"
"234007","207-UY","2018/04/26 18:19:35","新北市永和區環河西路二段21號","121.507648333333","25.016045","6500400","永和區"
"234042","862-TW","2018/04/26 18:19:46","新北市永和區福和路1號","121.52652","25.0096216666667","6500400","永和區"
"234026","9371-KE","2018/04/26 18:19:55","新北市永和區豫溪街42巷5號","121.515576666667","25.0094883333333","6500400","永和區"
"234011","9373-KE","2018/04/26 18:19:50","新北市永和區環河東路一段126號","121.520828333333","25.0154483333333","6500400","永和區"
"249005","172-UM","2018/04/26 18:19:48","新北市八里區荖阡坑路15-28號","121.400396666667","25.14033","6502300","八里區"
"249001","173-UM","2018/04/26 18:19:40","新北市八里區龍米路一段129號","121.45222","25.1267416666667","6502300","八里區"
"249002","305-UY","2018/04/26 18:19:49","新北市八里區龍形二街56號","121.450255","25.133175","6502300","八里區"
"248016","026-BX","2018/04/26 18:19:35","新北市五股區西雲路293號","121.449533333333","25.0992266666667","6501500","五股區"
"248006","077-UY","2018/04/26 18:19:47","新北市五股區中興路一段161號","121.464916666667","25.0736783333333","6501500","五股區"
"248008","095-VK","2018/04/26 18:19:36","新北市五股區更洲路32巷8弄14號","121.459233333333","25.0796283333333","6501500","五股區"
"248020","225-UY","2018/04/26 18:19:19","新北市五股區孝義路19-1號","121.452333333333","25.1095366666667","6501500","五股區"
"248012","247-BX","2018/04/26 18:19:46","新北市五股區御史路1巷101弄2號","121.44096","25.0912783333333","6501500","五股區"
"248014","261-SL","2018/04/26 18:19:53","新北市五股區自強路19巷5-1號","121.434673333333","25.0737733333333","6501500","五股區"
"248010","272-BY","2018/04/26 18:19:46","新北市五股區成泰路一段139巷2弄4號","121.435073333333","25.07301","6501500","五股區"
"248004","677-BX","2018/04/26 18:19:48","新北市五股區成泰路二段149號","121.439106666667","25.08555","6501500","五股區"
"248002","678-BX","2018/04/26 18:19:41","新北市五股區西雲路66號","121.443625","25.0916066666667","6501500","五股區"
"232011","375-UM","2018/04/26 18:19:44","新北市坪林區坪雙路一段43號","121.71171","24.9424683333333","6502000","坪林區"
"244013","069-UM","2018/04/26 18:19:48","新北市林口區林口路68巷18弄15號","121.391796666667","25.0795883333333","6501700","林口區"
"244007","080-UY","2018/04/26 18:19:51","新北市林口區林口路296號","121.385793333333","25.0855866666667","6501700","林口區"
"244019","742-UY","2018/04/26 18:19:48","新北市林口區麗園路82號","121.372805","25.0690716666667","6501700","林口區"
"244023","483-VK","2018/04/26 18:19:43","新北市林口區仁愛路二段21號","121.385638333333","25.076005","6501700","林口區"
"244017","485-VK","2018/04/26 18:19:55","新北市林口區公園路16號","121.366436666667","25.0669416666667","6501700","林口區"
"244009","656-BX","2018/04/26 18:19:52","新北市林口區福林路113號","121.377651666667","25.0892133333333","6501700","林口區"
"244011","701-TV","2018/04/26 18:19:56","新北市林口區仁愛路一段270號","121.393745","25.0760833333333","6501700","林口區"
"244025","837-TS","2018/04/26 18:19:52","新北市林口區南勢四街71-3號","121.354991666667","25.07","6501700","林口區"
"244021","838-TS","2018/04/26 18:19:37","新北市林口區自強一街29號","121.398558333333","25.078135","6501700","林口區"
"243013","646-TV","2018/04/26 18:19:54","新北市泰山區明志路三段197號","121.424208333333","25.0386716666667","6501600","泰山區"
"222003","436-BY","2018/04/26 18:19:41","新北市深坑區旺耽路67號","121.626261666667","25.0029983333333","6501800","深坑區"
"222002","659-BX","2018/04/26 18:19:47","新北市深坑區雲鄉路1號","121.620985","25.0001366666667","6501800","深坑區"
"231041","002-UM","2018/04/26 18:19:50","新北市新店區安華路28-1號","121.519813333333","24.9608416666667","6500600","新店區"
"231040","047-UY","2018/04/26 18:19:53","新北市新店區安華路28-1號","121.519296666667","24.96087","6500600","新店區"
"231044","106-UY","2018/04/26 18:19:40","新北市新店區安華路28-1號","121.519568333333","24.96095","6500600","新店區"
"231046","107-UY","2018/04/26 18:19:48","新北市新店區直潭七街60號","121.532241666667","24.9397933333333","6500600","新店區"
"231052","108-UY","2018/04/26 18:19:44","新北市新店區環河路1-1號","121.537818333333","24.9615333333333","6500600","新店區"
"231047","187-VK","2018/04/26 18:19:46","新北市新店區安華路28-1號","121.519596666667","24.9612433333333","6500600","新店區"
"231054","KEA-2219","2018/04/26 18:19:44","新北市新店區安華路28-1號","121.519776666667","24.9611966666667","6500600","新店區"
"231057","256-BX","2018/04/26 18:19:55","新北市新店區安華路28-1號","121.519653333333","24.961175","6500600","新店區"
"231042","268-BY","2018/04/26 18:19:52","新北市新店區安華路28-1號","121.519715","24.96073","6500600","新店區"
"231051","278-BY","2018/04/26 18:19:46","新北市新店區安華路28-1號","121.519626666667","24.96116","6500600","新店區"
"231050","AAD-862","2018/04/26 18:19:37","新北市新店區安華路28-1號","121.519821666667","24.9612866666667","6500600","新店區"
"231059","355-BY","2018/04/26 18:19:58","新北市新店區安華路28-1號","121.519106666667","24.9609516666667","6500600","新店區"
"231058","3713-VJ","2018/04/26 18:19:57","新北市新店區安康路一段3-1號","121.533985","24.9606183333333","6500600","新店區"
"231066","4716-K9","2018/04/26 18:19:49","新北市新店區安華路28-1號","121.519368333333","24.96135","6500600","新店區"
"231056","4715-K9","2018/04/26 18:19:37","新北市新店區中央路57號","121.532781666667","24.9773616666667","6500600","新店區"
"231065","512-UM","2018/04/26 18:19:44","新北市新店區安華路28-1號","121.519195","24.9612483333333","6500600","新店區"
"231063","641-BX","2018/04/26 18:19:50","新北市新店區安華路28-1號","121.519473333333","24.9605333333333","6500600","新店區"
"231064","719-UM","2018/04/26 18:19:55","新北市新店區安華路28-1號","121.519563333333","24.9611066666667","6500600","新店區"
"231062","720-UM","2018/04/26 18:19:37","新北市新店區安華路28-1號","121.51936","24.961035","6500600","新店區"
"231060","897-TW","2018/04/26 18:19:56","新北市新店區安華路28-1號","121.519526666667","24.960835","6500600","新店區"
"231045","898-TW","2018/04/26 18:11:53","新北市新店區安華路28-1號","121.51934","24.9609266666667","6500600","新店區"
"231043","899-TW","2018/04/26 18:19:47","新北市新店區安華路28-1號","121.519015","24.9608033333333","6500600","新店區"
"231055","AKT-0513","2018/04/26 18:19:37","新北市新店區光明街143號","121.539361666667","24.96216","6500600","新店區"
"235064","005-UY","2018/04/26 18:19:50","新北市中和區圓通路167巷8號","121.497973333333","24.9949466666667","6500300","中和區"
"235063","006-UY","2018/04/26 18:19:46","新北市中和區中正路563號","121.486893333333","24.9942066666667","6500300","中和區"
"235049","031-BX","2018/04/26 18:19:49","新北市中和區中正路637巷52弄1號","121.485591666667","24.993535","6500300","中和區"
"235056","096-UM","2018/04/26 18:19:37","新北市中和區中山路二段586號","121.482413333333","25.0050633333333","6500300","中和區"
"235039","097-UM","2018/04/26 18:19:42","新北市中和區中正路190號","121.49766","24.9939733333333","6500300","中和區"
"235065","098-UM","2018/04/26 18:19:40","新北市中和區莊敬路49巷18號","121.501656666667","25.0061016666667","6500300","中和區"
"235058","151-BY","2018/04/26 18:19:43","新北市中和區圓通路367巷58號","121.491715","24.984465","6500300","中和區"
"235055","183-VK","2018/04/26 18:19:49","新北市中和區中正路637巷52弄11號","121.484888333333","24.9937016666667","6500300","中和區"
"235038","185-VK","2018/04/26 18:19:40","新北市中和區秀朗路三段128巷3號","121.524465","24.9925866666667","6500300","中和區"
"235067","255-BX","2018/04/26 18:19:45","新北市中和區和城路一段271巷1號","121.485795","24.9917433333333","6500300","中和區"
"235043","352-BY","2018/04/26 18:19:54","新北市中和區景平路377號","121.504096666667","24.9933816666667","6500300","中和區"
"235061","378-QA","2018/04/26 18:19:54","新北市中和區國光街215巷71-2號","121.467928333333","24.99956","6500300","中和區"
"235050","4979-A6","2018/04/26 18:19:48","新北市中和區捷運路135號","121.506828333333","24.9908683333333","6500300","中和區"
"235069","4980-A6","2018/04/26 18:19:50","新北市中和區錦和路99號","121.490135","24.9955","6500300","中和區"
"235042","551-UM","2018/04/26 18:19:58","新北市中和區大仁街20巷25弄6號","121.518746666667","24.99358","6500300","中和區"
"235070","558-UM","2018/04/26 18:19:51","新北市中和區圓通路219號","121.496673333333","24.994185","6500300","中和區"
"235045","565-BX","2018/04/26 18:19:45","新北市中和區景安路200巷4弄1號","121.50347","24.9916333333333","6500300","中和區"
"235054","640-BX","2018/04/26 18:19:41","新北市中和區民享街86巷26號","121.473403333333","25.0006633333333","6500300","中和區"
"235060","647-TV","2018/04/26 18:19:47","新北市中和區連城路469巷79弄30號","121.484433333333","24.9937033333333","6500300","中和區"
"235047","732-UM","2018/04/26 18:19:53","新北市中和區南山路252號","121.507846666667","24.988815","6500300","中和區"
"235046","733-UM","2018/04/26 18:19:50","新北市中和區員山路36巷13號","121.484158333333","24.9908883333333","6500300","中和區"
"235062","800-TS","2018/04/26 18:19:43","新北市中和區景平路999巷1號","121.495455","25.0059866666667","6500300","中和區"
"235057","801-TS","2018/04/26 18:19:48","新北市中和區員山路263號","121.48113","24.99918","6500300","中和區"
"235041","802-TS","2018/04/26 18:19:43","新北市中和區錦和路350-1號","121.490445","24.993565","6500300","中和區"
"235052","805-TS","2018/04/26 18:19:55","新北市中和區南山路401號","121.506851666667","24.9900416666667","6500300","中和區"
"235048","896-TW","2018/04/26 18:19:53","新北市中和區錦和路350-1號","121.490601666667","24.9935516666667","6500300","中和區"
"235053","900-TW","2018/04/26 18:19:57","新北市中和區員山路82巷6-3號","121.48133","24.9935366666667","6500300","中和區"
"235066","911-UM","2018/04/26 18:19:48","新北市中和區中山路二段113號","121.503008333333","25.0037783333333","6500300","中和區"
"235051","157-BY","2018/04/26 18:19:53","新北市中和區信義街9號","121.510951666667","24.989665","6500300","中和區"
"235037","AAC-213","2018/04/26 18:19:50","新北市中和區景德街84號","121.516416666667","24.9914333333333","6500300","中和區"
"235059","AAC-215","2018/04/26 18:19:39","新北市中和區員山路36巷16-3號","121.48499","24.9913283333333","6500300","中和區"
"247016","007-UY","2018/04/26 18:19:40","新北市五股區中直路21號","121.421378333333","25.1118983333333","6501400","蘆洲區"
"226004","312-R5","2018/04/26 18:19:42","新北市平溪區薯榔里雙菁路92號","121.714223333333","25.0212383333333","6502400","平溪區"
"235072","251-BX","2018/04/26 18:19:46","新北市中和區連城路301號","121.489863333333","24.9962933333333","6500300","中和區"
"228003","097-TW","2018/04/26 18:19:35","新北市貢寮區真理里美艷山街63號","121.921521666667","25.0717083333333","6502600","貢寮區"
"228001","212-TW","2018/04/26 18:19:54","新北市貢寮區真理里新港街26巷55弄2-1號","121.927286666667","25.052775","6502600","貢寮區"
"228002","585-TW","2018/04/26 18:19:41","新北市貢寮區福連里馬崗街2-7號","122.000676666667","25.0145833333333","6502600","貢寮區"
"224010","AGQ-8101","2018/04/26 17:58:26","新北市瑞芳區烏勢巷145號","121.847708333333","25.1089583333333","6501200","瑞芳區"
"224006","676-BX","2018/04/26 18:19:53","新北市瑞芳區民權街3-2號","121.808223333333","25.10753","6501200","瑞芳區"
"224002","639-TC","2018/04/26 18:19:38","新北市瑞芳區三爪子坑路149巷19號","121.811178333333","25.1065616666667","6501200","瑞芳區"
"224008","285-BY","2018/04/26 18:19:46","新北市瑞芳區逢甲路84號","121.809555","25.1087516666667","6501200","瑞芳區"
"224007","275-VK","2018/04/26 18:19:58","新北市瑞芳區大埔路67巷5-1號","121.764341666667","25.1015433333333","6501200","瑞芳區"
"224009","273-VK","2018/04/26 18:19:50","新北市瑞芳區新山路43號","121.855933333333","25.10832","6501200","瑞芳區"
"224005","271-BY","2018/04/26 18:19:42","新北市瑞芳區建基新村3-7號","121.811341666667","25.131375","6501200","瑞芳區"
"227004","642-TC","2018/04/26 18:19:39","新北市雙溪區共和里中山路2號","121.863795","25.0337833333333","6502500","雙溪區"
"227010","400-TW","2018/04/26 18:19:40","新北市雙溪區牡丹里牡丹73號","121.851706666667","25.0593683333333","6502500","雙溪區"
"253005","032-BX","2018/04/26 18:19:46","新北市石門區中央路1-15號","121.561328333333","25.2910916666667","6502200","石門區"
"253006","295-VK","2018/04/26 18:19:53","新北市石門區老梅路67號","121.545881666667","25.28922","6502200","石門區"
"222001","KEA-2212","2018/04/26 18:19:45","新北市深坑區北深路二段58號","121.619046666667","25.0042383333333","6501800","深坑區"
"208002","KEA-2872","2018/04/26 18:19:37","新北市金山區清泉里清水路60巷20號","121.634671666667","25.2321866666667","6502700","金山區"
"208003","665-BX","2018/04/26 18:19:53","新北市金山區中山路69號","121.640756666667","25.2183516666667","6502700","金山區"
"208001","761-BX","2018/04/26 18:19:43","新北市金山區環金路19號","121.641058333333","25.21767","6502700","金山區"
"251004","009-UM","2018/04/26 18:19:58","新北市淡水區民族路31巷9號","121.462395","25.1361766666667","6501000","淡水區"
"251005","010-UM","2018/04/26 18:19:44","新北市淡水區水源街一段122巷39號","121.447235","25.17039","6501000","淡水區"
"251001","011-UM","2018/04/26 18:19:53","新北市淡水區自強路301號","121.4618","25.131665","6501000","淡水區"
"251013","179-VK","2018/04/26 18:19:52","新北市淡水區行忠路592號","121.468676666667","25.1992916666667","6501000","淡水區"
"251014","180-VK","2018/04/26 18:19:51","新北市淡水區崙頂14號","121.491215","25.2217066666667","6501000","淡水區"
"251008","181-VK","2018/04/26 18:19:48","新北市淡水區水源街二段194號","121.45694","25.1758333333333","6501000","淡水區"
"251015","182-VK","2018/04/26 18:19:47","新北市淡水區興福寮88巷1號","121.485521666667","25.1649816666667","6501000","淡水區"
"251010","413-VK","2018/04/26 18:19:56","新北市淡水區淡海路180巷12-3號","121.420455","25.1844533333333","6501000","淡水區"
"251012","441-VK","2018/04/26 18:19:41","新北市淡水區北新路二段77-5號","121.48047","25.1855433333333","6501000","淡水區"
"251016","442-VK","2018/04/26 18:19:53","新北市淡水區淡金路三段228巷10號","121.449326666667","25.20495","6501000","淡水區"
"251006","561-UM","2018/04/26 18:19:43","新北市淡水區新民街76巷36弄2號","121.439308333333","25.177785","6501000","淡水區"
"251011","650-BX","2018/04/26 18:19:40","新北市淡水區淡金路33-8號","121.457196666667","25.1620616666667","6501000","淡水區"
"251002","672-BX","2018/04/26 18:19:40","新北市淡水區中正東路一段34號","121.452561666667","25.1624216666667","6501000","淡水區"
"251003","766-UM","2018/04/26 18:19:47","新北市淡水區北新路180號","121.449456666667","25.1787333333333","6501000","淡水區"
"207003","550-UM","2018/04/26 18:19:47","新北市萬里區野柳里港東路23號","121.687333333333","25.2036966666667","6502800","萬里區"
"207004","225-TW","2018/04/26 18:19:49","新北市萬里區中幅里中福路39-1號","121.67737","25.1659683333333","6502800","萬里區"
"252002","178-VK","2018/04/26 18:19:46","新北市三芝區中山路二段43號","121.502988333333","25.255035","6502100","三芝區"
"252003","249-BX","2018/04/26 18:19:47","新北市三芝區錫板里海尾14-33號","121.478235","25.260445","6502100","三芝區"
"252001","292-VK","2018/04/26 18:19:53","新北市三芝區中興街二段2號","121.498365","25.2566483333333","6502100","三芝區"
"237004","KEA-2597","2018/04/26 18:19:55","新北市三峽區圳頭1-1號","121.374363333333","24.890325","6500900","三峽區"
"237007","153-BY","2018/04/26 18:19:53","新北市三峽區中正路二段498號","121.361175","24.90647","6500900","三峽區"
"237011","572-TV","2018/04/26 18:19:49","新北市三峽區溪東路281號","121.409028333333","24.9313033333333","6500900","三峽區"
"237009","210-TH","2018/04/26 18:19:52","新北市三峽區中山路152巷28號","121.365135","24.9370316666667","6500900","三峽區"
"237013","252-BX","2018/04/26 18:19:54","新北市三峽區永安街43號","121.3762","24.9301283333333","6500900","三峽區"
"237012","275-BY","2018/04/26 18:19:53","新北市三峽區民生街1巷6-8號","121.377081666667","24.93572","6500900","三峽區"
"237008","302-VK","2018/04/26 18:19:42","新北市三峽區白雞68-101號","121.392485","24.9085816666667","6500900","三峽區"
"237014","433-BY","2018/04/26 18:19:48","新北市三峽區復興路110巷2弄4號","121.372943333333","24.9380266666667","6500900","三峽區"
"237006","5529-G3","2018/04/26 18:19:56","新北市三峽區溪東路238巷9號","121.408195","24.9313333333333","6500900","三峽區"
"237005","AKY-6261","2018/04/26 18:19:45","新北市三峽區忠孝街32號","121.370926666667","24.9338783333333","6500900","三峽區"
"236070","105-UM","2018/04/26 18:19:47","新北市土城區永豐路153巷1號","121.467208333333","24.9818033333333","6501300","土城區"
"236042","107-UM","2018/04/26 18:19:42","新北市土城區樂利街3巷8號","121.448476666667","24.9861516666667","6501300","土城區"
"236078","166-UM","2018/04/26 18:19:45","新北市土城區永安街115巷22號","121.429041666667","24.963355","6501300","土城區"
"236030","253-BX","2018/04/26 18:19:39","新北市土城區順風路45號","121.440266666667","24.9770516666667","6501300","土城區"
"236026","269-VK","2018/04/26 18:19:37","新北市土城區承天路47號","121.439011666667","24.963785","6501300","土城區"
"236014","270-VK","2018/04/26 18:19:43","新北市土城區青雲路39巷7號","121.460273333333","24.9874433333333","6501300","土城區"
"236038","271-VK","2018/04/26 18:19:55","新北市土城區青雲路451巷8弄19號","121.459576666667","24.974","6501300","土城區"
"236021","401-BY","2018/04/26 18:19:46","新北市土城區明德路一段211號","121.46347","24.9786883333333","6501300","土城區"
"236059","752-BX","2018/04/26 18:19:50","新北市土城區中央路四段436號","121.41068","24.9516033333333","6501300","土城區"
"236049","913-UM","2018/04/26 18:19:47","新北市土城區明德路一段361-3號","121.456185","24.9777633333333","6501300","土城區"
"236063","915-UM","2018/04/26 18:19:44","新北市土城區金城路三段202-3號","121.469573333333","24.9886183333333","6501300","土城區"
"236055","AAC-216","2018/04/26 18:19:40","新北市土城區中華路二段102號","121.438085","24.9743683333333","6501300","土城區"
"242058","986-R7","2018/04/26 18:19:53","新北市新莊區新北大道七段782號","121.413111666667","25.0247466666667","6500500","新莊區"
"242053","751-BX","2018/04/26 18:19:40","新北市新莊區民安西路392-7號","121.428605","25.0096566666667","6500500","新莊區"
"242025","613-BX","2018/04/26 18:19:54","新北市新莊區五權一路12巷16號","121.457268333333","25.064465","6500500","新莊區"
"242042","566-BX","2018/04/26 18:19:40","新北市新莊區天祥街87號","121.415346666667","25.0294566666667","6500500","新莊區"
"242046","497-BY","2018/04/26 18:19:38","新北市新莊區中正路803巷1號","121.42159","25.028115","6500500","新莊區"
"242051","441-UM","2018/04/26 18:19:43","新北市新莊區新樹路210號","121.433676666667","25.0203783333333","6500500","新莊區"
"242056","440-UM","2018/04/26 18:19:56","新北市新莊區新泰路3巷33號","121.449011666667","25.0320466666667","6500500","新莊區"
"242007","413-TV","2018/04/26 18:19:42","新北市新莊區中華路二段36-1號","121.453895","25.04542","6500500","新莊區"
"242044","400-BY","2018/04/26 18:19:45","新北市新莊區新北大道七段323號","121.41234","25.0283433333333","6500500","新莊區"
"242061","353-BY","2018/04/26 18:19:48","新北市新莊區新樹路69-34號","121.43837","25.0291066666667","6500500","新莊區"
"242031","135-UY","2018/04/26 18:19:40","新北市新莊區新泰路277巷43弄25號","121.443606666667","25.0398233333333","6500500","新莊區"
"242011","173-VK","2018/04/26 18:16:04","新北市新莊區中榮街11號","121.450976666667","25.05279","6500500","新莊區"
"242021","348-TH","2018/04/26 18:19:54","新北市新莊區中正路225號","121.450633333333","25.0357633333333","6500500","新莊區"
"242013","351-TH","2018/04/26 18:19:40","新北市樹林區環河路10-1號","121.424281666667","24.9760416666667","6500500","新莊區"
"238015","755-BX","2018/04/26 18:19:38","新北市樹林區文化街116巷2號","121.416358333333","24.98945","6500700","樹林區"
"238023","601-UM","2018/04/26 18:19:53","新北市樹林區忠信街15號","121.407661666667","25.0149483333333","6500700","樹林區"
"238019","599-UM","2018/04/26 18:19:58","新北市樹林區國凱街136巷33號","121.423795","24.9794633333333","6500700","樹林區"
"238018","571-TV","2018/04/26 18:19:56","新北市樹林區保安街一段20巷30號","121.428376666667","24.9943866666667","6500700","樹林區"
"238024","5061-A6","2018/04/26 18:19:53","新北市樹林區中山路一段135-6號","121.42265","24.9896233333333","6500700","樹林區"
"238021","KEA-2539","2018/04/26 18:19:44","新北市樹林區柑園街二段172號","121.381898333333","24.954225","6500700","樹林區"
"238025","303-VK","2018/04/26 18:19:53","新北市樹林區保安街一段72號","121.424903333333","24.99433","6500700","樹林區"
"238017","283-BY","2018/04/26 18:19:53","新北市樹林區保安街二段335號","121.412483333333","25.0080816666667","6500700","樹林區"
"238020","268-VK","2018/04/26 18:19:52","新北市樹林區三俊街65巷42號","121.413535","25.0178616666667","6500700","樹林區"
"238026","172-UY","2018/04/26 18:19:49","新北市樹林區佳園路一段75巷10-11號","121.395853333333","24.970675","6500700","樹林區"
"238016","169-UY","2018/04/26 18:19:45","新北市樹林區文化街23號","121.419241666667","24.9875133333333","6500700","樹林區"
"239006","891-R6","2018/04/26 18:19:34","新北市鶯歌區鶯桃路365巷35弄1號","121.332111666667","24.9624166666667","6500800","鶯歌區"
"239008","527-UM","2018/04/26 18:19:43","新北市鶯歌區國際一路179號","121.33623","24.976485","6500800","鶯歌區"
"239005","526-UM","2018/04/26 18:19:38","新北市鶯歌區鶯桃路668巷73號","121.329891666667","24.9717633333333","6500800","鶯歌區"
"239001","417-VK","2018/04/26 18:19:42","新北市鶯歌區國中街144號","121.33902","24.939705","6500800","鶯歌區"
"239003","360-BY","2018/04/26 18:19:53","新北市鶯歌區福安街58號","121.335561666667","24.9652516666667","6500800","鶯歌區"
"239002","359-BY","2018/04/26 18:16:31","新北市鶯歌區國慶街20號","121.349588333333","24.9561233333333","6500800","鶯歌區"
"239004","193-VK","2018/04/26 18:19:43","新北市鶯歌區尖山路166巷46號","121.344943333333","24.9493566666667","6500800","鶯歌區"
"221008","489-VK","2018/04/26 18:19:52","新北市汐止區翠峰街21巷3弄22號","121.64476","25.0758066666667","6501100","汐止區"
"221036","130-UY","2018/04/26 18:19:48","新北市汐止區長興街一段20號","121.669693333333","25.0791016666667","6501100","汐止區"
"221015","131-UY","2018/04/26 18:19:51","新北市汐止區鄉長路二段23巷6號","121.667238333333","25.0829233333333","6501100","汐止區"
"221010","269-BY","2018/04/26 18:19:45","新北市汐止區祥雲街18巷17號","121.646966666667","25.0894583333333","6501100","汐止區"
"221012","278-VK","2018/04/26 18:19:45","新北市汐止區保長路35巷13號","121.673246666667","25.0800116666667","6501100","汐止區"
"221023","279-VK","2018/04/26 18:19:45","新北市汐止區康寧街474巷18-1號","121.631375","25.0675633333333","6501100","汐止區"
"221032","280-BY","2018/04/26 18:19:47","新北市汐止區橫科路2巷9號","121.616413333333","25.0509033333333","6501100","汐止區"
"221027","281-BY","2018/04/26 18:19:52","新北市汐止區建成路23巷26號","121.663758333333","25.0718933333333","6501100","汐止區"
"221029","298-VK","2018/04/26 18:19:46","新北市汐止區康寧街901號","121.65095","25.0752066666667","6501100","汐止區"
"221021","299-VK","2018/04/26 18:19:51","新北市汐止區連興街120號","121.653635","25.0623516666667","6501100","汐止區"
"221031","353-TW","2018/04/26 18:19:45","新北市汐止區中興路148號","121.632563333333","25.0645166666667","6501100","汐止區"
"221035","622-UM","2018/04/26 18:19:45","新北市汐止區大同路二段169巷22弄1號","121.651198333333","25.0649333333333","6501100","汐止區"
"221025","623-UM","2018/04/26 18:19:41","新北市汐止區勤進路12巷29號","121.659251666667","25.0623583333333","6501100","汐止區"
"221038","646-BX","2018/04/26 18:19:48","新北市汐止區仁愛路324號","121.664436666667","25.067855","6501100","汐止區"
"221033","647-BX","2018/04/26 18:19:50","新北市汐止區宜興街96號","121.622985","25.0428483333333","6501100","汐止區"
"221002","707-TV","2018/04/26 18:19:45","新北市汐止區福德一路213巷35號","121.635793333333","25.0647683333333","6501100","汐止區"
"221018","753-BX","2018/04/26 18:19:42","新北市汐止區茄苳路120巷4號","121.667691666667","25.069995","6501100","汐止區"
"242002","KEA-2550","2018/04/26 18:19:51","新北市新莊區思明街2-3號","121.455511666667","25.035205","6500500","新莊區"
"242009","281-VK","2018/04/26 18:19:46","新北市新莊區中華路二段25號","121.453746666667","25.0460633333333","6500500","新莊區"
"220073","985-R7","2018/04/26 18:15:25","新北市板橋區華東街1-10號","121.448355","24.994975","6500100","板橋區"
