"lineid","car","time","location","longitude","latitude","cityid","cityname"
"234046","148-BY","2018/04/26 18:49:19","新北市永和區秀朗路二段124-3號","121.52475","25.001455","6500400","永和區"
"234007","207-UY","2018/04/26 18:49:15","新北市永和區文化路164號","121.512161666667","25.0154033333333","6500400","永和區"
"234081","298-R6","2018/04/26 18:49:11","新北市永和區永利路77號","121.521248333333","25.0035333333333","6500400","永和區"
"234038","336-UY","2018/04/26 18:49:18","新北市永和區豫溪街217巷3號","121.524775","25.0094683333333","6500400","永和區"
"234064","337-UY","2018/04/26 18:49:15","新北市永和區福和路1號","121.52627","25.0098283333333","6500400","永和區"
"234086","338-UY","2018/04/26 18:49:19","新北市永和區中正路48號","121.513085","24.9945066666667","6500400","永和區"
"234070","552-UM","2018/04/26 18:49:08","新北市永和區竹林路96巷9號","121.519128333333","25.0120383333333","6500400","永和區"
"234067","553-UM","2018/04/26 18:49:16","新北市中和區永貞路255號","121.512808333333","25.00415","6500400","永和區"
"234017","745-BX","2018/04/26 18:49:12","新北市永和區環河西路一段1號","121.515353333333","25.0180883333333","6500400","永和區"
"234030","746-BX","2018/04/26 18:49:18","新北市永和區得和路321號","121.523403333333","24.999545","6500400","永和區"
"234054","KEA-2590","2018/04/26 18:49:13","新北市永和區豫溪街191巷9號","121.523831666667","25.010475","6500400","永和區"
"234013","KEA-2591","2018/04/26 18:49:11","新北市永和區保福路二段109巷23號","121.509685","25.01312","6500400","永和區"
"234061","AAD-866","2018/04/26 18:49:13","新北市永和區中正路602巷1號","121.517361666667","25.0071183333333","6500400","永和區"
"234042","862-TW","2018/04/26 18:49:25","新北市永和區永貞路310號","121.511811666667","25.0049516666667","6500400","永和區"
"234050","863-TW","2018/04/26 18:49:08","新北市永和區福和路1號","121.526128333333","25.00957","6500400","永和區"
"234011","9373-KE","2018/04/26 18:49:10","新北市永和區文化路124號","121.513075","25.015345","6500400","永和區"
"249005","172-UM","2018/04/26 18:49:08","新北市八里區長道坑5-2號","121.393336666667","25.1226533333333","6502300","八里區"
"249001","173-UM","2018/04/26 18:49:19","新北市八里區龍米路二段16號","121.448995","25.13912","6502300","八里區"
"248016","026-BX","2018/04/26 18:49:15","新北市五股區凌雲路一段149巷13-1號","121.448601666667","25.1008733333333","6501500","五股區"
"248006","077-UY","2018/04/26 18:49:07","新北市五股區中興路一段171巷73號","121.464345","25.071405","6501500","五股區"
"248008","095-VK","2018/04/26 18:49:16","新北市五股區中興路一段130號","121.465481666667","25.0737783333333","6501500","五股區"
"248020","225-UY","2018/04/26 18:49:14","新北市五股區凌雲路三段92號","121.42829","25.1196433333333","6501500","五股區"
"248012","247-BX","2018/04/26 18:49:06","新北市五股區成泰路二段147巷34-22號","121.436741666667","25.0894633333333","6501500","五股區"
"248010","272-BY","2018/04/26 18:49:26","新北市五股區水碓九路76號","121.42953","25.0722683333333","6501500","五股區"
"248004","677-BX","2018/04/26 18:49:25","新北市五股區民義路二段73號","121.409025","25.1056183333333","6501500","五股區"
"248002","678-BX","2018/04/26 18:49:21","新北市五股區成泰路三段454號","121.451433333333","25.1003683333333","6501500","五股區"
"234023","9380-KE","2018/04/26 18:49:09","新北市永和區環河東路二段100號","121.52408","25.0102866666667","6500400","永和區"
"234077","969-R7","2018/04/26 18:49:23","新北市永和區中正路2巷29弄2號","121.513883333333","24.9936483333333","6500400","永和區"
"234074","AAC-211","2018/04/26 18:49:13","新北市永和區福和路1號","121.526268333333","25.00981","6500400","永和區"
"234003","AAC-295","2018/04/26 18:49:19","新北市永和區永和路二段35號","121.514466666667","25.0102883333333","6500400","永和區"
"232011","375-UM","2018/04/26 18:49:24","新北市坪林區坪林街35號","121.7117","24.9370033333333","6502000","坪林區"
"244013","069-UM","2018/04/26 18:49:28","新北市林口區文化一路一段133號","121.373801666667","25.0717716666667","6501700","林口區"
"244007","080-UY","2018/04/26 18:49:11","新北市林口區太平里19號","121.377801666667","25.1160083333333","6501700","林口區"
"244019","742-UY","2018/04/26 18:49:06","新北市林口區麗園二街21號","121.379776666667","25.0695033333333","6501700","林口區"
"244023","483-VK","2018/04/26 18:49:22","新北市林口區民權路82號","121.372896666667","25.0818766666667","6501700","林口區"
"244017","485-VK","2018/04/26 18:49:15","新北市林口區文化二路一段20巷25弄7號","121.365511666667","25.06711","6501700","林口區"
"244009","656-BX","2018/04/26 18:49:12","新北市林口區竹林路358巷27號","121.3931","25.0839516666667","6501700","林口區"
"244011","701-TV","2018/04/26 18:49:16","新北市林口區仁愛路一段285巷116號","121.395041666667","25.075895","6501700","林口區"
"244025","837-TS","2018/04/26 18:49:12","新北市林口區南勢一街34號","121.36117","25.07604","6501700","林口區"
"243012","AAD-798","2018/04/26 18:49:26","新北市泰山區泰林路二段73巷27號","121.434441666667","25.05788","6501600","泰山區"
"243015","380-SR","2018/04/26 18:49:14","新北市泰山區泰林路二段387號","121.4274","25.06426","6501600","泰山區"
"243010","KEA-2215","2018/04/26 18:49:19","新北市泰山區明志路一段515號","121.430451666667","25.054255","6501600","泰山區"
"243009","KEA-2216","2018/04/26 18:49:22","新北市泰山區泰林路二段427號","121.426373333333","25.0639733333333","6501600","泰山區"
"243013","646-TV","2018/04/26 18:49:13","新北市泰山區明志路三段206巷10號","121.423261666667","25.0381883333333","6501600","泰山區"
"243016","680-BX","2018/04/26 18:49:20","新北市泰山區明志路一段517號","121.430458333333","25.0541633333333","6501600","泰山區"
"222003","436-BY","2018/04/26 18:49:21","新北市深坑區翠谷街3號","121.627068333333","25.0075533333333","6501800","深坑區"
"222002","659-BX","2018/04/26 18:49:07","新北市深坑區文山路一段69號","121.627005","25.0018583333333","6501800","深坑區"
"231041","002-UM","2018/04/26 18:49:10","新北市新店區安華路28-1號","121.519731666667","24.9608233333333","6500600","新店區"
"231040","047-UY","2018/04/26 18:49:13","新北市新店區環河路108-1號","121.536941666667","24.9642983333333","6500600","新店區"
"231044","106-UY","2018/04/26 18:49:20","新北市新店區寶中路81號","121.547773333333","24.98066","6500600","新店區"
"231046","107-UY","2018/04/26 18:49:28","新北市新店區直潭路75號","121.532228333333","24.9421433333333","6500600","新店區"
"231052","108-UY","2018/04/26 18:49:24","新北市新店區新烏路一段104-1號","121.546613333333","24.9371883333333","6500600","新店區"
"231047","187-VK","2018/04/26 18:49:26","新北市新店區中正路111號","121.542488333333","24.9704116666667","6500600","新店區"
"231054","KEA-2219","2018/04/26 18:49:24","新北市新店區光明街32號","121.538321666667","24.9589733333333","6500600","新店區"
"231042","268-BY","2018/04/26 18:49:12","新北市新店區北新路一段80號","121.541603333333","24.9672333333333","6500600","新店區"
"231051","278-BY","2018/04/26 18:49:26","新北市新店區百忍街90號","121.532671666667","24.9773233333333","6500600","新店區"
"231050","AAD-862","2018/04/26 18:49:17","新北市新店區安康路一段75-1號","121.530061666667","24.9611566666667","6500600","新店區"
"231059","355-BY","2018/04/26 18:49:17","新北市新店區安華路28-1號","121.519296666667","24.9609133333333","6500600","新店區"
"231058","3713-VJ","2018/04/26 18:49:17","新北市新店區北宜路一段105巷4弄1號","121.539748333333","24.9556","6500600","新店區"
"231066","4716-K9","2018/04/26 18:49:09","新北市新店區安豐路22巷5-2號","121.50191","24.9560416666667","6500600","新店區"
"231056","4715-K9","2018/04/26 18:49:17","新北市新店區建國路148號","121.53885","24.9791466666667","6500600","新店區"
"231067","4772-VM","2018/04/26 18:49:17","新北市新店區安康路一段281巷12弄8號","121.523296666667","24.96163","6500600","新店區"
"231065","512-UM","2018/04/26 18:49:24","新北市新店區車子路18-1號","121.506425","24.9546233333333","6500600","新店區"
"231049","513-UM","2018/04/26 18:49:25","新北市新店區中央路81號","121.532321666667","24.976535","6500600","新店區"
"231061","619-UM","2018/04/26 18:49:19","新北市新店區安華路28-1號","121.519355","24.960845","6500600","新店區"
"231063","641-BX","2018/04/26 18:49:10","新北市新店區安華路28-1號","121.51959","24.960575","6500600","新店區"
"231064","719-UM","2018/04/26 18:49:15","新北市新店區安華路28-1號","121.519553333333","24.9607133333333","6500600","新店區"
"231062","720-UM","2018/04/26 18:49:17","新北市新店區安華路28-1號","121.51938","24.9611333333333","6500600","新店區"
"231060","897-TW","2018/04/26 18:49:16","新北市新店區安華路28-1號","121.519521666667","24.9605216666667","6500600","新店區"
"231045","898-TW","2018/04/26 18:49:22","新北市新店區安康路一段61號","121.530525","24.961","6500600","新店區"
"231043","899-TW","2018/04/26 18:49:06","新北市新店區安康路一段235號","121.525238333333","24.9632166666667","6500600","新店區"
"231055","AKT-0513","2018/04/26 18:49:21","新北市新店區北新路一段271巷22號","121.540275","24.9672216666667","6500600","新店區"
"241035","462-BY","2018/04/26 18:49:23","新北市三重區重新路四段121號","121.484975","25.0520633333333","6500200","三重區"
"235064","005-UY","2018/04/26 18:49:10","新北市中和區連城路75巷6弄1號","121.498215","24.9987266666667","6500300","中和區"
"235063","006-UY","2018/04/26 18:49:26","新北市中和區連城路317-1號","121.489176666667","24.9961316666667","6500300","中和區"
"235049","031-BX","2018/04/26 18:49:11","新北市中和區景安路161號","121.505301666667","24.9946866666667","6500300","中和區"
"235056","096-UM","2018/04/26 18:49:17","新北市中和區員山路611巷5弄5號","121.47809","25.011175","6500300","中和區"
"235039","097-UM","2018/04/26 18:49:22","新北市中和區宜安路18巷11號","121.513998333333","24.9962233333333","6500300","中和區"
"235065","098-UM","2018/04/26 18:49:20","新北市中和區中山路二段2巷33號","121.502893333333","25.0068816666667","6500300","中和區"
"235040","150-BY","2018/04/26 18:49:21","新北市中和區保健路106巷4弄8號","121.511933333333","24.9958283333333","6500300","中和區"
"235058","151-BY","2018/04/26 18:49:23","新北市中和區連城路573號","121.479126666667","24.9943283333333","6500300","中和區"
"235055","183-VK","2018/04/26 18:49:09","新北市中和區民生街47號","121.469871666667","25.005165","6500300","中和區"
"235038","185-VK","2018/04/26 18:49:19","新北市中和區大勇街31巷8號","121.517156666667","24.9944483333333","6500300","中和區"
"235067","255-BX","2018/04/26 18:49:25","新北市中和區中山路二段479號","121.483076666667","25.0049616666667","6500300","中和區"
"235044","293-VK","2018/04/26 18:49:19","新北市中和區中興街119號","121.499928333333","24.9919516666667","6500300","中和區"
"235043","352-BY","2018/04/26 18:49:14","新北市中和區景平路1號","121.52533","24.9902233333333","6500300","中和區"
"235068","377-QA","2018/04/26 18:49:09","新北市中和區中正路211巷13弄7號","121.497105","24.99328","6500300","中和區"
"235061","378-QA","2018/04/26 18:49:14","新北市中和區民治街132巷6號","121.475071666667","25.002365","6500300","中和區"
"235050","4979-A6","2018/04/26 18:49:08","新北市中和區忠孝街112巷12號","121.512396666667","24.9856016666667","6500300","中和區"
"235069","4980-A6","2018/04/26 18:49:10","新北市中和區泰和街1號","121.500003333333","25.0010233333333","6500300","中和區"
"235042","551-UM","2018/04/26 18:49:18","新北市中和區秀朗路三段135巷7弄14號","121.525686666667","24.9918666666667","6500300","中和區"
"235070","558-UM","2018/04/26 18:49:11","新北市中和區南山路6號","121.501975","24.9986683333333","6500300","中和區"
"235045","565-BX","2018/04/26 18:49:25","新北市中和區景安路192號","121.50433","24.9916583333333","6500300","中和區"
"235054","640-BX","2018/04/26 18:49:21","新北市中和區莒光路129巷1弄8-4號","121.472995","25.00218","6500300","中和區"
"235060","647-TV","2018/04/26 18:49:07","新北市中和區中山路三段169號","121.473125","25.00619","6500300","中和區"
"235047","732-UM","2018/04/26 18:49:13","新北市中和區興南路二段34巷56弄1號","121.504796666667","24.985225","6500300","中和區"
"235046","733-UM","2018/04/26 18:49:10","新北市中和區仁愛街36巷40號","121.511315","24.9865066666667","6500300","中和區"
"235062","800-TS","2018/04/26 18:49:23","新北市中和區景平路703巷3號","121.496108333333","25.0034616666667","6500300","中和區"
"235057","801-TS","2018/04/26 18:49:08","新北市中和區民安街23號","121.480443333333","25.0004483333333","6500300","中和區"
"235041","802-TS","2018/04/26 18:49:23","新北市中和區宜安路118巷30號","121.51116","24.9989916666667","6500300","中和區"
"235052","805-TS","2018/04/26 18:49:15","新北市中和區興南路二段399巷98弄48號","121.498913333333","24.9767333333333","6500300","中和區"
"235048","896-TW","2018/04/26 18:49:13","新北市中和區華新街34號","121.507818333333","24.984445","6500300","中和區"
"235053","900-TW","2018/04/26 18:49:17","新北市中和區華福街42巷4號","121.466316666667","24.9962766666667","6500300","中和區"
"235066","911-UM","2018/04/26 18:49:08","新北市中和區水源路7巷4號","121.504063333333","25.0036766666667","6500300","中和區"
"235051","157-BY","2018/04/26 18:49:23","新北市中和區華新街109巷11弄2-5號","121.508708333333","24.9795033333333","6500300","中和區"
"235037","AAC-213","2018/04/26 18:49:10","新北市中和區秀朗路三段128巷7弄2號","121.524516666667","24.9929533333333","6500300","中和區"
"235059","AAC-215","2018/04/26 18:49:19","新北市中和區錦和路396號","121.490928333333","24.9901533333333","6500300","中和區"
"220068","013-TV","2018/04/26 18:49:20","新北市板橋區民生路二段89-6號","121.470681666667","25.0192866666667","6500100","板橋區"
"220065","072-UY","2018/04/26 18:49:17","新北市板橋區民族路247巷5弄42號","121.470143333333","25.0085783333333","6500100","板橋區"
"220086","073-UY","2018/04/26 18:49:11","新北市板橋區大智街69號","121.453641666667","25.0155616666667","6500100","板橋區"
"220106","075-UY","2018/04/26 18:49:14","新北市板橋區民生路二段120號","121.470426666667","25.0196216666667","6500100","板橋區"
"220069","AAD-861","2018/04/26 18:49:26","新北市板橋區大華街20號","121.458868333333","25.00613","6500100","板橋區"
"226004","312-R5","2018/04/26 18:49:22","新北市平溪區靜安路二段455號","121.739193333333","25.0243683333333","6502400","平溪區"
"235072","251-BX","2018/04/26 18:49:26","新北市中和區中山路二段21號","121.504995","25.0054383333333","6500300","中和區"
"228003","097-TW","2018/04/26 18:49:15","新北市貢寮區和美里龍洞街53號","121.912368333333","25.113665","6502600","貢寮區"
"228001","212-TW","2018/04/26 18:49:14","新北市貢寮區仁理村研海街12-1號","121.923778333333","25.0517016666667","6502600","貢寮區"
"228002","585-TW","2018/04/26 18:49:21","新北市貢寮區福隆里東興街6-11號","121.950756666667","25.021085","6502600","貢寮區"
"224010","AGQ-8101","2018/04/26 18:46:26","新北市瑞芳區烏勢巷145號","121.847905","25.10916","6501200","瑞芳區"
"224006","676-BX","2018/04/26 18:49:13","新北市瑞芳區中正路65號","121.80604","25.1074616666667","6501200","瑞芳區"
"224002","639-TC","2018/04/26 18:49:18","新北市瑞芳區傑魚坑路44-1號","121.793668333333","25.1074616666667","6501200","瑞芳區"
"224008","285-BY","2018/04/26 18:49:22","新北市瑞芳區逢甲路285-1號","121.801446666667","25.1119","6501200","瑞芳區"
"224007","275-VK","2018/04/26 18:49:17","新北市瑞芳區大埔路188-1號","121.761535","25.10106","6501200","瑞芳區"
"224009","273-VK","2018/04/26 18:49:10","新北市瑞芳區祈堂路6號","121.859568333333","25.11186","6501200","瑞芳區"
"224005","271-BY","2018/04/26 18:49:22","新北市瑞芳區濱二路68-1號","121.829786666667","25.11989","6501200","瑞芳區"
"227004","642-TC","2018/04/26 18:49:19","新北市雙溪區平林里梅竹蹊23號","121.861606666667","25.0359416666667","6502500","雙溪區"
"227010","400-TW","2018/04/26 18:49:20","新北市雙溪區牡丹里聖南26號","121.856415","25.053375","6502500","雙溪區"
"253005","032-BX","2018/04/26 18:49:26","新北市石門區中山路11號","121.565793333333","25.2904533333333","6502200","石門區"
"253006","295-VK","2018/04/26 18:48:59","新北市石門區下員坑28-6號","121.515218333333","25.2832266666667","6502200","石門區"
"222001","KEA-2212","2018/04/26 18:49:25","新北市深坑區松柏街30巷2號","121.638771666667","25.0111583333333","6501800","深坑區"
"208002","KEA-2872","2018/04/26 18:49:17","新北市金山區信義路62號","121.635726666667","25.2189683333333","6502700","金山區"
"208003","665-BX","2018/04/26 18:49:13","新北市金山區中山路391號","121.63357","25.22515","6502700","金山區"
"208001","761-BX","2018/04/26 18:49:23","新北市金山區文化三路66巷1號","121.634235","25.225655","6502700","金山區"
"251009","008-UM","2018/04/26 18:49:09","新北市淡水區重建街162號","121.44067","25.1737783333333","6501000","淡水區"
"251001","011-UM","2018/04/26 18:49:13","新北市淡水區自強路275號","121.462551666667","25.1281983333333","6501000","淡水區"
"251013","179-VK","2018/04/26 18:49:24","新北市淡水區安子內5號","121.483846666667","25.2146283333333","6501000","淡水區"
"251014","180-VK","2018/04/26 18:49:11","新北市淡水區崙頂3號","121.490018333333","25.2240333333333","6501000","淡水區"
"251015","182-VK","2018/04/26 18:49:27","新北市淡水區興福寮77巷59號","121.487285","25.16348","6501000","淡水區"
"251010","413-VK","2018/04/26 18:49:16","新北市淡水區沙崙路24號","121.421306666667","25.1812566666667","6501000","淡水區"
"251012","441-VK","2018/04/26 18:49:20","新北市淡水區新興街1號","121.443915","25.180205","6501000","淡水區"
"251016","442-VK","2018/04/26 18:49:13","新北市淡水區下圭柔山71-3號","121.447015","25.2061816666667","6501000","淡水區"
"251011","650-BX","2018/04/26 18:49:20","新北市淡水區學府路14號","121.447493333333","25.167975","6501000","淡水區"
"251002","672-BX","2018/04/26 18:49:20","新北市淡水區學府路67號","121.448381666667","25.1696833333333","6501000","淡水區"
"251003","766-UM","2018/04/26 18:49:27","新北市淡水區中山北路一段212巷38號","121.446173333333","25.1790683333333","6501000","淡水區"
"207003","550-UM","2018/04/26 18:49:07","新北市萬里區大鵬里頂社1號","121.657006666667","25.2097066666667","6502800","萬里區"
"207004","225-TW","2018/04/26 18:49:09","新北市萬里區萬里里獅頭路23號","121.693186666667","25.1782516666667","6502800","萬里區"
"252002","178-VK","2018/04/26 18:49:06","新北市三芝區中正路一段112號","121.504831666667","25.256365","6502100","三芝區"
"252003","249-BX","2018/04/26 18:49:27","新北市三芝區後厝里大片頭83-3號","121.458935","25.2440716666667","6502100","三芝區"
"252001","292-VK","2018/04/26 18:49:13","新北市三芝區中正路三段9號","121.502866666667","25.2539383333333","6502100","三芝區"
"237004","KEA-2597","2018/04/26 18:49:15","新北市三峽區插角123號","121.410185","24.8706533333333","6500900","三峽區"
"237007","153-BY","2018/04/26 18:49:13","新北市三峽區中正路二段395號","121.365101666667","24.9075733333333","6500900","三峽區"
"237011","572-TV","2018/04/26 18:49:08","新北市三峽區介壽路三段245號","121.407913333333","24.94942","6500900","三峽區"
"237013","252-BX","2018/04/26 18:49:14","新北市三峽區光明路69巷25號","121.376638333333","24.9291833333333","6500900","三峽區"
"237012","275-BY","2018/04/26 18:49:13","新北市三峽區三樹路340號","121.383956666667","24.9433433333333","6500900","三峽區"
"237008","302-VK","2018/04/26 18:49:23","新北市三峽區白雞33-60號","121.370893333333","24.9131166666667","6500900","三峽區"
"237014","433-BY","2018/04/26 18:49:08","新北市三峽區復興路553號","121.356941666667","24.9404633333333","6500900","三峽區"
"237006","5529-G3","2018/04/26 18:49:16","新北市三峽區溪東路233巷4弄5號","121.406738333333","24.9336833333333","6500900","三峽區"
"237005","AKY-6261","2018/04/26 18:49:05","新北市三峽區中山路117號","121.365443333333","24.9356483333333","6500900","三峽區"
"236070","105-UM","2018/04/26 18:49:27","新北市土城區延和路21巷43號","121.463588333333","24.9893033333333","6501300","土城區"
"236042","107-UM","2018/04/26 18:49:27","新北市土城區裕民路92巷23弄14號","121.450063333333","24.98586","6501300","土城區"
"236078","166-UM","2018/04/26 18:49:24","新北市土城區中央路四段52巷10號","121.420085","24.9608833333333","6501300","土城區"
"236030","253-BX","2018/04/26 18:49:19","新北市土城區忠義路26巷19號","121.439873333333","24.9698666666667","6501300","土城區"
"236026","269-VK","2018/04/26 18:49:18","新北市土城區興城路48號","121.441391666667","24.972605","6501300","土城區"
"236014","270-VK","2018/04/26 18:49:24","新北市土城區金城路二段354巷8號","121.460861666667","24.984545","6501300","土城區"
"236038","271-VK","2018/04/26 18:49:15","新北市土城區仁愛路25-1號","121.462748333333","24.9783266666667","6501300","土城區"
"236021","401-BY","2018/04/26 18:49:05","新北市土城區延吉街251號","121.467645","24.984945","6501300","土城區"
"236059","752-BX","2018/04/26 18:49:10","新北市土城區金城路一段21號","121.439791666667","24.9690416666667","6501300","土城區"
"236049","913-UM","2018/04/26 18:49:07","新北市土城區青雲路64號","121.4596","24.9876966666667","6501300","土城區"
"236063","915-UM","2018/04/26 18:49:24","新北市土城區金城路三段207巷6弄13號","121.470776666667","24.9902533333333","6501300","土城區"
"236055","AAC-216","2018/04/26 18:49:21","新北市土城區裕民路173號","121.453221666667","24.984965","6501300","土城區"
"242058","986-R7","2018/04/26 18:49:13","新北市泰山區中山路二段453號","121.432548333333","25.0439166666667","6500500","新莊區"
"238023","601-UM","2018/04/26 18:49:21","新北市樹林區工興街14巷1號","121.39894","25.0136866666667","6500700","樹林區"
"238019","599-UM","2018/04/26 18:49:14","新北市樹林區東陽街3號","121.412728333333","24.9822516666667","6500700","樹林區"
"238018","571-TV","2018/04/26 18:49:16","新北市樹林區鎮前街347巷1弄36號","121.417865","24.98415","6500700","樹林區"
"238024","5061-A6","2018/04/26 18:49:13","新北市樹林區八德街598巷4號","121.397578333333","24.9702266666667","6500700","樹林區"
"238022","KEA-2213","2018/04/26 18:49:10","新北市樹林區東順街1號","121.412568333333","24.979045","6500700","樹林區"
"238025","303-VK","2018/04/26 18:49:13","新北市樹林區中山路三段174號","121.388623333333","24.969795","6500700","樹林區"
"238020","268-VK","2018/04/26 18:49:12","新北市樹林區俊英街83巷1號","121.425791666667","25.00805","6500700","樹林區"
"238026","172-UY","2018/04/26 18:49:09","新北市樹林區中和街6號","121.391781666667","24.9730133333333","6500700","樹林區"
"238016","169-UY","2018/04/26 18:49:06","新北市樹林區文化街17號","121.41947","24.9873316666667","6500700","樹林區"
"239008","527-UM","2018/04/26 18:49:23","新北市鶯歌區國際二路42號","121.335886666667","24.975675","6500800","鶯歌區"
"239005","526-UM","2018/04/26 18:49:18","新北市鶯歌區鳳吉三街31巷1號","121.327501666667","24.9740933333333","6500800","鶯歌區"
"239001","417-VK","2018/04/26 18:49:22","新北市鶯歌區鶯桃路39-7號","121.342386666667","24.9513466666667","6500800","鶯歌區"
"239003","360-BY","2018/04/26 18:49:13","新北市鶯歌區鶯桃路599號","121.329311666667","24.9690116666667","6500800","鶯歌區"
"239004","193-VK","2018/04/26 18:49:24","新北市鶯歌區中正三路194巷34-4號","121.330843333333","24.9422283333333","6500800","鶯歌區"
"221008","489-VK","2018/04/26 18:49:12","新北市汐止區康寧街901號","121.651376666667","25.0749616666667","6501100","汐止區"
"221036","130-UY","2018/04/26 18:49:08","新北市汐止區南昌街21號","121.663375","25.0694233333333","6501100","汐止區"
"221015","131-UY","2018/04/26 18:49:11","新北市汐止區鄉長路一段55巷7號","121.66543","25.07608","6501100","汐止區"
"221010","269-BY","2018/04/26 18:49:25","新北市汐止區汐萬路二段1號","121.649253333333","25.07985","6501100","汐止區"
"221012","278-VK","2018/04/26 18:49:25","新北市汐止區汐萬路一段256巷3號","121.653446666667","25.07476","6501100","汐止區"
"221023","279-VK","2018/04/26 18:49:26","新北市汐止區汐萬路一段256巷3號","121.653351666667","25.0747616666667","6501100","汐止區"
"221032","280-BY","2018/04/26 18:49:27","新北市汐止區民權街二段70號","121.619168333333","25.0481883333333","6501100","汐止區"
"221027","281-BY","2018/04/26 18:49:12","新北市汐止區汐萬路一段256巷3號","121.653446666667","25.0746716666667","6501100","汐止區"
"221029","298-VK","2018/04/26 18:49:26","新北市汐止區工建路66號","121.640413333333","25.0629816666667","6501100","汐止區"
"221031","353-TW","2018/04/26 18:49:25","新北市汐止區福德一路300巷2弄1號","121.63107","25.0636383333333","6501100","汐止區"
"221035","622-UM","2018/04/26 18:49:25","新北市汐止區禮門街12號","121.656683333333","25.067635","6501100","汐止區"
"221025","623-UM","2018/04/26 18:49:21","新北市汐止區仁愛路113巷6號","121.66219","25.0637783333333","6501100","汐止區"
"221038","646-BX","2018/04/26 18:49:08","新北市汐止區康寧街901號","121.650715","25.0753133333333","6501100","汐止區"
"221033","647-BX","2018/04/26 18:49:10","新北市汐止區南勢街3號","121.627076666667","25.03739","6501100","汐止區"
"221002","707-TV","2018/04/26 18:49:24","新北市汐止區大同路一段142-1號","121.631313333333","25.0553883333333","6501100","汐止區"
"221018","753-BX","2018/04/26 18:49:23","新北市汐止區茄苳路56號","121.666215","25.070705","6501100","汐止區"
"220079","145-BY","2018/04/26 18:49:28","新北市板橋區民權路202巷7弄5號","121.459841666667","25.0147983333333","6500100","板橋區"
"220080","200-UY","2018/04/26 18:49:16","新北市板橋區大觀路二段265巷18弄22號","121.441598333333","24.9983083333333","6500100","板橋區"
"220082","610-BX","2018/04/26 18:49:18","新北市板橋區篤行路三段玉平巷76弄8號","121.427673333333","24.985825","6500100","板橋區"
"220101","245-BX","2018/04/26 18:37:44","新北市板橋區民生路二段120號","121.470416666667","25.0196016666667","6500100","板橋區"
"220056","276-BY","2018/04/26 18:49:08","新北市板橋區四川路二段23-3號","121.454718333333","24.9957433333333","6500100","板橋區"
"220072","277-BY","2018/04/26 18:49:13","新北市板橋區大觀路三段36巷54弄1號","121.434523333333","24.9972533333333","6500100","板橋區"
"220071","283-VK","2018/04/26 18:49:20","新北市板橋區忠孝路176巷3號","121.464715","25.00208","6500100","板橋區"
"220094","285-UM","2018/04/26 18:49:16","新北市板橋區民生路二段161巷1號","121.470116666667","25.0198233333333","6500100","板橋區"
"220053","285-VK","2018/04/26 18:49:15","新北市板橋區民生路二段80號","121.471933333333","25.0185","6500100","板橋區"
"220083","286-VK","2018/04/26 18:49:23","新北市板橋區大觀路二段22巷31號","121.445098333333","25.00353","6500100","板橋區"
"220081","287-VK","2018/04/26 18:49:16","新北市板橋區南雅西路二段90號","121.45256","25.0112033333333","6500100","板橋區"
"220090","288-VK","2018/04/26 18:49:09","新北市板橋區民生路二段120號","121.470513333333","25.0195433333333","6500100","板橋區"
"220084","296-UM","2018/04/26 18:49:24","新北市板橋區大觀路二段150巷73-1號","121.441451666667","25.0009233333333","6500100","板橋區"
"220075","303-R5","2018/04/26 18:49:24","新北市板橋區南興路56-2號","121.454333333333","25.007335","6500100","板橋區"
"220062","305-R5","2018/04/26 18:49:10","新北市板橋區中山路二段23號","121.472378333333","25.0153166666667","6500100","板橋區"
"220092","307-R5","2018/04/26 18:49:22","新北市板橋區民生路二段120號","121.47059","25.0194883333333","6500100","板橋區"
"220098","317-R6","2018/04/26 18:49:16","新北市板橋區民生路二段161巷9號","121.4703","25.0196216666667","6500100","板橋區"
"220064","486-VK","2018/04/26 18:49:08","新北市板橋區觀光街12巷1弄2號","121.472006666667","25.0167766666667","6500100","板橋區"
"220088","491-VK","2018/04/26 18:49:18","新北市板橋區民生路二段175號","121.469931666667","25.02023","6500100","板橋區"
"220035","560-BX","2018/04/26 18:49:08","新北市板橋區中正路325巷41號","121.453435","25.0193416666667","6500100","板橋區"
"220103","561-BX","2018/04/26 18:49:22","新北市板橋區民生路二段161巷9號","121.470258333333","25.0196366666667","6500100","板橋區"
"220055","630-UY","2018/04/26 18:49:25","新北市板橋區縣民大道一段322號","121.461683333333","25.01104","6500100","板橋區"
"220091","637-BX","2018/04/26 18:49:07","新北市板橋區民生路二段161巷1號","121.470116666667","25.0199783333333","6500100","板橋區"
"220057","686-BX","2018/04/26 18:49:18","新北市板橋區華東街322號","121.452771666667","25.0031716666667","6500100","板橋區"
"220077","687-BX","2018/04/26 18:49:18","新北市板橋區龍興街103巷1號","121.444455","25.0033216666667","6500100","板橋區"
"220093","689-BX","2018/04/26 18:49:27","新北市板橋區民生路二段161巷1號","121.47003","25.0201416666667","6500100","板橋區"
"220054","741-BX","2018/04/26 18:49:25","新北市板橋區館前西路49號","121.457801666667","25.0066366666667","6500100","板橋區"
"220102","KEA-2699","2018/04/26 18:49:22","新北市板橋區民生路二段56-6號","121.471015","25.0191216666667","6500100","板橋區"
"220067","829-TW","2018/04/26 18:49:09","新北市板橋區三民路二段正隆巷50號","121.476866666667","25.0140083333333","6500100","板橋區"
"220089","833-TW","2018/04/26 18:49:08","新北市板橋區民生路二段161巷1號","121.469991666667","25.0201866666667","6500100","板橋區"
"220074","895-R6","2018/04/26 18:49:15","新北市板橋區南門街31號","121.457453333333","25.0088516666667","6500100","板橋區"
"220073","985-R7","2018/04/26 18:49:11","新北市板橋區館前西路60號","121.45824","25.00687","6500100","板橋區"
"220097","AAC-210","2018/04/26 18:46:17","新北市板橋區民生路二段120號","121.470461666667","25.01965","6500100","板橋區"
"220070","AAC-253","2018/04/26 18:49:08","新北市板橋區南雅南路一段1巷35號","121.457645","25.0064416666667","6500100","板橋區"
