"lineid","car","time","location","longitude","latitude","cityid","cityname"
"234046","148-BY","2018/04/26 19:09:39","新北市永和區永元路18巷31號","121.523813333333","25.00019","6500400","永和區"
"234007","207-UY","2018/04/26 19:09:35","新北市永和區中山路一段207號","121.508871666667","25.0084716666667","6500400","永和區"
"234081","298-R6","2018/04/26 19:09:46","新北市永和區永貞路39巷6弄1號","121.521935","25.0064016666667","6500400","永和區"
"234038","336-UY","2018/04/26 19:09:38","新北市永和區民樂街90巷2號","121.527338333333","24.9975883333333","6500400","永和區"
"234064","337-UY","2018/04/26 19:09:35","新北市永和區秀朗路二段45號","121.521655","25.0023533333333","6500400","永和區"
"234086","338-UY","2018/04/26 19:09:44","新北市永和區永貞路122號","121.518651666667","25.0044633333333","6500400","永和區"
"234070","552-UM","2018/04/26 19:09:48","新北市永和區豫溪街137巷1弄13號","121.51904","25.0104133333333","6500400","永和區"
"234067","553-UM","2018/04/26 19:09:36","新北市永和區保平路22號","121.512361666667","25.0074233333333","6500400","永和區"
"234017","745-BX","2018/04/26 19:09:32","新北市永和區文化路90巷15號","121.51377","25.0160316666667","6500400","永和區"
"234030","746-BX","2018/04/26 19:09:38","新北市永和區民生路23號","121.522818333333","24.9988266666667","6500400","永和區"
"234054","KEA-2590","2018/04/26 19:09:40","新北市永和區竹林路72巷8號","121.518736666667","25.012845","6500400","永和區"
"234013","KEA-2591","2018/04/26 19:09:31","新北市永和區中山路一段98-2號","121.511585","25.0108033333333","6500400","永和區"
"234061","AAD-866","2018/04/26 19:09:34","新北市永和區安樂路306-8號","121.514598333333","25.00537","6500400","永和區"
"234042","862-TW","2018/04/26 19:09:45","新北市永和區永貞路328-1號","121.511306666667","25.0055733333333","6500400","永和區"
"234050","863-TW","2018/04/26 19:09:29","新北市永和區文化路135巷32弄1號","121.510836666667","25.01399","6500400","永和區"
"234026","9371-KE","2018/04/26 19:09:35","新北市永和區安樂路270號","121.514485","25.0041116666667","6500400","永和區"
"234011","9373-KE","2018/04/26 19:09:30","新北市永和區仁愛路141巷30弄5號","121.511936666667","25.01158","6500400","永和區"
"249005","172-UM","2018/04/26 19:09:28","新北市八里區中華路三段145巷9號","121.39229","25.1331866666667","6502300","八里區"
"249001","173-UM","2018/04/26 19:09:39","新北市八里區龍米路二段228-7號","121.432338333333","25.1585233333333","6502300","八里區"
"249003","593-UM","2018/04/26 19:09:36","新北市八里區博物館路10-1號","121.414983333333","25.16391","6502300","八里區"
"248016","026-BX","2018/04/26 19:09:35","新北市五股區成泰路三段543巷32號","121.450651666667","25.1026633333333","6501500","五股區"
"248020","225-UY","2018/04/26 19:00:03","新北市五股區凌雲路三段57號","121.425323333333","25.1250216666667","6501500","五股區"
"248012","247-BX","2018/04/26 19:09:26","新北市五股區中興路四段48巷11號","121.43856","25.0835216666667","6501500","五股區"
"248010","272-BY","2018/04/26 19:09:46","新北市五股區水碓一路23號","121.43056","25.07133","6501500","五股區"
"248004","677-BX","2018/04/26 19:09:46","新北市五股區五福路7號","121.434146666667","25.0876666666667","6501500","五股區"
"248002","678-BX","2018/04/26 19:09:41","新北市五股區凌雲路一段158巷14-1號","121.447806666667","25.1035283333333","6501500","五股區"
"234023","9380-KE","2018/04/26 19:09:29","新北市永和區中興街133巷4號","121.518663333333","25.0125466666667","6500400","永和區"
"234077","969-R7","2018/04/26 19:09:43","新北市永和區民族街45-1號","121.518633333333","24.9983483333333","6500400","永和區"
"234074","AAC-211","2018/04/26 19:09:33","新北市永和區竹林路198號","121.52044","25.009635","6500400","永和區"
"234003","AAC-295","2018/04/26 19:09:39","新北市永和區保福路一段86號","121.512275","25.0103233333333","6500400","永和區"
"232011","375-UM","2018/04/26 19:09:44","新北市坪林區北宜路八段553號","121.71755","24.9098483333333","6502000","坪林區"
"244013","069-UM","2018/04/26 19:09:28","新北市林口區麗園二街1巷3-1號","121.376975","25.070245","6501700","林口區"
"244019","742-UY","2018/04/26 19:09:46","新北市林口區麗園二街1巷2號","121.37735","25.07008","6501700","林口區"
"244023","483-VK","2018/04/26 19:09:42","新北市林口區文化三路一段555巷50號","121.369826666667","25.07694","6501700","林口區"
"244017","485-VK","2018/04/26 19:09:35","新北市林口區忠孝路132-1號","121.367556666667","25.07316","6501700","林口區"
"244011","701-TV","2018/04/26 19:09:36","新北市林口區中山路276號","121.382581666667","25.0810633333333","6501700","林口區"
"243012","AAD-798","2018/04/26 19:09:47","新北市泰山區辭修路34巷1號","121.428638333333","25.0579616666667","6501600","泰山區"
"243011","297-R6","2018/04/26 19:09:39","新北市泰山區明志路二段372巷2號","121.425326666667","25.0449483333333","6501600","泰山區"
"243015","380-SR","2018/04/26 19:09:33","新北市泰山區明志路一段395號","121.430841666667","25.0574566666667","6501600","泰山區"
"243014","421-VK","2018/04/26 19:09:49","新北市泰山區泰林路二段328號","121.429991666667","25.063125","6501600","泰山區"
"243010","KEA-2215","2018/04/26 19:09:39","新北市泰山區明志路一段483巷1弄1號","121.431106666667","25.0554566666667","6501600","泰山區"
"243009","KEA-2216","2018/04/26 19:09:42","新北市泰山區明志路一段117巷9號","121.434143333333","25.06353","6501600","泰山區"
"243013","646-TV","2018/04/26 19:09:34","新北市泰山區明志路三段231巷2弄1號","121.424016666667","25.037565","6501600","泰山區"
"243016","680-BX","2018/04/26 19:09:40","新北市泰山區明志路三段2號","121.424556666667","25.0436183333333","6501600","泰山區"
"222003","436-BY","2018/04/26 19:09:41","新北市深坑區深南路162號","121.626105","25.01499","6501800","深坑區"
"222002","659-BX","2018/04/26 19:09:27","新北市深坑區北深路一段288號","121.628696666667","25.0080933333333","6501800","深坑區"
"231041","002-UM","2018/04/26 19:09:29","新北市新店區溪園路405號","121.524043333333","24.9781883333333","6500600","新店區"
"231040","047-UY","2018/04/26 19:09:33","新北市新店區三民路98-3號","121.533955","24.9733966666667","6500600","新店區"
"231044","106-UY","2018/04/26 19:09:40","新北市新店區中興路三段221-1號","121.543273333333","24.9826016666667","6500600","新店區"
"231046","107-UY","2018/04/26 19:09:28","新北市新店區華潭街24號","121.52915","24.953205","6500600","新店區"
"231052","108-UY","2018/04/26 19:09:44","新北市新店區自強路109號","121.54613","24.9232983333333","6500600","新店區"
"231047","187-VK","2018/04/26 19:09:46","新北市新店區德正街27巷29弄45號","121.545758333333","24.97206","6500600","新店區"
"231054","KEA-2219","2018/04/26 19:09:44","新北市新店區新店路166號","121.53714","24.955665","6500600","新店區"
"231042","268-BY","2018/04/26 19:09:32","新北市新店區中興路一段167號","121.542716666667","24.9644016666667","6500600","新店區"
"231051","278-BY","2018/04/26 19:09:46","新北市新店區中正路400巷14號","121.535146666667","24.9779633333333","6500600","新店區"
"231050","AAD-862","2018/04/26 19:09:37","新北市新店區竹林路2巷29弄7號","121.550391666667","24.95026","6500600","新店區"
"231059","355-BY","2018/04/26 19:09:38","新北市新店區安和路二段87號","121.518551666667","24.96909","6500600","新店區"
"231058","3713-VJ","2018/04/26 19:09:37","新北市新店區光明街138巷13弄11號","121.540036666667","24.9615933333333","6500600","新店區"
"231066","4716-K9","2018/04/26 19:09:29","新北市新店區安康路三段363號","121.484056666667","24.9507566666667","6500600","新店區"
"231056","4715-K9","2018/04/26 19:09:37","新北市新店區二十張路46巷37弄7號","121.536283333333","24.9819366666667","6500600","新店區"
"231067","4772-VM","2018/04/26 19:09:48","新北市新店區柴埕路38-8號","121.513303333333","24.96497","6500600","新店區"
"231065","512-UM","2018/04/26 19:09:44","新北市新店區安祥路109巷6弄55號","121.475635","24.9569766666667","6500600","新店區"
"231049","513-UM","2018/04/26 19:09:45","新北市新店區二十張路25巷18弄2號","121.539223333333","24.981765","6500600","新店區"
"231061","619-UM","2018/04/26 19:09:40","新北市新店區安康路一段355-10號","121.520825","24.9637866666667","6500600","新店區"
"231063","641-BX","2018/04/26 19:09:50","新北市新店區車子路121號","121.505253333333","24.950785","6500600","新店區"
"231064","719-UM","2018/04/26 19:09:23","新北市新店區安忠路75號","121.511193333333","24.9572566666667","6500600","新店區"
"231062","720-UM","2018/04/26 19:09:37","新北市新店區安平路53號","121.519673333333","24.9684033333333","6500600","新店區"
"231060","897-TW","2018/04/26 19:09:36","新北市新店區安康路二段149-1號","121.51098","24.9597316666667","6500600","新店區"
"231045","898-TW","2018/04/26 19:09:42","新北市新店區北宜路一段164號","121.54049","24.9533633333333","6500600","新店區"
"231043","899-TW","2018/04/26 19:09:27","新北市新店區寶橋路48號","121.545816666667","24.974895","6500600","新店區"
"241035","462-BY","2018/04/26 19:09:43","新北市三重區新北大道一段3-1號","121.489966666667","25.0615933333333","6500200","三重區"
"241026","887-TS","2018/04/26 19:09:47","新北市三重區泉州街86-4號","121.494698333333","25.054225","6500200","三重區"
"241029","942-UM","2018/04/26 19:09:39","新北市三重區集美街257號","121.49241","25.0556733333333","6500200","三重區"
"235064","005-UY","2018/04/26 19:09:50","新北市中和區連城路45號","121.498185","25.0017716666667","6500300","中和區"
"235063","006-UY","2018/04/26 19:09:26","新北市中和區中正路632號","121.485383333333","24.9960416666667","6500300","中和區"
"235049","031-BX","2018/04/26 19:09:29","新北市中和區明禮街13號","121.504915","24.9958433333333","6500300","中和區"
"235056","096-UM","2018/04/26 19:09:37","新北市中和區員山路538號","121.478851666667","25.010025","6500300","中和區"
"235039","097-UM","2018/04/26 19:09:41","新北市永和區民有街19號","121.516615","24.99668","6500300","中和區"
"235065","098-UM","2018/04/26 19:09:40","新北市中和區莊敬路31巷2號","121.500541666667","25.004775","6500300","中和區"
"235040","150-BY","2018/04/26 19:09:41","新北市中和區宜安路78號","121.511083333333","24.9973333333333","6500300","中和區"
"235058","151-BY","2018/04/26 19:09:43","新北市中和區員山路139號","121.480826666667","24.9960533333333","6500300","中和區"
"235055","183-VK","2018/04/26 19:09:29","新北市中和區莒光路2號","121.471606666667","25.004635","6500300","中和區"
"235038","185-VK","2018/04/26 19:09:39","新北市中和區大仁街10巷42號","121.519001666667","24.992475","6500300","中和區"
"235067","255-BX","2018/04/26 19:09:45","新北市中和區新生街178號","121.48372","24.9999666666667","6500300","中和區"
"235044","293-VK","2018/04/26 19:09:37","新北市中和區中興街228巷6號","121.50065","24.98978","6500300","中和區"
"235043","352-BY","2018/04/26 19:09:34","新北市中和區景平路120號","121.519293333333","24.9916833333333","6500300","中和區"
"235068","377-QA","2018/04/26 19:09:29","新北市中和區圓通路207號","121.49721","24.9944666666667","6500300","中和區"
"235061","378-QA","2018/04/26 19:09:34","新北市中和區員山路394巷10號","121.481213333333","25.004575","6500300","中和區"
"235050","4979-A6","2018/04/26 19:09:28","新北市中和區復興路249巷11弄3號","121.503536666667","24.989675","6500300","中和區"
"235069","4980-A6","2018/04/26 19:09:30","新北市中和區中和路217巷10號","121.504418333333","25.000475","6500300","中和區"
"235042","551-UM","2018/04/26 19:09:38","新北市中和區自立路117巷2弄6號","121.522283333333","24.9942316666667","6500300","中和區"
"235070","558-UM","2018/04/26 19:09:31","新北市中和區中和路135號","121.501766666667","24.9998616666667","6500300","中和區"
"235045","565-BX","2018/04/26 19:09:45","新北市中和區景新街467巷15弄11號","121.513751666667","24.988705","6500300","中和區"
"235054","640-BX","2018/04/26 19:09:41","新北市中和區國光街30號","121.471516666667","25.0001383333333","6500300","中和區"
"235060","647-TV","2018/04/26 19:09:27","新北市中和區民享街66號","121.474131666667","25.0020566666667","6500300","中和區"
"235047","732-UM","2018/04/26 19:09:33","新北市中和區興南路一段113號","121.509113333333","24.98794","6500300","中和區"
"235046","733-UM","2018/04/26 19:09:50","新北市中和區忠孝街1巷45號","121.508478333333","24.9841116666667","6500300","中和區"
"235071","783-BX","2018/04/26 19:09:36","新北市中和區連城路314號","121.48353","24.9961933333333","6500300","中和區"
"235062","800-TS","2018/04/26 19:09:43","新北市中和區中山路二段526巷25弄3號","121.485585","25.005735","6500300","中和區"
"235057","801-TS","2018/04/26 19:09:28","新北市中和區民利街72號","121.478453333333","24.9983583333333","6500300","中和區"
"235041","802-TS","2018/04/26 19:09:43","新北市永和區中和路307號","121.506656666667","24.9996233333333","6500300","中和區"
"235052","805-TS","2018/04/26 19:09:35","新北市中和區興南路二段142巷19弄22號","121.502738333333","24.9835833333333","6500300","中和區"
"235048","896-TW","2018/04/26 19:09:33","新北市中和區忠孝街28號","121.510593333333","24.9830866666667","6500300","中和區"
"235053","900-TW","2018/04/26 19:09:37","新北市中和區華福街86號","121.467488333333","24.9964416666667","6500300","中和區"
"235066","911-UM","2018/04/26 19:09:48","新北市中和區廣福路32號","121.504683333333","25.0022116666667","6500300","中和區"
"235051","157-BY","2018/04/26 19:09:33","新北市中和區忠孝街31巷56號","121.509716666667","24.9857616666667","6500300","中和區"
"235037","AAC-213","2018/04/26 19:09:30","新北市中和區秀朗路三段60巷33號","121.525238333333","24.99493","6500300","中和區"
"235059","AAC-215","2018/04/26 19:09:39","新北市中和區圓通路296巷23號","121.48798","24.9897833333333","6500300","中和區"
"220068","013-TV","2018/04/26 19:09:40","新北市板橋區中山路二段443巷76號","121.480733333333","25.0222316666667","6500100","板橋區"
"220065","072-UY","2018/04/26 19:09:40","新北市板橋區海山路11號","121.469218333333","25.009295","6500100","板橋區"
"220086","073-UY","2018/04/26 19:09:30","新北市板橋區中正路216巷142號","121.460316666667","25.0193216666667","6500100","板橋區"
"220106","075-UY","2018/04/26 19:09:34","新北市板橋區文化路二段319號","121.472243333333","25.0298766666667","6500100","板橋區"
"220069","AAD-861","2018/04/26 19:09:46","新北市板橋區四川路一段136號","121.45987","25.0037866666667","6500100","板橋區"
"226004","312-R5","2018/04/26 19:09:43","新北市平溪區靜安路三段258號","121.77614","25.0403266666667","6502400","平溪區"
"235072","251-BX","2018/04/26 19:09:25","新北市中和區永和路39巷2號","121.498035","25.0050733333333","6500300","中和區"
"228003","097-TW","2018/04/26 19:09:35","新北市貢寮區和美里和美街40號","121.91238","25.08968","6502600","貢寮區"
"228001","212-TW","2018/04/26 19:09:34","新北市貢寮區真理里新港街10號","121.925538333333","25.054425","6502600","貢寮區"
"228002","585-TW","2018/04/26 19:09:41","新北市貢寮區福隆里福隆街32-1號","121.945035","25.01744","6502600","貢寮區"
"224010","AGQ-8101","2018/04/26 19:08:46","新北市瑞芳區基山街121號","121.84424","25.1085883333333","6501200","瑞芳區"
"224006","676-BX","2018/04/26 19:09:33","新北市瑞芳區三爪子坑路220號","121.805873333333","25.1056","6501200","瑞芳區"
"224008","285-BY","2018/04/26 19:09:42","新北市瑞芳區瑞芳街82-1號","121.803128333333","25.1100066666667","6501200","瑞芳區"
"224007","275-VK","2018/04/26 19:09:37","新北市瑞芳區瑞竹路46號","121.763545","25.10339","6501200","瑞芳區"
"224009","273-VK","2018/04/26 19:09:30","新北市瑞芳區洞頂路101巷49號","121.86056","25.1203383333333","6501200","瑞芳區"
"224005","271-BY","2018/04/26 19:09:42","新北市瑞芳區三爪子坑路41號","121.813161666667","25.10741","6501200","瑞芳區"
"227004","642-TC","2018/04/26 19:09:39","新北市雙溪區平林里外平林9-3號","121.859306666667","25.0379733333333","6502500","雙溪區"
"227010","400-TW","2018/04/26 19:09:40","新北市雙溪區牡丹里中正路46-2號","121.865","25.038955","6502500","雙溪區"
"253005","032-BX","2018/04/26 19:09:26","新北市石門區阿里荖41號","121.605413333333","25.2804466666667","6502200","石門區"
"253006","295-VK","2018/04/26 19:09:39","新北市石門區海灣新城19號","121.525908333333","25.284815","6502200","石門區"
"222001","KEA-2212","2018/04/26 19:09:45","新北市深坑區北深路一段300號","121.624273333333","25.005635","6501800","深坑區"
"208002","KEA-2872","2018/04/26 19:09:37","新北市金山區仁愛路67巷6號","121.634526666667","25.22097","6502700","金山區"
"208003","665-BX","2018/04/26 19:09:33","新北市金山區中正路105-1號","121.63269","25.2215483333333","6502700","金山區"
"208001","761-BX","2018/04/26 19:09:43","新北市金山區金包里街64號","121.63925","25.221435","6502700","金山區"
"251009","008-UM","2018/04/26 19:09:30","新北市淡水區清水街158號","121.441121666667","25.1704433333333","6501000","淡水區"
"251005","010-UM","2018/04/26 19:09:44","新北市淡水區原德路11號","121.442085","25.171225","6501000","淡水區"
"251001","011-UM","2018/04/26 19:09:33","新北市淡水區自強路201巷43號","121.46208","25.1268633333333","6501000","淡水區"
"251013","179-VK","2018/04/26 19:09:32","新北市淡水區安子內12號","121.481568333333","25.219075","6501000","淡水區"
"251014","180-VK","2018/04/26 19:09:30","新北市淡水區小中寮19-7號","121.484753333333","25.2296566666667","6501000","淡水區"
"251015","182-VK","2018/04/26 19:09:47","新北市淡水區南勢埔22-1號","121.482973333333","25.1790116666667","6501000","淡水區"
"251010","413-VK","2018/04/26 19:09:36","新北市淡水區中正路一段156巷10-3號","121.421418333333","25.18015","6501000","淡水區"
"251016","442-VK","2018/04/26 19:09:33","新北市淡水區淡金路三段70巷1號","121.448296666667","25.20038","6501000","淡水區"
"251006","561-UM","2018/04/26 19:09:43","新北市淡水區下圭柔山91-4號","121.428923333333","25.2079966666667","6501000","淡水區"
"251007","577-R6","2018/04/26 19:09:39","新北市淡水區民生路145巷35號","121.466841666667","25.1389483333333","6501000","淡水區"
"251002","672-BX","2018/04/26 19:09:45","新北市淡水區中山路95巷2號","121.442071666667","25.1705633333333","6501000","淡水區"
"251003","766-UM","2018/04/26 19:09:27","新北市淡水區中山北路一段117號","121.442613333333","25.176785","6501000","淡水區"
"207003","550-UM","2018/04/26 19:09:47","新北市萬里區大鵬里萬里加投18-3號","121.649951666667","25.2097666666667","6502800","萬里區"
"207004","225-TW","2018/04/26 19:09:29","新北市萬里區萬里里瑪鋉下街46-1號","121.691456666667","25.1792466666667","6502800","萬里區"
"252002","178-VK","2018/04/26 19:09:46","新北市三芝區埔坪里埔頭坑84號","121.50806","25.2542883333333","6502100","三芝區"
"252003","249-BX","2018/04/26 19:09:27","新北市三芝區錫板里南勢崗8號","121.479243333333","25.2616233333333","6502100","三芝區"
"252001","292-VK","2018/04/26 19:09:33","新北市三芝區長勤街45巷2號","121.500321666667","25.255125","6502100","三芝區"
"237004","KEA-2597","2018/04/26 19:09:35","新北市三峽區有木150-1號","121.448715","24.8468833333333","6500900","三峽區"
"237007","153-BY","2018/04/26 19:09:33","新北市三峽區中正路二段42巷84號","121.364306666667","24.92052","6500900","三峽區"
"237011","572-TV","2018/04/26 19:09:29","新北市三峽區介壽路一段522號","121.386225","24.932965","6500900","三峽區"
"237009","210-TH","2018/04/26 19:09:32","新北市三峽區文化路208號","121.368971666667","24.9360066666667","6500900","三峽區"
"237013","252-BX","2018/04/26 19:09:34","新北市三峽區光明路69巷35號","121.377053333333","24.92922","6500900","三峽區"
"237012","275-BY","2018/04/26 19:09:33","新北市三峽區三樹路222巷236弄23號","121.391416666667","24.9430483333333","6500900","三峽區"
"237008","302-VK","2018/04/26 19:09:42","新北市三峽區大同路166號","121.372791666667","24.9267116666667","6500900","三峽區"
"237014","433-BY","2018/04/26 19:09:28","新北市三峽區中山路257巷39號","121.362076666667","24.936385","6500900","三峽區"
"237006","5529-G3","2018/04/26 19:09:36","新北市三峽區橫溪路99巷18-5號","121.400923333333","24.9359633333333","6500900","三峽區"
"237005","AKY-6261","2018/04/26 19:09:45","新北市三峽區中山路459巷163-3號","121.348655","24.9329083333333","6500900","三峽區"
"236070","105-UM","2018/04/26 19:09:47","新北市土城區裕生路84巷10號","121.446818333333","24.9855666666667","6501300","土城區"
"236078","166-UM","2018/04/26 19:09:43","新北市土城區中央路四段224號","121.415543333333","24.9572066666667","6501300","土城區"
"236026","269-VK","2018/04/26 19:09:38","新北市土城區中央路二段189巷24號","121.442996666667","24.9756433333333","6501300","土城區"
"236014","270-VK","2018/04/26 19:09:43","新北市土城區學府路一段75巷12號","121.45716","24.9877816666667","6501300","土城區"
"236038","271-VK","2018/04/26 19:09:35","新北市土城區清水路139號","121.458206666667","24.9817466666667","6501300","土城區"
"236021","401-BY","2018/04/26 19:09:45","新北市土城區延峰街29巷2號","121.469495","24.98501","6501300","土城區"
"236059","752-BX","2018/04/26 19:09:30","新北市土城區金城路一段135號","121.445111666667","24.9740166666667","6501300","土城區"
"236049","913-UM","2018/04/26 19:09:47","新北市土城區明德路一段398-1號","121.453661666667","24.9790616666667","6501300","土城區"
"236063","915-UM","2018/04/26 19:09:44","新北市土城區金城路三段75號","121.466601666667","24.9871516666667","6501300","土城區"
"236055","AAC-216","2018/04/26 19:09:45","新北市土城區學府路一段169號","121.452675","24.9854516666667","6501300","土城區"
"238015","755-BX","2018/04/26 19:09:39","新北市樹林區備內街99-4號","121.407496666667","24.9893966666667","6500700","樹林區"
"238023","601-UM","2018/04/26 19:09:41","新北市樹林區大慶街21號","121.397161666667","25.0143733333333","6500700","樹林區"
"238019","599-UM","2018/04/26 19:09:34","新北市樹林區東華街70巷1號","121.4153","24.9813766666667","6500700","樹林區"
"238018","571-TV","2018/04/26 19:09:36","新北市樹林區中華路124號","121.41765","24.980445","6500700","樹林區"
"238022","KEA-2213","2018/04/26 19:09:30","新北市樹林區中山路二段151巷8弄37號","121.405938333333","24.9774866666667","6500700","樹林區"
"238021","KEA-2539","2018/04/26 19:09:26","新北市樹林區柑園街二段328巷2弄5號","121.372923333333","24.9520233333333","6500700","樹林區"
"238025","303-VK","2018/04/26 19:09:33","新北市樹林區中山路三段96號","121.393008333333","24.9722466666667","6500700","樹林區"
"238017","283-BY","2018/04/26 19:09:33","新北市樹林區福德街3號","121.40175","24.975685","6500700","樹林區"
"238014","282-BY","2018/04/26 19:09:27","新北市樹林區中正路22-1號","121.427753333333","24.9994966666667","6500700","樹林區"
"238020","268-VK","2018/04/26 19:09:32","新北市樹林區俊英街133巷1弄4號","121.42387","25.0112866666667","6500700","樹林區"
"238026","172-UY","2018/04/26 19:09:49","新北市樹林區佳園路一段71號","121.393261666667","24.970345","6500700","樹林區"
"238016","169-UY","2018/04/26 19:09:45","新北市樹林區文化街25巷15號","121.418521666667","24.9865516666667","6500700","樹林區"
"239006","891-R6","2018/04/26 19:09:34","新北市鶯歌區鶯桃路296巷95號","121.336505","24.9617216666667","6500800","鶯歌區"
"239008","527-UM","2018/04/26 19:09:43","新北市鶯歌區國際二路4巷8號","121.338906666667","24.9732683333333","6500800","鶯歌區"
"239005","526-UM","2018/04/26 19:09:38","新北市鶯歌區鳳吉一街113號","121.327593333333","24.97462","6500800","鶯歌區"
"239001","417-VK","2018/04/26 19:09:42","新北市鶯歌區鶯桃路167號","121.337133333333","24.9552333333333","6500800","鶯歌區"
"239003","360-BY","2018/04/26 19:09:33","新北市鶯歌區鶯桃路367號","121.333801666667","24.9628383333333","6500800","鶯歌區"
"239004","193-VK","2018/04/26 19:09:43","新北市鶯歌區中正三路390-2號","121.326625","24.934845","6500800","鶯歌區"
"221008","489-VK","2018/04/26 19:09:39","新北市汐止區康寧街466號","121.631896666667","25.0681816666667","6501100","汐止區"
"221036","130-UY","2018/04/26 19:09:48","新北市汐止區汐萬路一段256巷3號","121.653343333333","25.074445","6501100","汐止區"
"221015","131-UY","2018/04/26 19:09:31","新北市汐止區汐萬路一段256巷3號","121.65334","25.07478","6501100","汐止區"
"221010","269-BY","2018/04/26 19:09:45","新北市汐止區康寧街901號","121.651508333333","25.0749516666667","6501100","汐止區"
"221012","278-VK","2018/04/26 19:09:45","新北市汐止區康寧街901號","121.650751666667","25.0752266666667","6501100","汐止區"
"221023","279-VK","2018/04/26 19:09:45","新北市汐止區康寧街901號","121.651003333333","25.0751966666667","6501100","汐止區"
"221032","280-BY","2018/04/26 19:09:47","新北市汐止區橫科路403巷18號","121.625183333333","25.047535","6501100","汐止區"
"221027","281-BY","2018/04/26 19:09:32","新北市汐止區康寧街901號","121.651408333333","25.0749616666667","6501100","汐止區"
"221029","298-VK","2018/04/26 19:09:46","新北市汐止區汐萬路一段256巷3號","121.652446666667","25.074615","6501100","汐止區"
"221031","353-TW","2018/04/26 19:09:45","新北市汐止區福德一路1號","121.639193333333","25.07015","6501100","汐止區"
"221025","623-UM","2018/04/26 19:09:41","新北市汐止區康寧街901號","121.651606666667","25.0749466666667","6501100","汐止區"
"221038","646-BX","2018/04/26 19:09:28","新北市汐止區汐萬路一段312號","121.650693333333","25.075285","6501100","汐止區"
"221033","647-BX","2018/04/26 19:09:50","新北市汐止區南勢街3號","121.62706","25.0373666666667","6501100","汐止區"
"221002","707-TV","2018/04/26 19:09:45","新北市汐止區環河街189巷5號","121.626988333333","25.053835","6501100","汐止區"
"220079","145-BY","2018/04/26 19:09:36","新北市板橋區民權路302巷19號","121.457856666667","25.0164516666667","6500100","板橋區"
"220080","200-UY","2018/04/26 19:09:42","新北市板橋區大觀路二段3巷3號","121.447511666667","25.0038566666667","6500100","板橋區"
"220082","610-BX","2018/04/26 19:09:37","新北市板橋區溪崑二街35號","121.428438333333","24.991115","6500100","板橋區"
"220101","245-BX","2018/04/26 19:09:45","新北市板橋區萬板路15號","121.470571666667","25.0210333333333","6500100","板橋區"
"220056","276-BY","2018/04/26 19:09:45","新北市板橋區信義路74巷1弄1號","121.457251666667","24.9932066666667","6500100","板橋區"
"220072","277-BY","2018/04/26 19:09:48","新北市板橋區金門街362號","121.427488333333","24.9840516666667","6500100","板橋區"
"220071","283-VK","2018/04/26 19:09:40","新北市板橋區重慶路269巷67-3號","121.465288333333","24.9987466666667","6500100","板橋區"
"220094","285-UM","2018/04/26 19:09:37","新北市板橋區光武街112號","121.465676666667","25.0292366666667","6500100","板橋區"
"220053","285-VK","2018/04/26 19:09:35","新北市板橋區懷仁街35巷1號","121.476701666667","25.01962","6500100","板橋區"
"220083","286-VK","2018/04/26 19:09:44","新北市板橋區龍興街97巷5號","121.443898333333","25.0027183333333","6500100","板橋區"
"220081","287-VK","2018/04/26 19:09:36","新北市板橋區南雅西路二段110巷16號","121.452563333333","25.0125883333333","6500100","板橋區"
"220090","288-VK","2018/04/26 19:09:29","新北市板橋區裕民街47號","121.461408333333","25.0285633333333","6500100","板橋區"
"220061","295-UM","2018/04/26 19:09:31","新北市板橋區中山路二段295巷23號","121.477976666667","25.0186533333333","6500100","板橋區"
"220084","296-UM","2018/04/26 19:09:44","新北市板橋區溪崑一街28號","121.42999","24.9911066666667","6500100","板橋區"
"220075","303-R5","2018/04/26 19:09:46","新北市板橋區南雅南路一段4巷8號","121.455046666667","25.0053633333333","6500100","板橋區"
"220062","305-R5","2018/04/26 19:09:30","新北市板橋區三民路二段245巷2弄24-1號","121.480791666667","25.01183","6500100","板橋區"
"220092","307-R5","2018/04/26 19:09:42","新北市板橋區文化路二段225巷60弄23號","121.469116666667","25.0290466666667","6500100","板橋區"
"220098","317-R6","2018/04/26 19:09:37","新北市板橋區自由路51巷14弄10號","121.464653333333","25.0237933333333","6500100","板橋區"
"220064","486-VK","2018/04/26 19:09:46","新北市板橋區板新路27號","121.474758333333","25.012985","6500100","板橋區"
"220088","491-VK","2018/04/26 19:09:38","新北市板橋區文化路二段182巷1弄16號","121.47157","25.0278916666667","6500100","板橋區"
"220035","560-BX","2018/04/26 19:09:48","新北市板橋區中正路326巷13號","121.455115","25.0222616666667","6500100","板橋區"
"220103","561-BX","2018/04/26 19:09:42","新北市板橋區文化路一段188巷9弄114號","121.468665","25.0193616666667","6500100","板橋區"
"220063","609-BX","2018/04/26 19:09:46","新北市板橋區三民路二段141號","121.479195","25.01519","6500100","板橋區"
"220055","630-UY","2018/04/26 19:09:45","新北市板橋區新民街7巷27號","121.46367","25.0105083333333","6500100","板橋區"
"220091","637-BX","2018/04/26 19:09:47","新北市板橋區縣民大道247巷43號","121.48209","25.0270183333333","6500100","板橋區"
"220057","686-BX","2018/04/26 19:09:38","新北市板橋區重慶路319號","121.463826666667","24.9985833333333","6500100","板橋區"
"220077","687-BX","2018/04/26 19:09:38","新北市板橋區大觀路二段123號","121.445901666667","25.0013716666667","6500100","板橋區"
"220093","689-BX","2018/04/26 19:09:27","新北市板橋區民生路三段205號","121.465123333333","25.0278383333333","6500100","板橋區"
"220054","741-BX","2018/04/26 19:09:45","新北市板橋區重慶路89巷53號","121.463358333333","25.0065083333333","6500100","板橋區"
"220102","KEA-2699","2018/04/26 19:09:41","新北市板橋區田單街2巷29號","121.482145","25.02806","6500100","板橋區"
"220067","829-TW","2018/04/26 19:09:43","新北市板橋區中山路二段90巷43弄2號","121.476485","25.0148283333333","6500100","板橋區"
"220096","830-TW","2018/04/26 19:09:37","新北市板橋區雙十路二段35號","121.47667","25.0258083333333","6500100","板橋區"
"220089","833-TW","2018/04/26 19:09:48","新北市板橋區文化路二段328號","121.472736666667","25.030155","6500100","板橋區"
"220074","895-R6","2018/04/26 19:09:27","新北市板橋區中正路自強新村45-1號","121.454818333333","25.0140083333333","6500100","板橋區"
"220073","985-R7","2018/04/26 19:09:31","新北市板橋區中正路225號","121.456078333333","25.0178216666667","6500100","板橋區"
"220097","AAC-210","2018/04/26 19:09:36","新北市板橋區新海路135巷2號","121.459923333333","25.0229116666667","6500100","板橋區"
"220070","AAC-253","2018/04/26 19:09:48","新北市板橋區忠孝路52號","121.460848333333","25.0019116666667","6500100","板橋區"
