"lineid","car","time","location","longitude","latitude","cityid","cityname"
"234046","148-BY","2018/04/26 19:19:39","新北市永和區得和路376號","121.524625","24.9993616666667","6500400","永和區"
"234007","207-UY","2018/04/26 19:19:35","新北市永和區中山路一段277號","121.506933333333","25.0071266666667","6500400","永和區"
"234081","298-R6","2018/04/26 19:19:39","新北市永和區福和路7巷12弄1號","121.525378333333","25.0074866666667","6500400","永和區"
"234038","336-UY","2018/04/26 19:19:46","新北市永和區成功路二段121巷11號","121.527386666667","24.9985016666667","6500400","永和區"
"234064","337-UY","2018/04/26 19:19:35","新北市永和區永元路17巷19號","121.521283333333","25.0009133333333","6500400","永和區"
"234086","338-UY","2018/04/26 19:19:39","新北市永和區永利路69號","121.519595","25.0049933333333","6500400","永和區"
"234070","552-UM","2018/04/26 19:19:48","新北市永和區中正路700號","121.516331666667","25.0097933333333","6500400","永和區"
"234067","553-UM","2018/04/26 19:19:41","新北市永和區保平路50巷8弄2號","121.511161666667","25.007395","6500400","永和區"
"234017","745-BX","2018/04/26 19:19:32","新北市永和區文化路144巷31弄3號","121.512348333333","25.0166566666667","6500400","永和區"
"234030","746-BX","2018/04/26 19:19:38","新北市永和區厚德街85號","121.524151666667","24.998715","6500400","永和區"
"234054","KEA-2590","2018/04/26 19:19:33","新北市永和區中興街28號","121.516178333333","25.011765","6500400","永和區"
"234013","KEA-2591","2018/04/26 19:19:31","新北市永和區信義路77號","121.51238","25.01321","6500400","永和區"
"234061","AAD-866","2018/04/26 19:19:33","新北市永和區秀朗路一段175號","121.516993333333","25.00374","6500400","永和區"
"234042","862-TW","2018/04/26 19:19:45","新北市永和區保平路151巷2弄7-2號","121.509695","25.0052183333333","6500400","永和區"
"234050","863-TW","2018/04/26 19:19:49","新北市永和區保福路二段88巷29號","121.512026666667","25.0137916666667","6500400","永和區"
"234026","9371-KE","2018/04/26 19:19:35","新北市永和區安樂路144巷20號","121.515086666667","24.9997383333333","6500400","永和區"
"234011","9373-KE","2018/04/26 19:19:29","新北市永和區保福路二段23巷19號","121.510098333333","25.0112","6500400","永和區"
"249005","172-UM","2018/04/26 19:19:47","新北市八里區中華路三段170-1號","121.392178333333","25.1303783333333","6502300","八里區"
"249001","173-UM","2018/04/26 19:19:39","新北市八里區文昌路122號","121.409341666667","25.1581333333333","6502300","八里區"
"249003","593-UM","2018/04/26 19:19:36","新北市八里區中山路二段468號","121.398851666667","25.1472683333333","6502300","八里區"
"248020","225-UY","2018/04/26 19:00:03","新北市五股區凌雲路三段57號","121.425323333333","25.1250216666667","6501500","五股區"
"248012","247-BX","2018/04/26 19:19:46","新北市五股區中興路四段48巷16號","121.43861","25.0834766666667","6501500","五股區"
"248010","272-BY","2018/04/26 19:19:46","新北市五股區水碓一路23號","121.430538333333","25.0712733333333","6501500","五股區"
"248004","677-BX","2018/04/26 19:19:25","新北市五股區五福路93號","121.432166666667","25.0904466666667","6501500","五股區"
"248002","678-BX","2018/04/26 19:19:41","新北市五股區凌雲路一段158巷14-1號","121.447811666667","25.1034766666667","6501500","五股區"
"234023","9380-KE","2018/04/26 19:19:29","新北市永和區竹林路124巷40號","121.518033333333","25.0112083333333","6500400","永和區"
"234077","969-R7","2018/04/26 19:19:43","新北市永和區民族街44號","121.518233333333","24.998695","6500400","永和區"
"234074","AAC-211","2018/04/26 19:19:33","新北市永和區竹林路90號","121.519471666667","25.0124166666667","6500400","永和區"
"234003","AAC-295","2018/04/26 19:19:39","新北市永和區永平路192號","121.510281666667","25.00939","6500400","永和區"
"244013","069-UM","2018/04/26 19:19:45","新北市林口區麗園一街4巷2號","121.376611666667","25.070725","6501700","林口區"
"244019","742-UY","2018/04/26 19:19:46","新北市林口區麗園一街9巷2號","121.37678","25.070815","6501700","林口區"
"244023","483-VK","2018/04/26 19:19:42","新北市林口區民有街62號","121.372821666667","25.07676","6501700","林口區"
"244017","485-VK","2018/04/26 19:19:35","新北市林口區頂福里6鄰32號","121.36165","25.0966233333333","6501700","林口區"
"243012","AAD-798","2018/04/26 19:19:45","新北市泰山區仁義路160號","121.432691666667","25.0542366666667","6501600","泰山區"
"243011","297-R6","2018/04/26 19:19:39","新北市泰山區中央路36巷1號","121.426295","25.0427516666667","6501600","泰山區"
"243015","380-SR","2018/04/26 19:19:34","新北市泰山區公園路71號","121.426395","25.0554433333333","6501600","泰山區"
"243014","421-VK","2018/04/26 19:19:31","新北市泰山區泰林路二段37號","121.435728333333","25.05717","6501600","泰山區"
"243010","KEA-2215","2018/04/26 19:19:39","新北市泰山區明志路一段496號","121.430233333333","25.054575","6501600","泰山區"
"243009","KEA-2216","2018/04/26 19:19:42","新北市泰山區和平街11號","121.434291666667","25.0646116666667","6501600","泰山區"
"243013","646-TV","2018/04/26 19:19:34","新北市泰山區明志路三段145巷7號","121.425476666667","25.039895","6501600","泰山區"
"243016","680-BX","2018/04/26 19:19:40","新北市泰山區工專路61號","121.422531666667","25.040365","6501600","泰山區"
"222003","436-BY","2018/04/26 19:19:41","新北市深坑區深南路204號","121.626621666667","25.0160783333333","6501800","深坑區"
"222002","659-BX","2018/04/26 19:19:28","新北市深坑區紅葉街2號","121.633145","25.0113016666667","6501800","深坑區"
"231041","002-UM","2018/04/26 19:19:29","新北市新店區溪園路245-6號","121.525461666667","24.9833566666667","6500600","新店區"
"231040","047-UY","2018/04/26 19:19:33","新北市新店區中華路105號","121.538961666667","24.96921","6500600","新店區"
"231044","106-UY","2018/04/26 19:19:40","新北市新店區中興路三段299號","121.54213","24.9852166666667","6500600","新店區"
"231046","107-UY","2018/04/26 19:19:28","新北市新店區華城路16號","121.529216666667","24.9575866666667","6500600","新店區"
"231052","108-UY","2018/04/26 19:19:44","新北市新店區自強路246號","121.547786666667","24.91877","6500600","新店區"
"231047","187-VK","2018/04/26 19:19:46","新北市新店區中興路二段79巷5號","121.546531666667","24.9712283333333","6500600","新店區"
"231054","KEA-2219","2018/04/26 19:19:44","新北市新店區國校路37巷2號","121.53793","24.9558416666667","6500600","新店區"
"231042","268-BY","2018/04/26 19:19:32","新北市新店區中興路一段57-1號","121.539996666667","24.9605916666667","6500600","新店區"
"231051","278-BY","2018/04/26 19:19:46","新北市新店區中央路133巷32弄8號","121.531436666667","24.973045","6500600","新店區"
"231050","AAD-862","2018/04/26 19:19:37","新北市新店區竹林路63號","121.552951666667","24.9511566666667","6500600","新店區"
"231059","355-BY","2018/04/26 19:19:38","新北市新店區安和路三段1-1號","121.516941666667","24.979945","6500600","新店區"
"231058","3713-VJ","2018/04/26 19:19:37","新北市新店區北新路一段283號","121.541108333333","24.9668633333333","6500600","新店區"
"231066","4716-K9","2018/04/26 19:19:49","新北市新店區安康路三段207巷19號","121.488465","24.9508466666667","6500600","新店區"
"231056","4715-K9","2018/04/26 19:19:37","新北市新店區溪園路401號","121.523785","24.9780666666667","6500600","新店區"
"231065","512-UM","2018/04/26 19:19:44","新北市新店區安祥路140號","121.474355","24.9560133333333","6500600","新店區"
"231049","513-UM","2018/04/26 19:19:45","新北市新店區明德路66號","121.54162","24.9795866666667","6500600","新店區"
"231061","619-UM","2018/04/26 19:19:40","新北市新店區安康路一段107-2號","121.528793333333","24.961585","6500600","新店區"
"231063","641-BX","2018/04/26 19:19:30","新北市新店區達觀路14巷1號","121.504266666667","24.9418533333333","6500600","新店區"
"231064","719-UM","2018/04/26 19:19:43","新北市新店區安忠路57巷26弄31號","121.512313333333","24.9578966666667","6500600","新店區"
"231062","720-UM","2018/04/26 19:19:37","新北市新店區安康路一段219號","121.525848333333","24.96299","6500600","新店區"
"231060","897-TW","2018/04/26 19:19:36","新北市新店區安康路二段136號","121.512476666667","24.9620933333333","6500600","新店區"
"231045","898-TW","2018/04/26 19:19:42","新北市新店區北宜路一段278號","121.546418333333","24.952705","6500600","新店區"
"231043","899-TW","2018/04/26 19:19:47","新北市新店區北新路二段137號","121.542828333333","24.9756233333333","6500600","新店區"
"231055","AKT-0513","2018/04/26 19:19:37","新北市新店區薏仁坑路6號","121.500228333333","24.9580266666667","6500600","新店區"
"241009","060-VK","2018/04/26 19:19:27","新北市三重區溪尾街230巷46號","121.486006666667","25.0810833333333","6500200","三重區"
"241031","061-VK","2018/04/26 19:19:43","新北市三重區重新路一段206-1號","121.48593","25.054725","6500200","三重區"
"241022","267-UM","2018/04/26 19:19:47","新北市三重區中正北路60號","121.486893333333","25.064345","6500200","三重區"
"241032","269-UM","2018/04/26 19:19:38","新北市三重區新生街96號","121.483346666667","25.0593316666667","6500200","三重區"
"241025","271-UM","2018/04/26 19:19:46","新北市三重區中正北路406號","121.475401666667","25.070505","6500200","三重區"
"241007","398-BY","2018/04/26 19:19:31","新北市三重區慈愛街50號","121.485981666667","25.0791466666667","6500200","三重區"
"241035","462-BY","2018/04/26 19:19:43","新北市三重區信義西街138號","121.49547","25.0643916666667","6500200","三重區"
"241020","478-VK","2018/04/26 19:19:35","新北市三重區大智街183號","121.489473333333","25.0729833333333","6500200","三重區"
"241030","480-VK","2018/04/26 19:19:40","新北市三重區新興路40號","121.491471666667","25.05329","6500200","三重區"
"241006","AAD-863","2018/04/26 19:19:37","新北市三重區車路頭街153號","121.483721666667","25.07693","6500200","三重區"
"241026","887-TS","2018/04/26 19:19:47","新北市三重區中正南路248-6號","121.49329","25.0537666666667","6500200","三重區"
"241029","942-UM","2018/04/26 19:19:39","新北市三重區重安街27號","121.491188333333","25.0570516666667","6500200","三重區"
"235064","005-UY","2018/04/26 19:19:29","新北市中和區連城路28號","121.498655","25.0020833333333","6500300","中和區"
"235063","006-UY","2018/04/26 19:19:46","新北市中和區連城路249巷26弄2號","121.494605","24.9956083333333","6500300","中和區"
"235049","031-BX","2018/04/26 19:19:29","新北市中和區景新街235號","121.508056666667","24.994515","6500300","中和區"
"235056","096-UM","2018/04/26 19:19:37","新北市中和區員山路531號","121.479635","25.0069766666667","6500300","中和區"
"235039","097-UM","2018/04/26 19:19:41","新北市中和區自立路58巷12號","121.523113333333","24.9913983333333","6500300","中和區"
"235065","098-UM","2018/04/26 19:19:40","新北市中和區中山路二段2巷3弄1號","121.504875","25.0061666666667","6500300","中和區"
"235040","150-BY","2018/04/26 19:19:42","新北市中和區保健路71-3號","121.510428333333","24.996875","6500300","中和區"
"235058","151-BY","2018/04/26 19:19:43","新北市中和區連城路523巷9弄11號","121.482241666667","24.9947016666667","6500300","中和區"
"235055","183-VK","2018/04/26 19:19:29","新北市中和區德光路55號","121.46995","25.00392","6500300","中和區"
"235038","185-VK","2018/04/26 19:19:39","新北市中和區大仁街20巷50號","121.52016","24.9932916666667","6500300","中和區"
"235067","255-BX","2018/04/26 19:19:44","新北市中和區民樂路67號","121.483993333333","25.001445","6500300","中和區"
"235044","293-VK","2018/04/26 19:19:37","新北市中和區中興街183號","121.50061","24.9901616666667","6500300","中和區"
"235043","352-BY","2018/04/26 19:19:34","新北市中和區景平路390號","121.510383333333","24.992875","6500300","中和區"
"235068","377-QA","2018/04/26 19:19:29","新北市中和區連勝街38巷2號","121.49791","24.99783","6500300","中和區"
"235061","378-QA","2018/04/26 19:19:34","新北市中和區連城路456巷7號","121.478693333333","24.9951433333333","6500300","中和區"
"235050","4979-A6","2018/04/26 19:19:48","新北市中和區景安路208巷6號","121.503678333333","24.99113","6500300","中和區"
"235069","4980-A6","2018/04/26 19:19:30","新北市中和區福祥路90巷3號","121.499378333333","25.0057566666667","6500300","中和區"
"235042","551-UM","2018/04/26 19:19:38","新北市中和區立人街28號","121.51862","24.9942333333333","6500300","中和區"
"235070","558-UM","2018/04/26 19:19:31","新北市中和區連城路80號","121.497186666667","25.0011683333333","6500300","中和區"
"235045","565-BX","2018/04/26 19:19:45","新北市中和區景新街383巷38號","121.513846666667","24.9906116666667","6500300","中和區"
"235054","640-BX","2018/04/26 19:19:41","新北市中和區國光街109巷2弄19號","121.469056666667","25.0006966666667","6500300","中和區"
"235060","647-TV","2018/04/26 19:19:47","新北市中和區中山路三段37巷47號","121.480091666667","25.00455","6500300","中和區"
"235047","732-UM","2018/04/26 19:19:33","新北市中和區和平街54巷1弄2號","121.508766666667","24.99104","6500300","中和區"
"235046","733-UM","2018/04/26 19:19:30","新北市中和區忠孝街2巷11弄2號","121.510408333333","24.981935","6500300","中和區"
"235071","783-BX","2018/04/26 19:19:36","新北市中和區中正路637巷48號","121.485473333333","24.9941016666667","6500300","中和區"
"235057","801-TS","2018/04/26 19:19:48","新北市中和區民利街50號","121.47931","24.998815","6500300","中和區"
"235041","802-TS","2018/04/26 19:19:43","新北市中和區中和路260號","121.507783333333","24.9993416666667","6500300","中和區"
"235052","805-TS","2018/04/26 19:19:35","新北市中和區興南路二段124號","121.504423333333","24.983605","6500300","中和區"
"235048","896-TW","2018/04/26 19:19:33","新北市中和區四維街17號","121.51306","24.9871516666667","6500300","中和區"
"235053","900-TW","2018/04/26 19:19:37","新北市中和區華安街21巷2號","121.467381666667","24.9975316666667","6500300","中和區"
"235066","911-UM","2018/04/26 19:19:28","新北市中和區中和路108號","121.502963333333","24.9997316666667","6500300","中和區"
"235051","157-BY","2018/04/26 19:19:33","新北市中和區和平街2巷4弄1號","121.510006666667","24.990735","6500300","中和區"
"235037","AAC-213","2018/04/26 19:19:36","新北市中和區秀朗路三段10巷37弄13號","121.52404","24.9957166666667","6500300","中和區"
"235059","AAC-215","2018/04/26 19:19:43","新北市中和區錦和路189號","121.490748333333","24.99088","6500300","中和區"
"220068","013-TV","2018/04/26 19:19:49","新北市板橋區翠華街6巷59號","121.481278333333","25.025035","6500100","板橋區"
"220065","072-UY","2018/04/26 19:19:37","新北市板橋區國泰街39巷4弄31號","121.467716666667","25.0058933333333","6500100","板橋區"
"220086","073-UY","2018/04/26 19:19:30","新北市板橋區中正路216巷44號","121.457256666667","25.01872","6500100","板橋區"
"220106","075-UY","2018/04/26 19:19:34","新北市板橋區雙十路三段68巷2號","121.470496666667","25.0319966666667","6500100","板橋區"
"220069","AAD-861","2018/04/26 19:19:46","新北市板橋區貴興路41號","121.457558333333","25.0036483333333","6500100","板橋區"
"226004","312-R5","2018/04/26 19:19:42","新北市平溪區十分里十分街168號","121.77836","25.0436816666667","6502400","平溪區"
"235072","251-BX","2018/04/26 19:19:46","新北市中和區連城路144巷4弄9號","121.495556666667","24.9987766666667","6500300","中和區"
"228003","097-TW","2018/04/26 19:19:35","新北市貢寮區和美里和美街22-1號","121.912838333333","25.0826583333333","6502600","貢寮區"
"228001","212-TW","2018/04/26 19:19:34","新北市貢寮區真理里新港街10號","121.925535","25.0544083333333","6502600","貢寮區"
"228002","585-TW","2018/04/26 19:19:41","新北市貢寮區雙玉里田寮洋街21號","121.926318333333","25.02518","6502600","貢寮區"
"224010","AGQ-8101","2018/04/26 19:19:46","新北市瑞芳區基山街171號","121.843238333333","25.1081166666667","6501200","瑞芳區"
"224006","676-BX","2018/04/26 19:19:33","新北市瑞芳區中山路252號","121.799785","25.1073383333333","6501200","瑞芳區"
"224008","285-BY","2018/04/26 19:19:42","新北市瑞芳區一坑路70-8號","121.80354","25.1082283333333","6501200","瑞芳區"
"224005","271-BY","2018/04/26 19:19:42","新北市瑞芳區蛇子形路6號","121.825971666667","25.1050083333333","6501200","瑞芳區"
"227004","642-TC","2018/04/26 19:19:39","新北市雙溪區平林里梅竹蹊66-1號","121.86017","25.0358816666667","6502500","雙溪區"
"227010","400-TW","2018/04/26 19:19:40","新北市雙溪區新基里新基北街40號","121.868496666667","25.0380416666667","6502500","雙溪區"
"253005","032-BX","2018/04/26 19:19:46","新北市石門區阿里荖15號","121.60793","25.28044","6502200","石門區"
"253006","295-VK","2018/04/26 19:19:39","新北市石門區崁子腳18-2號","121.534563333333","25.290405","6502200","石門區"
"222001","KEA-2212","2018/04/26 19:19:45","新北市深坑區北深路二段103號","121.617476666667","25.0034316666667","6501800","深坑區"
"208002","KEA-2872","2018/04/26 19:19:37","新北市金山區中正路67號","121.633911666667","25.22179","6502700","金山區"
"208003","665-BX","2018/04/26 19:19:33","新北市金山區慈護街35號","121.639345","25.2197966666667","6502700","金山區"
"208001","761-BX","2018/04/26 19:19:43","新北市金山區中山路105-1號","121.639628333333","25.219405","6502700","金山區"
"251009","008-UM","2018/04/26 19:19:50","新北市淡水區大仁街31號","121.442631666667","25.1754833333333","6501000","淡水區"
"251005","010-UM","2018/04/26 19:19:45","新北市淡水區水源街一段31號","121.443296666667","25.1725183333333","6501000","淡水區"
"251001","011-UM","2018/04/26 19:19:33","新北市淡水區自強路201巷49號","121.462001666667","25.12687","6501000","淡水區"
"251013","179-VK","2018/04/26 19:19:32","新北市淡水區安子內12號","121.48158","25.21908","6501000","淡水區"
"251014","180-VK","2018/04/26 19:19:30","新北市淡水區小中寮19-7號","121.484803333333","25.22961","6501000","淡水區"
"251015","182-VK","2018/04/26 19:19:47","新北市淡水區南勢埔32巷2號","121.484426666667","25.180335","6501000","淡水區"
"251010","413-VK","2018/04/26 19:19:36","新北市淡水區沙崙路27號","121.42152","25.1816633333333","6501000","淡水區"
"251016","442-VK","2018/04/26 19:19:32","新北市淡水區下圭柔山119-51號","121.45068","25.208465","6501000","淡水區"
"251006","561-UM","2018/04/26 19:19:43","新北市淡水區中山北路一段271號","121.44458","25.1812","6501000","淡水區"
"251007","577-R6","2018/04/26 19:19:39","新北市淡水區民生路117巷33-2號","121.464833333333","25.13971","6501000","淡水區"
"251003","766-UM","2018/04/26 19:19:35","新北市淡水區中山路189號","121.441303333333","25.1743883333333","6501000","淡水區"
"207003","550-UM","2018/04/26 19:19:27","新北市萬里區大鵬里萬里加投79-3號","121.647398333333","25.2123133333333","6502800","萬里區"
"207004","225-TW","2018/04/26 19:19:49","新北市萬里區萬里里成功新村44號","121.687591666667","25.1746216666667","6502800","萬里區"
"252002","178-VK","2018/04/26 19:19:46","新北市三芝區淡金路二段18-1號","121.502661666667","25.25954","6502100","三芝區"
"252001","292-VK","2018/04/26 19:19:33","新北市三芝區長勤街9巷11弄1號","121.501798333333","25.2547566666667","6502100","三芝區"
"237004","KEA-2597","2018/04/26 19:19:35","新北市三峽區有木206號","121.439151666667","24.851585","6500900","三峽區"
"237007","153-BY","2018/04/26 19:19:33","新北市三峽區二鬮路77號","121.35969","24.9070066666667","6500900","三峽區"
"237011","572-TV","2018/04/26 19:19:28","新北市三峽區中正路一段173號","121.37282","24.9282683333333","6500900","三峽區"
"237009","210-TH","2018/04/26 19:19:32","新北市三峽區信義街26號","121.370828333333","24.9353616666667","6500900","三峽區"
"237013","252-BX","2018/04/26 19:19:34","新北市三峽區大同路39巷7號","121.37713","24.9278916666667","6500900","三峽區"
"237012","275-BY","2018/04/26 19:19:33","新北市三峽區三樹路222巷236弄8-1號","121.391283333333","24.942975","6500900","三峽區"
"237008","302-VK","2018/04/26 19:19:42","新北市三峽區光明路106巷36號","121.375656666667","24.9270533333333","6500900","三峽區"
"237014","433-BY","2018/04/26 19:19:28","新北市三峽區中山路299巷5號","121.361365","24.9371233333333","6500900","三峽區"
"237006","5529-G3","2018/04/26 19:19:36","新北市三峽區介壽路一段361號","121.382613333333","24.93061","6500900","三峽區"
"237005","AKY-6261","2018/04/26 19:19:45","新北市三峽區中山路459巷50號","121.35631","24.9372166666667","6500900","三峽區"
"236070","105-UM","2018/04/26 19:19:27","新北市土城區學成路147號","121.448773333333","24.9895383333333","6501300","土城區"
"236078","166-UM","2018/04/26 19:19:32","新北市土城區龍泉路38-2號","121.412155","24.9456533333333","6501300","土城區"
"236026","269-VK","2018/04/26 19:19:37","新北市土城區員林街76號","121.444326666667","24.9767066666667","6501300","土城區"
"236014","270-VK","2018/04/26 19:19:43","新北市土城區學府路一段23巷21-2號","121.458128333333","24.987445","6501300","土城區"
"236021","401-BY","2018/04/26 19:19:45","新北市土城區峰廷街3號","121.469078333333","24.98733","6501300","土城區"
"236059","752-BX","2018/04/26 19:19:30","新北市土城區中央路二段225號","121.440358333333","24.9727133333333","6501300","土城區"
"236049","913-UM","2018/04/26 19:19:26","新北市土城區明德路一段398-1號","121.453648333333","24.9790666666667","6501300","土城區"
"238015","755-BX","2018/04/26 19:19:39","新北市樹林區備內街1巷39-12號","121.411798333333","24.9856116666667","6500700","樹林區"
"238023","601-UM","2018/04/26 19:19:41","新北市樹林區三興路87巷2號","121.392373333333","25.0135433333333","6500700","樹林區"
"238019","599-UM","2018/04/26 19:19:35","新北市樹林區鎮前街347巷1弄26號","121.417336666667","24.9839933333333","6500700","樹林區"
"238018","571-TV","2018/04/26 19:19:36","新北市樹林區中華路211號","121.419866666667","24.98142","6500700","樹林區"
"238022","KEA-2213","2018/04/26 19:19:30","新北市樹林區中山路二段121號","121.40854","24.980025","6500700","樹林區"
"238021","KEA-2539","2018/04/26 19:19:46","新北市樹林區柑園街二段384巷16號","121.36778","24.9497533333333","6500700","樹林區"
"238025","303-VK","2018/04/26 19:19:33","新北市樹林區中山路二段133號","121.406733333333","24.9791716666667","6500700","樹林區"
"238017","283-BY","2018/04/26 19:19:33","新北市樹林區保安街二段179-1號","121.415215","25.003145","6500700","樹林區"
"238014","282-BY","2018/04/26 19:19:47","新北市樹林區中正路22-1號","121.427763333333","24.999505","6500700","樹林區"
"238020","268-VK","2018/04/26 19:19:32","新北市樹林區俊英街123巷55號","121.423043333333","25.0102816666667","6500700","樹林區"
"238026","172-UY","2018/04/26 19:19:29","新北市樹林區佳園路三段40號","121.387495","24.95358","6500700","樹林區"
"238016","169-UY","2018/04/26 19:19:45","新北市樹林區復興路503號","121.413546666667","24.983575","6500700","樹林區"
"239007","AAC-297","2018/04/26 19:19:45","新北市鶯歌區光明街92巷8號","121.346598333333","24.9561916666667","6500800","鶯歌區"
"239006","891-R6","2018/04/26 19:19:34","新北市鶯歌區鶯桃路296巷84弄31號","121.337455","24.9613083333333","6500800","鶯歌區"
"239008","527-UM","2018/04/26 19:19:43","新北市鶯歌區大湖路460巷3號","121.339851666667","24.972445","6500800","鶯歌區"
"239005","526-UM","2018/04/26 19:19:38","新北市鶯歌區大湖路361巷24弄28號","121.329676666667","24.97779","6500800","鶯歌區"
"239001","417-VK","2018/04/26 19:19:42","新北市鶯歌區鶯桃路95巷51號","121.33778","24.953025","6500800","鶯歌區"
"239003","360-BY","2018/04/26 19:19:33","新北市鶯歌區中正二路145號","121.346575","24.950105","6500800","鶯歌區"
"239004","193-VK","2018/04/26 19:19:43","新北市鶯歌區二甲路100號","121.333401666667","24.9316","6500800","鶯歌區"
"221008","489-VK","2018/04/26 19:19:34","新北市汐止區康寧街336號","121.627705","25.067455","6501100","汐止區"
"221036","130-UY","2018/04/26 19:19:48","新北市汐止區康寧街901號","121.651626666667","25.0748933333333","6501100","汐止區"
"221015","131-UY","2018/04/26 19:19:31","新北市汐止區汐萬路一段256巷1號","121.65165","25.07481","6501100","汐止區"
"221010","269-BY","2018/04/26 19:19:45","新北市汐止區康寧街901號","121.651493333333","25.0750233333333","6501100","汐止區"
"221012","278-VK","2018/04/26 19:19:45","新北市汐止區長江街101-5號","121.659218333333","25.07446","6501100","汐止區"
"221023","279-VK","2018/04/26 19:19:45","新北市汐止區康寧街901號","121.650973333333","25.0752283333333","6501100","汐止區"
"221027","281-BY","2018/04/26 19:19:32","新北市汐止區汐萬路一段312號","121.65043","25.0751566666667","6501100","汐止區"
"221029","298-VK","2018/04/26 19:17:06","新北市汐止區汐萬路一段256巷1號","121.651866666667","25.07474","6501100","汐止區"
"221031","353-TW","2018/04/26 19:19:45","新北市汐止區汐萬路一段256巷3號","121.652078333333","25.0747266666667","6501100","汐止區"
"221025","623-UM","2018/04/26 19:19:41","新北市汐止區康寧街901號","121.651618333333","25.0749616666667","6501100","汐止區"
"221038","646-BX","2018/04/26 19:19:48","新北市汐止區康寧街901號","121.650706666667","25.0753483333333","6501100","汐止區"
"221033","647-BX","2018/04/26 19:19:30","新北市汐止區南勢街3號","121.627073333333","25.037395","6501100","汐止區"
"221002","707-TV","2018/04/26 19:19:44","新北市汐止區大同路一段343號","121.638748333333","25.0594683333333","6501100","汐止區"
"220079","145-BY","2018/04/26 19:19:48","新北市板橋區民權路202巷21弄1號","121.460566666667","25.0171266666667","6500100","板橋區"
"220080","200-UY","2018/04/26 19:19:38","新北市板橋區大觀路二段5-4號","121.446926666667","25.0036833333333","6500100","板橋區"
"220082","610-BX","2018/04/26 19:19:37","新北市板橋區篤行路三段85號","121.426725","24.9851133333333","6500100","板橋區"
"220101","245-BX","2018/04/26 19:19:36","新北市板橋區莒光路165巷22號","121.474106666667","25.0246016666667","6500100","板橋區"
"220056","276-BY","2018/04/26 19:19:47","新北市板橋區信義路158號","121.459175","24.9915316666667","6500100","板橋區"
"220072","277-BY","2018/04/26 19:19:48","新北市板橋區金門街335號","121.429295","24.98567","6500100","板橋區"
"220071","283-VK","2018/04/26 19:19:39","新北市板橋區大豐街118號","121.461223333333","25.0013166666667","6500100","板橋區"
"220094","285-UM","2018/04/26 19:19:37","新北市板橋區吳鳳路21巷2號","121.466935","25.0312366666667","6500100","板橋區"
"220053","285-VK","2018/04/26 19:19:35","新北市板橋區富山街5號","121.47858","25.0216033333333","6500100","板橋區"
"220083","286-VK","2018/04/26 19:19:43","新北市板橋區大觀路二段174巷184號","121.442096666667","25.003685","6500100","板橋區"
"220081","287-VK","2018/04/26 19:19:36","新北市板橋區南雅西路一段116號","121.452751666667","25.006545","6500100","板橋區"
"220090","288-VK","2018/04/26 19:19:49","新北市板橋區長江路一段106巷13弄31號","121.461251666667","25.0297433333333","6500100","板橋區"
"220061","295-UM","2018/04/26 19:19:31","新北市板橋區中山路二段318巷2弄20號","121.480763333333","25.0190333333333","6500100","板橋區"
"220084","296-UM","2018/04/26 19:19:44","新北市板橋區溪北路134號","121.429061666667","24.98908","6500100","板橋區"
"220075","303-R5","2018/04/26 19:19:44","新北市板橋區中正路275巷93號","121.45061","25.0180133333333","6500100","板橋區"
"220062","305-R5","2018/04/26 19:19:38","新北市板橋區三民路二段153巷36弄2號","121.481168333333","25.0140533333333","6500100","板橋區"
"220092","307-R5","2018/04/26 19:19:42","新北市板橋區松江街39號","121.468483333333","25.0271216666667","6500100","板橋區"
"220098","317-R6","2018/04/26 19:19:40","新北市板橋區民有街92號","121.464866666667","25.0275533333333","6500100","板橋區"
"220064","486-VK","2018/04/26 19:19:28","新北市板橋區縣民大道二段60號","121.462815","25.0124083333333","6500100","板橋區"
"220088","491-VK","2018/04/26 19:19:38","新北市板橋區雙十路一段3號","121.478061666667","25.0240383333333","6500100","板橋區"
"220035","560-BX","2018/04/26 19:19:48","新北市板橋區中正路433巷25號","121.45327","25.0236233333333","6500100","板橋區"
"220103","561-BX","2018/04/26 19:19:42","新北市板橋區文化路一段188巷7弄18號","121.467681666667","25.0196983333333","6500100","板橋區"
"220063","609-BX","2018/04/26 19:19:46","新北市板橋區三民路二段7號","121.479328333333","25.0185166666667","6500100","板橋區"
"220055","630-UY","2018/04/26 19:19:45","新北市板橋區民族路57號","121.464701666667","25.008815","6500100","板橋區"
"220091","637-BX","2018/04/26 19:19:27","新北市板橋區大同街55號","121.47875","25.0275233333333","6500100","板橋區"
"220057","686-BX","2018/04/26 19:19:38","新北市中和區壽德街26-1號","121.466528333333","24.9944066666667","6500100","板橋區"
"220077","687-BX","2018/04/26 19:19:38","新北市板橋區大觀路一段28巷70號","121.44978","25.0106366666667","6500100","板橋區"
"220093","689-BX","2018/04/26 19:19:47","新北市板橋區文化路一段305號","121.46523","25.01898","6500100","板橋區"
"220054","741-BX","2018/04/26 19:19:45","新北市板橋區校前街28號","121.460703333333","25.0031166666667","6500100","板橋區"
"220102","KEA-2699","2018/04/26 19:19:45","新北市板橋區田單街31號","121.482296666667","25.0287566666667","6500100","板橋區"
"220067","829-TW","2018/04/26 19:19:49","新北市板橋區長安街138巷1弄57號","121.474261666667","25.0104916666667","6500100","板橋區"
"220096","830-TW","2018/04/26 19:19:37","新北市板橋區大同街26巷33號","121.478538333333","25.026425","6500100","板橋區"
"220089","833-TW","2018/04/26 19:19:28","新北市板橋區文化路一段322-1號","121.467753333333","25.0223233333333","6500100","板橋區"
"220074","895-R6","2018/04/26 19:19:27","新北市板橋區中正路25巷16號","121.454833333333","25.01288","6500100","板橋區"
"220073","985-R7","2018/04/26 19:19:31","新北市板橋區新生街89巷4號","121.45811","25.022235","6500100","板橋區"
"220097","AAC-210","2018/04/26 19:19:36","新北市板橋區幸福路32巷3弄8號","121.460966666667","25.0207883333333","6500100","板橋區"
"220070","AAC-253","2018/04/26 19:19:28","新北市板橋區四川路一段281號","121.459388333333","25.001985","6500100","板橋區"
