"lineid","car","time","location","longitude","latitude","cityid","cityname"
"234046","148-BY","2018/04/26 19:58:59","新北市永和區成功路一段20號","121.527038333333","25.0050366666667","6500400","永和區"
"234007","207-UY","2018/04/26 19:58:55","新北市永和區保生路22巷12號","121.507391666667","25.0082333333333","6500400","永和區"
"234081","298-R6","2018/04/26 19:59:09","新北市永和區永亨路98號","121.522976666667","25.0046683333333","6500400","永和區"
"234038","336-UY","2018/04/26 19:59:02","新北市永和區成功路二段126號","121.526585","24.9976733333333","6500400","永和區"
"234064","337-UY","2018/04/26 19:59:09","新北市永和區中正路412巷20弄10號","121.518785","25.0015916666667","6500400","永和區"
"234086","338-UY","2018/04/26 19:59:04","新北市永和區福和路90號","121.52255","25.0079866666667","6500400","永和區"
"234070","552-UM","2018/04/26 19:59:08","新北市永和區國光路14號","121.519216666667","25.008425","6500400","永和區"
"234067","553-UM","2018/04/26 19:59:00","新北市永和區永貞路376號","121.50975","25.0069766666667","6500400","永和區"
"234017","745-BX","2018/04/26 19:58:52","新北市永和區文化路85號","121.513568333333","25.015105","6500400","永和區"
"234030","746-BX","2018/04/26 19:58:58","新北市永和區民生路22巷18號","121.521598333333","24.99717","6500400","永和區"
"234054","KEA-2590","2018/04/26 19:58:53","新北市永和區環河東路一段122號","121.520545","25.0154416666667","6500400","永和區"
"234013","KEA-2591","2018/04/26 19:58:51","新北市永和區保生路55號","121.504615","25.0105716666667","6500400","永和區"
"234061","AAD-866","2018/04/26 19:58:53","新北市永和區中正路283巷32號","121.516858333333","25.000555","6500400","永和區"
"234042","862-TW","2018/04/26 19:59:05","新北市永和區中和路421巷5弄27號","121.50833","25.0006366666667","6500400","永和區"
"234050","863-TW","2018/04/26 19:59:09","新北市永和區保安路153號","121.506795","25.0126","6500400","永和區"
"234026","9371-KE","2018/04/26 19:58:55","新北市永和區水源街27巷12號","121.511295","25.0037866666667","6500400","永和區"
"234011","9373-KE","2018/04/26 19:59:10","新北市永和區仁愛路352巷112弄13號","121.501023333333","25.00855","6500400","永和區"
"249005","172-UM","2018/04/26 19:59:08","新北市八里區楓林路3-2號","121.382135","25.1302116666667","6502300","八里區"
"249001","173-UM","2018/04/26 19:58:47","新北市八里區中華路二段312號","121.403798333333","25.1482883333333","6502300","八里區"
"249004","303-UY","2018/04/26 19:58:55","新北市八里區中華路一段333-1號","121.413288333333","25.1538266666667","6502300","八里區"
"249002","305-UY","2018/04/26 19:59:05","新北市八里區龍米路一段87巷1號","121.454265","25.12337","6502300","八里區"
"249003","593-UM","2018/04/26 19:58:56","新北市八里區中華路二段560巷3號","121.398596666667","25.1451516666667","6502300","八里區"
"248016","026-BX","2018/04/26 19:59:01","新北市五股區成泰路三段577巷80弄50號","121.449683333333","25.104905","6501500","五股區"
"248008","095-VK","2018/04/26 19:58:56","新北市五股區四維路32號","121.467595","25.07149","6501500","五股區"
"248020","225-UY","2018/04/26 19:59:03","新北市五股區中直路13-1號","121.424676666667","25.1119","6501500","五股區"
"248012","247-BX","2018/04/26 19:59:06","新北市五股區民義路一段101號","121.434483333333","25.0859516666667","6501500","五股區"
"248014","261-SL","2018/04/26 19:58:53","新北市五股區五福路14巷5號","121.434661666667","25.0887333333333","6501500","五股區"
"248010","272-BY","2018/04/26 19:59:06","新北市五股區登林路75號","121.428323333333","25.0699216666667","6501500","五股區"
"248004","677-BX","2018/04/26 19:59:06","新北市五股區成泰路一段8巷2-3號","121.43483","25.0668083333333","6501500","五股區"
"248002","678-BX","2018/04/26 19:59:01","新北市五股區成泰路三段487號","121.45075","25.09934","6501500","五股區"
"234023","9380-KE","2018/04/26 19:58:49","新北市永和區豫溪街57巷8弄3號","121.517583333333","25.0104616666667","6500400","永和區"
"234077","969-R7","2018/04/26 19:59:03","新北市永和區智光街94號","121.516128333333","24.9969833333333","6500400","永和區"
"234074","AAC-211","2018/04/26 19:58:53","新北市永和區豫溪街215巷9號","121.523895","25.0099016666667","6500400","永和區"
"234003","AAC-295","2018/04/26 19:58:59","新北市永和區中正路704號","121.516191666667","25.0098833333333","6500400","永和區"
"243012","AAD-798","2018/04/26 19:59:07","新北市泰山區全興路87號","121.433266666667","25.05756","6501600","泰山區"
"243011","297-R6","2018/04/26 19:58:59","新北市泰山區明志路三段182巷48號","121.423005","25.0396283333333","6501600","泰山區"
"243015","380-SR","2018/04/26 19:58:53","新北市泰山區明志路二段214巷15號","121.426603333333","25.0490083333333","6501600","泰山區"
"243014","421-VK","2018/04/26 19:59:09","新北市泰山區泰林路二段109-1號","121.434486666667","25.0592966666667","6501600","泰山區"
"243010","KEA-2215","2018/04/26 19:58:59","新北市泰山區中華街9號","121.427846666667","25.0524383333333","6501600","泰山區"
"243009","KEA-2216","2018/04/26 19:59:02","新北市泰山區泰林路二段164巷15號","121.434541666667","25.0607983333333","6501600","泰山區"
"243013","646-TV","2018/04/26 19:58:54","新北市泰山區應化街7號","121.423846666667","25.0437666666667","6501600","泰山區"
"243016","680-BX","2018/04/26 19:59:00","新北市泰山區貴鳳街2號","121.421183333333","25.03142","6501600","泰山區"
"222003","436-BY","2018/04/26 19:59:03","新北市深坑區埔新街14號","121.620763333333","25.0039466666667","6501800","深坑區"
"222002","659-BX","2018/04/26 19:59:07","新北市深坑區北深路二段55巷12弄12號","121.61869","25.0033","6501800","深坑區"
"231041","002-UM","2018/04/26 19:58:50","新北市新店區中正路352號","121.535901666667","24.9754883333333","6500600","新店區"
"231040","047-UY","2018/04/26 19:58:53","新北市新店區北新路一段126巷21號","121.542831666667","24.9698483333333","6500600","新店區"
"231044","106-UY","2018/04/26 19:59:01","新北市新店區順安街69號","121.54061","24.986665","6500600","新店區"
"231052","108-UY","2018/04/26 19:59:04","新北市新店區新烏路三段251號","121.546461666667","24.8955283333333","6500600","新店區"
"231047","187-VK","2018/04/26 19:59:06","新北市新店區寶宏路14號","121.549261666667","24.9762233333333","6500600","新店區"
"231054","KEA-2219","2018/04/26 19:59:04","新北市新店區光明街139號","121.539495","24.9620416666667","6500600","新店區"
"231057","256-BX","2018/04/26 19:58:49","新北市新店區花園二路一段11號","121.555515","24.932505","6500600","新店區"
"231042","268-BY","2018/04/26 19:58:52","新北市新店區中正路2號","121.545876666667","24.96924","6500600","新店區"
"231051","278-BY","2018/04/26 19:59:06","新北市新店區中央一街29號","121.527901666667","24.9733683333333","6500600","新店區"
"231050","AAD-862","2018/04/26 19:58:56","新北市新店區北宜路一段9號","121.53813","24.958195","6500600","新店區"
"231059","355-BY","2018/04/26 19:58:58","新北市新店區安康路二段130-1號","121.512623333333","24.9622383333333","6500600","新店區"
"231066","4716-K9","2018/04/26 19:58:49","新北市新店區柴埕路60巷1-1號","121.510193333333","24.963505","6500600","新店區"
"231056","4715-K9","2018/04/26 19:58:57","新北市新店區北新路三段1號","121.5423","24.979165","6500600","新店區"
"231067","4772-VM","2018/04/26 19:58:52","新北市新店區秀山路45巷27號","121.530931666667","24.959735","6500600","新店區"
"231065","512-UM","2018/04/26 19:59:05","新北市新店區安祥路109巷8號","121.475383333333","24.9588583333333","6500600","新店區"
"231049","513-UM","2018/04/26 19:59:05","新北市新店區明德路42號","121.541438333333","24.97818","6500600","新店區"
"231061","619-UM","2018/04/26 19:59:00","新北市新店區安民街265號","121.51747","24.9728216666667","6500600","新店區"
"231063","641-BX","2018/04/26 19:58:49","新北市新店區車子路11號","121.503111666667","24.952095","6500600","新店區"
"231068","718-UY","2018/04/26 19:59:03","新北市新店區安華路28-1號","121.519508333333","24.9611416666667","6500600","新店區"
"231064","719-UM","2018/04/26 19:59:03","新北市新店區光華街24號","121.516876666667","24.969315","6500600","新店區"
"231062","720-UM","2018/04/26 19:58:57","新北市新店區華潭街20號","121.529245","24.9525416666667","6500600","新店區"
"231060","897-TW","2018/04/26 19:58:56","新北市新店區安康路二段454號","121.494385","24.9542516666667","6500600","新店區"
"231045","898-TW","2018/04/26 19:59:02","新北市新店區北宜路二段219號","121.553381666667","24.953295","6500600","新店區"
"231043","899-TW","2018/04/26 19:59:06","新北市新店區中正路263-1號","121.538565","24.973655","6500600","新店區"
"231055","AKT-0513","2018/04/26 19:58:57","新北市新店區中華路83巷67號","121.538355","24.9672783333333","6500600","新店區"
"241011","013-R5","2018/04/26 19:59:00","新北市三重區三和路二段220號","121.497945","25.0695216666667","6500200","三重區"
"241008","059-VK","2018/04/26 19:58:59","新北市三重區永福街179巷25號","121.478016666667","25.074885","6500200","三重區"
"241009","060-VK","2018/04/26 19:59:07","新北市三重區三和路四段390巷8號","121.481691666667","25.0788816666667","6500200","三重區"
"241031","061-VK","2018/04/26 19:59:03","新北市三重區重新路四段144巷25號","121.486983333333","25.05517","6500200","三重區"
"241015","062-VK","2018/04/26 19:58:59","新北市三重區三和路二段6-2號","121.501218333333","25.0667466666667","6500200","三重區"
"241017","063-VK","2018/04/26 19:58:54","新北市三重區重陽路四段4號","121.490705","25.068815","6500200","三重區"
"241024","065-VK","2018/04/26 19:58:59","新北市三重區力行路一段178巷13號","121.481506666667","25.0714116666667","6500200","三重區"
"241002","090-VK","2018/04/26 19:58:55","新北市三重區仁義街47號","121.49886","25.0784683333333","6500200","三重區"
"241003","091-VK","2018/04/26 19:58:49","新北市三重區仁愛街445巷37號","121.490946666667","25.0829133333333","6500200","三重區"
"241005","262-UM","2018/04/26 19:58:53","新北市三重區碧華街294巷17號","121.488548333333","25.084085","6500200","三重區"
"241028","265-UM","2018/04/26 19:59:00","新北市三重區中正南路32號","121.493661666667","25.0601683333333","6500200","三重區"
"241016","266-UM","2018/04/26 19:58:56","新北市三重區正義北路42號","121.497408333333","25.0636","6500200","三重區"
"241022","267-UM","2018/04/26 19:59:07","新北市三重區過圳街19號","121.488753333333","25.060575","6500200","三重區"
"241018","268-UM","2018/04/26 19:59:08","新北市三重區正義北路244巷63號","121.494173333333","25.0677566666667","6500200","三重區"
"241032","269-UM","2018/04/26 19:58:58","新北市三重區朝陽街26巷1弄6號","121.483021666667","25.0566266666667","6500200","三重區"
"241013","270-UM","2018/04/26 19:59:00","新北市三重區三和路三段125巷23號","121.493586666667","25.0736016666667","6500200","三重區"
"241025","271-UM","2018/04/26 19:59:06","新北市三重區頂崁街210巷16號","121.476376666667","25.0677866666667","6500200","三重區"
"241007","398-BY","2018/04/26 19:59:11","新北市三重區溪尾街160號","121.488781666667","25.0800133333333","6500200","三重區"
"241035","462-BY","2018/04/26 19:59:02","新北市三重區大榮街7號","121.498133333333","25.0631933333333","6500200","三重區"
"241004","475-VK","2018/04/26 19:59:00","新北市三重區五華街86號","121.493123333333","25.0821466666667","6500200","三重區"
"241020","478-VK","2018/04/26 19:58:55","新北市三重區忠孝路一段70號","121.489705","25.0720866666667","6500200","三重區"
"241030","480-VK","2018/04/26 19:59:00","新北市三重區重新路四段254號","121.48559","25.053315","6500200","三重區"
"241014","543-UM","2018/04/26 19:58:58","新北市三重區三和路二段140號","121.499593333333","25.0682516666667","6500200","三重區"
"241023","545-UM","2018/04/26 19:59:06","新北市三重區頂崁街168號","121.477528333333","25.065885","6500200","三重區"
"241001","547-UM","2018/04/26 19:59:09","新北市三重區仁愛街271號","121.493085","25.078805","6500200","三重區"
"241019","KEA-2593","2018/04/26 19:59:06","新北市三重區重陽路四段20號","121.490988333333","25.0692116666667","6500200","三重區"
"241006","AAD-863","2018/04/26 19:58:57","新北市三重區力行路二段138-1號","121.482345","25.0756633333333","6500200","三重區"
"241026","887-TS","2018/04/26 19:59:07","新北市三重區中央南路30號","121.501343333333","25.0622516666667","6500200","三重區"
"241012","941-UM","2018/04/26 19:59:01","新北市三重區仁厚街74號","121.500693333333","25.07674","6500200","三重區"
"241029","942-UM","2018/04/26 19:58:59","新北市三重區重新路三段204號","121.49005","25.0583483333333","6500200","三重區"
"235049","031-BX","2018/04/26 19:58:48","新北市中和區景平路385-2號","121.502893333333","24.9941116666667","6500300","中和區"
"235056","096-UM","2018/04/26 19:58:57","新北市中和區中山路三段170巷2弄2號","121.473","25.0066416666667","6500300","中和區"
"235039","097-UM","2018/04/26 19:59:02","新北市中和區大勇街25巷36號","121.515926666667","24.9937966666667","6500300","中和區"
"235065","098-UM","2018/04/26 19:58:59","新北市中和區福美路269號","121.498226666667","25.005085","6500300","中和區"
"235040","150-BY","2018/04/26 19:58:56","新北市中和區保健路19巷2弄2號","121.508326666667","24.9982766666667","6500300","中和區"
"235058","151-BY","2018/04/26 19:59:03","新北市中和區員山路150巷2弄39號","121.48174","24.99745","6500300","中和區"
"235055","183-VK","2018/04/26 19:58:49","新北市中和區民生街35巷1弄2號","121.470366666667","25.0050683333333","6500300","中和區"
"235067","255-BX","2018/04/26 19:59:05","新北市中和區員山路148巷23弄28號","121.482371666667","24.997835","6500300","中和區"
"235044","293-VK","2018/04/26 19:58:57","新北市中和區板南路128巷1號","121.502663333333","24.99257","6500300","中和區"
"235043","352-BY","2018/04/26 19:58:54","新北市中和區興南路二段159巷7號","121.505268333333","24.98319","6500300","中和區"
"235068","377-QA","2018/04/26 19:59:09","新北市中和區福美路303號","121.497155","25.004805","6500300","中和區"
"235050","4979-A6","2018/04/26 19:58:58","新北市中和區景平路157號","121.512903333333","24.992305","6500300","中和區"
"235069","4980-A6","2018/04/26 19:58:50","新北市中和區南山路37巷3弄1號","121.502775","24.9988083333333","6500300","中和區"
"235070","558-UM","2018/04/26 19:58:50","新北市中和區圓通路200號","121.496215","24.9942416666667","6500300","中和區"
"235054","640-BX","2018/04/26 19:59:03","新北市中和區莒光路90號","121.472215","25.0025233333333","6500300","中和區"
"235047","732-UM","2018/04/26 19:58:53","新北市中和區和平街74號","121.507828333333","24.99113","6500300","中和區"
"235046","733-UM","2018/04/26 19:58:50","新北市中和區興南路一段93巷50號","121.510496666667","24.9862433333333","6500300","中和區"
"235041","802-TS","2018/04/26 19:59:03","新北市中和區安平路68-1號","121.510716666667","24.9962183333333","6500300","中和區"
"235052","805-TS","2018/04/26 19:58:55","新北市中和區華新街192巷22弄7號","121.506601666667","24.9832983333333","6500300","中和區"
"235048","896-TW","2018/04/26 19:58:53","新北市中和區景新街557號","121.515345","24.986495","6500300","中和區"
"235053","900-TW","2018/04/26 19:58:57","新北市中和區民德路228號","121.468128333333","24.99764","6500300","中和區"
"235066","911-UM","2018/04/26 19:58:48","新北市中和區光華街6號","121.504078333333","25.0043383333333","6500300","中和區"
"235051","157-BY","2018/04/26 19:58:53","新北市中和區中興街233巷10號","121.501518333333","24.98949","6500300","中和區"
"235037","AAC-213","2018/04/26 19:58:50","新北市中和區自立路115號","121.521923333333","24.994435","6500300","中和區"
"235059","AAC-215","2018/04/26 19:58:59","新北市中和區圓通路367巷2號","121.491285","24.9894566666667","6500300","中和區"
"220068","013-TV","2018/04/26 19:59:00","新北市板橋區光復街208號","121.48556","25.0203283333333","6500100","板橋區"
"220065","072-UY","2018/04/26 19:58:57","新北市板橋區實踐路81號","121.46403","25.0057133333333","6500100","板橋區"
"220086","073-UY","2018/04/26 19:58:51","新北市板橋區大觀路三段54號","121.433256666667","24.9955183333333","6500100","板橋區"
"220106","075-UY","2018/04/26 19:58:54","新北市板橋區民治街96巷21-1號","121.478511666667","25.0321566666667","6500100","板橋區"
"220069","AAD-861","2018/04/26 19:59:06","新北市板橋區大明街33號","121.45813","25.0026783333333","6500100","板橋區"
"247024","893-R6","2018/04/26 19:59:07","新北市蘆洲區光榮路120巷12號","121.465541666667","25.08833","6501400","蘆洲區"
"247014","546-UM","2018/04/26 19:59:04","新北市蘆洲區得勝街145號","121.471721666667","25.0831516666667","6501400","蘆洲區"
"247010","341-TH","2018/04/26 19:58:53","新北市三重區集賢路188號","121.483906666667","25.0881216666667","6501400","蘆洲區"
"247012","339-TH","2018/04/26 19:58:52","新北市蘆洲區民族路155號","121.479485","25.0879766666667","6501400","蘆洲區"
"247004","337-TH","2018/04/26 19:59:03","新北市蘆洲區長安街307號","121.457688333333","25.085155","6501400","蘆洲區"
"247006","336-TH","2018/04/26 19:59:04","新北市蘆洲區九芎街113號","121.465561666667","25.0795933333333","6501400","蘆洲區"
"247008","056-VK","2018/04/26 19:59:05","新北市蘆洲區信義路115號","121.478425","25.08019","6501400","蘆洲區"
"247018","053-VK","2018/04/26 19:58:53","新北市蘆洲區民族路292號","121.47794","25.089735","6501400","蘆洲區"
"247016","007-UY","2018/04/26 19:58:50","新北市蘆洲區中正路101號","121.469881666667","25.083995","6501400","蘆洲區"
"247002","002-UY","2018/04/26 19:59:00","新北市蘆洲區永樂街31巷9號","121.458178333333","25.0870733333333","6501400","蘆洲區"
"247020","001-UY","2018/04/26 19:58:59","新北市蘆洲區民義街59號","121.47294","25.08987","6501400","蘆洲區"
"226004","312-R5","2018/04/26 19:59:02","新北市平溪區靜安路二段396號","121.738686666667","25.02449","6502400","平溪區"
"228003","097-TW","2018/04/26 19:58:55","新北市貢寮區仁理村仁和路236號","121.924053333333","25.0537516666667","6502600","貢寮區"
"227004","642-TC","2018/04/26 19:58:59","新北市雙溪區雙溪里長安街16號","121.864998333333","25.034715","6502500","雙溪區"
"227010","400-TW","2018/04/26 19:59:00","新北市雙溪區新基里新基南街24號","121.866251666667","25.038185","6502500","雙溪區"
"222001","KEA-2212","2018/04/26 19:59:05","新北市深坑區北深路三段99號","121.605821666667","25.0017816666667","6501800","深坑區"
"208002","KEA-2872","2018/04/26 19:58:57","新北市金山區中正路143-1號","121.632091666667","25.2214883333333","6502700","金山區"
"208003","665-BX","2018/04/26 19:58:53","新北市金山區永興里跳石4號","121.633456666667","25.256975","6502700","金山區"
"208001","761-BX","2018/04/26 19:59:02","新北市金山區南勢湖31號","121.610525","25.2179016666667","6502700","金山區"
"251009","008-UM","2018/04/26 19:58:52","新北市淡水區英專路21巷1號","121.445345","25.1696616666667","6501000","淡水區"
"251004","009-UM","2018/04/26 19:59:06","新北市淡水區民權路177巷9號","121.460768333333","25.13542","6501000","淡水區"
"251005","010-UM","2018/04/26 19:59:05","新北市淡水區學府路136巷20號","121.451325","25.172745","6501000","淡水區"
"251001","011-UM","2018/04/26 19:58:53","新北市淡水區淡金路一段166-5號","121.454028333333","25.1800316666667","6501000","淡水區"
"251013","179-VK","2018/04/26 19:58:52","新北市淡水區奎柔山路63號","121.451726666667","25.2061733333333","6501000","淡水區"
"251014","180-VK","2018/04/26 19:58:51","新北市淡水區石頭厝14-53號","121.46411","25.2366916666667","6501000","淡水區"
"251008","181-VK","2018/04/26 19:59:07","新北市淡水區淡海路63巷3號","121.422673333333","25.1806733333333","6501000","淡水區"
"251015","182-VK","2018/04/26 19:59:07","新北市淡水區商工路356號","121.468511666667","25.185405","6501000","淡水區"
"251010","413-VK","2018/04/26 19:58:56","新北市淡水區崁頂104號","121.434095","25.2038616666667","6501000","淡水區"
"251012","441-VK","2018/04/26 19:59:00","新北市淡水區下圭柔山100-1號","121.43709","25.2100383333333","6501000","淡水區"
"251016","442-VK","2018/04/26 19:58:52","新北市淡水區淡金路四段496號","121.452053333333","25.22538","6501000","淡水區"
"251006","561-UM","2018/04/26 19:59:03","新北市淡水區水碓街36號","121.444318333333","25.177255","6501000","淡水區"
"251011","650-BX","2018/04/26 19:58:59","新北市淡水區崁頂57號","121.442625","25.197165","6501000","淡水區"
"251002","672-BX","2018/04/26 19:59:00","新北市淡水區沙崙路129號","121.422716666667","25.1825116666667","6501000","淡水區"
"207003","550-UM","2018/04/26 19:59:07","新北市萬里區磺潭里公館崙5號","121.641875","25.2142283333333","6502800","萬里區"
"207004","225-TW","2018/04/26 19:59:09","新北市萬里區北基里忠二街35號","121.685623333333","25.175745","6502800","萬里區"
"252002","178-VK","2018/04/26 19:59:06","新北市三芝區三民街39巷14號","121.505291666667","25.2576416666667","6502100","三芝區"
"252001","292-VK","2018/04/26 19:58:53","新北市三芝區公正街9號","121.49976","25.2574783333333","6502100","三芝區"
"237004","KEA-2597","2018/04/26 19:58:55","新北市三峽區添福15-33號","121.372693333333","24.9043583333333","6500900","三峽區"
"237007","153-BY","2018/04/26 19:58:52","新北市三峽區麻園46號","121.363851666667","24.9212483333333","6500900","三峽區"
"237009","210-TH","2018/04/26 19:58:52","新北市三峽區民族街76號","121.369595","24.9299066666667","6500900","三峽區"
"237013","252-BX","2018/04/26 19:58:54","新北市三峽區三樹路98巷9號","121.380073333333","24.9394683333333","6500900","三峽區"
"237012","275-BY","2018/04/26 19:58:53","新北市三峽區光明路2號","121.373038333333","24.93127","6500900","三峽區"
"237008","302-VK","2018/04/26 19:59:09","新北市三峽區中華路47號","121.372456666667","24.9308516666667","6500900","三峽區"
"237014","433-BY","2018/04/26 19:59:08","新北市三峽區中正路一段299號","121.37153","24.9254216666667","6500900","三峽區"
"237006","5529-G3","2018/04/26 19:58:56","新北市三峽區中正路二段176巷24號","121.365328333333","24.9148383333333","6500900","三峽區"
"237005","AKY-6261","2018/04/26 19:59:05","新北市三峽區民生街1巷13-1號","121.379841666667","24.935605","6500900","三峽區"
"236070","105-UM","2018/04/26 19:59:07","新北市土城區忠義路77號","121.44295","24.9651466666667","6501300","土城區"
"236042","107-UM","2018/04/26 19:59:01","新北市土城區學府路一段162號","121.454133333333","24.9867133333333","6501300","土城區"
"236078","166-UM","2018/04/26 19:59:03","新北市土城區中央路四段484號","121.40927","24.9504833333333","6501300","土城區"
"236030","253-BX","2018/04/26 19:58:59","新北市土城區中央路一段250巷1號","121.444123333333","24.98466","6501300","土城區"
"236026","269-VK","2018/04/26 19:58:57","新北市土城區中央路二段89號","121.44237","24.97813","6501300","土城區"
"236014","270-VK","2018/04/26 19:59:04","新北市土城區廣福街123號","121.456211666667","24.992905","6501300","土城區"
"236038","271-VK","2018/04/26 19:59:05","新北市土城區國際路71號","121.466841666667","24.9762666666667","6501300","土城區"
"236021","401-BY","2018/04/26 19:59:05","新北市土城區延吉街111巷12弄26號","121.471455","24.9853066666667","6501300","土城區"
"236059","752-BX","2018/04/26 19:58:59","新北市土城區中央路一段245號","121.445388333333","24.9861016666667","6501300","土城區"
"236049","913-UM","2018/04/26 19:59:07","新北市土城區金城路三段281號","121.473243333333","24.990525","6501300","土城區"
"236063","915-UM","2018/04/26 19:59:04","新北市土城區金城路三段73巷11弄2號","121.466193333333","24.988225","6501300","土城區"
"236055","AAC-216","2018/04/26 19:59:01","新北市土城區永豐路92號","121.462961666667","24.987555","6501300","土城區"
"242034","AAC-296","2018/04/26 19:59:05","新北市新莊區建中街100號","121.44649","25.0365333333333","6500500","新莊區"
"242058","986-R7","2018/04/26 19:59:02","新北市新莊區八德街61號","121.424711666667","25.02184","6500500","新莊區"
"242053","751-BX","2018/04/26 19:59:04","新北市新莊區西盛街431號","121.427153333333","25.012055","6500500","新莊區"
"242025","613-BX","2018/04/26 19:58:49","新北市新莊區五工一路86號","121.461395","25.0677283333333","6500500","新莊區"
"242029","612-BX","2018/04/26 19:59:03","新北市新莊區中榮街152巷55號","121.445876666667","25.0535183333333","6500500","新莊區"
"242046","497-BY","2018/04/26 19:58:58","新北市新莊區裕民街19巷4號","121.419766666667","25.0252433333333","6500500","新莊區"
"242051","441-UM","2018/04/26 19:59:03","新北市新莊區西盛街174號","121.428138333333","25.0189733333333","6500500","新莊區"
"242056","440-UM","2018/04/26 19:59:02","新北市新莊區中正路347巷15號","121.44732","25.0344416666667","6500500","新莊區"
"242007","413-TV","2018/04/26 19:59:02","新北市新莊區思源路487號","121.459596666667","25.0562933333333","6500500","新莊區"
"242044","400-BY","2018/04/26 19:58:55","新北市新莊區中正路746巷43-3號","121.411838333333","25.0243833333333","6500500","新莊區"
"242023","362-BY","2018/04/26 19:59:05","新北市新莊區化成路374號","121.465858333333","25.04978","6500500","新莊區"
"242061","353-BY","2018/04/26 19:58:51","新北市新莊區瓊泰路3號","121.444856666667","25.0286166666667","6500500","新莊區"
"242039","133-UY","2018/04/26 19:59:10","新北市新莊區民安路281-1號","121.428805","25.022095","6500500","新莊區"
"242031","135-UY","2018/04/26 19:58:55","新北市新莊區公園一路74號","121.443166666667","25.0365033333333","6500500","新莊區"
"242048","172-VK","2018/04/26 19:58:52","新北市新莊區富國路109巷3號","121.423706666667","25.0251766666667","6500500","新莊區"
"242011","173-VK","2018/04/26 19:59:03","新北市新莊區中港路531巷70號","121.450411666667","25.051695","6500500","新莊區"
"242017","175-VK","2018/04/26 19:58:59","新北市新莊區中華路二段3巷22號","121.453185","25.046345","6500500","新莊區"
"242004","176-VK","2018/04/26 19:58:57","新北市新莊區頭前路90號","121.46412","25.05254","6500500","新莊區"
"242015","346-TH","2018/04/26 19:58:53","新北市新莊區泰順街33巷2號","121.44623","25.042585","6500500","新莊區"
"242021","348-TH","2018/04/26 19:59:02","新北市新莊區建中街12號","121.449536666667","25.0377116666667","6500500","新莊區"
"242036","349-TH","2018/04/26 19:58:49","新北市新莊區建安街41巷5號","121.429166666667","25.0251883333333","6500500","新莊區"
"242013","351-TH","2018/04/26 19:59:00","新北市新莊區幸福路670巷2弄1號","121.451001666667","25.0494783333333","6500500","新莊區"
"238015","755-BX","2018/04/26 19:58:59","新北市樹林區中山路三段214號","121.380125","24.9679016666667","6500700","樹林區"
"238021","KEA-2539","2018/04/26 19:59:06","新北市樹林區佳園路三段101巷80弄20號","121.394225","24.9495983333333","6500700","樹林區"
"238017","283-BY","2018/04/26 19:58:53","新北市樹林區保安街二段45巷13弄4號","121.415271666667","24.999795","6500700","樹林區"
"221008","489-VK","2018/04/26 19:58:52","台北市內湖區康樂街87號","121.618766666667","25.0696533333333","6501100","汐止區"
"221036","130-UY","2018/04/26 19:59:08","新北市汐止區新台五路二段85巷5號","121.664405","25.06716","6501100","汐止區"
"221015","131-UY","2018/04/26 19:58:51","新北市汐止區大同路三段41號","121.666913333333","25.0764516666667","6501100","汐止區"
"221010","269-BY","2018/04/26 19:59:04","新北市汐止區八連路一段86巷8號","121.644663333333","25.0803916666667","6501100","汐止區"
"221012","278-VK","2018/04/26 19:59:05","新北市汐止區大同路三段294號","121.678273333333","25.0712383333333","6501100","汐止區"
"221023","279-VK","2018/04/26 19:59:05","新北市汐止區民族六街18號","121.629773333333","25.0688","6501100","汐止區"
"221032","280-BY","2018/04/26 19:59:07","新北市汐止區橫科路18巷4號","121.617911666667","25.0508733333333","6501100","汐止區"
"221027","281-BY","2018/04/26 19:58:52","新北市汐止區信義路21號","121.661516666667","25.069475","6501100","汐止區"
"221029","298-VK","2018/04/26 19:59:06","新北市汐止區樟樹一路137巷26號","121.640861666667","25.0659933333333","6501100","汐止區"
"221021","299-VK","2018/04/26 19:58:51","新北市汐止區復興路58巷11弄2號","121.656143333333","25.0618483333333","6501100","汐止區"
"221031","353-TW","2018/04/26 19:59:05","新北市汐止區福德一路188號","121.635405","25.0657166666667","6501100","汐止區"
"221035","622-UM","2018/04/26 19:59:03","新北市汐止區長江街43號","121.655703333333","25.0713616666667","6501100","汐止區"
"221025","623-UM","2018/04/26 19:59:01","新北市汐止區秀峰路109巷26弄8號","121.660971666667","25.063465","6501100","汐止區"
"221038","646-BX","2018/04/26 19:58:48","新北市汐止區忠孝東路438號","121.666035","25.0724166666667","6501100","汐止區"
"221033","647-BX","2018/04/26 19:58:50","新北市汐止區東勢街215巷1弄15號","121.633836666667","25.04225","6501100","汐止區"
"221018","753-BX","2018/04/26 19:59:02","新北市汐止區茄苳路158號","121.669576666667","25.0695483333333","6501100","汐止區"
"220079","145-BY","2018/04/26 19:59:08","新北市板橋區南雅西路二段175巷16號","121.451305","25.0129816666667","6500100","板橋區"
"220080","200-UY","2018/04/26 19:59:06","新北市板橋區大觀路二段169巷23號","121.446495","24.999795","6500100","板橋區"
"242002","KEA-2550","2018/04/26 19:58:51","新北市新莊區新泰路103號","121.44895","25.0349233333333","6500500","新莊區"
"220082","610-BX","2018/04/26 19:58:57","新北市板橋區篤行路二段129號","121.431196666667","24.990485","6500100","板橋區"
"220101","245-BX","2018/04/26 19:58:56","新北市板橋區莊敬路245號","121.473098333333","25.0214866666667","6500100","板橋區"
"220072","277-BY","2018/04/26 19:59:08","新北市板橋區篤行路二段1巷12-3號","121.432223333333","24.992605","6500100","板橋區"
"220071","283-VK","2018/04/26 19:59:00","新北市板橋區和平路190巷28號","121.464993333333","24.9945783333333","6500100","板橋區"
"220094","285-UM","2018/04/26 19:58:57","新北市板橋區雨農路27巷9號","121.461516666667","25.0238183333333","6500100","板橋區"
"220053","285-VK","2018/04/26 19:59:09","新北市板橋區中山路二段90巷35號","121.47593","25.015435","6500100","板橋區"
"220083","286-VK","2018/04/26 19:59:03","新北市板橋區僑中二街48巷16號","121.445646666667","25.0102416666667","6500100","板橋區"
"220081","287-VK","2018/04/26 19:58:56","新北市板橋區僑中一街80巷6弄32號","121.448953333333","25.0112366666667","6500100","板橋區"
"220090","288-VK","2018/04/26 19:59:09","新北市板橋區幸福路32巷2弄25號","121.46102","25.0216866666667","6500100","板橋區"
"220061","295-UM","2018/04/26 19:59:10","新北市板橋區板新路128號","121.470918333333","25.01558","6500100","板橋區"
"220084","296-UM","2018/04/26 19:59:04","新北市樹林區水源街213號","121.424058333333","24.9872183333333","6500100","板橋區"
"220075","303-R5","2018/04/26 19:59:04","新北市板橋區金華街10巷97號","121.458735","25.0205316666667","6500100","板橋區"
"220092","307-R5","2018/04/26 19:59:02","新北市板橋區四維路259巷58號","121.460758333333","25.02685","6500100","板橋區"
"220098","317-R6","2018/04/26 19:58:56","新北市板橋區漢生西路165巷16號","121.462651666667","25.0235","6500100","板橋區"
"220064","486-VK","2018/04/26 19:59:08","新北市板橋區實踐路25號","121.463625","25.0073183333333","6500100","板橋區"
"242019","280-VK","2018/04/26 19:58:49","新北市新莊區民生街15巷2弄2號","121.455821666667","25.0422266666667","6500500","新莊區"
"220088","491-VK","2018/04/26 19:58:58","新北市板橋區懷德街194號","121.479723333333","25.0295816666667","6500100","板橋區"
"220035","560-BX","2018/04/26 19:58:53","新北市板橋區新生街89巷19號","121.45728","25.0222566666667","6500100","板橋區"
"220103","561-BX","2018/04/26 19:59:02","新北市板橋區陽明街48號","121.465413333333","25.02211","6500100","板橋區"
"220063","609-BX","2018/04/26 19:59:06","新北市板橋區中山路二段98號","121.475481666667","25.016515","6500100","板橋區"
"220055","630-UY","2018/04/26 19:59:05","新北市板橋區仁愛路62巷17弄1號","121.460033333333","24.9982583333333","6500100","板橋區"
"220091","637-BX","2018/04/26 19:59:07","新北市板橋區民治街119巷7號","121.478536666667","25.030625","6500100","板橋區"
"220057","686-BX","2018/04/26 19:59:10","新北市板橋區四川路二段241號","121.450641666667","24.9936916666667","6500100","板橋區"
"220093","689-BX","2018/04/26 19:59:07","新北市板橋區文化路二段505巷7號","121.475785","25.0345583333333","6500100","板橋區"
"220054","741-BX","2018/04/26 19:59:05","新北市板橋區忠孝路201巷74號","121.464708333333","25.0043183333333","6500100","板橋區"
"220102","KEA-2699","2018/04/26 19:59:01","新北市板橋區仁化街56號","121.475701666667","25.0315933333333","6500100","板橋區"
"220067","829-TW","2018/04/26 19:58:49","新北市板橋區漢生東路193巷58號","121.472988333333","25.0117633333333","6500100","板橋區"
"220096","830-TW","2018/04/26 19:58:57","新北市板橋區莊敬路132-3號","121.470948333333","25.0236716666667","6500100","板橋區"
"220089","833-TW","2018/04/26 19:59:08","新北市板橋區新海路385巷28弄11號","121.457318333333","25.0260883333333","6500100","板橋區"
"220074","895-R6","2018/04/26 19:59:07","新北市板橋區縣民大道一段285號","121.460633333333","25.0101116666667","6500100","板橋區"
"220073","985-R7","2018/04/26 19:58:51","新北市板橋區南雅西路二段196號","121.45174","25.01466","6500100","板橋區"
"220097","AAC-210","2018/04/26 19:58:56","新北市板橋區光正街43號","121.461848333333","25.01726","6500100","板橋區"
"220070","AAC-253","2018/04/26 19:58:48","新北市板橋區遠東路9號","121.457595","24.9983483333333","6500100","板橋區"
