"lineid","car","time","location","longitude","latitude","cityid","cityname"
"234046","148-BY","2018/04/26 20:05:59","新北市永和區得和路408號","121.525746666667","24.9991666666667","6500400","永和區"
"234007","207-UY","2018/04/26 20:09:15","新北市永和區保生路60號","121.505323333333","25.0087583333333","6500400","永和區"
"234081","298-R6","2018/04/26 20:07:31","新北市永和區國中路53號","121.524561666667","25.0060966666667","6500400","永和區"
"234038","336-UY","2018/04/26 20:08:18","新北市永和區成功路一段66號","121.526915","25.0036866666667","6500400","永和區"
"234064","337-UY","2018/04/26 20:09:15","新北市永和區永利路138號","121.521833333333","25.002725","6500400","永和區"
"234086","338-UY","2018/04/26 20:05:39","新北市永和區竹林路222-1號","121.520655","25.00771","6500400","永和區"
"234070","552-UM","2018/04/26 20:07:08","新北市永和區中正路636號","121.517035","25.0081633333333","6500400","永和區"
"234067","553-UM","2018/04/26 20:08:37","新北市永和區保平路212號","121.50978","25.00594","6500400","永和區"
"234017","745-BX","2018/04/26 20:06:32","新北市永和區文化路128號","121.513008333333","25.0152833333333","6500400","永和區"
"234030","746-BX","2018/04/26 20:09:01","新北市永和區民權路49巷29號","121.521571666667","24.9975066666667","6500400","永和區"
"234054","KEA-2590","2018/04/26 20:05:53","新北市永和區博愛街29號","121.518215","25.0158366666667","6500400","永和區"
"234013","KEA-2591","2018/04/26 20:05:51","新北市永和區永貞路435號","121.506875","25.0098216666667","6500400","永和區"
"234061","AAD-866","2018/04/26 20:03:17","新北市永和區中正路283巷53弄2號","121.515851666667","24.9992933333333","6500400","永和區"
"234042","862-TW","2018/04/26 20:07:42","新北市永和區雙和街16巷12號","121.510026666667","25.0024666666667","6500400","永和區"
"234050","863-TW","2018/04/26 20:05:49","新北市永和區新生路273巷1-1號","121.505038333333","25.0127466666667","6500400","永和區"
"234011","9373-KE","2018/04/26 20:08:50","新北市永和區環河西路二段243號","121.500408333333","25.0092483333333","6500400","永和區"
"249005","172-UM","2018/04/26 20:06:28","新北市八里區下罟子43-1號","121.384326666667","25.1365233333333","6502300","八里區"
"249001","173-UM","2018/04/26 20:08:06","新北市八里區中華路二段312號","121.403753333333","25.1483183333333","6502300","八里區"
"249004","303-UY","2018/04/26 20:09:15","新北市八里區中山路一段398巷20號","121.411483333333","25.1586666666667","6502300","八里區"
"249002","305-UY","2018/04/26 20:04:46","新北市八里區龍米路一段17號","121.457258333333","25.1157783333333","6502300","八里區"
"249003","593-UM","2018/04/26 20:08:16","新北市八里區中山路二段540巷9弄5號","121.396853333333","25.14697","6502300","八里區"
"248016","026-BX","2018/04/26 20:09:01","新北市五股區天乙路67號","121.448076666667","25.1046733333333","6501500","五股區"
"248008","095-VK","2018/04/26 20:07:56","新北市五股區中興路一段1巷13號","121.469703333333","25.0714616666667","6501500","五股區"
"248020","225-UY","2018/04/26 20:08:01","新北市五股區凌雲路三段24-5號","121.434773333333","25.10428","6501500","五股區"
"248012","247-BX","2018/04/26 20:09:26","新北市五股區六合街107號","121.429833333333","25.0907233333333","6501500","五股區"
"248014","261-SL","2018/04/26 20:05:14","新北市五股區五福路12號","121.434375","25.0885666666667","6501500","五股區"
"248010","272-BY","2018/04/26 20:05:26","新北市五股區成泰路一段2號","121.433841666667","25.066695","6501500","五股區"
"248004","677-BX","2018/04/26 20:08:46","新北市五股區成泰路一段126號","121.435256666667","25.07438","6501500","五股區"
"248002","678-BX","2018/04/26 20:09:21","新北市五股區成泰路三段355號","121.448636666667","25.0955583333333","6501500","五股區"
"234023","9380-KE","2018/04/26 20:08:29","新北市永和區中正路662巷27號","121.517748333333","25.0088233333333","6500400","永和區"
"234077","969-R7","2018/04/26 20:09:03","新北市永和區民光街22巷2號","121.516038333333","24.9957383333333","6500400","永和區"
"234074","AAC-211","2018/04/26 20:08:53","新北市永和區豫溪街185號","121.522501666667","25.010375","6500400","永和區"
"234003","AAC-295","2018/04/26 20:06:39","新北市永和區中正路686號","121.516641666667","25.00949","6500400","永和區"
"243012","AAD-798","2018/04/26 20:07:06","新北市泰山區楓江路39-2號","121.435138333333","25.0623816666667","6501600","泰山區"
"243011","297-R6","2018/04/26 20:08:19","新北市泰山區壽山路10號","121.421326666667","25.029065","6501600","泰山區"
"243015","380-SR","2018/04/26 20:06:14","新北市泰山區明志路二段6號","121.430121666667","25.053725","6501600","泰山區"
"243014","421-VK","2018/04/26 20:05:09","新北市泰山區明志路一段116號","121.433355","25.0636866666667","6501600","泰山區"
"243010","KEA-2215","2018/04/26 20:04:39","新北市泰山區明志路二段136巷8號","121.42713","25.051265","6501600","泰山區"
"243009","KEA-2216","2018/04/26 20:04:44","新北市泰山區泰林路二段116巷3弄1號","121.4351","25.0595783333333","6501600","泰山區"
"243013","646-TV","2018/04/26 20:07:54","新北市泰山區民國街8號","121.425318333333","25.0435866666667","6501600","泰山區"
"243016","680-BX","2018/04/26 20:06:40","新北市泰山區新北大道六段287-1號","121.424603333333","25.034345","6501600","泰山區"
"222003","436-BY","2018/04/26 20:08:23","新北市深坑區埔新街64號","121.620055","25.0024466666667","6501800","深坑區"
"222002","659-BX","2018/04/26 20:09:27","新北市深坑區北深路三段22號","121.609283333333","25.001105","6501800","深坑區"
"231041","002-UM","2018/04/26 20:05:29","新北市新店區中正路460號","121.53399","24.9793716666667","6500600","新店區"
"231040","047-UY","2018/04/26 20:06:33","新北市新店區中正路84號","121.543651666667","24.9703","6500600","新店區"
"231044","106-UY","2018/04/26 20:09:00","新北市新店區寶慶街58巷2號","121.542075","24.98689","6500600","新店區"
"231052","108-UY","2018/04/26 20:09:24","新北市新店區新烏路三段286號","121.549826666667","24.8983066666667","6500600","新店區"
"231047","187-VK","2018/04/26 20:08:26","新北市新店區寶橋路69-1號","121.545368333333","24.9750216666667","6500600","新店區"
"231054","KEA-2219","2018/04/26 20:08:44","新北市新店區檳榔路22巷1號","121.541223333333","24.96416","6500600","新店區"
"231057","256-BX","2018/04/26 20:08:49","新北市新店區花園一路一段2號","121.553163333333","24.93246","6500600","新店區"
"231042","268-BY","2018/04/26 20:09:12","新北市新店區中興路二段41號","121.546436666667","24.9700783333333","6500600","新店區"
"231051","278-BY","2018/04/26 20:07:46","新北市新店區中央六街7號","121.530228333333","24.974495","6500600","新店區"
"231050","AAD-862","2018/04/26 20:09:17","新北市新店區北新路一段126巷27號","121.543165","24.9694333333333","6500600","新店區"
"231059","355-BY","2018/04/26 20:06:57","新北市新店區安成街25號","121.510121666667","24.9608566666667","6500600","新店區"
"231058","3713-VJ","2018/04/26 20:08:37","新北市新店區安民街65巷21-2號","121.515416666667","24.9675816666667","6500600","新店區"
"231066","4716-K9","2018/04/26 20:08:09","新北市新店區安興路112號","121.51465","24.977095","6500600","新店區"
"231056","4715-K9","2018/04/26 20:07:37","新北市新店區北新路二段29巷3弄1號","121.542198333333","24.9729616666667","6500600","新店區"
"231067","4772-VM","2018/04/26 20:06:08","新北市新店區溪洲路30號","121.533366666667","24.9610333333333","6500600","新店區"
"231065","512-UM","2018/04/26 20:09:24","新北市新店區安祥路106巷345號","121.472825","24.9594416666667","6500600","新店區"
"231049","513-UM","2018/04/26 20:06:45","新北市新店區北新路二段139巷12弄1號","121.54206","24.97597","6500600","新店區"
"231061","619-UM","2018/04/26 20:09:20","新北市新店區安民街380號","121.516355","24.9764833333333","6500600","新店區"
"231063","641-BX","2018/04/26 20:08:30","新北市新店區黎明路58巷2號","121.50236","24.947525","6500600","新店區"
"231068","718-UY","2018/04/26 20:08:44","新北市新店區寶橋路97號","121.547143333333","24.9761666666667","6500600","新店區"
"231064","719-UM","2018/04/26 20:08:43","新北市新店區安民街3巷1號","121.514575","24.9642566666667","6500600","新店區"
"231062","720-UM","2018/04/26 20:08:17","新北市新店區華城路12號","121.528873333333","24.9578333333333","6500600","新店區"
"231060","897-TW","2018/04/26 20:06:56","新北市新店區安康路三段265號","121.48651","24.9518916666667","6500600","新店區"
"231045","898-TW","2018/04/26 20:07:02","新北市新店區北宜路一段121-3號","121.540351666667","24.9538316666667","6500600","新店區"
"231043","899-TW","2018/04/26 20:07:47","新北市新店區中正路309號","121.536515","24.9750066666667","6500600","新店區"
"231055","AKT-0513","2018/04/26 20:08:37","新北市新店區中華路42巷18號","121.540616666667","24.9687","6500600","新店區"
"241011","013-R5","2018/04/26 20:09:15","新北市三重區仁愛街30號","121.496326666667","25.0717016666667","6500200","三重區"
"241008","059-VK","2018/04/26 20:07:52","新北市三重區永福街197巷37弄5號","121.478085","25.0742366666667","6500200","三重區"
"241009","060-VK","2018/04/26 20:08:47","新北市三重區永福街113號","121.479273333333","25.0771533333333","6500200","三重區"
"241031","061-VK","2018/04/26 20:09:23","新北市三重區過圳街7巷3號","121.489495","25.0587166666667","6500200","三重區"
"241015","062-VK","2018/04/26 20:05:19","新北市三重區長元街94號","121.502288333333","25.06656","6500200","三重區"
"241017","063-VK","2018/04/26 20:08:55","新北市三重區自強路一段236號","121.493248333333","25.067015","6500200","三重區"
"241024","065-VK","2018/04/26 20:03:59","新北市三重區後竹圍街285號","121.479151666667","25.0699866666667","6500200","三重區"
"241002","090-VK","2018/04/26 20:08:55","新北市三重區仁忠街60號","121.493996666667","25.08095","6500200","三重區"
"241003","091-VK","2018/04/26 20:08:09","新北市三重區富華街4號","121.489308333333","25.0823","6500200","三重區"
"241005","262-UM","2018/04/26 20:07:33","新北市三重區五華街243號","121.489206666667","25.0861183333333","6500200","三重區"
"241028","265-UM","2018/04/26 20:06:20","新北市三重區中正南路186號","121.494065","25.056245","6500200","三重區"
"241016","266-UM","2018/04/26 20:09:20","新北市三重區大同北路91號","121.49479","25.063605","6500200","三重區"
"241022","267-UM","2018/04/26 20:08:47","新北市三重區新北大道一段68號","121.487048333333","25.061495","6500200","三重區"
"241018","268-UM","2018/04/26 20:06:27","新北市三重區雙園街56號","121.49591","25.0676983333333","6500200","三重區"
"241032","269-UM","2018/04/26 20:08:38","新北市三重區捷運路65號","121.483435","25.055575","6500200","三重區"
"241013","270-UM","2018/04/26 20:09:20","新北市三重區三和路三段139巷35號","121.494026666667","25.07409","6500200","三重區"
"241025","271-UM","2018/04/26 20:08:59","新北市三重區中正北路428巷14號","121.474566666667","25.070365","6500200","三重區"
"241007","398-BY","2018/04/26 20:07:11","新北市三重區仁美街47號","121.487538333333","25.0777266666667","6500200","三重區"
"241035","462-BY","2018/04/26 20:07:23","新北市三重區平安街29號","121.498328333333","25.064245","6500200","三重區"
"241004","475-VK","2018/04/26 20:08:36","新北市三重區仁愛街416號","121.490583333333","25.0812966666667","6500200","三重區"
"241020","478-VK","2018/04/26 20:07:55","新北市三重區後竹圍街2巷1弄6號","121.491633333333","25.0732783333333","6500200","三重區"
"241030","480-VK","2018/04/26 20:09:20","新北市三重區成功路145巷35號","121.48784","25.0532416666667","6500200","三重區"
"241014","543-UM","2018/04/26 20:09:18","新北市三重區安和路41號","121.500955","25.0693666666667","6500200","三重區"
"241023","545-UM","2018/04/26 20:08:55","新北市三重區頂崁街216號","121.477015","25.0678233333333","6500200","三重區"
"241001","547-UM","2018/04/26 20:07:49","新北市三重區溪尾街26號","121.490963333333","25.0764166666667","6500200","三重區"
"241019","KEA-2593","2018/04/26 20:07:26","新北市三重區自強路二段31號","121.489693333333","25.0695283333333","6500200","三重區"
"241026","887-TS","2018/04/26 20:09:07","新北市三重區福德南路20號","121.50281","25.06326","6500200","三重區"
"241012","941-UM","2018/04/26 20:09:21","新北市三重區仁福街64巷27號","121.497623333333","25.07553","6500200","三重區"
"241029","942-UM","2018/04/26 20:09:10","新北市三重區光明路32巷12弄2-2號","121.491598333333","25.05867","6500200","三重區"
"235039","097-UM","2018/04/26 20:09:02","新北市中和區景平路278巷16弄12號","121.51429","24.99366","6500300","中和區"
"235065","098-UM","2018/04/26 20:08:40","新北市中和區福美路256巷18號","121.498025","25.00603","6500300","中和區"
"235040","150-BY","2018/04/26 20:08:41","新北市中和區保健路33巷7號","121.509118333333","24.9981166666667","6500300","中和區"
"235044","293-VK","2018/04/26 20:08:17","新北市中和區板南路102號","121.503616666667","24.9924516666667","6500300","中和區"
"235068","377-QA","2018/04/26 20:08:49","新北市中和區中山路二段248號","121.497718333333","25.0026966666667","6500300","中和區"
"235050","4979-A6","2018/04/26 20:07:28","新北市中和區安樂路66號","121.512163333333","24.9932183333333","6500300","中和區"
"235069","4980-A6","2018/04/26 20:09:16","新北市中和區南山路127巷31號","121.50357","24.9975616666667","6500300","中和區"
"235070","558-UM","2018/04/26 20:08:31","新北市中和區中正路628號","121.485536666667","24.9958133333333","6500300","中和區"
"235054","640-BX","2018/04/26 20:08:57","新北市中和區莒光路66號","121.472225","25.00319","6500300","中和區"
"235046","733-UM","2018/04/26 20:08:30","新北市中和區忠孝街31巷13號","121.510261666667","24.98335","6500300","中和區"
"235066","911-UM","2018/04/26 20:09:28","新北市中和區水源路127巷2弄2號","121.508046666667","25.0040516666667","6500300","中和區"
"235051","157-BY","2018/04/26 20:05:33","新北市中和區景安路247號","121.504078333333","24.99071","6500300","中和區"
"235037","AAC-213","2018/04/26 20:08:30","新北市中和區自立路18號","121.522185","24.9935383333333","6500300","中和區"
"235059","AAC-215","2018/04/26 20:08:28","新北市中和區圓通路335巷37弄1號","121.493916666667","24.9890416666667","6500300","中和區"
"220068","013-TV","2018/04/26 20:05:20","新北市板橋區中山路二段318巷20弄27號","121.481045","25.019225","6500100","板橋區"
"220065","072-UY","2018/04/26 20:08:17","新北市板橋區大觀路二段153巷46弄11-7號","121.448996666667","24.9974033333333","6500100","板橋區"
"220086","073-UY","2018/04/26 20:07:11","新北市樹林區八德街395號","121.415403333333","24.971415","6500100","板橋區"
"220106","075-UY","2018/04/26 20:06:34","新北市板橋區文聖街11巷26號","121.476208333333","25.0330166666667","6500100","板橋區"
"220069","AAD-861","2018/04/26 20:06:06","新北市板橋區大華街182巷16號","121.458788333333","25.0030266666667","6500100","板橋區"
"247024","893-R6","2018/04/26 20:08:47","新北市蘆洲區光榮路66巷17號","121.463296666667","25.0881366666667","6501400","蘆洲區"
"247014","546-UM","2018/04/26 20:05:04","新北市蘆洲區成功路70號","121.473203333333","25.0809816666667","6501400","蘆洲區"
"247022","500-BY","2018/04/26 20:08:59","新北市蘆洲區三民路205號","121.470228333333","25.0878483333333","6501400","蘆洲區"
"247010","341-TH","2018/04/26 20:08:29","新北市蘆洲區集賢路380號","121.480321666667","25.082575","6501400","蘆洲區"
"247012","339-TH","2018/04/26 20:06:52","新北市蘆洲區復興路226號","121.479155","25.08936","6501400","蘆洲區"
"247004","337-TH","2018/04/26 20:09:23","新北市蘆洲區永安南路二段328巷15弄11號","121.456176666667","25.0836416666667","6501400","蘆洲區"
"247006","336-TH","2018/04/26 20:09:24","新北市蘆洲區中山一路417號","121.468473333333","25.07654","6501400","蘆洲區"
"247008","056-VK","2018/04/26 20:07:05","新北市蘆洲區中山一路97巷32弄5號","121.47568","25.0811983333333","6501400","蘆洲區"
"247018","053-VK","2018/04/26 20:08:14","新北市蘆洲區民族路314巷3弄1號","121.477403333333","25.0903","6501400","蘆洲區"
"247016","007-UY","2018/04/26 20:08:37","新北市蘆洲區光華路160號","121.465571666667","25.0822283333333","6501400","蘆洲區"
"247002","002-UY","2018/04/26 20:03:40","新北市蘆洲區長安街248號","121.457653333333","25.0861966666667","6501400","蘆洲區"
"247020","001-UY","2018/04/26 20:06:59","新北市蘆洲區民權路106巷5弄7號","121.47426","25.0890916666667","6501400","蘆洲區"
"227010","400-TW","2018/04/26 20:06:20","新北市雙溪區新基里中華路10號","121.866033333333","25.0365966666667","6502500","雙溪區"
"222001","KEA-2212","2018/04/26 20:09:25","新北市深坑區北深路三段191號","121.601185","25.003725","6501800","深坑區"
"208002","KEA-2872","2018/04/26 20:06:28","新北市金山區環金路59號","121.63843","25.2174866666667","6502700","金山區"
"208003","665-BX","2018/04/26 20:08:54","新北市金山區永興里忠義路29號","121.631451666667","25.261515","6502700","金山區"
"251009","008-UM","2018/04/26 20:06:55","新北市淡水區博愛街14號","121.446115","25.1699166666667","6501000","淡水區"
"251004","009-UM","2018/04/26 20:03:45","新北市淡水區民族路29巷24-1號","121.46157","25.136695","6501000","淡水區"
"251005","010-UM","2018/04/26 20:09:25","新北市淡水區學府路126號","121.450396666667","25.1724866666667","6501000","淡水區"
"251013","179-VK","2018/04/26 20:08:49","新北市淡水區奎柔山路576號","121.468393333333","25.20509","6501000","淡水區"
"251014","180-VK","2018/04/26 20:07:11","新北市淡水區石頭厝3號","121.458701666667","25.23557","6501000","淡水區"
"251008","181-VK","2018/04/26 20:05:48","新北市淡水區淡海路72巷28弄6號","121.424853333333","25.1822516666667","6501000","淡水區"
"251015","182-VK","2018/04/26 20:06:07","新北市淡水區埤島3-18號","121.447093333333","25.1909083333333","6501000","淡水區"
"251010","413-VK","2018/04/26 20:07:56","新北市淡水區新市五路一段152號","121.427321666667","25.1982166666667","6501000","淡水區"
"251012","441-VK","2018/04/26 20:07:00","新北市淡水區淡金路三段254號","121.449013333333","25.206335","6501000","淡水區"
"251016","442-VK","2018/04/26 20:05:52","新北市淡水區番子田16-13號","121.453718333333","25.231635","6501000","淡水區"
"251006","561-UM","2018/04/26 20:06:58","新北市淡水區北新路141巷50號","121.44882","25.17947","6501000","淡水區"
"251002","672-BX","2018/04/26 20:07:00","新北市淡水區中正路334號","121.4358","25.173135","6501000","淡水區"
"251003","766-UM","2018/04/26 20:08:47","新北市淡水區中山北路二段189巷15弄29號","121.443405","25.1842383333333","6501000","淡水區"
"207003","550-UM","2018/04/26 20:08:27","新北市萬里區大鵬里萬里加投186號","121.64282","25.21567","6502800","萬里區"
"207004","225-TW","2018/04/26 20:07:29","新北市萬里區北基里孝五街27號","121.683048333333","25.176905","6502800","萬里區"
"252002","178-VK","2018/04/26 20:06:46","新北市三芝區三民街18號","121.504466666667","25.25862","6502100","三芝區"
"252001","292-VK","2018/04/26 20:09:13","新北市三芝區公正街66號","121.499788333333","25.2574633333333","6502100","三芝區"
"237004","KEA-2597","2018/04/26 20:04:55","新北市三峽區嘉添227號","121.36979","24.9104166666667","6500900","三峽區"
"237013","252-BX","2018/04/26 20:08:54","新北市鶯歌區中正一路阿南巷501號","121.380766666667","24.964815","6500900","三峽區"
"237012","275-BY","2018/04/26 20:08:13","新北市三峽區中華路48巷16號","121.371111666667","24.9301266666667","6500900","三峽區"
"237008","302-VK","2018/04/26 20:08:22","新北市三峽區中正路一段174巷9號","121.371893333333","24.9288883333333","6500900","三峽區"
"237006","5529-G3","2018/04/26 20:09:16","新北市三峽區嘉添109-2號","121.369693333333","24.9106616666667","6500900","三峽區"
"237005","AKY-6261","2018/04/26 20:06:25","新北市三峽區三樹路128-1號","121.378426666667","24.939685","6500900","三峽區"
"236070","105-UM","2018/04/26 20:08:47","新北市土城區中央路三段147巷2弄16號","121.43194","24.964895","6501300","土城區"
"236042","107-UM","2018/04/26 20:08:32","新北市土城區學成路22巷3號","121.45349","24.98734","6501300","土城區"
"236078","166-UM","2018/04/26 20:06:43","新北市土城區福安街104號","121.417366666667","24.963975","6501300","土城區"
"236030","253-BX","2018/04/26 20:05:19","新北市土城區日新街8巷4號","121.445405","24.987235","6501300","土城區"
"236026","269-VK","2018/04/26 20:06:58","新北市土城區明德路二段104號","121.445245","24.984195","6501300","土城區"
"236014","270-VK","2018/04/26 20:07:09","新北市土城區廣明街17號","121.455678333333","24.992345","6501300","土城區"
"236038","271-VK","2018/04/26 20:07:39","新北市土城區延吉街296巷1弄3號","121.464315","24.9843133333333","6501300","土城區"
"236021","401-BY","2018/04/26 20:08:05","新北市土城區和城路二段253-6號","121.47338","24.9872833333333","6501300","土城區"
"236059","752-BX","2018/04/26 20:05:59","新北市土城區中央路二段8-3號","121.442931666667","24.9806933333333","6501300","土城區"
"236049","913-UM","2018/04/26 20:05:06","新北市土城區金城路三段77號","121.466641666667","24.9871883333333","6501300","土城區"
"236063","915-UM","2018/04/26 20:07:24","新北市土城區延和路15號","121.463923333333","24.988105","6501300","土城區"
"236055","AAC-216","2018/04/26 20:09:21","新北市土城區中央路一段47號","121.448196666667","24.9903816666667","6501300","土城區"
"242034","AAC-296","2018/04/26 20:06:32","新北市新莊區建中街81巷10弄3號","121.447091666667","25.0362333333333","6500500","新莊區"
"242058","986-R7","2018/04/26 20:04:22","新北市新莊區八德街117號","121.4241","25.0207283333333","6500500","新莊區"
"242053","751-BX","2018/04/26 20:08:15","新北市新莊區西盛街395巷23弄3號","121.428283333333","25.0124233333333","6500500","新莊區"
"242027","615-BX","2018/04/26 20:09:09","新北市新莊區中平路264號","121.44487","25.0498933333333","6500500","新莊區"
"242025","613-BX","2018/04/26 20:04:20","新北市新莊區五工三路78巷22號","121.459778333333","25.06563","6500500","新莊區"
"242029","612-BX","2018/04/26 20:08:52","新北市新莊區中原路512號","121.446661666667","25.0545366666667","6500500","新莊區"
"242042","566-BX","2018/04/26 20:06:20","新北市新莊區青山路一段180-1號","121.401138333333","25.0299916666667","6500500","新莊區"
"242046","497-BY","2018/04/26 20:05:09","新北市新莊區裕民街37巷6弄9號","121.419315","25.024545","6500500","新莊區"
"242051","441-UM","2018/04/26 20:04:23","新北市新莊區民安西路142號","121.426153333333","25.01673","6500500","新莊區"
"242056","440-UM","2018/04/26 20:05:56","新北市新莊區豐年街1號","121.446308333333","25.033065","6500500","新莊區"
"242007","413-TV","2018/04/26 20:07:19","新北市新莊區福壽街164巷19號","121.459266666667","25.0528933333333","6500500","新莊區"
"242044","400-BY","2018/04/26 20:05:35","新北市新莊區中正路929巷7弄10號","121.411398333333","25.0204766666667","6500500","新莊區"
"242023","362-BY","2018/04/26 20:08:25","新北市新莊區化成路528號","121.466235","25.0528233333333","6500500","新莊區"
"242061","353-BY","2018/04/26 20:06:31","新北市新莊區瓊林路瓊英巷9號","121.443353333333","25.0275633333333","6500500","新莊區"
"242039","133-UY","2018/04/26 20:06:10","新北市新莊區民安西路85號","121.427056666667","25.0192433333333","6500500","新莊區"
"242031","135-UY","2018/04/26 20:06:35","新北市新莊區公園一路12號","121.443515","25.034795","6500500","新莊區"
"242048","172-VK","2018/04/26 20:06:12","新北市新莊區後港二路20號","121.422","25.0229683333333","6500500","新莊區"
"242011","173-VK","2018/04/26 20:07:24","新北市新莊區中和街204巷7弄5號","121.44804","25.0506283333333","6500500","新莊區"
"242017","175-VK","2018/04/26 20:08:07","新北市新莊區中港路397號","121.451983333333","25.04693","6500500","新莊區"
"242004","176-VK","2018/04/26 20:05:57","新北市新莊區頭興街30號","121.464595","25.0535633333333","6500500","新莊區"
"242015","346-TH","2018/04/26 20:06:33","新北市新莊區中平路26巷21號","121.445945","25.0433316666667","6500500","新莊區"
"242021","348-TH","2018/04/26 20:06:42","新北市新莊區建中街32巷7號","121.448876666667","25.037815","6500500","新莊區"
"242036","349-TH","2018/04/26 20:07:09","新北市新莊區後港一路130巷48號","121.42994","25.0257466666667","6500500","新莊區"
"242013","351-TH","2018/04/26 20:08:12","新北市新莊區幸福路678巷3弄1號","121.450253333333","25.0496583333333","6500500","新莊區"
"238021","KEA-2539","2018/04/26 20:07:26","新北市樹林區佳園路三段101巷62弄10號","121.393618333333","24.950175","6500700","樹林區"
"221008","489-VK","2018/04/26 20:08:12","新北市汐止區忠三街9巷16-2號","121.624926666667","25.0799066666667","6501100","汐止區"
"221036","130-UY","2018/04/26 20:06:48","新北市汐止區新台五路二段41巷13號","121.662943333333","25.0669183333333","6501100","汐止區"
"221015","131-UY","2018/04/26 20:07:51","新北市汐止區建成路21號","121.664363333333","25.07257","6501100","汐止區"
"221010","269-BY","2018/04/26 20:09:04","新北市汐止區八連路一段317號","121.639683333333","25.0860333333333","6501100","汐止區"
"221012","278-VK","2018/04/26 20:09:19","新北市汐止區汐平路一段156巷2-1號","121.688656666667","25.067085","6501100","汐止區"
"221023","279-VK","2018/04/26 20:07:05","新北市汐止區明峰街298巷1號","121.625315","25.06793","6501100","汐止區"
"221032","280-BY","2018/04/26 20:09:27","新北市汐止區弘道街9巷4弄2號","121.617005","25.0491166666667","6501100","汐止區"
"221027","281-BY","2018/04/26 20:08:12","新北市汐止區中正路133號","121.659956666667","25.0692483333333","6501100","汐止區"
"221029","298-VK","2018/04/26 20:09:06","新北市汐止區樟樹一路123巷17號","121.641311666667","25.064585","6501100","汐止區"
"221021","299-VK","2018/04/26 20:07:31","新北市汐止區青山路16-1號","121.655778333333","25.0623033333333","6501100","汐止區"
"221031","353-TW","2018/04/26 20:09:05","新北市汐止區原興路76巷2號","121.632005","25.0663683333333","6501100","汐止區"
"221035","622-UM","2018/04/26 20:07:42","新北市汐止區長江街67巷2弄1號","121.656693333333","25.07227","6501100","汐止區"
"221025","623-UM","2018/04/26 20:09:01","新北市汐止區秀峰路77號","121.659935","25.06428","6501100","汐止區"
"221038","646-BX","2018/04/26 20:09:08","新北市汐止區大同路三段66-3號","121.668191666667","25.0770616666667","6501100","汐止區"
"221033","647-BX","2018/04/26 20:09:29","新北市汐止區東勢街201巷102號","121.633533333333","25.0431416666667","6501100","汐止區"
"221002","707-TV","2018/04/26 20:09:04","新北市汐止區工建路216號","121.63659","25.06236","6501100","汐止區"
"221018","753-BX","2018/04/26 20:08:22","新北市汐止區茄福街35巷37號","121.673388333333","25.066145","6501100","汐止區"
"242002","KEA-2550","2018/04/26 20:08:11","新北市新莊區中正路175號","121.454123333333","25.0364866666667","6500500","新莊區"
"220101","245-BX","2018/04/26 20:08:16","新北市板橋區莒光路165巷36號","121.474318333333","25.0248916666667","6500100","板橋區"
"220072","277-BY","2018/04/26 20:05:07","新北市板橋區金門街106號","121.432986666667","24.9920833333333","6500100","板橋區"
"220071","283-VK","2018/04/26 20:04:00","新北市板橋區廣權路99號","121.464505","24.9927816666667","6500100","板橋區"
"220094","285-UM","2018/04/26 20:05:37","新北市板橋區陽明街34號","121.466111666667","25.0218383333333","6500100","板橋區"
"220053","285-VK","2018/04/26 20:04:55","新北市板橋區永豐街47-1號","121.474193333333","25.0176916666667","6500100","板橋區"
"220083","286-VK","2018/04/26 20:04:43","新北市板橋區僑中二街88巷38號","121.444356666667","25.0096766666667","6500100","板橋區"
"220081","287-VK","2018/04/26 20:06:22","新北市板橋區僑中一街124巷20弄31號","121.447426666667","25.0139066666667","6500100","板橋區"
"220061","295-UM","2018/04/26 20:06:31","新北市板橋區觀光街57巷15弄1號","121.470326666667","25.0161733333333","6500100","板橋區"
"220084","296-UM","2018/04/26 20:09:24","新北市樹林區環河路2-2號","121.424983333333","24.976545","6500100","板橋區"
"242009","281-VK","2018/04/26 20:06:46","新北市新莊區昌盛街35巷1弄2號","121.454055","25.050375","6500500","新莊區"
"220092","307-R5","2018/04/26 20:08:02","新北市板橋區光正街45巷35號","121.461786666667","25.01582","6500100","板橋區"
"220098","317-R6","2018/04/26 20:09:00","新北市板橋區新海路72巷5弄23號","121.461571666667","25.0228366666667","6500100","板橋區"
"220064","486-VK","2018/04/26 20:04:48","新北市板橋區民族路129巷26號","121.467911666667","25.0089383333333","6500100","板橋區"
"242019","280-VK","2018/04/26 20:07:09","新北市新莊區民樂街66號","121.457963333333","25.0421466666667","6500500","新莊區"
"220088","491-VK","2018/04/26 20:07:18","新北市板橋區民治街42巷1號","121.479061666667","25.0337233333333","6500100","板橋區"
"220103","561-BX","2018/04/26 20:07:22","新北市板橋區自由路26巷20號","121.466391666667","25.0224933333333","6500100","板橋區"
"220055","630-UY","2018/04/26 20:07:05","新北市板橋區仁愛路76巷10號","121.460598333333","24.9990383333333","6500100","板橋區"
"220093","689-BX","2018/04/26 20:05:27","新北市板橋區長江路二段223號","121.468236666667","25.0324566666667","6500100","板橋區"
"220054","741-BX","2018/04/26 20:04:43","新北市板橋區忠孝路忠義巷9弄82-2號","121.465015","25.0054516666667","6500100","板橋區"
"220102","KEA-2699","2018/04/26 20:08:09","新北市板橋區懷德街76巷6號","121.477718333333","25.0318416666667","6500100","板橋區"
"220067","829-TW","2018/04/26 20:08:29","新北市板橋區中山路一段180號","121.468966666667","25.01293","6500100","板橋區"
"220089","833-TW","2018/04/26 20:04:28","新北市板橋區互助街81號","121.459965","25.0260183333333","6500100","板橋區"
"220074","895-R6","2018/04/26 20:02:55","新北市板橋區文化路一段32巷2號","121.459448333333","25.011215","6500100","板橋區"
"220097","AAC-210","2018/04/26 20:05:36","新北市板橋區光正街20巷5號","121.462588333333","25.0178366666667","6500100","板橋區"
"220070","AAC-253","2018/04/26 20:06:48","新北市板橋區四川路二段245巷75-121號","121.452683333333","24.9927316666667","6500100","板橋區"
