"lineid","car","time","location","longitude","latitude","cityid","cityname"
"231040","047-UY","2018/04/26 21:09:13","新北市新店區北新路一段106號","121.542605","24.96958","6500600","新店區"
"231047","187-VK","2018/04/26 21:09:10","新北市新店區中興路三段160號","121.544491666667","24.9807033333333","6500600","新店區"
"231054","KEA-2219","2018/04/26 21:09:24","新北市新店區大新街7巷7號","121.543653333333","24.9682916666667","6500600","新店區"
"231042","268-BY","2018/04/26 21:09:11","新北市新店區寶興路60巷6號","121.549818333333","24.9717583333333","6500600","新店區"
"231051","278-BY","2018/04/26 21:09:06","新北市新店區中正路700巷26號","121.535448333333","24.9911083333333","6500600","新店區"
"231050","AAD-862","2018/04/26 21:09:17","新北市新店區中華路83號","121.539396666667","24.9686883333333","6500600","新店區"
"231059","355-BY","2018/04/26 21:09:17","新北市新店區僑義路11巷1號","121.500311666667","24.951645","6500600","新店區"
"231066","4716-K9","2018/04/26 21:09:09","新北市新店區薏仁坑路自強巷6號","121.4964","24.9582916666667","6500600","新店區"
"231065","512-UM","2018/04/26 21:09:25","新北市新店區安祥路69巷41弄31號","121.48236","24.961555","6500600","新店區"
"231061","619-UM","2018/04/26 21:09:20","新北市新店區永安街30號","121.517718333333","24.986655","6500600","新店區"
"231063","641-BX","2018/04/26 21:09:10","新北市新店區如意街80號","121.49555","24.9466566666667","6500600","新店區"
"231060","897-TW","2018/04/26 21:09:16","新北市新店區薏仁坑路自強巷6號","121.496698333333","24.958495","6500600","新店區"
"241011","013-R5","2018/04/26 21:09:20","新北市三重區秀江街117號","121.499738333333","25.072255","6500200","三重區"
"241008","059-VK","2018/04/26 21:09:20","新北市三重區自強路一段64號","121.497223333333","25.06672","6500200","三重區"
"241009","060-VK","2018/04/26 21:09:07","新北市三重區忠孝路二段126號","121.482953333333","25.0687766666667","6500200","三重區"
"241031","061-VK","2018/04/26 21:09:23","新北市三重區重新路五段408巷21-8號","121.476915","25.04583","6500200","三重區"
"241015","062-VK","2018/04/26 21:09:25","新北市三重區福德北路89號","121.501891666667","25.0660366666667","6500200","三重區"
"241017","063-VK","2018/04/26 21:09:14","新北市三重區國隆路31號","121.492328333333","25.0645383333333","6500200","三重區"
"241024","065-VK","2018/04/26 21:09:19","新北市三重區國道路一段58巷15號","121.48142","25.0721033333333","6500200","三重區"
"241002","090-VK","2018/04/26 21:09:14","新北市三重區五華街19-1號","121.494871666667","25.080415","6500200","三重區"
"241003","091-VK","2018/04/26 21:09:13","新北市三重區仁義街337-1號","121.495075","25.0848533333333","6500200","三重區"
"241005","262-UM","2018/04/26 21:09:13","新北市三重區五華街187號","121.490081666667","25.0853316666667","6500200","三重區"
"241028","265-UM","2018/04/26 21:09:20","新北市三重區正義南路60-1號","121.498418333333","25.0606366666667","6500200","三重區"
"241016","266-UM","2018/04/26 21:09:16","新北市三重區信義西街138號","121.495401666667","25.0642583333333","6500200","三重區"
"241022","267-UM","2018/04/26 21:09:07","新北市三重區中正北路64巷24號","121.486046666667","25.0637116666667","6500200","三重區"
"241018","268-UM","2018/04/26 21:09:27","新北市三重區正義北路332-1號","121.494341666667","25.0704666666667","6500200","三重區"
"241032","269-UM","2018/04/26 21:09:17","新北市三重區光復路二段143巷8-3號","121.476071666667","25.061565","6500200","三重區"
"241013","270-UM","2018/04/26 21:09:18","新北市三重區仁愛街141巷6號","121.495608333333","25.07543","6500200","三重區"
"241025","271-UM","2018/04/26 21:09:26","新北市三重區中正北路208巷8號","121.482318333333","25.066925","6500200","三重區"
"241007","398-BY","2018/04/26 21:09:11","新北市三重區三和路四段145巷85號","121.486433333333","25.07881","6500200","三重區"
"241004","475-VK","2018/04/26 21:09:13","新北市三重區仁愛街423-1號","121.490391666667","25.08147","6500200","三重區"
"241020","478-VK","2018/04/26 21:09:15","新北市三重區忠孝路二段35號","121.485968333333","25.0711116666667","6500200","三重區"
"241030","480-VK","2018/04/26 21:09:20","新北市三重區五谷王北街20巷15弄1號","121.474998333333","25.0485","6500200","三重區"
"241014","543-UM","2018/04/26 21:09:18","新北市三重區三和路二段37-9號","121.501345","25.0676933333333","6500200","三重區"
"241023","545-UM","2018/04/26 21:09:26","新北市三重區忠孝路三段50巷41弄42號","121.482328333333","25.0639316666667","6500200","三重區"
"241001","547-UM","2018/04/26 21:09:29","新北市三重區福隆路101號","121.492426666667","25.0783183333333","6500200","三重區"
"241019","KEA-2593","2018/04/26 21:09:26","新北市三重區自強路二段74巷19號","121.488086666667","25.069835","6500200","三重區"
"241006","AAD-863","2018/04/26 21:09:17","新北市三重區中正北路105號","121.489341666667","25.0632416666667","6500200","三重區"
"241026","887-TS","2018/04/26 21:09:06","新北市三重區文化南路42號","121.500331666667","25.0601533333333","6500200","三重區"
"241012","941-UM","2018/04/26 21:09:21","新北市三重區仁信街19號","121.501428333333","25.0756716666667","6500200","三重區"
"241029","942-UM","2018/04/26 21:09:19","新北市三重區正義南路107號","121.498221666667","25.0585466666667","6500200","三重區"
"247024","893-R6","2018/04/26 21:09:07","新北市蘆洲區長興路50巷1號","121.463746666667","25.0837583333333","6501400","蘆洲區"
"247014","546-UM","2018/04/26 21:09:27","新北市蘆洲區中央路155號","121.472623333333","25.08471","6501400","蘆洲區"
"247022","500-BY","2018/04/26 21:09:19","新北市蘆洲區中正路263巷2號","121.467305","25.0874916666667","6501400","蘆洲區"
"247010","341-TH","2018/04/26 21:09:13","新北市蘆洲區鷺江街52號","121.477213333333","25.0833016666667","6501400","蘆洲區"
"247012","339-TH","2018/04/26 21:09:12","新北市蘆洲區民權路6號","121.477058333333","25.0854566666667","6501400","蘆洲區"
"247004","337-TH","2018/04/26 21:09:23","新北市蘆洲區永安南路二段276號","121.458115","25.0809033333333","6501400","蘆洲區"
"247006","336-TH","2018/04/26 21:09:24","新北市蘆洲區九芎街15巷10號","121.46788","25.077985","6501400","蘆洲區"
"247008","056-VK","2018/04/26 21:09:25","新北市蘆洲區信義路30巷15號","121.474481666667","25.0787383333333","6501400","蘆洲區"
"247018","053-VK","2018/04/26 21:09:13","新北市蘆洲區民族路408巷3號","121.474698333333","25.0918316666667","6501400","蘆洲區"
"247016","007-UY","2018/04/26 21:09:10","新北市蘆洲區光華路162巷8弄2號","121.465336666667","25.082585","6501400","蘆洲區"
"247002","002-UY","2018/04/26 21:09:10","新北市蘆洲區長榮路387號","121.459383333333","25.089635","6501400","蘆洲區"
"247020","001-UY","2018/04/26 21:09:19","新北市蘆洲區民族路375號","121.47067","25.0910666666667","6501400","蘆洲區"
"251009","008-UM","2018/04/26 21:09:09","新北市淡水區民族路112巷57號","121.462058333333","25.1343616666667","6501000","淡水區"
"251004","009-UM","2018/04/26 21:09:15","新北市淡水區大同路113巷6號","121.463511666667","25.1417116666667","6501000","淡水區"
"251005","010-UM","2018/04/26 21:09:24","新北市淡水區中正東路35巷28號","121.446821666667","25.1688516666667","6501000","淡水區"
"251001","011-UM","2018/04/26 21:09:13","新北市淡水區新市一路三段101巷16弄14號","121.446936666667","25.1839966666667","6501000","淡水區"
"251013","179-VK","2018/04/26 21:09:12","新北市淡水區行忠路328號","121.460473333333","25.199595","6501000","淡水區"
"251014","180-VK","2018/04/26 21:09:10","新北市淡水區六塊厝1-1號","121.449536666667","25.2426133333333","6501000","淡水區"
"251015","182-VK","2018/04/26 21:09:17","新北市淡水區淡金路四段542巷50號","121.454391666667","25.2268366666667","6501000","淡水區"
"251010","413-VK","2018/04/26 21:09:26","新北市淡水區中正路一段63巷11號","121.422495","25.177035","6501000","淡水區"
"251012","441-VK","2018/04/26 21:09:00","新北市淡水區淡金路五段79號","121.45481","25.2339816666667","6501000","淡水區"
"251016","442-VK","2018/04/26 21:09:12","新北市淡水區牛埔子7-8號","121.447993333333","25.21836","6501000","淡水區"
"251011","650-BX","2018/04/26 21:09:19","新北市淡水區新民街120巷45弄24號","121.43778","25.1797183333333","6501000","淡水區"
"251002","672-BX","2018/04/26 21:09:20","新北市淡水區英專路151號","121.44835","25.174885","6501000","淡水區"
"251003","766-UM","2018/04/26 21:09:06","新北市淡水區新春街132-4號","121.441205","25.1818366666667","6501000","淡水區"
"238022","KEA-2213","2018/04/26 20:49:39","新北市樹林區育德街78-1號","121.387841666667","24.96814","6500700","樹林區"
"221029","298-VK","2018/04/26 21:09:06","新北市汐止區康寧街901號","121.651625","25.0748433333333","6501100","汐止區"
"242002","KEA-2550","2018/04/26 21:09:11","新北市新莊區瓊林南路77-41號","121.43731","25.0121733333333","6500500","新莊區"
"220101","245-BX","2018/04/26 21:09:16","新北市樹林區中華路2-1號","121.42542","24.9843183333333","6500100","板橋區"
"220097","AAC-210","2018/04/26 21:09:16","新北市樹林區育德街121巷7號","121.388825","24.9681383333333","6500100","板橋區"
