"lineid","car","time","location","longitude","latitude","cityid","cityname"
"232015","291-BY","2018/04/27 06:39:44","新北市坪林區北宜路八段558號","121.718016666667","24.9092783333333","6502000","坪林區"
"232019","705-BZ","2018/04/27 06:39:34","新北市坪林區北宜路八段558號","121.717823333333","24.90916","6502000","坪林區"
"232008","758-BX","2018/04/27 06:39:44","新北市坪林區北宜路八段558號","121.717996666667","24.9091133333333","6502000","坪林區"
"244004","248-BX","2018/04/27 06:39:41","新北市林口區粉寮路二段160巷28號","121.405135","25.0907366666667","6501700","林口區"
"235001","611-BX","2018/04/27 06:39:33","新北市中和區圓通路335巷53號","121.494775","24.9889483333333","6500300","中和區"
"223006","022-BY","2018/04/27 06:39:45","新北市石碇區楓子林55-5號","121.642641666667","25.0085416666667","6501900","石碇區"
"223002","KEA-2673","2018/04/27 06:39:46","新北市石碇區摸乳巷11-2號","121.661395","24.98176","6501900","石碇區"
"223001","205-TH","2018/04/27 06:39:49","新北市石碇區湳窟22-1號","121.66108","24.9911566666667","6501900","石碇區"
"223008","406-TH","2018/04/27 06:39:35","新北市石碇區下橫坪11-3號","121.667035","24.9855166666667","6501900","石碇區"
"223001","592-UM","2018/04/27 06:39:35","新北市石碇區小粗坑(潭邊里)6-1號","121.67523","24.983405","6501900","石碇區"
"223007","661-BX","2018/04/27 06:39:19","新北市石碇區石崁1號","121.651646666667","25.002545","6501900","石碇區"
"227005","282-VK","2018/04/27 06:39:30","新北市雙溪區牡丹里中正路89號","121.862201666667","25.046685","6502500","雙溪區"
"236010","165-UM","2018/04/27 06:39:37","新北市土城區永平街51號","121.428005","24.9591483333333","6501300","土城區"
"220070","282-UM","2018/04/27 06:39:49","新北市板橋區大仁街4號","121.456141666667","25.0171583333333","6500100","板橋區"
