"lineid","car","time","location","longitude","latitude","cityid","cityname"
"248005","653-BX","2018/08/23 07:19:23","新北市五股區明德路12巷3號","121.4333","25.0717716666667","6501500","五股區"
"232001","290-BY","2018/08/23 07:19:27","新北市坪林區上坑子口11-2號","121.702051666667","24.9641016666667","6502000","坪林區"
"232014","291-BY","2018/08/23 07:19:18","新北市坪林區金瓜寮7-7號","121.681193333333","24.915175","6502000","坪林區"
"232010","375-UM","2018/08/23 07:19:17","新北市坪林區水聳淒坑7-8號","121.725518333333","24.9277383333333","6502000","坪林區"
"232018","705-BZ","2018/08/23 07:19:28","新北市坪林區樟空子5-1號","121.7273","24.9674566666667","6502000","坪林區"
"232007","758-BX","2018/08/23 07:19:23","新北市坪林區魚堀38-1號","121.698961666667","24.9316966666667","6502000","坪林區"
"244003","248-BX","2018/08/23 07:19:15","新北市林口區忠福路303號","121.356931666667","25.0785733333333","6501700","林口區"
"235001","611-BX","2018/08/23 07:19:25","新北市中和區圓通路367巷4號","121.491445","24.9892933333333","6500300","中和區"
"226005","5620-A6","2018/08/23 07:19:31","新北市平溪區菁桐里二坑路1號","121.721171666667","25.0242766666667","6502400","平溪區"
"226007","8452-VL","2018/08/23 07:19:29","新北市平溪區南山里南山坪4號","121.763133333333","25.0318816666667","6502400","平溪區"
"226003","AGD-0702","2018/08/23 07:19:17","新北市平溪區嶺腳里嶺腳寮60號","121.747763333333","25.03134","6502400","平溪區"
"223006","022-BY","2018/08/23 07:19:18","新北市石碇區深按2號","121.659458333333","25.0183466666667","6501900","石碇區"
"223002","KEA-2673","2018/08/23 07:19:27","新北市石碇區北宜路五段坑內巷14號","121.63392","24.9564","6501900","石碇區"
"223003","205-TH","2018/08/23 07:14:47","新北市石碇區烏塗窟10號","121.655765","24.97516","6501900","石碇區"
"223008","406-TH","2018/08/23 07:18:21","新北市石碇區靜安路一段337號","121.698796666667","25.014655","6501900","石碇區"
"223001","592-UM","2018/08/23 07:19:33","新北市石碇區烏塗窟26-2號","121.657373333333","24.975625","6501900","石碇區"
"223004","660-BX","2018/08/23 07:19:18","新北市石碇區新興坑4號","121.653583333333","25.016805","6501900","石碇區"
"223007","661-BX","2018/08/23 07:19:13","新北市石碇區蚯蚓坑18-1號","121.691671666667","25.0043816666667","6501900","石碇區"
"223005","677-TV","2018/08/23 07:19:34","新北市石碇區新興坑4-1號","121.653643333333","25.0167483333333","6501900","石碇區"
"227007","282-VK","2018/08/23 07:19:17","新北市雙溪區新基里自強路5號","121.86633","25.039095","6502500","雙溪區"
"252004","249-BX","2018/08/23 07:19:28","新北市三芝區福德里大湖10號","121.504681666667","25.223075","6502100","三芝區"
"252007","AAC-283","2018/08/23 07:19:36","新北市三芝區錫板里海尾25號","121.484105","25.25569","6502100","三芝區"
"236009","165-UM","2018/08/23 07:19:18","新北市土城區中華路一段48巷22號","121.4454","24.9902783333333","6501300","土城區"
"236003","339-SR","2018/08/23 07:19:29","新北市土城區和平路99-2號","121.448796666667","24.9691683333333","6501300","土城區"
"242052","751-BX","2018/08/23 07:19:23","新北市新莊區新泰路357巷3弄57號","121.442098333333","25.0391533333333","6500500","新莊區"
"242022","705-TV","2018/08/23 07:19:28","新北市新莊區三和路12-11號","121.44217","25.0370066666667","6500500","新莊區"
"242026","615-BX","2018/08/23 07:19:20","新北市新莊區三和路12-21號","121.442135","25.03874","6500500","新莊區"
"242049","441-UM","2018/08/23 07:19:18","新北市新莊區三和路12-21號","121.442211666667","25.0382683333333","6500500","新莊區"
