"lineid","car","time","location","longitude","latitude","cityid","cityname"
"248005","653-BX","2018/08/06 07:39:42","新北市五股區明德路12巷6號","121.433366666667","25.071795","6501500","五股區"
"232001","290-BY","2018/08/06 07:39:39","新北市坪林區上坑子口1-1號","121.698645","24.9572916666667","6502000","坪林區"
"232012","291-BY","2018/08/06 07:39:50","新北市坪林區金瓜寮15號","121.6826","24.9173916666667","6502000","坪林區"
"232010","375-UM","2018/08/06 07:39:31","新北市坪林區苦苓腳1-1號","121.713963333333","24.936335","6502000","坪林區"
"232017","705-BZ","2018/08/06 07:39:39","新北市坪林區大舌湖9號","121.73501","24.9753766666667","6502000","坪林區"
"232005","758-BX","2018/08/06 07:39:38","新北市坪林區魚堀37-17號","121.699201666667","24.9274","6502000","坪林區"
"244001","248-BX","2018/08/06 07:39:43","新北市林口區頂福里50號","121.342798333333","25.0957616666667","6501700","林口區"
"235001","611-BX","2018/08/06 07:39:40","新北市中和區圓通路367巷4號","121.491455","24.9893366666667","6500300","中和區"
"235010","733-UM","2018/08/06 07:39:32","新北市中和區和平街29-1號","121.50747","24.9910433333333","6500300","中和區"
"226005","5620-A6","2018/08/06 07:39:40","新北市平溪區靜安路二段291號","121.734225","25.0233883333333","6502400","平溪區"
"226001","7418-A5","2018/08/06 07:39:47","新北市平溪區平湖里大厝6號","121.778665","25.0315233333333","6502400","平溪區"
"226003","AGD-0702","2018/08/06 07:36:29","新北市平溪區嶺腳里嶺腳寮83-2號","121.750345","25.0349966666667","6502400","平溪區"
"223006","022-BY","2018/08/06 07:39:47","新北市石碇區番子坑17號","121.673873333333","25.001055","6501900","石碇區"
"223002","KEA-2673","2018/08/06 07:39:40","新北市石碇區北宜路五段大湖巷5-1號","121.632868333333","24.942085","6501900","石碇區"
"223003","205-TH","2018/08/06 07:39:39","新北市石碇區蓬菜寮7-2號","121.65274","24.974185","6501900","石碇區"
"223001","592-UM","2018/08/06 07:39:33","新北市石碇區烏塗窟28號","121.655508333333","24.9744866666667","6501900","石碇區"
"223004","660-BX","2018/08/06 07:39:49","新北市石碇區八分寮47-1號","121.64207","25.0135466666667","6501900","石碇區"
"223007","661-BX","2018/08/06 07:39:33","新北市石碇區大湖格21-4號","121.698248333333","25.0169616666667","6501900","石碇區"
"223005","677-TV","2018/08/06 07:39:37","新北市石碇區八分寮47-1號","121.642478333333","25.0138916666667","6501900","石碇區"
"227005","282-VK","2018/08/06 07:39:40","新北市雙溪區雙溪里太平路54號","121.864728333333","25.0354383333333","6502500","雙溪區"
"252006","073-UM","2018/08/06 07:39:45","新北市三芝區古庄里茂興店73-1號","121.493311666667","25.2637416666667","6502100","三芝區"
"252004","249-BX","2018/08/06 07:39:38","新北市三芝區店子里菜公坑99-3號","121.511875","25.2060933333333","6502100","三芝區"
"237001","159-UY","2018/08/06 07:39:38","新北市三峽區國慶路136號","121.375863333333","24.939655","6500900","三峽區"
"236007","165-UM","2018/08/06 07:39:32","新北市土城區延壽路29號","121.471015","24.9910333333333","6501300","土城區"
"236001","KEA-2877","2018/08/06 07:39:35","新北市土城區南天母路111巷24弄1號","121.448425","24.9560366666667","6501300","土城區"
"242057","986-R7","2018/08/06 07:39:44","新北市新莊區新泰路357巷3弄57號","121.442428333333","25.0394983333333","6500500","新莊區"
"242052","751-BX","2018/08/06 07:39:35","新北市新莊區公園一路67號","121.44245","25.0368583333333","6500500","新莊區"
"242026","615-BX","2018/08/06 07:39:40","新北市新莊區新泰路255巷83號","121.442193333333","25.038835","6500500","新莊區"
"242040","566-BX","2018/08/06 07:39:47","新北市新莊區新泰路255巷83號","121.442093333333","25.03902","6500500","新莊區"
"242045","497-BY","2018/08/06 07:39:32","新北市新莊區新泰路255巷83號","121.442138333333","25.0388766666667","6500500","新莊區"
"242006","442-UM","2018/08/06 07:39:45","新北市新莊區三和路12-21號","121.441793333333","25.038775","6500500","新莊區"
"242049","441-UM","2018/08/06 07:39:41","新北市新莊區新泰路357巷3弄49號","121.442051666667","25.04006","6500500","新莊區"
"242055","440-UM","2018/08/06 07:39:44","新北市新莊區新泰路357巷3弄57號","121.442196666667","25.0391916666667","6500500","新莊區"
"242035","415-TV","2018/08/06 07:39:38","新北市新莊區新泰路357巷3弄57號","121.442051666667","25.0392916666667","6500500","新莊區"
"242043","400-BY","2018/08/06 07:39:48","新北市新莊區新泰路357巷3弄45號","121.441921666667","25.0401416666667","6500500","新莊區"
"242022","362-BY","2018/08/06 07:39:32","新北市新莊區三和路12-21號","121.442391666667","25.0381616666667","6500500","新莊區"
"242059","353-BY","2018/08/06 07:39:43","新北市新莊區新泰路255巷83號","121.442266666667","25.0388433333333","6500500","新莊區"
"242038","133-UY","2018/08/06 07:39:42","新北市泰山區磚雅厝6號","121.441988333333","25.0427716666667","6500500","新莊區"
"242030","135-UY","2018/08/06 07:39:42","新北市新莊區三和路12-21號","121.441986666667","25.0386716666667","6500500","新莊區"
"242047","172-VK","2018/08/06 07:39:40","新北市新莊區中正路557號","121.435023333333","25.032735","6500500","新莊區"
"242016","175-VK","2018/08/06 07:39:45","新北市新莊區三和路12-21號","121.441995","25.0385416666667","6500500","新莊區"
"242003","176-VK","2018/08/06 07:39:31","新北市新莊區三和路12-21號","121.441935","25.0385466666667","6500500","新莊區"
"242012","347-TH","2018/08/06 07:39:46","新北市新莊區三和路12-16號","121.442115","25.037425","6500500","新莊區"
"242020","348-TH","2018/08/06 07:39:35","新北市新莊區新泰路357巷3弄51號","121.442251666667","25.03999","6500500","新莊區"
"242001","349-TH","2018/08/06 07:39:32","新北市新莊區三和路12-16號","121.441918333333","25.0373866666667","6500500","新莊區"
"242018","350-TH","2018/08/06 07:39:27","新北市新莊區三和路12-21號","121.44193","25.0388266666667","6500500","新莊區"
"242014","281-VK","2018/08/06 07:39:46","新北市新莊區三和路12-17號","121.441955","25.0375233333333","6500500","新莊區"
