"lineid","car","time","location","longitude","latitude","cityid","cityname"
"232001","290-BY","2018/12/24 08:19:10","新北市坪林區大粗坑6-1號","121.732233333333","24.9482616666667","6502000","坪林區"
"232012","291-BY","2018/12/24 08:19:06","新北市坪林區九芎根10-1號","121.664345","24.881225","6502000","坪林區"
"232017","705-BZ","2018/12/24 08:18:25","新北市坪林區柑腳坑13-2號","121.766545","24.948215","6502000","坪林區"
"232005","758-BX","2018/12/24 08:19:09","新北市坪林區石6號","121.709646666667","24.9084933333333","6502000","坪林區"
"244006","080-UY","2018/12/24 08:19:14","新北市林口區中湖里17鄰24號","121.377953333333","25.0967533333333","6501700","林口區"
"244001","248-BX","2018/12/24 08:19:16","新北市林口區頂福里64號","121.332443333333","25.10252","6501700","林口區"
"244018","402-UM","2018/12/24 08:19:06","新北市林口區文化一路一段190巷7弄1號","121.379733333333","25.07476","6501700","林口區"
"244012","KEA-2802","2018/12/24 08:19:14","新北市林口區中正路432號","121.384131666667","25.0777783333333","6501700","林口區"
"244022","483-VK","2018/12/24 08:19:14","新北市林口區興林路20-7號","121.389015","25.0762683333333","6501700","林口區"
"244016","485-VK","2018/12/24 08:19:21","新北市林口區中山路130號","121.392476666667","25.07859","6501700","林口區"
"244008","656-BX","2018/12/24 08:19:15","新北市林口區中北三街142號","121.383611666667","25.0836283333333","6501700","林口區"
"244021","658-BX","2018/12/24 08:19:10","新北市林口區仁愛路二段239號","121.375166666667","25.07624","6501700","林口區"
"244010","701-TV","2018/12/24 08:19:07","新北市林口區中正路443號","121.384851666667","25.0777416666667","6501700","林口區"
"244024","837-TS","2018/12/24 08:19:08","新北市林口區文化三路一段339號","121.364453333333","25.07296","6501700","林口區"
"244020","838-TS","2018/12/24 08:19:10","新北市林口區粉寮路一段149-4號","121.399306666667","25.081455","6501700","林口區"
"222005","289-BY","2018/12/24 08:19:16","新北市深坑區萬福路83號","121.601531666667","25.0094633333333","6501800","深坑區"
"231007","189-VK","2018/12/24 08:19:12","新北市新店區新潭路一段160巷17號","121.529656666667","24.932055","6500600","新店區"
"231008","192-VK","2018/12/24 08:19:05","新北市新店區櫻花街55巷18號","121.549018333333","24.9245766666667","6500600","新店區"
"235001","611-BX","2018/12/24 08:19:03","新北市中和區錦和路350-1號","121.490803333333","24.9928433333333","6500300","中和區"
"226005","5620-A6","2018/12/24 08:19:11","新北市平溪區南山里南山坪105號","121.781841666667","25.042925","6502400","平溪區"
"226001","7418-A5","2018/12/24 08:19:10","新北市平溪區南山里南山坪11-2號","121.764775","25.0324466666667","6502400","平溪區"
"226003","AGD-0702","2018/12/24 08:19:07","新北市平溪區十分里十分街54號","121.775201666667","25.0414316666667","6502400","平溪區"
"223006","022-BY","2018/12/24 08:19:07","新北市石碇區十八重溪63號","121.674918333333","25.013655","6501900","石碇區"
"223002","KEA-2673","2018/12/24 08:06:45","新北市石碇區北宜路五段80號","121.64656","24.951735","6501900","石碇區"
"223003","205-TH","2018/12/24 08:19:16","新北市石碇區小粗坑(格頭里)1號","121.65352","24.95429","6501900","石碇區"
"223008","406-TH","2018/12/24 08:19:09","新北市石碇區靜安路一段151號","121.671991666667","25.0060366666667","6501900","石碇區"
"223004","437-BY","2018/12/24 08:19:03","新北市石碇區碇坪路一段82號","121.657693333333","24.9913783333333","6501900","石碇區"
"223001","592-UM","2018/12/24 08:19:11","新北市石碇區小粗坑(格頭里)1號","121.65338","24.9542966666667","6501900","石碇區"
"223005","677-TV","2018/12/24 08:19:20","新北市石碇區碇坪路一段86號","121.657821666667","24.9914133333333","6501900","石碇區"
"227005","282-VK","2018/12/24 08:18:54","新北市雙溪區上林里大瀨13號","121.824398333333","25.0202283333333","6502500","雙溪區"
"252006","073-UM","2018/12/24 08:19:17","新北市三芝區後厝里土地公坑62-5號","121.463885","25.2446166666667","6502100","三芝區"
"252004","249-BX","2018/12/24 08:19:14","新北市三芝區興華里車埕61號","121.498485","25.197555","6502100","三芝區"
"237001","361-BY","2018/12/24 08:19:12","新北市三峽區大學路86號","121.375818333333","24.94223","6500900","三峽區"
"242057","986-R7","2018/12/24 08:19:03","新北市新莊區新北大道七段371號","121.41257","25.0265666666667","6500500","新莊區"
"242055","751-BX","2018/12/24 08:19:18","新北市新莊區瓊林路40巷34號","121.44654","25.0302433333333","6500500","新莊區"
"242026","615-BX","2018/12/24 08:19:05","新北市新莊區福壽街155號","121.458005","25.0533466666667","6500500","新莊區"
"242024","613-BX","2018/12/24 08:19:11","新北市新莊區新北大道二段175號","121.464201666667","25.0607766666667","6500500","新莊區"
"242028","612-BX","2018/12/24 08:19:11","新北市新莊區復興路一段2號","121.445528333333","25.0413116666667","6500500","新莊區"
"242043","566-BX","2018/12/24 08:19:13","新北市新莊區富國路32號","121.418896666667","25.02621","6500500","新莊區"
"242047","497-BY","2018/12/24 08:19:21","新北市新莊區萬安街60巷11號","121.420525","25.0233233333333","6500500","新莊區"
"242020","442-UM","2018/12/24 08:19:22","新北市新莊區永寧街35巷1號","121.452818333333","25.0392566666667","6500500","新莊區"
"242052","441-UM","2018/12/24 08:19:12","新北市新莊區新樹路699巷9號","121.432635","25.001845","6500500","新莊區"
"242001","440-UM","2018/12/24 08:19:04","新北市新莊區大觀街42巷2-7號","121.454005","25.0355333333333","6500500","新莊區"
"242038","415-TV","2018/12/24 08:19:12","新北市新莊區民安路101號","121.424615","25.0252683333333","6500500","新莊區"
"242008","413-TV","2018/12/24 08:19:14","新北市新莊區昌明街32號","121.456643333333","25.0523766666667","6500500","新莊區"
"242045","400-BY","2018/12/24 08:19:04","新北市新莊區建國一路70號","121.434261666667","25.0305616666667","6500500","新莊區"
"242022","362-BY","2018/12/24 08:19:07","新北市新莊區福壽街23號","121.458053333333","25.0480766666667","6500500","新莊區"
"242059","353-BY","2018/12/24 08:19:22","新北市新莊區新樹路525-2號","121.432788333333","25.0100966666667","6500500","新莊區"
"242010","132-UY","2018/12/24 08:19:20","新北市新莊區中港路752號","121.450325","25.0585483333333","6500500","新莊區"
"242033","135-UY","2018/12/24 08:19:17","新北市新莊區新莊路652號","121.4426","25.0329666666667","6500500","新莊區"
"242049","172-VK","2018/12/24 08:19:02","新北市新莊區龍安路500號","121.42664","25.01717","6500500","新莊區"
"242012","173-VK","2018/12/24 08:19:15","新北市新莊區中誠街169巷1弄1號","121.44825","25.0470133333333","6500500","新莊區"
"242016","KED-0687","2018/12/24 08:19:03","新北市新莊區永安街88號","121.450645","25.0446316666667","6500500","新莊區"
"242006","346-TH","2018/12/24 08:19:05","新北市新莊區自信街42號","121.45464","25.0482666666667","6500500","新莊區"
"242030","348-TH","2018/12/24 08:19:08","新北市新莊區新泰路357巷3弄1號","121.442358333333","25.0412833333333","6500500","新莊區"
"242003","349-TH","2018/12/24 08:19:15","新北市新莊區福樂街56巷24號","121.458603333333","25.0461583333333","6500500","新莊區"
"242014","351-TH","2018/12/24 08:19:09","新北市新莊區新泰路502巷56號","121.444505","25.0463383333333","6500500","新莊區"
"242040","281-VK","2018/12/24 08:19:05","新北市新莊區中正路612-1號","121.426166666667","25.0302516666667","6500500","新莊區"
"242018","280-VK","2018/12/24 08:19:05","新北市新莊區民樂街53號","121.457958333333","25.0414416666667","6500500","新莊區"
"220069","568-UM","2018/12/24 08:19:14","新北市板橋區板城路271號","121.449981666667","24.9978816666667","6500100","板橋區"
