"lineid","car","time","location","longitude","latitude","cityid","cityname"
"232001","290-BY","2018/12/24 08:29:10","新北市坪林區大粗坑6-1號","121.732226666667","24.9482633333333","6502000","坪林區"
"232012","291-BY","2018/12/24 08:29:06","新北市坪林區金瓜寮35號","121.67481","24.901435","6502000","坪林區"
"232017","705-BZ","2018/12/24 08:25:25","新北市坪林區柑腳坑15號","121.772116666667","24.9463383333333","6502000","坪林區"
"232005","758-BX","2018/12/24 08:29:09","新北市坪林區魚堀13-1號","121.705265","24.9087416666667","6502000","坪林區"
"244006","080-UY","2018/12/24 08:29:14","新北市林口區湖子15-1號","121.386726666667","25.0906166666667","6501700","林口區"
"244001","248-BX","2018/12/24 08:29:16","新北市林口區下福里6號","121.315765","25.10944","6501700","林口區"
"244018","402-UM","2018/12/24 08:29:06","新北市林口區公園路191號","121.371961666667","25.0723183333333","6501700","林口區"
"244012","KEA-2802","2018/12/24 08:29:14","新北市林口區中山路67號","121.393756666667","25.078445","6501700","林口區"
"244022","483-VK","2018/12/24 08:29:14","新北市林口區興林一街96巷29號","121.391168333333","25.0716316666667","6501700","林口區"
"244016","485-VK","2018/12/24 08:29:01","新北市林口區文化一路一段89-2號","121.371808333333","25.0701083333333","6501700","林口區"
"244008","656-BX","2018/12/24 08:29:16","新北市林口區中北三街59號","121.384758333333","25.085625","6501700","林口區"
"244021","658-BX","2018/12/24 08:29:10","新北市林口區忠孝路600號","121.37615","25.0684966666667","6501700","林口區"
"244010","701-TV","2018/12/24 08:29:07","新北市林口區中興街20號","121.388741666667","25.0772","6501700","林口區"
"244024","837-TS","2018/12/24 08:29:08","新北市林口區忠孝三路27號","121.360793333333","25.0691933333333","6501700","林口區"
"244020","838-TS","2018/12/24 08:29:10","新北市林口區自強四街1號","121.398775","25.0769266666667","6501700","林口區"
"222005","289-BY","2018/12/24 08:29:16","新北市深坑區萬福路161號","121.612445","25.0155166666667","6501800","深坑區"
"231007","189-VK","2018/12/24 08:29:12","新北市新店區新潭路二段112-1號","121.51387","24.9243466666667","6500600","新店區"
"231008","192-VK","2018/12/24 08:29:05","新北市新店區新烏路三段165巷41號","121.553285","24.901855","6500600","新店區"
"235001","611-BX","2018/12/24 08:29:03","新北市中和區新生街112巷20號","121.482301666667","25.0030866666667","6500300","中和區"
"226005","5620-A6","2018/12/24 08:29:11","新北市平溪區南山里六分9號","121.796471666667","25.0496633333333","6502400","平溪區"
"226001","7418-A5","2018/12/24 08:29:10","新北市平溪區東勢里東勢格1-1號","121.748645","25.0025966666667","6502400","平溪區"
"226003","AGD-0702","2018/12/24 08:29:07","新北市平溪區新寮里月桃寮路3-7號","121.786936666667","25.0532333333333","6502400","平溪區"
"223006","022-BY","2018/12/24 08:29:08","新北市石碇區靜安路一段184號","121.669501666667","25.0052683333333","6501900","石碇區"
"223002","KEA-2673","2018/12/24 08:29:19","新北市石碇區小粗坑(格頭里)1號","121.651328333333","24.9522416666667","6501900","石碇區"
"223003","205-TH","2018/12/24 08:29:16","新北市石碇區北宜路六段十三股巷1號","121.648918333333","24.94891","6501900","石碇區"
"223008","406-TH","2018/12/24 08:29:13","新北市石碇區靜安路一段213號","121.673925","25.009345","6501900","石碇區"
"223004","437-BY","2018/12/24 08:29:23","新北市石碇區碇坪路一段151號","121.675401666667","24.9780616666667","6501900","石碇區"
"223001","592-UM","2018/12/24 08:27:51","新北市石碇區北宜路六段獅子頭坑巷2號","121.645176666667","24.9412566666667","6501900","石碇區"
"223005","677-TV","2018/12/24 08:29:01","新北市石碇區碇坪路一段242號","121.675371666667","24.9783466666667","6501900","石碇區"
"227005","282-VK","2018/12/24 08:29:15","新北市雙溪區外柑里三叉坑11-3號","121.829385","25.003655","6502500","雙溪區"
"252006","073-UM","2018/12/24 08:29:17","新北市三芝區後厝里番社后39號","121.468808333333","25.2433466666667","6502100","三芝區"
"252004","249-BX","2018/12/24 08:29:14","新北市三芝區興華里車埕62號","121.49867","25.1969","6502100","三芝區"
"237001","361-BY","2018/12/24 08:29:12","新北市三峽區大學路86-3號","121.375743333333","24.94266","6500900","三峽區"
"242035","AAC-296","2018/12/24 08:29:09","新北市新莊區建福路62號","121.426763333333","25.02711","6500500","新莊區"
"242057","986-R7","2018/12/24 08:29:23","新北市新莊區新北大道七段239號","121.412931666667","25.0296916666667","6500500","新莊區"
"242055","751-BX","2018/12/24 08:29:03","新北市新莊區豐年街124巷26號","121.445368333333","25.0298866666667","6500500","新莊區"
"242026","615-BX","2018/12/24 08:29:04","新北市新莊區思源路457號","121.459808333333","25.0535266666667","6500500","新莊區"
"242024","613-BX","2018/12/24 08:29:07","新北市新莊區新北大道二段370號","121.461986666667","25.0623533333333","6500500","新莊區"
"242028","612-BX","2018/12/24 08:29:11","新北市新莊區中平路116號","121.444861666667","25.0462816666667","6500500","新莊區"
"242043","566-BX","2018/12/24 08:29:13","新北市新莊區雙鳳路82號","121.415003333333","25.027745","6500500","新莊區"
"242047","497-BY","2018/12/24 08:29:21","新北市新莊區萬安街47巷28號","121.422726666667","25.02413","6500500","新莊區"
"242020","442-UM","2018/12/24 08:29:23","新北市新莊區建興街73巷2號","121.450038333333","25.0381616666667","6500500","新莊區"
"242052","441-UM","2018/12/24 08:29:12","新北市新莊區民安西路468-1號","121.431673333333","25.0078383333333","6500500","新莊區"
"242001","440-UM","2018/12/24 08:29:11","新北市新莊區新莊路80號","121.457311666667","25.0365383333333","6500500","新莊區"
"242038","415-TV","2018/12/24 08:29:04","新北市新莊區民安西路24巷23號","121.426046666667","25.0205583333333","6500500","新莊區"
"242008","413-TV","2018/12/24 08:29:10","新北市新莊區中華路二段258巷15號","121.453183333333","25.0537983333333","6500500","新莊區"
"242045","400-BY","2018/12/24 08:29:04","新北市新莊區福營路167號","121.431801666667","25.03123","6500500","新莊區"
"242022","362-BY","2018/12/24 08:29:07","新北市新莊區化成路328號","121.465743333333","25.0486983333333","6500500","新莊區"
"242059","353-BY","2018/12/24 08:29:02","新北市新莊區新樹路295號","121.433888333333","25.0202083333333","6500500","新莊區"
"242010","132-UY","2018/12/24 08:29:20","新北市新莊區中原路235巷1弄4號","121.449846666667","25.0539333333333","6500500","新莊區"
"242033","135-UY","2018/12/24 08:29:23","新北市新莊區福海街24巷11號","121.445976666667","25.0341366666667","6500500","新莊區"
"242049","172-VK","2018/12/24 08:29:22","新北市新莊區民本街25巷15號","121.428995","25.019505","6500500","新莊區"
"242012","173-VK","2018/12/24 08:29:15","新北市新莊區中和街148號","121.447388333333","25.04846","6500500","新莊區"
"242016","KED-0687","2018/12/24 08:29:06","新北市新莊區中和街58號","121.448163333333","25.044715","6500500","新莊區"
"242006","346-TH","2018/12/24 08:29:05","新北市新莊區中華路二段83號","121.45279","25.0480316666667","6500500","新莊區"
"242030","348-TH","2018/12/24 08:29:22","新北市新莊區新泰路305巷15號","121.444656666667","25.0409116666667","6500500","新莊區"
"242003","349-TH","2018/12/24 08:29:15","新北市新莊區自由街24號","121.455871666667","25.047035","6500500","新莊區"
"242014","351-TH","2018/12/24 08:29:09","新北市新莊區中平路121號","121.444785","25.046705","6500500","新莊區"
"242040","281-VK","2018/12/24 08:29:12","新北市新莊區明志路17號","121.41999","25.0290533333333","6500500","新莊區"
"220023","303-R5","2018/12/24 08:29:17","新北市板橋區大觀路三段57號","121.433871666667","24.99538","6500100","板橋區"
"242018","280-VK","2018/12/24 08:29:15","新北市新莊區中港路82巷14號","121.456433333333","25.0392033333333","6500500","新莊區"
"220069","568-UM","2018/12/24 08:29:15","新北市板橋區文化路一段18-1號","121.457878333333","25.0128816666667","6500100","板橋區"
