"lineid","car","time","location","longitude","latitude","cityid","cityname"
"232001","290-BY","2018/12/24 08:59:10","新北市坪林區九芎坑16-3號","121.739463333333","24.9491633333333","6502000","坪林區"
"232012","291-BY","2018/12/24 08:59:06","新北市坪林區北宜路八段6號","121.701126666667","24.9357933333333","6502000","坪林區"
"244006","080-UY","2018/12/24 08:59:14","新北市林口區林口路124巷10弄5號","121.389138333333","25.0816083333333","6501700","林口區"
"244001","248-BX","2018/12/24 08:59:16","新北市林口區嘉溪雅坑3-4號","121.342151666667","25.1032033333333","6501700","林口區"
"244018","402-UM","2018/12/24 08:59:06","新北市林口區文化一路一段124號","121.374858333333","25.0721916666667","6501700","林口區"
"244012","KEA-2802","2018/12/24 08:59:14","新北市林口區佳林路132號","121.384776666667","25.07809","6501700","林口區"
"244022","483-VK","2018/12/24 08:59:14","新北市林口區東湖路98號","121.38542","25.0736916666667","6501700","林口區"
"244016","485-VK","2018/12/24 08:59:21","新北市林口區八德路48巷15號","121.366826666667","25.0667883333333","6501700","林口區"
"244008","656-BX","2018/12/24 08:59:15","新北市林口區文林二街16號","121.376821666667","25.0888483333333","6501700","林口區"
"244010","701-TV","2018/12/24 08:59:07","新北市林口區中原街11號","121.392766666667","25.077765","6501700","林口區"
"244024","837-TS","2018/12/24 08:59:08","新北市林口區南勢六街248號","121.355988333333","25.07483","6501700","林口區"
"244020","838-TS","2018/12/24 08:59:10","新北市林口區工六路2號","121.397646666667","25.0792766666667","6501700","林口區"
"222005","289-BY","2018/12/24 08:59:16","新北市深坑區風格街31巷10號","121.627898333333","25.017325","6501800","深坑區"
"231007","189-VK","2018/12/24 08:59:12","新北市新店區新潭路三段215巷25號","121.508115","24.9040783333333","6500600","新店區"
"231008","192-VK","2018/12/24 08:59:05","新北市新店區廣興路66巷3號","121.538773333333","24.913705","6500600","新店區"
"235001","611-BX","2018/12/24 08:59:03","新北市中和區華安街16巷12-5號","121.46602","24.9979066666667","6500300","中和區"
"226001","7418-A5","2018/12/24 08:42:10","新北市平溪區東勢里東勢格41號","121.7614","24.9899016666667","6502400","平溪區"
"226003","AGD-0702","2018/12/24 08:59:07","新北市平溪區十分里十分街236號","121.77814","25.04409","6502400","平溪區"
"223006","022-BY","2018/12/24 08:53:18","新北市深坑區昇高坑路51-1號","121.630441666667","24.9940233333333","6501900","石碇區"
"223002","KEA-2673","2018/12/24 08:59:19","新北市石碇區外按18-2號","121.651501666667","25.0002566666667","6501900","石碇區"
"223003","205-TH","2018/12/24 08:59:16","新北市石碇區北宜路六段水底寮巷18號","121.662676666667","24.9416233333333","6501900","石碇區"
"223008","406-TH","2018/12/24 08:56:47","新北市石碇區光明路16號","121.686188333333","25.03283","6501900","石碇區"
"223004","437-BY","2018/12/24 08:59:11","新北市石碇區崩山58號","121.686405","24.965935","6501900","石碇區"
"223001","592-UM","2018/12/24 08:59:11","新北市石碇區北宜路六段水底寮巷11-1號","121.66531","24.9461983333333","6501900","石碇區"
"223005","677-TV","2018/12/24 08:59:20","新北市石碇區崩山58號","121.687165","24.9659283333333","6501900","石碇區"
"227005","282-VK","2018/12/24 08:59:15","新北市雙溪區泰平里料角坑13-1號","121.815443333333","24.9731283333333","6502500","雙溪區"
"252006","073-UM","2018/12/24 08:59:17","新北市三芝區埔頭里埔頭24號","121.491146666667","25.260345","6502100","三芝區"
"252004","249-BX","2018/12/24 08:59:14","新北市三芝區興華里田心子17-1號","121.493626666667","25.20435","6502100","三芝區"
"242035","AAC-296","2018/12/24 08:59:13","新北市新莊區民安路207巷34弄2號","121.428353333333","25.0245783333333","6500500","新莊區"
"242057","986-R7","2018/12/24 08:59:13","新北市新莊區中正路889-5號","121.41519","25.02371","6500500","新莊區"
"242055","751-BX","2018/12/24 08:59:03","新北市新莊區瓊泰路92號","121.44326","25.0293833333333","6500500","新莊區"
"242026","615-BX","2018/12/24 08:59:04","新北市新莊區立信三街12巷12號","121.444213333333","25.0510383333333","6500500","新莊區"
"242024","613-BX","2018/12/24 08:59:07","新北市新莊區五工一路87巷8-1號","121.461025","25.0672683333333","6500500","新莊區"
"242028","612-BX","2018/12/24 08:59:11","新北市新莊區中原路319號","121.446436666667","25.0544883333333","6500500","新莊區"
"242043","566-BX","2018/12/24 08:59:15","新北市新莊區龍安路71-5號","121.41595","25.02191","6500500","新莊區"
"242047","497-BY","2018/12/24 08:59:21","新北市新莊區四維路10號","121.423801666667","25.0252333333333","6500500","新莊區"
"242020","442-UM","2018/12/24 08:59:21","新北市新莊區新泰路249號","121.446193333333","25.0397033333333","6500500","新莊區"
"242052","441-UM","2018/12/24 08:59:19","新北市新莊區西盛街420號","121.427138333333","25.0121166666667","6500500","新莊區"
"242001","440-UM","2018/12/24 08:59:04","新北市新莊區中正路141號","121.459751666667","25.0385133333333","6500500","新莊區"
"242038","415-TV","2018/12/24 08:59:04","新北市新莊區民安路294號","121.427981666667","25.02185","6500500","新莊區"
"242008","413-TV","2018/12/24 08:59:10","新北市新莊區昌隆街58巷1弄12號","121.455478333333","25.0505533333333","6500500","新莊區"
"242045","400-BY","2018/12/24 08:59:04","新北市新莊區民安路16-9號","121.422691666667","25.0281383333333","6500500","新莊區"
"242022","362-BY","2018/12/24 08:59:07","新北市新莊區化成路750-1號","121.46549","25.0577966666667","6500500","新莊區"
"242059","353-BY","2018/12/24 08:59:22","新北市新莊區民安路186號","121.425446666667","25.0236366666667","6500500","新莊區"
"242010","132-UY","2018/12/24 08:59:20","新北市新莊區中港路531巷54號","121.450048333333","25.0515083333333","6500500","新莊區"
"242033","135-UY","2018/12/24 08:59:17","新北市新莊區建中街81巷8號","121.447303333333","25.0361766666667","6500500","新莊區"
"242049","172-VK","2018/12/24 08:59:22","新北市新莊區民安西路252巷31號","121.425045","25.01382","6500500","新莊區"
"242012","173-VK","2018/12/24 08:59:14","新北市新莊區中信街63巷4弄12號","121.448523333333","25.0501983333333","6500500","新莊區"
"242016","KED-0687","2018/12/24 08:59:03","新北市新莊區中港一街44號","121.450628333333","25.0455883333333","6500500","新莊區"
"242006","346-TH","2018/12/24 08:59:05","新北市新莊區福壽街124巷34弄15號","121.459295","25.0507033333333","6500500","新莊區"
"242030","348-TH","2018/12/24 08:59:21","新北市新莊區新泰路225巷11號","121.445875","25.0391816666667","6500500","新莊區"
"242003","349-TH","2018/12/24 08:59:14","新北市新莊區化成路63巷24弄40號","121.461588333333","25.0459516666667","6500500","新莊區"
"242014","351-TH","2018/12/24 08:59:09","新北市新莊區中平路26巷37號","121.446708333333","25.043325","6500500","新莊區"
"242040","281-VK","2018/12/24 08:59:05","新北市新莊區天祥街114號","121.414751666667","25.0297166666667","6500500","新莊區"
"220023","303-R5","2018/12/24 08:56:31","新北市板橋區溪城路90-2號","121.42918","24.9801883333333","6500100","板橋區"
"242018","280-VK","2018/12/24 08:59:07","新北市新莊區博愛路9巷1號","121.456048333333","25.0440216666667","6500500","新莊區"
"220069","568-UM","2018/12/24 08:59:14","新北市板橋區民權路202巷22號","121.461038333333","25.0166516666667","6500100","板橋區"
