"lineid","car","time","location","longitude","latitude","cityid","cityname"
"244006","080-UY","2018/12/24 09:19:14","新北市林口區後湖11鄰19號","121.387848333333","25.098695","6501700","林口區"
"244001","248-BX","2018/12/24 09:19:16","新北市林口區粉寮69號","121.40488","25.0907783333333","6501700","林口區"
"244018","402-UM","2018/12/24 09:19:06","新北市林口區忠孝路616巷15號","121.377206666667","25.0676616666667","6501700","林口區"
"244012","KEA-2802","2018/12/24 09:19:14","新北市林口區麗園二街1巷2-2號","121.376945","25.069865","6501700","林口區"
"244022","483-VK","2018/12/24 09:19:14","新北市林口區東湖路117巷2號","121.383156666667","25.0728016666667","6501700","林口區"
"244016","485-VK","2018/12/24 09:19:21","新北市林口區八德路78號","121.365525","25.0655516666667","6501700","林口區"
"244008","656-BX","2018/12/24 09:18:15","新北市林口區竹林路278巷16號","121.390816666667","25.0811983333333","6501700","林口區"
"244010","701-TV","2018/12/24 09:19:07","新北市林口區仁愛路一段285巷116號","121.395611666667","25.0755983333333","6501700","林口區"
"244024","837-TS","2018/12/24 09:19:08","新北市林口區民族路96號","121.366331666667","25.0757616666667","6501700","林口區"
"222005","289-BY","2018/12/24 09:19:16","新北市深坑區土庫尖路75-1號","121.631191666667","25.0182116666667","6501800","深坑區"
"231007","189-VK","2018/12/24 09:19:12","新北市新店區新潭路三段215巷25號","121.508123333333","24.9041283333333","6500600","新店區"
"231008","192-VK","2018/12/24 09:19:05","新北市新店區平廣路一段35巷7號","121.533918333333","24.9027","6500600","新店區"
"235001","611-BX","2018/12/24 09:19:03","新北市中和區連城路569巷9弄1號","121.479383333333","24.9943333333333","6500300","中和區"
"226003","AGD-0702","2018/12/24 09:19:07","新北市平溪區嶺腳里嶺腳寮114號","121.745566666667","25.0333966666667","6502400","平溪區"
"223006","022-BY","2018/12/24 09:19:14","新北市深坑區烏月路1號","121.634073333333","25.0084416666667","6501900","石碇區"
"223003","205-TH","2018/12/24 09:19:16","新北市石碇區北宜路五段十股寮巷10號","121.642761666667","24.9532716666667","6501900","石碇區"
"223008","406-TH","2018/12/24 09:19:07","新北市石碇區光明路28號","121.695271666667","25.0237483333333","6501900","石碇區"
"223004","437-BY","2018/12/24 09:19:03","新北市石碇區碇坪路二段9號","121.679996666667","24.9755133333333","6501900","石碇區"
"223001","592-UM","2018/12/24 09:19:11","新北市石碇區北宜路五段十股寮巷9號","121.6427","24.9531933333333","6501900","石碇區"
"223005","677-TV","2018/12/24 09:19:00","新北市石碇區碇坪路二段9號","121.680446666667","24.975655","6501900","石碇區"
"227005","282-VK","2018/12/24 09:19:14","新北市雙溪區泰平里料角坑13-1號","121.816115","24.9712533333333","6502500","雙溪區"
"252006","073-UM","2018/12/24 09:14:14","新北市三芝區埔坪里埔頭坑41號","121.50446","25.2644666666667","6502100","三芝區"
"252004","249-BX","2018/12/24 09:19:14","新北市三芝區興華里田心子20-8號","121.494005","25.201345","6502100","三芝區"
"252006","AAC-283","2018/12/24 09:19:15","新北市三芝區埔坪里埔頭坑41號","121.50454","25.2645766666667","6502100","三芝區"
"242035","AAC-296","2018/12/24 09:19:06","新北市新莊區後港一路56巷24弄1號","121.42664","25.0252483333333","6500500","新莊區"
"242057","986-R7","2018/12/24 09:19:03","新北市新莊區八德街115號","121.424081666667","25.0208483333333","6500500","新莊區"
"242055","751-BX","2018/12/24 09:19:23","新北市新莊區豐年街28巷1弄11號","121.446193333333","25.03193","6500500","新莊區"
"242026","615-BX","2018/12/24 09:19:24","新北市新莊區思源路103號","121.459823333333","25.0417183333333","6500500","新莊區"
"242024","613-BX","2018/12/24 09:19:22","新北市新莊區五工三路62巷31號","121.4605","25.0653216666667","6500500","新莊區"
"242028","612-BX","2018/12/24 09:19:11","新北市新莊區昌隆街10號","121.453166666667","25.0508683333333","6500500","新莊區"
"242043","566-BX","2018/12/24 09:19:13","新北市新莊區中正路891-51號","121.412526666667","25.0222383333333","6500500","新莊區"
"242047","497-BY","2018/12/24 09:19:21","新北市樹林區三俊街199巷24號","121.42117","25.0179183333333","6500500","新莊區"
"242020","442-UM","2018/12/24 09:19:21","新北市新莊區公園路100號","121.450713333333","25.0397566666667","6500500","新莊區"
"242052","441-UM","2018/12/24 09:19:12","新北市新莊區民安西路245巷8號","121.426503333333","25.0136816666667","6500500","新莊區"
"242001","440-UM","2018/12/24 09:19:04","新北市新莊區中正路56巷6號","121.461423333333","25.040695","6500500","新莊區"
"242038","415-TV","2018/12/24 09:19:13","新北市新莊區成功街72號","121.424258333333","25.01914","6500500","新莊區"
"242045","400-BY","2018/12/24 09:19:07","新北市新莊區中正路新生巷10號","121.416805","25.0239416666667","6500500","新莊區"
"242022","362-BY","2018/12/24 09:19:25","新北市新莊區化成路355號","121.465708333333","25.05674","6500500","新莊區"
"242059","353-BY","2018/12/24 09:19:09","新北市新莊區瓊林路瓊英巷8弄1號","121.44314","25.027765","6500500","新莊區"
"242010","132-UY","2018/12/24 09:19:20","新北市新莊區中信街23巷1號","121.451071666667","25.050605","6500500","新莊區"
"242033","135-UY","2018/12/24 09:19:17","新北市新莊區中正路222號","121.448801666667","25.0355816666667","6500500","新莊區"
"242049","172-VK","2018/12/24 09:19:22","新北市新莊區民安西路39號","121.427513333333","25.0209066666667","6500500","新莊區"
"242012","173-VK","2018/12/24 09:19:14","新北市新莊區中和街175巷11號","121.447245","25.0506416666667","6500500","新莊區"
"242030","348-TH","2018/12/24 09:19:21","新北市新莊區中正路360號","121.44369","25.0342533333333","6500500","新莊區"
"242003","349-TH","2018/12/24 09:19:14","新北市新莊區化成路554巷25號","121.467068333333","25.0539866666667","6500500","新莊區"
"242014","351-TH","2018/12/24 09:19:09","新北市新莊區中和街55號","121.447983333333","25.0447333333333","6500500","新莊區"
"242040","281-VK","2018/12/24 09:19:08","新北市新莊區天祥街57號","121.416306666667","25.02907","6500500","新莊區"
"220023","303-R5","2018/12/24 09:18:15","新北市板橋區華東街1-9號","121.448188333333","24.9949916666667","6500100","板橋區"
"220069","568-UM","2018/12/24 09:06:59","新北市板橋區中正路335號","121.454868333333","25.0202083333333","6500100","板橋區"
