"lineid","car","time","location","longitude","latitude","cityid","cityname"
"244022","483-VK","2018/12/24 10:29:14","新北市林口區文化三路一段555巷1號","121.369801666667","25.0760416666667","6501700","林口區"
"231007","189-VK","2018/12/24 10:29:12","新北市新店區小坑二路136號","121.513211666667","24.9105833333333","6500600","新店區"
"231008","192-VK","2018/12/24 10:28:45","新北市新店區成功路43號","121.543806666667","24.90188","6500600","新店區"
"223003","205-TH","2018/12/24 10:17:36","新北市石碇區小粗坑(潭邊里)9-2號","121.678233333333","24.985715","6501900","石碇區"
"227005","282-VK","2018/12/24 10:29:14","新北市雙溪區泰平里溪尾寮46號","121.821396666667","24.9675733333333","6502500","雙溪區"
"252006","AAC-283","2018/12/24 10:29:15","新北市三芝區埔坪里埔頭坑33號","121.501518333333","25.261715","6502100","三芝區"
"237001","159-UY","2018/12/24 10:29:23","新北市三峽區大觀路311號","121.373161666667","24.94742","6500900","三峽區"
"242003","349-TH","2018/12/24 10:29:14","新北市樹林區環河路600-2號","121.40317","24.969335","6500500","新莊區"
