"lineid","car","time","location","longitude","latitude","cityid","cityname"
"234044","148-BY","2018/12/24 12:29:19","新北市永和區福和路1號","121.526435","25.0099516666667","6500400","永和區"
"234068","552-UM","2018/12/24 12:29:08","新北市永和區福和路1號","121.525603333333","25.00954","6500400","永和區"
"234084","553-UM","2018/12/24 12:29:24","新北市永和區豫溪街217巷1號","121.524761666667","25.0093816666667","6500400","永和區"
"234015","745-BX","2018/12/24 12:29:13","新北市永和區福和路1號","121.526516666667","25.00966","6500400","永和區"
"234012","KEA-2591","2018/12/24 12:29:07","新北市永和區豫溪街217巷29號","121.524526666667","25.0104166666667","6500400","永和區"
"234040","862-TW","2018/12/24 12:29:12","新北市永和區福和路1號","121.526236666667","25.0098766666667","6500400","永和區"
"234022","9380-KE","2018/12/24 12:29:21","新北市永和區福和路1號","121.526275","25.0097466666667","6500400","永和區"
"234076","969-R7","2018/12/24 12:29:17","新北市永和區福和路1號","121.526311666667","25.009795","6500400","永和區"
"243004","646-TV","2018/12/24 12:23:58","新北市泰山區黎明路25號","121.422098333333","25.0607816666667","6501600","泰山區"
"235029","911-UM","2018/12/24 12:29:25","新北市中和區員山路36巷16-2號","121.485335","24.9915566666667","6500300","中和區"
"227005","282-VK","2018/12/24 12:29:14","新北市雙溪區三貂里政光路3-1號","121.850863333333","25.0629966666667","6502500","雙溪區"
"207001","291-VK","2018/12/24 12:29:19","新北市萬里區雙興里太和路7-2號","121.658618333333","25.1741333333333","6502800","萬里區"
"220023","303-R5","2018/12/24 12:14:42","新北市板橋區華東街1-10號","121.448226666667","24.9949916666667","6500100","板橋區"
