"lineid","car","time","location","longitude","latitude","cityid","cityname"
"234044","148-BY","2018/12/24 12:59:19","新北市永和區得和路373巷16弄1號","121.525113333333","25.0003183333333","6500400","永和區"
"234078","298-R6","2018/12/24 12:59:13","新北市永和區永亨路83號","121.521918333333","25.00576","6500400","永和區"
"234036","336-UY","2018/12/24 12:59:27","新北市中和區秀朗路三段38號","121.526465","24.995985","6500400","永和區"
"234062","337-UY","2018/12/24 12:59:13","新北市永和區秀朗路一段146號","121.51817","25.0033666666667","6500400","永和區"
"234068","552-UM","2018/12/24 12:59:08","新北市永和區中興街96號","121.518863333333","25.012045","6500400","永和區"
"234084","553-UM","2018/12/24 12:59:24","新北市永和區中正路397號","121.517273333333","25.004155","6500400","永和區"
"234015","745-BX","2018/12/24 12:59:13","新北市永和區永和路二段297號","121.51592","25.0160833333333","6500400","永和區"
"234028","746-BX","2018/12/24 12:59:21","新北市永和區秀朗路二段291號","121.526191666667","24.998035","6500400","永和區"
"234052","KEA-2590","2018/12/24 12:59:24","新北市永和區竹林路66巷5號","121.518155","25.0132516666667","6500400","永和區"
"234005","839-RS","2018/12/24 12:59:17","新北市永和區中山路一段24號","121.51382","25.0104933333333","6500400","永和區"
"234012","KEA-2591","2018/12/24 12:59:27","新北市永和區信義路17巷10號","121.51384","25.0116566666667","6500400","永和區"
"234060","AAD-866","2018/12/24 12:59:06","新北市永和區中正路509巷4號","121.516496666667","25.007075","6500400","永和區"
"234040","862-TW","2018/12/24 12:59:12","新北市永和區永貞路326號","121.511395","25.0053033333333","6500400","永和區"
"234048","863-TW","2018/12/24 12:59:07","新北市永和區環河西路一段107號","121.511023333333","25.0175016666667","6500400","永和區"
"234025","9371-KE","2018/12/24 12:59:23","新北市永和區水源街2巷15號","121.512038333333","25.005645","6500400","永和區"
"234010","9373-KE","2018/12/24 12:59:26","新北市永和區文化路113巷21弄2號","121.513268333333","25.014085","6500400","永和區"
"248013","025-BX","2018/12/24 12:59:17","新北市五股區中興路二段161號","121.457686666667","25.0774566666667","6501500","五股區"
"248015","026-BX","2018/12/24 12:59:13","新北市五股區中興路二段83巷26-6號","121.460036666667","25.075225","6501500","五股區"
"248005","077-UY","2018/12/24 12:59:12","新北市五股區中興路二段83巷26-6號","121.459966666667","25.0752383333333","6501500","五股區"
"248007","095-VK","2018/12/24 12:59:24","新北市五股區更洲路18號","121.458268333333","25.078885","6501500","五股區"
"248019","225-UY","2018/12/24 12:59:07","新北市五股區中興路二段83巷26-6號","121.460023333333","25.0752966666667","6501500","五股區"
"248011","247-BX","2018/12/24 12:58:12","新北市五股區中興路二段63巷17號","121.460191666667","25.075565","6501500","五股區"
"234022","9380-KE","2018/12/24 12:59:21","新北市永和區竹林路75巷33弄3號","121.520555","25.0142833333333","6500400","永和區"
"234076","969-R7","2018/12/24 12:59:24","新北市永和區民享街17號","121.515471666667","24.9951416666667","6500400","永和區"
"234066","AAC-212","2018/12/24 12:59:23","新北市永和區自由街60號","121.5136","25.0058766666667","6500400","永和區"
"234001","AAC-295","2018/12/24 12:59:14","新北市永和區永平路2號","121.51378","25.0087733333333","6500400","永和區"
"244001","248-BX","2018/12/24 12:59:06","新北市林口區林口路296號","121.385995","25.0854816666667","6501700","林口區"
"243005","AAD-798","2018/12/24 12:59:09","新北市泰山區黎明路25號","121.422035","25.0608016666667","6501600","泰山區"
"243006","680-BX","2018/12/24 12:49:53","新北市泰山區犁頭窠3-1號","121.422226666667","25.0603233333333","6501600","泰山區"
"231028","046-UY","2018/12/24 12:59:12","新北市新店區安華路28-1號","121.51955","24.9608533333333","6500600","新店區"
"231001","047-UY","2018/12/24 12:59:08","新北市新店區安華路28-1號","121.519158333333","24.96088","6500600","新店區"
"231005","106-UY","2018/12/24 12:59:20","新北市新店區安華路28-1號","121.5196","24.9607633333333","6500600","新店區"
"231010","107-UY","2018/12/24 12:59:26","新北市新店區安一路一段1-1號","121.519413333333","24.96122","6500600","新店區"
"231011","187-VK","2018/12/24 12:59:21","新北市新店區安一路一段1-1號","121.519578333333","24.961145","6500600","新店區"
"231023","KEA-2219","2018/12/24 12:59:15","新北市新店區安華路28-1號","121.519841666667","24.9610383333333","6500600","新店區"
"231036","260-TV","2018/12/24 12:59:26","新北市新店區安一路一段1-1號","121.519413333333","24.96133","6500600","新店區"
"231003","268-BY","2018/12/24 12:59:10","新北市新店區安華路28-1號","121.519383333333","24.960565","6500600","新店區"
"231018","278-BY","2018/12/24 12:59:11","新北市新店區安一路一段1-1號","121.519893333333","24.9610866666667","6500600","新店區"
"231014","AAD-862","2018/12/24 12:59:17","新北市新店區安一路一段1-1號","121.519671666667","24.9612133333333","6500600","新店區"
"231037","4716-K9","2018/12/24 12:59:09","新北市新店區安一路一段1-1號","121.519281666667","24.9611933333333","6500600","新店區"
"231013","513-UM","2018/12/24 12:59:13","新北市新店區安一路一段1-1號","121.519481666667","24.961385","6500600","新店區"
"231006","617-UM","2018/12/24 12:59:29","新北市新店區安一路一段1-1號","121.519413333333","24.9611483333333","6500600","新店區"
"231030","619-UM","2018/12/24 12:59:25","新北市新店區安華路28-1號","121.519593333333","24.9608133333333","6500600","新店區"
"231035","719-UM","2018/12/24 12:59:16","新北市新店區安一路一段1-1號","121.519718333333","24.9611716666667","6500600","新店區"
"231031","720-UM","2018/12/24 12:59:14","新北市新店區安一路一段1-1號","121.519241666667","24.9612683333333","6500600","新店區"
"231029","897-TW","2018/12/24 12:59:25","新北市新店區安華路28-1號","121.519615","24.96058","6500600","新店區"
"231024","AKT-0513","2018/12/24 12:59:10","新北市新店區安華路28-1號","121.5196","24.9605833333333","6500600","新店區"
"235028","005-UY","2018/12/24 12:59:11","新北市中和區員山路36巷16-3號","121.485095","24.991305","6500300","中和區"
"235027","006-UY","2018/12/24 12:59:26","新北市中和區員山路36巷16-3號","121.48498","24.9913833333333","6500300","中和區"
"235002","185-VK","2018/12/24 12:59:18","新北市中和區秀朗路三段10巷14弄24-3號","121.525051666667","24.9971766666667","6500300","中和區"
"235031","255-BX","2018/12/24 12:59:14","新北市中和區中正路891號","121.484253333333","25.0044983333333","6500300","中和區"
"235034","558-UM","2018/12/24 12:59:20","新北市中和區員山路36巷16-3號","121.484993333333","24.9917283333333","6500300","中和區"
"235001","611-BX","2018/12/24 12:59:24","新北市中和區中山路三段136巷29號","121.473673333333","25.0077116666667","6500300","中和區"
"235018","640-BX","2018/12/24 12:59:21","新北市中和區員山路36巷16-3號","121.485","24.9918116666667","6500300","中和區"
"235035","783-BX","2018/12/24 12:59:22","新北市中和區民樂路81號","121.484756666667","25.0012783333333","6500300","中和區"
"235026","800-TS","2018/12/24 12:59:20","新北市中和區員山路36巷16-3號","121.48492","24.9915216666667","6500300","中和區"
"235021","801-TS","2018/12/24 12:59:19","新北市中和區員山路36巷16-3號","121.484735","24.9915833333333","6500300","中和區"
"235017","900-TW","2018/12/24 12:59:11","新北市中和區員山路36巷16-3號","121.485016666667","24.991775","6500300","中和區"
"235029","911-UM","2018/12/24 12:59:25","新北市中和區橋和路274-1號","121.495851666667","25.0064333333333","6500300","中和區"
"235015","157-BY","2018/12/24 12:59:17","新北市中和區員山路36巷13號","121.484215","24.9907733333333","6500300","中和區"
"235001","AAC-213","2018/12/24 12:59:17","新北市中和區中正路507號","121.488426666667","24.99353","6500300","中和區"
"227005","282-VK","2018/12/24 12:59:14","新北市雙溪區三貂里政光路3-1號","121.850853333333","25.0629566666667","6502500","雙溪區"
"253004","6251-TK","2018/12/24 12:59:28","新北市石門區中山路70號","121.56765","25.2916133333333","6502200","石門區"
"207001","291-VK","2018/12/24 12:59:19","新北市萬里區雙興里大坪路38-1號","121.627571666667","25.171015","6502800","萬里區"
"207001","662-BX","2018/12/24 12:59:09","新北市萬里區萬里里獅頭路23號","121.693386666667","25.1783316666667","6502800","萬里區"
"252005","AAC-283","2018/12/24 12:59:22","新北市三芝區埔坪里埔頭坑43號","121.504603333333","25.26177","6502100","三芝區"
"242008","413-TV","2018/12/24 12:59:17","新北市新莊區中和街186巷39號","121.448471666667","25.0499066666667","6500500","新莊區"
"221032","280-BY","2018/12/24 12:59:20","新北市汐止區建成路57巷1號","121.662338333333","25.072585","6501100","汐止區"
"221033","647-BX","2018/12/24 12:59:26","新北市汐止區莊敬街29巷3號","121.656951666667","25.06104","6501100","汐止區"
"220023","303-R5","2018/12/24 12:57:14","新北市板橋區華東街1-9號","121.448181666667","24.9949766666667","6500100","板橋區"
"235025","KEA-2875","2018/12/24 12:59:17","新北市中和區員山路36巷16-2號","121.485265","24.9917533333333","6500300","中和區"
