"lineid","car","time","location","longitude","latitude","cityid","cityname"
"234044","148-BY","2018/12/24 13:29:23","新北市永和區秀朗路二段204號","121.526355","25.0002333333333","6500400","永和區"
"234078","298-R6","2018/12/24 13:29:13","新北市永和區福和路5-6號","121.525026666667","25.0083066666667","6500400","永和區"
"234036","336-UY","2018/12/24 13:29:07","新北市永和區民樂街30巷2號","121.527571666667","25.0011966666667","6500400","永和區"
"234062","337-UY","2018/12/24 13:29:20","新北市永和區得和路243巷23號","121.5206","25.0009683333333","6500400","永和區"
"234068","552-UM","2018/12/24 13:29:08","新北市永和區竹林路182號","121.52045","25.0097583333333","6500400","永和區"
"234084","553-UM","2018/12/24 13:29:24","新北市永和區林森路109號","121.522941666667","25.0033233333333","6500400","永和區"
"234015","745-BX","2018/12/24 13:29:13","新北市永和區環河西路一段9號","121.514831666667","25.0180616666667","6500400","永和區"
"234028","746-BX","2018/12/24 13:29:21","新北市永和區民生路69號","121.522633333333","24.9971933333333","6500400","永和區"
"234052","KEA-2590","2018/12/24 13:29:24","新北市永和區復興街19巷2號","121.516146666667","25.0131633333333","6500400","永和區"
"234005","839-RS","2018/12/24 13:29:17","新北市永和區中山路一段174號","121.509156666667","25.0090966666667","6500400","永和區"
"234012","KEA-2591","2018/12/24 13:29:07","新北市永和區中山路一段203號","121.508936666667","25.0086483333333","6500400","永和區"
"234060","AAD-866","2018/12/24 13:29:26","新北市永和區中正路419號","121.517081666667","25.0049916666667","6500400","永和區"
"234040","862-TW","2018/12/24 13:29:12","新北市永和區中和路601號","121.512356666667","25.0044233333333","6500400","永和區"
"234048","863-TW","2018/12/24 13:29:27","新北市永和區信義路92號","121.512465","25.01371","6500400","永和區"
"234025","9371-KE","2018/12/24 13:29:23","新北市永和區中山路一段37號","121.513175","25.0102766666667","6500400","永和區"
"234010","9373-KE","2018/12/24 13:29:11","新北市永和區仁愛路141巷30弄5號","121.511906666667","25.0115066666667","6500400","永和區"
"248013","025-BX","2018/12/24 13:29:17","新北市五股區成泰路一段104號","121.435758333333","25.07169","6501500","五股區"
"248015","026-BX","2018/12/24 13:29:12","新北市五股區凌雲路一段83巷8號","121.450493333333","25.1010783333333","6501500","五股區"
"248005","077-UY","2018/12/24 13:29:12","新北市五股區四維路25號","121.467038333333","25.070625","6501500","五股區"
"248007","095-VK","2018/12/24 13:29:24","新北市五股區四維路185巷1號","121.467938333333","25.0761433333333","6501500","五股區"
"248019","225-UY","2018/12/24 13:29:27","新北市五股區孝義路70-1號","121.452956666667","25.113395","6501500","五股區"
"248009","272-BY","2018/12/24 13:29:26","新北市五股區水碓路16巷7號","121.433868333333","25.07284","6501500","五股區"
"248003","677-BX","2018/12/24 13:29:28","新北市五股區六合街3號","121.431958333333","25.0885466666667","6501500","五股區"
"248001","678-BX","2018/12/24 13:29:18","新北市五股區西雲路163號","121.446181666667","25.09446","6501500","五股區"
"248011","682-TV","2018/12/24 13:29:19","新北市五股區御史路83號","121.440676666667","25.094405","6501500","五股區"
"234022","9380-KE","2018/12/24 13:29:21","新北市永和區竹林路91巷45號","121.521321666667","25.0129283333333","6500400","永和區"
"234076","969-R7","2018/12/24 13:29:17","新北市永和區民治街89號","121.517285","24.9981866666667","6500400","永和區"
"234072","AAC-211","2018/12/24 13:29:13","新北市永和區永和路二段37號","121.514621666667","25.01067","6500400","永和區"
"234066","AAC-212","2018/12/24 13:29:23","新北市永和區保平路115號","121.510853333333","25.0065916666667","6500400","永和區"
"234001","AAC-295","2018/12/24 13:29:10","新北市永和區保平路18巷7號","121.512133333333","25.0078316666667","6500400","永和區"
"244001","248-BX","2018/12/24 13:29:06","新北市林口區瑞平里12鄰40-1號","121.336391666667","25.118055","6501700","林口區"
"243005","AAD-798","2018/12/24 13:26:21","新北市泰山區明志路三段206巷3號","121.423315","25.0379383333333","6501600","泰山區"
"243004","646-TV","2018/12/24 13:29:22","新北市泰山區黎明路25號","121.42206","25.060705","6501600","泰山區"
"231002","002-UM","2018/12/24 13:29:18","新北市新店區環河路62號","121.53701","24.9626383333333","6500600","新店區"
"231027","0291-UT","2018/12/24 13:29:27","新北市新店區環河路19巷5弄1號","121.537573333333","24.9609016666667","6500600","新店區"
"231028","046-UY","2018/12/24 13:29:12","新北市新店區安華路28-1號","121.51951","24.9606066666667","6500600","新店區"
"231001","047-UY","2018/12/24 13:29:08","新北市新店區安康路一段9-2號","121.533858333333","24.960615","6500600","新店區"
"231005","106-UY","2018/12/24 13:29:21","新北市新店區北新路一段91號","121.538765","24.9617266666667","6500600","新店區"
"231010","107-UY","2018/12/24 13:29:25","新北市新店區中央路17號","121.533311666667","24.9782866666667","6500600","新店區"
"231019","108-UY","2018/12/24 13:29:27","新北市新店區長興路1號","121.545823333333","24.940555","6500600","新店區"
"231011","187-VK","2018/12/24 13:29:21","新北市新店區北新路一段62號","121.541168333333","24.966625","6500600","新店區"
"231023","KEA-2219","2018/12/24 13:29:15","新北市新店區新店路13號","121.540355","24.9528916666667","6500600","新店區"
"231026","256-BX","2018/12/24 13:29:21","新北市新店區安康路一段3-1號","121.534815","24.9607683333333","6500600","新店區"
"231036","260-TV","2018/12/24 13:29:26","新北市新店區建業路4號","121.483973333333","24.9512633333333","6500600","新店區"
"231003","268-BY","2018/12/24 13:29:10","新北市新店區安康路一段107-2號","121.528781666667","24.961685","6500600","新店區"
"231018","278-BY","2018/12/24 13:29:10","新北市新店區中央路210-1號","121.530061666667","24.9735383333333","6500600","新店區"
"231014","AAD-862","2018/12/24 13:29:17","新北市新店區北宜路二段30巷5弄5號","121.54847","24.9508083333333","6500600","新店區"
"231038","3712-VJ","2018/12/24 13:29:18","新北市新店區安華路28-1號","121.51938","24.9606433333333","6500600","新店區"
"231037","4716-K9","2018/12/24 13:29:09","新北市新店區安豐路46號","121.500015","24.9549583333333","6500600","新店區"
"231025","4715-K9","2018/12/24 13:29:21","新北市新店區中央五街38號","121.528493333333","24.9749716666667","6500600","新店區"
"231013","513-UM","2018/12/24 13:26:26","新北市新店區安康路一段319號","121.522128333333","24.96367","6500600","新店區"
"231006","617-UM","2018/12/24 13:29:09","新北市新店區安康路一段355-10號","121.520851666667","24.9638516666667","6500600","新店區"
"231030","619-UM","2018/12/24 13:29:25","新北市新店區安一路一段1-1號","121.519531666667","24.9610916666667","6500600","新店區"
"231034","641-BX","2018/12/24 13:29:18","新北市新店區安華路30巷1號","121.519403333333","24.959595","6500600","新店區"
"231035","719-UM","2018/12/24 13:29:16","新北市新店區安一路一段1-1號","121.519571666667","24.9611266666667","6500600","新店區"
"231031","720-UM","2018/12/24 13:29:14","新北市新店區安豐路60號","121.498393333333","24.9539633333333","6500600","新店區"
"231029","897-TW","2018/12/24 13:29:25","新北市新店區安華路30巷1號","121.519525","24.9599016666667","6500600","新店區"
"231004","899-TW","2018/12/24 13:29:17","新北市新店區安康路一段355-10號","121.52079","24.9638383333333","6500600","新店區"
"231024","AKT-0513","2018/12/24 13:29:10","新北市新店區中正路154巷6號","121.541823333333","24.9720333333333","6500600","新店區"
"235028","005-UY","2018/12/24 13:29:11","新北市中和區連城路139巷65號","121.496951666667","24.9970916666667","6500300","中和區"
"235027","006-UY","2018/12/24 13:29:26","新北市中和區中正路508號","121.488595","24.9946583333333","6500300","中和區"
"235020","096-UM","2018/12/24 13:29:22","新北市中和區新民街93號","121.480931666667","25.00838","6500300","中和區"
"235003","097-UM","2018/12/24 13:29:11","新北市中和區大勇街25巷1號","121.51715","24.99319","6500300","中和區"
"235004","150-BY","2018/12/24 13:29:22","新北市中和區安平路59號","121.509466666667","24.9951516666667","6500300","中和區"
"235019","183-VK","2018/12/24 13:29:21","新北市中和區莒光路165號","121.472796666667","25.000105","6500300","中和區"
"235002","185-VK","2018/12/24 13:29:18","新北市中和區自立路135號","121.522105","24.9939","6500300","中和區"
"235013","186-VK","2018/12/24 13:29:29","新北市中和區景安路92-3號","121.505583333333","24.99591","6500300","中和區"
"235031","255-BX","2018/12/24 13:29:14","新北市中和區連城路340巷14弄16號","121.483005","24.9972416666667","6500300","中和區"
"235036","301-VK","2018/12/24 13:29:09","新北市中和區連城路164號","121.493778333333","24.9975283333333","6500300","中和區"
"235006","KEA-2878","2018/12/24 13:29:16","新北市中和區大仁街20巷25弄33號","121.51926","24.9936583333333","6500300","中和區"
"235014","4979-A6","2018/12/24 13:29:11","新北市中和區景新街362巷3號","121.51211","24.9901083333333","6500300","中和區"
"235033","4980-A6","2018/12/24 13:29:11","新北市中和區連城路127巷19-10號","121.496791666667","24.9980733333333","6500300","中和區"
"235034","558-UM","2018/12/24 13:29:20","新北市中和區南華路60號","121.50449","24.9970866666667","6500300","中和區"
"235009","565-BX","2018/12/24 13:29:14","新北市中和區南山路236巷36弄5號","121.504048333333","24.9883233333333","6500300","中和區"
"235018","640-BX","2018/12/24 13:29:21","新北市中和區民享街85號","121.474453333333","25.0017","6500300","中和區"
"235024","647-TV","2018/12/24 13:29:22","新北市中和區員山路367號","121.481213333333","25.0021433333333","6500300","中和區"
"235035","783-BX","2018/12/24 13:29:22","新北市中和區光環路二段300號","121.485916666667","25.0137016666667","6500300","中和區"
"235026","800-TS","2018/12/24 13:29:20","新北市中和區中山路二段298號","121.496051666667","25.00274","6500300","中和區"
"235021","801-TS","2018/12/24 13:29:19","新北市中和區民安街38號","121.480063333333","25.00045","6500300","中和區"
"235005","802-TS","2018/12/24 13:29:14","新北市中和區中和路320號","121.509656666667","25.0005533333333","6500300","中和區"
"235016","805-TS","2018/12/24 13:29:12","新北市中和區興南路二段133號","121.505248333333","24.984215","6500300","中和區"
"235012","896-TW","2018/12/24 13:29:13","新北市中和區中正路637巷52弄1號","121.485455","24.9934333333333","6500300","中和區"
"235017","900-TW","2018/12/24 13:29:11","新北市土城區金城路三段257號","121.471831666667","24.9901166666667","6500300","中和區"
"235029","911-UM","2018/12/24 13:29:25","新北市中和區莊敬路49巷20弄32號","121.50319","25.0050733333333","6500300","中和區"
"235015","157-BY","2018/12/24 13:29:20","新北市中和區興南路二段142巷25弄34號","121.502541666667","24.9843533333333","6500300","中和區"
"235001","AAC-213","2018/12/24 13:29:17","新北市中和區景德街95-1號","121.515586666667","24.99122","6500300","中和區"
"235023","AAC-215","2018/12/24 13:29:21","新北市中和區員山路36巷16-3號","121.484941666667","24.991545","6500300","中和區"
"220013","072-UY","2018/12/24 13:29:24","新北市板橋區南雅南路二段120-7號","121.452265","24.9994283333333","6500100","板橋區"
"220034","073-UY","2018/12/24 13:29:27","新北市板橋區華東街11號","121.451145","24.99816","6500100","板橋區"
"220017","AAD-861","2018/12/24 13:29:23","新北市板橋區華東街1-10號","121.448373333333","24.995135","6500100","板橋區"
"247009","336-TH","2018/12/24 13:29:16","新北市五股區中興路三段2巷10號","121.449163333333","25.0809633333333","6501400","蘆洲區"
"247021","001-UY","2018/12/24 13:29:08","新北市五股區中興路三段163號","121.449011666667","25.0807083333333","6501400","蘆洲區"
"253003","6232-TK","2018/12/24 13:29:08","新北市石門區內石門50-1號","121.571903333333","25.2617533333333","6502200","石門區"
"253004","6251-TK","2018/12/24 13:29:08","新北市石門區五爪崙8-16號","121.608561666667","25.2613416666667","6502200","石門區"
"253002","637-UY","2018/12/24 13:29:23","新北市石門區九芎林13-1號","121.565031666667","25.2636883333333","6502200","石門區"
"253001","KEC-0718","2018/12/24 13:29:13","新北市石門區下員坑33-6號","121.519361666667","25.2831983333333","6502200","石門區"
"207001","291-VK","2018/12/24 13:29:19","新北市萬里區崁腳里崁腳路166號","121.645135","25.1558983333333","6502800","萬里區"
"207001","662-BX","2018/12/24 13:27:49","新北市萬里區龜吼里石角路19-1號","121.683943333333","25.191605","6502800","萬里區"
"252005","AAC-283","2018/12/24 13:29:22","新北市三芝區圓山里木屐寮40號","121.531533333333","25.2232283333333","6502100","三芝區"
"242008","413-TV","2018/12/24 13:29:17","新北市新莊區中信街66-14號","121.449113333333","25.0516583333333","6500500","新莊區"
"242006","346-TH","2018/12/24 13:29:06","新北市新莊區福前街63巷20號","121.462908333333","25.053995","6500500","新莊區"
"221032","280-BY","2018/12/24 13:29:20","新北市汐止區水源路一段56號","121.657401666667","25.06558","6501100","汐止區"
"221033","647-BX","2018/12/24 13:28:26","台北市文山區新光路二段74巷1號","121.593016666667","24.994075","6501100","汐止區"
"220027","145-BY","2018/12/24 13:29:08","新北市板橋區華東街1-9號","121.448046666667","24.9948716666667","6500100","板橋區"
"220030","610-BX","2018/12/24 13:29:17","新北市板橋區華東街1-10號","121.448288333333","24.9949783333333","6500100","板橋區"
"220004","276-BY","2018/12/24 13:29:10","新北市板橋區華東街1-9號","121.448135","24.994935","6500100","板橋區"
"220019","283-VK","2018/12/24 13:29:18","新北市板橋區華東街1-9號","121.448038333333","24.9949333333333","6500100","板橋區"
"220043","285-UM","2018/12/24 13:29:15","新北市板橋區民生路二段161巷1號","121.470168333333","25.0198966666667","6500100","板橋區"
"220031","286-VK","2018/12/24 13:29:25","新北市板橋區華東街1-10號","121.448365","24.9949766666667","6500100","板橋區"
"220029","287-VK","2018/12/24 13:29:10","新北市板橋區華東街1-10號","121.448266666667","24.99501","6500100","板橋區"
"220032","296-UM","2018/12/24 13:29:21","新北市板橋區華東街1-9號","121.448166666667","24.9949616666667","6500100","板橋區"
"220023","303-R5","2018/12/24 13:29:23","新北市板橋區華東街1-9號","121.448206666667","24.9949883333333","6500100","板橋區"
"220037","491-VK","2018/12/24 13:29:12","新北市板橋區民生路二段161巷1號","121.470088333333","25.0200866666667","6500100","板橋區"
"220104","560-BX","2018/12/24 13:29:12","新北市板橋區南雅東路120號","121.453296666667","25.0084016666667","6500100","板橋區"
"220003","630-UY","2018/12/24 13:29:14","新北市板橋區華東街1-9號","121.448195","24.9949316666667","6500100","板橋區"
"220005","686-BX","2018/12/24 13:29:17","新北市板橋區華東街1-9號","121.448251666667","24.9949233333333","6500100","板橋區"
"220025","687-BX","2018/12/24 13:29:15","新北市板橋區板城路421號","121.44805","24.9963866666667","6500100","板橋區"
"220002","741-BX","2018/12/24 13:29:25","新北市板橋區華東街1-9號","121.448085","24.994935","6500100","板橋區"
"220022","895-R6","2018/12/24 13:29:09","新北市板橋區華東街1-10號","121.448236666667","24.9950266666667","6500100","板橋區"
"220021","985-R7","2018/12/24 13:29:11","新北市板橋區四川路二段140巷16弄13號","121.448728333333","24.99354","6500100","板橋區"
"220012","AAC-253","2018/12/24 13:29:23","新北市板橋區南雅南路一段1巷42號","121.457585","25.00639","6500100","板橋區"
"235032","KEA-2873","2018/12/24 13:29:06","新北市中和區圓通路230號","121.495215","24.9929716666667","6500300","中和區"
"235025","KEA-2875","2018/12/24 13:29:17","新北市中和區民享街111號","121.474755","24.9994316666667","6500300","中和區"
"235011","KEA-2876","2018/12/24 13:29:06","新北市中和區南山路483號","121.507896666667","24.9880083333333","6500300","中和區"
