"lineid","car","time","location","longitude","latitude","cityid","cityname"
"234044","148-BY","2018/12/24 13:39:19","新北市永和區永元路95巷1號","121.522473333333","25.001925","6500400","永和區"
"234078","298-R6","2018/12/24 13:39:27","新北市永和區林森路20巷11號","121.525501666667","25.0059833333333","6500400","永和區"
"234036","336-UY","2018/12/24 13:39:27","新北市永和區民樂街31巷6弄1號","121.52799","25.0013766666667","6500400","永和區"
"234062","337-UY","2018/12/24 13:39:23","新北市永和區秀朗路二段24巷28弄2號","121.519928333333","25.0019116666667","6500400","永和區"
"234068","552-UM","2018/12/24 13:39:08","新北市永和區永和路二段233號","121.515493333333","25.0142533333333","6500400","永和區"
"234084","553-UM","2018/12/24 13:39:24","新北市永和區永亨路165巷8號","121.526211666667","25.0041366666667","6500400","永和區"
"234015","745-BX","2018/12/24 13:39:13","新北市永和區永和路二段425巷18號","121.514763333333","25.0177216666667","6500400","永和區"
"234028","746-BX","2018/12/24 13:39:21","新北市永和區民權路21號","121.520238333333","24.997855","6500400","永和區"
"234052","KEA-2590","2018/12/24 13:39:24","新北市永和區竹林路39巷26號","121.519041666667","25.0147933333333","6500400","永和區"
"234005","839-RS","2018/12/24 13:39:17","新北市永和區永和路一段122號","121.51384","25.007655","6500400","永和區"
"234012","KEA-2591","2018/12/24 13:39:07","新北市永和區永平路238巷2弄2號","121.509186666667","25.011195","6500400","永和區"
"234060","AAD-866","2018/12/24 13:39:26","新北市永和區中正路446號","121.517475","25.0028766666667","6500400","永和區"
"234040","862-TW","2018/12/24 13:39:12","新北市永和區永貞路267號","121.511846666667","25.0047683333333","6500400","永和區"
"234048","863-TW","2018/12/24 13:39:07","新北市永和區保福路二段135號","121.50975","25.0139983333333","6500400","永和區"
"234025","9371-KE","2018/12/24 13:39:23","新北市永和區永平路179號","121.510373333333","25.0092066666667","6500400","永和區"
"234010","9373-KE","2018/12/24 13:39:11","新北市永和區保福路二段9巷9號","121.510533333333","25.0108683333333","6500400","永和區"
"248013","025-BX","2018/12/24 13:39:17","新北市五股區中興路四段70號","121.436995","25.0833983333333","6501500","五股區"
"248015","026-BX","2018/12/24 13:39:12","新北市五股區凌雲路一段133巷27-3號","121.44862","25.1008916666667","6501500","五股區"
"248005","077-UY","2018/12/24 13:39:12","新北市五股區中興路一段50號","121.468058333333","25.0726816666667","6501500","五股區"
"248007","095-VK","2018/12/24 13:39:24","新北市五股區中興路一段151巷23號","121.465198333333","25.0724016666667","6501500","五股區"
"248019","225-UY","2018/12/24 13:39:07","新北市五股區孝義路94號","121.44683","25.11917","6501500","五股區"
"248009","272-BY","2018/12/24 13:39:26","新北市五股區水碓三路120號","121.431776666667","25.0736033333333","6501500","五股區"
"248003","677-BX","2018/12/24 13:39:28","新北市五股區民義路一段242-3號","121.426536666667","25.0921866666667","6501500","五股區"
"248001","678-BX","2018/12/24 13:39:18","新北市五股區西雲路234號","121.448721666667","25.0966666666667","6501500","五股區"
"248011","682-TV","2018/12/24 13:39:19","新北市五股區成泰路三段6號","121.441188333333","25.0876166666667","6501500","五股區"
"234022","9380-KE","2018/12/24 13:39:21","新北市永和區環河東路二段90號","121.524411666667","25.0106616666667","6500400","永和區"
"234076","969-R7","2018/12/24 13:39:18","新北市永和區民權路12號","121.520266666667","24.9993866666667","6500400","永和區"
"234072","AAC-211","2018/12/24 13:39:13","新北市永和區福和路76巷6弄1號","121.523005","25.008485","6500400","永和區"
"234066","AAC-212","2018/12/24 13:39:23","新北市永和區中山路一段191巷7弄2號","121.509511666667","25.008235","6500400","永和區"
"234001","AAC-295","2018/12/24 13:39:17","新北市永和區秀朗路一段6號","121.513796666667","25.0072183333333","6500400","永和區"
"244001","248-BX","2018/12/24 13:39:26","新北市林口區瑞平里60-1號","121.338303333333","25.1245433333333","6501700","林口區"
"243005","AAD-798","2018/12/24 13:26:21","新北市泰山區明志路三段206巷3號","121.423315","25.0379383333333","6501600","泰山區"
"243008","KEA-2801","2018/12/24 13:39:05","新北市泰山區黎明路25號","121.422175","25.0606583333333","6501600","泰山區"
"243004","646-TV","2018/12/24 13:39:22","新北市泰山區黎明路25號","121.422086666667","25.06071","6501600","泰山區"
"243006","680-BX","2018/12/24 13:39:26","新北市泰山區黎明路25號","121.422053333333","25.06068","6501600","泰山區"
"231002","002-UM","2018/12/24 13:39:18","新北市新店區中央三街127號","121.524115","24.9769116666667","6500600","新店區"
"231027","0291-UT","2018/12/24 13:39:07","新北市新店區新店後街58號","121.537765","24.9539816666667","6500600","新店區"
"231028","046-UY","2018/12/24 13:39:21","新北市新店區安和路一段6-2號","121.517063333333","24.96482","6500600","新店區"
"231001","047-UY","2018/12/24 13:39:28","新北市新店區中央路15號","121.533203333333","24.978435","6500600","新店區"
"231005","106-UY","2018/12/24 13:39:20","新北市新店區寶中路72號","121.547936666667","24.980615","6500600","新店區"
"231010","107-UY","2018/12/24 13:39:28","新北市新店區平等街46巷15號","121.535741666667","24.9735033333333","6500600","新店區"
"231019","108-UY","2018/12/24 13:39:27","新北市新店區永興路88-1號","121.544021666667","24.93369","6500600","新店區"
"231011","187-VK","2018/12/24 13:39:21","新北市新店區德正街23巷12-1號","121.544681666667","24.9722216666667","6500600","新店區"
"231023","KEA-2219","2018/12/24 13:39:15","新北市新店區新店路84號","121.53726","24.95411","6500600","新店區"
"231026","256-BX","2018/12/24 13:39:21","新北市新店區北新路一段349號","121.541975","24.9691383333333","6500600","新店區"
"231036","260-TV","2018/12/24 13:39:26","新北市新店區安祥路160號","121.477235","24.9561933333333","6500600","新店區"
"231003","268-BY","2018/12/24 13:39:30","新北市新店區中正路9號","121.545631666667","24.9693983333333","6500600","新店區"
"231018","278-BY","2018/12/24 13:39:11","新北市新店區百忍街32號","121.53393","24.975765","6500600","新店區"
"231014","AAD-862","2018/12/24 13:39:17","新北市新店區竹林路30巷1號","121.552265","24.9513266666667","6500600","新店區"
"231038","3712-VJ","2018/12/24 13:39:18","新北市新店區安華路28-1號","121.519375","24.9606683333333","6500600","新店區"
"231037","4716-K9","2018/12/24 13:39:09","新北市新店區薏仁坑路57號","121.490951666667","24.9643466666667","6500600","新店區"
"231025","4715-K9","2018/12/24 13:39:21","新北市新店區中央五街37號","121.528545","24.9750166666667","6500600","新店區"
"231013","513-UM","2018/12/24 13:39:08","新北市新店區中正路454-5號","121.534456666667","24.97904","6500600","新店區"
"231006","617-UM","2018/12/24 13:39:25","新北市新店區北宜路一段64號","121.538543333333","24.955995","6500600","新店區"
"231030","619-UM","2018/12/24 13:39:25","新北市新店區安康路一段222-3號","121.52268","24.9637366666667","6500600","新店區"
"231034","641-BX","2018/12/24 13:39:18","新北市新店區車子路109號","121.50523","24.9521133333333","6500600","新店區"
"231035","719-UM","2018/12/24 13:39:16","新北市新店區安忠路56巷6號","121.512998333333","24.9594616666667","6500600","新店區"
"231031","720-UM","2018/12/24 13:39:14","新北市新店區安康路一段222號","121.523718333333","24.9635683333333","6500600","新店區"
"231029","897-TW","2018/12/24 13:39:25","新北市新店區安康路二段352號","121.50231","24.95749","6500600","新店區"
"231004","899-TW","2018/12/24 13:39:17","新北市新店區北新路二段1號","121.542648333333","24.971215","6500600","新店區"
"231024","AKT-0513","2018/12/24 13:39:10","新北市新店區華興街19號","121.5377","24.9693683333333","6500600","新店區"
"235028","005-UY","2018/12/24 13:39:11","新北市中和區連城路109巷24號","121.496838333333","24.9984833333333","6500300","中和區"
"235027","006-UY","2018/12/24 13:39:26","新北市中和區連城路347巷16弄24號","121.487331666667","24.99509","6500300","中和區"
"235020","096-UM","2018/12/24 13:39:21","新北市中和區員山路466巷23號","121.48098","25.0065866666667","6500300","中和區"
"235003","097-UM","2018/12/24 13:39:12","新北市中和區景平路278巷14弄1號","121.514005","24.9930516666667","6500300","中和區"
"235004","150-BY","2018/12/24 13:39:22","新北市中和區安平路59號","121.509495","24.9951733333333","6500300","中和區"
"235022","151-BY","2018/12/24 13:39:16","新北市中和區員山路7-3號","121.482651666667","24.985285","6500300","中和區"
"235019","183-VK","2018/12/24 13:39:20","新北市中和區國光街102巷40號","121.471185","25.0006516666667","6500300","中和區"
"235002","185-VK","2018/12/24 13:39:18","新北市中和區大勇街108號","121.518045","24.994955","6500300","中和區"
"235013","186-VK","2018/12/24 13:39:08","新北市中和區明義街11巷12弄2號","121.503735","24.994665","6500300","中和區"
"235031","255-BX","2018/12/24 13:39:14","新北市中和區新生街220巷4號","121.482871666667","24.998615","6500300","中和區"
"235008","293-VK","2018/12/24 13:39:17","新北市中和區復興路268號","121.502883333333","24.9904533333333","6500300","中和區"
"235036","301-VK","2018/12/24 13:39:09","新北市中和區中山路二段193號","121.499978333333","25.0027233333333","6500300","中和區"
"235006","KEA-2878","2018/12/24 13:39:16","新北市中和區秀朗路三段175巷21號","121.525576666667","24.99103","6500300","中和區"
"235014","4979-A6","2018/12/24 13:39:11","新北市中和區忠孝街124巷6號","121.512645","24.986045","6500300","中和區"
"235033","4980-A6","2018/12/24 13:39:16","新北市中和區連城路65巷6號","121.497815","25.00094","6500300","中和區"
"235034","558-UM","2018/12/24 13:39:20","新北市中和區景平路596號","121.501026666667","24.9962683333333","6500300","中和區"
"235009","565-BX","2018/12/24 13:39:24","新北市中和區南山路208巷12號","121.50589","24.9900483333333","6500300","中和區"
"235018","640-BX","2018/12/24 13:39:21","新北市中和區中山路三段209號","121.471816666667","25.0063666666667","6500300","中和區"
"235024","647-TV","2018/12/24 13:39:22","新北市中和區中山路二段608號","121.481716666667","25.0053883333333","6500300","中和區"
"235035","783-BX","2018/12/24 13:39:22","新北市中和區中山路二段486號","121.48756","25.0051466666667","6500300","中和區"
"235026","800-TS","2018/12/24 13:39:20","新北市中和區中山路二段312巷33弄12號","121.494946666667","25.00393","6500300","中和區"
"235021","801-TS","2018/12/24 13:39:19","新北市中和區民安街1號","121.480896666667","25.0009966666667","6500300","中和區"
"235005","802-TS","2018/12/24 13:39:14","新北市中和區中和路390號","121.511203333333","25.00256","6500300","中和區"
"235016","805-TS","2018/12/24 13:39:12","新北市中和區興南路三段35號","121.496743333333","24.9780916666667","6500300","中和區"
"235012","896-TW","2018/12/24 13:39:13","新北市中和區中正路76號","121.500713333333","24.9936566666667","6500300","中和區"
"235017","900-TW","2018/12/24 13:39:11","新北市中和區民德路264號","121.468025","24.9966116666667","6500300","中和區"
"235029","911-UM","2018/12/24 13:39:25","新北市中和區莊敬路49巷29弄8號","121.501333333333","25.0064883333333","6500300","中和區"
"235015","157-BY","2018/12/24 13:39:17","新北市中和區華新街143巷106弄39號","121.50706","24.9784183333333","6500300","中和區"
"235001","AAC-213","2018/12/24 13:39:17","新北市中和區景德街60號","121.517196666667","24.99154","6500300","中和區"
"235023","AAC-215","2018/12/24 13:39:21","新北市中和區中正路395號","121.489391666667","24.99359","6500300","中和區"
"220013","072-UY","2018/12/24 13:39:24","新北市板橋區實踐路1號","121.463428333333","25.0086566666667","6500100","板橋區"
"220034","073-UY","2018/12/24 13:39:07","新北市板橋區南雅西路二段175巷7號","121.451585","25.012225","6500100","板橋區"
"220017","AAD-861","2018/12/24 13:39:23","新北市板橋區南雅南路二段4巷26號","121.453321666667","25.003635","6500100","板橋區"
"247009","336-TH","2018/12/24 13:39:16","新北市五股區中興路三段163號","121.449233333333","25.080615","6501400","蘆洲區"
"247021","001-UY","2018/12/24 13:39:27","新北市五股區新城八路26號","121.448133333333","25.090025","6501400","蘆洲區"
"253003","6232-TK","2018/12/24 13:39:27","新北市石門區內石門17號","121.573416666667","25.2746816666667","6502200","石門區"
"253004","6251-TK","2018/12/24 13:39:08","新北市石門區阿里荖59號","121.603118333333","25.272395","6502200","石門區"
"253002","637-UY","2018/12/24 13:39:23","新北市石門區內石門78-1號","121.569171666667","25.25676","6502200","石門區"
"253001","KEC-0718","2018/12/24 13:39:12","新北市三芝區新庄里新庄子51-30號","121.508123333333","25.2782433333333","6502200","石門區"
"207001","291-VK","2018/12/24 13:39:19","新北市萬里區崁腳里崁腳路166號","121.645178333333","25.1558916666667","6502800","萬里區"
"207001","662-BX","2018/12/24 13:39:09","新北市萬里區大鵬里萬里加投46-1號","121.64183","25.2110933333333","6502800","萬里區"
"252005","AAC-283","2018/12/24 13:39:22","新北市三芝區圓山里內柑宅28-1號","121.536091666667","25.2223183333333","6502100","三芝區"
"236064","105-UM","2018/12/24 13:39:26","新北市土城區城林路6巷80號","121.438626666667","24.9796866666667","6501300","土城區"
"236040","KED-0685","2018/12/24 13:39:09","新北市土城區光明街5號","121.441973333333","24.9747633333333","6501300","土城區"
"236074","166-UM","2018/12/24 13:39:12","新北市土城區城林路6巷80號","121.438631666667","24.9797533333333","6501300","土城區"
"236012","270-VK","2018/12/24 13:39:14","新北市土城區城林路6巷80號","121.438588333333","24.97982","6501300","土城區"
"236060","915-UM","2018/12/24 13:39:28","新北市土城區城林路6巷80號","121.438428333333","24.979675","6501300","土城區"
"236054","AAC-216","2018/12/24 13:39:10","新北市土城區中華路二段2號","121.438851666667","24.9797033333333","6501300","土城區"
"242008","413-TV","2018/12/24 13:39:17","新北市新莊區中華路二段227號","121.452098333333","25.053305","6500500","新莊區"
"242006","346-TH","2018/12/24 13:39:06","新北市新莊區福德三街13號","121.462108333333","25.058855","6500500","新莊區"
"221032","280-BY","2018/12/24 13:39:20","新北市汐止區仁愛路10號","121.65932","25.06366","6501100","汐止區"
"221033","647-BX","2018/12/24 13:39:26","新北市新店區車子路115-11號","121.507898333333","24.9547066666667","6501100","汐止區"
"220027","145-BY","2018/12/24 13:39:26","新北市板橋區南雅西路二段145巷10號","121.451661666667","25.01191","6500100","板橋區"
"220028","200-UY","2018/12/24 13:39:13","新北市板橋區大觀路二段265巷76弄31號","121.441333333333","24.9967116666667","6500100","板橋區"
"220030","610-BX","2018/12/24 13:39:17","新北市板橋區篤行路二段52號","121.431733333333","24.9925983333333","6500100","板橋區"
"220004","276-BY","2018/12/24 13:39:10","新北市板橋區貴興路8號","121.45769","25.0043666666667","6500100","板橋區"
"220020","277-BY","2018/12/24 13:39:23","新北市板橋區大觀路三段54號","121.43336","24.9955666666667","6500100","板橋區"
"220050","280-UM","2018/12/24 13:39:27","新北市板橋區民生路二段120號","121.470465","25.0197166666667","6500100","板橋區"
"220019","283-VK","2018/12/24 13:38:58","新北市板橋區遠東路9號","121.457605","24.9982483333333","6500100","板橋區"
"220043","285-UM","2018/12/24 13:39:15","新北市板橋區民生路二段120號","121.470301666667","25.0199666666667","6500100","板橋區"
"220031","286-VK","2018/12/24 13:39:25","新北市板橋區大觀路二段73號","121.446481666667","25.00227","6500100","板橋區"
"220029","287-VK","2018/12/24 13:39:10","新北市板橋區大觀路二段107號","121.446148333333","25.0017233333333","6500100","板橋區"
"220032","296-UM","2018/12/24 13:39:21","新北市板橋區大觀路二段148巷42號","121.441911666667","25.0001716666667","6500100","板橋區"
"220023","303-R5","2018/12/24 13:39:23","新北市板橋區南雅南路二段120號","121.452171666667","24.99963","6500100","板橋區"
"220010","305-R5","2018/12/24 13:39:18","新北市板橋區民生路二段161巷5號","121.470276666667","25.019805","6500100","板橋區"
"220047","317-R6","2018/12/24 13:39:14","新北市板橋區民生路二段120號","121.470426666667","25.02012","6500100","板橋區"
"220037","491-VK","2018/12/24 13:39:13","新北市板橋區民生路二段161巷1號","121.469873333333","25.020095","6500100","板橋區"
"220104","560-BX","2018/12/24 13:39:12","新北市板橋區南雅西路二段145巷6號","121.45162","25.011815","6500100","板橋區"
"220052","561-BX","2018/12/24 13:39:17","新北市板橋區民生路二段161巷1號","121.470196666667","25.0199266666667","6500100","板橋區"
"220003","630-UY","2018/12/24 13:39:15","新北市板橋區忠孝路33-1號","121.460906666667","25.00202","6500100","板橋區"
"220040","637-BX","2018/12/24 13:39:08","新北市板橋區民生路二段120號","121.470515","25.0195483333333","6500100","板橋區"
"220005","686-BX","2018/12/24 13:39:16","新北市板橋區南雅南路二段120-16號","121.451868333333","24.9991216666667","6500100","板橋區"
"220025","687-BX","2018/12/24 13:39:15","新北市板橋區溪崑一街11-3號","121.430815","24.9923583333333","6500100","板橋區"
"220042","689-BX","2018/12/24 13:39:28","新北市板橋區民生路二段120號","121.470363333333","25.0199866666667","6500100","板橋區"
"220002","741-BX","2018/12/24 13:39:25","新北市板橋區南雅南路二段120-7號","121.452176666667","24.9994833333333","6500100","板橋區"
"220051","KEA-2699","2018/12/24 13:39:07","新北市板橋區民生路二段188號","121.470153333333","25.02037","6500100","板橋區"
"220022","895-R6","2018/12/24 13:39:10","新北市板橋區南雅南路一段60號","121.455311666667","25.005385","6500100","板橋區"
"220021","985-R7","2018/12/24 13:39:12","新北市板橋區南雅南路二段118號","121.454105","24.99947","6500100","板橋區"
"220012","AAC-253","2018/12/24 13:39:23","新北市板橋區民生路二段36-1號","121.472115","25.0167983333333","6500100","板橋區"
"235032","KEA-2873","2018/12/24 13:39:06","新北市中和區中正路167巷13號","121.498201666667","24.9929516666667","6500300","中和區"
"235025","KEA-2875","2018/12/24 13:39:17","新北市中和區民享街92巷15號","121.474205","24.9997316666667","6500300","中和區"
"235011","KEA-2876","2018/12/24 13:39:06","新北市中和區南山路320巷10弄13號","121.506753333333","24.986535","6500300","中和區"
