"lineid","car","time","location","longitude","latitude","cityid","cityname"
"234044","148-BY","2018/12/24 13:49:29","新北市永和區永利路163號","121.525073333333","25.0035766666667","6500400","永和區"
"234078","298-R6","2018/12/24 13:49:12","新北市永和區永亨路98號","121.523055","25.0048666666667","6500400","永和區"
"234036","336-UY","2018/12/24 13:49:07","新北市永和區民樂街59巷7號","121.528008333333","24.99837","6500400","永和區"
"234062","337-UY","2018/12/24 13:49:26","新北市永和區中正路416號","121.517528333333","25.0020283333333","6500400","永和區"
"234068","552-UM","2018/12/24 13:49:28","新北市永和區竹林路88號","121.519421666667","25.0125666666667","6500400","永和區"
"234084","553-UM","2018/12/24 13:49:24","新北市永和區永貞路52號","121.520861666667","25.0061983333333","6500400","永和區"
"234015","745-BX","2018/12/24 13:49:21","新北市永和區文化路34號","121.51503","25.0150766666667","6500400","永和區"
"234028","746-BX","2018/12/24 13:49:21","新北市永和區民生路67巷5號","121.522941666667","24.9972716666667","6500400","永和區"
"234052","KEA-2590","2018/12/24 13:49:24","新北市永和區竹林路75巷25弄7號","121.520081666667","25.0145183333333","6500400","永和區"
"234005","839-RS","2018/12/24 13:49:17","新北市中和區中和路456號","121.51216","25.00372","6500400","永和區"
"234012","KEA-2591","2018/12/24 13:49:28","新北市永和區仁愛路241號","121.508876666667","25.0119466666667","6500400","永和區"
"234060","AAD-866","2018/12/24 13:49:26","新北市永和區中正路67巷2號","121.514666666667","24.99675","6500400","永和區"
"234040","862-TW","2018/12/24 13:49:12","新北市永和區中和路389巷44弄2號","121.508136666667","25.0020366666667","6500400","永和區"
"234048","863-TW","2018/12/24 13:49:27","新北市永和區環河西路一段101號","121.51115","25.0176533333333","6500400","永和區"
"234025","9371-KE","2018/12/24 13:49:23","新北市永和區保生路55-1號","121.504546666667","25.0109183333333","6500400","永和區"
"234010","9373-KE","2018/12/24 13:49:11","新北市永和區保生路55號","121.504733333333","25.01065","6500400","永和區"
"248015","026-BX","2018/12/24 13:49:12","新北市五股區凌雲路一段149巷42號","121.448628333333","25.1009466666667","6501500","五股區"
"248005","077-UY","2018/12/24 13:49:12","新北市五股區四維路96號","121.467578333333","25.07343","6501500","五股區"
"248007","095-VK","2018/12/24 13:49:24","新北市五股區中興路一段128巷38號","121.46581","25.0754366666667","6501500","五股區"
"248019","225-UY","2018/12/24 13:49:27","新北市五股區凌雲路三段86號","121.430623333333","25.118305","6501500","五股區"
"248009","272-BY","2018/12/24 13:49:26","新北市五股區水碓九路31號","121.42865","25.0719233333333","6501500","五股區"
"248003","677-BX","2018/12/24 13:49:27","新北市五股區民義路二段50-5號","121.410818333333","25.1041033333333","6501500","五股區"
"248001","678-BX","2018/12/24 13:49:18","新北市五股區成泰路三段521號","121.451523333333","25.1007666666667","6501500","五股區"
"248011","682-TV","2018/12/24 13:49:19","新北市五股區成泰路二段195巷1號","121.440286666667","25.087305","6501500","五股區"
"234022","9380-KE","2018/12/24 13:49:21","新北市永和區中正路702巷2號","121.51641","25.0100666666667","6500400","永和區"
"234076","969-R7","2018/12/24 13:49:17","新北市永和區民權路22號","121.520283333333","24.9992916666667","6500400","永和區"
"234072","AAC-211","2018/12/24 13:49:13","新北市永和區竹林路179巷37號","121.522251666667","25.0102966666667","6500400","永和區"
"234066","AAC-212","2018/12/24 13:49:23","新北市永和區永貞路355巷24號","121.508691666667","25.0072933333333","6500400","永和區"
"234001","AAC-295","2018/12/24 13:49:10","新北市永和區永和路一段57號","121.512851666667","25.0067316666667","6500400","永和區"
"244001","248-BX","2018/12/24 13:49:26","新北市林口區瑞樹坑60-2號","121.347538333333","25.1280533333333","6501700","林口區"
"243005","AAD-798","2018/12/24 13:26:21","新北市泰山區明志路三段206巷3號","121.423315","25.0379383333333","6501600","泰山區"
"243008","KEA-2801","2018/12/24 13:49:25","新北市泰山區明志路二段137號","121.427703333333","25.0506783333333","6501600","泰山區"
"243007","421-VK","2018/12/24 13:49:17","新北市泰山區美寧街50號","121.43047","25.0644716666667","6501600","泰山區"
"243003","KEA-2215","2018/12/24 13:49:24","新北市泰山區公園路46號","121.428685","25.05452","6501600","泰山區"
"243002","KEA-2216","2018/12/24 13:49:07","新北市泰山區公園路89號","121.424983333333","25.0546833333333","6501600","泰山區"
"243004","646-TV","2018/12/24 13:49:22","新北市泰山區福興三街11號","121.434498333333","25.057735","6501600","泰山區"
"243006","680-BX","2018/12/24 13:49:26","新北市泰山區黎明路25號","121.422108333333","25.0606416666667","6501600","泰山區"
"231002","002-UM","2018/12/24 13:49:18","新北市新店區溪園路385號","121.523393333333","24.9794466666667","6500600","新店區"
"231027","0291-UT","2018/12/24 13:49:27","新北市新店區北宜路一段105巷4弄9號","121.540348333333","24.955525","6500600","新店區"
"231028","046-UY","2018/12/24 13:49:21","新北市新店區安和路二段155號","121.51902","24.9742566666667","6500600","新店區"
"231001","047-UY","2018/12/24 13:49:08","新北市新店區三民路106號","121.534151666667","24.974005","6500600","新店區"
"231005","106-UY","2018/12/24 13:49:20","新北市新店區寶中路107號","121.548985","24.9801733333333","6500600","新店區"
"231010","107-UY","2018/12/24 13:49:25","新北市新店區平等街64號","121.535728333333","24.9723866666667","6500600","新店區"
"231019","108-UY","2018/12/24 13:49:06","新北市新店區永興路90-1號","121.543985","24.9316383333333","6500600","新店區"
"231011","187-VK","2018/12/24 13:49:28","新北市新店區德正街27巷29弄60號","121.54576","24.9729683333333","6500600","新店區"
"231023","KEA-2219","2018/12/24 13:49:26","新北市新店區國校路8號","121.53791","24.9560083333333","6500600","新店區"
"231026","256-BX","2018/12/24 13:49:21","新北市新店區中正路329巷11-1號","121.534936666667","24.9737266666667","6500600","新店區"
"231036","260-TV","2018/12/24 13:49:26","新北市新店區安祥路147巷66號","121.476055","24.956055","6500600","新店區"
"231003","268-BY","2018/12/24 13:49:10","新北市新店區中興路一段199號","121.543361666667","24.9653316666667","6500600","新店區"
"231018","278-BY","2018/12/24 13:49:10","新北市新店區中正路398號","121.534796666667","24.9775733333333","6500600","新店區"
"231014","AAD-862","2018/12/24 13:49:17","新北市新店區北宜路二段82巷2號","121.553568333333","24.952455","6500600","新店區"
"231038","3712-VJ","2018/12/24 13:49:18","新北市新店區安華路30巷1號","121.519586666667","24.9592533333333","6500600","新店區"
"231037","4716-K9","2018/12/24 13:49:09","新北市新店區安康路二段412號","121.496546666667","24.9554083333333","6500600","新店區"
"231025","4715-K9","2018/12/24 13:49:20","新北市新店區中正路366號","121.535188333333","24.9761516666667","6500600","新店區"
"231013","513-UM","2018/12/24 13:49:28","新北市新店區二十張路25巷20號","121.539326666667","24.9820716666667","6500600","新店區"
"231006","617-UM","2018/12/24 13:49:09","新北市新店區北宜路一段248號","121.545141666667","24.9529433333333","6500600","新店區"
"231030","619-UM","2018/12/24 13:49:25","新北市新店區安康路一段52巷2號","121.530043333333","24.961215","6500600","新店區"
"231034","641-BX","2018/12/24 13:49:26","新北市新店區達觀路14巷2號","121.50343","24.9414733333333","6500600","新店區"
"231035","719-UM","2018/12/24 13:49:16","新北市新店區安忠路205巷8號","121.50947","24.9546816666667","6500600","新店區"
"231031","720-UM","2018/12/24 13:49:14","新北市新店區莒光路44巷21弄11-3號","121.518525","24.952155","6500600","新店區"
"231029","897-TW","2018/12/24 13:49:25","新北市新店區安康路二段200號","121.5105","24.95971","6500600","新店區"
"231004","899-TW","2018/12/24 13:49:17","新北市新店區寶橋路132號","121.547398333333","24.9760033333333","6500600","新店區"
"231024","AKT-0513","2018/12/24 13:49:14","新北市新店區中華路47巷3號","121.53983","24.9676133333333","6500600","新店區"
"235028","005-UY","2018/12/24 13:49:11","新北市中和區連城路75巷14號","121.49848","24.9982433333333","6500300","中和區"
"235027","006-UY","2018/12/24 13:49:26","新北市中和區錦和路91-1號","121.490008333333","24.9956716666667","6500300","中和區"
"235020","096-UM","2018/12/24 13:49:21","新北市中和區中正路1184號","121.481115","25.0102283333333","6500300","中和區"
"235003","097-UM","2018/12/24 13:49:11","新北市中和區大仁街20巷59號","121.519898333333","24.9933883333333","6500300","中和區"
"235004","150-BY","2018/12/24 13:48:22","新北市中和區安平路101號","121.511373333333","24.99723","6500300","中和區"
"235022","151-BY","2018/12/24 13:49:16","新北市中和區連城路532巷3-5號","121.475346666667","24.9919616666667","6500300","中和區"
"235019","183-VK","2018/12/24 13:49:20","新北市中和區德光路75號","121.469406666667","25.003755","6500300","中和區"
"235002","185-VK","2018/12/24 13:49:18","新北市中和區大勇街45巷3號","121.517903333333","24.9947333333333","6500300","中和區"
"235013","186-VK","2018/12/24 13:49:28","新北市中和區景安路177巷21號","121.506308333333","24.994485","6500300","中和區"
"235031","255-BX","2018/12/24 13:49:14","新北市中和區新生街220巷1弄15號","121.483333333333","24.9978783333333","6500300","中和區"
"235008","293-VK","2018/12/24 13:49:17","新北市中和區中興街119號","121.499925","24.9919266666667","6500300","中和區"
"235036","301-VK","2018/12/24 13:49:09","新北市中和區中山路二段23號","121.504973333333","25.0054216666667","6500300","中和區"
"235006","KEA-2878","2018/12/24 13:49:16","新北市中和區秀朗路三段153巷16弄1號","121.52571","24.9915533333333","6500300","中和區"
"247005","KED-0682","2018/12/24 13:49:17","新北市蘆洲區中山二路275號","121.469346666667","25.0790766666667","6501400","蘆洲區"
"235014","4979-A6","2018/12/24 13:49:11","新北市中和區忠孝街62巷9弄10號","121.513175","24.9839766666667","6500300","中和區"
"235033","4980-A6","2018/12/24 13:49:11","新北市中和區南山路111巷6號","121.502498333333","24.9975716666667","6500300","中和區"
"235034","558-UM","2018/12/24 13:49:22","新北市中和區中和路203號","121.50372","24.9998166666667","6500300","中和區"
"235009","565-BX","2018/12/24 13:49:14","新北市中和區信義街36號","121.511126666667","24.9890266666667","6500300","中和區"
"235018","640-BX","2018/12/24 13:49:21","新北市中和區民享街38號","121.473935","25.0030416666667","6500300","中和區"
"235024","647-TV","2018/12/24 13:49:22","新北市中和區中山路三段194號","121.472011666667","25.006565","6500300","中和區"
"235010","733-UM","2018/12/24 13:49:21","新北市中和區仁愛街36巷55號","121.511411666667","24.9863283333333","6500300","中和區"
"235035","783-BX","2018/12/24 13:49:22","新北市中和區立德街56號","121.48841","25.00747","6500300","中和區"
"235026","800-TS","2018/12/24 13:49:20","新北市中和區中山路二段338號","121.493763333333","25.0026183333333","6500300","中和區"
"235021","801-TS","2018/12/24 13:49:19","新北市中和區民利街28號","121.47992","24.9991583333333","6500300","中和區"
"235005","802-TS","2018/12/24 13:49:14","新北市中和區永貞路268號","121.513618333333","25.0037483333333","6500300","中和區"
"235016","805-TS","2018/12/24 13:49:12","新北市中和區興南路二段399巷11號","121.49893","24.9791616666667","6500300","中和區"
"235012","896-TW","2018/12/24 13:49:13","新北市中和區南山路230號","121.506536666667","24.9901583333333","6500300","中和區"
"235017","900-TW","2018/12/24 13:49:11","新北市中和區華福街49號","121.466498333333","24.9966616666667","6500300","中和區"
"235029","911-UM","2018/12/24 13:49:25","新北市中和區中山路二段2巷45弄2號","121.502451666667","25.0070883333333","6500300","中和區"
"235015","157-BY","2018/12/24 13:49:17","新北市中和區工專路145號","121.508601666667","24.9791416666667","6500300","中和區"
"235001","AAC-213","2018/12/24 13:49:17","新北市中和區秀朗路三段149號","121.524748333333","24.992305","6500300","中和區"
"235023","AAC-215","2018/12/24 13:49:21","新北市中和區圓通路391-6號","121.489751666667","24.989085","6500300","中和區"
"220013","072-UY","2018/12/24 13:49:24","新北市板橋區重慶路40號","121.461433333333","25.00744","6500100","板橋區"
"220034","073-UY","2018/12/24 13:49:27","新北市板橋區大智街23號","121.455201666667","25.014915","6500100","板橋區"
"220105","075-UY","2018/12/24 13:49:20","新北市板橋區文化路二段124巷28-2號","121.471193333333","25.0256533333333","6500100","板橋區"
"220017","AAD-861","2018/12/24 13:49:23","新北市板橋區華興街32-5號","121.458911666667","25.0047916666667","6500100","板橋區"
"220016","120-SR","2018/12/24 13:47:23","新北市板橋區民族路219巷67號","121.468581666667","25.0089266666667","6500100","板橋區"
"247009","336-TH","2018/12/24 13:49:16","新北市蘆洲區中正路520巷9號","121.462368333333","25.0995416666667","6501400","蘆洲區"
"247019","057-VK","2018/12/24 13:49:19","新北市蘆洲區民族路422巷48弄28號","121.474676666667","25.0929533333333","6501400","蘆洲區"
"247003","002-UY","2018/12/24 13:49:13","新北市蘆洲區長安街108巷23號","121.461816666667","25.08234","6501400","蘆洲區"
"247021","001-UY","2018/12/24 13:49:08","新北市蘆洲區中正路261號","121.467366666667","25.087355","6501400","蘆洲區"
"253003","6232-TK","2018/12/24 13:49:07","新北市石門區中山路62-10號","121.569448333333","25.28885","6502200","石門區"
"253004","6251-TK","2018/12/24 13:49:08","新北市石門區小坑43-2號","121.600858333333","25.2645116666667","6502200","石門區"
"253002","637-UY","2018/12/24 13:49:23","新北市石門區尖山湖13號","121.563248333333","25.24214","6502200","石門區"
"253001","KEC-0718","2018/12/24 13:49:12","新北市石門區八甲58-2號","121.522176666667","25.2743833333333","6502200","石門區"
"207001","291-VK","2018/12/24 13:49:19","新北市萬里區崁腳里崁腳路166號","121.645116666667","25.1558483333333","6502800","萬里區"
"207001","662-BX","2018/12/24 13:49:09","新北市萬里區磺潭里公館崙35號","121.632653333333","25.2108166666667","6502800","萬里區"
"252005","AAC-283","2018/12/24 13:49:22","新北市三芝區橫山里大坑43號","121.535641666667","25.2460733333333","6502100","三芝區"
"236064","105-UM","2018/12/24 13:49:26","新北市土城區城林路6巷80號","121.438625","24.9796916666667","6501300","土城區"
"236040","KED-0685","2018/12/24 13:49:09","新北市土城區城林路6巷80號","121.438535","24.97977","6501300","土城區"
"236074","166-UM","2018/12/24 13:49:12","新北市土城區水源街63號","121.440111666667","24.9762083333333","6501300","土城區"
"236029","253-BX","2018/12/24 13:49:17","新北市土城區城林路6巷80號","121.4384","24.9798483333333","6501300","土城區"
"236012","270-VK","2018/12/24 13:49:14","新北市土城區城林路6巷80號","121.438571666667","24.97981","6501300","土城區"
"236032","271-VK","2018/12/24 13:49:13","新北市土城區城林路6巷80號","121.438541666667","24.9798366666667","6501300","土城區"
"247007","KED-0683","2018/12/24 13:49:23","新北市蘆洲區重陽街42-1號","121.481011666667","25.08249","6501400","蘆洲區"
"236057","912-UM","2018/12/24 13:49:19","新北市土城區中華路二段136號","121.437478333333","24.9728566666667","6501300","土城區"
"236045","913-UM","2018/12/24 13:49:19","新北市土城區城林路6巷80號","121.438483333333","24.9797566666667","6501300","土城區"
"236060","915-UM","2018/12/24 13:49:08","新北市土城區城林路6巷80號","121.438453333333","24.9796866666667","6501300","土城區"
"236054","AAC-216","2018/12/24 13:49:10","新北市土城區中華路二段2號","121.438866666667","24.979715","6501300","土城區"
"242008","413-TV","2018/12/24 13:49:17","新北市新莊區自由街34號","121.455906666667","25.046535","6500500","新莊區"
"242006","346-TH","2018/12/24 13:49:06","新北市新莊區福前街135巷61號","121.462043333333","25.0555966666667","6500500","新莊區"
"221033","647-BX","2018/12/24 13:49:26","新北市新店區薏仁坑路5號","121.499118333333","24.9589966666667","6501100","汐止區"
"220027","145-BY","2018/12/24 13:49:26","新北市板橋區南雅西路二段192巷24號","121.45272","25.0139983333333","6500100","板橋區"
"220028","200-UY","2018/12/24 13:49:11","新北市板橋區大觀路二段265巷60弄28-2號","121.441471666667","24.9978466666667","6500100","板橋區"
"220030","610-BX","2018/12/24 13:49:18","新北市板橋區篤行路三段玉平巷76弄7號","121.42745","24.9857783333333","6500100","板橋區"
"220004","276-BY","2018/12/24 13:49:10","新北市板橋區四川路一段281號","121.459433333333","25.0019433333333","6500100","板橋區"
"220020","277-BY","2018/12/24 13:49:23","新北市板橋區大觀路三段63號","121.433656666667","24.995385","6500100","板橋區"
"220050","280-UM","2018/12/24 13:49:27","新北市板橋區文化路二段182巷3弄1號","121.471261666667","25.027215","6500100","板橋區"
"220019","283-VK","2018/12/24 13:49:18","新北市板橋區館前東路68號","121.461278333333","25.0073283333333","6500100","板橋區"
"220043","285-UM","2018/12/24 13:49:15","新北市板橋區光武街31號","121.467806666667","25.0249433333333","6500100","板橋區"
"220001","285-VK","2018/12/24 13:49:22","新北市板橋區永豐街51-1號","121.474071666667","25.01795","6500100","板橋區"
"220031","286-VK","2018/12/24 13:49:25","新北市板橋區僑中二街90巷1號","121.446391666667","25.009015","6500100","板橋區"
"220029","287-VK","2018/12/24 13:49:21","新北市板橋區光華街13巷6號","121.45393","25.0115333333333","6500100","板橋區"
"220009","293-UM","2018/12/24 13:49:18","新北市板橋區太和街3巷1號","121.473953333333","25.0197583333333","6500100","板橋區"
"220032","296-UM","2018/12/24 13:49:27","新北市板橋區大觀路二段156巷46號","121.441268333333","25.0002833333333","6500100","板橋區"
"220023","303-R5","2018/12/24 13:49:25","新北市板橋區大觀路一段23號","121.450233333333","25.008455","6500100","板橋區"
"220010","305-R5","2018/12/24 13:49:22","新北市板橋區中山路二段26號","121.472568333333","25.0151333333333","6500100","板橋區"
"220041","307-R5","2018/12/24 13:49:11","新北市板橋區文化路一段104巷1弄3號","121.465246666667","25.0178433333333","6500100","板橋區"
"220047","317-R6","2018/12/24 13:49:14","新北市板橋區民生路二段234巷26弄9號","121.470505","25.0220716666667","6500100","板橋區"
"220037","491-VK","2018/12/24 13:49:13","新北市板橋區文化路二段7號","121.468546666667","25.0242516666667","6500100","板橋區"
"220104","560-BX","2018/12/24 13:49:18","新北市板橋區中正路325巷5弄6號","121.453271666667","25.019215","6500100","板橋區"
"220052","561-BX","2018/12/24 13:49:17","新北市板橋區文化路一段188巷9弄86-3號","121.468993333333","25.0187216666667","6500100","板橋區"
"220011","609-BX","2018/12/24 13:49:24","新北市板橋區中山路二段73號","121.473826666667","25.0158516666667","6500100","板橋區"
"220003","630-UY","2018/12/24 13:49:14","新北市板橋區忠孝路142號","121.463791666667","25.0023883333333","6500100","板橋區"
"220040","637-BX","2018/12/24 13:49:28","新北市板橋區雙十路二段47巷52號","121.474743333333","25.0254016666667","6500100","板橋區"
"220005","686-BX","2018/12/24 13:49:16","新北市板橋區館前東路39號","121.460956666667","25.0073983333333","6500100","板橋區"
"220025","687-BX","2018/12/24 13:49:15","新北市板橋區大觀路三段121號","121.432685","24.9944016666667","6500100","板橋區"
"220042","689-BX","2018/12/24 13:49:28","新北市板橋區民生路三段136號","121.466265","25.027035","6500100","板橋區"
"220002","741-BX","2018/12/24 13:49:25","新北市板橋區後埔街46號","121.460495","25.0060683333333","6500100","板橋區"
"220051","KEA-2699","2018/12/24 13:49:26","新北市板橋區懷德街235巷2-1號","121.481403333333","25.027965","6500100","板橋區"
"220014","829-TW","2018/12/24 13:49:23","新北市板橋區三民路二段正隆巷60號","121.476681666667","25.01432","6500100","板橋區"
"220016","830-TW","2018/12/24 13:49:19","新北市板橋區大同街35巷16號","121.477475","25.0278","6500100","板橋區"
"220039","831-TW","2018/12/24 13:49:13","新北市板橋區民有街27號","121.46601","25.0252516666667","6500100","板橋區"
"220038","833-TW","2018/12/24 13:49:23","新北市板橋區文化路二段313號","121.472045","25.02966","6500100","板橋區"
"220022","895-R6","2018/12/24 13:49:21","新北市板橋區南門街4號","121.457478333333","25.0092566666667","6500100","板橋區"
"220021","985-R7","2018/12/24 13:49:11","新北市板橋區南門街20號","121.45723","25.00876","6500100","板橋區"
"220046","AAC-210","2018/12/24 13:49:23","新北市板橋區陽明街162號","121.463573333333","25.0242966666667","6500100","板橋區"
"220012","AAC-253","2018/12/24 13:49:23","新北市板橋區中山路一段269號","121.468941666667","25.01347","6500100","板橋區"
"235032","KEA-2873","2018/12/24 13:49:06","新北市中和區圓通路162巷2弄1號","121.49711","24.9953716666667","6500300","中和區"
"235025","KEA-2875","2018/12/24 13:49:17","新北市中和區莒光路129巷1弄14號","121.473145","25.0025266666667","6500300","中和區"
"235011","KEA-2876","2018/12/24 13:49:06","新北市中和區興南路二段34巷69號","121.50488","24.985265","6500300","中和區"
