"lineid","car","time","location","longitude","latitude","cityid","cityname"
"234044","148-BY","2018/12/24 14:09:19","新北市永和區得和路387號","121.525106666667","24.9993366666667","6500400","永和區"
"234078","298-R6","2018/12/24 14:09:12","新北市永和區國中路95號","121.524495","25.006155","6500400","永和區"
"234036","336-UY","2018/12/24 14:09:27","新北市永和區成功路一段47巷28號","121.527698333333","25.0038366666667","6500400","永和區"
"234062","337-UY","2018/12/24 14:09:13","新北市永和區永利路83-1號","121.521418333333","25.0034216666667","6500400","永和區"
"234068","552-UM","2018/12/24 14:09:28","新北市永和區福和路183巷1號","121.520091666667","25.0073583333333","6500400","永和區"
"234084","553-UM","2018/12/24 14:09:24","新北市永和區福和路82-1號","121.522838333333","25.0080333333333","6500400","永和區"
"234015","745-BX","2018/12/24 14:09:13","新北市永和區仁愛路13號","121.51471","25.013435","6500400","永和區"
"234028","746-BX","2018/12/24 14:09:21","新北市永和區民權路51號","121.520058333333","24.9970616666667","6500400","永和區"
"234052","KEA-2590","2018/12/24 14:09:26","新北市永和區博愛街47巷1號","121.519343333333","25.015915","6500400","永和區"
"234005","839-RS","2018/12/24 14:09:20","新北市中和區中和路228號","121.506535","24.9995483333333","6500400","永和區"
"234012","KEA-2591","2018/12/24 14:09:11","新北市永和區永貞路407號","121.507585","25.0091783333333","6500400","永和區"
"234060","AAD-866","2018/12/24 14:09:26","新北市永和區安樂路72巷7號","121.515151666667","24.99894","6500400","永和區"
"234040","862-TW","2018/12/24 14:09:22","新北市永和區雙和街64巷7號","121.509348333333","25.0034383333333","6500400","永和區"
"234048","863-TW","2018/12/24 14:09:07","新北市永和區新生路190號","121.505916666667","25.01359","6500400","永和區"
"234025","9371-KE","2018/12/24 14:09:23","新北市永和區安樂路198巷5號","121.51552","25.0019983333333","6500400","永和區"
"234010","9373-KE","2018/12/24 14:09:11","新北市永和區仁愛路352巷122弄9號","121.50059","25.0087616666667","6500400","永和區"
"248015","026-BX","2018/12/24 14:09:12","新北市五股區成泰路三段543巷52號","121.449865","25.1029383333333","6501500","五股區"
"248007","095-VK","2018/12/24 14:09:24","新北市五股區中興路二段57-6號","121.460546666667","25.0754266666667","6501500","五股區"
"248019","225-UY","2018/12/24 14:01:56","新北市五股區凌雲路三段57號","121.425298333333","25.1250133333333","6501500","五股區"
"248009","272-BY","2018/12/24 14:09:26","新北市五股區水碓一路23號","121.430603333333","25.0713","6501500","五股區"
"248003","677-BX","2018/12/24 14:09:28","新北市五股區民義路一段165號","121.432813333333","25.08782","6501500","五股區"
"248001","678-BX","2018/12/24 14:09:18","新北市五股區成泰路三段577巷52號","121.45073","25.1032433333333","6501500","五股區"
"248011","682-TV","2018/12/24 14:09:19","新北市五股區工商路18巷21號","121.440215","25.0841083333333","6501500","五股區"
"234022","9380-KE","2018/12/24 14:09:21","新北市永和區博愛街33號","121.518571666667","25.0158983333333","6500400","永和區"
"234076","969-R7","2018/12/24 14:09:23","新北市永和區民族街81巷60號","121.520126666667","24.9964983333333","6500400","永和區"
"234072","AAC-211","2018/12/24 14:09:13","新北市永和區竹林路201巷24弄16號","121.522745","25.00967","6500400","永和區"
"234066","AAC-212","2018/12/24 14:09:23","新北市永和區保平路236巷12弄5號","121.50861","25.0064966666667","6500400","永和區"
"234001","AAC-295","2018/12/24 14:09:10","新北市永和區中正路732巷4號","121.515505","25.01024","6500400","永和區"
"244001","248-BX","2018/12/24 14:09:06","新北市林口區太平里180號","121.366373333333","25.13456","6501700","林口區"
"243005","AAD-798","2018/12/24 14:09:08","新北市泰山區台麗街6巷11號","121.424091666667","25.0376983333333","6501600","泰山區"
"243001","297-R6","2018/12/24 14:09:13","新北市泰山區楓樹街15巷28號","121.434523333333","25.0631583333333","6501600","泰山區"
"243008","KEA-2801","2018/12/24 14:09:25","新北市泰山區明志路三段1號","121.424861666667","25.0434383333333","6501600","泰山區"
"243007","421-VK","2018/12/24 14:09:29","新北市泰山區明志路一段503號","121.430688333333","25.0547683333333","6501600","泰山區"
"243003","KEA-2215","2018/12/24 14:09:24","新北市泰山區明志路二段372巷7弄1號","121.425261666667","25.0453","6501600","泰山區"
"243002","KEA-2216","2018/12/24 14:09:07","新北市泰山區明志路一段481號","121.431061666667","25.0554033333333","6501600","泰山區"
"243004","646-TV","2018/12/24 14:09:22","新北市泰山區明志路一段368號","121.43068","25.05785","6501600","泰山區"
"243006","680-BX","2018/12/24 14:09:26","新北市泰山區泰林路二段480號","121.425083333333","25.06406","6501600","泰山區"
"231002","002-UM","2018/12/24 14:09:18","新北市新店區中正路542-10號","121.533686666667","24.98489","6500600","新店區"
"231027","0291-UT","2018/12/24 14:09:07","新北市新店區中興路一段24號","121.538706666667","24.9582","6500600","新店區"
"231028","046-UY","2018/12/24 14:09:12","新北市新店區安和路三段103號","121.517813333333","24.9845116666667","6500600","新店區"
"231001","047-UY","2018/12/24 14:09:28","新北市新店區中華路52號","121.539596666667","24.96853","6500600","新店區"
"231005","106-UY","2018/12/24 14:09:20","新北市新店區中興路三段299號","121.542175","24.9852466666667","6500600","新店區"
"231010","107-UY","2018/12/24 14:09:25","新北市新店區安一路一段1-1號","121.519693333333","24.9610633333333","6500600","新店區"
"231019","108-UY","2018/12/24 14:09:27","新北市新店區屈尺路87巷2號","121.545393333333","24.9227033333333","6500600","新店區"
"231011","187-VK","2018/12/24 14:09:26","新北市新店區五峰路93號","121.546083333333","24.967395","6500600","新店區"
"231023","KEA-2219","2018/12/24 14:09:15","新北市新店區文中路45號","121.539623333333","24.956715","6500600","新店區"
"231026","256-BX","2018/12/24 14:09:21","新北市新店區安華路28-1號","121.519641666667","24.9606733333333","6500600","新店區"
"231036","260-TV","2018/12/24 14:09:25","新北市新店區安祥路110巷25號","121.47342","24.95624","6500600","新店區"
"231003","268-BY","2018/12/24 14:09:30","新北市新店區中興路一段51號","121.539636666667","24.9601716666667","6500600","新店區"
"231018","278-BY","2018/12/24 14:09:11","新北市新店區中央五街46號","121.528136666667","24.9751916666667","6500600","新店區"
"231014","AAD-862","2018/12/24 14:09:17","新北市新店區北宜路三段76號","121.576401666667","24.95162","6500600","新店區"
"231038","3712-VJ","2018/12/24 14:09:18","新北市新店區安康路一段77號","121.530025","24.9611766666667","6500600","新店區"
"231037","4716-K9","2018/12/24 14:09:29","新北市新店區安康路三段202號","121.489058333333","24.9517983333333","6500600","新店區"
"231025","4715-K9","2018/12/24 14:09:21","新北市新店區二十張路129巷5弄1號","121.53645","24.978715","6500600","新店區"
"231013","513-UM","2018/12/24 14:09:28","新北市新店區北新路三段95巷12號","121.540728333333","24.9818166666667","6500600","新店區"
"231006","617-UM","2018/12/24 14:09:09","新北市新店區北宜路二段126號","121.556861666667","24.9539083333333","6500600","新店區"
"231030","619-UM","2018/12/24 14:09:25","新北市新店區安興路7-1號","121.514998333333","24.9685583333333","6500600","新店區"
"231034","641-BX","2018/12/24 14:09:18","新北市新店區車子路8-1號","121.50435","24.9530316666667","6500600","新店區"
"231035","719-UM","2018/12/24 14:08:56","新北市新店區安和路一段47號","121.517461666667","24.9657516666667","6500600","新店區"
"231031","720-UM","2018/12/24 14:09:14","新北市新店區永業路23號","121.533266666667","24.9557016666667","6500600","新店區"
"231029","897-TW","2018/12/24 14:09:25","新北市新店區安康路二段106號","121.513416666667","24.9629283333333","6500600","新店區"
"231004","899-TW","2018/12/24 14:09:17","新北市新店區北新路二段156號","121.542961666667","24.975475","6500600","新店區"
"231024","AKT-0513","2018/12/24 14:09:10","新北市新店區新生街13巷42號","121.538893333333","24.96655","6500600","新店區"
"235028","005-UY","2018/12/24 14:09:11","新北市中和區連城路47巷1號","121.49832","25.0015616666667","6500300","中和區"
"235027","006-UY","2018/12/24 14:09:26","新北市中和區連城路249巷3號","121.49369","24.99688","6500300","中和區"
"235020","096-UM","2018/12/24 14:09:26","新北市中和區中正路1191號","121.480658333333","25.00997","6500300","中和區"
"235003","097-UM","2018/12/24 14:09:11","新北市中和區秀峰街119巷4弄1號","121.519748333333","24.99014","6500300","中和區"
"235004","150-BY","2018/12/24 14:09:22","新北市中和區保健路46巷20弄8號","121.508736666667","24.9963916666667","6500300","中和區"
"235022","151-BY","2018/12/24 14:09:16","新北市中和區員山路108號","121.481083333333","24.9955416666667","6500300","中和區"
"235019","183-VK","2018/12/24 14:09:20","新北市中和區德光路132號","121.467961666667","25.003185","6500300","中和區"
"235002","185-VK","2018/12/24 14:09:18","新北市中和區大仁街10巷27弄4號","121.519235","24.99274","6500300","中和區"
"235013","186-VK","2018/12/24 14:09:08","新北市中和區明禮街24號","121.504531666667","24.99611","6500300","中和區"
"235031","255-BX","2018/12/24 14:09:14","新北市中和區新生街233巷10號","121.484395","24.9985616666667","6500300","中和區"
"235008","293-VK","2018/12/24 14:09:17","新北市中和區復興路329號","121.500775","24.9901816666667","6500300","中和區"
"235036","301-VK","2018/12/24 14:09:09","新北市中和區景平路727號","121.496395","25.00412","6500300","中和區"
"235006","KEA-2878","2018/12/24 14:09:16","新北市中和區自立路58巷2號","121.523615","24.9916116666667","6500300","中和區"
"247011","KEA-2869","2018/12/24 14:09:24","新北市蘆洲區信義路329號","121.478175","25.0866833333333","6501400","蘆洲區"
"247005","KED-0682","2018/12/24 14:09:17","新北市蘆洲區九芎街13號","121.468196666667","25.0784583333333","6501400","蘆洲區"
"235014","4979-A6","2018/12/24 14:09:11","新北市中和區復興路249巷11弄3-1號","121.503601666667","24.9896866666667","6500300","中和區"
"235033","4980-A6","2018/12/24 14:09:11","新北市中和區中山路二段181巷22號","121.501065","25.0019383333333","6500300","中和區"
"235034","558-UM","2018/12/24 14:09:20","新北市中和區中和路49號","121.500143333333","25.00138","6500300","中和區"
"235009","565-BX","2018/12/24 14:09:16","新北市中和區景新街433號","121.513211666667","24.989055","6500300","中和區"
"235018","640-BX","2018/12/24 14:09:21","新北市中和區民德路150號","121.468593333333","25.0001616666667","6500300","中和區"
"235024","647-TV","2018/12/24 14:09:22","新北市中和區民有街48號","121.475783333333","25.0049333333333","6500300","中和區"
"235010","733-UM","2018/12/24 14:09:21","新北市中和區忠孝街1巷68號","121.50834","24.9845216666667","6500300","中和區"
"235035","783-BX","2018/12/24 14:09:22","新北市中和區建二路149號","121.48721","25.0036016666667","6500300","中和區"
"235026","800-TS","2018/12/24 14:09:20","新北市中和區中山路二段380巷39號","121.490721666667","25.005075","6500300","中和區"
"235021","801-TS","2018/12/24 14:09:19","新北市中和區民利街53號","121.479348333333","24.9986733333333","6500300","中和區"
"235005","802-TS","2018/12/24 14:09:14","新北市中和區宜安路118巷28號","121.511126666667","24.9990066666667","6500300","中和區"
"235016","805-TS","2018/12/24 14:09:12","新北市中和區興南路二段114巷2號","121.50433","24.9842016666667","6500300","中和區"
"235012","896-TW","2018/12/24 14:09:13","新北市中和區工專路147號","121.508406666667","24.9788016666667","6500300","中和區"
"235017","900-TW","2018/12/24 14:09:11","新北市中和區民德路274號","121.467603333333","24.9965083333333","6500300","中和區"
"235029","911-UM","2018/12/24 14:09:25","新北市中和區中山路二段136巷6弄1號","121.50209","25.003945","6500300","中和區"
"235015","157-BY","2018/12/24 14:09:17","新北市中和區仁愛街36巷55號","121.511518333333","24.9862533333333","6500300","中和區"
"235001","AAC-213","2018/12/24 14:09:17","新北市中和區秀朗路三段60巷30號","121.525333333333","24.99499","6500300","中和區"
"235023","AAC-215","2018/12/24 14:09:21","新北市中和區圓通路294巷17-5號","121.488746666667","24.9904166666667","6500300","中和區"
"220013","072-UY","2018/12/24 14:09:24","新北市板橋區民族路247巷3弄2號","121.470336666667","25.0076183333333","6500100","板橋區"
"220034","073-UY","2018/12/24 14:09:27","新北市板橋區中正路216巷22號","121.456701666667","25.0185083333333","6500100","板橋區"
"220105","075-UY","2018/12/24 14:09:21","新北市板橋區雙十路三段10巷1弄31號","121.471171666667","25.0316783333333","6500100","板橋區"
"220017","AAD-861","2018/12/24 14:09:23","新北市板橋區大華街49號","121.459506666667","25.00355","6500100","板橋區"
"220016","120-SR","2018/12/24 13:47:23","新北市板橋區民族路219巷67號","121.468581666667","25.0089266666667","6500100","板橋區"
"247001","893-R6","2018/12/24 14:09:20","新北市蘆洲區永平街62號","121.457485","25.091605","6501400","蘆洲區"
"247015","546-UM","2018/12/24 14:09:24","新北市蘆洲區光華路46巷51號","121.467398333333","25.084695","6501400","蘆洲區"
"247023","500-BY","2018/12/24 14:09:10","新北市蘆洲區光榮路68號","121.463148333333","25.08862","6501400","蘆洲區"
"247009","336-TH","2018/12/24 14:09:16","新北市蘆洲區三民路50號","121.475528333333","25.083205","6501400","蘆洲區"
"247019","057-VK","2018/12/24 14:09:19","新北市蘆洲區民族路426巷52號","121.472831666667","25.0935933333333","6501400","蘆洲區"
"247013","053-VK","2018/12/24 14:09:21","新北市蘆洲區忠孝路53號","121.471326666667","25.0866583333333","6501400","蘆洲區"
"247017","007-UY","2018/12/24 14:09:09","新北市蘆洲區民族路227巷24弄2號","121.476563333333","25.08894","6501400","蘆洲區"
"247003","002-UY","2018/12/24 14:09:13","新北市蘆洲區中華街6巷46號","121.462516666667","25.0825516666667","6501400","蘆洲區"
"247021","001-UY","2018/12/24 14:09:27","新北市蘆洲區三民路157-1號","121.470766666667","25.0866166666667","6501400","蘆洲區"
"253003","6232-TK","2018/12/24 14:09:27","新北市石門區尖子鹿47-2號","121.581013333333","25.2682716666667","6502200","石門區"
"253004","6251-TK","2018/12/24 14:09:28","新北市石門區內阿里磅25號","121.591046666667","25.2426783333333","6502200","石門區"
"253002","637-UY","2018/12/24 14:09:23","新北市石門區七股28-1號","121.551873333333","25.26607","6502200","石門區"
"253001","KEC-0718","2018/12/24 14:09:12","新北市石門區八甲71-2號","121.530145","25.2693783333333","6502200","石門區"
"207001","291-VK","2018/12/24 14:09:19","新北市萬里區溪底里瑞泉路13-1號","121.604883333333","25.1448766666667","6502800","萬里區"
"207001","662-BX","2018/12/24 14:09:09","新北市萬里區磺潭里清水18號","121.63784","25.1978016666667","6502800","萬里區"
"252005","AAC-283","2018/12/24 14:09:22","新北市三芝區橫山里橫山21號","121.540306666667","25.2627066666667","6502100","三芝區"
"236064","105-UM","2018/12/24 14:09:26","新北市土城區明德路一段128巷7號","121.463266666667","24.97905","6501300","土城區"
"236040","KED-0685","2018/12/24 14:09:09","新北市土城區城林路6巷80號","121.438556666667","24.97978","6501300","土城區"
"236074","166-UM","2018/12/24 14:09:21","新北市土城區永寧路32巷35號","121.428283333333","24.9608016666667","6501300","土城區"
"236029","253-BX","2018/12/24 14:09:17","新北市土城區城林路6巷80號","121.438405","24.979825","6501300","土城區"
"236024","269-VK","2018/12/24 14:09:16","新北市土城區承天路18號","121.439533333333","24.9634733333333","6501300","土城區"
"236012","270-VK","2018/12/24 14:09:14","新北市土城區裕民路172號","121.452495","24.9853883333333","6501300","土城區"
"236032","271-VK","2018/12/24 14:09:13","新北市土城區金城路一段112號","121.44653","24.97587","6501300","土城區"
"247007","KED-0683","2018/12/24 14:09:23","新北市蘆洲區中山一路276號","121.471625","25.079295","6501400","蘆洲區"
"236016","401-BY","2018/12/24 14:09:24","新北市土城區城林路6巷80號","121.438466666667","24.9797783333333","6501300","土城區"
"236057","912-UM","2018/12/24 14:09:19","新北市土城區中央路四段196-1號","121.416281666667","24.9577","6501300","土城區"
"236045","913-UM","2018/12/24 14:09:19","新北市土城區明德路一段365-1號","121.453543333333","24.9790533333333","6501300","土城區"
"236060","915-UM","2018/12/24 14:09:28","新北市土城區金城路一段112號","121.446993333333","24.975795","6501300","土城區"
"236054","AAC-216","2018/12/24 14:09:10","新北市土城區中華路二段102號","121.43805","24.9743483333333","6501300","土城區"
"242006","346-TH","2018/12/24 14:09:26","新北市新莊區中原路228號","121.453123333333","25.05506","6500500","新莊區"
"221033","647-BX","2018/12/24 14:09:26","台北市文山區指南路三段1-1號","121.581625","24.9777333333333","6501100","汐止區"
"220027","145-BY","2018/12/24 14:09:28","新北市板橋區民權路260巷34號","121.45904","25.0152","6500100","板橋區"
"220028","200-UY","2018/12/24 14:09:19","新北市板橋區大觀路二段7巷4號","121.447245","25.0035216666667","6500100","板橋區"
"220030","610-BX","2018/12/24 14:09:18","新北市板橋區溪崑二街63號","121.428038333333","24.9904816666667","6500100","板橋區"
"220004","276-BY","2018/12/24 14:09:19","新北市板橋區信義路74巷4弄2號","121.456941666667","24.9930033333333","6500100","板橋區"
"220020","277-BY","2018/12/24 14:09:23","新北市板橋區金門街369巷48號","121.428455","24.98261","6500100","板橋區"
"220050","280-UM","2018/12/24 14:09:27","新北市板橋區莊敬路6-1號","121.473726666667","25.0280333333333","6500100","板橋區"
"220019","283-VK","2018/12/24 14:09:18","新北市板橋區重慶路269巷59號","121.465035","24.9989066666667","6500100","板橋區"
"220043","285-UM","2018/12/24 14:09:15","新北市板橋區吳鳳路19巷20號","121.466775","25.0307416666667","6500100","板橋區"
"220001","285-VK","2018/12/24 14:09:22","新北市板橋區懷仁街35巷11號","121.477055","25.019805","6500100","板橋區"
"220031","286-VK","2018/12/24 14:09:25","新北市板橋區大觀路二段174巷173弄10號","121.441396666667","25.003865","6500100","板橋區"
"220029","287-VK","2018/12/24 14:09:10","新北市板橋區南雅西路二段160號","121.451786666667","25.01349","6500100","板橋區"
"220009","293-UM","2018/12/24 14:09:27","新北市板橋區中山路二段318巷20弄19號","121.480908333333","25.0188683333333","6500100","板橋區"
"220032","296-UM","2018/12/24 14:09:27","新北市板橋區溪崑二街56巷30號","121.428066666667","24.9913166666667","6500100","板橋區"
"220023","303-R5","2018/12/24 14:09:23","新北市板橋區中正路107號","121.456285","25.01485","6500100","板橋區"
"220010","305-R5","2018/12/24 14:09:18","新北市板橋區三民路二段居仁巷2號","121.479365","25.0132116666667","6500100","板橋區"
"220041","307-R5","2018/12/24 14:09:10","新北市板橋區光武街48巷8-3號","121.467455","25.0266816666667","6500100","板橋區"
"220047","317-R6","2018/12/24 14:09:14","新北市板橋區民有街39-3號","121.465796666667","25.0257416666667","6500100","板橋區"
"220037","491-VK","2018/12/24 14:09:13","新北市板橋區莊敬路48-2號","121.472676666667","25.0271533333333","6500100","板橋區"
"220104","560-BX","2018/12/24 14:09:12","新北市板橋區中正路381號","121.454058333333","25.0215016666667","6500100","板橋區"
"220052","561-BX","2018/12/24 14:09:24","新北市板橋區文化路一段188巷23號","121.467051666667","25.01899","6500100","板橋區"
"220011","609-BX","2018/12/24 14:09:24","新北市板橋區三民路二段167號","121.47911","25.0145383333333","6500100","板橋區"
"220003","630-UY","2018/12/24 14:09:14","新北市板橋區區運路19號","121.4654","25.0101616666667","6500100","板橋區"
"220040","637-BX","2018/12/24 14:09:28","新北市板橋區文聖街217號","121.480323333333","25.0258216666667","6500100","板橋區"
"220005","686-BX","2018/12/24 14:09:23","新北市板橋區重慶路308巷20號","121.463438333333","24.9974716666667","6500100","板橋區"
"220025","687-BX","2018/12/24 14:09:15","新北市板橋區大觀路二段174巷172號","121.441966666667","25.0034783333333","6500100","板橋區"
"220042","689-BX","2018/12/24 14:09:25","新北市板橋區漢生西路68號","121.462913333333","25.0189783333333","6500100","板橋區"
"220002","741-BX","2018/12/24 14:09:25","新北市板橋區重慶路76巷8號","121.461131666667","25.006255","6500100","板橋區"
"220051","KEA-2699","2018/12/24 14:09:27","新北市板橋區田單街20號","121.482328333333","25.0285916666667","6500100","板橋區"
"220014","829-TW","2018/12/24 14:09:13","新北市板橋區中山路二段90巷47弄2號","121.476481666667","25.01454","6500100","板橋區"
"220016","830-TW","2018/12/24 14:09:19","新北市板橋區翠華街6巷27號","121.481413333333","25.0244","6500100","板橋區"
"220039","831-TW","2018/12/24 14:09:13","新北市板橋區四維路349巷16號","121.46154","25.0297016666667","6500100","板橋區"
"220038","833-TW","2018/12/24 14:09:23","新北市板橋區文化路一段210號","121.466385","25.0203333333333","6500100","板橋區"
"220022","895-R6","2018/12/24 14:09:09","新北市板橋區林園街2號","121.454275","25.0092166666667","6500100","板橋區"
"220021","985-R7","2018/12/24 14:09:11","新北市板橋區中正路163號","121.456405","25.01599","6500100","板橋區"
"220046","AAC-210","2018/12/24 14:09:23","新北市板橋區幸福路60巷5-1號","121.460921666667","25.0203766666667","6500100","板橋區"
"220012","AAC-253","2018/12/24 14:09:24","新北市板橋區板新路96號","121.472413333333","25.0148","6500100","板橋區"
"235032","KEA-2873","2018/12/24 14:09:06","新北市中和區連勝街57巷16號","121.49801","24.9966516666667","6500300","中和區"
"235025","KEA-2875","2018/12/24 14:09:16","新北市中和區中山路三段112號","121.47629","25.0058266666667","6500300","中和區"
"235011","KEA-2876","2018/12/24 14:09:06","新北市中和區興南路二段21號","121.507916666667","24.9860616666667","6500300","中和區"
