"lineid","car","time","location","longitude","latitude","cityid","cityname"
"234078","298-R6","2018/12/24 14:19:13","新北市永和區福和路19巷1弄3號","121.52426","25.0078983333333","6500400","永和區"
"234036","336-UY","2018/12/24 14:19:27","新北市永和區成功路一段17巷6弄2號","121.52756","25.005095","6500400","永和區"
"234062","337-UY","2018/12/24 14:19:25","新北市永和區得和路211號","121.51919","25.0001916666667","6500400","永和區"
"234068","552-UM","2018/12/24 14:19:28","新北市永和區中正路562號","121.517276666667","25.0060016666667","6500400","永和區"
"234084","553-UM","2018/12/24 14:19:24","新北市永和區中正路575號","121.51668","25.0087816666667","6500400","永和區"
"234028","746-BX","2018/12/24 14:19:21","新北市永和區民權路49巷24號","121.521275","24.9973966666667","6500400","永和區"
"234052","KEA-2590","2018/12/24 14:19:24","新北市永和區光復街4號","121.516391666667","25.0166883333333","6500400","永和區"
"234005","839-RS","2018/12/24 14:19:17","新北市永和區中正路659號","121.514661666667","25.01024","6500400","永和區"
"234012","KEA-2591","2018/12/24 14:19:27","新北市永和區保生路40巷1號","121.505916666667","25.0082416666667","6500400","永和區"
"234060","AAD-866","2018/12/24 14:19:26","新北市永和區得和路51-4號","121.516865","25.0001","6500400","永和區"
"234040","862-TW","2018/12/24 14:19:12","新北市永和區安樂路220號","121.514971666667","25.0023083333333","6500400","永和區"
"234048","863-TW","2018/12/24 14:19:27","新北市永和區保安路34號","121.51047","25.017","6500400","永和區"
"234025","9371-KE","2018/12/24 14:19:23","新北市永和區安樂路144巷21-3號","121.514848333333","24.9999466666667","6500400","永和區"
"234010","9373-KE","2018/12/24 14:19:11","新北市永和區保順路33號","121.503805","25.010655","6500400","永和區"
"248015","026-BX","2018/12/24 14:19:12","新北市五股區成洲五路58號","121.45325","25.1022416666667","6501500","五股區"
"248007","095-VK","2018/12/24 14:19:24","新北市五股區中興路二段2號","121.463291666667","25.074255","6501500","五股區"
"248019","225-UY","2018/12/24 14:01:56","新北市五股區凌雲路三段57號","121.425298333333","25.1250133333333","6501500","五股區"
"248011","247-BX","2018/12/24 14:19:12","新北市五股區中興路二段63巷17號","121.460158333333","25.0755816666667","6501500","五股區"
"248009","272-BY","2018/12/24 14:19:26","新北市五股區水碓一路23號","121.430581666667","25.0713016666667","6501500","五股區"
"248003","677-BX","2018/12/24 14:19:28","新北市五股區五福路144號","121.43208","25.0914433333333","6501500","五股區"
"248001","678-BX","2018/12/24 14:19:18","新北市五股區成泰路四段5號","121.45284","25.106355","6501500","五股區"
"248011","682-TV","2018/12/24 14:19:19","新北市五股區中興路四段57號","121.437908333333","25.0829233333333","6501500","五股區"
"234022","9380-KE","2018/12/24 14:19:21","新北市永和區竹林路16號","121.516603333333","25.0148816666667","6500400","永和區"
"234076","969-R7","2018/12/24 14:19:17","新北市永和區民權路55號","121.520131666667","24.996615","6500400","永和區"
"234072","AAC-211","2018/12/24 14:19:13","新北市永和區竹林路119巷30弄5號","121.52234","25.0116616666667","6500400","永和區"
"234066","AAC-212","2018/12/24 14:19:23","新北市永和區中山路一段281巷2弄3號","121.507275","25.0065116666667","6500400","永和區"
"234001","AAC-295","2018/12/24 14:19:10","新北市永和區中正路614-2號","121.517008333333","25.00766","6500400","永和區"
"243005","AAD-798","2018/12/24 14:19:14","新北市泰山區明志路三段145巷34弄2號","121.426335","25.0394733333333","6501600","泰山區"
"243001","297-R6","2018/12/24 14:17:13","新北市泰山區明志路一段19巷14號","121.434463333333","25.065635","6501600","泰山區"
"243008","KEA-2801","2018/12/24 14:19:25","新北市泰山區工專路64號","121.422866666667","25.040355","6501600","泰山區"
"243007","421-VK","2018/12/24 14:19:17","新北市泰山區公園路2號","121.429956666667","25.0539416666667","6501600","泰山區"
"243003","KEA-2215","2018/12/24 14:19:24","新北市泰山區貴子路74號","121.427043333333","25.0413366666667","6501600","泰山區"
"243002","KEA-2216","2018/12/24 14:19:27","新北市泰山區明志路二段7巷2號","121.430355","25.05351","6501600","泰山區"
"243004","646-TV","2018/12/24 14:19:22","新北市泰山區仁義路220巷2號","121.43294","25.053815","6501600","泰山區"
"243006","680-BX","2018/12/24 14:19:31","新北市泰山區明志路一段193號","121.432941666667","25.0617183333333","6501600","泰山區"
"231002","002-UM","2018/12/24 14:19:18","新北市新店區中正路480號","121.533965","24.98175","6500600","新店區"
"231027","0291-UT","2018/12/24 14:19:27","新北市新店區光明街286巷15號","121.540908333333","24.9636566666667","6500600","新店區"
"231028","046-UY","2018/12/24 14:19:13","新北市新店區安和路二段218-1號","121.517981666667","24.9751966666667","6500600","新店區"
"231001","047-UY","2018/12/24 14:19:28","新北市新店區北新路一段307號","121.541461666667","24.9676716666667","6500600","新店區"
"231005","106-UY","2018/12/24 14:19:20","新北市新店區中興路三段218號","121.543548333333","24.9825983333333","6500600","新店區"
"231019","108-UY","2018/12/24 14:19:26","新北市新店區新烏路二段351號","121.55035","24.9104133333333","6500600","新店區"
"231011","187-VK","2018/12/24 14:19:21","新北市新店區五峰路63巷8弄74號","121.547931666667","24.9684783333333","6500600","新店區"
"231023","KEA-2219","2018/12/24 14:19:22","新北市新店區北新路一段2-20號","121.538623333333","24.9599016666667","6500600","新店區"
"231036","260-TV","2018/12/24 14:19:26","新北市新店區安祥路109巷1弄29號","121.476628333333","24.9601283333333","6500600","新店區"
"231003","268-BY","2018/12/24 14:19:30","新北市新店區中興路一段187號","121.543213333333","24.9649533333333","6500600","新店區"
"231018","278-BY","2018/12/24 14:19:10","新北市新店區中央四街5-1號","121.530251666667","24.9737983333333","6500600","新店區"
"231014","AAD-862","2018/12/24 14:19:21","新北市新店區北宜路三段264號","121.601935","24.9551033333333","6500600","新店區"
"231038","3712-VJ","2018/12/24 14:19:18","新北市新店區溪洲路6巷3號","121.53389","24.9613316666667","6500600","新店區"
"231037","4716-K9","2018/12/24 14:19:09","新北市新店區安康路二段341巷50號","121.496661666667","24.95433","6500600","新店區"
"231025","4715-K9","2018/12/24 14:19:20","新北市新店區民族路161號","121.537671666667","24.9766983333333","6500600","新店區"
"231013","513-UM","2018/12/24 14:19:08","新北市新店區大豐路53號","121.539925","24.9797566666667","6500600","新店區"
"231006","617-UM","2018/12/24 14:19:09","新北市新店區玉山路22號","121.568028333333","24.9554966666667","6500600","新店區"
"231030","619-UM","2018/12/24 14:19:25","新北市新店區安民街3巷5號","121.514518333333","24.9641833333333","6500600","新店區"
"231034","641-BX","2018/12/24 14:19:18","新北市新店區車子路11號","121.503091666667","24.9520816666667","6500600","新店區"
"231035","719-UM","2018/12/24 14:19:16","新北市新店區安和路二段113巷3弄5號","121.518041666667","24.96994","6500600","新店區"
"231031","720-UM","2018/12/24 14:19:14","新北市新店區溪洲路196-6號","121.53091","24.966465","6500600","新店區"
"231029","897-TW","2018/12/24 14:19:25","新北市新店區安康路二段208號","121.510208333333","24.95949","6500600","新店區"
"231004","899-TW","2018/12/24 14:19:17","新北市新店區中正路151號","121.541395","24.9717633333333","6500600","新店區"
"231024","AKT-0513","2018/12/24 14:19:30","新北市新店區柴埕路59號","121.513663333333","24.9648266666667","6500600","新店區"
"235028","005-UY","2018/12/24 14:19:11","新北市中和區泰和街50號","121.498998333333","24.9995666666667","6500300","中和區"
"235027","006-UY","2018/12/24 14:19:26","新北市中和區連勝街117號","121.494976666667","24.9952866666667","6500300","中和區"
"235020","096-UM","2018/12/24 14:19:21","新北市中和區員山路521號","121.479795","25.0067466666667","6500300","中和區"
"235003","097-UM","2018/12/24 14:19:11","新北市中和區秀峰街127巷8號","121.519201666667","24.9908933333333","6500300","中和區"
"235004","150-BY","2018/12/24 14:19:22","新北市中和區保健路106巷12弄11號","121.51112","24.995415","6500300","中和區"
"235022","151-BY","2018/12/24 14:19:16","新北市中和區員山路36巷16-2號","121.485258333333","24.991645","6500300","中和區"
"235019","183-VK","2018/12/24 14:19:20","新北市中和區莒光路2號","121.47172","25.0046916666667","6500300","中和區"
"235002","185-VK","2018/12/24 14:19:18","新北市中和區大仁街10巷48-5號","121.520118333333","24.9924983333333","6500300","中和區"
"235013","186-VK","2018/12/24 14:19:28","新北市中和區景新街230巷3號","121.508153333333","24.9940916666667","6500300","中和區"
"235031","255-BX","2018/12/24 14:19:14","新北市中和區連城路280號","121.484338333333","24.9962783333333","6500300","中和區"
"235008","293-VK","2018/12/24 14:19:17","新北市中和區復興路316號","121.500945","24.9903083333333","6500300","中和區"
"235036","301-VK","2018/12/24 14:19:09","新北市中和區莊敬路33巷20號","121.500238333333","25.0054316666667","6500300","中和區"
"235006","KEA-2878","2018/12/24 14:19:16","新北市中和區大勇街60巷8號","121.518636666667","24.9947333333333","6500300","中和區"
"247011","KEA-2869","2018/12/24 14:19:24","新北市蘆洲區信義路351巷18號","121.476616666667","25.08683","6501400","蘆洲區"
"247005","KED-0682","2018/12/24 14:19:17","新北市蘆洲區長安街22巷18號","121.464586666667","25.0798116666667","6501400","蘆洲區"
"235014","4979-A6","2018/12/24 14:19:11","新北市中和區景安路208巷12號","121.503398333333","24.9913366666667","6500300","中和區"
"235033","4980-A6","2018/12/24 14:19:11","新北市中和區福美路301巷17號","121.497575","25.0041316666667","6500300","中和區"
"235034","558-UM","2018/12/24 14:19:20","新北市中和區中山路二段228-1號","121.49882","25.0027583333333","6500300","中和區"
"235009","565-BX","2018/12/24 14:19:14","新北市中和區景新街423巷33弄1號","121.513898333333","24.9897266666667","6500300","中和區"
"235018","640-BX","2018/12/24 14:19:21","新北市中和區國光街109巷20號","121.469591666667","24.9998816666667","6500300","中和區"
"235024","647-TV","2018/12/24 14:19:22","新北市中和區員山路437-3號","121.480755","25.0040116666667","6500300","中和區"
"235010","733-UM","2018/12/24 14:19:21","新北市中和區華新街115號","121.507341666667","24.9821583333333","6500300","中和區"
"235035","783-BX","2018/12/24 14:19:22","新北市中和區連城路336號","121.483088333333","24.9958333333333","6500300","中和區"
"235026","800-TS","2018/12/24 14:19:20","新北市中和區中山路二段472號","121.488296666667","25.0045933333333","6500300","中和區"
"235021","801-TS","2018/12/24 14:19:19","新北市中和區員山路423巷2弄1號","121.480626666667","25.00334","6500300","中和區"
"235005","802-TS","2018/12/24 14:19:14","新北市中和區宜安路137號","121.509483333333","24.9984583333333","6500300","中和區"
"235016","805-TS","2018/12/24 14:19:12","新北市中和區興南路二段142巷17弄33號","121.502988333333","24.98284","6500300","中和區"
"235012","896-TW","2018/12/24 14:19:13","新北市中和區華新街109巷1-3號","121.509113333333","24.9821933333333","6500300","中和區"
"235017","900-TW","2018/12/24 14:19:11","新北市中和區民德路244號","121.468045","24.9973816666667","6500300","中和區"
"235029","911-UM","2018/12/24 14:19:25","新北市中和區中山路二段64巷14弄20號","121.504061666667","25.005955","6500300","中和區"
"235015","157-BY","2018/12/24 14:19:17","新北市中和區和平街38巷8號","121.509296666667","24.9907733333333","6500300","中和區"
"235001","AAC-213","2018/12/24 14:19:17","新北市中和區秀朗路三段50巷12弄8號","121.524011666667","24.9954683333333","6500300","中和區"
"235023","AAC-215","2018/12/24 14:19:21","新北市中和區圓通路286巷16-5號","121.49161","24.9914333333333","6500300","中和區"
"220013","072-UY","2018/12/24 14:19:26","新北市板橋區民族路129巷10號","121.467593333333","25.008445","6500100","板橋區"
"220034","073-UY","2018/12/24 14:19:17","新北市板橋區中正路250巷91號","121.459428333333","25.0199916666667","6500100","板橋區"
"220105","075-UY","2018/12/24 14:19:20","新北市板橋區江寧路三段119號","121.473308333333","25.0332066666667","6500100","板橋區"
"220017","AAD-861","2018/12/24 14:19:23","新北市板橋區貴興路39號","121.457525","25.0037216666667","6500100","板橋區"
"247001","893-R6","2018/12/24 14:19:20","新北市蘆洲區永樂街83號","121.45589","25.0886883333333","6501400","蘆洲區"
"247015","546-UM","2018/12/24 14:19:24","新北市蘆洲區中正路185巷31弄45號","121.467291666667","25.08316","6501400","蘆洲區"
"247023","500-BY","2018/12/24 14:19:10","新北市蘆洲區長榮路655號","121.460118333333","25.0911933333333","6501400","蘆洲區"
"247009","336-TH","2018/12/24 14:19:16","新北市蘆洲區三民路26巷30號","121.477826666667","25.0829566666667","6501400","蘆洲區"
"247019","057-VK","2018/12/24 14:19:19","新北市蘆洲區仁愛街37號","121.472215","25.09289","6501400","蘆洲區"
"247013","053-VK","2018/12/24 14:19:21","新北市蘆洲區成功路69號","121.47286","25.08067","6501400","蘆洲區"
"247017","007-UY","2018/12/24 14:19:09","新北市蘆洲區民權路74號","121.474875","25.08737","6501400","蘆洲區"
"247003","002-UY","2018/12/24 14:19:13","新北市蘆洲區長安街174號","121.459115","25.083365","6501400","蘆洲區"
"247021","001-UY","2018/12/24 14:19:27","新北市蘆洲區民族路528-1號","121.46889","25.0897816666667","6501400","蘆洲區"
"253003","6232-TK","2018/12/24 14:19:27","新北市石門區尖子鹿31-1號","121.57939","25.2669133333333","6502200","石門區"
"253004","6251-TK","2018/12/24 14:19:28","新北市石門區內阿里磅47-1號","121.581808333333","25.240895","6502200","石門區"
"253002","637-UY","2018/12/24 14:19:23","新北市石門區楓林31號","121.54432","25.2854466666667","6502200","石門區"
"253001","KEC-0718","2018/12/24 14:19:12","新北市石門區八甲16號","121.525226666667","25.28046","6502200","石門區"
"207001","291-VK","2018/12/24 14:19:19","新北市萬里區溪底里瑞泉路3號","121.609206666667","25.1436483333333","6502800","萬里區"
"207001","662-BX","2018/12/24 14:19:29","新北市萬里區磺潭里清水18號","121.637883333333","25.197725","6502800","萬里區"
"252005","AAC-283","2018/12/24 14:19:22","新北市三芝區茂長里陳厝坑17-5號","121.51998","25.2564483333333","6502100","三芝區"
"236064","105-UM","2018/12/24 14:19:26","新北市土城區明德路一段143號","121.465136666667","24.98022","6501300","土城區"
"236040","KED-0685","2018/12/24 14:19:09","新北市土城區裕生路21巷6弄21號","121.448756666667","24.98687","6501300","土城區"
"236074","166-UM","2018/12/24 14:19:15","新北市土城區中央路三段235巷7號","121.429176666667","24.9637983333333","6501300","土城區"
"236029","253-BX","2018/12/24 14:19:17","新北市土城區順風路66號","121.440393333333","24.977585","6501300","土城區"
"236024","269-VK","2018/12/24 14:19:16","新北市土城區承天路20號","121.439561666667","24.9634366666667","6501300","土城區"
"236012","270-VK","2018/12/24 14:19:14","新北市土城區青雲路39巷7號","121.460311666667","24.9873633333333","6501300","土城區"
"236032","271-VK","2018/12/24 14:19:13","新北市土城區青雲路483巷9號","121.459413333333","24.973615","6501300","土城區"
"247007","KED-0683","2018/12/24 14:19:23","新北市蘆洲區民生街30號","121.474706666667","25.078905","6501400","蘆洲區"
"236016","401-BY","2018/12/24 14:19:24","新北市土城區金城路二段204號","121.454975","24.981905","6501300","土城區"
"236057","912-UM","2018/12/24 14:19:19","新北市土城區中央路四段440號","121.4107","24.9514833333333","6501300","土城區"
"236045","913-UM","2018/12/24 14:19:26","新北市土城區明德路一段369號","121.455608333333","24.9779033333333","6501300","土城區"
"236060","915-UM","2018/12/24 14:19:08","新北市土城區金城路三段202-3號","121.46931","24.9885183333333","6501300","土城區"
"236054","AAC-216","2018/12/24 14:19:30","新北市土城區中華路二段201號","121.437901666667","24.9738133333333","6501300","土城區"
"242006","346-TH","2018/12/24 14:19:26","新北市新莊區昌平街82巷15弄2號","121.455945","25.0536866666667","6500500","新莊區"
"221033","647-BX","2018/12/24 14:19:26","新北市汐止區民權街二段93號","121.618938333333","25.047575","6501100","汐止區"
"220027","145-BY","2018/12/24 14:19:26","新北市板橋區公館街27號","121.461091666667","25.015265","6500100","板橋區"
"220028","200-UY","2018/12/24 14:19:11","新北市板橋區大觀路二段17號","121.446943333333","25.00332","6500100","板橋區"
"220030","610-BX","2018/12/24 14:19:18","新北市板橋區滿平街84巷102號","121.426685","24.9866116666667","6500100","板橋區"
"220004","276-BY","2018/12/24 14:19:23","新北市板橋區信義路279巷11號","121.461878333333","24.9894516666667","6500100","板橋區"
"220020","277-BY","2018/12/24 14:19:23","新北市板橋區金門街337巷7弄23號","121.430583333333","24.9852366666667","6500100","板橋區"
"220050","280-UM","2018/12/24 14:19:27","新北市板橋區縣民大道三段127巷23號","121.47682","25.023765","6500100","板橋區"
"220019","283-VK","2018/12/24 14:19:22","新北市板橋區大豐街20號","121.46218","25.0014533333333","6500100","板橋區"
"220043","285-UM","2018/12/24 14:19:18","新北市板橋區吳鳳路50巷73號","121.469733333333","25.0303616666667","6500100","板橋區"
"220001","285-VK","2018/12/24 14:19:22","新北市板橋區縣民大道三段262-4號","121.478281666667","25.0228533333333","6500100","板橋區"
"220031","286-VK","2018/12/24 14:19:25","新北市板橋區龍興街95巷6號","121.443813333333","25.0025","6500100","板橋區"
"220029","287-VK","2018/12/24 14:19:15","新北市板橋區南雅西路一段37號","121.453835","25.0046416666667","6500100","板橋區"
"220009","293-UM","2018/12/24 14:19:27","新北市板橋區中山路二段157號","121.47559","25.0167466666667","6500100","板橋區"
"220032","296-UM","2018/12/24 14:19:21","新北市板橋區滿平街136巷10弄2號","121.427655","24.9870983333333","6500100","板橋區"
"220023","303-R5","2018/12/24 14:19:23","新北市板橋區南雅南路一段3巷54號","121.456556666667","25.0057716666667","6500100","板橋區"
"220010","305-R5","2018/12/24 14:19:18","新北市板橋區三民路二段153巷8弄2號","121.480996666667","25.0148283333333","6500100","板橋區"
"220041","307-R5","2018/12/24 14:19:20","新北市板橋區松江街5號","121.469088333333","25.0261533333333","6500100","板橋區"
"220047","317-R6","2018/12/24 14:19:14","新北市板橋區自由路51巷8號","121.465085","25.0235033333333","6500100","板橋區"
"220037","491-VK","2018/12/24 14:19:18","新北市板橋區文化路二段182巷3弄54號","121.472901666667","25.02888","6500100","板橋區"
"220104","560-BX","2018/12/24 14:19:28","新北市板橋區中正路433巷23號","121.453411666667","25.02362","6500100","板橋區"
"220052","561-BX","2018/12/24 14:19:17","新北市板橋區文化路一段286巷2弄4-2號","121.468431666667","25.0211733333333","6500100","板橋區"
"220011","609-BX","2018/12/24 14:19:24","新北市板橋區三民路二段202-28號","121.47895","25.01258","6500100","板橋區"
"220003","630-UY","2018/12/24 14:19:22","新北市板橋區新民街4巷1號","121.46434","25.0101783333333","6500100","板橋區"
"220040","637-BX","2018/12/24 14:19:28","新北市板橋區縣民大道247巷33號","121.481983333333","25.0266333333333","6500100","板橋區"
"220005","686-BX","2018/12/24 14:19:16","新北市板橋區五權街1-9號","121.463645","24.9951366666667","6500100","板橋區"
"220025","687-BX","2018/12/24 14:19:27","新北市板橋區龍興街36號","121.443128333333","25.00058","6500100","板橋區"
"220042","689-BX","2018/12/24 14:19:08","新北市板橋區雨農路50號","121.461003333333","25.0244033333333","6500100","板橋區"
"220002","741-BX","2018/12/24 14:19:25","新北市板橋區光明街142號","121.463766666667","25.0031","6500100","板橋區"
"220051","KEA-2699","2018/12/24 14:19:26","新北市板橋區松柏街22巷36號","121.475085","25.0289233333333","6500100","板橋區"
"220014","829-TW","2018/12/24 14:19:13","新北市板橋區長安街138巷1弄46號","121.473766666667","25.00997","6500100","板橋區"
"220016","830-TW","2018/12/24 14:19:14","新北市板橋區林森街1巷30號","121.482768333333","25.02429","6500100","板橋區"
"220039","831-TW","2018/12/24 14:19:13","新北市板橋區裕民街94巷3弄1號","121.459975","25.0284566666667","6500100","板橋區"
"220038","833-TW","2018/12/24 14:19:23","新北市板橋區英士路151號","121.45996","25.024145","6500100","板橋區"
"220022","895-R6","2018/12/24 14:19:25","新北市板橋區民權路182號","121.45941","25.013375","6500100","板橋區"
"220021","985-R7","2018/12/24 14:19:17","新北市板橋區中正路233號","121.45596","25.0179416666667","6500100","板橋區"
"220046","AAC-210","2018/12/24 14:19:23","新北市板橋區幸福路32巷2弄11號","121.461513333333","25.021025","6500100","板橋區"
"220012","AAC-253","2018/12/24 14:19:23","新北市板橋區中山路一段85號","121.461516666667","25.0100566666667","6500100","板橋區"
"235032","KEA-2873","2018/12/24 14:19:19","新北市中和區中和路143號","121.502253333333","24.9998366666667","6500300","中和區"
"235025","KEA-2875","2018/12/24 14:19:17","新北市中和區連城路547號","121.480173333333","24.9948333333333","6500300","中和區"
"235011","KEA-2876","2018/12/24 14:19:06","新北市中和區和平街54巷1弄1號","121.5087","24.99097","6500300","中和區"
