"lineid","car","time","location","longitude","latitude","cityid","cityname"
"248008","095-VK","2018/12/24 15:21:44","新北市五股區中興路二段83巷26-6號","121.46014","25.0750916666667","6501500","五股區"
"231028","046-UY","2018/12/24 15:39:21","新北市新店區僑義路28號","121.500568333333","24.94995","6500600","新店區"
"231005","106-UY","2018/12/24 15:39:20","新北市新店區中正路373號","121.534848333333","24.9764883333333","6500600","新店區"
"231019","108-UY","2018/12/24 15:39:27","新北市新店區金興路28-2號","121.551335","24.9306383333333","6500600","新店區"
"231011","187-VK","2018/12/24 15:39:21","新北市新店區寶元路一段109號","121.545695","24.9831133333333","6500600","新店區"
"231023","KEA-2219","2018/12/24 15:39:15","新北市新店區五峰路42號","121.544561666667","24.9688866666667","6500600","新店區"
"231026","256-BX","2018/12/24 15:39:16","新北市新店區三民路75巷3弄1號","121.535833333333","24.9710733333333","6500600","新店區"
"231036","260-TV","2018/12/24 15:39:25","新北市新店區安祥路69巷41弄70號","121.48243","24.9615633333333","6500600","新店區"
"231003","268-BY","2018/12/24 15:39:30","新北市新店區寶高路102巷20號","121.552436666667","24.9739633333333","6500600","新店區"
"231018","278-BY","2018/12/24 15:39:10","新北市新店區中正路663巷7弄15-5號","121.533153333333","24.9902583333333","6500600","新店區"
"231014","AAD-862","2018/12/24 15:39:17","新北市新店區北宜路一段182號","121.540863333333","24.9529466666667","6500600","新店區"
"231038","3712-VJ","2018/12/24 15:39:18","新北市新店區安康路二段16巷10號","121.516306666667","24.9643566666667","6500600","新店區"
"231037","4716-K9","2018/12/24 15:39:28","新北市新店區安興路105-1號","121.514628333333","24.9776916666667","6500600","新店區"
"231013","513-UM","2018/12/24 15:39:28","新北市新店區永業路81巷5弄12號","121.530606666667","24.9492633333333","6500600","新店區"
"231030","619-UM","2018/12/24 15:39:25","新北市新店區新和街120號","121.521236666667","24.9865616666667","6500600","新店區"
"231034","641-BX","2018/12/24 15:39:18","新北市新店區如意街73號","121.494228333333","24.9471716666667","6500600","新店區"
"231039","718-UY","2018/12/24 15:39:18","新北市新店區中興路三段228巷28號","121.544756666667","24.9834966666667","6500600","新店區"
"231035","719-UM","2018/12/24 15:39:16","新北市新店區安興路69-1號","121.515728333333","24.9753","6500600","新店區"
"231031","720-UM","2018/12/24 15:39:14","新北市新店區雙城路164號","121.497085","24.94202","6500600","新店區"
"231029","897-TW","2018/12/24 15:39:25","新北市新店區安康路三段47號","121.492716666667","24.952615","6500600","新店區"
"231004","899-TW","2018/12/24 15:39:17","新北市新店區民族路108號","121.538211666667","24.9773383333333","6500600","新店區"
"241011","013-R5","2018/12/24 15:39:17","新北市三重區文化北路248號","121.497376666667","25.0699316666667","6500200","三重區"
"241022","060-VK","2018/12/24 15:39:15","新北市三重區重新路四段121號","121.485296666667","25.0519933333333","6500200","三重區"
"241015","062-VK","2018/12/24 15:39:18","新北市三重區重新路四段121號","121.485133333333","25.0521166666667","6500200","三重區"
"241017","063-VK","2018/12/24 15:39:13","新北市三重區大仁街1號","121.49164","25.063585","6500200","三重區"
"241003","091-VK","2018/12/24 15:39:21","新北市三重區成功路112-4號","121.485886666667","25.0520233333333","6500200","三重區"
"241018","268-UM","2018/12/24 15:39:16","新北市三重區重新路四段121號","121.48478","25.0520633333333","6500200","三重區"
"241013","270-UM","2018/12/24 15:39:22","新北市三重區正義北路291號","121.4949","25.07064","6500200","三重區"
"241025","271-UM","2018/12/24 15:39:27","新北市三重區重新路四段121號","121.484765","25.052475","6500200","三重區"
"241007","398-BY","2018/12/24 15:39:29","新北市三重區重新路四段121號","121.484971666667","25.0518933333333","6500200","三重區"
"241006","462-BY","2018/12/24 15:39:18","新北市三重區重新路四段121號","121.484886666667","25.0519716666667","6500200","三重區"
"241020","478-VK","2018/12/24 15:39:25","新北市三重區新北大道一段250號","121.479863333333","25.06141","6500200","三重區"
"241033","557-UM","2018/12/24 15:39:20","新北市三重區重新路五段406-2號","121.476438333333","25.0475383333333","6500200","三重區"
"241023","887-TS","2018/12/24 15:39:18","新北市三重區重新路四段121號","121.484783333333","25.0523416666667","6500200","三重區"
"241012","941-UM","2018/12/24 15:39:26","新北市三重區自強路一段64號","121.497185","25.0666566666667","6500200","三重區"
"241029","942-UM","2018/12/24 15:39:14","新北市三重區環河南路220-8號","121.49336","25.0526766666667","6500200","三重區"
"247011","KEA-2869","2018/12/24 15:39:24","新北市八里區中華路三段7巷5號","121.397855","25.1434366666667","6501400","蘆洲區"
"235033","4980-A6","2018/12/24 15:39:11","新北市中和區員山路381巷1弄2號","121.480885","25.0023516666667","6500300","中和區"
"235026","800-TS","2018/12/24 15:39:20","新北市中和區橋和路170號","121.494493333333","25.0063333333333","6500300","中和區"
"235023","AAC-215","2018/12/24 15:39:21","新北市中和區員山路31-6號","121.480115","24.988005","6500300","中和區"
"236064","105-UM","2018/12/24 15:39:26","新北市土城區中央路三段38號","121.43837","24.96882","6501300","土城區"
"236074","166-UM","2018/12/24 15:39:15","新北市土城區福安街112號","121.417101666667","24.9638666666667","6501300","土城區"
"236029","253-BX","2018/12/24 15:39:25","新北市土城區中央路一段45巷2弄23號","121.448241666667","24.9896783333333","6501300","土城區"
"236024","269-VK","2018/12/24 15:39:16","新北市土城區明德路二段203號","121.446658333333","24.9837466666667","6501300","土城區"
"236012","270-VK","2018/12/24 15:39:14","新北市土城區廣明街90巷18號","121.455413333333","24.9944683333333","6501300","土城區"
"236016","401-BY","2018/12/24 15:39:24","新北市土城區延吉街113號","121.471263333333","24.9866533333333","6501300","土城區"
"236054","752-BX","2018/12/24 15:39:21","新北市土城區金城路三段191-1號","121.46996","24.9889783333333","6501300","土城區"
"236057","912-UM","2018/12/24 15:39:19","新北市土城區中央路一段269-3號","121.444906666667","24.9851666666667","6501300","土城區"
"236045","913-UM","2018/12/24 15:39:26","新北市土城區金城路三段260號","121.473906666667","24.99075","6501300","土城區"
"236060","915-UM","2018/12/24 15:39:28","新北市土城區延和路18巷8號","121.464441666667","24.9880483333333","6501300","土城區"
"238002","755-BX","2018/12/24 15:39:26","新北市樹林區長壽街19巷2號","121.421736666667","24.9941433333333","6500700","樹林區"
"238010","601-UM","2018/12/24 15:39:25","新北市樹林區龍興街13巷3號","121.403303333333","25.01651","6500700","樹林區"
"238006","599-UM","2018/12/24 15:39:28","新北市樹林區太平路263號","121.41865","24.974225","6500700","樹林區"
"238005","571-TV","2018/12/24 15:39:15","新北市樹林區中華路221號","121.41903","24.9810716666667","6500700","樹林區"
"238011","5061-A6","2018/12/24 15:39:23","新北市樹林區中山路三段125號","121.399068333333","24.9743483333333","6500700","樹林區"
"238009","KEA-2213","2018/12/24 15:39:29","新北市樹林區中華路187巷1號","121.420565","24.981495","6500700","樹林區"
"238008","KEA-2539","2018/12/24 15:39:21","新北市樹林區柑園街二段9號","121.388151666667","24.9557783333333","6500700","樹林區"
"238012","303-VK","2018/12/24 15:39:24","新北市樹林區中山路一段112號","121.422903333333","24.9905983333333","6500700","樹林區"
"238004","283-BY","2018/12/24 15:39:20","新北市樹林區保安街二段215號","121.413288333333","25.0040666666667","6500700","樹林區"
"238001","282-BY","2018/12/24 15:39:23","新北市樹林區潭興街107巷18號","121.42469","24.999385","6500700","樹林區"
"238007","268-VK","2018/12/24 15:39:17","新北市樹林區俊英街166巷10號","121.427066666667","25.007175","6500700","樹林區"
"238013","172-UY","2018/12/24 15:39:15","新北市樹林區中洲街30巷13弄45號","121.398258333333","24.9725866666667","6500700","樹林區"
"238003","169-UY","2018/12/24 15:38:50","新北市樹林區育英街63號","121.420645","24.9891733333333","6500700","樹林區"
"220029","287-VK","2018/12/24 15:39:10","新北市樹林區環河路600-2號","121.403446666667","24.9693216666667","6500100","板橋區"
"220012","AAC-253","2018/12/24 15:39:22","新北市板橋區館前東路1號","121.459528333333","25.007275","6500100","板橋區"
