"lineid","car","time","location","longitude","latitude","cityid","cityname"
"231046","107-UY","2018/12/24 16:19:30","新北市新店區灣潭路3-3號","121.538238333333","24.950775","6500600","新店區"
"231018","278-BY","2018/12/24 16:19:30","新北市新店區中正路700巷82號","121.535955","24.99328","6500600","新店區"
"241011","013-R5","2018/12/24 16:19:17","新北市三重區龍門路51號","121.496276666667","25.0723233333333","6500200","三重區"
"241028","022-UY","2018/12/24 16:19:23","新北市三重區同安東街69號","121.498678333333","25.0573283333333","6500200","三重區"
"241008","059-VK","2018/12/24 16:19:18","新北市三重區永福街72巷15號","121.479568333333","25.0767283333333","6500200","三重區"
"241022","060-VK","2018/12/24 16:19:15","新北市三重區新北大道一段11號","121.488683333333","25.0606166666667","6500200","三重區"
"241031","061-VK","2018/12/24 16:19:18","新北市三重區捷運路2號","121.485973333333","25.0561766666667","6500200","三重區"
"241015","062-VK","2018/12/24 16:19:18","新北市三重區福德北路79號","121.50194","25.06584","6500200","三重區"
"241017","063-VK","2018/12/24 16:19:13","新北市三重區大仁街23號","121.492028333333","25.06465","6500200","三重區"
"241024","065-VK","2018/12/24 16:19:33","新北市三重區中正北路145巷14號","121.484101666667","25.0678033333333","6500200","三重區"
"241002","090-VK","2018/12/24 16:19:26","新北市三重區仁義街91號","121.49976","25.079515","6500200","三重區"
"241003","091-VK","2018/12/24 16:19:21","新北市三重區五華街57巷18號","121.49353","25.08282","6500200","三重區"
"241005","262-UM","2018/12/24 16:19:19","新北市三重區溪尾街300-2號","121.487416666667","25.0836666666667","6500200","三重區"
"241016","266-UM","2018/12/24 16:19:14","新北市三重區大仁街86號","121.492828333333","25.0654916666667","6500200","三重區"
"241009","267-UM","2018/12/24 16:19:28","新北市三重區溪尾街196巷192-1號","121.488046666667","25.0808666666667","6500200","三重區"
"241018","268-UM","2018/12/24 16:19:16","新北市三重區重陽路三段43號","121.489451666667","25.0670383333333","6500200","三重區"
"241032","269-UM","2018/12/24 16:19:26","新北市三重區三陽路100巷3弄13號","121.482928333333","25.0580383333333","6500200","三重區"
"241013","270-UM","2018/12/24 16:19:26","新北市三重區龍門路46號","121.496301666667","25.0726416666667","6500200","三重區"
"241025","271-UM","2018/12/24 16:19:27","新北市三重區中正北路560巷100弄2號","121.472628333333","25.068235","6500200","三重區"
"241007","398-BY","2018/12/24 16:19:29","新北市三重區三和路四段163巷97號","121.486708333333","25.07959","6500200","三重區"
"241006","462-BY","2018/12/24 16:19:18","新北市三重區永福街46巷41弄47號","121.481218333333","25.0770883333333","6500200","三重區"
"241004","475-VK","2018/12/24 16:19:23","新北市三重區五華街74號","121.493431666667","25.0819416666667","6500200","三重區"
"241020","478-VK","2018/12/24 16:19:25","新北市三重區後竹圍街250號","121.484343333333","25.0712883333333","6500200","三重區"
"241014","543-UM","2018/12/24 16:19:16","新北市三重區河邊北街96-1號","121.504093333333","25.0699216666667","6500200","三重區"
"241001","547-UM","2018/12/24 16:19:10","新北市三重區自強路四段87號","121.491055","25.0792983333333","6500200","三重區"
"241033","557-UM","2018/12/24 16:19:20","新北市三重區重新路五段326巷6號","121.478098333333","25.047845","6500200","三重區"
"241019","KEA-2593","2018/12/24 16:19:24","新北市三重區三和路四段111-4號","121.485958333333","25.077335","6500200","三重區"
"241026","743-BX","2018/12/24 16:19:33","新北市三重區正義南路105巷23號","121.497445","25.0589633333333","6500200","三重區"
"241023","887-TS","2018/12/24 16:19:18","新北市三重區中正北路145巷4弄5號","121.483276666667","25.0677383333333","6500200","三重區"
"241012","941-UM","2018/12/24 16:19:26","新北市三重區河邊北街311號","121.502465","25.0747966666667","6500200","三重區"
"241029","942-UM","2018/12/24 16:19:14","新北市三重區環河南路220-8號","121.493345","25.0526516666667","6500200","三重區"
"247011","KEA-2869","2018/12/24 16:19:25","新北市五股區中興路三段163號","121.449138333333","25.0806916666667","6501400","蘆洲區"
"235026","800-TS","2018/12/24 16:19:20","新北市中和區建八路130號","121.489005","24.99844","6500300","中和區"
"235065","911-UM","2018/12/24 16:19:25","新北市中和區員山路36巷16-2號","121.485241666667","24.9917316666667","6500300","中和區"
"247022","001-UY","2018/12/24 15:50:30","新北市五股區中興路三段163號","121.449078333333","25.0807883333333","6501400","蘆洲區"
"224007","275-VK","2018/12/24 16:19:14","新北市瑞芳區大埔路128號","121.761983333333","25.100985","6501200","瑞芳區"
"224005","271-BY","2018/12/24 16:19:15","新北市瑞芳區中山路238號","121.800033333333","25.107085","6501200","瑞芳區"
"227001","642-TC","2018/12/24 16:19:14","新北市雙溪區上林里內平林81號","121.82826","25.0279216666667","6502500","雙溪區"
"227008","400-TW","2018/12/24 16:19:11","新北市雙溪區三港里雙澳路80號","121.883801666667","25.0538633333333","6502500","雙溪區"
"251008","181-VK","2018/12/24 16:16:42","新北市淡水區中正東路36-1號","121.448861666667","25.1657533333333","6501000","淡水區"
"247008","KED-0683","2018/12/24 16:13:04","新北市五股區中興路三段163號","121.449381666667","25.08071","6501400","蘆洲區"
"236057","912-UM","2018/12/24 16:19:19","新北市土城區永平街51號","121.427571666667","24.9591433333333","6501300","土城區"
"238006","599-UM","2018/12/24 16:19:25","新北市樹林區東榮街147巷6號","121.414515","24.980725","6500700","樹林區"
"238025","303-VK","2018/12/24 16:13:04","新北市樹林區中正路22-1號","121.427876666667","24.9993516666667","6500700","樹林區"
"238004","283-BY","2018/12/24 16:19:17","新北市樹林區中正路433-1號","121.414981666667","25.0081183333333","6500700","樹林區"
"238001","282-BY","2018/12/24 16:19:23","","121.4272","24.9988083333333","6500700","樹林區"
"238007","268-VK","2018/12/24 16:19:17","新北市樹林區三龍街94巷19號","121.414435","25.0178433333333","6500700","樹林區"
"220012","AAC-253","2018/12/24 16:19:22","新北市土城區城林路6巷51號","121.436826666667","24.9774983333333","6500100","板橋區"
