"lineid","car","time","location","longitude","latitude","cityid","cityname"
"231046","107-UY","2018/12/24 16:29:30","新北市新店區灣潭路3-2號","121.538266666667","24.9508133333333","6500600","新店區"
"241011","013-R5","2018/12/24 16:29:17","新北市三重區秀江街69號","121.500645","25.072695","6500200","三重區"
"241028","022-UY","2018/12/24 16:29:24","新北市三重區同安街90號","121.495045","25.0565116666667","6500200","三重區"
"241008","059-VK","2018/12/24 16:29:18","新北市三重區力行路二段136巷45弄12號","121.47908","25.0753583333333","6500200","三重區"
"241022","060-VK","2018/12/24 16:29:15","新北市三重區重陽路二段18巷6號","121.486455","25.062105","6500200","三重區"
"241031","061-VK","2018/12/24 16:29:18","新北市三重區重陽路一段45號","121.486736666667","25.0581766666667","6500200","三重區"
"241015","062-VK","2018/12/24 16:29:18","新北市三重區福德北路34號","121.5021","25.0652183333333","6500200","三重區"
"241017","063-VK","2018/12/24 16:29:13","新北市三重區大同北路91號","121.494781666667","25.06361","6500200","三重區"
"241024","065-VK","2018/12/24 16:29:13","新北市三重區中正北路145巷14號","121.484111666667","25.0677933333333","6500200","三重區"
"241002","090-VK","2018/12/24 16:29:26","新北市三重區五華街10號","121.495001666667","25.080145","6500200","三重區"
"241003","091-VK","2018/12/24 16:29:21","新北市三重區五華街71巷97號","121.494551666667","25.084015","6500200","三重區"
"241005","262-UM","2018/12/24 16:29:19","新北市三重區溪尾街300-2號","121.487448333333","25.08368","6500200","三重區"
"241016","266-UM","2018/12/24 16:29:14","新北市三重區自強路一段200巷18號","121.494171666667","25.0659316666667","6500200","三重區"
"241009","267-UM","2018/12/24 16:29:28","新北市三重區三和路四段191巷78號","121.48461","25.079825","6500200","三重區"
"241018","268-UM","2018/12/24 16:29:16","新北市三重區正義北路364巷54號","121.49266","25.07079","6500200","三重區"
"241032","269-UM","2018/12/24 16:29:26","新北市三重區三陽路100巷3弄13號","121.48297","25.05803","6500200","三重區"
"241013","270-UM","2018/12/24 16:29:22","新北市三重區仁愛街50號","121.496006666667","25.0727966666667","6500200","三重區"
"241025","271-UM","2018/12/24 16:29:27","新北市三重區中正北路560巷100弄17號","121.472643333333","25.0686933333333","6500200","三重區"
"241007","398-BY","2018/12/24 16:29:29","新北市三重區三和路四段167巷141號","121.48798","25.0802533333333","6500200","三重區"
"241006","462-BY","2018/12/24 16:29:18","新北市三重區永福街20號","121.482551666667","25.0780366666667","6500200","三重區"
"241004","475-VK","2018/12/24 16:29:23","新北市三重區仁愛街377巷15號","121.49232","25.080775","6500200","三重區"
"241020","478-VK","2018/12/24 16:29:25","新北市三重區車路頭街53號","121.484008333333","25.0724766666667","6500200","三重區"
"241030","480-VK","2018/12/24 16:29:15","新北市三重區成功路98號","121.487741666667","25.05138","6500200","三重區"
"241014","543-UM","2018/12/24 16:29:16","新北市三重區河邊北街70-3號","121.504258333333","25.068415","6500200","三重區"
"241001","547-UM","2018/12/24 16:29:10","新北市三重區福隆路93號","121.492228333333","25.07824","6500200","三重區"
"241033","557-UM","2018/12/24 16:29:20","新北市三重區重新路五段416號","121.475635","25.0476933333333","6500200","三重區"
"241019","KEA-2593","2018/12/24 16:29:24","新北市三重區重陽路三段154號","121.48974","25.067615","6500200","三重區"
"241026","743-BX","2018/12/24 16:29:13","新北市三重區文化南路42號","121.500465","25.0601783333333","6500200","三重區"
"241023","887-TS","2018/12/24 16:29:18","新北市三重區力行路一段38巷10號","121.484985","25.0662483333333","6500200","三重區"
"241012","941-UM","2018/12/24 16:29:26","新北市三重區河邊北街272號","121.501566666667","25.0766066666667","6500200","三重區"
"241029","942-UM","2018/12/24 16:29:14","新北市三重區集美街126巷25號","121.49002","25.05372","6500200","三重區"
"247011","KEA-2869","2018/12/24 16:20:11","新北市五股區中興路三段163號","121.449133333333","25.08069","6501400","蘆洲區"
"235054","640-BX","2018/12/24 16:23:12","新北市中和區員山路36巷16-3號","121.484995","24.99182","6500300","中和區"
"235026","800-TS","2018/12/24 16:29:20","新北市中和區連城路222巷6弄2號","121.49083","24.9976366666667","6500300","中和區"
"235065","911-UM","2018/12/24 16:29:25","新北市中和區員山路36巷16-2號","121.48523","24.99173","6500300","中和區"
"224007","275-VK","2018/12/24 16:29:29","新北市瑞芳區大埔路108-3號","121.762445","25.10223","6501200","瑞芳區"
"224005","271-BY","2018/12/24 16:29:15","新北市瑞芳區阿美家園42號","121.821338333333","25.1169416666667","6501200","瑞芳區"
"227001","642-TC","2018/12/24 16:29:23","新北市雙溪區上林里內平林112號","121.825698333333","25.0267766666667","6502500","雙溪區"
"227008","400-TW","2018/12/24 16:29:31","新北市雙溪區三港里雙澳路37-5號","121.87276","25.050165","6502500","雙溪區"
"251013","KEA-2871","2018/12/24 16:29:17","新北市淡水區北新路三段162號","121.492355","25.1914916666667","6501000","淡水區"
"251016","179-VK","2018/12/24 16:29:11","新北市淡水區中正路二段18號","121.41968","25.181205","6501000","淡水區"
"251008","181-VK","2018/12/24 16:29:12","新北市淡水區民生路12號","121.460883333333","25.1378566666667","6501000","淡水區"
"252003","249-BX","2018/12/24 16:27:42","新北市三芝區埔坪里埔頭坑41號","121.504571666667","25.2645816666667","6502100","三芝區"
"252001","292-VK","2018/12/24 16:29:21","新北市三芝區埔坪里埔頭坑41號","121.504676666667","25.2644833333333","6502100","三芝區"
"247008","KED-0683","2018/12/24 16:29:28","新北市五股區中興路三段163號","121.449315","25.080635","6501400","蘆洲區"
"236057","912-UM","2018/12/24 16:29:19","新北市土城區永平街72號","121.427345","24.9590633333333","6501300","土城區"
"238006","599-UM","2018/12/24 16:29:25","新北市樹林區東華街73號","121.415683333333","24.980905","6500700","樹林區"
"238025","303-VK","2018/12/24 16:13:04","新北市樹林區中正路22-1號","121.427876666667","24.9993516666667","6500700","樹林區"
"238004","283-BY","2018/12/24 16:29:17","新北市樹林區中正路433-1號","121.414921666667","25.0081233333333","6500700","樹林區"
"238001","282-BY","2018/12/24 16:29:23","新北市樹林區中正路22-1號","121.427706666667","24.999555","6500700","樹林區"
"238007","268-VK","2018/12/24 16:29:17","新北市樹林區中正路464號","121.412916666667","25.0127633333333","6500700","樹林區"
"220012","AAC-253","2018/12/24 16:29:22","新北市板橋區華東街1-10號","121.448375","24.9949383333333","6500100","板橋區"
