"lineid","car","time","location","longitude","latitude","cityid","cityname"
"234042","862-TW","2018/12/24 17:49:27","新北市永和區福和路1號","121.526156666667","25.0098133333333","6500400","永和區"
"234050","863-TW","2018/12/24 17:47:31","新北市永和區福和路1號","121.526281666667","25.0099916666667","6500400","永和區"
"234026","9371-KE","2018/12/24 17:49:24","新北市永和區中山路一段101號","121.511146666667","25.0104066666667","6500400","永和區"
"249005","172-UM","2018/12/24 17:49:18","新北市八里區荖阡坑路34-1號","121.402668333333","25.1300633333333","6502300","八里區"
"249001","173-UM","2018/12/24 17:49:20","新北市八里區龍米路二段129巷1號","121.445853333333","25.1467816666667","6502300","八里區"
"249004","303-UY","2018/12/24 17:49:21","新北市八里區中華路一段81巷22號","121.419558333333","25.1555216666667","6502300","八里區"
"249002","305-UY","2018/12/24 17:49:28","新北市八里區龍形一街19巷2號","121.449866666667","25.130435","6502300","八里區"
"249003","593-UM","2018/12/24 17:49:26","新北市八里區中山路二段77號","121.40623","25.1530116666667","6502300","八里區"
"248002","678-BX","2018/12/24 17:49:25","新北市五股區中興路二段83巷26-6號","121.45981","25.0749066666667","6501500","五股區"
"232011","375-UM","2018/12/24 17:49:17","新北市坪林區北宜路八段238號","121.709013333333","24.9349066666667","6502000","坪林區"
"244007","080-UY","2018/12/24 17:49:24","新北市林口區林口路178號","121.38767","25.0827116666667","6501700","林口區"
"244019","402-UM","2018/12/24 17:49:30","新北市林口區麗園路97號","121.372285","25.0682783333333","6501700","林口區"
"244013","KEA-2802","2018/12/24 17:49:24","新北市林口區中山路206號","121.387011666667","25.0791983333333","6501700","林口區"
"244023","483-VK","2018/12/24 17:49:29","新北市林口區東湖一街7號","121.387088333333","25.073035","6501700","林口區"
"244017","485-VK","2018/12/24 17:49:15","新北市林口區文化二路一段230巷1-2號","121.370136666667","25.0724016666667","6501700","林口區"
"244009","656-BX","2018/12/24 17:49:30","新北市林口區林口路303號","121.385556666667","25.0850733333333","6501700","林口區"
"244011","701-TV","2018/12/24 17:49:28","新北市林口區竹林路1-7號","121.386353333333","25.0767583333333","6501700","林口區"
"244025","837-TS","2018/12/24 17:49:24","新北市林口區忠孝三路73號","121.359905","25.0697983333333","6501700","林口區"
"244021","838-TS","2018/12/24 17:49:27","新北市林口區仁愛路一段83巷38號","121.397683333333","25.0706216666667","6501700","林口區"
"222002","659-BX","2018/12/24 17:49:28","新北市深坑區平埔街22巷17弄1號","121.614891666667","25.00088","6501800","深坑區"
"231046","107-UY","2018/12/24 17:49:30","新北市新店區康雅崙路70號","121.533515","24.9269083333333","6500600","新店區"
"221035","KEA-2785","2018/12/24 17:49:14","新北市汐止區汐萬路一段204號","121.652096666667","25.0721316666667","6501100","汐止區"
"231055","AKT-0513","2018/12/24 17:49:19","新北市新店區安華路1-1號","121.519483333333","24.9602833333333","6500600","新店區"
"251014","742-BX","2018/12/24 17:44:32","新北市淡水區公埔子16-6號","121.481011666667","25.2245466666667","6501000","淡水區"
"241005","262-UM","2018/12/24 17:49:19","新北市三重區碧華街29號","121.484218333333","25.0811616666667","6500200","三重區"
"241016","266-UM","2018/12/24 17:49:14","新北市三重區新北大道一段7號","121.489438333333","25.0616183333333","6500200","三重區"
"241024","KEA-2210","2018/12/24 17:49:14","新北市三重區國道路一段51號","121.482208333333","25.0728633333333","6500200","三重區"
"241033","557-UM","2018/12/24 17:46:40","新北市三重區重新路五段509-4號","121.472013333333","25.0466183333333","6500200","三重區"
"241019","KEA-2593","2018/12/24 17:49:24","新北市三重區自強路二段24號","121.489428333333","25.0691866666667","6500200","三重區"
"241012","941-UM","2018/12/24 17:49:26","新北市三重區河邊北街375號","121.501803333333","25.076315","6500200","三重區"
"235064","005-UY","2018/12/24 17:49:32","新北市中和區員山路36巷16-3號","121.485033333333","24.9911883333333","6500300","中和區"
"247012","KEA-2869","2018/12/24 17:49:27","新北市蘆洲區復興路60巷1弄3號","121.474828333333","25.0861333333333","6501400","蘆洲區"
"247006","KED-0682","2018/12/24 17:49:32","新北市蘆洲區九芎街90巷6號","121.465763333333","25.080145","6501400","蘆洲區"
"235070","558-UM","2018/12/24 17:49:22","新北市中和區員山路36巷16-2號","121.485205","24.991575","6500300","中和區"
"235054","640-BX","2018/12/24 17:49:24","新北市中和區員山路36巷16-3號","121.48493","24.9918083333333","6500300","中和區"
"235071","783-BX","2018/12/24 17:49:24","新北市中和區員山路36巷16-2號","121.485253333333","24.991185","6500300","中和區"
"235057","801-TS","2018/12/24 17:49:14","新北市中和區員山路36巷16-2號","121.485211666667","24.9913833333333","6500300","中和區"
"235065","911-UM","2018/12/24 17:49:27","新北市中和區連城路469巷1號","121.4837","24.9958416666667","6500300","中和區"
"247002","893-R6","2018/12/24 17:49:33","新北市蘆洲區永平街32巷33弄12號","121.458926666667","25.09225","6501400","蘆洲區"
"247024","500-BY","2018/12/24 17:49:14","新北市蘆洲區長樂路118號","121.46192","25.089865","6501400","蘆洲區"
"247010","336-TH","2018/12/24 17:49:27","新北市蘆洲區民族路33巷2號","121.478031666667","25.0851933333333","6501400","蘆洲區"
"247020","057-VK","2018/12/24 17:49:26","新北市蘆洲區民義街71巷6號","121.472938333333","25.0903666666667","6501400","蘆洲區"
"247014","053-VK","2018/12/24 17:49:30","新北市蘆洲區保和街50-9號","121.470095","25.0864233333333","6501400","蘆洲區"
"247018","007-UY","2018/12/24 17:49:26","新北市蘆洲區復興路231號","121.480018333333","25.0899216666667","6501400","蘆洲區"
"247004","002-UY","2018/12/24 17:49:14","新北市蘆洲區長安街194巷17號","121.459793333333","25.08452","6501400","蘆洲區"
"247022","001-UY","2018/12/24 17:49:30","新北市蘆洲區中正路491號","121.461945","25.0962866666667","6501400","蘆洲區"
"228003","097-TW","2018/12/24 17:49:25","新北市貢寮區真理里延平街72號","121.925043333333","25.0577833333333","6502600","貢寮區"
"228002","585-TW","2018/12/24 17:49:23","新北市貢寮區福隆里外隆林街16號","121.958413333333","25.0042866666667","6502600","貢寮區"
"228001","670-TC","2018/12/24 17:49:13","新北市貢寮區仁理村仁愛路95-1號","121.927693333333","25.0554433333333","6502600","貢寮區"
"224006","676-BX","2018/12/24 17:49:18","新北市瑞芳區傑魚坑路183號","121.788483333333","25.10826","6501200","瑞芳區"
"224008","285-BY","2018/12/24 17:49:26","新北市瑞芳區明燈路一段206號","121.818595","25.10891","6501200","瑞芳區"
"224009","273-VK","2018/12/24 17:49:18","新北市瑞芳區新山路175號","121.851808333333","25.1090083333333","6501200","瑞芳區"
"224005","271-BY","2018/12/24 17:49:15","新北市瑞芳區海濱路29-9號","121.83082","25.1243283333333","6501200","瑞芳區"
"227001","642-TC","2018/12/24 17:37:23","新北市雙溪區共和里東榮街52號","121.866316666667","25.0336583333333","6502500","雙溪區"
"208002","KEA-2872","2018/12/24 17:49:15","新北市金山區磺清路135號","121.639446666667","25.2275583333333","6502700","金山區"
"208001","761-BX","2018/12/24 17:49:11","新北市金山區磺清路135號","121.639206666667","25.2276966666667","6502700","金山區"
"251009","008-UM","2018/12/24 17:49:22","新北市淡水區長興街45號","121.444198333333","25.1717383333333","6501000","淡水區"
"251004","009-UM","2018/12/24 17:49:21","新北市淡水區民權一街24號","121.458653333333","25.1366766666667","6501000","淡水區"
"251005","010-UM","2018/12/24 17:49:23","新北市淡水區學府路102巷13號","121.450816666667","25.1718","6501000","淡水區"
"251001","011-UM","2018/12/24 17:49:21","新北市淡水區自強路201巷35號","121.462256666667","25.1267233333333","6501000","淡水區"
"251013","KEA-2871","2018/12/24 17:49:17","新北市淡水區泉洲厝31號","121.479623333333","25.1910433333333","6501000","淡水區"
"251016","179-VK","2018/12/24 17:49:11","新北市淡水區埤島39-15號","121.452745","25.1958716666667","6501000","淡水區"
"251008","181-VK","2018/12/24 17:49:32","新北市淡水區八勢路一段127號","121.467103333333","25.15703","6501000","淡水區"
"251015","182-VK","2018/12/24 17:49:20","新北市淡水區興福寮22-3號","121.493761666667","25.1642316666667","6501000","淡水區"
"251010","413-VK","2018/12/24 17:49:27","新北市淡水區淡海路280巷33弄34-2號","121.41863","25.1885166666667","6501000","淡水區"
"251012","441-VK","2018/12/24 17:49:28","新北市淡水區水頭43-1號","121.476776666667","25.185715","6501000","淡水區"
"251007","442-VK","2018/12/24 17:49:17","新北市淡水區民生路16巷33號","121.461826666667","25.137575","6501000","淡水區"
"251006","561-UM","2018/12/24 17:49:19","新北市淡水區大信街1巷25號","121.440211666667","25.17674","6501000","淡水區"
"251011","650-BX","2018/12/24 17:45:55","新北市淡水區吳(仔)厝9-1號","121.47961","25.1466383333333","6501000","淡水區"
"251002","672-BX","2018/12/24 17:49:21","新北市淡水區中山路66號","121.443585","25.17053","6501000","淡水區"
"251003","766-UM","2018/12/24 17:49:15","新北市淡水區大忠街5巷1號","121.44316","25.1764283333333","6501000","淡水區"
"207003","550-UM","2018/12/24 17:49:14","新北市萬里區野柳里東澳路31-4號","121.691975","25.2033266666667","6502800","萬里區"
"207004","225-TW","2018/12/24 17:49:22","新北市萬里區萬里里瑪鋉頂街61號","121.68836","25.1804516666667","6502800","萬里區"
"252002","178-VK","2018/12/24 17:49:26","新北市三芝區智成街35號","121.504005","25.2564233333333","6502100","三芝區"
"252001","292-VK","2018/12/24 17:49:21","新北市三芝區中興街一段10號","121.497473333333","25.2593666666667","6502100","三芝區"
"237004","KEA-2597","2018/12/24 17:49:20","新北市三峽區中山路227號","121.363063333333","24.937085","6500900","三峽區"
"237009","210-TH","2018/12/24 17:49:20","新北市三峽區中山路143號","121.365033333333","24.936215","6500900","三峽區"
"237013","252-BX","2018/12/24 17:49:18","新北市三峽區愛國路18號","121.374133333333","24.933535","6500900","三峽區"
"237012","275-BY","2018/12/24 17:49:26","新北市三峽區大勇路1號","121.366995","24.9387866666667","6500900","三峽區"
"237014","433-BY","2018/12/24 17:49:25","新北市三峽區文化路158號","121.370078333333","24.9361066666667","6500900","三峽區"
"237006","5529-G3","2018/12/24 17:49:31","新北市三峽區介壽路二段38巷75-1號","121.391998333333","24.9339266666667","6500900","三峽區"
"237011","KEA-2596","2018/12/24 17:49:27","新北市三峽區中山路99-1號","121.365655","24.9355866666667","6500900","三峽區"
"237015","649-BX","2018/12/24 17:49:33","新北市三峽區白雞120-10號","121.399075","24.9052983333333","6500900","三峽區"
"237010","706-TV","2018/12/24 17:49:30","新北市三峽區文化路242號","121.36743","24.93582","6500900","三峽區"
"237005","AKY-6261","2018/12/24 17:49:21","新北市三峽區中山路323號","121.360661666667","24.93809","6500900","三峽區"
"236042","KED-0685","2018/12/24 17:49:23","新北市土城區城林路6巷80號","121.43845","24.979735","6501300","土城區"
"236078","166-UM","2018/12/24 17:49:27","新北市土城區中華路二段180號","121.437435","24.9717816666667","6501300","土城區"
"236014","270-VK","2018/12/24 17:49:18","新北市土城區城林路6巷80號","121.438526666667","24.9796183333333","6501300","土城區"
"236039","271-VK","2018/12/24 17:49:32","新北市土城區城林路6巷80號","121.438488333333","24.9797766666667","6501300","土城區"
"247008","KED-0683","2018/12/24 17:49:28","新北市蘆洲區中山一路200號","121.47354","25.0807966666667","6501400","蘆洲區"
"236020","401-BY","2018/12/24 17:49:16","新北市土城區城林路6巷80號","121.438821666667","24.979625","6501300","土城區"
"236059","912-UM","2018/12/24 17:49:16","新北市土城區中華路二段201號","121.437938333333","24.9738183333333","6501300","土城區"
"236063","915-UM","2018/12/24 17:49:28","新北市土城區城林路6巷80號","121.43844","24.9796","6501300","土城區"
"242036","AAC-296","2018/12/24 17:49:17","新北市新莊區建福路59巷14號","121.427421666667","25.0274416666667","6500500","新莊區"
"242058","986-R7","2018/12/24 17:49:22","新北市新莊區中正路692-8號","121.419768333333","25.02839","6500500","新莊區"
"242056","751-BX","2018/12/24 17:49:15","新北市新莊區豐年街118號","121.446445","25.0303366666667","6500500","新莊區"
"242027","615-BX","2018/12/24 17:49:25","新北市新莊區福壽街204號","121.458085","25.053755","6500500","新莊區"
"242025","613-BX","2018/12/24 17:48:59","新北市新莊區新北大道二段143號","121.465721666667","25.0611716666667","6500500","新莊區"
"242029","612-BX","2018/12/24 17:49:18","新北市新莊區復興路一段17號","121.445986666667","25.0416183333333","6500500","新莊區"
"242044","566-BX","2018/12/24 17:49:34","新北市新莊區福營路378號","121.4205","25.02649","6500500","新莊區"
"242048","497-BY","2018/12/24 17:49:30","新北市新莊區萬安街60巷13號","121.420461666667","25.0232866666667","6500500","新莊區"
"242021","442-UM","2018/12/24 17:49:20","新北市新莊區永寧街30巷2號","121.452835","25.03894","6500500","新莊區"
"242053","441-UM","2018/12/24 17:49:16","新北市新莊區民安西路468-1號","121.431663333333","25.0078583333333","6500500","新莊區"
"242002","440-UM","2018/12/24 17:49:30","新北市新莊區景德路174號","121.450198333333","25.0341866666667","6500500","新莊區"
"242039","415-TV","2018/12/24 17:49:17","新北市新莊區民安路172號","121.425081666667","25.0239883333333","6500500","新莊區"
"242009","413-TV","2018/12/24 17:49:24","新北市新莊區昌平街59巷10號","121.45441","25.0531683333333","6500500","新莊區"
"242046","400-BY","2018/12/24 17:49:15","新北市新莊區建國一路31巷9號","121.434701666667","25.031625","6500500","新莊區"
"242023","362-BY","2018/12/24 17:49:23","新北市新莊區福樂街76號","121.45771","25.04671","6500500","新莊區"
"242060","353-BY","2018/12/24 17:49:20","新北市新莊區新樹路595號","121.432996666667","25.006425","6500500","新莊區"
"242011","132-UY","2018/12/24 17:49:16","新北市新莊區中港路652號","121.450876666667","25.05577","6500500","新莊區"
"242034","135-UY","2018/12/24 17:49:28","新北市新莊區新莊路682號","121.44118","25.0327333333333","6500500","新莊區"
"242050","172-VK","2018/12/24 17:49:19","新北市新莊區西盛街257巷21號","121.428925","25.015885","6500500","新莊區"
"242013","173-VK","2018/12/24 17:49:30","新北市新莊區中誠街166巷1號","121.448045","25.0478133333333","6500500","新莊區"
"242017","KED-0687","2018/12/24 17:49:30","新北市新莊區永安街27號","121.451901666667","25.044765","6500500","新莊區"
"242007","346-TH","2018/12/24 17:49:17","新北市新莊區福樂街110號","121.45741","25.04777","6500500","新莊區"
"242031","348-TH","2018/12/24 17:49:32","新北市新莊區新泰路321巷15號","121.443955","25.0412533333333","6500500","新莊區"
"242004","349-TH","2018/12/24 17:49:26","新北市新莊區自立街236號","121.458133333333","25.045475","6500500","新莊區"
"242015","351-TH","2018/12/24 17:49:34","新北市新莊區新泰路421-1號","121.443131666667","25.0448816666667","6500500","新莊區"
"238015","755-BX","2018/12/24 17:49:27","新北市樹林區復興路211號","121.420288333333","24.99133","6500700","樹林區"
"238023","601-UM","2018/12/24 17:49:25","新北市樹林區龍興街30號","121.402935","25.015885","6500700","樹林區"
"238019","599-UM","2018/12/24 17:49:25","新北市樹林區太順街5巷1號","121.420188333333","24.9800216666667","6500700","樹林區"
"238018","571-TV","2018/12/24 17:49:25","新北市樹林區樹新路2-2號","121.431491666667","24.9990566666667","6500700","樹林區"
"238022","KEA-2213","2018/12/24 17:49:22","新北市樹林區太順街86巷11號","121.41662","24.978535","6500700","樹林區"
"238021","KEA-2539","2018/12/24 17:49:31","新北市樹林區柑園街一段36-1號","121.405328333333","24.96142","6500700","樹林區"
"238025","303-VK","2018/12/24 17:49:17","新北市樹林區俊興街209-3號","121.417476666667","25.0140516666667","6500700","樹林區"
"238017","283-BY","2018/12/24 17:49:17","新北市樹林區三德街64號","121.416295","25.01425","6500700","樹林區"
"238014","282-BY","2018/12/24 17:49:23","新北市樹林區保安街一段289巷5-1號","121.415953333333","24.9956916666667","6500700","樹林區"
"238020","268-VK","2018/12/24 17:49:16","新北市樹林區俊英街252號","121.42453","25.0109933333333","6500700","樹林區"
"238026","172-UY","2018/12/24 17:49:25","新北市樹林區新興街17號","121.400246666667","24.9727483333333","6500700","樹林區"
"238016","169-UY","2018/12/24 17:46:10","新北市樹林區復興路295巷5號","121.419108333333","24.9891483333333","6500700","樹林區"
"239007","AAC-297","2018/12/24 17:49:27","新北市鶯歌區永利街36號","121.339366666667","24.9543916666667","6500800","鶯歌區"
"239006","891-R6","2018/12/24 17:49:16","新北市鶯歌區鳳鳴路160號","121.334761666667","24.96826","6500800","鶯歌區"
"239006","661-UM","2018/12/24 17:49:17","新北市鶯歌區永吉街46巷41號","121.334545","24.95763","6500800","鶯歌區"
"239008","527-UM","2018/12/24 17:49:21","新北市鶯歌區香賓街3巷2號","121.336221666667","24.9785116666667","6500800","鶯歌區"
"239005","526-UM","2018/12/24 17:49:34","新北市鶯歌區鳳吉五街30號","121.327371666667","24.972555","6500800","鶯歌區"
"239001","417-VK","2018/12/24 17:49:22","新北市鶯歌區中正三路408號","121.325318333333","24.9346916666667","6500800","鶯歌區"
"239002","359-BY","2018/12/24 17:49:13","新北市鶯歌區中山路329巷22弄17號","121.344516666667","24.9558516666667","6500800","鶯歌區"
"239004","193-VK","2018/12/24 17:49:29","新北市鶯歌區文化路136巷50號","121.351088333333","24.950575","6500800","鶯歌區"
"221008","489-VK","2018/12/24 17:49:25","新北市汐止區康寧街901號","121.651378333333","25.0750433333333","6501100","汐止區"
"221036","130-UY","2018/12/24 17:49:26","新北市汐止區長安路17號","121.66763","25.078335","6501100","汐止區"
"221015","131-UY","2018/12/24 17:49:25","新北市汐止區汐萬路一段186號","121.652198333333","25.0720216666667","6501100","汐止區"
"221010","269-BY","2018/12/24 17:49:30","新北市汐止區汐萬路二段109號","121.648343333333","25.0837","6501100","汐止區"
"221012","278-VK","2018/12/24 17:49:21","新北市汐止區長江街213號","121.66091","25.0772266666667","6501100","汐止區"
"221023","279-VK","2018/12/24 17:49:13","新北市汐止區民族一街18號","121.634981666667","25.07113","6501100","汐止區"
"221032","280-BY","2018/12/24 17:49:18","新北市汐止區大同路一段211號","121.633576666667","25.057755","6501100","汐止區"
"221027","281-BY","2018/12/24 17:49:28","新北市汐止區汐萬路一段172號","121.652423333333","25.07181","6501100","汐止區"
"221021","299-VK","2018/12/24 17:49:29","新北市汐止區水源路一段17號","121.657206666667","25.0667633333333","6501100","汐止區"
"221031","353-TW","2018/12/24 17:49:24","新北市汐止區中興路96巷1-3號","121.635395","25.0625633333333","6501100","汐止區"
"221025","623-UM","2018/12/24 17:49:21","新北市汐止區大同路二段179號","121.651773333333","25.0643433333333","6501100","汐止區"
"221038","646-BX","2018/12/24 17:49:16","新北市汐止區大同路二段187巷45號","121.652","25.0659416666667","6501100","汐止區"
"221033","647-BX","2018/12/24 17:49:19","新北市汐止區林森街33-2號","121.622791666667","25.0401533333333","6501100","汐止區"
"221002","707-TV","2018/12/24 17:49:12","新北市汐止區康寧街901號","121.651506666667","25.075065","6501100","汐止區"
"221018","753-BX","2018/12/24 17:49:14","新北市汐止區忠孝東路351-12號","121.665343333333","25.0707316666667","6501100","汐止區"
"242042","281-VK","2018/12/24 17:49:33","新北市泰山區漢口街32號","121.425938333333","25.0353466666667","6500500","新莊區"
"242019","280-VK","2018/12/24 17:49:26","新北市新莊區民樂街83號","121.45793","25.0431516666667","6500500","新莊區"
