"lineid","car","time","location","longitude","latitude","cityid","cityname"
"234007","839-RS","2018/12/24 18:09:31","新北市永和區環河東路二段10號","121.522325","25.01321","6500400","永和區"
"234042","862-TW","2018/12/24 18:09:27","新北市永和區福和路1號","121.52622","25.0097266666667","6500400","永和區"
"234050","863-TW","2018/12/24 17:47:31","新北市永和區福和路1號","121.526281666667","25.0099916666667","6500400","永和區"
"234026","9371-KE","2018/12/24 18:09:24","新北市永和區水源街6號","121.512758333333","25.005125","6500400","永和區"
"249005","172-UM","2018/12/24 18:09:18","新北市八里區荖阡坑路15-40號","121.401631666667","25.1398683333333","6502300","八里區"
"249001","173-UM","2018/12/24 18:09:20","新北市八里區龍米路二段30號","121.44858","25.13998","6502300","八里區"
"249004","303-UY","2018/12/24 18:09:21","新北市八里區龍米路二段150號","121.436468333333","25.1563666666667","6502300","八里區"
"249002","305-UY","2018/12/24 18:09:28","新北市八里區龍米路一段386巷20號","121.452196666667","25.13144","6502300","八里區"
"249003","593-UM","2018/12/24 18:09:26","新北市八里區商港路2號","121.39762","25.1440833333333","6502300","八里區"
"248014","025-BX","2018/12/24 18:09:33","新北市五股區成泰路二段26號","121.436951666667","25.0811033333333","6501500","五股區"
"248016","026-BX","2018/12/24 18:09:17","新北市五股區新五路三段1號","121.444433333333","25.0893166666667","6501500","五股區"
"248006","077-UY","2018/12/24 18:09:14","新北市五股區中興路二段95號","121.460345","25.0774716666667","6501500","五股區"
"248008","095-VK","2018/12/24 18:09:22","新北市五股區更洲路32巷8弄17號","121.459268333333","25.0795866666667","6501500","五股區"
"248018","225-UY","2018/12/24 18:09:17","新北市五股區新五路三段9號","121.444346666667","25.0896066666667","6501500","五股區"
"248012","247-BX","2018/12/24 18:09:25","新北市五股區中興路三段198號","121.441315","25.0820916666667","6501500","五股區"
"248010","272-BY","2018/12/24 18:09:14","新北市五股區成泰路一段194-1號","121.435541666667","25.07783","6501500","五股區"
"248004","677-BX","2018/12/24 18:09:28","新北市五股區成泰路二段140號","121.438145","25.0837916666667","6501500","五股區"
"248002","678-BX","2018/12/24 18:09:25","新北市五股區中興路三段198號","121.441771666667","25.081955","6501500","五股區"
"232011","375-UM","2018/12/24 18:09:17","新北市坪林區國中路4號","121.713421666667","24.93884","6502000","坪林區"
"244007","080-UY","2018/12/24 18:09:28","新北市林口區林口路124巷2號","121.388678333333","25.0816416666667","6501700","林口區"
"244019","402-UM","2018/12/24 18:09:30","新北市林口區忠孝路552-1號","121.373855","25.0680633333333","6501700","林口區"
"244013","KEA-2802","2018/12/24 18:09:24","新北市林口區中山路130號","121.392176666667","25.0786616666667","6501700","林口區"
"244023","483-VK","2018/12/24 18:09:29","新北市林口區東湖路153巷121號","121.382336666667","25.073005","6501700","林口區"
"244017","485-VK","2018/12/24 18:09:15","新北市林口區忠孝路508號","121.370896666667","25.0698766666667","6501700","林口區"
"244009","656-BX","2018/12/24 18:09:30","新北市林口區文化一路二段202號","121.383248333333","25.080815","6501700","林口區"
"244011","701-TV","2018/12/24 18:09:28","新北市林口區粉寮路一段41號","121.396505","25.0774016666667","6501700","林口區"
"244025","837-TS","2018/12/24 18:09:16","新北市林口區南勢二街152-9號","121.35872","25.0730666666667","6501700","林口區"
"244021","838-TS","2018/12/24 18:09:27","新北市林口區自強五街7號","121.398851666667","25.0764816666667","6501700","林口區"
"243013","AAD-798","2018/12/24 18:09:12","新北市泰山區犁頭窠18號","121.419725","25.0498383333333","6501600","泰山區"
"222003","436-BY","2018/12/24 18:09:17","新北市深坑區阿柔洋45號","121.612228333333","24.9979433333333","6501800","深坑區"
"222002","659-BX","2018/12/24 18:09:28","新北市深坑區文化街60號","121.618701666667","25.00161","6501800","深坑區"
"231041","002-UM","2018/12/24 18:09:30","新北市新店區安華路28-1號","121.519588333333","24.9606883333333","6500600","新店區"
"231059","046-UY","2018/12/24 18:09:24","新北市新店區安華路28-1號","121.5196","24.9606733333333","6500600","新店區"
"231040","047-UY","2018/12/24 18:09:22","新北市新店區安華路28-1號","121.519168333333","24.9609766666667","6500600","新店區"
"231044","106-UY","2018/12/24 18:09:30","新北市新店區安華路28-1號","121.519596666667","24.9607016666667","6500600","新店區"
"231046","107-UY","2018/12/24 18:09:30","新北市新店區直潭七街60號","121.532301666667","24.9397733333333","6500600","新店區"
"231052","108-UY","2018/12/24 18:09:13","新北市新店區安一路一段1-1號","121.519296666667","24.9610433333333","6500600","新店區"
"231047","187-VK","2018/12/24 18:09:25","新北市新店區安一路一段1-1號","121.519521666667","24.961135","6500600","新店區"
"221035","KEA-2785","2018/12/24 18:09:19","新北市汐止區大同路二段239號","121.653388333333","25.065265","6501100","汐止區"
"231065","260-TV","2018/12/24 18:09:15","新北市新店區安一路一段1-1號","121.519256666667","24.96121","6500600","新店區"
"231042","268-BY","2018/12/24 18:09:17","新北市新店區安華路28-1號","121.519721666667","24.961025","6500600","新店區"
"231050","AAD-862","2018/12/24 18:09:26","新北市新店區安一路一段1-1號","121.519596666667","24.961105","6500600","新店區"
"231058","3713-VJ","2018/12/24 18:09:16","新北市新店區安華路28-1號","121.519216666667","24.9605933333333","6500600","新店區"
"231056","4715-K9","2018/12/24 18:09:19","新北市新店區安康路一段94-3號","121.527631666667","24.962175","6500600","新店區"
"231049","513-UM","2018/12/24 18:09:33","新北市新店區安華路28-1號","121.519575","24.96103","6500600","新店區"
"231061","619-UM","2018/12/24 18:09:32","新北市新店區安華路28-1號","121.519363333333","24.9606116666667","6500600","新店區"
"231062","720-UM","2018/12/24 18:09:28","新北市新店區安一路一段1-1號","121.519226666667","24.96113","6500600","新店區"
"231060","897-TW","2018/12/24 18:09:15","新北市新店區安華路28-1號","121.519525","24.9607616666667","6500600","新店區"
"231055","AKT-0513","2018/12/24 18:09:19","新北市新店區安華路1-1號","121.519306666667","24.960495","6500600","新店區"
"251014","742-BX","2018/12/24 18:09:19","新北市淡水區南平15號","121.488278333333","25.2192883333333","6501000","淡水區"
"241033","557-UM","2018/12/24 17:59:00","新北市三重區重新路五段507號","121.47243","25.0467866666667","6500200","三重區"
"235064","005-UY","2018/12/24 18:09:32","新北市中和區中正路209號","121.497091666667","24.9936216666667","6500300","中和區"
"235063","006-UY","2018/12/24 18:09:27","新北市中和區員山路36巷16-3號","121.484931666667","24.9914366666667","6500300","中和區"
"235056","096-UM","2018/12/24 18:09:16","新北市中和區和城路一段271巷1號","121.485413333333","24.991795","6500300","中和區"
"235039","097-UM","2018/12/24 18:09:27","新北市中和區錦和路350-1號","121.490261666667","24.9935533333333","6500300","中和區"
"235058","151-BY","2018/12/24 18:09:32","新北市中和區圓通路367巷33弄5號","121.49437","24.9853283333333","6500300","中和區"
"235038","185-VK","2018/12/24 18:09:22","新北市中和區景平路120號","121.519293333333","24.991675","6500300","中和區"
"235042","KEA-2878","2018/12/24 18:09:19","新北市中和區錦和路350-1號","121.49046","24.9935683333333","6500300","中和區"
"247012","KEA-2869","2018/12/24 18:09:14","新北市蘆洲區民族路87號","121.479491666667","25.0861466666667","6501400","蘆洲區"
"235050","4979-A6","2018/12/24 18:09:30","新北市中和區中正路277號","121.495288333333","24.993745","6500300","中和區"
"235070","558-UM","2018/12/24 18:09:22","新北市中和區中正路406號","121.492376666667","24.9939766666667","6500300","中和區"
"235045","565-BX","2018/12/24 18:09:29","新北市中和區中正路262-1號","121.49542","24.9941533333333","6500300","中和區"
"235054","640-BX","2018/12/24 18:09:24","新北市中和區連城路569巷9弄24號","121.479551666667","24.9935166666667","6500300","中和區"
"235071","783-BX","2018/12/24 18:09:24","新北市中和區員山路36巷16-3號","121.485148333333","24.9911833333333","6500300","中和區"
"235026","800-TS","2018/12/24 18:09:21","新北市中和區中山路二段429號","121.48529","25.0049983333333","6500300","中和區"
"235057","801-TS","2018/12/24 18:09:14","新北市中和區民利街30號","121.47985","24.9990766666667","6500300","中和區"
"235052","805-TS","2018/12/24 18:09:24","新北市中和區錦和路350-1號","121.490348333333","24.993585","6500300","中和區"
"235053","900-TW","2018/12/24 18:09:18","新北市中和區員山路36巷16-3號","121.484741666667","24.9915633333333","6500300","中和區"
"235065","911-UM","2018/12/24 18:09:27","新北市中和區莊敬路49巷18號","121.50167","25.00615","6500300","中和區"
"235051","157-BY","2018/12/24 18:09:31","新北市中和區捷運路12-3號","121.509011666667","24.9899683333333","6500300","中和區"
"235037","AAC-213","2018/12/24 18:09:31","新北市中和區景平路155號","121.51369","24.9922116666667","6500300","中和區"
"235059","AAC-215","2018/12/24 18:09:17","新北市中和區員山路36巷16-3號","121.484996666667","24.9912616666667","6500300","中和區"
"226004","312-R5","2018/12/24 18:09:31","新北市平溪區白石里白石腳24-1號","121.720035","25.0215966666667","6502400","平溪區"
"228003","097-TW","2018/12/24 18:09:25","新北市貢寮區真理里美艷山街6-2號","121.928865","25.0607366666667","6502600","貢寮區"
"228002","585-TW","2018/12/24 18:09:23","新北市貢寮區福連里福興街23號","121.990423333333","25.010315","6502600","貢寮區"
"228001","670-TC","2018/12/24 18:09:33","新北市貢寮區真理里新港街26巷55弄2-1號","121.927416666667","25.052895","6502600","貢寮區"
"224006","676-BX","2018/12/24 18:09:18","新北市瑞芳區中山路22號","121.804075","25.10623","6501200","瑞芳區"
"224008","285-BY","2018/12/24 18:09:26","新北市瑞芳區員山子路23號","121.821356666667","25.1030233333333","6501200","瑞芳區"
"224007","275-VK","2018/12/24 18:09:14","新北市瑞芳區四腳亭埔路40-1號","121.778145","25.106135","6501200","瑞芳區"
"224009","273-VK","2018/12/24 18:09:18","新北市瑞芳區金光路115號","121.853626666667","25.1062566666667","6501200","瑞芳區"
"224005","271-BY","2018/12/24 18:09:15","新北市瑞芳區深澳路67號","121.818108333333","25.129745","6501200","瑞芳區"
"227001","642-TC","2018/12/24 18:09:29","新北市雙溪區共和里東榮街52號","121.866293333333","25.0336616666667","6502500","雙溪區"
"253006","032-BX","2018/12/24 18:09:26","新北市石門區大丘田6號","121.547106666667","25.28563","6502200","石門區"
"253005","295-VK","2018/12/24 18:09:29","新北市石門區福安街41號","121.568523333333","25.2919666666667","6502200","石門區"
"222001","KEA-2212","2018/12/24 18:09:27","新北市深坑區北深路二段188號","121.613956666667","25.0022716666667","6501800","深坑區"
"208002","KEA-2872","2018/12/24 18:09:15","新北市金山區三界壇路111巷14號","121.619008333333","25.2314666666667","6502700","金山區"
"208003","665-BX","2018/12/24 18:09:30","新北市金山區磺港里磺港路313號","121.644443333333","25.2278666666667","6502700","金山區"
"208001","761-BX","2018/12/24 18:09:31","新北市金山區磺港里磺港路109號","121.646403333333","25.22681","6502700","金山區"
"251009","008-UM","2018/12/24 18:09:22","新北市淡水區大忠街34巷9號","121.443753333333","25.1754883333333","6501000","淡水區"
"251004","009-UM","2018/12/24 18:09:21","新北市淡水區民權路187巷91號","121.461416666667","25.1348483333333","6501000","淡水區"
"251005","010-UM","2018/12/24 18:09:23","新北市淡水區水源街一段141號","121.447218333333","25.17193","6501000","淡水區"
"251001","011-UM","2018/12/24 18:09:21","新北市淡水區自立路10號","121.463091666667","25.129775","6501000","淡水區"
"251013","KEA-2871","2018/12/24 18:09:17","新北市淡水區竹圍子9-1號","121.47684","25.1922766666667","6501000","淡水區"
"251016","179-VK","2018/12/24 18:09:31","新北市淡水區下圭柔山15號","121.453201666667","25.2022383333333","6501000","淡水區"
"251008","181-VK","2018/12/24 18:09:12","新北市淡水區淡金路16巷80號","121.460338333333","25.1605483333333","6501000","淡水區"
"251015","182-VK","2018/12/24 18:09:20","新北市淡水區興福寮88巷1號","121.485218333333","25.164875","6501000","淡水區"
"251010","413-VK","2018/12/24 18:09:22","新北市淡水區中正路二段50巷10號","121.419903333333","25.1833483333333","6501000","淡水區"
"251012","441-VK","2018/12/24 18:09:32","新北市淡水區北新路三段162號","121.492241666667","25.19179","6501000","淡水區"
"251006","561-UM","2018/12/24 18:09:19","新北市淡水區真理街3巷19-6號","121.437426666667","25.1756316666667","6501000","淡水區"
"251011","650-BX","2018/12/24 18:09:15","新北市淡水區三空泉9-2號","121.474148333333","25.1635316666667","6501000","淡水區"
"251002","672-BX","2018/12/24 18:09:21","新北市淡水區中正東路一段87-2號","121.45293","25.1618516666667","6501000","淡水區"
"251003","766-UM","2018/12/24 18:09:35","新北市淡水區大忠街113巷20號","121.447298333333","25.177395","6501000","淡水區"
"207003","550-UM","2018/12/24 18:09:14","新北市萬里區野柳里港西路701-2號","121.685386666667","25.2045966666667","6502800","萬里區"
"207004","225-TW","2018/12/24 18:09:22","新北市萬里區中幅里中福路106號","121.676858333333","25.1692933333333","6502800","萬里區"
"252002","178-VK","2018/12/24 18:09:25","新北市三芝區中山路二段38號","121.502998333333","25.2551733333333","6502100","三芝區"
"252003","249-BX","2018/12/24 18:09:28","新北市三芝區埔頭里埔頭37號","121.498431666667","25.2602583333333","6502100","三芝區"
"252001","292-VK","2018/12/24 18:09:21","新北市三芝區中興街二段2號","121.498458333333","25.25663","6502100","三芝區"
"237004","KEA-2597","2018/12/24 18:09:20","新北市三峽區中正路二段198號","121.365948333333","24.9146533333333","6500900","三峽區"
"237007","153-BY","2018/12/24 18:09:16","新北市三峽區中正路二段168號","121.365998333333","24.9153016666667","6500900","三峽區"
"237009","210-TH","2018/12/24 18:09:20","新北市三峽區大仁路34巷8號","121.365908333333","24.93808","6500900","三峽區"
"237013","252-BX","2018/12/24 18:09:18","新北市三峽區長泰街53號","121.377443333333","24.9328583333333","6500900","三峽區"
"237012","275-BY","2018/12/24 18:09:26","新北市三峽區民生街1巷1-32號","121.377541666667","24.9350166666667","6500900","三峽區"
"237008","302-VK","2018/12/24 18:09:13","新北市三峽區白雞38-19號","121.373368333333","24.9119083333333","6500900","三峽區"
"237014","433-BY","2018/12/24 18:09:25","新北市三峽區和平街60號","121.370321666667","24.9378666666667","6500900","三峽區"
"237006","5529-G3","2018/12/24 18:09:31","新北市三峽區介壽路二段167號","121.394716666667","24.9358883333333","6500900","三峽區"
"237011","KEA-2596","2018/12/24 18:09:27","新北市三峽區中正路一段34號","121.37572","24.930705","6500900","三峽區"
"237015","649-BX","2018/12/24 18:08:33","新北市三峽區紫新路38巷2號","121.421988333333","24.92252","6500900","三峽區"
"237010","706-TV","2018/12/24 18:09:30","新北市三峽區民族街158號","121.368985","24.928185","6500900","三峽區"
"237005","AKY-6261","2018/12/24 18:09:21","新北市三峽區和平街89巷14號","121.369741666667","24.9375433333333","6500900","三峽區"
"236069","105-UM","2018/12/24 18:09:21","新北市土城區明德路一段128巷2號","121.463245","24.97905","6501300","土城區"
"236042","KED-0685","2018/12/24 18:09:23","新北市土城區城林路6巷80號","121.438471666667","24.9797333333333","6501300","土城區"
"236078","166-UM","2018/12/24 18:09:27","新北市土城區永安街86巷1號","121.431486666667","24.9637333333333","6501300","土城區"
"236030","253-BX","2018/12/24 18:09:28","新北市土城區城林路6巷80號","121.438691666667","24.979645","6501300","土城區"
"236026","269-VK","2018/12/24 18:09:25","新北市土城區承天路18號","121.439463333333","24.9633716666667","6501300","土城區"
"236014","270-VK","2018/12/24 18:09:18","新北市土城區明德路二段129號","121.449803333333","24.9824533333333","6501300","土城區"
"236039","271-VK","2018/12/24 18:09:32","新北市土城區青雲路449號","121.458698333333","24.9749383333333","6501300","土城區"
"236020","401-BY","2018/12/24 18:09:16","新北市土城區城林路6巷80號","121.438781666667","24.9796216666667","6501300","土城區"
"236055","752-BX","2018/12/24 18:09:16","新北市土城區中華路二段92號","121.438218333333","24.9747033333333","6501300","土城區"
"236059","912-UM","2018/12/24 18:09:20","新北市土城區中央路四段157-1號","121.415391666667","24.9570416666667","6501300","土城區"
"236048","913-UM","2018/12/24 18:09:28","新北市土城區明德路一段369-2號","121.453261666667","24.9793433333333","6501300","土城區"
"236063","915-UM","2018/12/24 18:09:28","新北市土城區中華路二段62號","121.439","24.9768","6501300","土城區"
"242036","AAC-296","2018/12/24 18:09:16","新北市新莊區建福路48巷13號","121.425658333333","25.02733","6500500","新莊區"
"242058","986-R7","2018/12/24 18:09:22","新北市新莊區中正路730-15號","121.414453333333","25.02339","6500500","新莊區"
"242056","751-BX","2018/12/24 18:09:30","新北市新莊區豐年街豐1巷44號","121.447991666667","25.0311233333333","6500500","新莊區"
"242027","615-BX","2018/12/24 18:09:25","新北市新莊區幸福路517號","121.455593333333","25.0492583333333","6500500","新莊區"
"242025","613-BX","2018/12/24 18:09:18","新北市新莊區五權一路98號","121.459476666667","25.0675216666667","6500500","新莊區"
"242029","612-BX","2018/12/24 18:09:23","新北市新莊區中平路200-2號","121.444785","25.04862","6500500","新莊區"
"242044","566-BX","2018/12/24 18:09:20","新北市新莊區中正路力行巷1弄2號","121.416935","25.0263433333333","6500500","新莊區"
"242048","497-BY","2018/12/24 18:09:32","新北市新莊區後港一路1號","121.424011666667","25.0261616666667","6500500","新莊區"
"242021","442-UM","2018/12/24 17:58:18","新北市新莊區中正路178號","121.450025","25.0357133333333","6500500","新莊區"
"242053","441-UM","2018/12/24 18:09:16","新北市新莊區民安西路327巷4弄1號","121.428126666667","25.0115166666667","6500500","新莊區"
"242002","440-UM","2018/12/24 18:09:33","新北市新莊區新莊路2號","121.459383333333","25.0379366666667","6500500","新莊區"
"242039","415-TV","2018/12/24 18:09:20","新北市新莊區民安西路38巷37號","121.426288333333","25.02021","6500500","新莊區"
"242009","413-TV","2018/12/24 18:09:20","新北市新莊區中華路二段152-1號","121.453311666667","25.05045","6500500","新莊區"
"242046","400-BY","2018/12/24 18:09:14","新北市新莊區福營路226號","121.427303333333","25.029355","6500500","新莊區"
"242023","362-BY","2018/12/24 18:09:23","新北市新莊區幸福路914號","121.44269","25.0490033333333","6500500","新莊區"
"242060","353-BY","2018/12/24 18:09:20","新北市新莊區新樹路209號","121.43574","25.0236516666667","6500500","新莊區"
"242011","132-UY","2018/12/24 18:09:16","新北市新莊區中榮街56巷12號","121.449175","25.0536683333333","6500500","新莊區"
"242034","135-UY","2018/12/24 18:09:23","新北市新莊區景德路382號","121.446285","25.0335966666667","6500500","新莊區"
"242050","172-VK","2018/12/24 18:09:19","新北市新莊區民本街11巷2弄28號","121.429023333333","25.01987","6500500","新莊區"
"242007","346-TH","2018/12/24 18:09:22","新北市新莊區中華路二段40號","121.454141666667","25.045575","6500500","新莊區"
"242031","348-TH","2018/12/24 18:09:12","新北市新莊區新泰路277巷55號","121.443595","25.04011","6500500","新莊區"
"242004","349-TH","2018/12/24 18:09:26","新北市新莊區自立街82號","121.454531666667","25.045295","6500500","新莊區"
"242015","351-TH","2018/12/24 18:09:17","新北市新莊區中和街59巷10弄9號","121.446805","25.0471516666667","6500500","新莊區"
"238015","755-BX","2018/12/24 18:09:26","新北市樹林區文化街112巷55號","121.417771666667","24.9911733333333","6500700","樹林區"
"238023","601-UM","2018/12/24 18:09:25","新北市樹林區三福街47巷14號","121.407823333333","25.0154966666667","6500700","樹林區"
"238019","599-UM","2018/12/24 18:09:25","新北市樹林區水源街15號","121.42513","24.9830816666667","6500700","樹林區"
"238018","571-TV","2018/12/24 18:09:25","新北市樹林區博愛一街6號","121.425208333333","24.9910883333333","6500700","樹林區"
"238022","KEA-2213","2018/12/24 18:09:22","新北市樹林區太平路225巷2號","121.41851","24.9770083333333","6500700","樹林區"
"238021","KEA-2539","2018/12/24 18:09:31","新北市樹林區柑園街二段78號","121.386615","24.95514","6500700","樹林區"
"238025","303-VK","2018/12/24 18:09:17","新北市樹林區保安街一段323-1號","121.417696666667","24.9982283333333","6500700","樹林區"
"238017","283-BY","2018/12/24 18:09:17","新北市樹林區中正路710號","121.409175","25.0177383333333","6500700","樹林區"
"238014","282-BY","2018/12/24 18:09:23","新北市樹林區千歲街61巷42號","121.425578333333","24.9986866666667","6500700","樹林區"
"238020","268-VK","2018/12/24 18:09:16","新北市樹林區俊興街298號","121.418626666667","25.0181016666667","6500700","樹林區"
"238026","172-UY","2018/12/24 18:09:25","新北市樹林區育德街21號","121.392278333333","24.9704883333333","6500700","樹林區"
"238016","169-UY","2018/12/24 18:09:30","新北市樹林區文化街11號","121.419945","24.9871783333333","6500700","樹林區"
"239007","AAC-297","2018/12/24 18:09:27","新北市鶯歌區尖山埔路102號","121.347243333333","24.951125","6500800","鶯歌區"
"239006","891-R6","2018/12/24 18:09:16","新北市鶯歌區鶯桃路381巷2弄13號","121.332961666667","24.9637666666667","6500800","鶯歌區"
"239006","661-UM","2018/12/24 18:09:17","新北市鶯歌區福安街34號","121.334953333333","24.9638433333333","6500800","鶯歌區"
"239008","527-UM","2018/12/24 18:09:21","新北市鶯歌區朝陽街16號","121.336488333333","24.9768133333333","6500800","鶯歌區"
"239005","526-UM","2018/12/24 18:09:34","新北市鶯歌區鶯桃路668巷69弄10號","121.329773333333","24.9718816666667","6500800","鶯歌區"
"239001","417-VK","2018/12/24 18:09:22","新北市鶯歌區尖山路305號","121.342011666667","24.9440266666667","6500800","鶯歌區"
"239002","359-BY","2018/12/24 18:09:32","新北市鶯歌區中山路329巷8號","121.343863333333","24.9565466666667","6500800","鶯歌區"
"239004","193-VK","2018/12/24 18:09:29","新北市鶯歌區尖山路147號","121.346428333333","24.9484666666667","6500800","鶯歌區"
"221008","489-VK","2018/12/24 18:09:25","新北市汐止區康寧街315號","121.626928333333","25.0678783333333","6501100","汐止區"
"221036","130-UY","2018/12/24 18:09:26","新北市汐止區長安路42-1號","121.668321666667","25.0783366666667","6501100","汐止區"
"221015","131-UY","2018/12/24 18:09:25","新北市汐止區鄉長路二段22號","121.668363333333","25.0826366666667","6501100","汐止區"
"221010","269-BY","2018/12/24 18:09:27","新北市汐止區汐萬路二段275巷1弄2號","121.645485","25.0889183333333","6501100","汐止區"
"221012","278-VK","2018/12/24 18:09:21","新北市汐止區保一街67號","121.67429","25.079915","6501100","汐止區"
"221023","279-VK","2018/12/24 18:09:13","新北市汐止區明峰街179-1號","121.628575","25.069955","6501100","汐止區"
"221032","280-BY","2018/12/24 18:09:25","新北市汐止區力行街9號","121.617158333333","25.0510216666667","6501100","汐止區"
"221027","281-BY","2018/12/24 18:09:28","新北市汐止區大同路二段585號","121.663755","25.070355","6501100","汐止區"
"221029","298-VK","2018/12/24 18:09:15","新北市汐止區樟樹二路134號","121.639905","25.0658483333333","6501100","汐止區"
"221021","299-VK","2018/12/24 18:09:29","新北市汐止區龍安路44-1號","121.65417","25.063995","6501100","汐止區"
"221031","353-TW","2018/12/24 18:09:25","新北市汐止區中興路212號","121.631153333333","25.0662283333333","6501100","汐止區"
"221025","623-UM","2018/12/24 18:09:21","新北市汐止區勤進路3巷27號","121.661053333333","25.0617083333333","6501100","汐止區"
"221038","646-BX","2018/12/24 18:09:16","新北市汐止區水源路一段268號","121.654031666667","25.0588216666667","6501100","汐止區"
"221033","647-BX","2018/12/24 18:09:19","新北市汐止區宜興街40巷22弄4號","121.62262","25.0411833333333","6501100","汐止區"
"221002","707-TV","2018/12/24 18:09:31","新北市汐止區福德一路208號","121.63458","25.065415","6501100","汐止區"
"221018","753-BX","2018/12/24 18:09:34","新北市汐止區茄苳路62號","121.666425","25.0707","6501100","汐止區"
"224002","257-TC","2018/12/24 18:09:24","新北市瑞芳區三爪子坑路111巷75號","121.811265","25.1058016666667","6501200","瑞芳區"
"242042","281-VK","2018/12/24 18:09:13","新北市新莊區壽山路31號","121.420165","25.029115","6500500","新莊區"
"242019","280-VK","2018/12/24 18:09:18","新北市新莊區長青街37巷22弄7號","121.456021666667","25.0412233333333","6500500","新莊區"
"235025","KEA-2875","2018/12/24 18:09:21","新北市中和區連城路569巷9弄22號","121.479801666667","24.9935116666667","6500300","中和區"
"235047","KEA-2876","2018/12/24 18:09:21","新北市中和區和城路一段271巷1號","121.485566666667","24.9918116666667","6500300","中和區"
