"lineid","car","time","location","longitude","latitude","cityid","cityname"
"234007","839-RS","2018/12/24 18:19:31","新北市永和區環河西路二段209巷25號","121.501653333333","25.0101216666667","6500400","永和區"
"234042","862-TW","2018/12/24 18:19:27","新北市永和區福和路1號","121.526213333333","25.009725","6500400","永和區"
"234026","9371-KE","2018/12/24 18:19:24","新北市永和區豫溪街28巷22號","121.514986666667","25.008955","6500400","永和區"
"249005","172-UM","2018/12/24 18:19:18","新北市八里區荖阡坑路15-40號","121.401673333333","25.139885","6502300","八里區"
"249001","173-UM","2018/12/24 18:19:20","新北市八里區龍米路一段129號","121.452211666667","25.1266916666667","6502300","八里區"
"249004","303-UY","2018/12/24 18:19:21","新北市八里區龍米路二段232巷1弄2號","121.431495","25.1589683333333","6502300","八里區"
"249002","305-UY","2018/12/24 18:19:28","新北市八里區龍形五街21號","121.450121666667","25.1331083333333","6502300","八里區"
"248014","025-BX","2018/12/24 18:19:33","新北市五股區成泰路一段171巷15號","121.434351666667","25.0744166666667","6501500","五股區"
"248016","026-BX","2018/12/24 18:19:17","新北市五股區成泰路三段477巷9號","121.449911666667","25.098865","6501500","五股區"
"248006","077-UY","2018/12/24 18:19:14","新北市五股區中興路一段132號","121.465306666667","25.0735616666667","6501500","五股區"
"248008","095-VK","2018/12/24 18:19:22","新北市五股區更洲路32巷8弄17號","121.459275","25.0795716666667","6501500","五股區"
"248018","225-UY","2018/12/24 18:19:17","新北市五股區御史路205-1號","121.431003333333","25.1013233333333","6501500","五股區"
"248012","247-BX","2018/12/24 18:19:25","新北市五股區御史路1巷101弄4號","121.440871666667","25.0911983333333","6501500","五股區"
"248010","272-BY","2018/12/24 18:19:34","新北市五股區成泰路一段173-1號","121.435133333333","25.0748333333333","6501500","五股區"
"248004","677-BX","2018/12/24 18:19:25","新北市五股區成泰路二段222-2號","121.439141666667","25.0854316666667","6501500","五股區"
"248002","678-BX","2018/12/24 18:19:05","新北市五股區西雲路41號","121.443375","25.0908033333333","6501500","五股區"
"232011","375-UM","2018/12/24 18:19:17","新北市坪林區坪雙路一段43號","121.711713333333","24.9424366666667","6502000","坪林區"
"244007","080-UY","2018/12/24 18:19:25","新北市林口區中華路96號","121.384683333333","25.0906183333333","6501700","林口區"
"244019","402-UM","2018/12/24 18:19:30","新北市林口區忠孝路594巷8號","121.375951666667","25.0675516666667","6501700","林口區"
"244013","KEA-2802","2018/12/24 18:19:24","新北市林口區中山路202-1號","121.387735","25.0791383333333","6501700","林口區"
"244023","483-VK","2018/12/24 18:19:29","新北市林口區仁愛路二段80號","121.384431666667","25.0753316666667","6501700","林口區"
"244017","485-VK","2018/12/24 18:19:31","新北市林口區公園路6號","121.366241666667","25.0663933333333","6501700","林口區"
"244009","656-BX","2018/12/24 18:19:30","新北市林口區民生路108號","121.378038333333","25.0882366666667","6501700","林口區"
"244011","701-TV","2018/12/24 18:19:28","新北市林口區仁愛路一段284號","121.393126666667","25.0762766666667","6501700","林口區"
"244025","837-TS","2018/12/24 18:19:27","新北市林口區南勢七街28-10號","121.355515","25.0688566666667","6501700","林口區"
"244021","838-TS","2018/12/24 18:19:27","新北市林口區自強一街46號","121.39924","25.077535","6501700","林口區"
"243013","AAD-798","2018/12/24 18:19:12","新北市泰山區致遠新村55-1號","121.416686666667","25.0425883333333","6501600","泰山區"
"222003","436-BY","2018/12/24 18:19:17","新北市深坑區旺耽路67號","121.62625","25.0029983333333","6501800","深坑區"
"222002","659-BX","2018/12/24 18:19:28","新北市深坑區雲鄉路19號","121.621878333333","24.9999033333333","6501800","深坑區"
"231041","002-UM","2018/12/24 18:19:30","新北市新店區安華路28-1號","121.51954","24.9606616666667","6500600","新店區"
"231059","046-UY","2018/12/24 18:19:24","新北市新店區安華路28-1號","121.519561666667","24.9607816666667","6500600","新店區"
"231040","047-UY","2018/12/24 18:19:22","新北市新店區安華路28-1號","121.519115","24.9609366666667","6500600","新店區"
"231044","106-UY","2018/12/24 18:19:30","新北市新店區安華路28-1號","121.519608333333","24.9606916666667","6500600","新店區"
"231046","107-UY","2018/12/24 18:19:30","新北市新店區直潭七街60號","121.53228","24.9397783333333","6500600","新店區"
"231052","108-UY","2018/12/24 18:19:13","新北市新店區安一路一段1-1號","121.519606666667","24.9614333333333","6500600","新店區"
"231047","187-VK","2018/12/24 18:19:25","新北市新店區安一路一段1-1號","121.519536666667","24.9611316666667","6500600","新店區"
"221035","KEA-2785","2018/12/24 18:19:34","新北市汐止區大同路二段187巷8弄1號","121.652553333333","25.0656883333333","6501100","汐止區"
"231057","256-BX","2018/12/24 18:19:16","新北市新店區安一路一段1-1號","121.51966","24.9611083333333","6500600","新店區"
"231065","260-TV","2018/12/24 18:19:15","新北市新店區安一路一段1-1號","121.51935","24.9612433333333","6500600","新店區"
"231042","268-BY","2018/12/24 18:19:17","新北市新店區安華路28-1號","121.519691666667","24.9610183333333","6500600","新店區"
"231050","AAD-862","2018/12/24 18:19:26","新北市新店區安華路28-1號","121.519586666667","24.9610233333333","6500600","新店區"
"231058","3713-VJ","2018/12/24 18:19:16","新北市新店區秀山路14號","121.532763333333","24.9602983333333","6500600","新店區"
"231066","4716-K9","2018/12/24 18:19:18","新北市新店區安一路一段1-1號","121.519343333333","24.9612033333333","6500600","新店區"
"231056","4715-K9","2018/12/24 18:19:20","新北市新店區中正路438號","121.534123333333","24.978285","6500600","新店區"
"231049","513-UM","2018/12/24 18:19:13","新北市新店區安一路一段1-1號","121.51953","24.96109","6500600","新店區"
"231061","619-UM","2018/12/24 18:19:12","新北市新店區安華路28-1號","121.519385","24.9606633333333","6500600","新店區"
"231064","719-UM","2018/12/24 18:19:29","新北市新店區安一路一段1-1號","121.519373333333","24.9612216666667","6500600","新店區"
"231062","720-UM","2018/12/24 18:19:28","新北市新店區安一路一段1-1號","121.519273333333","24.96115","6500600","新店區"
"231060","897-TW","2018/12/24 18:19:14","新北市新店區安華路28-1號","121.519433333333","24.9605633333333","6500600","新店區"
"231043","899-TW","2018/12/24 18:19:31","新北市新店區安華路28-1號","121.519075","24.9608783333333","6500600","新店區"
"231055","AKT-0513","2018/12/24 18:19:19","新北市新店區環河路2號","121.538356666667","24.961815","6500600","新店區"
"251014","742-BX","2018/12/24 18:19:19","新北市淡水區崙頂14號","121.491163333333","25.2217683333333","6501000","淡水區"
"235064","005-UY","2018/12/24 18:19:32","新北市中和區中正路166-1號","121.498303333333","24.9938666666667","6500300","中和區"
"235063","006-UY","2018/12/24 18:19:27","新北市中和區中正路569號","121.486658333333","24.9943383333333","6500300","中和區"
"235056","096-UM","2018/12/24 18:19:16","新北市中和區中山路二段475號","121.48312","25.00498","6500300","中和區"
"235039","097-UM","2018/12/24 18:19:27","新北市中和區宜安路81號","121.510931666667","24.997475","6500300","中和區"
"235040","150-BY","2018/12/24 18:18:46","新北市中和區景平路361號","121.504541666667","24.9934266666667","6500300","中和區"
"235058","151-BY","2018/12/24 18:19:32","新北市中和區圓通路290號","121.490646666667","24.9894266666667","6500300","中和區"
"235055","183-VK","2018/12/24 18:19:21","新北市中和區員山路72-1號","121.481038333333","24.9935983333333","6500300","中和區"
"235038","185-VK","2018/12/24 18:19:21","新北市中和區自立路48號","121.523066666667","24.9922483333333","6500300","中和區"
"235049","186-VK","2018/12/24 18:19:28","新北市中和區中正路395號","121.490005","24.9935633333333","6500300","中和區"
"235072","301-VK","2018/12/24 18:19:16","新北市中和區連城路247號","121.493503333333","24.9971066666667","6500300","中和區"
"235042","KEA-2878","2018/12/24 18:19:19","新北市中和區安樂路2巷30弄23號","121.512603333333","24.9914516666667","6500300","中和區"
"247012","KEA-2869","2018/12/24 18:19:14","新北市五股區四維路185巷52號","121.463091666667","25.07775","6501400","蘆洲區"
"235050","4979-A6","2018/12/24 18:19:30","新北市中和區捷運路61巷7號","121.508953333333","24.9893116666667","6500300","中和區"
"235069","4980-A6","2018/12/24 18:19:28","新北市中和區中正路468號","121.489941666667","24.994265","6500300","中和區"
"235070","558-UM","2018/12/24 18:19:22","新北市中和區圓通路113號","121.499396666667","24.9964883333333","6500300","中和區"
"235045","565-BX","2018/12/24 18:19:29","新北市中和區景安路200巷10號","121.50319","24.9918583333333","6500300","中和區"
"235054","640-BX","2018/12/24 18:19:24","新北市中和區莒光路185號","121.47267","24.9990683333333","6500300","中和區"
"235060","647-TV","2018/12/24 18:19:26","新北市中和區員山路178號","121.481455","25.0001416666667","6500300","中和區"
"235046","733-UM","2018/12/24 18:19:24","新北市中和區中正路637巷52弄1號","121.485438333333","24.9934833333333","6500300","中和區"
"235071","783-BX","2018/12/24 18:19:24","新北市中和區員山路36巷16-3號","121.48516","24.99118","6500300","中和區"
"235062","800-TS","2018/12/24 18:19:21","新北市中和區景平路989巷4-3號","121.495516666667","25.0053116666667","6500300","中和區"
"235057","801-TS","2018/12/24 18:19:35","新北市中和區民享街97巷19號","121.47542","24.9995266666667","6500300","中和區"
"235041","802-TS","2018/12/24 18:19:17","新北市中和區錦和路350-1號","121.490126666667","24.99354","6500300","中和區"
"235052","805-TS","2018/12/24 18:19:24","新北市中和區捷運路8-7號","121.50946","24.9896733333333","6500300","中和區"
"235048","896-TW","2018/12/24 18:19:33","新北市中和區錦和路350-1號","121.490476666667","24.9935633333333","6500300","中和區"
"235053","900-TW","2018/12/24 18:19:18","新北市中和區員山路36巷16-3號","121.484766666667","24.9916166666667","6500300","中和區"
"235065","911-UM","2018/12/24 18:19:27","新北市中和區莊敬路49巷27號","121.501575","25.0061133333333","6500300","中和區"
"235051","157-BY","2018/12/24 18:19:31","新北市中和區忠孝街39-12號","121.512001666667","24.984285","6500300","中和區"
"235037","AAC-213","2018/12/24 18:19:31","新北市中和區景德街74號","121.516715","24.9914283333333","6500300","中和區"
"235059","AAC-215","2018/12/24 18:19:17","新北市中和區員山路36巷16-3號","121.484973333333","24.9912966666667","6500300","中和區"
"220065","072-UY","2018/12/24 18:19:20","新北市板橋區華東街1-9號","121.44808","24.9949733333333","6500100","板橋區"
"220086","073-UY","2018/12/24 18:19:20","新北市板橋區華東街1-10號","121.44825","24.9950316666667","6500100","板橋區"
"226004","312-R5","2018/12/24 18:19:30","新北市平溪區薯榔里一坑路67號","121.71303","25.0224433333333","6502400","平溪區"
"228003","097-TW","2018/12/24 18:19:25","新北市貢寮區和美里和美街63號","121.92194","25.0713716666667","6502600","貢寮區"
"228002","585-TW","2018/12/24 18:19:23","新北市貢寮區福連里馬崗街2-7號","121.999328333333","25.015905","6502600","貢寮區"
"228001","670-TC","2018/12/24 18:19:33","新北市貢寮區真理里新港街26巷55弄2-1號","121.927378333333","25.0528483333333","6502600","貢寮區"
"224006","676-BX","2018/12/24 18:19:30","新北市瑞芳區三爪子坑路32巷124號","121.80918","25.1065116666667","6501200","瑞芳區"
"224008","285-BY","2018/12/24 18:19:26","新北市瑞芳區逢甲路15號","121.809781666667","25.1086733333333","6501200","瑞芳區"
"224007","275-VK","2018/12/24 18:19:29","新北市瑞芳區大埔路59號","121.764396666667","25.10195","6501200","瑞芳區"
"224009","273-VK","2018/12/24 18:19:18","新北市瑞芳區五號路4號","121.85478","25.1103866666667","6501200","瑞芳區"
"224005","271-BY","2018/12/24 18:19:15","新北市瑞芳區建基路二段5號","121.81083","25.13247","6501200","瑞芳區"
"227001","642-TC","2018/12/24 18:19:29","新北市雙溪區共和里中山路2號","121.863795","25.03376","6502500","雙溪區"
"227008","400-TW","2018/12/24 18:19:31","新北市雙溪區牡丹里牡丹73號","121.851706666667","25.059335","6502500","雙溪區"
"253006","032-BX","2018/12/24 18:19:26","新北市石門區老梅路99號","121.546883333333","25.2892716666667","6502200","石門區"
"253005","295-VK","2018/12/24 18:19:29","新北市石門區中央路37-5號","121.56902","25.2962866666667","6502200","石門區"
"222001","KEA-2212","2018/12/24 18:19:27","新北市深坑區北深路二段68號","121.61888","25.0046033333333","6501800","深坑區"
"208002","KEA-2872","2018/12/24 18:19:15","新北市金山區清泉里清水路16巷12號","121.633228333333","25.2305166666667","6502700","金山區"
"208003","665-BX","2018/12/24 18:19:30","新北市金山區民生路196號","121.645461666667","25.2218033333333","6502700","金山區"
"208001","761-BX","2018/12/24 18:19:31","新北市金山區環金路19號","121.640986666667","25.2176816666667","6502700","金山區"
"251004","009-UM","2018/12/24 18:19:25","新北市淡水區民族路91號","121.462665","25.133815","6501000","淡水區"
"251005","010-UM","2018/12/24 18:19:23","新北市淡水區水源街一段122巷37號","121.447165","25.1704766666667","6501000","淡水區"
"251001","011-UM","2018/12/24 18:19:31","新北市淡水區自立路1巷29號","121.462275","25.1294583333333","6501000","淡水區"
"251013","KEA-2871","2018/12/24 18:19:17","新北市淡水區行忠路590號","121.468081666667","25.19922","6501000","淡水區"
"251016","179-VK","2018/12/24 18:19:34","新北市淡水區淡金路三段224號","121.448896666667","25.2048666666667","6501000","淡水區"
"251008","181-VK","2018/12/24 18:19:32","新北市淡水區水源街二段346巷1弄1號","121.463408333333","25.17584","6501000","淡水區"
"251015","182-VK","2018/12/24 18:19:20","新北市淡水區興福寮88巷81號","121.484553333333","25.16537","6501000","淡水區"
"251010","413-VK","2018/12/24 18:19:22","新北市淡水區淡海路180巷12-3號","121.420383333333","25.184645","6501000","淡水區"
"251012","441-VK","2018/12/24 18:19:28","新北市淡水區北新路二段77-5號","121.480443333333","25.1855383333333","6501000","淡水區"
"251006","561-UM","2018/12/24 18:19:19","新北市淡水區新民街76巷36弄1號","121.439456666667","25.1780566666667","6501000","淡水區"
"251011","650-BX","2018/12/24 18:19:15","新北市淡水區坪頂路50號","121.457996666667","25.162485","6501000","淡水區"
"251002","672-BX","2018/12/24 18:19:21","新北市淡水區中正東路一段65號","121.452705","25.1623483333333","6501000","淡水區"
"251003","766-UM","2018/12/24 18:19:15","新北市淡水區北新路180號","121.449393333333","25.1787383333333","6501000","淡水區"
"207003","550-UM","2018/12/24 18:19:34","新北市萬里區野柳里港東路23號","121.68733","25.203695","6502800","萬里區"
"207004","225-TW","2018/12/24 18:19:22","新北市萬里區中幅里中福路123-1號","121.67682","25.1658133333333","6502800","萬里區"
"252002","178-VK","2018/12/24 18:19:25","新北市三芝區中山路二段38號","121.502983333333","25.25518","6502100","三芝區"
"252003","249-BX","2018/12/24 18:19:28","新北市三芝區錫板里海尾14-17號","121.477116666667","25.2586466666667","6502100","三芝區"
"252001","292-VK","2018/12/24 18:19:21","新北市三芝區中興街二段2號","121.498366666667","25.256615","6502100","三芝區"
"237004","KEA-2597","2018/12/24 18:19:20","新北市三峽區大埔路148號","121.365126666667","24.8989933333333","6500900","三峽區"
"237007","153-BY","2018/12/24 18:19:16","新北市三峽區中正路二段355號","121.365445","24.90889","6500900","三峽區"
"237009","210-TH","2018/12/24 18:19:20","新北市三峽區大仁路20號","121.366395","24.93761","6500900","三峽區"
"237013","252-BX","2018/12/24 18:19:27","新北市三峽區介壽路一段232號","121.37851","24.9302833333333","6500900","三峽區"
"237012","275-BY","2018/12/24 18:19:26","新北市三峽區民生街1巷5-64號","121.378741666667","24.93495","6500900","三峽區"
"237008","302-VK","2018/12/24 18:19:33","新北市三峽區白雞64-10號","121.383801666667","24.9123316666667","6500900","三峽區"
"237014","433-BY","2018/12/24 18:19:25","新北市三峽區復興路110巷4弄1號","121.373085","24.9384483333333","6500900","三峽區"
"237006","5529-G3","2018/12/24 18:19:31","新北市三峽區溪東路235號","121.406595","24.9326533333333","6500900","三峽區"
"237011","KEA-2596","2018/12/24 18:19:27","新北市三峽區大同路2-1號","121.378363333333","24.9300333333333","6500900","三峽區"
"237015","649-BX","2018/12/24 18:19:13","新北市三峽區紫微路6號","121.426411666667","24.9223866666667","6500900","三峽區"
"237010","706-TV","2018/12/24 18:19:30","新北市三峽區中山路61號","121.367573333333","24.934765","6500900","三峽區"
"237005","AKY-6261","2018/12/24 18:19:21","新北市三峽區民生街152-1號","121.371991666667","24.9348883333333","6500900","三峽區"
"236069","105-UM","2018/12/24 18:19:21","新北市土城區永豐路147-1號","121.467185","24.9829633333333","6501300","土城區"
"236042","KED-0685","2018/12/24 18:19:23","新北市土城區樂利街3巷32號","121.448596666667","24.9864466666667","6501300","土城區"
"236078","166-UM","2018/12/24 18:19:27","新北市土城區中央路三段281巷21號","121.425748333333","24.96231","6501300","土城區"
"236030","253-BX","2018/12/24 18:19:28","新北市土城區順風路65號","121.440306666667","24.9774316666667","6501300","土城區"
"236026","269-VK","2018/12/24 18:19:25","新北市土城區承天路20號","121.439503333333","24.9633316666667","6501300","土城區"
"236014","270-VK","2018/12/24 18:19:18","新北市土城區青雲路39巷7號","121.460295","24.98743","6501300","土城區"
"236039","271-VK","2018/12/24 18:19:32","新北市土城區青雲路483巷9號","121.459351666667","24.9735583333333","6501300","土城區"
"236020","401-BY","2018/12/24 18:19:16","新北市土城區明德路一段385-1號","121.452445","24.9796216666667","6501300","土城區"
"236055","752-BX","2018/12/24 18:19:16","新北市土城區中華路二段92號","121.438238333333","24.9746716666667","6501300","土城區"
"236059","912-UM","2018/12/24 18:19:16","新北市土城區中央路四段466號","121.409931666667","24.95061","6501300","土城區"
"236048","913-UM","2018/12/24 18:19:29","新北市土城區明德路一段361-2號","121.456471666667","24.9776566666667","6501300","土城區"
"236063","915-UM","2018/12/24 18:19:28","新北市土城區中正路5號","121.442481666667","24.9751083333333","6501300","土城區"
"242058","986-R7","2018/12/24 18:19:22","新北市新莊區雙鳳路134巷6號","121.412888333333","25.0281516666667","6500500","新莊區"
"242056","751-BX","2018/12/24 18:19:35","新北市新莊區瓊林路13-3號","121.448841666667","25.03094","6500500","新莊區"
"242027","615-BX","2018/12/24 18:19:25","新北市新莊區幸福路823號","121.445236666667","25.04897","6500500","新莊區"
"242025","613-BX","2018/12/24 18:19:18","新北市新莊區五權一路12巷9弄13號","121.457685","25.06514","6500500","新莊區"
"242029","612-BX","2018/12/24 18:19:18","新北市新莊區新泰路357巷3弄57號","121.44212","25.0392266666667","6500500","新莊區"
"242044","566-BX","2018/12/24 18:19:24","新北市新莊區鳳山街56巷45號","121.413456666667","25.02705","6500500","新莊區"
"242021","442-UM","2018/12/24 18:19:18","新北市新莊區中正路255號","121.449995","25.0354816666667","6500500","新莊區"
"242053","441-UM","2018/12/24 18:19:20","新北市新莊區民安西路454號","121.431075","25.0083333333333","6500500","新莊區"
"242002","440-UM","2018/12/24 18:19:13","新北市新莊區思明街6號","121.45572","25.035005","6500500","新莊區"
"242039","415-TV","2018/12/24 18:19:16","新北市新莊區新樹路206巷18號","121.432833333333","25.02186","6500500","新莊區"
"242009","413-TV","2018/12/24 18:19:20","新北市新莊區中港一街112號","121.448735","25.0452133333333","6500500","新莊區"
"242046","400-BY","2018/12/24 18:19:14","新北市新莊區中正路829巷22弄41號","121.420801666667","25.0267316666667","6500500","新莊區"
"242060","353-BY","2018/12/24 18:19:20","新北市新莊區新樹路157號","121.43666","25.0254316666667","6500500","新莊區"
"242011","132-UY","2018/12/24 18:19:31","新北市新莊區中榮街41號","121.44976","25.0526983333333","6500500","新莊區"
"242050","172-VK","2018/12/24 18:19:21","新北市新莊區民安西路37號","121.427611666667","25.0208983333333","6500500","新莊區"
"242007","346-TH","2018/12/24 18:19:17","新北市新莊區自信街2號","121.453156666667","25.048205","6500500","新莊區"
"242031","348-TH","2018/12/24 18:19:32","新北市新莊區新泰路255巷25號","121.445131666667","25.03969","6500500","新莊區"
"242004","349-TH","2018/12/24 18:19:26","新北市新莊區新泰路355號","121.444471666667","25.0425216666667","6500500","新莊區"
"242015","351-TH","2018/12/24 18:19:17","新北市新莊區中和街125巷11號","121.446695","25.048375","6500500","新莊區"
"238015","755-BX","2018/12/24 18:19:28","新北市樹林區啟智街173巷2號","121.415763333333","24.9876133333333","6500700","樹林區"
"238023","601-UM","2018/12/24 18:19:25","新北市樹林區三福街47巷24號","121.407498333333","25.01506","6500700","樹林區"
"238019","599-UM","2018/12/24 18:19:24","新北市樹林區國凱街160號","121.424393333333","24.980905","6500700","樹林區"
"238018","571-TV","2018/12/24 18:19:29","新北市樹林區樹新路28巷7號","121.427498333333","24.9943033333333","6500700","樹林區"
"238024","5061-A6","2018/12/24 18:19:25","新北市樹林區中山路一段233號","121.420901666667","24.9869433333333","6500700","樹林區"
"238025","303-VK","2018/12/24 18:19:17","新北市樹林區保安街一段98號","121.424058333333","24.9947816666667","6500700","樹林區"
"238017","283-BY","2018/12/24 18:19:16","新北市樹林區保安街二段333巷2號","121.412516666667","25.007625","6500700","樹林區"
"238014","282-BY","2018/12/24 18:19:23","新北市樹林區潭興街89號","121.424631666667","24.9984316666667","6500700","樹林區"
"238020","268-VK","2018/12/24 18:19:16","新北市樹林區三俊街69號","121.413491666667","25.0162883333333","6500700","樹林區"
"238026","172-UY","2018/12/24 18:19:25","新北市樹林區佳園路一段75巷11弄53號","121.395141666667","24.9699533333333","6500700","樹林區"
"238016","169-UY","2018/12/24 18:19:10","新北市樹林區中山路二段78號","121.415155","24.9839383333333","6500700","樹林區"
"239007","AAC-297","2018/12/24 18:19:27","新北市鶯歌區尖山埔路52號","121.348745","24.951065","6500800","鶯歌區"
"239006","891-R6","2018/12/24 18:19:16","新北市鶯歌區德昌街140巷30號","121.332386666667","24.961665","6500800","鶯歌區"
"239006","661-UM","2018/12/24 18:19:17","新北市鶯歌區福安街58號","121.33559","24.9652483333333","6500800","鶯歌區"
"239008","527-UM","2018/12/24 18:19:21","新北市鶯歌區國際一路179號","121.336243333333","24.9764883333333","6500800","鶯歌區"
"239005","526-UM","2018/12/24 18:19:13","新北市鶯歌區鶯桃路668巷74-1號","121.32992","24.9716983333333","6500800","鶯歌區"
"239001","417-VK","2018/12/24 18:19:22","新北市鶯歌區中正三路福德巷19號","121.339938333333","24.9409133333333","6500800","鶯歌區"
"239004","193-VK","2018/12/24 18:19:29","新北市鶯歌區黃厝街7巷26號","121.344385","24.9461966666667","6500800","鶯歌區"
"221008","489-VK","2018/12/24 18:19:24","新北市汐止區汐萬路一段301號","121.6495","25.07583","6501100","汐止區"
"221036","130-UY","2018/12/24 18:19:26","新北市汐止區長興街一段19號","121.669551666667","25.07884","6501100","汐止區"
"221015","131-UY","2018/12/24 18:19:25","新北市汐止區鄉長路二段23巷3號","121.667315","25.0825983333333","6501100","汐止區"
"221010","269-BY","2018/12/24 18:19:27","新北市汐止區祥雲街18巷12號","121.646636666667","25.0894833333333","6501100","汐止區"
"221012","278-VK","2018/12/24 18:19:21","新北市汐止區保長路27巷13號","121.67297","25.0803183333333","6501100","汐止區"
"221023","279-VK","2018/12/24 18:19:33","新北市汐止區中興路244號","121.629483333333","25.068145","6501100","汐止區"
"221032","280-BY","2018/12/24 18:19:18","新北市汐止區橫科路2巷1號","121.617076666667","25.0513933333333","6501100","汐止區"
"221027","281-BY","2018/12/24 18:19:28","新北市汐止區和平街21號","121.662861666667","25.0707033333333","6501100","汐止區"
"221029","298-VK","2018/12/24 18:19:15","新北市汐止區汐萬路一段329號","121.649825","25.07571","6501100","汐止區"
"221021","299-VK","2018/12/24 18:19:29","新北市汐止區連興街120號","121.653736666667","25.0624966666667","6501100","汐止區"
"221031","353-TW","2018/12/24 18:19:24","新北市汐止區大同路一段209號","121.633668333333","25.0573583333333","6501100","汐止區"
"221025","623-UM","2018/12/24 18:19:21","新北市汐止區勤進路12巷37號","121.659113333333","25.0626566666667","6501100","汐止區"
"221038","646-BX","2018/12/24 18:19:16","新北市汐止區新台五路二段85巷12號","121.664473333333","25.067375","6501100","汐止區"
"221033","647-BX","2018/12/24 18:19:19","新北市汐止區宜興街63號","121.622455","25.04307","6501100","汐止區"
"221002","707-TV","2018/12/24 18:19:31","新北市汐止區福德一路201巷30號","121.635931666667","25.0650333333333","6501100","汐止區"
"221018","753-BX","2018/12/24 18:19:33","新北市汐止區茄苳路120巷4號","121.667651666667","25.0700266666667","6501100","汐止區"
"220079","145-BY","2018/12/24 18:19:13","","0","0","6500100","板橋區"
"220082","610-BX","2018/12/24 18:19:18","新北市板橋區華東街1-10號","121.44823","24.9949716666667","6500100","板橋區"
"224002","257-TC","2018/12/24 18:19:24","新北市瑞芳區三爪子坑路149巷32號","121.811788333333","25.1066666666667","6501200","瑞芳區"
"220083","286-VK","2018/12/24 18:19:34","新北市板橋區華東街1-10號","121.448343333333","24.9950516666667","6500100","板橋區"
"242042","281-VK","2018/12/24 18:19:34","新北市新莊區天祥街135巷13號","121.413713333333","25.02931","6500500","新莊區"
"220075","303-R5","2018/12/24 18:19:13","新北市板橋區華東街1-10號","121.448283333333","24.9949766666667","6500100","板橋區"
"220035","560-BX","2018/12/24 18:19:25","新北市板橋區南雅南路二段118號","121.45306","24.9997916666667","6500100","板橋區"
"220054","741-BX","2018/12/24 18:19:20","新北市板橋區華東街1-9號","121.448113333333","24.99489","6500100","板橋區"
"220074","895-R6","2018/12/24 18:19:33","新北市板橋區華東街1-9號","121.44824","24.9949516666667","6500100","板橋區"
"220073","985-R7","2018/12/24 18:19:25","新北市板橋區華東街1-10號","121.448278333333","24.994905","6500100","板橋區"
"220064","AAC-253","2018/12/24 18:19:24","新北市板橋區華東街1-10號","121.448385","24.9949266666667","6500100","板橋區"
"235068","KEA-2873","2018/12/24 18:19:24","新北市中和區員山路36巷16-2號","121.485246666667","24.991485","6500300","中和區"
"235025","KEA-2875","2018/12/24 18:19:21","新北市中和區國光街215巷26號","121.467135","25.00028","6500300","中和區"
"235047","KEA-2876","2018/12/24 18:19:21","新北市中和區復興路276號","121.502563333333","24.990395","6500300","中和區"
