"lineid","car","time","location","longitude","latitude","cityid","cityname"
"234046","148-BY","2018/12/24 18:49:24","新北市永和區秀朗路二段155號","121.525088333333","25.0015783333333","6500400","永和區"
"234081","298-R6","2018/12/24 18:49:31","新北市永和區永利路108號","121.521245","25.0034166666667","6500400","永和區"
"234038","336-UY","2018/12/24 18:49:22","新北市永和區成功路一段128號","121.526835","25.00225","6500400","永和區"
"234064","337-UY","2018/12/24 18:49:32","新北市永和區福和路1號","121.525778333333","25.0094716666667","6500400","永和區"
"234070","552-UM","2018/12/24 18:49:30","新北市永和區豫溪街189巷1號","121.522616666667","25.0102833333333","6500400","永和區"
"234086","553-UM","2018/12/24 18:49:34","新北市永和區中正路75號","121.515095","24.9967966666667","6500400","永和區"
"234017","745-BX","2018/12/24 18:49:24","新北市永和區永和路二段395-1號","121.515291666667","25.0169333333333","6500400","永和區"
"234030","746-BX","2018/12/24 18:49:18","新北市永和區得和路323號","121.523421666667","24.999755","6500400","永和區"
"234054","KEA-2590","2018/12/24 18:49:18","新北市永和區豫溪街139號","121.52055","25.0103466666667","6500400","永和區"
"234007","839-RS","2018/12/24 18:49:31","新北市永和區文化路146號","121.512681666667","25.0153066666667","6500400","永和區"
"234013","KEA-2591","2018/12/24 18:49:29","新北市永和區保福路二段133巷37號","121.508985","25.0133333333333","6500400","永和區"
"234061","AAD-866","2018/12/24 18:49:33","新北市永和區福和路313號","121.51618","25.0071166666667","6500400","永和區"
"234042","862-TW","2018/12/24 18:49:27","新北市永和區永貞路306號","121.511885","25.0048333333333","6500400","永和區"
"234050","863-TW","2018/12/24 18:49:18","新北市永和區福和路1號","121.526325","25.009855","6500400","永和區"
"234026","9371-KE","2018/12/24 18:49:24","新北市永和區保生路55-1號","121.504518333333","25.0108983333333","6500400","永和區"
"234010","9373-KE","2018/12/24 18:49:23","新北市永和區文化路126巷23弄5號","121.512908333333","25.016275","6500400","永和區"
"249005","172-UM","2018/12/24 18:49:18","新北市八里區長道坑7-3號","121.393213333333","25.123055","6502300","八里區"
"249001","173-UM","2018/12/24 18:49:20","新北市八里區龍米路二段16號","121.448993333333","25.1390833333333","6502300","八里區"
"249004","303-UY","2018/12/24 18:49:21","新北市八里區中山路一段89號","121.416311666667","25.1593483333333","6502300","八里區"
"248014","025-BX","2018/12/24 18:49:33","新北市五股區中興路四段74號","121.436975","25.0837733333333","6501500","五股區"
"248016","026-BX","2018/12/24 18:49:17","新北市五股區凌雲路一段149巷42號","121.448651666667","25.1010083333333","6501500","五股區"
"248006","077-UY","2018/12/24 18:49:14","新北市五股區四維路1巷1號","121.46703","25.0700016666667","6501500","五股區"
"248008","095-VK","2018/12/24 18:49:22","新北市五股區中興路一段128巷8號","121.465675","25.07424","6501500","五股區"
"248018","225-UY","2018/12/24 18:49:17","新北市五股區民義路二段48巷1-6號","121.414475","25.1027616666667","6501500","五股區"
"248012","247-BX","2018/12/24 18:49:25","新北市五股區成泰路二段147巷26號","121.438361666667","25.087035","6501500","五股區"
"248010","272-BY","2018/12/24 18:49:34","新北市五股區水碓七路81號","121.42969","25.072235","6501500","五股區"
"248004","677-BX","2018/12/24 18:49:25","新北市五股區民義路二段23-3號","121.417271666667","25.0986933333333","6501500","五股區"
"248002","678-BX","2018/12/24 18:48:44","新北市五股區西雲路267號","121.449298333333","25.0980016666667","6501500","五股區"
"234023","9380-KE","2018/12/24 18:49:29","新北市永和區竹林路119巷45號","121.521906666667","25.0118816666667","6500400","永和區"
"234077","969-R7","2018/12/24 18:49:20","新北市永和區中正路2巷29弄7號","121.51379","24.9938616666667","6500400","永和區"
"234003","AAC-295","2018/12/24 18:49:22","新北市永和區豫溪街33號","121.516488333333","25.009875","6500400","永和區"
"244007","080-UY","2018/12/24 18:49:24","新北市林口區太平里23-3號","121.376323333333","25.11532","6501700","林口區"
"244019","402-UM","2018/12/24 18:49:31","新北市林口區麗園二街3巷1-2號","121.37809","25.069595","6501700","林口區"
"244013","KEA-2802","2018/12/24 18:49:24","新北市林口區文化一路一段100巷10弄16-1號","121.374971666667","25.0711933333333","6501700","林口區"
"244023","483-VK","2018/12/24 18:49:28","新北市林口區信義路281號","121.376233333333","25.0817083333333","6501700","林口區"
"244017","485-VK","2018/12/24 18:49:35","新北市林口區文化二路一段289號","121.36838","25.071535","6501700","林口區"
"244009","656-BX","2018/12/24 18:49:30","新北市林口區竹林路358巷12號","121.392576666667","25.0840266666667","6501700","林口區"
"244011","701-TV","2018/12/24 18:49:28","新北市林口區中正路41巷9號","121.395705","25.0768133333333","6501700","林口區"
"244025","837-TS","2018/12/24 18:49:16","新北市林口區南勢二街313號","121.359493333333","25.0763483333333","6501700","林口區"
"244021","838-TS","2018/12/24 18:49:27","新北市林口區工六路100號","121.401253333333","25.076675","6501700","林口區"
"243013","AAD-798","2018/12/24 18:29:42","新北市泰山區明志路三段206巷3號","121.423265","25.0379266666667","6501600","泰山區"
"243016","KEA-2801","2018/12/24 18:49:23","新北市泰山區明志路二段76號","121.428701666667","25.05232","6501600","泰山區"
"243011","KEA-2215","2018/12/24 18:49:11","新北市泰山區黎明路47號","121.42221","25.0577133333333","6501600","泰山區"
"243010","KEA-2216","2018/12/24 18:49:13","新北市泰山區公園路12號","121.429745","25.05411","6501600","泰山區"
"243012","646-TV","2018/12/24 18:49:29","新北市泰山區福興三街13號","121.43447","25.0577366666667","6501600","泰山區"
"243014","680-BX","2018/12/24 18:49:16","新北市泰山區黎明路25號","121.422151666667","25.0606566666667","6501600","泰山區"
"222003","436-BY","2018/12/24 18:49:17","新北市深坑區深南路51-1號","121.621318333333","25.010135","6501800","深坑區"
"222002","659-BX","2018/12/24 18:49:28","新北市深坑區文山路一段69號","121.627001666667","25.00186","6501800","深坑區"
"231041","002-UM","2018/12/24 18:49:30","新北市新店區安華路28-1號","121.519523333333","24.96076","6500600","新店區"
"231059","046-UY","2018/12/24 18:49:24","新北市新店區安華路28-1號","121.519515","24.9607833333333","6500600","新店區"
"231040","047-UY","2018/12/24 18:49:22","新北市新店區安康路一段48號","121.530518333333","24.9610566666667","6500600","新店區"
"231044","106-UY","2018/12/24 18:49:30","新北市新店區中興路三段3號","121.545948333333","24.9778166666667","6500600","新店區"
"231046","107-UY","2018/12/24 18:49:30","新北市新店區直潭路43號","121.53358","24.9425683333333","6500600","新店區"
"231052","108-UY","2018/12/24 18:49:13","新北市新店區永興路102-4號","121.545888333333","24.9303133333333","6500600","新店區"
"231047","187-VK","2018/12/24 18:49:25","新北市新店區力行路11巷57號","121.538645","24.9617183333333","6500600","新店區"
"231054","KEA-2219","2018/12/24 18:49:22","新北市新店區環河路29巷1號","121.537123333333","24.9613733333333","6500600","新店區"
"221035","KEA-2785","2018/12/24 18:49:34","新北市汐止區大同路二段298號","121.65529","25.0665533333333","6501100","汐止區"
"231065","260-TV","2018/12/24 18:49:16","新北市新店區安忠路205巷8號","121.510128333333","24.955475","6500600","新店區"
"231042","268-BY","2018/12/24 18:49:17","新北市新店區北新路一段91號","121.538821666667","24.96177","6500600","新店區"
"231051","278-BY","2018/12/24 18:49:17","新北市新店區中央路39號","121.532885","24.9777483333333","6500600","新店區"
"231050","AAD-862","2018/12/24 18:49:26","新北市新店區安康路一段140號","121.526573333333","24.962895","6500600","新店區"
"231058","3713-VJ","2018/12/24 18:49:16","新北市新店區北宜路一段105巷4弄3-1號","121.539986666667","24.9556766666667","6500600","新店區"
"231066","4716-K9","2018/12/24 18:49:18","新北市新店區安一路一段1-1號","121.519371666667","24.9611333333333","6500600","新店區"
"231056","4715-K9","2018/12/24 18:49:19","新北市新店區大同街22號","121.539261666667","24.9801933333333","6500600","新店區"
"231067","4772-VM","2018/12/24 18:49:17","新北市新店區安華路28-1號","121.519285","24.9605866666667","6500600","新店區"
"231049","513-UM","2018/12/24 18:49:13","新北市新店區環河路29巷1-1號","121.536091666667","24.961145","6500600","新店區"
"231045","617-UM","2018/12/24 18:49:36","新北市新店區安康路一段220號","121.523866666667","24.9635183333333","6500600","新店區"
"231061","619-UM","2018/12/24 18:49:32","新北市新店區安華路28-1號","121.519601666667","24.96079","6500600","新店區"
"231063","641-BX","2018/12/24 18:49:25","新北市新店區安華路28-1號","121.51952","24.96052","6500600","新店區"
"231064","719-UM","2018/12/24 18:49:29","新北市新店區安一路一段1-1號","121.519548333333","24.9610916666667","6500600","新店區"
"231062","720-UM","2018/12/24 18:49:28","新北市新店區安一路一段1-1號","121.519331666667","24.961235","6500600","新店區"
"231060","897-TW","2018/12/24 18:49:15","新北市新店區安華路28-1號","121.519478333333","24.9607516666667","6500600","新店區"
"231043","899-TW","2018/12/24 18:49:31","新北市新店區安康路一段188號","121.524745","24.9633516666667","6500600","新店區"
"231055","AKT-0513","2018/12/24 18:49:19","新北市新店區新生街10巷6號","121.540425","24.9662983333333","6500600","新店區"
"251014","742-BX","2018/12/24 18:49:19","新北市淡水區崙頂4-1號","121.49269","25.2237633333333","6501000","淡水區"
"235064","005-UY","2018/12/24 18:49:32","新北市中和區泰和街50號","121.498918333333","24.9996233333333","6500300","中和區"
"235063","006-UY","2018/12/24 18:49:27","新北市中和區錦和路95號","121.490068333333","24.9955566666667","6500300","中和區"
"235056","096-UM","2018/12/24 18:49:16","新北市中和區員山路518號","121.478915","25.009585","6500300","中和區"
"235039","097-UM","2018/12/24 18:49:27","新北市中和區宜安路52巷12號","121.512393333333","24.9970533333333","6500300","中和區"
"235040","150-BY","2018/12/24 18:49:26","新北市中和區安平路36巷1號","121.510158333333","24.99491","6500300","中和區"
"235058","151-BY","2018/12/24 18:49:32","新北市中和區連城路534巷4號","121.4755","24.9914366666667","6500300","中和區"
"235055","183-VK","2018/12/24 18:49:21","新北市中和區民生街48號","121.469406666667","25.0051883333333","6500300","中和區"
"235038","185-VK","2018/12/24 18:49:21","新北市中和區大勇街62號","121.51781","24.99459","6500300","中和區"
"235049","186-VK","2018/12/24 18:49:28","新北市中和區景安路132巷16號","121.504225","24.9942866666667","6500300","中和區"
"235067","255-BX","2018/12/24 18:49:26","新北市中和區中正路839巷27號","121.48386","25.002045","6500300","中和區"
"235044","293-VK","2018/12/24 18:49:31","新北市中和區中興街165號","121.499903333333","24.9906716666667","6500300","中和區"
"235072","301-VK","2018/12/24 18:49:16","新北市中和區中山路二段75號","121.50377","25.0043166666667","6500300","中和區"
"235042","KEA-2878","2018/12/24 18:49:19","新北市中和區秀朗路三段153巷16弄9號","121.525833333333","24.9915116666667","6500300","中和區"
"247012","KEA-2869","2018/12/24 18:49:14","新北市八里區荖阡坑路7-2號","121.398313333333","25.1417833333333","6501400","蘆洲區"
"235050","4979-A6","2018/12/24 18:49:30","新北市中和區忠孝街62巷9弄10號","121.513168333333","24.98396","6500300","中和區"
"235069","4980-A6","2018/12/24 18:49:28","新北市中和區南山路111巷16號","121.502633333333","24.9977216666667","6500300","中和區"
"235070","558-UM","2018/12/24 18:49:22","新北市中和區南山路13號","121.502138333333","24.9992666666667","6500300","中和區"
"235045","565-BX","2018/12/24 18:49:29","新北市中和區興南路一段25號","121.5112","24.9907283333333","6500300","中和區"
"235054","640-BX","2018/12/24 18:49:25","新北市中和區自治街28號","121.474878333333","25.003255","6500300","中和區"
"235060","647-TV","2018/12/24 18:49:26","新北市中和區中山路三段150號","121.473545","25.00631","6500300","中和區"
"235046","733-UM","2018/12/24 18:49:24","新北市中和區仁愛街36巷40號","121.511273333333","24.9865183333333","6500300","中和區"
"235071","783-BX","2018/12/24 18:49:24","新北市中和區員山路36巷16-3號","121.485183333333","24.991195","6500300","中和區"
"235062","800-TS","2018/12/24 18:49:21","新北市中和區中山路二段328-3號","121.494958333333","25.0022883333333","6500300","中和區"
"235057","801-TS","2018/12/24 18:49:35","新北市中和區民利街14巷3-3號","121.480626666667","24.999505","6500300","中和區"
"235041","802-TS","2018/12/24 18:49:18","新北市中和區安平路157號","121.512315","24.9982966666667","6500300","中和區"
"235052","805-TS","2018/12/24 18:49:24","新北市中和區興南路二段399巷56號","121.499651666667","24.9788666666667","6500300","中和區"
"235048","896-TW","2018/12/24 18:49:26","新北市中和區華新街13號","121.50753","24.9850983333333","6500300","中和區"
"235053","900-TW","2018/12/24 18:49:17","新北市中和區民德路290巷21號","121.466336666667","24.99598","6500300","中和區"
"235065","911-UM","2018/12/24 18:49:26","新北市中和區莊敬路33巷48號","121.500585","25.0070933333333","6500300","中和區"
"235051","157-BY","2018/12/24 18:49:31","新北市中和區忠孝街29號","121.510538333333","24.9830166666667","6500300","中和區"
"235037","AAC-213","2018/12/24 18:49:31","新北市中和區秀朗路三段175巷4號","121.524665","24.9913066666667","6500300","中和區"
"235059","AAC-215","2018/12/24 18:49:17","新北市中和區錦和路410號","121.490888333333","24.9895033333333","6500300","中和區"
"220065","072-UY","2018/12/24 18:49:20","新北市板橋區四川路一段22號","121.459506666667","25.0064183333333","6500100","板橋區"
"220086","073-UY","2018/12/24 18:49:20","新北市板橋區大智街22號","121.455716666667","25.014935","6500100","板橋區"
"220106","075-UY","2018/12/24 18:49:16","新北市板橋區莒光路58號","121.470905","25.0242333333333","6500100","板橋區"
"220017","AAD-861","2018/12/24 18:49:21","新北市板橋區華興街73-1號","121.457038333333","25.0050133333333","6500100","板橋區"
"220016","120-SR","2018/12/24 18:40:35","新北市板橋區民族路219巷67號","121.468401666667","25.0091083333333","6500100","板橋區"
"226004","312-R5","2018/12/24 18:49:30","新北市平溪區平溪里三坑路40-2號","121.7312","25.034815","6502400","平溪區"
"228003","097-TW","2018/12/24 18:49:07","新北市貢寮區和美里龍洞街63-7號","121.917328333333","25.118405","6502600","貢寮區"
"228002","585-TW","2018/12/24 18:49:23","新北市貢寮區福隆里東興街6-11號","121.95071","25.021055","6502600","貢寮區"
"228001","670-TC","2018/12/24 18:49:13","新北市貢寮區仁理村保健街73號","121.923733333333","25.0517116666667","6502600","貢寮區"
"224010","AGQ-8101","2018/12/24 18:49:25","新北市瑞芳區山尖路174號","121.847856666667","25.1119066666667","6501200","瑞芳區"
"224006","676-BX","2018/12/24 18:49:18","新北市瑞芳區中正路100號","121.805133333333","25.107735","6501200","瑞芳區"
"224008","285-BY","2018/12/24 18:49:26","新北市瑞芳區逢甲路285-1號","121.801388333333","25.1119516666667","6501200","瑞芳區"
"224007","275-VK","2018/12/24 18:49:14","新北市瑞芳區大埔路122號","121.762086666667","25.1010333333333","6501200","瑞芳區"
"224009","273-VK","2018/12/24 18:49:18","新北市瑞芳區祈堂路2號","121.859753333333","25.111755","6501200","瑞芳區"
"224005","271-BY","2018/12/24 18:49:35","新北市瑞芳區濱二路66-6號","121.831125","25.1197383333333","6501200","瑞芳區"
"227001","642-TC","2018/12/24 18:49:29","新北市雙溪區平林里梅竹蹊28號","121.861648333333","25.0360116666667","6502500","雙溪區"
"227008","400-TW","2018/12/24 18:49:31","新北市雙溪區牡丹里聖南31-1號","121.856185","25.05366","6502500","雙溪區"
"253006","032-BX","2018/12/24 18:49:26","新北市石門區下員坑15號","121.511613333333","25.2849883333333","6502200","石門區"
"253005","295-VK","2018/12/24 18:49:29","新北市石門區中山路28-3號","121.565753333333","25.2899116666667","6502200","石門區"
"222001","KEA-2212","2018/12/24 18:49:27","新北市深坑區松柏街30巷2號","121.63867","25.01123","6501800","深坑區"
"208002","KEA-2872","2018/12/24 18:49:23","新北市金山區信義路61號","121.635913333333","25.2191333333333","6502700","金山區"
"208003","665-BX","2018/12/24 18:49:30","新北市金山區中山路346號","121.633421666667","25.2253383333333","6502700","金山區"
"208001","761-BX","2018/12/24 18:49:31","新北市金山區文化三路62號","121.634355","25.2256016666667","6502700","金山區"
"251009","008-UM","2018/12/24 18:49:21","新北市淡水區重建街174號","121.440755","25.1740683333333","6501000","淡水區"
"251004","009-UM","2018/12/24 18:49:21","新北市淡水區民權路3巷36號","121.462631666667","25.14452","6501000","淡水區"
"251001","011-UM","2018/12/24 18:49:21","新北市淡水區自強路86號","121.462726666667","25.1281916666667","6501000","淡水區"
"251013","KEA-2871","2018/12/24 18:49:17","新北市淡水區安子內5號","121.483435","25.2146716666667","6501000","淡水區"
"251016","179-VK","2018/12/24 18:49:31","新北市淡水區下圭柔山71-3號","121.447005","25.2061916666667","6501000","淡水區"
"251015","182-VK","2018/12/24 18:49:20","新北市淡水區糞箕湖20號","121.485628333333","25.1710233333333","6501000","淡水區"
"251010","413-VK","2018/12/24 18:49:31","新北市淡水區沙崙路15號","121.421228333333","25.1813083333333","6501000","淡水區"
"251012","441-VK","2018/12/24 18:49:28","新北市淡水區新興街36號","121.442768333333","25.1804716666667","6501000","淡水區"
"251007","442-VK","2018/12/24 18:49:17","新北市淡水區中正東路二段143巷2弄1號","121.460591666667","25.14727","6501000","淡水區"
"251006","561-UM","2018/12/24 18:49:19","新北市淡水區崁頂75-2號","121.435531666667","25.2038633333333","6501000","淡水區"
"251011","650-BX","2018/12/24 18:49:15","新北市淡水區學府路3號","121.447213333333","25.16795","6501000","淡水區"
"251002","672-BX","2018/12/24 18:49:21","新北市淡水區學府路67號","121.448398333333","25.1696583333333","6501000","淡水區"
"251003","766-UM","2018/12/24 18:49:35","新北市淡水區北新路65號","121.446186666667","25.178485","6501000","淡水區"
"207003","550-UM","2018/12/24 18:49:14","新北市萬里區大鵬里頂社1號","121.657016666667","25.2096983333333","6502800","萬里區"
"207004","225-TW","2018/12/24 18:49:22","新北市萬里區萬里里獅頭路23號","121.693221666667","25.1782533333333","6502800","萬里區"
"252002","178-VK","2018/12/24 18:49:25","新北市三芝區中正路一段112號","121.504823333333","25.2564116666667","6502100","三芝區"
"252003","249-BX","2018/12/24 18:49:27","新北市三芝區後厝里大片頭76號","121.459346666667","25.2461866666667","6502100","三芝區"
"252001","292-VK","2018/12/24 18:49:21","新北市三芝區中正路三段9號","121.50286","25.2540116666667","6502100","三芝區"
"237004","KEA-2597","2018/12/24 18:49:20","新北市三峽區金敏17號","121.391265","24.874475","6500900","三峽區"
"237007","153-BY","2018/12/24 18:49:28","新北市三峽區中正路二段458號","121.36449","24.9073316666667","6500900","三峽區"
"237009","210-TH","2018/12/24 18:49:20","新北市三峽區民權街173號","121.367935","24.9300166666667","6500900","三峽區"
"237013","252-BX","2018/12/24 18:49:18","新北市三峽區光明路69巷25號","121.376601666667","24.92921","6500900","三峽區"
"237012","275-BY","2018/12/24 18:49:26","新北市三峽區三樹路277號","121.379028333333","24.943145","6500900","三峽區"
"237008","302-VK","2018/12/24 18:49:33","新北市三峽區白雞33-60號","121.370893333333","24.9131166666667","6500900","三峽區"
"237014","433-BY","2018/12/24 18:49:25","新北市三峽區復興路480巷28號","121.359175","24.9399233333333","6500900","三峽區"
"237006","5529-G3","2018/12/24 18:49:31","新北市三峽區溪東路315巷59號","121.41181","24.9312383333333","6500900","三峽區"
"237011","KEA-2596","2018/12/24 18:49:27","新北市三峽區溪東路345號","121.411123333333","24.929745","6500900","三峽區"
"237015","649-BX","2018/12/24 18:49:33","新北市三峽區建安74-12號","121.454328333333","24.9230466666667","6500900","三峽區"
"237010","706-TV","2018/12/24 18:49:30","新北市三峽區復興路361號","121.363691666667","24.9386116666667","6500900","三峽區"
"237005","AKY-6261","2018/12/24 18:49:21","新北市三峽區民生街100號","121.37392","24.935515","6500900","三峽區"
"236069","105-UM","2018/12/24 18:49:21","新北市土城區延吉街292號","121.464735","24.9840966666667","6501300","土城區"
"236042","KED-0685","2018/12/24 18:49:23","新北市土城區裕民路114巷29號","121.450325","24.98561","6501300","土城區"
"236078","166-UM","2018/12/24 18:49:27","新北市土城區中央路四段67巷36號","121.417868333333","24.9570966666667","6501300","土城區"
"236030","253-BX","2018/12/24 18:49:28","新北市土城區忠義路36巷24號","121.439745","24.9695416666667","6501300","土城區"
"236026","269-VK","2018/12/24 18:49:30","新北市土城區興城路48號","121.441351666667","24.972615","6501300","土城區"
"236014","270-VK","2018/12/24 18:49:18","新北市土城區金城路二段354巷10號","121.460895","24.9844583333333","6501300","土城區"
"236039","271-VK","2018/12/24 18:49:32","新北市土城區仁愛路54巷2-4號","121.462373333333","24.9786083333333","6501300","土城區"
"236020","401-BY","2018/12/24 18:49:16","新北市土城區延安街33巷2號","121.467888333333","24.9845516666667","6501300","土城區"
"236055","752-BX","2018/12/24 18:49:16","新北市土城區裕民路173號","121.453235","24.98495","6501300","土城區"
"236059","912-UM","2018/12/24 18:49:16","新北市土城區金城路一段150-1號","121.445996666667","24.9746716666667","6501300","土城區"
"236048","913-UM","2018/12/24 18:49:28","新北市土城區青雲路6-2號","121.460225","24.9892933333333","6501300","土城區"
"236063","915-UM","2018/12/24 18:49:28","新北市土城區延壽路55巷9弄4號","121.469578333333","24.9915716666667","6501300","土城區"
"242058","986-R7","2018/12/24 18:49:24","新北市新莊區中正路891-46號","121.413648333333","25.022775","6500500","新莊區"
"242002","440-UM","2018/12/24 18:40:47","新北市新莊區三和路12-21號","121.442015","25.0388416666667","6500500","新莊區"
"238023","601-UM","2018/12/24 18:49:25","新北市樹林區工興街14巷1號","121.399021666667","25.0136933333333","6500700","樹林區"
"238019","599-UM","2018/12/24 18:49:24","新北市樹林區中華路190-16號","121.411646666667","24.98053","6500700","樹林區"
"238024","5061-A6","2018/12/24 18:49:25","新北市樹林區太平路247巷4號","121.419005","24.9750816666667","6500700","樹林區"
"238025","303-VK","2018/12/24 18:49:17","新北市樹林區中山路三段22號","121.395561666667","24.97284","6500700","樹林區"
"238014","282-BY","2018/12/24 18:49:23","新北市樹林區保安街一段195號","121.420783333333","24.9958916666667","6500700","樹林區"
"238020","268-VK","2018/12/24 18:49:16","新北市樹林區俊英街280號","121.42373","25.0133033333333","6500700","樹林區"
"238026","172-UY","2018/12/24 18:49:25","新北市樹林區中山路三段174號","121.388833333333","24.9699733333333","6500700","樹林區"
"238016","169-UY","2018/12/24 18:49:30","新北市樹林區中山路二段34號","121.417393333333","24.9850566666667","6500700","樹林區"
"239007","AAC-297","2018/12/24 18:49:27","新北市鶯歌區中正一路建德巷38號","121.364498333333","24.95781","6500800","鶯歌區"
"239006","891-R6","2018/12/24 18:49:15","新北市鶯歌區二甲路12-2號","121.345828333333","24.93528","6500800","鶯歌區"
"239006","661-UM","2018/12/24 18:49:17","新北市鶯歌區鶯桃路607號","121.329168333333","24.9690883333333","6500800","鶯歌區"
"239008","527-UM","2018/12/24 18:49:24","新北市鶯歌區晨曦街13號","121.33754","24.9764766666667","6500800","鶯歌區"
"239005","526-UM","2018/12/24 18:49:13","新北市鶯歌區鳳吉一街170號","121.328983333333","24.975645","6500800","鶯歌區"
"239001","417-VK","2018/12/24 18:49:22","新北市鶯歌區尖山埔路114號","121.344228333333","24.9500783333333","6500800","鶯歌區"
"239004","193-VK","2018/12/24 18:49:29","新北市鶯歌區中正三路283-13號","121.331035","24.9372533333333","6500800","鶯歌區"
"221008","489-VK","2018/12/24 18:25:08","新北市汐止區康寧街901號","121.651456666667","25.0750516666667","6501100","汐止區"
"221036","130-UY","2018/12/24 18:49:26","新北市汐止區仁愛路326號","121.664366666667","25.0679633333333","6501100","汐止區"
"221015","131-UY","2018/12/24 18:49:25","新北市汐止區鄉長路一段297號","121.669185","25.0791883333333","6501100","汐止區"
"221010","269-BY","2018/12/24 18:49:30","新北市汐止區汐萬路二段37巷2號","121.649511666667","25.0814583333333","6501100","汐止區"
"221012","278-VK","2018/12/24 18:49:21","新北市汐止區汐萬路一段256巷3號","121.653421666667","25.07481","6501100","汐止區"
"221023","279-VK","2018/12/24 18:49:33","新北市汐止區汐萬路一段256巷3號","121.653416666667","25.0744833333333","6501100","汐止區"
"221032","280-BY","2018/12/24 18:49:23","新北市汐止區橫科路40-2號","121.620808333333","25.0504033333333","6501100","汐止區"
"221027","281-BY","2018/12/24 18:49:28","新北市汐止區汐萬路一段256巷3號","121.65343","25.07469","6501100","汐止區"
"221029","298-VK","2018/12/24 18:49:15","新北市汐止區工建路40號","121.641451666667","25.0630733333333","6501100","汐止區"
"221021","299-VK","2018/12/24 18:49:29","新北市汐止區大同路二段267號","121.652283333333","25.0664683333333","6501100","汐止區"
"221031","353-TW","2018/12/24 18:49:24","新北市汐止區福德一路300巷27號","121.630548333333","25.0642366666667","6501100","汐止區"
"221025","623-UM","2018/12/24 18:49:21","新北市汐止區仁愛路75號","121.661106666667","25.0629616666667","6501100","汐止區"
"221038","646-BX","2018/12/24 18:49:36","新北市汐止區康寧街901號","121.650716666667","25.0752933333333","6501100","汐止區"
"221033","647-BX","2018/12/24 18:49:19","新北市汐止區南勢街1巷1號","121.62706","25.03743","6501100","汐止區"
"221002","707-TV","2018/12/24 18:49:31","新北市汐止區大同路一段203號","121.633496666667","25.057275","6501100","汐止區"
"221018","753-BX","2018/12/24 18:49:13","新北市汐止區茄苳路23號","121.665216666667","25.0708783333333","6501100","汐止區"
"220079","145-BY","2018/12/24 18:49:35","新北市板橋區大智街71巷40號","121.452913333333","25.0143733333333","6500100","板橋區"
"220080","200-UY","2018/12/24 18:49:26","新北市板橋區大觀路二段265巷60弄31號","121.441868333333","24.99786","6500100","板橋區"
"220082","610-BX","2018/12/24 18:49:18","新北市板橋區篤行路三段64號","121.42798","24.9863816666667","6500100","板橋區"
"224002","257-TC","2018/12/24 18:49:23","新北市瑞芳區靜安路四段28號","121.797681666667","25.0912016666667","6501200","瑞芳區"
"220056","276-BY","2018/12/24 18:49:26","新北市板橋區四川路一段159號","121.460026666667","25.0037966666667","6500100","板橋區"
"220072","277-BY","2018/12/24 18:49:17","新北市樹林區樹新路205-3號","121.429605","24.9979533333333","6500100","板橋區"
"220101","280-UM","2018/12/24 18:49:17","新北市板橋區文化路二段182巷27號","121.47245","25.0264916666667","6500100","板橋區"
"220071","283-VK","2018/12/24 18:49:31","新北市板橋區四川路一段25號","121.459526666667","25.0068083333333","6500100","板橋區"
"220094","285-UM","2018/12/24 18:49:24","新北市板橋區文化路二段76號","121.469468333333","25.025065","6500100","板橋區"
"220053","285-VK","2018/12/24 18:49:35","新北市板橋區永豐街51-2號","121.474071666667","25.0180066666667","6500100","板橋區"
"220083","286-VK","2018/12/24 18:49:34","新北市板橋區僑中二街2號","121.447355","25.011285","6500100","板橋區"
"220081","287-VK","2018/12/24 18:49:35","新北市板橋區光華街15巷18號","121.453511666667","25.01174","6500100","板橋區"
"220090","288-VK","2018/12/24 18:49:17","新北市板橋區四維路177巷4弄4號","121.463871666667","25.02626","6500100","板橋區"
"220061","293-UM","2018/12/24 18:49:28","新北市板橋區富山街109巷63弄27號","121.475358333333","25.02058","6500100","板橋區"
"220084","296-UM","2018/12/24 18:49:15","新北市板橋區大觀路二段150巷34號","121.441623333333","24.999975","6500100","板橋區"
"220075","303-R5","2018/12/24 18:49:33","新北市板橋區館前西路興義巷5號","121.455008333333","25.0079866666667","6500100","板橋區"
"220062","305-R5","2018/12/24 18:49:15","新北市板橋區觀光街2號","121.472433333333","25.0153283333333","6500100","板橋區"
"220092","307-R5","2018/12/24 18:49:24","新北市板橋區文化路一段104巷1弄20號","121.465423333333","25.0179333333333","6500100","板橋區"
"220098","317-R6","2018/12/24 18:49:29","新北市板橋區民生路二段234巷77號","121.47022","25.0226133333333","6500100","板橋區"
"220089","487-VK","2018/12/24 18:49:26","新北市板橋區仁化街40號","121.475071666667","25.03162","6500100","板橋區"
"220088","491-VK","2018/12/24 18:49:18","新北市板橋區民生路二段216號","121.469318333333","25.0215783333333","6500100","板橋區"
"220035","560-BX","2018/12/24 18:49:29","新北市板橋區中正路325巷45號","121.453105","25.0189266666667","6500100","板橋區"
"220103","561-BX","2018/12/24 18:49:31","新北市板橋區介壽街84巷48號","121.468796666667","25.0185083333333","6500100","板橋區"
"220063","609-BX","2018/12/24 18:49:29","新北市板橋區民生路一段80號","121.473573333333","25.0154983333333","6500100","板橋區"
"220055","630-UY","2018/12/24 18:49:24","新北市板橋區忠孝路138號","121.463686666667","25.002425","6500100","板橋區"
"220091","637-BX","2018/12/24 18:49:29","新北市板橋區雙十路二段47巷44號","121.475106666667","25.0255183333333","6500100","板橋區"
"220077","687-BX","2018/12/24 18:49:24","新北市板橋區大觀路二段174巷139號","121.441365","25.002375","6500100","板橋區"
"220093","689-BX","2018/12/24 18:49:30","新北市板橋區民生路三段52號","121.46728","25.0252266666667","6500100","板橋區"
"220054","741-BX","2018/12/24 18:49:24","新北市板橋區後埔街19號","121.460435","25.00661","6500100","板橋區"
"220102","KEA-2699","2018/12/24 18:49:27","新北市板橋區萬板路478號","121.480006666667","25.025995","6500100","板橋區"
"220067","829-TW","2018/12/24 18:49:21","新北市板橋區三民路二段正隆巷21號","121.477461666667","25.01316","6500100","板橋區"
"220068","830-TW","2018/12/24 18:49:23","新北市板橋區大同街32號","121.478306666667","25.0273533333333","6500100","板橋區"
"220074","895-R6","2018/12/24 18:49:33","新北市板橋區林園街7-1號","121.453906666667","25.0091516666667","6500100","板橋區"
"220073","985-R7","2018/12/24 18:49:25","新北市板橋區館前西路156-1號","121.454973333333","25.0084766666667","6500100","板橋區"
"220097","AAC-210","2018/12/24 18:49:26","新北市板橋區陽明街162號","121.463441666667","25.0244066666667","6500100","板橋區"
"220064","AAC-253","2018/12/24 18:49:23","新北市板橋區中山路一段313號","121.471436666667","25.0146883333333","6500100","板橋區"
"235068","KEA-2873","2018/12/24 18:49:24","新北市中和區中正路219號","121.496533333333","24.9937083333333","6500300","中和區"
"235025","KEA-2875","2018/12/24 18:49:21","新北市中和區民享街48號","121.473975","25.0026766666667","6500300","中和區"
"235047","KEA-2876","2018/12/24 18:49:21","新北市中和區興南路二段34巷57弄2號","121.504853333333","24.98564","6500300","中和區"
