"lineid","car","time","location","longitude","latitude","cityid","cityname"
"234046","148-BY","2018/12/24 19:29:19","新北市永和區秀朗路二段182號","121.52646","25.0010766666667","6500400","永和區"
"234081","298-R6","2018/12/24 19:29:31","新北市永和區環河東路三段52巷8號","121.526341666667","25.00599","6500400","永和區"
"234038","336-UY","2018/12/24 19:29:22","新北市永和區民樂街38號","121.527528333333","25.0007383333333","6500400","永和區"
"234064","337-UY","2018/12/24 19:29:32","新北市永和區得和路243巷29號","121.520728333333","25.0012466666667","6500400","永和區"
"234070","552-UM","2018/12/24 19:29:30","新北市永和區警光街5-1號","121.519765","25.0095183333333","6500400","永和區"
"234086","553-UM","2018/12/24 19:29:34","新北市永和區林森路99號","121.523406666667","25.0036983333333","6500400","永和區"
"234017","745-BX","2018/12/24 19:29:24","新北市永和區環河西路一段63號","121.513388333333","25.0180883333333","6500400","永和區"
"234030","746-BX","2018/12/24 19:29:18","新北市永和區民生路63號","121.522635","24.9973583333333","6500400","永和區"
"234054","KEA-2590","2018/12/24 19:29:18","新北市永和區永和路二段174號","121.515493333333","25.01327","6500400","永和區"
"234007","839-RS","2018/12/24 19:29:31","新北市永和區中山路一段72號","121.512441666667","25.010895","6500400","永和區"
"234013","KEA-2591","2018/12/24 19:29:29","新北市永和區永貞路422號","121.508575","25.0082516666667","6500400","永和區"
"234061","AAD-866","2018/12/24 19:29:33","新北市永和區中正路445號","121.517146666667","25.005295","6500400","永和區"
"234042","862-TW","2018/12/24 19:29:27","新北市永和區水源街33巷1號","121.510835","25.0044366666667","6500400","永和區"
"234050","863-TW","2018/12/24 19:29:18","新北市永和區信義路114號","121.512326666667","25.014385","6500400","永和區"
"234023","9372-KE","2018/12/24 19:29:15","新北市永和區竹林路124巷40號","121.517778333333","25.011135","6500400","永和區"
"234026","9371-KE","2018/12/24 19:29:24","新北市中和區安樂路207號","121.5144","24.9985866666667","6500400","永和區"
"234011","9373-KE","2018/12/24 19:29:23","新北市永和區保福路二段163巷13弄5號","121.509191666667","25.014305","6500400","永和區"
"249003","593-UM","2018/12/24 19:29:16","新北市八里區中山路二段369號","121.398746666667","25.147015","6502300","八里區"
"248014","025-BX","2018/12/24 19:29:26","新北市五股區民義路一段183巷9-3號","121.430421666667","25.0863816666667","6501500","五股區"
"248016","026-BX","2018/12/24 19:29:16","新北市五股區凌雲路一段36號","121.451935","25.1007116666667","6501500","五股區"
"248008","095-VK","2018/12/24 19:29:22","新北市五股區中興路一段97號","121.466623333333","25.0730816666667","6501500","五股區"
"248018","225-UY","2018/12/24 19:26:37","新北市五股區壟路16號","121.415218333333","25.0854783333333","6501500","五股區"
"248012","247-BX","2018/12/24 19:29:25","新北市五股區成泰路二段97號","121.438041666667","25.0842383333333","6501500","五股區"
"248010","272-BY","2018/12/24 19:29:34","新北市五股區自強路90巷72號","121.430745","25.0711916666667","6501500","五股區"
"248004","677-BX","2018/12/24 19:29:25","新北市五股區五福路56號","121.433398333333","25.08972","6501500","五股區"
"248002","678-BX","2018/12/24 19:26:04","新北市五股區凌雲路一段158巷16-1號","121.448215","25.1031033333333","6501500","五股區"
"234023","9380-KE","2018/12/24 19:05:19","新北市永和區竹林路91巷60弄17號","121.522073333333","25.012745","6500400","永和區"
"234077","969-R7","2018/12/24 19:29:20","新北市永和區民治街38號","121.519523333333","24.9977733333333","6500400","永和區"
"234074","AAC-211","2018/12/24 19:29:36","新北市永和區永和路二段264號","121.515998333333","25.015065","6500400","永和區"
"234067","AAC-212","2018/12/24 19:29:18","新北市永和區保平路188號","121.510491666667","25.006485","6500400","永和區"
"234003","AAC-295","2018/12/24 19:29:21","新北市永和區永和路一段118號","121.514183333333","25.0077583333333","6500400","永和區"
"244023","483-VK","2018/12/24 19:29:29","新北市林口區仁愛路二段512號","121.373935","25.0775283333333","6501700","林口區"
"243013","AAD-798","2018/12/24 19:29:36","新北市泰山區貴子路36巷22號","121.42577","25.0408116666667","6501600","泰山區"
"243009","297-R6","2018/12/24 19:29:30","新北市泰山區半山雅1號","121.431911666667","25.067375","6501600","泰山區"
"243016","KEA-2801","2018/12/24 19:29:33","新北市泰山區明志路三段385號","121.421571666667","25.0346483333333","6501600","泰山區"
"243015","421-VK","2018/12/24 19:29:18","新北市泰山區明志路二段136巷1-1號","121.427291666667","25.0511833333333","6501600","泰山區"
"243011","KEA-2215","2018/12/24 19:29:31","新北市泰山區貴子路120號","121.42828","25.0406333333333","6501600","泰山區"
"243010","KEA-2216","2018/12/24 19:29:34","新北市泰山區民生路17巷8號","121.429781666667","25.0520983333333","6501600","泰山區"
"243012","646-TV","2018/12/24 19:29:29","新北市泰山區全興路167號","121.434485","25.0558666666667","6501600","泰山區"
"243014","680-BX","2018/12/24 19:29:18","新北市泰山區仁愛路6巷4弄1號","121.431255","25.0536233333333","6501600","泰山區"
"222003","436-BY","2018/12/24 19:29:17","新北市深坑區深南路88巷1號","121.620938333333","25.011695","6501800","深坑區"
"222002","659-BX","2018/12/24 19:29:28","新北市深坑區北深路一段177號","121.632581666667","25.0108866666667","6501800","深坑區"
"231041","002-UM","2018/12/24 19:29:30","新北市新店區中正路543-2號","121.533565","24.9872516666667","6500600","新店區"
"231059","046-UY","2018/12/24 19:29:24","新北市新店區安和路三段7號","121.518035","24.9805266666667","6500600","新店區"
"231040","047-UY","2018/12/24 19:29:22","新北市新店區中華路37號","121.540358333333","24.96763","6500600","新店區"
"231044","106-UY","2018/12/24 19:29:30","新北市新店區中興路三段139號","121.544588333333","24.9798516666667","6500600","新店區"
"231046","107-UY","2018/12/24 19:29:30","新北市新店區中央路167-3號","121.533718333333","24.9702566666667","6500600","新店區"
"231052","108-UY","2018/12/24 19:29:13","新北市新店區新烏路二段315號","121.549565","24.9112016666667","6500600","新店區"
"231047","187-VK","2018/12/24 19:29:25","新北市新店區五峰路119號","121.545016666667","24.9665283333333","6500600","新店區"
"231054","KEA-2219","2018/12/24 19:29:22","新北市新店區文中路45號","121.539608333333","24.9566266666667","6500600","新店區"
"221035","KEA-2785","2018/12/24 19:29:14","新北市汐止區康寧街901號","121.651573333333","25.0749283333333","6501100","汐止區"
"231057","256-BX","2018/12/24 19:29:26","新北市新店區花園一路二段27號","121.551311666667","24.9325216666667","6500600","新店區"
"231065","260-TV","2018/12/24 19:29:35","新北市新店區安祥路109巷3弄38號","121.476568333333","24.9604616666667","6500600","新店區"
"231042","268-BY","2018/12/24 19:29:17","新北市新店區中興路一段60號","121.539293333333","24.9595933333333","6500600","新店區"
"231051","278-BY","2018/12/24 19:29:17","新北市新店區中央五街84號","121.526263333333","24.976115","6500600","新店區"
"231050","AAD-862","2018/12/24 19:29:26","新北市新店區竹林路90號","121.554125","24.9500933333333","6500600","新店區"
"231058","3713-VJ","2018/12/24 19:29:16","新北市新店區北新路二段228巷2號","121.543328333333","24.9771466666667","6500600","新店區"
"231066","4716-K9","2018/12/24 19:29:18","新北市新店區安康路三段466-2號","121.484038333333","24.950825","6500600","新店區"
"231049","513-UM","2018/12/24 19:29:13","新北市新店區北新路三段65巷12弄15號","121.54075","24.981535","6500600","新店區"
"231045","617-UM","2018/12/24 19:29:36","新北市新店區北宜路二段209號","121.553161666667","24.9533183333333","6500600","新店區"
"231061","619-UM","2018/12/24 19:29:32","新北市新店區安康路一段258號","121.520376666667","24.963975","6500600","新店區"
"231063","641-BX","2018/12/24 19:29:25","新北市新店區達觀路14巷3號","121.503295","24.9418483333333","6500600","新店區"
"231064","719-UM","2018/12/24 19:29:29","新北市新店區安忠路57巷23號","121.513358333333","24.9582866666667","6500600","新店區"
"231062","720-UM","2018/12/24 19:29:28","新北市新店區莒光路61巷1號","121.523725","24.9580966666667","6500600","新店區"
"231060","897-TW","2018/12/24 19:29:19","新北市新店區安康路二段138號","121.512506666667","24.9619483333333","6500600","新店區"
"231043","899-TW","2018/12/24 19:29:31","新北市新店區北新路二段214號","121.542876666667","24.976925","6500600","新店區"
"241011","013-R5","2018/12/24 19:29:17","新北市三重區河邊北街122-1號","121.503626666667","25.071375","6500200","三重區"
"241008","059-VK","2018/12/24 19:29:25","新北市三重區永福街135巷40號","121.477053333333","25.0772316666667","6500200","三重區"
"241022","060-VK","2018/12/24 19:29:19","新北市三重區忠孝路三段40巷59號","121.483503333333","25.0653333333333","6500200","三重區"
"241031","061-VK","2018/12/24 19:29:18","新北市三重區集美街65-1號","121.48845","25.0541616666667","6500200","三重區"
"241017","063-VK","2018/12/24 19:29:33","新北市三重區中正北路25巷25弄1號","121.493171666667","25.0626233333333","6500200","三重區"
"251014","742-BX","2018/12/24 19:29:22","新北市淡水區小中寮19-7號","121.4847","25.2297233333333","6501000","淡水區"
"241009","267-UM","2018/12/24 19:29:28","新北市三重區溪尾街242巷45號","121.486535","25.0815833333333","6500200","三重區"
"241032","269-UM","2018/12/24 19:29:19","新北市三重區三陽路46-1號","121.484945","25.0587633333333","6500200","三重區"
"241013","270-UM","2018/12/24 19:29:24","新北市三重區仁賢街12-1號","121.495688333333","25.0749116666667","6500200","三重區"
"241025","271-UM","2018/12/24 19:29:21","新北市三重區頂崁街210巷28弄4號","121.475753333333","25.067635","6500200","三重區"
"241007","398-BY","2018/12/24 19:29:30","新北市三重區溪尾街128號","121.489265","25.0794033333333","6500200","三重區"
"241035","KEA-2210","2018/12/24 19:29:34","新北市三重區信義西街1號","121.498125","25.064895","6500200","三重區"
"241006","462-BY","2018/12/24 19:29:18","新北市三重區自強路三段73號","121.486883333333","25.07363","6500200","三重區"
"241004","475-VK","2018/12/24 19:29:18","新北市三重區仁義街91號","121.499683333333","25.0796483333333","6500200","三重區"
"241020","478-VK","2018/12/24 19:29:22","新北市三重區三和路四段20巷21號","121.490325","25.0738733333333","6500200","三重區"
"241030","480-VK","2018/12/24 19:29:35","新北市三重區成功路41巷14號","121.490231666667","25.051735","6500200","三重區"
"241026","743-BX","2018/12/24 19:29:32","新北市三重區文化南路47巷6號","121.49971","25.061225","6500200","三重區"
"241012","941-UM","2018/12/24 19:29:26","新北市三重區河邊北街266號","121.501656666667","25.0764783333333","6500200","三重區"
"241029","942-UM","2018/12/24 19:29:33","新北市三重區重安街103號","121.49395","25.0551533333333","6500200","三重區"
"235064","005-UY","2018/12/24 19:29:32","新北市中和區南山路72-7號","121.50246","24.996105","6500300","中和區"
"235063","006-UY","2018/12/24 19:29:27","新北市中和區連城路225號","121.49415","24.99762","6500300","中和區"
"235056","096-UM","2018/12/24 19:29:16","新北市中和區民富街9號","121.476551666667","25.007225","6500300","中和區"
"235039","097-UM","2018/12/24 19:29:26","新北市中和區秀峰街103巷4弄2號","121.520536666667","24.990095","6500300","中和區"
"235040","150-BY","2018/12/24 19:29:29","新北市中和區景安路79巷37弄26號","121.507685","24.9964233333333","6500300","中和區"
"235058","151-BY","2018/12/24 19:29:32","新北市中和區連城路469巷7號","121.483618333333","24.9956233333333","6500300","中和區"
"235055","183-VK","2018/12/24 19:29:21","新北市中和區莒光路120巷42號","121.471583333333","25.0012716666667","6500300","中和區"
"235038","185-VK","2018/12/24 19:29:21","新北市中和區立人街3號","121.52187","24.9939916666667","6500300","中和區"
"235049","186-VK","2018/12/24 19:29:28","新北市中和區景新街285巷12號","121.510331666667","24.9935633333333","6500300","中和區"
"235067","255-BX","2018/12/24 19:29:26","新北市中和區新生街286號","121.483658333333","24.9965816666667","6500300","中和區"
"235044","293-VK","2018/12/24 19:29:14","新北市中和區捷運路122號","121.50542","24.9914816666667","6500300","中和區"
"235072","301-VK","2018/12/24 19:29:16","新北市中和區連城路263巷8弄7號","121.491763333333","24.9952083333333","6500300","中和區"
"235042","KEA-2878","2018/12/24 19:29:19","新北市中和區中和路262巷43弄6號","121.509683333333","24.9997","6500300","中和區"
"235050","4979-A6","2018/12/24 19:29:30","新北市中和區中正路448號","121.490925","24.99412","6500300","中和區"
"235070","558-UM","2018/12/24 19:29:22","新北市中和區圓通路55號","121.500676666667","24.9975","6500300","中和區"
"235045","565-BX","2018/12/24 19:29:32","新北市中和區景新街383巷79號","121.514216666667","24.9908983333333","6500300","中和區"
"235054","640-BX","2018/12/24 19:29:24","新北市中和區國光街103號","121.470228333333","25.0004216666667","6500300","中和區"
"235060","647-TV","2018/12/24 19:29:32","新北市中和區新生街112巷2號","121.482988333333","25.003005","6500300","中和區"
"235046","733-UM","2018/12/24 19:29:24","新北市中和區忠孝街37巷44號","121.51069","24.984645","6500300","中和區"
"235071","783-BX","2018/12/24 19:29:24","新北市中和區連城路308號","121.483641666667","24.9963766666667","6500300","中和區"
"235057","801-TS","2018/12/24 19:29:14","新北市中和區中山路三段2號","121.479765","25.0060233333333","6500300","中和區"
"235041","802-TS","2018/12/24 19:29:17","新北市中和區中和路400巷14弄2號","121.511636666667","25.0021816666667","6500300","中和區"
"235052","805-TS","2018/12/24 19:29:24","新北市中和區華新街143巷8-1號","121.50652","24.9809716666667","6500300","中和區"
"235048","896-TW","2018/12/24 19:29:33","新北市中和區忠孝街113巷3號","121.5124","24.9873666666667","6500300","中和區"
"235053","900-TW","2018/12/24 19:29:17","新北市中和區華順街2巷2號","121.467591666667","24.9988466666667","6500300","中和區"
"235065","911-UM","2018/12/24 19:29:29","新北市中和區莊敬路22號","121.500105","25.0045233333333","6500300","中和區"
"235051","157-BY","2018/12/24 19:29:31","新北市中和區南華路89號","121.505615","24.99751","6500300","中和區"
"235037","AAC-213","2018/12/24 19:29:31","新北市中和區秀朗路三段10巷14弄16號","121.52498","24.9965783333333","6500300","中和區"
"235059","AAC-215","2018/12/24 19:29:17","新北市中和區圓通路252巷36弄1號","121.492418333333","24.993045","6500300","中和區"
"220065","072-UY","2018/12/24 19:29:20","新北市板橋區國泰街111巷4-2號","121.465701666667","25.00618","6500100","板橋區"
"220086","073-UY","2018/12/24 19:29:20","新北市板橋區中正路236巷120號","121.459516666667","25.01968","6500100","板橋區"
"220106","075-UY","2018/12/24 19:29:15","新北市板橋區文化路二段446號","121.474661666667","25.0324433333333","6500100","板橋區"
"220017","AAD-861","2018/12/24 19:29:35","新北市板橋區貴興路106巷7號","121.455181666667","25.0028366666667","6500100","板橋區"
"220016","120-SR","2018/12/24 19:28:47","新北市板橋區海山路23號","121.468353333333","25.0091216666667","6500100","板橋區"
"247004","002-UY","2018/12/24 19:29:34","新北市蘆洲區長安街247號","121.459153333333","25.0831816666667","6501400","蘆洲區"
"226004","312-R5","2018/12/24 19:29:30","新北市平溪區十分里十分街156號","121.77792","25.04336","6502400","平溪區"
"228003","097-TW","2018/12/24 19:29:25","新北市貢寮區和美里和美街19-2號","121.912806666667","25.0826083333333","6502600","貢寮區"
"228002","585-TW","2018/12/24 19:29:23","新北市貢寮區龍門里龍門街69號","121.930958333333","25.0265716666667","6502600","貢寮區"
"228001","670-TC","2018/12/24 19:29:33","新北市貢寮區真理里延平街70號","121.925383333333","25.057465","6502600","貢寮區"
"224010","AGQ-8101","2018/12/24 19:29:24","新北市瑞芳區基山街118號","121.843885","25.1083583333333","6501200","瑞芳區"
"227001","642-TC","2018/12/24 19:29:35","新北市雙溪區雙溪里光復街14號","121.864998333333","25.035375","6502500","雙溪區"
"227008","400-TW","2018/12/24 19:29:31","新北市雙溪區新基里新基北街43號","121.868175","25.0396916666667","6502500","雙溪區"
"253006","032-BX","2018/12/24 19:29:26","新北市石門區楓林23-10號","121.538706666667","25.2911333333333","6502200","石門區"
"222001","KEA-2212","2018/12/24 19:29:27","新北市深坑區北深路二段134號","121.615883333333","25.002875","6501800","深坑區"
"208002","KEA-2872","2018/12/24 19:29:35","新北市金山區仁愛路87巷1號","121.63461","25.2215083333333","6502700","金山區"
"208003","665-BX","2018/12/24 19:29:30","新北市金山區忠孝一路107號","121.635965","25.2216216666667","6502700","金山區"
"208001","761-BX","2018/12/24 19:29:31","新北市金山區南勢43號","121.628601666667","25.2207733333333","6502700","金山區"
"251009","008-UM","2018/12/24 19:29:21","新北市淡水區大忠街5巷8號","121.443346666667","25.1765216666667","6501000","淡水區"
"251005","010-UM","2018/12/24 19:29:23","新北市淡水區水源街一段71巷11號","121.444408333333","25.1729033333333","6501000","淡水區"
"251001","011-UM","2018/12/24 19:29:21","新北市淡水區民權路165號","121.460003333333","25.1359133333333","6501000","淡水區"
"251013","KEA-2871","2018/12/24 19:29:17","新北市淡水區大牛稠5號","121.470678333333","25.21935","6501000","淡水區"
"251016","179-VK","2018/12/24 19:29:31","新北市淡水區下圭柔山119-51號","121.450718333333","25.2084883333333","6501000","淡水區"
"251015","182-VK","2018/12/24 19:29:20","新北市淡水區山子頂22號","121.49179","25.1878333333333","6501000","淡水區"
"251010","413-VK","2018/12/24 19:29:22","新北市淡水區中正路二段150-5號","121.423238333333","25.187785","6501000","淡水區"
"251012","441-VK","2018/12/24 19:29:28","新北市淡水區崁頂75-2號","121.435085","25.2037633333333","6501000","淡水區"
"251007","442-VK","2018/12/24 19:29:17","新北市淡水區八勢路20號","121.460875","25.15363","6501000","淡水區"
"251006","561-UM","2018/12/24 19:29:19","新北市淡水區大義街51號","121.441476666667","25.1783166666667","6501000","淡水區"
"207003","550-UM","2018/12/24 19:29:14","新北市萬里區大鵬里萬里加投158號","121.643945","25.2150783333333","6502800","萬里區"
"207004","225-TW","2018/12/24 19:29:22","新北市萬里區萬里里瑪鋉路85-2號","121.688661666667","25.1771833333333","6502800","萬里區"
"252002","178-VK","2018/12/24 19:29:25","新北市三芝區淡金路二段18-1號","121.502696666667","25.2594933333333","6502100","三芝區"
"252001","292-VK","2018/12/24 19:29:21","新北市三芝區長勤街63-1號","121.500121666667","25.2561166666667","6502100","三芝區"
"237004","KEA-2597","2018/12/24 19:29:20","新北市三峽區有木205-1號","121.439061666667","24.8515066666667","6500900","三峽區"
"237007","153-BY","2018/12/24 19:29:16","新北市三峽區二鬮路136巷20弄83號","121.358126666667","24.9089283333333","6500900","三峽區"
"237009","210-TH","2018/12/24 19:29:20","新北市三峽區中山路17號","121.368868333333","24.9343283333333","6500900","三峽區"
"237013","252-BX","2018/12/24 19:29:27","新北市三峽區介壽路一段318巷1號","121.380918333333","24.9300033333333","6500900","三峽區"
"237012","275-BY","2018/12/24 19:29:26","新北市三峽區民生街4號","121.37635","24.9368583333333","6500900","三峽區"
"237008","302-VK","2018/12/24 19:29:33","新北市三峽區永安街183號","121.373163333333","24.9267683333333","6500900","三峽區"
"237014","433-BY","2018/12/24 19:29:25","新北市三峽區中山路184巷12號","121.364216666667","24.93664","6500900","三峽區"
"237006","5529-G3","2018/12/24 19:29:31","新北市三峽區介壽路一段309號","121.381301666667","24.9303266666667","6500900","三峽區"
"237011","KEA-2596","2018/12/24 19:29:27","新北市三峽區介壽路二段49號","121.390616666667","24.9351883333333","6500900","三峽區"
"237015","649-BX","2018/12/24 19:29:33","新北市三峽區成福路249號","121.426791666667","24.9245966666667","6500900","三峽區"
"237010","706-TV","2018/12/24 19:29:30","新北市三峽區復興路152號","121.371461666667","24.9382183333333","6500900","三峽區"
"237005","AKY-6261","2018/12/24 19:29:21","新北市三峽區復興路367巷3號","121.363735","24.9381216666667","6500900","三峽區"
"236069","105-UM","2018/12/24 19:29:21","新北市土城區裕民路185巷36弄10號","121.454325","24.9845033333333","6501300","土城區"
"236042","KED-0685","2018/12/24 19:29:23","新北市土城區學府路一段239號","121.450413333333","24.9833866666667","6501300","土城區"
"236078","166-UM","2018/12/24 19:29:27","新北市土城區中州路26號","121.414643333333","24.9574833333333","6501300","土城區"
"236030","253-BX","2018/12/24 19:29:28","新北市土城區中央路一段324號","121.443251666667","24.9816916666667","6501300","土城區"
"236026","269-VK","2018/12/24 19:29:24","新北市土城區中央路二段61巷22號","121.443191666667","24.9786933333333","6501300","土城區"
"236020","401-BY","2018/12/24 19:29:16","新北市土城區峰廷街18號","121.46901","24.98731","6501300","土城區"
"236055","752-BX","2018/12/24 19:29:16","新北市土城區學府路一段276號","121.450191666667","24.9833183333333","6501300","土城區"
"236059","912-UM","2018/12/24 19:29:16","新北市土城區中央路二段63號","121.442665","24.9789383333333","6501300","土城區"
"236048","913-UM","2018/12/24 19:29:28","新北市土城區清水路209號","121.460411666667","24.9819133333333","6501300","土城區"
"242002","440-UM","2018/12/24 19:29:20","新北市新莊區新泰路255巷83號","121.442058333333","25.0388966666667","6500500","新莊區"
"242013","173-VK","2018/12/24 19:29:30","新北市新莊區三和路12-21號","121.442073333333","25.0387133333333","6500500","新莊區"
"238015","755-BX","2018/12/24 19:29:29","新北市樹林區中興街55-4號","121.421006666667","24.991235","6500700","樹林區"
"238023","601-UM","2018/12/24 19:29:25","新北市樹林區三福街46號","121.407543333333","25.0164083333333","6500700","樹林區"
"238019","599-UM","2018/12/24 19:29:24","新北市樹林區鎮前街347巷3弄2號","121.416903333333","24.9833816666667","6500700","樹林區"
"238018","571-TV","2018/12/24 19:29:35","新北市樹林區中華路227號","121.418775","24.980935","6500700","樹林區"
"238024","5061-A6","2018/12/24 19:29:25","新北市樹林區中山路三段155巷3號","121.39568","24.97263","6500700","樹林區"
"238021","KEA-2539","2018/12/24 19:29:37","新北市樹林區佳園路三段225號","121.385081666667","24.9460983333333","6500700","樹林區"
"238025","303-VK","2018/12/24 19:29:17","新北市樹林區中山路一段135-1號","121.422553333333","24.9898266666667","6500700","樹林區"
"238017","283-BY","2018/12/24 19:29:16","新北市樹林區光興街78-1號","121.407905","25.0023383333333","6500700","樹林區"
"238014","282-BY","2018/12/24 19:29:23","新北市樹林區千歲街17號","121.424933333333","24.99563","6500700","樹林區"
"238020","268-VK","2018/12/24 19:29:16","新北市樹林區俊英街111巷1-10號","121.423946666667","25.0095166666667","6500700","樹林區"
"238026","172-UY","2018/12/24 19:29:25","新北市樹林區柑園街一段290號","121.389106666667","24.9561083333333","6500700","樹林區"
"238016","169-UY","2018/12/24 19:29:09","新北市樹林區復興路474號","121.413458333333","24.98344","6500700","樹林區"
"239007","AAC-297","2018/12/24 19:29:27","新北市鶯歌區大湖路185巷9弄11號","121.343921666667","24.9686716666667","6500800","鶯歌區"
"239006","891-R6","2018/12/24 19:29:15","新北市鶯歌區鶯桃路65號","121.3414","24.95278","6500800","鶯歌區"
"239006","661-UM","2018/12/24 19:29:17","新北市鶯歌區中正一路478號","121.365328333333","24.9565633333333","6500800","鶯歌區"
"239008","527-UM","2018/12/24 19:29:21","新北市鶯歌區大湖路335號","121.341791666667","24.9726166666667","6500800","鶯歌區"
"239005","526-UM","2018/12/24 19:29:16","新北市鶯歌區東湖路19-1號","121.35784","24.9735666666667","6500800","鶯歌區"
"239001","417-VK","2018/12/24 19:29:22","新北市鶯歌區建國路443號","121.338473333333","24.9515","6500800","鶯歌區"
"239004","193-VK","2018/12/24 19:29:29","新北市鶯歌區二甲路83-5號","121.340123333333","24.9319566666667","6500800","鶯歌區"
"221008","489-VK","2018/12/24 19:29:25","新北市汐止區康寧街241號","121.624536666667","25.0667783333333","6501100","汐止區"
"221036","130-UY","2018/12/24 19:29:26","新北市汐止區康寧街901號","121.651133333333","25.0751166666667","6501100","汐止區"
"221015","131-UY","2018/12/24 19:29:28","新北市汐止區康寧街901號","121.651605","25.075005","6501100","汐止區"
"221010","269-BY","2018/12/24 19:29:27","新北市汐止區連峰街7號","121.646413333333","25.0772783333333","6501100","汐止區"
"221012","278-VK","2018/12/24 19:29:32","新北市汐止區大同路三段186號","121.674345","25.0746","6501100","汐止區"
"221023","279-VK","2018/12/24 19:29:32","新北市汐止區康寧街901號","121.65142","25.075035","6501100","汐止區"
"221032","280-BY","2018/12/24 19:29:18","新北市汐止區汐萬路一段256巷3號","121.653333333333","25.0745366666667","6501100","汐止區"
"221027","281-BY","2018/12/24 19:29:28","新北市汐止區忠孝東路9號","121.658296666667","25.065955","6501100","汐止區"
"221029","298-VK","2018/12/24 19:29:35","新北市汐止區康寧街901號","121.651495","25.0749633333333","6501100","汐止區"
"221021","299-VK","2018/12/24 19:29:29","新北市汐止區康寧街901號","121.651423333333","25.0750016666667","6501100","汐止區"
"221031","353-TW","2018/12/24 19:29:23","新北市汐止區康寧街901號","121.650855","25.0752533333333","6501100","汐止區"
"221025","623-UM","2018/12/24 19:29:35","新北市汐止區秀峰路57號","121.65973","25.0650533333333","6501100","汐止區"
"221038","646-BX","2018/12/24 19:29:15","新北市汐止區大同路二段340號","121.656513333333","25.0670033333333","6501100","汐止區"
"221033","647-BX","2018/12/24 19:29:19","新北市汐止區南勢街1巷1號","121.627075","25.0374483333333","6501100","汐止區"
"221002","707-TV","2018/12/24 19:29:31","新北市汐止區中興路19號","121.637","25.0594333333333","6501100","汐止區"
"220079","145-BY","2018/12/24 19:29:33","新北市板橋區民權路260巷32號","121.458941666667","25.0152533333333","6500100","板橋區"
"220080","200-UY","2018/12/24 19:29:13","新北市板橋區大觀路二段37巷180號","121.449525","25.00215","6500100","板橋區"
"220082","610-BX","2018/12/24 19:29:18","新北市板橋區金門街231號","121.432213333333","24.989525","6500100","板橋區"
"224002","257-TC","2018/12/24 19:29:23","新北市瑞芳區三爪子坑路13巷12-1號","121.814028333333","25.106965","6501200","瑞芳區"
"220056","276-BY","2018/12/24 19:29:24","新北市板橋區五權街34-1號","121.46421","24.9922633333333","6500100","板橋區"
"220072","277-BY","2018/12/24 19:29:17","新北市板橋區金門街215巷2弄28號","121.43243","24.988945","6500100","板橋區"
"220101","280-UM","2018/12/24 19:29:17","新北市板橋區縣民大道三段33巷6弄1號","121.474005","25.0212316666667","6500100","板橋區"
"220071","283-VK","2018/12/24 19:29:31","新北市板橋區忠孝路48巷9弄24號","121.461858333333","25.0001533333333","6500100","板橋區"
"220094","285-UM","2018/12/24 19:29:24","新北市板橋區銘傳街41-1號","121.469041666667","25.0313316666667","6500100","板橋區"
"220053","285-VK","2018/12/24 19:29:16","新北市板橋區懷仁街77巷35號","121.477678333333","25.01931","6500100","板橋區"
"220083","286-VK","2018/12/24 19:29:34","新北市板橋區大觀路二段174巷163弄9號","121.441163333333","25.0033083333333","6500100","板橋區"
"220081","287-VK","2018/12/24 19:29:34","新北市板橋區大觀路一段29巷179弄32號","121.449641666667","25.0040516666667","6500100","板橋區"
"220090","288-VK","2018/12/24 19:29:17","新北市板橋區溪頭街2號","121.457468333333","25.0288783333333","6500100","板橋區"
"220061","293-UM","2018/12/24 19:29:28","新北市板橋區中山路二段147號","121.475596666667","25.0166783333333","6500100","板橋區"
"220084","296-UM","2018/12/24 19:29:15","新北市板橋區滿平街136巷1弄1號","121.428643333333","24.9880233333333","6500100","板橋區"
"220075","303-R5","2018/12/24 19:29:13","新北市板橋區中正路253巷5號","121.455351666667","25.0181566666667","6500100","板橋區"
"220062","305-R5","2018/12/24 19:29:15","新北市板橋區三民路二段123巷12號","121.47996","25.015595","6500100","板橋區"
"220092","307-R5","2018/12/24 19:29:23","新北市板橋區文化路一段383號","121.467091666667","25.0217616666667","6500100","板橋區"
"220098","317-R6","2018/12/24 19:29:29","新北市板橋區民有街89巷11號","121.464321666667","25.02734","6500100","板橋區"
"220089","487-VK","2018/12/24 19:29:26","新北市板橋區龍泉街82巷11-4號","121.455925","25.025495","6500100","板橋區"
"220088","491-VK","2018/12/24 19:29:18","新北市板橋區文化路二段568號","121.47662","25.0345533333333","6500100","板橋區"
"220035","560-BX","2018/12/24 19:29:24","新北市板橋區中正路399巷34號","121.452951666667","25.0229566666667","6500100","板橋區"
"220103","561-BX","2018/12/24 19:29:37","新北市板橋區陽明街29巷15號","121.46466","25.022015","6500100","板橋區"
"220063","609-BX","2018/12/24 19:29:24","新北市板橋區三民路一段31巷89弄5號","121.481943333333","25.0233616666667","6500100","板橋區"
"220055","630-UY","2018/12/24 19:29:24","新北市板橋區實踐路159號","121.464246666667","25.0040716666667","6500100","板橋區"
"220091","637-BX","2018/12/24 19:29:27","新北市板橋區文聖街149巷25號","121.479483333333","25.02862","6500100","板橋區"
"220057","686-BX","2018/12/24 19:29:13","新北市中和區和平路252號","121.4648","24.9970016666667","6500100","板橋區"
"220077","687-BX","2018/12/24 19:29:33","新北市板橋區僑中二街10巷2號","121.446981666667","25.010925","6500100","板橋區"
"220093","689-BX","2018/12/24 19:29:30","新北市板橋區長江路一段51號","121.458665","25.0292333333333","6500100","板橋區"
"220054","741-BX","2018/12/24 19:29:20","新北市板橋區忠孝路26號","121.460133333333","25.0018233333333","6500100","板橋區"
"220102","KEA-2699","2018/12/24 19:29:27","新北市板橋區松柏街33巷3號","121.475016666667","25.03031","6500100","板橋區"
"220067","829-TW","2018/12/24 19:29:21","新北市板橋區漢生東路279巷8號","121.471818333333","25.0091433333333","6500100","板橋區"
"220068","830-TW","2018/12/24 19:29:23","新北市板橋區萬安街103巷2號","121.483331666667","25.02474","6500100","板橋區"
"220074","895-R6","2018/12/24 19:29:33","新北市板橋區北門街5號","121.457676666667","25.0105183333333","6500100","板橋區"
"220073","985-R7","2018/12/24 19:29:25","新北市板橋區中正路302號","121.454836666667","25.02074","6500100","板橋區"
"220097","AAC-210","2018/12/24 19:29:26","新北市板橋區文化路一段285巷2弄29號","121.464006666667","25.019585","6500100","板橋區"
"220064","AAC-253","2018/12/24 19:29:33","新北市板橋區重慶路26號","121.461031666667","25.0077783333333","6500100","板橋區"
"235068","KEA-2873","2018/12/24 19:29:24","新北市中和區連勝街14號","121.498773333333","24.99836","6500300","中和區"
"235025","KEA-2875","2018/12/24 19:29:21","新北市中和區員山路281號","121.481178333333","24.99966","6500300","中和區"
"235047","KEA-2876","2018/12/24 19:29:24","新北市中和區景平路241巷57號","121.507978333333","24.99225","6500300","中和區"
