"lineid","car","time","location","longitude","latitude","cityid","cityname"
"234046","148-BY","2018/12/24 19:39:19","新北市永和區永元路94號","121.522541666667","25.0017266666667","6500400","永和區"
"234081","298-R6","2018/12/24 19:39:31","新北市永和區國中路104巷12弄4號","121.525665","25.0064466666667","6500400","永和區"
"234038","336-UY","2018/12/24 19:39:22","新北市永和區民樂街31巷4號","121.527808333333","25.0014983333333","6500400","永和區"
"234064","337-UY","2018/12/24 19:39:31","新北市永和區秀朗路一段192巷6弄14號","121.519136666667","25.0022383333333","6500400","永和區"
"234070","552-UM","2018/12/24 19:39:29","新北市永和區永和路二段235號","121.515638333333","25.0143333333333","6500400","永和區"
"234086","553-UM","2018/12/24 19:39:34","新北市永和區永亨路165巷1-5號","121.526163333333","25.004135","6500400","永和區"
"234017","745-BX","2018/12/24 19:39:03","新北市永和區永和路二段425巷62號","121.513763333333","25.0173683333333","6500400","永和區"
"234030","746-BX","2018/12/24 19:39:18","新北市永和區四維街101號","121.52398","24.99802","6500400","永和區"
"234054","KEA-2590","2018/12/24 19:39:18","新北市永和區竹林路39巷15號","121.51859","25.0146416666667","6500400","永和區"
"234007","839-RS","2018/12/24 19:39:31","新北市永和區中和路625號","121.512961666667","25.0049","6500400","永和區"
"234013","KEA-2591","2018/12/24 19:39:29","新北市永和區永平路258號","121.50813","25.01126","6500400","永和區"
"234061","AAD-866","2018/12/24 19:39:33","新北市永和區中正路446號","121.51743","25.0027916666667","6500400","永和區"
"234042","862-TW","2018/12/24 19:39:27","新北市永和區中和路305巷2弄1號","121.50672","25.0000616666667","6500400","永和區"
"234050","863-TW","2018/12/24 19:39:25","新北市永和區保福路二段153號","121.509488333333","25.0144766666667","6500400","永和區"
"234023","9372-KE","2018/12/24 19:39:15","新北市永和區竹林路91巷28號","121.520783333333","25.0123466666667","6500400","永和區"
"234026","9371-KE","2018/12/24 19:39:24","新北市永和區中和路501巷5號","121.51044","25.0026916666667","6500400","永和區"
"234011","9373-KE","2018/12/24 19:39:23","新北市永和區保生路55-1號","121.504516666667","25.01092","6500400","永和區"
"249004","303-UY","2018/12/24 19:39:32","新北市八里區中山路一段268巷31號","121.413471666667","25.1605366666667","6502300","八里區"
"249003","593-UM","2018/12/24 19:39:16","新北市八里區華峰三街46號","121.399136666667","25.1459033333333","6502300","八里區"
"248014","025-BX","2018/12/24 19:39:26","新北市五股區五福路100巷23號","121.433143333333","25.090795","6501500","五股區"
"248016","026-BX","2018/12/24 19:39:16","新北市五股區成泰路四段22巷43號","121.456021666667","25.1089383333333","6501500","五股區"
"248008","095-VK","2018/12/24 19:39:22","新北市五股區國道路三段1號","121.469885","25.0750183333333","6501500","五股區"
"248018","225-UY","2018/12/24 19:39:17","新北市五股區外寮路1-5號","121.42596","25.0768533333333","6501500","五股區"
"248012","247-BX","2018/12/24 19:39:36","新北市五股區成泰路一段241巷5號","121.436131666667","25.0809816666667","6501500","五股區"
"248010","272-BY","2018/12/24 19:39:34","新北市五股區自強路123號","121.43224","25.070135","6501500","五股區"
"248004","677-BX","2018/12/24 19:39:25","新北市五股區成泰路二段81號","121.43809","25.083865","6501500","五股區"
"248002","678-BX","2018/12/24 19:39:24","新北市五股區成泰路三段577巷45號","121.450748333333","25.1030416666667","6501500","五股區"
"234077","969-R7","2018/12/24 19:39:32","新北市永和區民族街67巷9號","121.518873333333","24.99725","6500400","永和區"
"234074","AAC-211","2018/12/24 19:39:19","新北市永和區竹林路225巷30號","121.521803333333","25.0085566666667","6500400","永和區"
"234067","AAC-212","2018/12/24 19:39:18","新北市永和區中山路一段191巷15弄2-1號","121.509846666667","25.0079616666667","6500400","永和區"
"234003","AAC-295","2018/12/24 19:39:22","新北市永和區自由街73號","121.513278333333","25.0052016666667","6500400","永和區"
"243013","AAD-798","2018/12/24 19:39:16","新北市泰山區應化街7號","121.423868333333","25.0437133333333","6501600","泰山區"
"243009","297-R6","2018/12/24 19:39:30","新北市泰山區美寧街71號","121.431021666667","25.06473","6501600","泰山區"
"243016","KEA-2801","2018/12/24 19:39:34","新北市泰山區新北大道七段46號","121.41936","25.03225","6501600","泰山區"
"243015","421-VK","2018/12/24 19:39:18","新北市泰山區明志路二段237巷19號","121.427936666667","25.0479933333333","6501600","泰山區"
"243011","KEA-2215","2018/12/24 19:39:31","新北市泰山區中山路二段672號","121.427291666667","25.037465","6501600","泰山區"
"243010","KEA-2216","2018/12/24 19:39:33","新北市泰山區民生路33號","121.430848333333","25.0521383333333","6501600","泰山區"
"243012","646-TV","2018/12/24 19:39:30","新北市泰山區全興路103號","121.43357","25.057005","6501600","泰山區"
"243014","680-BX","2018/12/24 19:39:16","新北市泰山區泰林路二段33-8號","121.435148333333","25.0564533333333","6501600","泰山區"
"222003","436-BY","2018/12/24 19:32:04","新北市深坑區深南路51-1號","121.621258333333","25.0098116666667","6501800","深坑區"
"222002","659-BX","2018/12/24 19:39:28","新北市深坑區北深路一段177號","121.63256","25.0108716666667","6501800","深坑區"
"231041","002-UM","2018/12/24 19:39:30","新北市新店區中正路487號","121.533833333333","24.982085","6500600","新店區"
"231059","046-UY","2018/12/24 19:39:24","新北市新店區安和路三段85號","121.517776666667","24.983855","6500600","新店區"
"231040","047-UY","2018/12/24 19:39:22","新北市新店區北新路一段96巷23號","121.542995","24.9686433333333","6500600","新店區"
"231044","106-UY","2018/12/24 19:39:10","新北市新店區北新路三段163號","121.541106666667","24.9838516666667","6500600","新店區"
"231046","107-UY","2018/12/24 19:39:30","新北市新店區自由街13號","121.535486666667","24.9748783333333","6500600","新店區"
"231052","108-UY","2018/12/24 19:39:33","新北市新店區新烏路二段440號","121.551615","24.9084133333333","6500600","新店區"
"231047","187-VK","2018/12/24 19:39:25","新北市新店區五峰路63巷8弄42號","121.547913333333","24.9686166666667","6500600","新店區"
"231054","KEA-2219","2018/12/24 19:39:22","新北市新店區文中路45號","121.539616666667","24.9566266666667","6500600","新店區"
"221035","KEA-2785","2018/12/24 19:39:34","新北市汐止區康寧街901號","121.651575","25.0749166666667","6501100","汐止區"
"231057","256-BX","2018/12/24 19:39:27","新北市新店區橘園一路11號","121.547963333333","24.934035","6500600","新店區"
"231065","260-TV","2018/12/24 19:39:15","新北市新店區安祥路109巷6弄47號","121.475495","24.95732","6500600","新店區"
"231042","268-BY","2018/12/24 19:39:37","新北市新店區中興路一段185號","121.543123333333","24.9649316666667","6500600","新店區"
"231051","278-BY","2018/12/24 19:39:17","新北市新店區中央五街11-1號","121.529811666667","24.97419","6500600","新店區"
"231050","AAD-862","2018/12/24 19:39:26","新北市新店區郵政路1巷2號","121.557525","24.95227","6500600","新店區"
"231058","3713-VJ","2018/12/24 19:39:35","新北市新店區北新路二段102號","121.54321","24.9735933333333","6500600","新店區"
"231066","4716-K9","2018/12/24 19:39:20","新北市新店區安康路三段195號","121.48796","24.9515016666667","6500600","新店區"
"231056","4715-K9","2018/12/24 19:39:20","新北市新店區中央一街2號","121.528966666667","24.9720733333333","6500600","新店區"
"231067","4772-VM","2018/12/24 19:39:17","新北市新店區安康路二段1-3號","121.51667","24.9637633333333","6500600","新店區"
"231049","513-UM","2018/12/24 19:39:13","新北市新店區大豐路43號","121.540316666667","24.9798383333333","6500600","新店區"
"231045","617-UM","2018/12/24 19:39:36","新北市新店區北宜路二段150-2號","121.558073333333","24.9540466666667","6500600","新店區"
"231061","619-UM","2018/12/24 19:39:32","新北市新店區安民街69號","121.516491666667","24.9669983333333","6500600","新店區"
"231063","641-BX","2018/12/24 19:39:34","新北市新店區達觀路41號","121.502633333333","24.9382416666667","6500600","新店區"
"231064","719-UM","2018/12/24 19:39:29","新北市新店區安和路一段52巷2-1號","121.517713333333","24.9663983333333","6500600","新店區"
"231062","720-UM","2018/12/24 19:39:28","新北市新店區太平路12號","121.534013333333","24.958115","6500600","新店區"
"231060","897-TW","2018/12/24 19:39:15","新北市新店區安康路二段161號","121.510135","24.9594333333333","6500600","新店區"
"231043","899-TW","2018/12/24 19:39:36","新北市新店區中正路133號","121.541798333333","24.9713633333333","6500600","新店區"
"231055","AKT-0513","2018/12/24 19:39:19","新北市新店區北新路一段235號","121.540476666667","24.9657366666667","6500600","新店區"
"241011","013-R5","2018/12/24 19:39:17","新北市三重區秀江街110號","121.499248333333","25.0719966666667","6500200","三重區"
"241008","059-VK","2018/12/24 19:39:25","新北市三重區永福街137號","121.47867","25.0768016666667","6500200","三重區"
"241022","060-VK","2018/12/24 19:39:16","新北市三重區中正北路154號","121.48481","25.0659016666667","6500200","三重區"
"241031","061-VK","2018/12/24 19:39:18","新北市三重區重新路四段248號","121.486121666667","25.0534183333333","6500200","三重區"
"241015","062-VK","2018/12/24 19:39:34","新北市三重區福德北路34號","121.502056666667","25.06526","6500200","三重區"
"241017","063-VK","2018/12/24 19:39:33","新北市三重區重陽路三段5巷30號","121.491376666667","25.06546","6500200","三重區"
"241003","091-VK","2018/12/24 19:39:34","新北市三重區五華街93巷97號","121.494181666667","25.085155","6500200","三重區"
"251014","742-BX","2018/12/24 19:39:22","新北市淡水區北勢子14-2號","121.476113333333","25.231385","6501000","淡水區"
"241009","267-UM","2018/12/24 19:39:28","新北市三重區三和路四段406巷20號","121.48036","25.0793733333333","6500200","三重區"
"241032","269-UM","2018/12/24 19:39:19","新北市三重區重陽路一段60巷73號","121.484361666667","25.0582183333333","6500200","三重區"
"241013","270-UM","2018/12/24 19:39:24","新北市三重區仁賢街7號","121.495873333333","25.0746133333333","6500200","三重區"
"241025","271-UM","2018/12/24 19:39:21","新北市三重區頂崁街140號","121.477663333333","25.0651466666667","6500200","三重區"
"241007","398-BY","2018/12/24 19:39:28","新北市三重區仁美街61號","121.486843333333","25.078395","6500200","三重區"
"241035","KEA-2210","2018/12/24 19:39:34","新北市三重區信義西街32號","121.498438333333","25.06476","6500200","三重區"
"241006","462-BY","2018/12/24 19:39:18","新北市三重區聯華街140號","121.484605","25.0749833333333","6500200","三重區"
"241004","475-VK","2018/12/24 19:39:18","新北市三重區仁義街91號","121.499685","25.0796333333333","6500200","三重區"
"241020","478-VK","2018/12/24 19:39:33","新北市三重區自強路三段75號","121.486988333333","25.0736766666667","6500200","三重區"
"241030","480-VK","2018/12/24 19:39:35","新北市三重區新興路28巷12號","121.491828333333","25.0529083333333","6500200","三重區"
"241014","543-UM","2018/12/24 19:39:36","新北市三重區河邊北街82號","121.504258333333","25.06897","6500200","三重區"
"241001","547-UM","2018/12/24 19:39:24","新北市三重區仁愛街315巷23號","121.493685","25.0798833333333","6500200","三重區"
"241019","KEA-2593","2018/12/24 19:39:24","新北市三重區安慶街297巷3弄1號","121.48855","25.0679233333333","6500200","三重區"
"241026","743-BX","2018/12/24 19:39:32","新北市三重區文化南路65巷41號","121.499011666667","25.0607316666667","6500200","三重區"
"241023","887-TS","2018/12/24 19:39:18","新北市三重區頂崁街157號","121.478388333333","25.0649533333333","6500200","三重區"
"241012","941-UM","2018/12/24 19:39:26","新北市三重區仁義街8號","121.499875","25.0756866666667","6500200","三重區"
"241029","942-UM","2018/12/24 19:39:24","新北市三重區重安街102號","121.493118333333","25.05599","6500200","三重區"
"235064","005-UY","2018/12/24 19:39:32","新北市中和區南山路127巷18弄22號","121.503485","24.9970533333333","6500300","中和區"
"235063","006-UY","2018/12/24 19:39:27","新北市中和區安邦街53號","121.496465","24.9973016666667","6500300","中和區"
"235056","096-UM","2018/12/24 19:39:30","新北市中和區中山路三段114巷70號","121.476018333333","25.0076716666667","6500300","中和區"
"235039","097-UM","2018/12/24 19:39:26","新北市中和區景平路148號","121.518243333333","24.992025","6500300","中和區"
"235040","150-BY","2018/12/24 19:39:26","新北市中和區安平路38號","121.509676666667","24.9949366666667","6500300","中和區"
"235058","151-BY","2018/12/24 19:39:32","新北市中和區員山路132巷6號","121.48167","24.996225","6500300","中和區"
"235055","183-VK","2018/12/24 19:39:25","新北市中和區中山路三段179巷5號","121.47293","25.0059116666667","6500300","中和區"
"235038","185-VK","2018/12/24 19:39:21","新北市中和區自立路18號","121.52213","24.993435","6500300","中和區"
"235049","186-VK","2018/12/24 19:39:28","新北市中和區景安路100號","121.505501666667","24.99564","6500300","中和區"
"235067","255-BX","2018/12/24 19:39:26","新北市中和區新生街251號","121.483828333333","24.9985583333333","6500300","中和區"
"235044","293-VK","2018/12/24 19:39:33","新北市中和區南山路541號","121.507948333333","24.9867616666667","6500300","中和區"
"235072","301-VK","2018/12/24 19:39:36","新北市中和區錦和路95號","121.49017","24.99569","6500300","中和區"
"235042","KEA-2878","2018/12/24 19:39:19","新北市中和區景安路79巷37弄2號","121.507623333333","24.9964183333333","6500300","中和區"
"235050","4979-A6","2018/12/24 19:39:30","新北市中和區中正路171號","121.497901666667","24.9936233333333","6500300","中和區"
"235070","558-UM","2018/12/24 19:39:22","新北市中和區景平路549號","121.498533333333","24.9995016666667","6500300","中和區"
"235045","565-BX","2018/12/24 19:39:29","新北市中和區景新街336號","121.511951666667","24.9907216666667","6500300","中和區"
"235054","640-BX","2018/12/24 19:39:24","新北市中和區德光路12號","121.47141","25.004565","6500300","中和區"
"235060","647-TV","2018/12/24 19:39:26","新北市中和區中山路二段523巷2號","121.481675","25.0049183333333","6500300","中和區"
"235046","733-UM","2018/12/24 19:39:24","新北市中和區忠孝街108-4號","121.51213","24.9849383333333","6500300","中和區"
"235071","783-BX","2018/12/24 19:39:24","新北市中和區民樂路70號","121.484161666667","25.0011983333333","6500300","中和區"
"235057","801-TS","2018/12/24 19:39:14","新北市中和區員山路160號","121.481326666667","24.9996916666667","6500300","中和區"
"235041","802-TS","2018/12/24 19:39:17","新北市永和區安樂路250-2號","121.514535","25.0038033333333","6500300","中和區"
"235052","805-TS","2018/12/24 19:39:24","新北市中和區華新街143巷80號","121.506493333333","24.9790433333333","6500300","中和區"
"235048","896-TW","2018/12/24 19:39:33","新北市中和區忠孝街1巷2-1號","121.509226666667","24.9830783333333","6500300","中和區"
"235053","900-TW","2018/12/24 19:39:17","新北市中和區國光街215巷4弄1號","121.466413333333","25.0017233333333","6500300","中和區"
"235065","911-UM","2018/12/24 19:39:26","新北市中和區永和路6號","121.499926666667","25.0029783333333","6500300","中和區"
"235051","157-BY","2018/12/24 19:39:31","新北市中和區中興街132巷26號","121.498775","24.9916133333333","6500300","中和區"
"235037","AAC-213","2018/12/24 19:39:31","新北市中和區秀朗路三段10巷21弄16號","121.525581666667","24.9958616666667","6500300","中和區"
"235059","AAC-215","2018/12/24 19:39:17","新北市中和區錦和路201號","121.490898333333","24.990285","6500300","中和區"
"220065","072-UY","2018/12/24 19:39:20","新北市板橋區國泰街39巷5弄6號","121.468635","25.0060183333333","6500100","板橋區"
"220086","073-UY","2018/12/24 19:39:20","新北市板橋區中正路9號","121.456051666667","25.0120366666667","6500100","板橋區"
"220106","075-UY","2018/12/24 19:39:35","新北市板橋區文化路608巷50-1號","121.479421666667","25.034515","6500100","板橋區"
"220017","AAD-861","2018/12/24 19:39:30","新北市板橋區貴興路119巷7號","121.456068333333","25.00189","6500100","板橋區"
"220016","120-SR","2018/12/24 19:37:39","新北市板橋區民族路219巷67號","121.468485","25.008955","6500100","板橋區"
"247004","002-UY","2018/12/24 19:39:34","新北市蘆洲區長安街98巷22號","121.463118333333","25.0818733333333","6501400","蘆洲區"
"226004","312-R5","2018/12/24 19:37:30","新北市平溪區靜安路三段392巷3號","121.784388333333","25.04954","6502400","平溪區"
"228003","097-TW","2018/12/24 19:39:25","新北市貢寮區真理里美艷山街27號","121.923315","25.0688466666667","6502600","貢寮區"
"228001","670-TC","2018/12/24 19:39:33","新北市貢寮區真理里大澳街7號","121.92474","25.055785","6502600","貢寮區"
"227001","642-TC","2018/12/24 19:39:28","新北市雙溪區雙溪里太平路77號","121.865228333333","25.035985","6502500","雙溪區"
"227008","400-TW","2018/12/24 19:39:31","新北市雙溪區新基里新基北街20號","121.867186666667","25.0389","6502500","雙溪區"
"222001","KEA-2212","2018/12/24 19:39:27","新北市深坑區深坑街150號","121.613035","25.0013666666667","6501800","深坑區"
"208002","KEA-2872","2018/12/24 19:39:35","新北市金山區三民街3號","121.634771666667","25.2223766666667","6502700","金山區"
"208003","665-BX","2018/12/24 19:39:30","新北市金山區仁愛路1巷1號","121.63854","25.2200633333333","6502700","金山區"
"208001","761-BX","2018/12/24 19:39:31","新北市金山區重和里牛埔仔1-2號","121.606841666667","25.2228016666667","6502700","金山區"
"251009","008-UM","2018/12/24 19:39:21","新北市淡水區中山北路一段186巷13弄6號","121.445456666667","25.1790566666667","6501000","淡水區"
"251005","010-UM","2018/12/24 19:39:23","新北市淡水區原德路108巷2號","121.443393333333","25.17352","6501000","淡水區"
"251001","011-UM","2018/12/24 19:39:02","新北市淡水區民權路79號","121.459788333333","25.1384883333333","6501000","淡水區"
"251013","KEA-2871","2018/12/24 19:39:17","新北市淡水區頂田寮路145號","121.461536666667","25.21676","6501000","淡水區"
"251016","179-VK","2018/12/24 19:39:31","新北市淡水區下圭柔山119-51號","121.450723333333","25.2085133333333","6501000","淡水區"
"251008","181-VK","2018/12/24 19:39:32","新北市淡水區中正路32巷2號","121.430911666667","25.17532","6501000","淡水區"
"251015","182-VK","2018/12/24 19:39:20","新北市淡水區泉洲厝25-5號","121.484245","25.1898516666667","6501000","淡水區"
"251010","413-VK","2018/12/24 19:39:22","新北市淡水區新市五路二段75號","121.43242","25.1988116666667","6501000","淡水區"
"251012","441-VK","2018/12/24 19:39:28","新北市淡水區埤島6-10號","121.44603","25.1938533333333","6501000","淡水區"
"251007","442-VK","2018/12/24 19:39:36","新北市淡水區中正東路一段111巷20號","121.455115","25.1609366666667","6501000","淡水區"
"251006","561-UM","2018/12/24 19:39:19","新北市淡水區中山北路一段207巷62號","121.441921666667","25.1792166666667","6501000","淡水區"
"251011","650-BX","2018/12/24 19:39:24","新北市淡水區八勢一街26號","121.460901666667","25.1558283333333","6501000","淡水區"
"207003","550-UM","2018/12/24 19:39:14","新北市萬里區大鵬里下社36號","121.649215","25.2165533333333","6502800","萬里區"
"207004","225-TW","2018/12/24 19:39:22","新北市萬里區萬里里瑪鋉路21號","121.687223333333","25.1753183333333","6502800","萬里區"
"252002","178-VK","2018/12/24 19:39:34","新北市三芝區中正路一段36巷25號","121.504141666667","25.2588083333333","6502100","三芝區"
"252001","292-VK","2018/12/24 19:39:21","新北市三芝區公正街9號","121.499755","25.2575016666667","6502100","三芝區"
"237004","KEA-2597","2018/12/24 19:39:20","新北市三峽區插角233號","121.413143333333","24.8685633333333","6500900","三峽區"
"237007","153-BY","2018/12/24 19:39:36","新北市三峽區二鬮路136巷24弄43號","121.356888333333","24.910515","6500900","三峽區"
"237009","210-TH","2018/12/24 19:39:20","新北市三峽區中園街20-1號","121.368206666667","24.9267433333333","6500900","三峽區"
"237013","252-BX","2018/12/24 19:39:18","新北市三峽區介壽路一段586號","121.388703333333","24.9342616666667","6500900","三峽區"
"237012","275-BY","2018/12/24 19:39:26","新北市三峽區中華路31號","121.372985","24.9311983333333","6500900","三峽區"
"237008","302-VK","2018/12/24 19:39:33","新北市三峽區永安街95巷6號","121.374771666667","24.9287016666667","6500900","三峽區"
"237014","433-BY","2018/12/24 19:39:25","新北市三峽區中正路二段60號","121.366603333333","24.9186116666667","6500900","三峽區"
"237006","5529-G3","2018/12/24 19:39:31","新北市三峽區中正路一段336巷15弄2號","121.369951666667","24.9249533333333","6500900","三峽區"
"237011","KEA-2596","2018/12/24 19:39:27","新北市三峽區中正路一段168號","121.372878333333","24.928615","6500900","三峽區"
"237015","649-BX","2018/12/24 19:39:32","新北市三峽區成福路63號","121.418446666667","24.9291566666667","6500900","三峽區"
"237010","706-TV","2018/12/24 19:39:30","新北市三峽區復興路58號","121.373398333333","24.9370783333333","6500900","三峽區"
"237005","AKY-6261","2018/12/24 19:39:21","新北市三峽區中山路221號","121.363336666667","24.9368933333333","6500900","三峽區"
"236069","105-UM","2018/12/24 19:39:21","新北市土城區中正路1號","121.442373333333","24.975045","6501300","土城區"
"236042","KED-0685","2018/12/24 19:39:25","新北市土城區裕民路258號","121.454505","24.9828583333333","6501300","土城區"
"236078","166-UM","2018/12/24 19:39:27","新北市土城區中州路16號","121.414595","24.95728","6501300","土城區"
"236030","253-BX","2018/12/24 19:39:28","新北市土城區福祥街64號","121.441521666667","24.981545","6501300","土城區"
"236026","269-VK","2018/12/24 19:39:24","新北市土城區中央路二段61巷22號","121.443233333333","24.9787083333333","6501300","土城區"
"236039","271-VK","2018/12/24 19:39:32","新北市土城區青雲路281巷16號","121.45994","24.9800433333333","6501300","土城區"
"247008","KED-0683","2018/12/24 19:39:18","新北市蘆洲區中山二路45巷30號","121.474241666667","25.081205","6501400","蘆洲區"
"236020","401-BY","2018/12/24 19:39:16","新北市土城區峰廷街3號","121.469076666667","24.9873","6501300","土城區"
"236055","752-BX","2018/12/24 19:39:29","新北市土城區學府路一段52號","121.457468333333","24.9884583333333","6501300","土城區"
"236059","912-UM","2018/12/24 19:39:16","新北市土城區中央路二段63號","121.442691666667","24.9788966666667","6501300","土城區"
"236048","913-UM","2018/12/24 19:39:28","新北市土城區明德路一段97號","121.465688333333","24.9829533333333","6501300","土城區"
"236063","915-UM","2018/12/24 19:39:31","新北市土城區延平街69巷1號","121.467575","24.9927966666667","6501300","土城區"
"242056","751-BX","2018/12/24 19:39:15","新北市新莊區瓊林路21-7號","121.446106666667","25.028545","6500500","新莊區"
"242029","612-BX","2018/12/24 19:39:17","新北市新莊區新泰路357巷3弄57號","121.442301666667","25.039285","6500500","新莊區"
"242048","497-BY","2018/12/24 19:39:30","新北市新莊區後港一路1號","121.423993333333","25.02611","6500500","新莊區"
"242002","440-UM","2018/12/24 19:39:20","新北市新莊區瓊林路46-9號","121.447183333333","25.0290483333333","6500500","新莊區"
"242034","135-UY","2018/12/24 19:39:30","新北市新莊區仁愛街14號","121.444303333333","25.0353733333333","6500500","新莊區"
"242013","173-VK","2018/12/24 19:39:30","新北市新莊區中平路111號","121.44468","25.046385","6500500","新莊區"
"242031","348-TH","2018/12/24 19:39:33","新北市新莊區新泰路213巷27號","121.44502","25.0383916666667","6500500","新莊區"
"242004","349-TH","2018/12/24 19:39:32","新北市新莊區化成路29巷59號","121.462561666667","25.0439883333333","6500500","新莊區"
"238015","755-BX","2018/12/24 19:39:33","新北市樹林區中興街46號","121.421155","24.99112","6500700","樹林區"
"238023","601-UM","2018/12/24 19:39:25","新北市樹林區三寶街3號","121.406521666667","25.015735","6500700","樹林區"
"238019","599-UM","2018/12/24 19:39:24","新北市樹林區東榮街8號","121.418121666667","24.9837683333333","6500700","樹林區"
"238024","5061-A6","2018/12/24 19:39:25","新北市樹林區育德街19巷30號","121.39266","24.9699133333333","6500700","樹林區"
"238021","KEA-2539","2018/12/24 19:39:32","新北市樹林區佳園路三段113巷2號","121.386655","24.9507516666667","6500700","樹林區"
"238025","303-VK","2018/12/24 19:39:26","新北市樹林區中山路一段183-1號","121.421508333333","24.9880583333333","6500700","樹林區"
"238017","283-BY","2018/12/24 19:39:28","新北市樹林區保安街二段167巷32號","121.413895","25.0028016666667","6500700","樹林區"
"238014","282-BY","2018/12/24 19:39:23","新北市樹林區千歲街28巷12號","121.42606","24.9955983333333","6500700","樹林區"
"238020","268-VK","2018/12/24 19:39:28","新北市樹林區千歲街111-1號","121.429146666667","25.0014933333333","6500700","樹林區"
"238026","172-UY","2018/12/24 19:39:25","新北市樹林區柑園街一段357號","121.388898333333","24.95596","6500700","樹林區"
"238016","169-UY","2018/12/24 19:39:30","新北市樹林區東和街22-1號","121.403685","24.9810133333333","6500700","樹林區"
"239007","AAC-297","2018/12/24 19:39:27","新北市鶯歌區大湖路326巷4號","121.34601","24.970415","6500800","鶯歌區"
"239006","891-R6","2018/12/24 19:39:36","新北市鶯歌區永昌街92號","121.341421666667","24.94976","6500800","鶯歌區"
"239005","526-UM","2018/12/24 19:39:34","新北市鶯歌區中湖街210號","121.349153333333","24.9748716666667","6500800","鶯歌區"
"239001","417-VK","2018/12/24 19:39:22","新北市鶯歌區尖山埔路72號","121.34819","24.950985","6500800","鶯歌區"
"221008","489-VK","2018/12/24 19:39:28","新北市汐止區康寧街145號","121.621598333333","25.0666216666667","6501100","汐止區"
"221036","130-UY","2018/12/24 19:39:26","新北市汐止區康寧街901號","121.65115","25.0751016666667","6501100","汐止區"
"221015","131-UY","2018/12/24 19:39:09","新北市汐止區康寧街901號","121.651501666667","25.0751083333333","6501100","汐止區"
"221010","269-BY","2018/12/24 19:39:27","新北市汐止區汐萬路二段9號","121.649423333333","25.08056","6501100","汐止區"
"221012","278-VK","2018/12/24 19:39:21","新北市汐止區汐平路一段5號","121.680801666667","25.071245","6501100","汐止區"
"221023","279-VK","2018/12/24 19:39:32","新北市汐止區中興路270號","121.628915","25.0688716666667","6501100","汐止區"
"221032","280-BY","2018/12/24 19:39:18","新北市汐止區大同路二段132號","121.651731666667","25.0638533333333","6501100","汐止區"
"221027","281-BY","2018/12/24 19:39:28","新北市汐止區忠孝東路9號","121.658351666667","25.0659416666667","6501100","汐止區"
"221029","298-VK","2018/12/24 19:39:15","新北市汐止區康寧街901號","121.651495","25.0749733333333","6501100","汐止區"
"221021","299-VK","2018/12/24 19:39:29","新北市汐止區大同路二段173號","121.65161","25.064405","6501100","汐止區"
"221031","353-TW","2018/12/24 19:39:24","新北市汐止區康寧街901號","121.650815","25.07524","6501100","汐止區"
"221025","623-UM","2018/12/24 19:39:21","新北市汐止區福安街17號","121.662551666667","25.065235","6501100","汐止區"
"221038","646-BX","2018/12/24 19:39:34","新北市汐止區忠孝東路246號","121.66279","25.0673066666667","6501100","汐止區"
"221033","647-BX","2018/12/24 19:39:19","新北市汐止區南勢街3號","121.627078333333","25.03744","6501100","汐止區"
"221002","707-TV","2018/12/24 19:39:31","新北市汐止區大同路一段219巷27號","121.6333","25.0583933333333","6501100","汐止區"
"220079","145-BY","2018/12/24 19:39:33","新北市板橋區民權路202巷17弄11號","121.460341666667","25.0165933333333","6500100","板橋區"
"220080","200-UY","2018/12/24 19:39:33","新北市板橋區大觀路二段153巷46弄10號","121.448938333333","24.999525","6500100","板橋區"
"220082","610-BX","2018/12/24 19:39:31","新北市板橋區大觀路三段263號","121.429226666667","24.9922116666667","6500100","板橋區"
"224002","257-TC","2018/12/24 19:39:23","新北市瑞芳區民享新村14號","121.816445","25.1057783333333","6501200","瑞芳區"
"220056","276-BY","2018/12/24 19:39:24","新北市板橋區和平路13號","121.459566666667","24.9943966666667","6500100","板橋區"
"220072","277-BY","2018/12/24 19:39:17","新北市板橋區金門街163-1號","121.433041666667","24.9904066666667","6500100","板橋區"
"220101","280-UM","2018/12/24 19:39:17","新北市板橋區縣民大道三段93巷21號","121.474851666667","25.02242","6500100","板橋區"
"220071","283-VK","2018/12/24 19:39:31","新北市板橋區四川路一段387號","121.457991666667","24.999165","6500100","板橋區"
"220094","285-UM","2018/12/24 19:39:24","新北市板橋區吳鳳路91-1號","121.466726666667","25.0318916666667","6500100","板橋區"
"220053","285-VK","2018/12/24 19:39:36","新北市板橋區民享街6號","121.475703333333","25.0148366666667","6500100","板橋區"
"220083","286-VK","2018/12/24 19:39:34","新北市板橋區龍興街65巷37號","121.442611666667","25.0017316666667","6500100","板橋區"
"220081","287-VK","2018/12/24 19:39:34","新北市板橋區大觀路一段29巷131弄33-16號","121.450468333333","25.004215","6500100","板橋區"
"220090","288-VK","2018/12/24 19:39:17","新北市板橋區新海路431巷20號","121.457723333333","25.02686","6500100","板橋區"
"220061","293-UM","2018/12/24 19:39:28","新北市板橋區中山路一段265巷36弄1號","121.469093333333","25.015205","6500100","板橋區"
"220084","296-UM","2018/12/24 19:39:15","新北市板橋區滿平二街10巷2弄16號","121.425518333333","24.987455","6500100","板橋區"
"220075","303-R5","2018/12/24 19:39:33","新北市板橋區大勇街59號","121.453586666667","25.0168616666667","6500100","板橋區"
"220062","305-R5","2018/12/24 19:39:35","新北市板橋區三民路二段29巷2號","121.481406666667","25.0180366666667","6500100","板橋區"
"220092","307-R5","2018/12/24 19:38:42","新北市板橋區四維路259巷17號","121.462508333333","25.0277116666667","6500100","板橋區"
"220098","317-R6","2018/12/24 19:39:31","新北市板橋區民生路三段281巷2弄2號","121.463646666667","25.0299516666667","6500100","板橋區"
"220089","487-VK","2018/12/24 19:39:26","新北市板橋區龍泉街56-1號","121.457091666667","25.026065","6500100","板橋區"
"220088","491-VK","2018/12/24 19:39:29","新北市板橋區仁化街76號","121.476155","25.0318133333333","6500100","板橋區"
"220035","560-BX","2018/12/24 19:39:25","新北市板橋區金華街85巷42號","121.459171666667","25.021345","6500100","板橋區"
"220103","561-BX","2018/12/24 19:39:20","新北市板橋區自由路40號","121.465636666667","25.023145","6500100","板橋區"
"220063","609-BX","2018/12/24 19:39:24","新北市板橋區中山路二段457號","121.481761666667","25.0203333333333","6500100","板橋區"
"220055","630-UY","2018/12/24 19:39:24","新北市板橋區國慶路278號","121.463211666667","24.9988266666667","6500100","板橋區"
"220091","637-BX","2018/12/24 19:39:27","新北市板橋區懷德街139巷20弄1號","121.480023333333","25.0307683333333","6500100","板橋區"
"220057","686-BX","2018/12/24 19:39:33","新北市板橋區國慶路157號","121.46168","24.9960866666667","6500100","板橋區"
"220077","687-BX","2018/12/24 19:39:22","新北市板橋區僑中二街114巷1號","121.445671666667","25.0065866666667","6500100","板橋區"
"220093","689-BX","2018/12/24 19:39:31","新北市板橋區長江路二段269號","121.469656666667","25.0328683333333","6500100","板橋區"
"220054","741-BX","2018/12/24 19:39:22","新北市板橋區忠孝路202號","121.46583","25.0026383333333","6500100","板橋區"
"220102","KEA-2699","2018/12/24 19:39:27","新北市板橋區松柏街35號","121.475261666667","25.0302833333333","6500100","板橋區"
"220067","829-TW","2018/12/24 19:39:24","新北市板橋區長安街259巷19號","121.472903333333","25.010945","6500100","板橋區"
"220068","830-TW","2018/12/24 19:39:23","新北市板橋區中山路二段412巷8號","121.483105","25.0206066666667","6500100","板橋區"
"220074","895-R6","2018/12/24 19:39:35","新北市板橋區福德街2-1號","121.456086666667","25.0090383333333","6500100","板橋區"
"220073","985-R7","2018/12/24 19:39:25","新北市板橋區國光路67巷14號","121.459005","25.018635","6500100","板橋區"
"220097","AAC-210","2018/12/24 19:39:26","新北市板橋區文化路一段143號","121.462336666667","25.015495","6500100","板橋區"
"220064","AAC-253","2018/12/24 19:39:24","新北市板橋區重慶路67巷1-1號","121.462265","25.0075233333333","6500100","板橋區"
"235068","KEA-2873","2018/12/24 19:39:24","新北市中和區連勝街57巷9號","121.498088333333","24.99695","6500300","中和區"
"235025","KEA-2875","2018/12/24 19:39:21","新北市中和區員山路231號","121.48119","24.998215","6500300","中和區"
"235047","KEA-2876","2018/12/24 19:39:21","新北市中和區和平街196號","121.504855","24.99262","6500300","中和區"
