"lineid","car","time","location","longitude","latitude","cityid","cityname"
"234081","298-R6","2018/12/24 20:29:31","新北市永和區國中路146號","121.523108333333","25.0070033333333","6500400","永和區"
"234038","336-UY","2018/12/24 20:29:22","新北市永和區民樂街39巷23號","121.528908333333","25.0006333333333","6500400","永和區"
"234064","337-UY","2018/12/24 20:29:31","新北市永和區中正路417號","121.51719","25.0049333333333","6500400","永和區"
"234070","552-UM","2018/12/24 20:29:29","新北市永和區永亨路7號","121.519408333333","25.0056816666667","6500400","永和區"
"234086","553-UM","2018/12/24 20:29:34","新北市永和區永和路二段119號","121.514873333333","25.0120083333333","6500400","永和區"
"234030","746-BX","2018/12/24 20:29:18","新北市中和區自強路60號","121.520166666667","24.9944233333333","6500400","永和區"
"234054","KEA-2590","2018/12/24 20:29:18","新北市永和區環河東路一段80號","121.519546666667","25.0164416666667","6500400","永和區"
"234061","AAD-866","2018/12/24 20:29:33","新北市永和區安樂路194巷17弄8號","121.51612","25.0013316666667","6500400","永和區"
"234042","862-TW","2018/12/24 20:29:27","新北市永和區安樂路433號","121.514351666667","25.0045066666667","6500400","永和區"
"234050","863-TW","2018/12/24 20:29:18","新北市永和區新生路25巷2弄4號","121.509293333333","25.016535","6500400","永和區"
"234023","9372-KE","2018/12/24 20:29:15","新北市永和區光復街4號","121.516413333333","25.0167216666667","6500400","永和區"
"249001","173-UM","2018/12/24 20:29:35","新北市八里區中山路三段109號","121.390205","25.1421833333333","6502300","八里區"
"249004","303-UY","2018/12/24 20:29:32","新北市八里區中山路一段129巷31號","121.414041666667","25.15853","6502300","八里區"
"249002","305-UY","2018/12/24 20:29:28","新北市八里區龍米路二段125巷13號","121.445891666667","25.14549","6502300","八里區"
"249003","593-UM","2018/12/24 20:29:36","新北市八里區華峰一街27-1號","121.399243333333","25.1465866666667","6502300","八里區"
"248002","678-BX","2018/12/24 20:29:24","新北市五股區成泰路三段43-7號","121.442558333333","25.0890733333333","6501500","五股區"
"234074","AAC-211","2018/12/24 20:29:36","新北市永和區豫溪街191巷7弄22號","121.523228333333","25.0111016666667","6500400","永和區"
"234067","AAC-212","2018/12/24 20:29:33","新北市永和區保平路292巷40弄2號","121.50776","25.0050183333333","6500400","永和區"
"234003","AAC-295","2018/12/24 20:29:21","新北市永和區中正路620號","121.517026666667","25.0078433333333","6500400","永和區"
"243013","AAD-798","2018/12/24 20:29:36","新北市泰山區明志路三段31號","121.42487","25.04285","6501600","泰山區"
"243009","297-R6","2018/12/24 20:29:30","新北市泰山區泰林路二段518號","121.424116666667","25.06384","6501600","泰山區"
"243016","KEA-2801","2018/12/24 20:29:30","新北市泰山區明志路二段187號","121.42775","25.0494516666667","6501600","泰山區"
"243015","421-VK","2018/12/24 20:29:17","新北市泰山區泰林路二段65號","121.435256666667","25.0582416666667","6501600","泰山區"
"243011","KEA-2215","2018/12/24 20:29:31","新北市泰山區台麗街4號","121.424283333333","25.0383033333333","6501600","泰山區"
"243010","KEA-2216","2018/12/24 20:29:33","新北市泰山區民生路7號","121.429611666667","25.052705","6501600","泰山區"
"243012","646-TV","2018/12/24 20:29:29","新北市泰山區忠孝街19巷3-1號","121.427561666667","25.0657233333333","6501600","泰山區"
"243014","680-BX","2018/12/24 20:29:36","新北市泰山區泰林路二段549號","121.422998333333","25.0636133333333","6501600","泰山區"
"222003","436-BY","2018/12/24 20:29:18","新北市深坑區深坑街42號","121.614898333333","25.001685","6501800","深坑區"
"222002","659-BX","2018/12/24 20:29:08","新北市深坑區萬福路16巷49號","121.611168333333","25.0085833333333","6501800","深坑區"
"231041","002-UM","2018/12/24 20:29:30","新北市新店區中正路516號","121.533781666667","24.98361","6500600","新店區"
"231059","046-UY","2018/12/24 20:29:24","新北市新店區安德街173號","121.508715","24.9589766666667","6500600","新店區"
"231040","047-UY","2018/12/24 20:29:22","新北市新店區三民路118號","121.534366666667","24.97442","6500600","新店區"
"231044","106-UY","2018/12/24 20:29:30","新北市新店區建國路136號","121.539055","24.9790483333333","6500600","新店區"
"231052","108-UY","2018/12/24 20:29:33","新北市新店區松林路38號","121.546236666667","24.9102816666667","6500600","新店區"
"231047","187-VK","2018/12/24 20:29:25","新北市新店區寶慶街58巷21-1號","121.541995","24.987315","6500600","新店區"
"231054","KEA-2219","2018/12/24 20:29:29","新北市新店區檳榔路109號","121.54457","24.9615816666667","6500600","新店區"
"221035","KEA-2785","2018/12/24 20:29:14","新北市汐止區長江街101-5號","121.658675","25.0732033333333","6501100","汐止區"
"231057","256-BX","2018/12/24 20:29:26","新北市新店區花園五路二段3號","121.553641666667","24.9341266666667","6500600","新店區"
"231065","260-TV","2018/12/24 20:29:35","新北市新店區安祥路102巷28號","121.484108333333","24.9639716666667","6500600","新店區"
"231042","268-BY","2018/12/24 20:29:16","新北市新店區寶橋路207號","121.548576666667","24.9770316666667","6500600","新店區"
"231051","278-BY","2018/12/24 20:29:17","新北市新店區中央七街6號","121.530485","24.9747716666667","6500600","新店區"
"231050","AAD-862","2018/12/24 20:29:37","新北市新店區建興街5號","121.540091666667","24.9764616666667","6500600","新店區"
"231058","3713-VJ","2018/12/24 20:29:35","新北市新店區三民路191號","121.535526666667","24.9757633333333","6500600","新店區"
"231066","4716-K9","2018/12/24 20:29:18","新北市新店區安興路69號","121.515996666667","24.9751283333333","6500600","新店區"
"231056","4715-K9","2018/12/24 20:29:20","新北市新店區民生路75巷221號","121.532285","24.9817166666667","6500600","新店區"
"231067","4772-VM","2018/12/24 20:29:16","新北市新店區安華路28-1號","121.519698333333","24.9607966666667","6500600","新店區"
"231049","513-UM","2018/12/24 20:29:33","新北市新店區永業路81巷12號","121.531408333333","24.9483016666667","6500600","新店區"
"231045","617-UM","2018/12/24 20:29:36","新北市新店區新坡一街75號","121.549571666667","24.9642283333333","6500600","新店區"
"231061","619-UM","2018/12/24 20:29:32","新北市新店區安興路141號","121.516596666667","24.97931","6500600","新店區"
"231063","641-BX","2018/12/24 20:29:25","新北市新店區安康路二段382號","121.500353333333","24.9568983333333","6500600","新店區"
"231068","718-UY","2018/12/24 20:29:27","新北市新店區民權路13號","121.542396666667","24.982835","6500600","新店區"
"231064","719-UM","2018/12/24 20:29:29","新北市新店區新和街59巷17號","121.519295","24.9859233333333","6500600","新店區"
"231062","720-UM","2018/12/24 20:29:28","新北市新店區安泰路11巷1號","121.485546666667","24.950235","6500600","新店區"
"231060","897-TW","2018/12/24 20:29:34","新北市新店區錦秀路1號","121.478941666667","24.9458733333333","6500600","新店區"
"231043","899-TW","2018/12/24 20:29:31","新北市新店區建國路86號","121.540576666667","24.9768616666667","6500600","新店區"
"241011","013-R5","2018/12/24 20:29:37","新北市三重區龍門路134號","121.498186666667","25.0730083333333","6500200","三重區"
"241008","059-VK","2018/12/24 20:29:25","新北市三重區永福街176號","121.48117","25.0743433333333","6500200","三重區"
"241022","060-VK","2018/12/24 20:29:33","新北市三重區中正北路20巷11號","121.487945","25.0629916666667","6500200","三重區"
"241031","061-VK","2018/12/24 20:29:18","新北市三重區三寧街15號","121.489488333333","25.0597383333333","6500200","三重區"
"241015","062-VK","2018/12/24 20:29:33","新北市三重區長元街2-2號","121.498776666667","25.065845","6500200","三重區"
"241017","063-VK","2018/12/24 20:29:33","新北市三重區自強路一段288號","121.491591666667","25.0682416666667","6500200","三重區"
"241024","065-VK","2018/12/24 20:29:33","新北市三重區忠孝路三段15巷17號","121.481038333333","25.0676616666667","6500200","三重區"
"241002","090-VK","2018/12/24 20:29:30","新北市三重區仁義街209號","121.496805","25.081705","6500200","三重區"
"241003","091-VK","2018/12/24 20:29:14","新北市三重區富華街129號","121.492681666667","25.0845266666667","6500200","三重區"
"251014","742-BX","2018/12/24 20:29:19","新北市淡水區石頭厝12-3號","121.461251666667","25.2361133333333","6501000","淡水區"
"241005","262-UM","2018/12/24 20:29:19","新北市三重區碧華街318號","121.489936666667","25.0836433333333","6500200","三重區"
"241016","266-UM","2018/12/24 20:29:34","新北市三重區正義北路140號","121.496771666667","25.0659333333333","6500200","三重區"
"241009","267-UM","2018/12/24 20:29:28","新北市三重區永福街60號","121.48109","25.07787","6500200","三重區"
"241018","268-UM","2018/12/24 20:29:15","新北市三重區雙園街75號","121.494286666667","25.0673666666667","6500200","三重區"
"241032","269-UM","2018/12/24 20:29:18","新北市三重區重陽路一段120巷37號","121.485015","25.060205","6500200","三重區"
"241013","270-UM","2018/12/24 20:29:24","新北市三重區溪尾街5巷2號","121.491891666667","25.0744433333333","6500200","三重區"
"241025","271-UM","2018/12/24 20:29:21","新北市三重區頂崁街210巷27號","121.475815","25.0681866666667","6500200","三重區"
"241007","398-BY","2018/12/24 20:29:28","新北市三重區自強路四段32-2號","121.488968333333","25.076935","6500200","三重區"
"241035","KEA-2210","2018/12/24 20:29:34","新北市三重區重新路二段58號","121.498126666667","25.0622183333333","6500200","三重區"
"241006","462-BY","2018/12/24 20:29:18","新北市三重區車路頭街137號","121.484188333333","25.0762083333333","6500200","三重區"
"241004","475-VK","2018/12/24 20:29:38","新北市三重區溪尾街214號","121.488038333333","25.0813433333333","6500200","三重區"
"241020","478-VK","2018/12/24 20:29:27","新北市三重區明德街15號","121.492858333333","25.0724366666667","6500200","三重區"
"241030","480-VK","2018/12/24 20:29:15","新北市三重區成功路62號","121.488581666667","25.0509066666667","6500200","三重區"
"241014","543-UM","2018/12/24 20:29:35","新北市三重區長興街110號","121.501968333333","25.0693066666667","6500200","三重區"
"241001","547-UM","2018/12/24 20:29:24","新北市三重區自強路四段14號","121.4885","25.07629","6500200","三重區"
"241019","KEA-2593","2018/12/24 20:29:24","新北市三重區重陽路四段126巷40號","121.491511666667","25.07078","6500200","三重區"
"241026","743-BX","2018/12/24 20:29:32","新北市三重區福德南路56號","121.50335","25.0618866666667","6500200","三重區"
"241023","887-TS","2018/12/24 20:29:17","新北市三重區自由街16號","121.479825","25.0665483333333","6500200","三重區"
"241012","941-UM","2018/12/24 20:29:26","新北市三重區龍濱路269號","121.501445","25.0729066666667","6500200","三重區"
"241029","942-UM","2018/12/24 20:29:33","新北市三重區集美街225號","121.492011666667","25.0550883333333","6500200","三重區"
"247012","KEA-2869","2018/12/24 20:29:22","新北市蘆洲區復興路201號","121.479628333333","25.0896066666667","6501400","蘆洲區"
"247006","KED-0682","2018/12/24 20:29:22","新北市蘆洲區和平路121巷14弄38號","121.466106666667","25.0802183333333","6501400","蘆洲區"
"235050","4979-A6","2018/12/24 20:29:30","新北市中和區景新街160巷2號","121.505523333333","24.997135","6500300","中和區"
"235069","4980-A6","2018/12/24 20:29:32","新北市中和區中正路432巷6號","121.491135","24.9949483333333","6500300","中和區"
"235059","AAC-215","2018/12/24 20:29:17","新北市中和區員山路32號","121.481165","24.9878283333333","6500300","中和區"
"247002","893-R6","2018/12/24 20:29:33","新北市蘆洲區長安街361巷20號","121.456228333333","25.0875116666667","6501400","蘆洲區"
"247016","546-UM","2018/12/24 20:29:19","新北市蘆洲區光華路114號","121.46698","25.0825583333333","6501400","蘆洲區"
"247024","500-BY","2018/12/24 20:29:29","新北市蘆洲區長興路50巷16號","121.465036666667","25.084765","6501400","蘆洲區"
"247010","336-TH","2018/12/24 20:29:23","新北市蘆洲區信義路222巷53弄20-1號","121.48086","25.0856066666667","6501400","蘆洲區"
"247020","057-VK","2018/12/24 20:29:33","新北市蘆洲區水湳街395號","121.469203333333","25.0942966666667","6501400","蘆洲區"
"247014","053-VK","2018/12/24 20:29:35","新北市蘆洲區中山二路66號","121.4735","25.0821366666667","6501400","蘆洲區"
"247018","007-UY","2018/12/24 20:29:31","新北市蘆洲區民族路291號","121.475361666667","25.0911016666667","6501400","蘆洲區"
"247004","002-UY","2018/12/24 20:29:14","新北市蘆洲區永康街33號","121.457371666667","25.0853216666667","6501400","蘆洲區"
"247022","001-UY","2018/12/24 20:29:17","新北市蘆洲區中正路202號","121.466623333333","25.0883083333333","6501400","蘆洲區"
"222001","KEA-2212","2018/12/24 20:29:27","新北市深坑區北深路三段329號","121.597251666667","25.0051216666667","6501800","深坑區"
"251001","011-UM","2018/12/24 20:29:25","新北市淡水區中山北路一段382號","121.444758333333","25.18282","6501000","淡水區"
"251013","KEA-2871","2018/12/24 20:29:17","新北市淡水區後坑子6號","121.463441666667","25.206675","6501000","淡水區"
"251016","179-VK","2018/12/24 20:29:31","新北市淡水區新埔子11-7號","121.447456666667","25.228505","6501000","淡水區"
"251008","181-VK","2018/12/24 20:29:32","新北市淡水區淡海路189巷6號","121.420031666667","25.1844483333333","6501000","淡水區"
"251015","182-VK","2018/12/24 20:29:31","新北市淡水區淡金路四段542巷17號","121.452711666667","25.227115","6501000","淡水區"
"251010","413-VK","2018/12/24 20:29:22","新北市淡水區沙崙路181巷15號","121.423948333333","25.1843733333333","6501000","淡水區"
"251012","441-VK","2018/12/24 20:29:28","新北市淡水區興仁路108號","121.45168","25.218155","6501000","淡水區"
"251006","561-UM","2018/12/24 20:29:24","新北市淡水區商工路353號","121.468968333333","25.1856233333333","6501000","淡水區"
"251002","672-BX","2018/12/24 20:29:23","新北市淡水區中正路39號","121.44211","25.1695366666667","6501000","淡水區"
"251003","766-UM","2018/12/24 20:29:35","新北市淡水區新生街108巷2號","121.440173333333","25.1747566666667","6501000","淡水區"
"252002","178-VK","2018/12/24 20:29:25","新北市三芝區淡金路二段47-2號","121.503606666667","25.26055","6502100","三芝區"
"252001","292-VK","2018/12/24 20:29:21","新北市三芝區育英街29號","121.500995","25.25738","6502100","三芝區"
"247008","KED-0683","2018/12/24 20:29:18","新北市蘆洲區永安北路二段76巷12-1號","121.483048333333","25.0851633333333","6501400","蘆洲區"
"242036","AAC-296","2018/12/24 20:29:25","新北市新莊區後港一路76巷3弄2號","121.427438333333","25.0257883333333","6500500","新莊區"
"242058","986-R7","2018/12/24 20:29:24","新北市新莊區龍安路278巷4號","121.421945","25.019105","6500500","新莊區"
"242056","751-BX","2018/12/24 20:29:35","新北市新莊區瓊泰路181號","121.443041666667","25.0315433333333","6500500","新莊區"
"242027","615-BX","2018/12/24 20:29:37","新北市新莊區幸福路540號","121.455405","25.049355","6500500","新莊區"
"242025","613-BX","2018/12/24 20:29:31","新北市新莊區五工三路62巷1號","121.459765","25.06458","6500500","新莊區"
"242029","612-BX","2018/12/24 20:29:17","新北市新莊區中華路二段159號","121.452801666667","25.05173","6500500","新莊區"
"242044","566-BX","2018/12/24 20:29:14","新北市新莊區中正路新建巷55號","121.414783333333","25.0214133333333","6500500","新莊區"
"242048","497-BY","2018/12/24 20:29:30","新北市新莊區成功街168號","121.422991666667","25.016955","6500500","新莊區"
"242021","442-UM","2018/12/24 20:29:21","新北市新莊區公園路10巷1號","121.447881666667","25.0387866666667","6500500","新莊區"
"242053","441-UM","2018/12/24 20:29:35","新北市新莊區民安西路229巷9號","121.426643333333","25.0142183333333","6500500","新莊區"
"242002","440-UM","2018/12/24 20:29:20","新北市新莊區中正路80號","121.457685","25.03735","6500500","新莊區"
"242039","415-TV","2018/12/24 20:29:28","新北市新莊區民安路232號","121.426223333333","25.0222416666667","6500500","新莊區"
"242009","413-TV","2018/12/24 20:29:32","新北市新莊區昌盛街81巷4弄2號","121.455541666667","25.05054","6500500","新莊區"
"242046","400-BY","2018/12/24 20:29:34","新北市新莊區裕民街94號","121.418406666667","25.0236333333333","6500500","新莊區"
"242023","362-BY","2018/12/24 20:29:22","新北市新莊區化成路539-1號","121.465106666667","25.064475","6500500","新莊區"
"242060","353-BY","2018/12/24 20:29:33","新北市新莊區民安路318號","121.428656666667","25.0219766666667","6500500","新莊區"
"242034","135-UY","2018/12/24 20:29:24","新北市新莊區中正路334巷4號","121.445751666667","25.0351033333333","6500500","新莊區"
"242050","172-VK","2018/12/24 20:29:18","新北市新莊區民安西路189巷10弄30號","121.426445","25.0152116666667","6500500","新莊區"
"242013","173-VK","2018/12/24 20:29:30","新北市新莊區中平路270巷7弄47號","121.44653","25.0510266666667","6500500","新莊區"
"242017","KED-0687","2018/12/24 20:29:22","新北市新莊區中港一街140號","121.448018333333","25.045125","6500500","新莊區"
"242007","346-TH","2018/12/24 20:29:17","新北市新莊區思源路337號","121.459733333333","25.0498466666667","6500500","新莊區"
"242031","348-TH","2018/12/24 20:29:33","新北市新莊區三和路60-3號","121.43723","25.038705","6500500","新莊區"
"242004","349-TH","2018/12/24 20:29:26","新北市新莊區化成路752-5號","121.465443333333","25.05807","6500500","新莊區"
"242015","351-TH","2018/12/24 20:29:24","新北市新莊區中平路46巷29號","121.44601","25.0438466666667","6500500","新莊區"
"221008","489-VK","2018/12/24 20:29:25","新北市汐止區康寧街111號","121.620636666667","25.0664166666667","6501100","汐止區"
"221036","130-UY","2018/12/24 20:29:29","新北市汐止區新昌路14號","121.66211","25.0673083333333","6501100","汐止區"
"221015","131-UY","2018/12/24 20:29:28","新北市汐止區建成路142巷19弄17號","121.661815","25.0739083333333","6501100","汐止區"
"221010","269-BY","2018/12/24 20:29:27","新北市汐止區八連路一段207號","121.641206666667","25.0806416666667","6501100","汐止區"
"221012","278-VK","2018/12/24 20:29:20","新北市汐止區大同路三段400號","121.681758333333","25.0717633333333","6501100","汐止區"
"221023","279-VK","2018/12/24 20:29:32","新北市汐止區湖東街5巷30號","121.634933333333","25.0735383333333","6501100","汐止區"
"221032","280-BY","2018/12/24 20:29:18","新北市汐止區弘道街53巷10號","121.618728333333","25.0487766666667","6501100","汐止區"
"221027","281-BY","2018/12/24 20:29:28","新北市汐止區中正路214號","121.658228333333","25.068925","6501100","汐止區"
"221029","298-VK","2018/12/24 20:28:34","新北市汐止區樟樹一路129巷34弄19號","121.640433333333","25.0652683333333","6501100","汐止區"
"221021","299-VK","2018/12/24 20:29:29","新北市汐止區水源路一段282巷1號","121.65409","25.0582466666667","6501100","汐止區"
"221031","353-TW","2018/12/24 20:29:24","新北市汐止區福德一路237號","121.634225","25.064735","6501100","汐止區"
"221025","623-UM","2018/12/24 20:29:21","新北市汐止區水源路二段88巷1弄2號","121.656313333333","25.0557933333333","6501100","汐止區"
"221038","646-BX","2018/12/24 20:29:35","新北市汐止區水源路一段56號","121.657563333333","25.0655683333333","6501100","汐止區"
"221033","647-BX","2018/12/24 20:29:19","新北市汐止區林森街73巷3號","121.623461666667","25.0408716666667","6501100","汐止區"
"221002","707-TV","2018/12/24 20:29:31","新北市汐止區福德二路49號","121.634303333333","25.0672383333333","6501100","汐止區"
"220072","277-BY","2018/12/24 20:29:17","新北市林口區汕頭32號","121.366645","25.1349516666667","6500100","板橋區"
"220083","286-VK","2018/12/24 20:29:34","新北市板橋區僑中二街104巷32號","121.444823333333","25.0081133333333","6500100","板橋區"
"242042","281-VK","2018/12/24 20:29:33","新北市新莊區天祥街54巷3弄2號","121.416923333333","25.0295833333333","6500500","新莊區"
"242019","280-VK","2018/12/24 20:29:20","新北市新莊區銘德街33號","121.458415","25.0437266666667","6500500","新莊區"
"220064","AAC-253","2018/12/24 20:29:03","新北市五股區中直路17-4號","121.422866666667","25.1113016666667","6500100","板橋區"
"235068","KEA-2873","2018/12/24 20:29:23","新北市中和區永和路39巷2號","121.498015","25.00491","6500300","中和區"
