"lineid","car","time","location","longitude","latitude","cityid","cityname"
"231059","046-UY","2018/12/24 21:19:24","新北市新店區僑信路2巷2號","121.499771666667","24.9535833333333","6500600","新店區"
"231040","047-UY","2018/12/24 21:19:22","新北市新店區北新路一段32號","121.54095","24.9659133333333","6500600","新店區"
"231052","108-UY","2018/12/24 21:19:33","新北市新店區薏仁坑路自強巷6號","121.496396666667","24.9582483333333","6500600","新店區"
"231047","187-VK","2018/12/24 21:19:25","新北市新店區民生路158巷95號","121.526391666667","24.9810583333333","6500600","新店區"
"231054","KEA-2219","2018/12/24 21:19:22","新北市新店區檳榔路7號","121.541013333333","24.964865","6500600","新店區"
"231051","278-BY","2018/12/24 21:19:17","新北市新店區中正路700巷322-10號","121.534175","24.993535","6500600","新店區"
"231050","AAD-862","2018/12/24 21:19:26","新北市新店區中正路245號","121.539136666667","24.9733666666667","6500600","新店區"
"231063","641-BX","2018/12/24 21:19:25","新北市新店區玫瑰路57巷45號","121.497398333333","24.9464816666667","6500600","新店區"
"231060","897-TW","2018/12/24 21:19:34","新北市新店區薏仁坑路自強巷1號","121.497635","24.9577833333333","6500600","新店區"
"241011","013-R5","2018/12/24 21:19:17","新北市三重區龍濱路191號","121.501975","25.0712466666667","6500200","三重區"
"241008","059-VK","2018/12/24 21:19:25","新北市三重區自強路一段230號","121.493585","25.0669383333333","6500200","三重區"
"241031","061-VK","2018/12/24 21:19:18","新北市三重區五谷王南街46巷37號","121.475713333333","25.0455516666667","6500200","三重區"
"241017","063-VK","2018/12/24 21:19:33","新北市三重區中正北路25巷2號","121.493226666667","25.0626583333333","6500200","三重區"
"241024","065-VK","2018/12/24 21:19:33","新北市三重區中正北路145巷14號","121.484113333333","25.0677816666667","6500200","三重區"
"241002","090-VK","2018/12/24 21:19:26","新北市三重區仁義街387號","121.49457","25.0852833333333","6500200","三重區"
"241003","091-VK","2018/12/24 21:19:34","新北市三重區仁義街319號","121.495286666667","25.0842766666667","6500200","三重區"
"251014","742-BX","2018/12/24 21:14:49","新北市淡水區六塊厝2-1號","121.450148333333","25.2404783333333","6501000","淡水區"
"241005","262-UM","2018/12/24 21:19:19","新北市三重區五華街180巷19號","121.488198333333","25.085855","6500200","三重區"
"241016","266-UM","2018/12/24 21:19:34","新北市三重區自強路一段158號","121.49596","25.0662483333333","6500200","三重區"
"241009","267-UM","2018/12/24 21:19:28","新北市三重區新北大道一段206巷20號","121.482573333333","25.0622683333333","6500200","三重區"
"241018","268-UM","2018/12/24 21:19:35","新北市三重區忠孝路二段160號","121.482121666667","25.067915","6500200","三重區"
"241032","269-UM","2018/12/24 21:19:18","新北市三重區光復路二段170號","121.472125","25.0611716666667","6500200","三重區"
"241013","270-UM","2018/12/24 21:19:24","新北市三重區仁愛街81-1號","121.495936666667","25.0731483333333","6500200","三重區"
"241025","271-UM","2018/12/24 21:19:21","新北市三重區中正北路208巷10弄6號","121.482476666667","25.0668516666667","6500200","三重區"
"241007","398-BY","2018/12/24 21:19:28","新北市三重區正義北路239號","121.495736666667","25.069285","6500200","三重區"
"241006","462-BY","2018/12/24 21:19:18","新北市三重區新北大道一段98號","121.485528333333","25.061495","6500200","三重區"
"241004","475-VK","2018/12/24 21:19:18","新北市三重區碧華街284-1號","121.489246666667","25.0830716666667","6500200","三重區"
"241030","480-VK","2018/12/24 21:19:35","新北市三重區五谷王北街181-1號","121.477498333333","25.054425","6500200","三重區"
"241014","543-UM","2018/12/24 21:19:35","新北市三重區萬全街15號","121.499393333333","25.0696633333333","6500200","三重區"
"241001","547-UM","2018/12/24 21:19:24","新北市三重區仁愛街355號","121.491888333333","25.0799016666667","6500200","三重區"
"241019","KEA-2593","2018/12/24 21:19:28","新北市三重區重陽路三段11號","121.48928","25.0666183333333","6500200","三重區"
"241026","743-BX","2018/12/24 21:13:52","新北市三重區環河南路107號","121.498873333333","25.0567133333333","6500200","三重區"
"241023","887-TS","2018/12/24 21:19:17","新北市三重區中正北路176巷16號","121.482686666667","25.0658983333333","6500200","三重區"
"247012","KEA-2869","2018/12/24 21:19:32","新北市蘆洲區集賢路224巷41號","121.480525","25.0884333333333","6501400","蘆洲區"
"247006","KED-0682","2018/12/24 21:19:22","新北市蘆洲區中華街3號","121.464018333333","25.0817833333333","6501400","蘆洲區"
"220016","120-SR","2018/12/24 21:19:38","新北市板橋區新府路1-9號","121.464048333333","25.012555","6500100","板橋區"
"247002","893-R6","2018/12/24 21:19:33","新北市蘆洲區永樂街90號","121.456668333333","25.088755","6501400","蘆洲區"
"247024","500-BY","2018/12/24 21:19:29","新北市蘆洲區光明路90號","121.462758333333","25.0877516666667","6501400","蘆洲區"
"247010","336-TH","2018/12/24 21:19:23","新北市蘆洲區鷺江街16-1號","121.478905","25.0825016666667","6501400","蘆洲區"
"247020","057-VK","2018/12/24 21:19:33","新北市蘆洲區民族路422巷88-1號","121.473491666667","25.0939433333333","6501400","蘆洲區"
"247014","053-VK","2018/12/24 21:19:35","新北市蘆洲區保和街50-5號","121.469731666667","25.0862616666667","6501400","蘆洲區"
"247018","007-UY","2018/12/24 21:19:26","新北市蘆洲區三民路96號","121.4737","25.0859483333333","6501400","蘆洲區"
"247004","002-UY","2018/12/24 21:19:34","新北市蘆洲區環堤大道2號","121.456166666667","25.08297","6501400","蘆洲區"
"247022","001-UY","2018/12/24 21:19:17","新北市蘆洲區民族路502號","121.469516666667","25.0905283333333","6501400","蘆洲區"
"251009","008-UM","2018/12/24 21:19:21","新北市淡水區民族路112巷3號","121.462543333333","25.1351333333333","6501000","淡水區"
"251005","010-UM","2018/12/24 21:19:23","新北市淡水區水源街一段122巷40號","121.44696","25.1705","6501000","淡水區"
"251001","011-UM","2018/12/24 21:19:21","新北市淡水區中山北路三段31巷110號","121.441876666667","25.1892633333333","6501000","淡水區"
"251013","KEA-2871","2018/12/24 21:19:17","新北市淡水區行忠路328號","121.460521666667","25.1996183333333","6501000","淡水區"
"251016","179-VK","2018/12/24 21:19:31","新北市淡水區前洲子11號","121.441031666667","25.2194316666667","6501000","淡水區"
"251008","181-VK","2018/12/24 21:19:17","新北市淡水區水源街二段229號","121.460508333333","25.1764483333333","6501000","淡水區"
"251015","182-VK","2018/12/24 21:19:31","新北市淡水區淡金路四段542巷17號","121.452646666667","25.2271083333333","6501000","淡水區"
"251010","413-VK","2018/12/24 21:19:22","新北市淡水區淡海路69巷26號","121.421913333333","25.18084","6501000","淡水區"
"251012","441-VK","2018/12/24 21:19:28","新北市淡水區淡金路五段35巷46號","121.452475","25.2347316666667","6501000","淡水區"
"251006","561-UM","2018/12/24 21:19:38","新北市淡水區中正路382號","121.429748333333","25.1752883333333","6501000","淡水區"
"251011","650-BX","2018/12/24 21:19:24","新北市淡水區新民街120巷29號","121.438786666667","25.1788466666667","6501000","淡水區"
"251002","672-BX","2018/12/24 21:19:37","新北市淡水區學府路96號","121.449295","25.1711","6501000","淡水區"
"251003","766-UM","2018/12/24 21:19:15","新北市淡水區新春街85巷25弄6號","121.438663333333","25.1839483333333","6501000","淡水區"
"247008","KED-0683","2018/12/24 21:19:18","新北市蘆洲區民生街17號","121.475803333333","25.0790783333333","6501400","蘆洲區"
"242053","441-UM","2018/12/24 21:19:15","新北市林口區汕頭32號","121.366578333333","25.1350083333333","6500500","新莊區"
"220064","AAC-253","2018/12/24 21:19:23","新北市五股區新五路二段345號","121.444138333333","25.087845","6500100","板橋區"
