"lineid","car","time","location","longitude","latitude","cityid","cityname"
"232002","290-BY","2018/12/25 06:59:30","新北市坪林區下坑子口15-1號","121.715751666667","24.9495683333333","6502000","坪林區"
"232013","291-BY","2018/12/25 06:59:40","新北市坪林區灣潭7-6號","121.677971666667","24.93364","6502000","坪林區"
"232006","758-BX","2018/12/25 06:59:29","新北市坪林區北宜路九段86號","121.736211666667","24.894545","6502000","坪林區"
"244002","248-BX","2018/12/25 06:59:25","新北市林口區文化三路一段403號","121.367093333333","25.073925","6501700","林口區"
"235001","611-BX","2018/12/25 06:59:34","新北市中和區圓通路367巷6號","121.491416666667","24.98924","6500300","中和區"
"235001","157-BY","2018/12/25 06:59:27","新北市中和區和平街29-1號","121.507473333333","24.990985","6500300","中和區"
"226006","AGD-0702","2018/12/25 06:59:37","新北市平溪區石底里公園街18-3號","121.734535","25.0256816666667","6502400","平溪區"
"223006","022-BY","2018/12/25 06:59:28","新北市石碇區靜安路一段88號","121.64735","25.010835","6501900","石碇區"
"223002","KEA-2673","2018/12/25 06:59:24","新北市石碇區四分子路小粗坑巷7號","121.648755","24.9636183333333","6501900","石碇區"
"223003","205-TH","2018/12/25 06:59:39","新北市石碇區石崁37號","121.658276666667","24.9930066666667","6501900","石碇區"
"223008","406-TH","2018/12/25 06:59:25","新北市石碇區雙溪81-1號","121.664788333333","25.0091283333333","6501900","石碇區"
"223004","437-BY","2018/12/25 06:59:37","新北市石碇區碇坪路一段56號","121.657015","24.99155","6501900","石碇區"
"223007","661-BX","2018/12/25 06:59:41","新北市石碇區雙溪81-2號","121.665411666667","25.008905","6501900","石碇區"
"223005","677-TV","2018/12/25 06:59:27","新北市石碇區碇坪路一段60號","121.657118333333","24.9916433333333","6501900","石碇區"
"227006","282-VK","2018/12/25 06:59:45","新北市雙溪區新基里自強路5號","121.866355","25.0390616666667","6502500","雙溪區"
"252004","249-BX","2018/12/25 06:59:35","新北市三芝區埔坪里埔頭坑41號","121.50452","25.264505","6502100","三芝區"
"252007","AAC-283","2018/12/25 06:59:25","新北市三芝區埔坪里埔頭坑41號","121.504736666667","25.2642433333333","6502100","三芝區"
