"lineid","car","time","location","longitude","latitude","cityid","cityname"
"232001","290-BY","2018/12/10 07:29:44","新北市坪林區上坑子口8號","121.701318333333","24.96199","6502000","坪林區"
"232012","291-BY","2018/12/10 07:29:44","新北市坪林區金瓜寮10-2號","121.681215","24.9170833333333","6502000","坪林區"
"232010","375-UM","2018/12/10 07:29:46","新北市坪林區水聳淒坑5-2號","121.72534","24.9281783333333","6502000","坪林區"
"232017","705-BZ","2018/12/10 07:29:32","新北市坪林區樟空子6-1號","121.725898333333","24.9702733333333","6502000","坪林區"
"232005","758-BX","2018/12/10 07:29:36","新北市坪林區魚堀36-2號","121.700291666667","24.9305916666667","6502000","坪林區"
"244001","248-BX","2018/12/10 07:29:41","新北市林口區頂福里53-4號","121.343085","25.0873666666667","6501700","林口區"
"222005","289-BY","2018/12/10 07:29:38","新北市深坑區文化街39巷13號","121.61897","25.0010666666667","6501800","深坑區"
"235001","611-BX","2018/12/10 07:29:45","新北市中和區圓通路367巷6號","121.491556666667","24.98925","6500300","中和區"
"226005","5620-A6","2018/12/10 07:29:31","新北市平溪區靜安路二段141號","121.722483333333","25.0230533333333","6502400","平溪區"
"226001","7418-A5","2018/12/10 07:18:10","新北市平溪區望古里灰4-2號","121.763591666667","25.029045","6502400","平溪區"
"226003","AGD-0702","2018/12/10 07:29:36","新北市平溪區嶺腳里嶺腳寮79號","121.74785","25.0331316666667","6502400","平溪區"
"223006","022-BY","2018/12/10 07:29:34","新北市石碇區新興坑31號","121.649745","25.013855","6501900","石碇區"
"223002","KEA-2673","2018/12/10 07:29:31","新北市石碇區北宜路五段竹坑巷18-5號","121.624776666667","24.939275","6501900","石碇區"
"223003","205-TH","2018/12/10 07:29:34","新北市石碇區中楒子腳2-1號","121.638365","24.9720833333333","6501900","石碇區"
"223008","406-TH","2018/12/10 07:29:48","新北市石碇區靜安路一段337號","121.698773333333","25.0146833333333","6501900","石碇區"
"223004","437-BY","2018/12/10 07:29:38","新北市石碇區八分寮55-5號","121.645181666667","25.0169466666667","6501900","石碇區"
"223001","592-UM","2018/12/10 07:29:33","新北市石碇區中楒子腳2-15號","121.638633333333","24.9734783333333","6501900","石碇區"
"223007","661-BX","2018/12/10 07:29:44","新北市石碇區大溪墘15號","121.693315","25.00829","6501900","石碇區"
"227005","282-VK","2018/12/10 07:29:41","新北市雙溪區牡丹里自強路20號","121.865133333333","25.0392116666667","6502500","雙溪區"
"252006","073-UM","2018/12/10 07:29:38","新北市三芝區古庄里四棧橋34-2號","121.487715","25.2617616666667","6502100","三芝區"
"252004","249-BX","2018/12/10 07:29:42","新北市三芝區店子里龜子山18號","121.500791666667","25.2182983333333","6502100","三芝區"
"237001","361-BY","2018/12/10 07:29:39","新北市三峽區中山路459巷24號","121.357508333333","24.9386516666667","6500900","三峽區"
"242028","612-BX","2018/12/10 07:29:45","新北市新莊區新泰路357巷3弄57號","121.442071666667","25.0391733333333","6500500","新莊區"
"242047","497-BY","2018/12/10 07:29:30","新北市新莊區新泰路357巷3弄57號","121.442328333333","25.0394966666667","6500500","新莊區"
"242001","440-UM","2018/12/10 07:29:04","新北市新莊區三和路12-21號","121.441993333333","25.038765","6500500","新莊區"
"242045","400-BY","2018/12/10 07:29:34","新北市新莊區新泰路357巷3弄57號","121.442281666667","25.039505","6500500","新莊區"
"242022","362-BY","2018/12/10 07:29:43","新北市新莊區三和路12-21號","121.441683333333","25.0386783333333","6500500","新莊區"
"242033","135-UY","2018/12/10 07:29:45","新北市新莊區三和路12-21號","121.441725","25.0386366666667","6500500","新莊區"
"242006","176-VK","2018/12/10 07:29:37","新北市新莊區三和路18-18號","121.440516666667","25.0387883333333","6500500","新莊區"
"242016","233-RS","2018/12/10 07:29:35","新北市新莊區三和路12-21號","121.442175","25.03825","6500500","新莊區"
"242055","346-TH","2018/12/10 07:29:44","新北市新莊區三和路12-21號","121.441826666667","25.0382116666667","6500500","新莊區"
"242018","350-TH","2018/12/10 07:29:44","新北市新莊區三和路12-21號","121.441868333333","25.0387333333333","6500500","新莊區"
"242014","351-TH","2018/12/10 07:29:48","新北市新莊區新泰路357巷3弄57號","121.442028333333","25.0394066666667","6500500","新莊區"
"242040","281-VK","2018/12/10 07:29:45","新北市新莊區三和路12-21號","121.442276666667","25.03829","6500500","新莊區"
"242020","280-VK","2018/12/10 07:29:51","新北市新莊區三和路12-21號","121.44179","25.0380133333333","6500500","新莊區"
