"lineid","car","time","location","longitude","latitude","cityid","cityname"
"232001","290-BY","2018/01/22 06:49:49","新北市坪林區九芎林14-1號","121.706708333333","24.93115","6502000","坪林區"
"232012","291-BY","2018/01/22 06:49:53","新北市坪林區水柳腳37號","121.709878333333","24.9352116666667","6502000","坪林區"
"232010","375-UM","2018/01/22 06:49:37","新北市坪林區北宜路八段462號","121.705991666667","24.921865","6502000","坪林區"
"232017","705-BZ","2018/01/22 06:49:40","新北市坪林區九芎林19-5號","121.708076666667","24.9273233333333","6502000","坪林區"
"232005","758-BX","2018/01/22 06:49:50","新北市坪林區北宜路八段453號","121.705575","24.9235783333333","6502000","坪林區"
"244001","248-BX","2018/01/22 06:49:38","新北市林口區粉寮路二段157號","121.404191666667","25.088055","6501700","林口區"
"223006","022-BY","2018/01/22 06:49:44","新北市石碇區新興坑29-3號","121.646115","25.0159983333333","6501900","石碇區"
"223002","198-BX","2018/01/22 06:49:31","新北市石碇區烏塗窟48-2號","121.654373333333","24.9708016666667","6501900","石碇區"
"223001","592-UM","2018/01/22 06:49:52","新北市石碇區湳窟26號","121.66183","24.9916883333333","6501900","石碇區"
"223004","660-BX","2018/01/22 06:49:53","新北市石碇區碇坪路一段109號","121.663901666667","24.988715","6501900","石碇區"
"223007","661-BX","2018/01/22 06:49:51","新北市石碇區靜安路一段102號","121.648038333333","25.008905","6501900","石碇區"
"223005","677-TV","2018/01/22 06:49:54","新北市石碇區碇坪路一段109號","121.664056666667","24.9885283333333","6501900","石碇區"
"227005","282-VK","2018/01/22 06:49:51","新北市雙溪區新基里自強路5號","121.86638","25.0390716666667","6502500","雙溪區"
"252006","073-UM","2018/01/22 06:49:50","新北市三芝區埔坪里埔頭坑41號","121.504581666667","25.2646","6502100","三芝區"
"220064","282-UM","2018/01/22 06:49:43","新北市板橋區國光路67巷14號","121.458995","25.0187516666667","6500100","板橋區"
