"lineid","car","time","location","longitude","latitude","cityid","cityname"
"232001","290-BY","2018/01/22 07:29:49","新北市坪林區上坑子口9-1號","121.701078333333","24.9622666666667","6502000","坪林區"
"232012","291-BY","2018/01/22 07:29:33","新北市坪林區金瓜寮3-2號","121.681055","24.9185466666667","6502000","坪林區"
"232010","375-UM","2018/01/22 07:29:37","新北市坪林區水聳淒坑17號","121.716928333333","24.9303366666667","6502000","坪林區"
"232017","705-BZ","2018/01/22 07:29:40","新北市坪林區樟空子5號","121.727161666667","24.968025","6502000","坪林區"
"232005","758-BX","2018/01/22 07:29:50","新北市坪林區魚堀48-3號","121.701821666667","24.9334733333333","6502000","坪林區"
"244001","248-BX","2018/01/22 07:29:38","新北市林口區頂福里53-20號","121.343258333333","25.0873483333333","6501700","林口區"
"235001","611-BX","2018/01/22 07:29:57","新北市中和區圓通路367巷6號","121.491421666667","24.9891783333333","6500300","中和區"
"226005","5620-A6","2018/01/22 07:29:53","新北市平溪區石底里公園街8號","121.738091666667","25.02513","6502400","平溪區"
"226001","7418-A5","2018/01/22 07:20:20","新北市平溪區南山里南山坪2號","121.763095","25.0318733333333","6502400","平溪區"
"226003","AGD-0702","2018/01/22 07:29:44","新北市平溪區平溪里平溪街20號","121.738838333333","25.025245","6502400","平溪區"
"223006","022-BY","2018/01/22 07:29:44","新北市石碇區番子坑25-1號","121.677503333333","25.00283","6501900","石碇區"
"223002","198-BX","2018/01/22 07:29:51","新北市石碇區北宜路五段竹坑巷28-3號","121.627188333333","24.9384833333333","6501900","石碇區"
"223008","406-TH","2018/01/22 07:29:51","新北市石碇區番子坑25-1號","121.677473333333","25.0028183333333","6501900","石碇區"
"223001","592-UM","2018/01/22 07:29:52","新北市石碇區中楒子腳3號","121.638218333333","24.971875","6501900","石碇區"
"223004","660-BX","2018/01/22 07:29:29","新北市石碇區八分寮56-1號","121.645028333333","25.0177866666667","6501900","石碇區"
"223007","661-BX","2018/01/22 07:29:52","新北市石碇區蚯蚓坑19-9號","121.687191666667","24.999175","6501900","石碇區"
"223005","677-TV","2018/01/22 07:29:54","新北市石碇區新興坑30號","121.647898333333","25.0169866666667","6501900","石碇區"
"227005","282-VK","2018/01/22 07:29:51","新北市雙溪區牡丹里自強路18號","121.865183333333","25.039345","6502500","雙溪區"
"252006","073-UM","2018/01/22 07:29:50","新北市三芝區錫板里海尾14-8號","121.477421666667","25.2586333333333","6502100","三芝區"
"252004","249-BX","2018/01/22 07:29:38","新北市三芝區興華里楓子林55-1號","121.500841666667","25.214005","6502100","三芝區"
"236007","165-UM","2018/01/22 07:29:53","新北市板橋區信義路279巷18號","121.46372","24.9900883333333","6501300","土城區"
"236001","339-SR","2018/01/22 07:29:46","新北市土城區和平路117號","121.446093333333","24.9620583333333","6501300","土城區"
"242024","615-BX","2018/01/22 07:29:48","新北市新莊區新泰路255巷83號","121.442695","25.0389533333333","6500500","新莊區"
"242026","612-BX","2018/01/22 07:29:43","新北市新莊區新泰路357巷3弄57號","121.44217","25.0392933333333","6500500","新莊區"
"242038","566-BX","2018/01/22 07:29:58","新北市新莊區新泰路255巷83號","121.44205","25.0390266666667","6500500","新莊區"
"242043","442-UM","2018/01/22 07:29:53","新北市新莊區新泰路357巷3弄49號","121.442116666667","25.0400933333333","6500500","新莊區"
"242047","441-UM","2018/01/22 07:29:51","新北市新莊區三和路12-21號","121.442043333333","25.0382766666667","6500500","新莊區"
"242052","440-UM","2018/01/22 07:29:46","新北市新莊區新泰路357巷3弄57號","121.44199","25.03918","6500500","新莊區"
"242003","413-TV","2018/01/22 07:29:37","新北市新莊區新泰路357巷1弄48號","121.442603333333","25.0400216666667","6500500","新莊區"
"242040","400-BY","2018/01/22 07:29:40","新北市新莊區新泰路357巷3弄57號","121.442256666667","25.0396166666667","6500500","新莊區"
"242059","362-BY","2018/01/22 07:29:45","新北市新莊區新泰路255巷83號","121.44238","25.0386083333333","6500500","新莊區"
"242035","133-UY","2018/01/22 07:29:57","新北市新莊區新泰路255巷83號","121.442073333333","25.0389966666667","6500500","新莊區"
"242014","175-VK","2018/01/22 07:29:51","新北市新莊區新泰路255巷83號","121.442115","25.0388583333333","6500500","新莊區"
"242018","348-TH","2018/01/22 07:28:47","新北市新莊區新泰路357巷3弄57號","121.442055","25.0395216666667","6500500","新莊區"
"220064","282-UM","2018/01/22 07:29:42","新北市板橋區國光路51號","121.45814","25.0179583333333","6500100","板橋區"
