"lineid","car","time","location","longitude","latitude","cityid","cityname"
"248004","653-BX","2018/11/02 08:09:41","新北市五股區明德路12巷8號","121.433385","25.0719116666667","6501500","五股區"
"244004","248-BX","2018/11/02 08:08:41","新北市林口區寶斗厝坑79號","121.332405","25.119115","6501700","林口區"
"222005","289-BY","2018/11/02 08:09:33","新北市深坑區北深路三段16號","121.60956","25.0010966666667","6501800","深坑區"
"231007","189-VK","2018/11/02 08:09:45","新北市新店區新潭路一段22巷2號","121.523073333333","24.9429833333333","6500600","新店區"
"231009","192-VK","2018/11/02 08:09:38","新北市新店區北宜路一段286號","121.546778333333","24.952605","6500600","新店區"
"235011","031-BX","2018/11/02 08:09:32","新北市中和區景平路431巷112號","121.50014","24.9949116666667","6500300","中和區"
"235001","611-BX","2018/11/02 08:09:30","新北市中和區圓通路367巷33弄56號","121.496271666667","24.9849416666667","6500300","中和區"
"235001","157-BY","2018/11/02 08:09:28","新北市中和區板南路188-1號","121.500376666667","24.99285","6500300","中和區"
"226005","5620-A6","2018/11/02 08:09:28","新北市平溪區望古里灰3-1號","121.756238333333","25.0293083333333","6502400","平溪區"
"226001","7418-A5","2018/11/02 08:09:35","新北市平溪區望古里石灼坑6-2號","121.768113333333","25.0357183333333","6502400","平溪區"
"226006","AGD-0702","2018/11/02 08:09:37","新北市平溪區靜安路三段442號","121.78704","25.0542616666667","6502400","平溪區"
"223006","022-BY","2018/11/02 08:09:41","新北市坪林區北宜路八段558號","121.717531666667","24.90948","6501900","石碇區"
"223002","KEA-2673","2018/11/02 07:44:05","新北市石碇區大格門5號","121.667853333333","24.9559133333333","6501900","石碇區"
"223003","205-TH","2018/11/02 07:58:29","新北市石碇區崩山36-1號","121.672411666667","24.9580366666667","6501900","石碇區"
"223008","406-TH","2018/11/02 08:09:45","新北市石碇區蚯蚓坑22-1號","121.688141666667","25.0072483333333","6501900","石碇區"
"223001","592-UM","2018/11/02 08:01:57","新北市石碇區樟空子10-1號","121.666896666667","24.962385","6501900","石碇區"
"223004","660-BX","2018/11/02 08:09:31","新北市石碇區外按16-1號","121.650591666667","24.997545","6501900","石碇區"
"223005","677-TV","2018/11/02 08:09:42","新北市石碇區外按12號","121.65063","24.9974816666667","6501900","石碇區"
"227005","282-VK","2018/11/02 08:09:41","新北市雙溪區上林里新寮子15號","121.83548","25.030645","6502500","雙溪區"
"252003","249-BX","2018/11/02 08:09:31","新北市三芝區中山路二段50號","121.503181666667","25.2543083333333","6502100","三芝區"
"237001","159-UY","2018/11/02 08:09:44","新北市三峽區學成路263號","121.375566666667","24.94294","6500900","三峽區"
"242001","233-RS","2018/11/02 08:09:29","新北市新莊區新泰路72號","121.449208333333","25.034985","6500500","新莊區"
