"lineid","car","time","location","longitude","latitude","cityid","cityname"
"248004","653-BX","2018/11/02 08:29:41","新北市五股區明德路12巷6號","121.433511666667","25.0719266666667","6501500","五股區"
"244004","248-BX","2018/11/02 08:29:41","新北市林口區粉寮路19號","121.39997","25.0819616666667","6501700","林口區"
"222005","289-BY","2018/11/02 08:29:33","新北市深坑區萬福路161-1號","121.612391666667","25.0156583333333","6501800","深坑區"
"231007","189-VK","2018/11/02 08:29:45","新北市新店區小坑二路2巷7號","121.532456666667","24.9164233333333","6500600","新店區"
"231009","192-VK","2018/11/02 08:29:38","新北市新店區新烏路三段99巷8號","121.553186666667","24.9020983333333","6500600","新店區"
"235011","031-BX","2018/11/02 08:29:32","新北市中和區中正路161巷6號","121.498625","24.9935233333333","6500300","中和區"
"235001","611-BX","2018/11/02 08:29:31","新北市中和區民安街42巷32號","121.47923","25.0010166666667","6500300","中和區"
"235001","157-BY","2018/11/02 08:29:28","新北市中和區圓通路435巷2-13號","121.487678333333","24.9862116666667","6500300","中和區"
"226005","5620-A6","2018/11/02 08:29:28","新北市平溪區南山里六分10號","121.797028333333","25.0499883333333","6502400","平溪區"
"226001","7418-A5","2018/11/02 08:28:54","新北市平溪區東勢里番仔坑3號","121.74699","25.0001733333333","6502400","平溪區"
"226006","AGD-0702","2018/11/02 08:29:37","新北市平溪區十分里十分街238號","121.778118333333","25.0442233333333","6502400","平溪區"
"223006","022-BY","2018/11/02 08:28:41","新北市坪林區下坑子口24-5號","121.701378333333","24.9496783333333","6501900","石碇區"
"223003","205-TH","2018/11/02 08:29:29","新北市石碇區北宜路六段小金瓜寮巷2-1號","121.655213333333","24.9356266666667","6501900","石碇區"
"223008","406-TH","2018/11/02 08:29:32","新北市石碇區靜安路一段139號","121.671111666667","25.0055683333333","6501900","石碇區"
"223001","592-UM","2018/11/02 08:29:29","新北市石碇區北宜路六段小金瓜寮巷2-1號","121.655388333333","24.9357533333333","6501900","石碇區"
"223004","660-BX","2018/11/02 08:29:31","新北市石碇區崩山3號","121.675695","24.9743366666667","6501900","石碇區"
"223005","677-TV","2018/11/02 08:29:42","新北市石碇區崩山23-5號","121.677488333333","24.9707383333333","6501900","石碇區"
"227005","282-VK","2018/11/02 08:29:21","新北市雙溪區外柑里三叉坑8號","121.826518333333","25.0111216666667","6502500","雙溪區"
"252003","249-BX","2018/11/02 08:29:31","新北市三芝區中山路二段50號","121.50317","25.2541666666667","6502100","三芝區"
"237001","159-UY","2018/11/02 08:29:24","新北市三峽區大觀路16號","121.375365","24.9444533333333","6500900","三峽區"
"242001","233-RS","2018/11/02 08:29:29","新北市樹林區環河路10-1號","121.424676666667","24.9763033333333","6500500","新莊區"
