"lineid","car","time","location","longitude","latitude","cityid","cityname"
"234044","148-BY","2018/11/02 13:59:20","新北市永和區成功路一段63號","121.526983333333","25.0034583333333","6500400","永和區"
"234005","207-UY","2018/11/02 13:59:17","新北市中和區中和路250號","121.5074","24.9995516666667","6500400","永和區"
"234078","298-R6","2018/11/02 13:59:07","新北市永和區國中路35號","121.524611666667","25.0055766666667","6500400","永和區"
"234036","336-UY","2018/11/02 13:59:11","新北市永和區成功路二段90號","121.52662","24.9985566666667","6500400","永和區"
"234062","337-UY","2018/11/02 13:59:15","新北市永和區中正路412巷20弄10號","121.518748333333","25.0015833333333","6500400","永和區"
"234084","338-UY","2018/11/02 13:59:12","新北市永和區福和路72號","121.523168333333","25.0080316666667","6500400","永和區"
"234068","552-UM","2018/11/02 13:59:11","新北市永和區國光路39-6號","121.519361666667","25.00817","6500400","永和區"
"234015","745-BX","2018/11/02 13:59:17","新北市永和區文化路50號","121.51455","25.0150883333333","6500400","永和區"
"234028","746-BX","2018/11/02 13:59:18","新北市永和區四維街75號","121.525191666667","24.9978583333333","6500400","永和區"
"234052","KEA-2590","2018/11/02 13:59:08","新北市永和區竹林路39巷42弄1號","121.520106666667","25.015135","6500400","永和區"
"234012","KEA-2591","2018/11/02 13:58:46","新北市永和區保生路55號","121.504718333333","25.0106083333333","6500400","永和區"
"234060","AAD-866","2018/11/02 13:59:07","新北市永和區中正路151巷8弄2號","121.515961666667","24.9986716666667","6500400","永和區"
"234040","862-TW","2018/11/02 13:59:18","新北市永和區中和路335巷18弄4號","121.507633333333","25.0002816666667","6500400","永和區"
"234048","863-TW","2018/11/02 13:59:16","新北市永和區保安路254號","121.506196666667","25.0126083333333","6500400","永和區"
"234025","9371-KE","2018/11/02 13:59:21","新北市永和區自由街58號","121.513815","25.0059133333333","6500400","永和區"
"234010","9373-KE","2018/11/02 13:59:15","新北市永和區仁愛路352巷112弄12號","121.501125","25.0085483333333","6500400","永和區"
"248019","225-UY","2018/11/02 13:59:02","新北市五股區凌雲路三段85-3號","121.423028333333","25.1240266666667","6501500","五股區"
"234022","9380-KE","2018/11/02 13:59:17","新北市永和區永和路二段233號","121.515555","25.0141266666667","6500400","永和區"
"234076","969-R7","2018/11/02 13:59:14","新北市永和區民族街43巷15號","121.519196666667","24.998425","6500400","永和區"
"234072","AAC-211","2018/11/02 13:59:04","新北市永和區豫溪街185號","121.52247","25.0103566666667","6500400","永和區"
"234066","AAC-212","2018/11/02 13:59:23","新北市永和區永貞路358號","121.51017","25.0066433333333","6500400","永和區"
"234001","AAC-295","2018/11/02 13:59:19","新北市永和區福和路327號","121.51574","25.007145","6500400","永和區"
"244004","248-BX","2018/11/02 13:59:03","新北市林口區中山路267號","121.38527","25.07955","6501700","林口區"
"231027","0293-UT","2018/11/02 13:59:10","新北市新店區北宜路一段39巷20號","121.538821666667","24.95851","6500600","新店區"
"231028","046-UY","2018/11/02 13:59:09","新北市新店區安和路三段46號","121.51799","24.98195","6500600","新店區"
"231001","047-UY","2018/11/02 13:59:04","新北市新店區三民路20巷3號","121.537325","24.9710133333333","6500600","新店區"
"231010","107-UY","2018/11/02 13:59:01","新北市新店區環河路121號","121.529685","24.9714666666667","6500600","新店區"
"231022","108-UY","2018/11/02 13:59:18","新北市新店區新烏路二段50巷3號","121.54765","24.9283316666667","6500600","新店區"
"231012","187-VK","2018/11/02 13:59:14","新北市新店區中興路二段59號","121.546538333333","24.9704716666667","6500600","新店區"
"231023","KEA-2219","2018/11/02 13:59:09","新北市新店區文中路45號","121.539555","24.956595","6500600","新店區"
"231026","256-BX","2018/11/02 13:59:08","新北市新店區環河路66號","121.53684","24.9628366666667","6500600","新店區"
"231003","268-BY","2018/11/02 13:59:16","新北市新店區光明街138巷22號","121.540231666667","24.9609066666667","6500600","新店區"
"231018","278-BY","2018/11/02 13:59:08","新北市新店區中央路204號","121.53042","24.9740716666667","6500600","新店區"
"231016","AAD-862","2018/11/02 13:59:12","新北市新店區郵政路4巷49號","121.55586","24.9518066666667","6500600","新店區"
"231005","355-BY","2018/11/02 13:59:22","新北市新店區中興路三段216號","121.543635","24.982515","6500600","新店區"
"231038","3712-VJ","2018/11/02 13:59:12","新北市新店區安華路30巷1號","121.519665","24.9592716666667","6500600","新店區"
"231037","4716-K9","2018/11/02 13:59:16","新北市新店區安康路三段355巷13號","121.484848333333","24.9505016666667","6500600","新店區"
"231025","4715-K9","2018/11/02 13:59:19","新北市新店區中正路328巷40號","121.538185","24.97642","6500600","新店區"
"231036","512-UM","2018/11/02 13:59:23","新北市新店區安祥路109巷3弄30號","121.476301666667","24.9602833333333","6500600","新店區"
"231013","513-UM","2018/11/02 13:59:18","新北市新店區明德路107號","121.541491666667","24.979365","6500600","新店區"
"231006","617-UM","2018/11/02 13:59:13","新北市新店區北宜路二段215號","121.553268333333","24.9533466666667","6500600","新店區"
"231002","618-UM","2018/11/02 13:59:10","新北市新店區中正路614號","121.533913333333","24.988525","6500600","新店區"
"231030","619-UM","2018/11/02 13:59:14","新北市新店區安康路一段302號","121.5184","24.964045","6500600","新店區"
"231034","641-BX","2018/11/02 13:59:09","新北市新店區達觀路8巷5號","121.50395","24.943575","6500600","新店區"
"231035","719-UM","2018/11/02 13:58:15","新北市新店區安康路二段87號","121.513451666667","24.9629116666667","6500600","新店區"
"231032","720-UM","2018/11/02 13:59:05","新北市新店區莒光路44巷21弄11-6號","121.518633333333","24.9521616666667","6500600","新店區"
"231029","897-TW","2018/11/02 13:59:04","新北市新店區安康路二段1-5號","121.517073333333","24.9639133333333","6500600","新店區"
"231004","899-TW","2018/11/02 13:59:11","新北市新店區北新路二段163號","121.542741666667","24.9762133333333","6500600","新店區"
"231024","AKT-0513","2018/11/02 13:59:10","新北市新店區中央路181-3號","121.535985","24.96887","6500600","新店區"
"235030","003-UY","2018/11/02 13:59:19","新北市中和區中山路二段131巷5弄16號","121.50329","25.00321","6500300","中和區"
"235028","005-UY","2018/11/02 13:59:15","新北市中和區泰和街38巷41號","121.498243333333","25.001395","6500300","中和區"
"235027","006-UY","2018/11/02 13:59:14","新北市中和區連城路268-8號","121.486688333333","24.9963716666667","6500300","中和區"
"235011","031-BX","2018/11/02 13:59:13","新北市中和區中正路574號","121.48632","24.9947333333333","6500300","中和區"
"235020","096-UM","2018/11/02 13:59:03","新北市中和區中正路1220巷5號","121.479745","25.0112516666667","6500300","中和區"
"235003","097-UM","2018/11/02 13:59:09","新北市中和區秀朗路三段177號","121.5243","24.99108","6500300","中和區"
"235029","098-UM","2018/11/02 13:59:08","新北市中和區莊敬路37號","121.500828333333","25.0049316666667","6500300","中和區"
"235004","150-BY","2018/11/02 13:59:05","新北市中和區保健路46巷17號","121.50923","24.9964166666667","6500300","中和區"
"235022","151-BY","2018/11/02 13:59:15","新北市中和區連城路428巷13號","121.4798","24.99551","6500300","中和區"
"235019","183-VK","2018/11/02 13:59:18","新北市中和區德光路13號","121.471156666667","25.004415","6500300","中和區"
"235002","185-VK","2018/11/02 13:59:03","新北市中和區立人街22號","121.519013333333","24.9941516666667","6500300","中和區"
"235013","186-VK","2018/11/02 13:59:14","新北市中和區景新街216號","121.507113333333","24.99513","6500300","中和區"
"235031","255-BX","2018/11/02 13:59:12","新北市中和區新生街242巷1弄2-1號","121.483348333333","24.9975733333333","6500300","中和區"
"235008","293-VK","2018/11/02 13:59:07","新北市中和區中興街161巷8弄1號","121.501025","24.9908866666667","6500300","中和區"
"235036","301-VK","2018/11/02 13:59:03","新北市中和區中山路二段181號","121.50097","25.0028033333333","6500300","中和區"
"235007","352-BY","2018/11/02 13:59:10","新北市中和區成功路1號","121.526386666667","24.994345","6500300","中和區"
"235006","KEA-2878","2018/11/02 13:59:19","新北市中和區秀朗路三段50巷12弄8號","121.524116666667","24.99542","6500300","中和區"
"235014","4979-A6","2018/11/02 13:59:04","新北市中和區華新街63號","121.50798","24.9841816666667","6500300","中和區"
"235033","4980-A6","2018/11/02 13:59:21","新北市中和區景平路471號","121.500415","24.9970816666667","6500300","中和區"
"235034","558-UM","2018/11/02 13:59:17","新北市中和區景新街2號","121.502531666667","24.9997433333333","6500300","中和區"
"235009","565-BX","2018/11/02 13:59:18","新北市中和區景新街467巷20弄142號","121.515235","24.9873566666667","6500300","中和區"
"235018","640-BX","2018/11/02 13:59:19","新北市中和區民享街86巷27號","121.472993333333","25.0004616666667","6500300","中和區"
"235024","647-TV","2018/11/02 13:59:18","新北市中和區民治街8巷1號","121.474983333333","25.0049666666667","6500300","中和區"
"235011","732-UM","2018/11/02 13:59:13","新北市中和區興南路二段54巷11弄10號","121.505508333333","24.9853433333333","6500300","中和區"
"235010","733-UM","2018/11/02 13:59:04","新北市中和區興南路一段135巷22弄12號","121.509065","24.9867783333333","6500300","中和區"
"235035","783-BX","2018/11/02 13:59:15","新北市中和區立德街12號","121.490233333333","25.00668","6500300","中和區"
"235026","800-TS","2018/11/02 13:59:11","新北市中和區中山路二段366巷13-1號","121.491776666667","25.0044916666667","6500300","中和區"
"235021","801-TS","2018/11/02 13:59:15","新北市中和區民利街95號","121.477865","24.99791","6500300","中和區"
"235005","802-TS","2018/11/02 13:59:20","新北市中和區永貞路264號","121.513678333333","25.003665","6500300","中和區"
"235016","805-TS","2018/11/02 13:59:23","新北市中和區興南路二段261巷6-2號","121.503976666667","24.9801116666667","6500300","中和區"
"235012","896-TW","2018/11/02 13:59:10","新北市中和區華新街61號","121.507996666667","24.9842383333333","6500300","中和區"
"235017","900-TW","2018/11/02 13:59:03","新北市中和區壽德街22號","121.466291666667","24.9945216666667","6500300","中和區"
"235015","157-BY","2018/11/02 13:59:11","新北市中和區忠孝街31巷33弄1號","121.509866666667","24.9845616666667","6500300","中和區"
"235001","AAC-213","2018/11/02 13:59:20","新北市中和區自立路3號","121.522753333333","24.9966833333333","6500300","中和區"
"235023","AAC-215","2018/11/02 13:59:24","新北市中和區圓通路369巷5弄12號","121.491448333333","24.988505","6500300","中和區"
"220013","072-UY","2018/11/02 13:59:12","新北市板橋區漢生東路326巷2弄1號","121.471421666667","25.0079416666667","6500100","板橋區"
"220105","075-UY","2018/11/02 13:59:22","新北市板橋區莒光路42號","121.470453333333","25.0244916666667","6500100","板橋區"
"220017","AAD-861","2018/11/02 13:59:23","新北市板橋區華興街58號","121.457771666667","25.0048783333333","6500100","板橋區"
"247015","546-UM","2018/11/02 13:59:20","新北市蘆洲區光華路15-1號","121.469623333333","25.0833466666667","6501400","蘆洲區"
"247013","339-TH","2018/11/02 13:59:15","新北市蘆洲區中正路181號","121.468718333333","25.085315","6501400","蘆洲區"
"247005","337-TH","2018/11/02 13:59:05","新北市蘆洲區永安南路二段50號","121.465951666667","25.0776033333333","6501400","蘆洲區"
"247007","336-TH","2018/11/02 13:59:16","新北市三重區永安北路一段13號","121.476236666667","25.0749616666667","6501400","蘆洲區"
"247019","057-VK","2018/11/02 13:59:19","新北市蘆洲區民族路426巷40弄11號","121.473451666667","25.0930966666667","6501400","蘆洲區"
"247009","056-VK","2018/11/02 13:59:20","新北市蘆洲區中興街46號","121.481478333333","25.0870816666667","6501400","蘆洲區"
"247017","007-UY","2018/11/02 13:59:20","新北市蘆洲區民族路255巷10號","121.47636","25.0897683333333","6501400","蘆洲區"
"247003","002-UY","2018/11/02 13:59:09","新北市蘆洲區長榮路19-1號","121.463493333333","25.082275","6501400","蘆洲區"
"247021","001-UY","2018/11/02 13:59:17","新北市蘆洲區中正路261號","121.46736","25.087295","6501400","蘆洲區"
"207002","749-BX","2018/11/02 13:59:08","新北市萬里區溪底里溪底路9號","121.620933333333","25.14877","6502800","萬里區"
"207001","662-BX","2018/11/02 13:59:18","新北市萬里區磺潭里磺溪12-1號","121.631686666667","25.2023333333333","6502800","萬里區"
"236067","105-UM","2018/11/02 13:59:19","新北市土城區和平路54號","121.445145","24.9689183333333","6501300","土城區"
"236077","166-UM","2018/11/02 13:59:16","新北市土城區永寧路32巷10弄6號","121.429088333333","24.9608883333333","6501300","土城區"
"236029","253-BX","2018/11/02 13:59:23","新北市土城區中央路二段239-1號","121.440166666667","24.9718716666667","6501300","土城區"
"236024","269-VK","2018/11/02 13:59:08","新北市土城區承天路13號","121.436183333333","24.9658016666667","6501300","土城區"
"236013","270-VK","2018/11/02 13:59:19","新北市土城區城林路6巷80號","121.438506666667","24.9797783333333","6501300","土城區"
"236032","271-VK","2018/11/02 13:59:17","新北市土城區城林路6巷80號","121.438201666667","24.9795133333333","6501300","土城區"
"236016","401-BY","2018/11/02 13:59:15","新北市土城區城林路6巷80號","121.4386","24.9797983333333","6501300","土城區"
"236057","912-UM","2018/11/02 13:59:19","新北市土城區中央路三段248-1號","121.427715","24.9642183333333","6501300","土城區"
"236045","913-UM","2018/11/02 13:59:21","新北市土城區城林路6巷80號","121.438513333333","24.9796866666667","6501300","土城區"
"236060","915-UM","2018/11/02 13:59:16","新北市土城區城林路6巷80號","121.438545","24.9796916666667","6501300","土城區"
"236054","AAC-216","2018/11/02 13:59:20","新北市土城區城林路6巷80號","121.438575","24.9797433333333","6501300","土城區"
"242001","233-RS","2018/11/02 13:59:12","新北市新莊區自強街37巷14弄4號","121.454223333333","25.0468533333333","6500500","新莊區"
"221033","647-BX","2018/11/02 13:59:04","新北市新店區薏仁坑路8-2號","121.499395","24.9588783333333","6501100","汐止區"
"220027","145-BY","2018/11/02 13:59:12","新北市板橋區民權路202巷14弄2號","121.460656666667","25.0158383333333","6500100","板橋區"
"220028","200-UY","2018/11/02 13:39:54","新北市板橋區大觀路二段265巷130弄32號","121.440753333333","24.9966483333333","6500100","板橋區"
"220030","610-BX","2018/11/02 13:59:15","新北市板橋區溪北路45號","121.427518333333","24.9899666666667","6500100","板橋區"
"220004","276-BY","2018/11/02 13:59:12","新北市板橋區信義路148號","121.458921666667","24.9917416666667","6500100","板橋區"
"220020","277-BY","2018/11/02 13:59:10","新北市板橋區金門街369巷9號","121.428751666667","24.9846666666667","6500100","板橋區"
"220005","282-UM","2018/11/02 13:59:14","新北市板橋區館前東路68號","121.461306666667","25.007235","6500100","板橋區"
"220019","283-VK","2018/11/02 13:59:18","新北市板橋區忠孝路154巷7號","121.464096666667","25.002","6500100","板橋區"
"220043","285-UM","2018/11/02 13:59:07","新北市板橋區莒光路1-1號","121.469636666667","25.0250066666667","6500100","板橋區"
"220001","285-VK","2018/11/02 13:59:20","新北市板橋區中山路二段89巷45號","121.473675","25.017235","6500100","板橋區"
"220031","286-VK","2018/11/02 13:59:06","新北市板橋區大觀路一段38巷156弄15號","121.442446666667","25.00523","6500100","板橋區"
"220029","287-VK","2018/11/02 13:59:16","新北市板橋區光華街26號","121.45396","25.01232","6500100","板橋區"
"220039","288-VK","2018/11/02 13:59:14","新北市板橋區四維路177巷4弄22號","121.463315","25.02675","6500100","板橋區"
"220009","295-UM","2018/11/02 13:59:19","新北市板橋區富山街109巷8號","121.47605","25.021735","6500100","板橋區"
"220023","303-R5","2018/11/02 13:59:16","新北市板橋區館前西路213巷13號","121.454396666667","25.0082016666667","6500100","板橋區"
"220010","305-R5","2018/11/02 13:59:19","新北市板橋區三民路二段245巷53號","121.48069","25.0126283333333","6500100","板橋區"
"220041","307-R5","2018/11/02 13:59:18","新北市板橋區文化路一段136巷8弄4號","121.465326666667","25.0184316666667","6500100","板橋區"
"220047","317-R6","2018/11/02 13:59:07","新北市板橋區民有街49號","121.465493333333","25.025965","6500100","板橋區"
"220012","486-VK","2018/11/02 13:59:04","新北市板橋區板新路151號","121.4699","25.0155166666667","6500100","板橋區"
"220038","487-VK","2018/11/02 13:59:08","新北市板橋區仁化街40號","121.474991666667","25.031645","6500100","板橋區"
"220037","491-VK","2018/11/02 13:59:14","新北市板橋區文化路二段16-2號","121.46869","25.02419","6500100","板橋區"
"220104","560-BX","2018/11/02 13:59:08","新北市板橋區中正路375巷27號","121.45375","25.0201366666667","6500100","板橋區"
"220052","561-BX","2018/11/02 13:59:19","新北市板橋區民生路二段121號","121.470785","25.0183816666667","6500100","板橋區"
"220032","568-UM","2018/11/02 13:59:14","新北市板橋區大觀路二段142-1號","121.442665","24.99915","6500100","板橋區"
"220011","609-BX","2018/11/02 13:59:14","新北市板橋區中山路二段291-11號","121.478275","25.0181916666667","6500100","板橋區"
"220034","630-UY","2018/11/02 13:59:09","新北市板橋區中正路236巷8號","121.45617","25.01895","6500100","板橋區"
"220040","637-BX","2018/11/02 13:59:23","新北市板橋區大同街36號","121.478311666667","25.0274133333333","6500100","板橋區"
"220025","687-BX","2018/11/02 13:59:22","新北市板橋區大觀路二段174巷193弄2號","121.442291666667","25.0040483333333","6500100","板橋區"
"220042","689-BX","2018/11/02 13:59:11","新北市板橋區民生路三段170-6號","121.465506666667","25.0286116666667","6500100","板橋區"
"220002","741-BX","2018/11/02 13:59:12","新北市板橋區重慶路93巷47號","121.463388333333","25.0059783333333","6500100","板橋區"
"220051","KEA-2699","2018/11/02 13:59:18","新北市板橋區懷德街235巷2-1號","121.481393333333","25.0280083333333","6500100","板橋區"
"220003","827-TW","2018/11/02 13:59:10","新北市板橋區中山路1段158巷22-1號","121.466371666667","25.0110133333333","6500100","板橋區"
"220014","829-TW","2018/11/02 13:59:23","新北市板橋區三民路二段正隆巷54號","121.476683333333","25.0141616666667","6500100","板橋區"
"220016","830-TW","2018/11/02 13:58:52","新北市板橋區中山路二段443巷68號","121.481115","25.0219566666667","6500100","板橋區"
"220045","831-TW","2018/11/02 13:59:07","新北市板橋區莒光路75號","121.471591666667","25.02417","6500100","板橋區"
"220022","895-R6","2018/11/02 13:59:18","新北市板橋區西門街59號","121.454435","25.00918","6500100","板橋區"
"220021","985-R7","2018/11/02 13:59:09","新北市板橋區林園街7-1號","121.453948333333","25.009125","6500100","板橋區"
"220046","AAC-210","2018/11/02 13:59:21","新北市板橋區國光路210號","121.462123333333","25.01852","6500100","板橋區"
"220018","AAC-253","2018/11/02 13:59:09","新北市板橋區四川路一段268號","121.459023333333","25.0010016666667","6500100","板橋區"
"235032","KEA-2873","2018/11/02 13:58:57","新北市中和區連勝街38巷28號","121.497628333333","24.9980933333333","6500300","中和區"
"235025","KEA-2875","2018/11/02 13:59:16","新北市中和區民有街10號","121.475491666667","25.0055716666667","6500300","中和區"
