"lineid","car","time","location","longitude","latitude","cityid","cityname"
"234025","9371-KE","2018/11/02 14:49:21","新北市永和區雙和街52巷2號","121.509055","25.0031333333333","6500400","永和區"
"248019","225-UY","2018/11/02 14:49:23","新北市五股區凌雲路三段23-3號","121.429998333333","25.11076","6501500","五股區"
"234001","AAC-295","2018/11/02 14:49:08","新北市永和區大新街78巷3號","121.517323333333","25.0079416666667","6500400","永和區"
"231027","0293-UT","2018/11/02 14:49:10","新北市新店區中正路309號","121.536728333333","24.97491","6500600","新店區"
"231028","046-UY","2018/11/02 14:49:09","新北市新店區安德街66號","121.510463333333","24.96189","6500600","新店區"
"231001","047-UY","2018/11/02 14:49:23","新北市新店區三民路69號","121.536216666667","24.9713366666667","6500600","新店區"
"231022","108-UY","2018/11/02 14:49:18","新北市新店區桂山路51巷6-1號","121.562006666667","24.9015816666667","6500600","新店區"
"231012","187-VK","2018/11/02 14:49:26","新北市新店區永華街75號","121.545093333333","24.97512","6500600","新店區"
"231023","KEA-2219","2018/11/02 14:49:09","新北市新店區檳榔路150號","121.54393","24.96142","6500600","新店區"
"231026","256-BX","2018/11/02 14:49:17","新北市新店區安一路一段1-1號","121.51977","24.9619833333333","6500600","新店區"
"231003","268-BY","2018/11/02 14:49:15","新北市新店區中興路二段121巷1號","121.54745","24.972","6500600","新店區"
"231018","278-BY","2018/11/02 14:49:08","新北市新店區中央五街3-1號","121.530278333333","24.9742416666667","6500600","新店區"
"231016","AAD-862","2018/11/02 14:49:12","新北市新店區北宜路三段171號","121.585946666667","24.9512916666667","6500600","新店區"
"231005","355-BY","2018/11/02 14:49:22","新北市新店區復興路2號","121.532421666667","24.9882516666667","6500600","新店區"
"231038","3712-VJ","2018/11/02 14:49:12","新北市新店區安華路28-1號","121.519793333333","24.9610466666667","6500600","新店區"
"231037","4716-K9","2018/11/02 14:49:16","新北市新店區柴埕路52巷17號","121.511435","24.9652383333333","6500600","新店區"
"231025","4715-K9","2018/11/02 14:49:19","新北市新店區大豐路68巷11號","121.538701666667","24.9801033333333","6500600","新店區"
"231036","512-UM","2018/11/02 14:49:07","新北市新店區安祥路104巷6弄36號","121.483116666667","24.962965","6500600","新店區"
"231013","513-UM","2018/11/02 14:49:19","新北市新店區北新路二段59巷11號","121.542473333333","24.973455","6500600","新店區"
"231006","617-UM","2018/11/02 14:49:22","新北市新店區北宜路一段140巷3號","121.539801666667","24.95463","6500600","新店區"
"231002","618-UM","2018/11/02 14:49:10","新北市新店區中正路504號","121.53381","24.9824883333333","6500600","新店區"
"231030","619-UM","2018/11/02 14:49:14","新北市新店區安興路96-1號","121.515256666667","24.9764883333333","6500600","新店區"
"231034","641-BX","2018/11/02 14:49:09","新北市新店區玫瑰路4-1號","121.493571666667","24.9514416666667","6500600","新店區"
"231039","718-UY","2018/11/02 14:49:20","新北市新店區安一路一段1-1號","121.519623333333","24.9611033333333","6500600","新店區"
"231035","719-UM","2018/11/02 14:48:35","新北市新店區安和路二段160號","121.519775","24.9734366666667","6500600","新店區"
"231029","897-TW","2018/11/02 14:49:24","新北市新店區錦秀路19號","121.47939","24.9445116666667","6500600","新店區"
"231004","899-TW","2018/11/02 14:49:11","新北市新店區建國路131號","121.539416666667","24.9781383333333","6500600","新店區"
"231024","AKT-0513","2018/11/02 14:49:10","新北市新店區力行路14巷16弄5號","121.539496666667","24.96563","6500600","新店區"
"235030","003-UY","2018/11/02 14:49:19","新北市中和區南工路70號","121.506511666667","25.0020883333333","6500300","中和區"
"235020","096-UM","2018/11/02 14:49:03","新北市中和區中山路三段114巷2號","121.476055","25.0064133333333","6500300","中和區"
"235003","097-UM","2018/11/02 14:49:09","新北市永和區中正路97號","121.514963333333","24.99754","6500300","中和區"
"235029","098-UM","2018/11/02 14:49:08","新北市中和區永和路39巷20號","121.497356666667","25.005165","6500300","中和區"
"235004","150-BY","2018/11/02 14:49:05","新北市中和區安和路39號","121.509665","24.994815","6500300","中和區"
"235002","185-VK","2018/11/02 14:49:03","新北市永和區民權路53-1號","121.52054","24.996495","6500300","中和區"
"235013","186-VK","2018/11/02 14:49:14","新北市中和區中正路72號","121.500825","24.99377","6500300","中和區"
"235031","255-BX","2018/11/02 14:49:12","新北市中和區中正路751巷3弄1號","121.484403333333","24.9996266666667","6500300","中和區"
"235008","293-VK","2018/11/02 14:49:07","新北市中和區板南路126號","121.502846666667","24.9925833333333","6500300","中和區"
"235036","301-VK","2018/11/02 14:49:23","新北市中和區板南路399巷2號","121.493501666667","24.9990483333333","6500300","中和區"
"235007","352-BY","2018/11/02 14:49:10","新北市中和區安和路9號","121.511631666667","24.993615","6500300","中和區"
"235014","4979-A6","2018/11/02 14:49:04","新北市中和區景平路241巷64弄2號","121.507791666667","24.99251","6500300","中和區"
"235034","558-UM","2018/11/02 14:49:17","新北市中和區圓通路99號","121.499643333333","24.9966566666667","6500300","中和區"
"235018","640-BX","2018/11/02 14:49:19","新北市中和區中山路三段209號","121.471908333333","25.006235","6500300","中和區"
"235024","647-TV","2018/11/02 14:49:18","新北市中和區新生街30巷11號","121.482671666667","25.0037716666667","6500300","中和區"
"235011","732-UM","2018/11/02 14:49:08","新北市中和區和平街128號","121.506636666667","24.9916033333333","6500300","中和區"
"235010","733-UM","2018/11/02 14:49:04","新北市中和區仁愛街24號","121.510755","24.9887266666667","6500300","中和區"
"235035","783-BX","2018/11/02 14:49:15","新北市中和區建一路120號","121.488021666667","25.00022","6500300","中和區"
"235026","800-TS","2018/11/02 14:49:18","新北市中和區建六路61號","121.486785","25.0024033333333","6500300","中和區"
"235005","802-TS","2018/11/02 14:49:20","新北市中和區安平路38號","121.510086666667","24.9950033333333","6500300","中和區"
"235016","805-TS","2018/11/02 14:49:09","新北市中和區華新街192巷25號","121.50631","24.9830583333333","6500300","中和區"
"235012","896-TW","2018/11/02 14:49:10","新北市中和區忠孝街108-4號","121.51217","24.9849083333333","6500300","中和區"
"235017","900-TW","2018/11/02 14:49:23","新北市中和區國光街215巷10弄1號","121.466683333333","25.00078","6500300","中和區"
"235015","157-BY","2018/11/02 14:49:11","新北市中和區景安路220巷1弄2號","121.5032","24.9909483333333","6500300","中和區"
"235001","AAC-213","2018/11/02 14:49:20","新北市中和區秀朗路三段175巷1號","121.524688333333","24.99146","6500300","中和區"
"235023","AAC-215","2018/11/02 14:49:03","新北市中和區圓通路305巷5弄9號","121.493933333333","24.990385","6500300","中和區"
"220013","072-UY","2018/11/02 14:49:12","新北市中和區中山路三段229巷43號","121.469396666667","25.00566","6500100","板橋區"
"220105","075-UY","2018/11/02 14:49:20","新北市板橋區民治街71巷29號","121.480583333333","25.0330783333333","6500100","板橋區"
"220017","AAD-861","2018/11/02 14:49:09","新北市板橋區貴興路69號","121.45701","25.0030233333333","6500100","板橋區"
"247001","893-R6","2018/11/02 14:49:04","新北市蘆洲區永康街58號","121.459295","25.086085","6501400","蘆洲區"
"207002","749-BX","2018/11/02 14:49:08","新北市萬里區崁腳里崁腳路91號","121.64757","25.1595216666667","6502800","萬里區"
"207001","662-BX","2018/11/02 14:49:18","新北市萬里區雙興里二坪路1號","121.649425","25.1779183333333","6502800","萬里區"
"236067","105-UM","2018/11/02 14:49:18","新北市土城區明德路二段99巷2弄4號","121.450225","24.9810166666667","6501300","土城區"
"236040","KED-0685","2018/11/02 14:49:17","新北市土城區學府路一段183號","121.452366666667","24.98503","6501300","土城區"
"236077","166-UM","2018/11/02 14:49:16","新北市土城區中央路四段125巷2弄2號","121.416548333333","24.95721","6501300","土城區"
"236029","253-BX","2018/11/02 14:49:23","新北市土城區忠義路36巷12號","121.440043333333","24.9697033333333","6501300","土城區"
"236024","269-VK","2018/11/02 14:49:26","新北市土城區中央路二段227號","121.44053","24.9724966666667","6501300","土城區"
"236013","270-VK","2018/11/02 14:49:19","新北市土城區金城路二段356號","121.46157","24.9850283333333","6501300","土城區"
"236032","271-VK","2018/11/02 14:49:17","新北市土城區仁愛路54巷1-3號","121.462358333333","24.978525","6501300","土城區"
"236016","401-BY","2018/11/02 14:49:15","新北市土城區延吉街251號","121.467666666667","24.98495","6501300","土城區"
"236057","912-UM","2018/11/02 14:49:05","新北市土城區金城路一段56號","121.442323333333","24.9704033333333","6501300","土城區"
"236045","913-UM","2018/11/02 14:49:21","新北市板橋區廣權路2號","121.460231666667","24.9907633333333","6501300","土城區"
"236060","915-UM","2018/11/02 14:49:16","新北市土城區延和路106號","121.466981666667","24.9897783333333","6501300","土城區"
"236054","AAC-216","2018/11/02 14:49:20","新北市土城區裕民路176號","121.45273","24.985335","6501300","土城區"
"242001","233-RS","2018/11/02 14:49:12","新北市五股區新五路二段367號","121.44437","25.08807","6500500","新莊區"
"221033","647-BX","2018/11/02 14:49:04","新北市汐止區明峰街129號","121.630446666667","25.0709333333333","6501100","汐止區"
"220027","145-BY","2018/11/02 14:49:11","新北市板橋區中正路183巷25-3號","121.45505","25.0159","6500100","板橋區"
"220028","200-UY","2018/11/02 14:24:54","新北市板橋區大觀路一段26號","121.449658333333","25.0087266666667","6500100","板橋區"
"220030","610-BX","2018/11/02 14:49:08","新北市板橋區大觀路三段201號","121.431766666667","24.99311","6500100","板橋區"
"220050","245-BX","2018/11/02 14:49:23","新北市板橋區縣民大道三段103巷21號","121.475328333333","25.0227533333333","6500100","板橋區"
"220004","276-BY","2018/11/02 14:49:12","新北市板橋區四川路二段47巷3弄12號","121.454535","24.9947383333333","6500100","板橋區"
"220020","277-BY","2018/11/02 14:49:23","新北市板橋區篤行路一段29號","121.432093333333","24.99474","6500100","板橋區"
"220005","282-UM","2018/11/02 14:49:14","新北市板橋區廣權路16號","121.461185","24.9915566666667","6500100","板橋區"
"220019","283-VK","2018/11/02 14:49:18","新北市板橋區和平路174巷12號","121.464075","24.9950383333333","6500100","板橋區"
"220043","285-UM","2018/11/02 14:49:07","新北市板橋區長江路一段200號","121.462373333333","25.0307533333333","6500100","板橋區"
"220001","285-VK","2018/11/02 14:49:15","新北市板橋區中山路二段60巷1弄26號","121.475208333333","25.0157633333333","6500100","板橋區"
"220031","286-VK","2018/11/02 14:49:18","新北市板橋區僑中二街10巷38號","121.445451666667","25.0111483333333","6500100","板橋區"
"220029","287-VK","2018/11/02 14:49:08","新北市板橋區僑中一街80巷10弄1號","121.447978333333","25.0128766666667","6500100","板橋區"
"220039","288-VK","2018/11/02 14:49:05","新北市板橋區龍泉街90巷18號","121.456011666667","25.0249166666667","6500100","板橋區"
"220009","295-UM","2018/11/02 14:49:19","新北市板橋區中山路一段283巷10號","121.470236666667","25.0149583333333","6500100","板橋區"
"220023","303-R5","2018/11/02 14:49:16","新北市板橋區金華街10巷48弄22號","121.457778333333","25.019925","6500100","板橋區"
"220010","305-R5","2018/11/02 14:49:12","新北市板橋區光復街33巷8號","121.48193","25.0189","6500100","板橋區"
"220041","307-R5","2018/11/02 14:49:18","新北市板橋區互助街66號","121.46109","25.0266833333333","6500100","板橋區"
"220047","317-R6","2018/11/02 14:49:07","新北市板橋區漢生西路165巷10號","121.462566666667","25.0232633333333","6500100","板橋區"
"220012","486-VK","2018/11/02 14:49:16","新北市板橋區實踐路81號","121.463965","25.0059383333333","6500100","板橋區"
"220038","487-VK","2018/11/02 14:49:10","新北市板橋區龍泉街120號","121.457043333333","25.0242466666667","6500100","板橋區"
"220037","491-VK","2018/11/02 14:49:23","新北市板橋區民治街12號","121.477571666667","25.034345","6500100","板橋區"
"220104","560-BX","2018/11/02 14:49:08","新北市板橋區南雅西路二段265號","121.45182","25.0149516666667","6500100","板橋區"
"220052","561-BX","2018/11/02 14:49:19","新北市板橋區陽明街29巷37號","121.463573333333","25.0227083333333","6500100","板橋區"
"220032","568-UM","2018/11/02 14:49:19","新北市板橋區溪崑二街112巷38號","121.42556","24.9893166666667","6500100","板橋區"
"220011","609-BX","2018/11/02 14:49:10","新北市板橋區中山路二段318巷2弄2號","121.48037","25.01933","6500100","板橋區"
"220034","630-UY","2018/11/02 14:49:09","新北市板橋區館前西路160巷5號","121.452448333333","25.0089316666667","6500100","板橋區"
"220040","637-BX","2018/11/02 14:49:23","新北市板橋區文聖街147號","121.478558333333","25.0280733333333","6500100","板橋區"
"220025","687-BX","2018/11/02 14:49:24","新北市板橋區僑中一街104號","121.446558333333","25.0117116666667","6500100","板橋區"
"220042","689-BX","2018/11/02 14:49:11","新北市板橋區長江路二段59號","121.464656666667","25.031405","6500100","板橋區"
"220002","741-BX","2018/11/02 14:49:14","新北市板橋區實踐路93巷41號","121.46563","25.0051466666667","6500100","板橋區"
"220051","KEA-2699","2018/11/02 14:49:18","新北市板橋區文化路二段410巷1弄2號","121.474401666667","25.03117","6500100","板橋區"
"220003","827-TW","2018/11/02 14:49:10","新北市板橋區仁愛路62巷15弄1號","121.459961666667","24.9985166666667","6500100","板橋區"
"220014","829-TW","2018/11/02 14:49:23","新北市板橋區長安街138巷1弄85號","121.474696666667","25.01128","6500100","板橋區"
"220016","830-TW","2018/11/02 14:49:12","新北市板橋區光復街192巷11號","121.486113333333","25.020165","6500100","板橋區"
"220045","831-TW","2018/11/02 14:49:07","新北市板橋區莊敬路134-4號","121.471003333333","25.0235383333333","6500100","板橋區"
"220022","895-R6","2018/11/02 14:49:18","新北市板橋區府中路13號","121.459718333333","25.009515","6500100","板橋區"
"220021","985-R7","2018/11/02 14:49:09","新北市板橋區南雅西路二段170號","121.451693333333","25.013715","6500100","板橋區"
"220046","AAC-210","2018/11/02 14:49:20","新北市板橋區國光路206號","121.461983333333","25.018535","6500100","板橋區"
"220018","AAC-253","2018/11/02 14:49:17","新北市板橋區民族路101號","121.466573333333","25.008165","6500100","板橋區"
"235032","KEA-2873","2018/11/02 14:48:57","新北市中和區福祥路83號","121.499091666667","25.0057883333333","6500300","中和區"
