"lineid","car","time","location","longitude","latitude","cityid","cityname"
"248019","225-UY","2018/11/02 15:09:20","新北市五股區凌雲路三段24巷20-1號","121.434565","25.1066166666667","6501500","五股區"
"244004","248-BX","2018/11/02 15:09:13","新北市林口區竹林路269號","121.38952","25.080995","6501700","林口區"
"231028","046-UY","2018/11/02 15:09:09","新北市新店區安豐路54-1號","121.4997","24.95411","6500600","新店區"
"231001","047-UY","2018/11/02 15:09:23","新北市新店區中正路270號","121.538923333333","24.973555","6500600","新店區"
"231022","108-UY","2018/11/02 15:09:18","新北市新店區永福路54-2號","121.55821","24.928745","6500600","新店區"
"231012","187-VK","2018/11/02 15:09:05","新北市新店區寶元路一段61號","121.542176666667","24.9859766666667","6500600","新店區"
"231023","KEA-2219","2018/11/02 15:09:09","新北市新店區檳榔路172號","121.543996666667","24.961745","6500600","新店區"
"231026","256-BX","2018/11/02 15:09:17","新北市新店區建安街24號","121.53973","24.9754666666667","6500600","新店區"
"231003","268-BY","2018/11/02 15:09:15","新北市新店區中興路二段232號","121.547888333333","24.9753466666667","6500600","新店區"
"231018","278-BY","2018/11/02 15:08:08","新北市新店區中央六街99號","121.526048333333","24.9771133333333","6500600","新店區"
"231016","AAD-862","2018/11/02 15:09:12","新北市新店區明山路45號","121.563845","24.9558616666667","6500600","新店區"
"231005","355-BY","2018/11/02 15:09:22","新北市新店區順安街51號","121.54083","24.9862266666667","6500600","新店區"
"231038","3712-VJ","2018/11/02 15:09:12","新北市新店區安一路一段1-1號","121.519606666667","24.9611466666667","6500600","新店區"
"231025","4715-K9","2018/11/02 15:09:19","新北市新店區中央路21號","121.533158333333","24.9781733333333","6500600","新店區"
"231036","512-UM","2018/11/02 15:09:21","新北市新店區安祥路104巷10號","121.481251666667","24.9631183333333","6500600","新店區"
"231006","617-UM","2018/11/02 15:09:13","新北市新店區新坡一街18巷5弄8-1號","121.550746666667","24.961835","6500600","新店區"
"231002","618-UM","2018/11/02 15:09:10","新北市新店區中正路501-7號","121.533548333333","24.9839683333333","6500600","新店區"
"231030","619-UM","2018/11/02 15:09:14","新北市新店區安民街341-1號","121.516743333333","24.9749283333333","6500600","新店區"
"231034","641-BX","2018/11/02 15:09:09","新北市新店區玫瑰路4-1號","121.493566666667","24.9513983333333","6500600","新店區"
"231039","718-UY","2018/11/02 15:09:20","新北市新店區寶安街4巷2號","121.542281666667","24.9809716666667","6500600","新店區"
"231035","719-UM","2018/11/02 15:09:16","新北市新店區永安街56巷6-4號","121.518318333333","24.9861916666667","6500600","新店區"
"231032","720-UM","2018/11/02 15:09:05","新北市新店區安泰路60巷92號","121.484003333333","24.9454266666667","6500600","新店區"
"231029","897-TW","2018/11/02 15:09:04","新北市新店區安康路三段716號","121.47402","24.9420783333333","6500600","新店區"
"231004","899-TW","2018/11/02 15:09:11","新北市新店區建國路4號","121.539883333333","24.9733566666667","6500600","新店區"
"231024","AKT-0513","2018/11/02 15:09:10","新北市新店區中華路42巷5號","121.540116666667","24.9686583333333","6500600","新店區"
"241013","270-UM","2018/11/02 15:09:14","新北市三重區重新路四段121號","121.484731666667","25.052525","6500200","三重區"
"235030","003-UY","2018/11/02 15:09:19","新北市中和區水源路120號","121.507103333333","25.0033033333333","6500300","中和區"
"235004","150-BY","2018/11/02 15:08:25","新北市中和區宜安路182號","121.508598333333","24.9995133333333","6500300","中和區"
"235007","352-BY","2018/11/02 15:09:10","新北市中和區興南路二段159巷12號","121.505148333333","24.983135","6500300","中和區"
"235014","4979-A6","2018/11/02 15:09:04","新北市中和區景平路221巷15號","121.510148333333","24.9921516666667","6500300","中和區"
"235033","4980-A6","2018/11/02 15:09:21","新北市中和區景新街64巷4號","121.504055","24.9987383333333","6500300","中和區"
"235035","783-BX","2018/11/02 15:09:15","新北市中和區中板路47巷15號","121.482176666667","25.0117266666667","6500300","中和區"
"235005","802-TS","2018/11/02 15:09:20","新北市中和區安平路93號","121.51097","24.9966916666667","6500300","中和區"
"235012","896-TW","2018/11/02 15:09:09","新北市中和區興南路一段146號","121.50844","24.9870216666667","6500300","中和區"
"235001","AAC-213","2018/11/02 15:09:19","新北市中和區自立路36-8號","121.522696666667","24.9927366666667","6500300","中和區"
"235023","AAC-215","2018/11/02 15:09:23","新北市中和區圓通路367巷13弄19號","121.492966666667","24.98839","6500300","中和區"
"220017","AAD-861","2018/11/02 15:09:09","新北市板橋區貴興路105號","121.456023333333","25.0026183333333","6500100","板橋區"
"207002","749-BX","2018/11/02 15:09:08","新北市萬里區崁腳里內中福路65號","121.655073333333","25.166365","6502800","萬里區"
"207001","662-BX","2018/11/02 15:08:58","新北市萬里區雙興里麗水路3-2號","121.653411666667","25.1816566666667","6502800","萬里區"
"236067","105-UM","2018/11/02 15:09:18","新北市土城區學成路78巷2號","121.451093333333","24.9884833333333","6501300","土城區"
"236040","KED-0685","2018/11/02 15:09:17","新北市土城區裕民路276號","121.454981666667","24.9822983333333","6501300","土城區"
"236077","166-UM","2018/11/02 15:09:16","新北市土城區中央路四段260號","121.414913333333","24.9569433333333","6501300","土城區"
"236029","253-BX","2018/11/02 15:09:23","新北市土城區福祥街64號","121.441541666667","24.9815483333333","6501300","土城區"
"236024","269-VK","2018/11/02 15:09:23","新北市土城區中央路二段177巷3弄2號","121.443026666667","24.97616","6501300","土城區"
"236013","270-VK","2018/11/02 15:09:19","新北市土城區學府路一段77號","121.45691","24.9882483333333","6501300","土城區"
"236032","271-VK","2018/11/02 15:09:18","新北市土城區國際路158巷27號","121.46857","24.9758416666667","6501300","土城區"
"236016","401-BY","2018/11/02 15:09:20","新北市土城區延峰街23號","121.469026666667","24.98585","6501300","土城區"
"236057","912-UM","2018/11/02 15:09:25","新北市土城區金城路一段105號","121.444098333333","24.97313","6501300","土城區"
"236045","913-UM","2018/11/02 15:09:21","新北市土城區清水路260號","121.46157","24.9832216666667","6501300","土城區"
"236060","915-UM","2018/11/02 15:09:16","新北市土城區延平街33巷3號","121.467716666667","24.99171","6501300","土城區"
"236054","AAC-216","2018/11/02 15:09:20","新北市土城區學府路一段276號","121.450243333333","24.9834116666667","6501300","土城區"
"242001","233-RS","2018/11/02 15:09:11","新北市新莊區中平路377巷28號","121.442076666667","25.0524866666667","6500500","新莊區"
"221033","647-BX","2018/11/02 15:09:04","新北市汐止區康寧街901號","121.651185","25.0751066666667","6501100","汐止區"
"220028","200-UY","2018/11/02 15:06:14","新北市板橋區龍興街99巷33號","121.443236666667","25.00368","6500100","板橋區"
"220050","245-BX","2018/11/02 15:09:23","新北市板橋區雙十路二段47巷42號","121.475188333333","25.0256483333333","6500100","板橋區"
"220019","283-VK","2018/11/02 15:09:18","新北市板橋區華東街1-9號","121.448176666667","24.99482","6500100","板橋區"
"220031","286-VK","2018/11/02 15:09:06","新北市板橋區大觀路一段38巷156弄166號","121.4442","25.00922","6500100","板橋區"
"220029","287-VK","2018/11/02 15:09:07","新北市板橋區僑中一街84號","121.447301666667","25.011595","6500100","板橋區"
"220009","295-UM","2018/11/02 15:09:26","新北市板橋區觀光街4巷2弄2-3號","121.472248333333","25.0157516666667","6500100","板橋區"
"220010","305-R5","2018/11/02 15:09:12","新北市板橋區民生路二段89-4號","121.471368333333","25.018695","6500100","板橋區"
"220041","307-R5","2018/11/02 15:04:50","新北市板橋區新海路138號","121.460901666667","25.0234433333333","6500100","板橋區"
"220012","486-VK","2018/11/02 15:09:24","新北市板橋區長安街331巷13號","121.47399","25.0124133333333","6500100","板橋區"
"220038","487-VK","2018/11/02 15:09:10","新北市板橋區互助街78號","121.46068","25.026475","6500100","板橋區"
"220037","491-VK","2018/11/02 15:09:14","新北市板橋區懷德街109號","121.478481666667","25.0313283333333","6500100","板橋區"
"220052","561-BX","2018/11/02 15:09:19","新北市板橋區陽明街279巷35號","121.460928333333","25.02559","6500100","板橋區"
"220011","609-BX","2018/11/02 15:09:10","新北市板橋區民生路二段89-1號","121.471535","25.0185016666667","6500100","板橋區"
"220025","687-BX","2018/11/02 15:09:22","新北市板橋區大觀路一段29巷35-4號","121.451175","25.008015","6500100","板橋區"
"220042","689-BX","2018/11/02 15:09:11","新北市板橋區長江路三段64號","121.473778333333","25.0340166666667","6500100","板橋區"
"220051","KEA-2699","2018/11/02 15:09:18","新北市板橋區民治街136號","121.477648333333","25.0307816666667","6500100","板橋區"
"220003","827-TW","2018/11/02 15:09:20","新北市板橋區國慶路149巷38弄3號","121.461228333333","24.9980983333333","6500100","板橋區"
"220014","829-TW","2018/11/02 15:09:23","新北市板橋區中山路一段206巷2弄2號","121.470141666667","25.0132316666667","6500100","板橋區"
"220016","830-TW","2018/11/02 15:09:12","新北市板橋區光復街228號","121.485023333333","25.0213816666667","6500100","板橋區"
"220021","985-R7","2018/11/02 15:09:09","新北市板橋區華東街1-10號","121.448353333333","24.9950033333333","6500100","板橋區"
"220046","AAC-210","2018/11/02 15:09:20","新北市板橋區民權路202巷22號","121.461195","25.0166533333333","6500100","板橋區"
"220018","AAC-253","2018/11/02 15:09:10","新北市板橋區德興街20號","121.453406666667","24.99427","6500100","板橋區"
"235032","KEA-2873","2018/11/02 15:08:57","新北市中和區連城路283號","121.49038","24.9963383333333","6500300","中和區"
"235061","KEA-2875","2018/11/02 14:53:33","新北市中和區員山路36巷13號","121.484351666667","24.9911433333333","6500300","中和區"
