"lineid","car","time","location","longitude","latitude","cityid","cityname"
"244004","248-BX","2018/11/02 15:19:13","新北市林口區粉寮路一段74號","121.397196666667","25.0790283333333","6501700","林口區"
"231028","046-UY","2018/11/02 15:19:10","新北市新店區僑愛三路2號","121.499723333333","24.9446983333333","6500600","新店區"
"231001","047-UY","2018/11/02 15:19:23","新北市新店區北新路一段309號","121.541525","24.9678033333333","6500600","新店區"
"231022","108-UY","2018/11/02 15:19:18","新北市新店區永福路61號","121.558081666667","24.9287766666667","6500600","新店區"
"231012","187-VK","2018/11/02 15:19:05","新北市新店區中興路三段330號","121.54206","24.9864683333333","6500600","新店區"
"231023","KEA-2219","2018/11/02 15:19:22","新北市新店區行政街26號","121.542841666667","24.9655866666667","6500600","新店區"
"231026","256-BX","2018/11/02 15:19:17","新北市新店區中正路247巷4弄1號","121.538825","24.9729716666667","6500600","新店區"
"231003","268-BY","2018/11/02 15:19:15","新北市新店區寶橋路230號","121.551488333333","24.9788616666667","6500600","新店區"
"231018","278-BY","2018/11/02 15:18:48","新北市新店區中央六街57號","121.527918333333","24.97592","6500600","新店區"
"231016","AAD-862","2018/11/02 15:19:12","新北市新店區明山路45號","121.563768333333","24.95592","6500600","新店區"
"231005","355-BY","2018/11/02 15:19:22","新北市新店區民族路63號","121.539736666667","24.9783616666667","6500600","新店區"
"231038","3712-VJ","2018/11/02 15:19:12","新北市新店區安一路一段1-1號","121.519585","24.9611766666667","6500600","新店區"
"231025","4715-K9","2018/11/02 15:17:39","新北市新店區中央路183-3號","121.536288333333","24.9685433333333","6500600","新店區"
"231036","512-UM","2018/11/02 15:19:07","新北市新店區安祥路69巷90號","121.482813333333","24.9591516666667","6500600","新店區"
"231006","617-UM","2018/11/02 15:19:13","新北市新店區新坡一街80-3號","121.547651666667","24.96441","6500600","新店區"
"231002","618-UM","2018/11/02 15:19:10","新北市新店區中正路707號","121.533693333333","24.9912033333333","6500600","新店區"
"231030","619-UM","2018/11/02 15:19:14","新北市新店區安民街341-1號","121.516746666667","24.9749116666667","6500600","新店區"
"231034","641-BX","2018/11/02 15:19:09","新北市新店區如意街6巷2號","121.495368333333","24.9490266666667","6500600","新店區"
"231039","718-UY","2018/11/02 15:19:20","新北市新店區寶元路一段61號","121.542221666667","24.9858983333333","6500600","新店區"
"231035","719-UM","2018/11/02 15:19:15","新北市新店區安和路三段61號","121.517943333333","24.983455","6500600","新店區"
"231032","720-UM","2018/11/02 15:18:45","新北市新店區安泰路180號","121.490525","24.93287","6500600","新店區"
"231029","897-TW","2018/11/02 15:19:04","新北市新店區安康路三段808號","121.470328333333","24.94006","6500600","新店區"
"231004","899-TW","2018/11/02 15:19:11","新北市新店區建國路29號","121.540225","24.9741083333333","6500600","新店區"
"231024","AKT-0513","2018/11/02 15:19:10","新北市新店區中央一街20-2號","121.528095","24.9728733333333","6500600","新店區"
"241013","270-UM","2018/11/02 15:19:14","新北市三重區重新路四段121號","121.484786666667","25.0525583333333","6500200","三重區"
"241007","398-BY","2018/11/02 15:19:07","新北市三重區重新路四段121號","121.484783333333","25.052575","6500200","三重區"
"241020","478-VK","2018/11/02 15:19:08","新北市三重區重新路四段121號","121.485021666667","25.0523316666667","6500200","三重區"
"235030","003-UY","2018/11/02 15:19:18","新北市中和區保平路326巷35號","121.50612","25.004835","6500300","中和區"
"235007","352-BY","2018/11/02 15:19:10","新北市中和區南山路188號","121.505888333333","24.99062","6500300","中和區"
"235014","4979-A6","2018/11/02 15:19:24","新北市中和區景安路82巷6弄2號","121.505266666667","24.99625","6500300","中和區"
"235033","4980-A6","2018/11/02 15:19:21","新北市中和區圓通路164號","121.497395","24.9949166666667","6500300","中和區"
"235005","802-TS","2018/11/02 15:19:20","新北市中和區宜安路135號","121.50964","24.9983733333333","6500300","中和區"
"235012","896-TW","2018/11/02 15:19:14","新北市中和區景新街379號","121.512421666667","24.9903033333333","6500300","中和區"
"235023","AAC-215","2018/11/02 15:19:23","新北市中和區圓通路320-3號","121.485665","24.9879266666667","6500300","中和區"
"224007","275-VK","2018/11/02 15:19:21","新北市瑞芳區中山路153-2號","121.80229","25.1064716666667","6501200","瑞芳區"
"207002","749-BX","2018/11/02 15:19:08","新北市萬里區崁腳里內中福路2-1號","121.66921","25.1653933333333","6502800","萬里區"
"207001","662-BX","2018/11/02 15:19:18","新北市萬里區大鵬里萬里加投27-1號","121.648268333333","25.2051383333333","6502800","萬里區"
"236067","105-UM","2018/11/02 15:19:18","新北市土城區裕民路185巷36弄10號","121.454331666667","24.9843883333333","6501300","土城區"
"236040","KED-0685","2018/11/02 15:19:17","新北市土城區裕民路235號","121.45433","24.98324","6501300","土城區"
"236077","166-UM","2018/11/02 15:19:16","新北市土城區中央路四段321巷32-2號","121.412005","24.95107","6501300","土城區"
"236029","253-BX","2018/11/02 15:19:23","新北市土城區中央路一段250巷1號","121.44411","24.98461","6501300","土城區"
"236024","269-VK","2018/11/02 15:19:17","新北市土城區員林街59號","121.443886666667","24.97767","6501300","土城區"
"236013","270-VK","2018/11/02 15:19:19","新北市土城區廣福街32-1號","121.45703","24.9900733333333","6501300","土城區"
"236032","271-VK","2018/11/02 15:19:17","新北市土城區國際路79號","121.467066666667","24.9761083333333","6501300","土城區"
"236016","401-BY","2018/11/02 15:19:15","新北市土城區明峰街83號","121.468978333333","24.9873566666667","6501300","土城區"
"236057","912-UM","2018/11/02 15:19:05","新北市土城區中央路二段252號","121.441671666667","24.9745833333333","6501300","土城區"
"236045","913-UM","2018/11/02 15:19:21","新北市土城區明德路一段143號","121.465076666667","24.9801133333333","6501300","土城區"
"236060","915-UM","2018/11/02 15:19:16","新北市土城區金城路三段73巷11弄2號","121.466213333333","24.98811","6501300","土城區"
"236054","AAC-216","2018/11/02 15:19:20","新北市土城區學府路一段4號","121.459718333333","24.988435","6501300","土城區"
"242001","233-RS","2018/11/02 15:19:11","新北市新莊區中平路377巷28號","121.442076666667","25.0524366666667","6500500","新莊區"
"220028","200-UY","2018/11/02 15:13:12","新北市板橋區四川路二段76巷1弄15號","121.452333333333","24.9954566666667","6500100","板橋區"
"220050","245-BX","2018/11/02 15:19:23","新北市板橋區永豐街89巷5弄10號","121.4726","25.019625","6500100","板橋區"
"220031","286-VK","2018/11/02 15:19:26","新北市板橋區僑中二街102巷51號","121.44423","25.008535","6500100","板橋區"
"220009","295-UM","2018/11/02 15:19:06","新北市板橋區館前東路9號","121.459805","25.0073283333333","6500100","板橋區"
"220041","307-R5","2018/11/02 15:19:03","新北市板橋區文化路一段71-1號","121.46091","25.0140283333333","6500100","板橋區"
"220038","487-VK","2018/11/02 15:19:23","新北市板橋區四維路137巷17號","121.46432","25.0248883333333","6500100","板橋區"
"220037","491-VK","2018/11/02 15:19:14","新北市板橋區懷德街127巷23弄7號","121.479366666667","25.0317333333333","6500100","板橋區"
"220052","561-BX","2018/11/02 15:19:19","新北市板橋區漢生西路19號","121.463438333333","25.0182066666667","6500100","板橋區"
"220042","689-BX","2018/11/02 15:19:11","新北市板橋區長江路二段28號","121.464808333333","25.0313183333333","6500100","板橋區"
"220051","KEA-2699","2018/11/02 15:19:18","新北市板橋區文化路一段102號","121.464618333333","25.01803","6500100","板橋區"
"220014","829-TW","2018/11/02 15:19:03","新北市板橋區民生路二段56-6號","121.47095","25.0191433333333","6500100","板橋區"
"220018","AAC-253","2018/11/02 15:19:08","新北市板橋區四川路二段245巷3號","121.450651666667","24.9934533333333","6500100","板橋區"
"235061","KEA-2875","2018/11/02 15:15:36","新北市中和區員山路36巷13號","121.484438333333","24.9911783333333","6500300","中和區"
