"lineid","car","time","location","longitude","latitude","cityid","cityname"
"234046","148-BY","2018/11/02 19:39:18","新北市永和區永利路153號","121.524621666667","25.0035133333333","6500400","永和區"
"234007","207-UY","2018/11/02 19:39:19","新北市永和區中和路483號","121.510386666667","25.0019616666667","6500400","永和區"
"234081","298-R6","2018/11/02 19:39:17","新北市永和區國中路104巷6號","121.524753333333","25.0068683333333","6500400","永和區"
"234038","336-UY","2018/11/02 19:39:26","新北市永和區民樂街31巷4號","121.527793333333","25.0014583333333","6500400","永和區"
"234064","337-UY","2018/11/02 19:39:18","新北市永和區秀朗路一段192巷6弄1號","121.519286666667","25.0023066666667","6500400","永和區"
"234086","338-UY","2018/11/02 19:39:26","新北市永和區林森路46巷1號","121.524995","25.004725","6500400","永和區"
"234070","552-UM","2018/11/02 19:39:20","新北市永和區永和路二段233號","121.515568333333","25.0142733333333","6500400","永和區"
"234017","745-BX","2018/11/02 19:39:24","新北市永和區永和路二段425巷57弄1號","121.51363","25.01719","6500400","永和區"
"234030","746-BX","2018/11/02 19:39:17","新北市永和區民生路35號","121.522926666667","24.9981716666667","6500400","永和區"
"234054","KEA-2590","2018/11/02 19:39:05","新北市永和區竹林路39巷22號","121.518921666667","25.0147183333333","6500400","永和區"
"234013","KEA-2591","2018/11/02 19:39:18","新北市永和區永平路258號","121.508158333333","25.0113733333333","6500400","永和區"
"234061","AAD-866","2018/11/02 19:39:23","新北市永和區中正路418號","121.517468333333","25.0023116666667","6500400","永和區"
"234042","862-TW","2018/11/02 19:39:10","新北市永和區中和路307號","121.506771666667","24.9998316666667","6500400","永和區"
"234050","863-TW","2018/11/02 19:39:22","新北市永和區保安路69號","121.509071666667","25.0153183333333","6500400","永和區"
"234011","9372-KE","2018/11/02 19:39:16","新北市永和區保福路二段9巷9號","121.510485","25.010875","6500400","永和區"
"234026","9371-KE","2018/11/02 19:39:08","新北市永和區中和路501巷5號","121.510428333333","25.0025866666667","6500400","永和區"
"249004","303-UY","2018/11/02 19:39:26","新北市八里區中山路一段268巷26號","121.414563333333","25.16051","6502300","八里區"
"249002","305-UY","2018/11/02 19:39:14","新北市八里區頂寮二街48巷1-1號","121.450318333333","25.12533","6502300","八里區"
"249003","593-UM","2018/11/02 19:39:09","新北市八里區中華路二段532號","121.399105","25.1457233333333","6502300","八里區"
"248016","026-BX","2018/11/02 19:39:27","新北市五股區成泰路四段22巷29-6號","121.455788333333","25.1084266666667","6501500","五股區"
"248008","095-VK","2018/11/02 19:39:06","新北市五股區四維路153號","121.467688333333","25.0745766666667","6501500","五股區"
"248018","225-UY","2018/11/02 19:39:07","新北市五股區外寮路1-5號","121.425956666667","25.07685","6501500","五股區"
"248012","247-BX","2018/11/02 19:39:26","新北市五股區成泰路一段239號","121.436803333333","25.080785","6501500","五股區"
"248010","272-BY","2018/11/02 19:39:16","新北市五股區自強路115號","121.432276666667","25.0704916666667","6501500","五股區"
"248004","653-BX","2018/11/02 19:39:19","新北市五股區成泰路二段26號","121.437073333333","25.0812666666667","6501500","五股區"
"248002","678-BX","2018/11/02 19:39:21","新北市五股區成泰路三段577巷78號","121.45001","25.10356","6501500","五股區"
"234023","9380-KE","2018/11/02 19:39:13","新北市永和區豫溪街57巷8弄3號","121.517576666667","25.0104716666667","6500400","永和區"
"234077","969-R7","2018/11/02 19:39:19","新北市永和區民族街67巷7號","121.518861666667","24.997205","6500400","永和區"
"234074","AAC-211","2018/11/02 19:39:23","新北市永和區竹林路225巷50號","121.52265","25.0086433333333","6500400","永和區"
"234067","AAC-212","2018/11/02 19:39:07","新北市永和區中山路一段191巷15弄2-1號","121.509855","25.0079433333333","6500400","永和區"
"234003","AAC-295","2018/11/02 19:39:12","新北市永和區永和路一段118號","121.51399","25.00777","6500400","永和區"
"244023","069-UM","2018/11/02 19:39:22","新北市林口區仁愛路二段265號","121.373691666667","25.077375","6501700","林口區"
"243013","AAD-798","2018/11/02 19:39:18","新北市泰山區應化街7號","121.423875","25.043715","6501600","泰山區"
"243009","297-R6","2018/11/02 19:39:16","新北市泰山區美寧街64號","121.430993333333","25.0646516666667","6501600","泰山區"
"243016","KEA-2801","2018/11/02 19:39:16","新北市泰山區明志路三段452號","121.420966666667","25.0325","6501600","泰山區"
"243015","421-VK","2018/11/02 19:39:12","新北市泰山區明志路二段214巷11號","121.426666666667","25.0488","6501600","泰山區"
"243012","539-UM","2018/11/02 19:39:26","新北市泰山區仁愛路100巷30號","121.433275","25.05494","6501600","泰山區"
"243011","KEA-2215","2018/11/02 19:39:19","新北市泰山區貴子路67巷4弄4號","121.431063333333","25.04043","6501600","泰山區"
"243010","KEA-2216","2018/11/02 19:39:23","新北市泰山區民生路30號","121.43118","25.0519683333333","6501600","泰山區"
"243014","680-BX","2018/11/02 19:39:22","新北市泰山區泰林路二段33-7號","121.435181666667","25.0564366666667","6501600","泰山區"
"222003","436-BY","2018/11/02 19:39:13","新北市深坑區深南路51-1號","121.621246666667","25.0098","6501800","深坑區"
"222002","659-BX","2018/11/02 19:39:16","新北市深坑區北深路一段177號","121.632521666667","25.0108716666667","6501800","深坑區"
"231059","046-UY","2018/11/02 19:39:23","新北市新店區安和路三段114號","121.51698","24.985435","6500600","新店區"
"231040","047-UY","2018/11/02 19:39:13","新北市新店區中正路75巷71號","121.543205","24.9687783333333","6500600","新店區"
"231046","107-UY","2018/11/02 19:39:15","新北市新店區中正路329巷3弄1號","121.53556","24.9747916666667","6500600","新店區"
"231053","108-UY","2018/11/02 19:39:12","新北市新店區新烏路二段489號","121.552285","24.9086233333333","6500600","新店區"
"231048","187-VK","2018/11/02 19:39:26","新北市新店區五峰路63巷8弄42號","121.547781666667","24.96869","6500600","新店區"
"231054","KEA-2219","2018/11/02 19:39:29","新北市新店區北宜路一段41-1號","121.538475","24.957335","6500600","新店區"
"231057","256-BX","2018/11/02 19:39:19","新北市新店區橘園一路11號","121.548021666667","24.93402","6500600","新店區"
"231042","268-BY","2018/11/02 19:39:15","新北市新店區中興路一段174號","121.543075","24.96454","6500600","新店區"
"231051","278-BY","2018/11/02 19:39:10","新北市新店區中央四街8號","121.529633333333","24.973735","6500600","新店區"
"231050","AAD-862","2018/11/02 19:39:20","新北市新店區北宜路二段277號","121.555043333333","24.9537483333333","6500600","新店區"
"231044","355-BY","2018/11/02 19:39:12","新北市新店區北新路三段146號","121.541521666667","24.98234","6500600","新店區"
"231058","3713-VJ","2018/11/02 19:39:24","新北市新店區中正路76巷11弄19號","121.543675","24.971685","6500600","新店區"
"231066","4716-K9","2018/11/02 19:39:20","新北市新店區安康路三段207巷15號","121.488303333333","24.95083","6500600","新店區"
"231056","4715-K9","2018/11/02 19:39:12","新北市新店區中央三街123號","121.524311666667","24.9762516666667","6500600","新店區"
"231067","4772-VM","2018/11/02 19:39:17","新北市新店區安康路一段355-4號","121.517568333333","24.963925","6500600","新店區"
"231065","512-UM","2018/11/02 19:39:05","新北市新店區安祥路109巷90弄98號","121.47595","24.9574216666667","6500600","新店區"
"231049","513-UM","2018/11/02 19:39:16","新北市新店區大豐路49號","121.54005","24.9797883333333","6500600","新店區"
"231045","617-UM","2018/11/02 19:39:20","新北市新店區北宜路二段431號","121.560785","24.9543616666667","6500600","新店區"
"231041","618-UM","2018/11/02 19:39:22","新北市新店區中正路487號","121.533846666667","24.982105","6500600","新店區"
"231061","619-UM","2018/11/02 19:39:09","新北市新店區安民街80號","121.51659","24.9669783333333","6500600","新店區"
"231063","641-BX","2018/11/02 19:39:20","新北市新店區達觀路12號","121.504815","24.9405083333333","6500600","新店區"
"231064","719-UM","2018/11/02 19:36:34","新北市新店區安康路二段1-5號","121.517211666667","24.9639116666667","6500600","新店區"
"231062","720-UM","2018/11/02 19:39:08","新北市新店區碧潭路24號","121.534333333333","24.9563316666667","6500600","新店區"
"231060","897-TW","2018/11/02 19:39:12","新北市新店區安康路二段161號","121.510091666667","24.9593516666667","6500600","新店區"
"231043","899-TW","2018/11/02 19:39:22","新北市新店區中正路147號","121.541471666667","24.9717083333333","6500600","新店區"
"231055","AKT-0513","2018/11/02 19:39:07","新北市新店區中華路83巷67號","121.538333333333","24.967405","6500600","新店區"
"241011","013-R5","2018/11/02 19:39:18","新北市三重區秀江街176號","121.49803","25.0715733333333","6500200","三重區"
"241028","022-UY","2018/11/02 19:39:14","新北市三重區中正南路190號","121.493881666667","25.0560516666667","6500200","三重區"
"241008","059-VK","2018/11/02 19:39:04","新北市三重區永福街137號","121.47866","25.07679","6500200","三重區"
"241022","060-VK","2018/11/02 19:39:23","新北市三重區忠孝路三段40巷59號","121.483491666667","25.0653466666667","6500200","三重區"
"241031","061-VK","2018/11/02 19:39:12","新北市三重區重新路四段248號","121.486171666667","25.053485","6500200","三重區"
"241015","062-VK","2018/11/02 19:39:08","新北市三重區福德北路34號","121.5021","25.06515","6500200","三重區"
"241017","063-VK","2018/11/02 19:39:20","新北市三重區大同北路219-1號","121.491458333333","25.0661016666667","6500200","三重區"
"241026","066-VK","2018/11/02 19:39:09","新北市三重區文化南路65巷46弄4號","121.498745","25.0606216666667","6500200","三重區"
"241003","091-VK","2018/11/02 19:39:21","新北市三重區五華街93巷60號","121.493911666667","25.0851266666667","6500200","三重區"
"241009","267-UM","2018/11/02 19:39:21","新北市蘆洲區中山一路6號","121.480611666667","25.0801683333333","6500200","三重區"
"241013","270-UM","2018/11/02 19:39:25","新北市三重區仁賢街7號","121.495838333333","25.074615","6500200","三重區"
"241025","271-UM","2018/11/02 19:39:18","新北市三重區忠孝路三段84巷5號","121.48023","25.0643616666667","6500200","三重區"
"241007","398-BY","2018/11/02 19:39:22","新北市三重區三和路四段125巷51號","121.486226666667","25.0781933333333","6500200","三重區"
"241035","KEA-2210","2018/11/02 19:39:19","新北市三重區正義北路61-1號","121.497218333333","25.0644783333333","6500200","三重區"
"241020","478-VK","2018/11/02 19:39:13","新北市三重區自強路三段64號","121.486823333333","25.0731666666667","6500200","三重區"
"241014","543-UM","2018/11/02 19:39:18","新北市三重區河邊北街80號","121.50422","25.0687666666667","6500200","三重區"
"241023","545-UM","2018/11/02 19:39:10","新北市三重區忠孝路三段99巷6號","121.479851666667","25.064195","6500200","三重區"
"241019","KEA-2593","2018/11/02 19:39:25","新北市三重區六張街194巷1弄1號","121.488431666667","25.0682216666667","6500200","三重區"
"241006","AAD-863","2018/11/02 19:39:23","新北市三重區永福街287-2號","121.483256666667","25.0744866666667","6500200","三重區"
"241030","743-BX","2018/11/02 19:39:22","新北市三重區中正南路263號","121.492891666667","25.05295","6500200","三重區"
"241012","941-UM","2018/11/02 19:39:23","新北市三重區仁興街33巷34號","121.499796666667","25.0756816666667","6500200","三重區"
"241029","942-UM","2018/11/02 19:39:15","新北市三重區重安街102號","121.49298","25.055905","6500200","三重區"
"235066","003-UY","2018/11/02 19:39:15","新北市中和區景新街71號","121.504938333333","24.9987466666667","6500300","中和區"
"235064","005-UY","2018/11/02 19:39:18","新北市中和區南山路127巷35號","121.503766666667","24.99768","6500300","中和區"
"235063","006-UY","2018/11/02 19:39:14","新北市中和區連城路263巷7弄1號","121.492225","24.9958533333333","6500300","中和區"
"235056","096-UM","2018/11/02 19:39:15","新北市中和區中山路三段114巷68號","121.475915","25.0076","6500300","中和區"
"235039","097-UM","2018/11/02 19:39:15","新北市中和區景平路136號","121.518676666667","24.9920116666667","6500300","中和區"
"235065","098-UM","2018/11/02 19:39:27","新北市中和區福祥路46號","121.499348333333","25.0039316666667","6500300","中和區"
"235040","150-BY","2018/11/02 19:39:10","新北市中和區宜安路78號","121.511135","24.997325","6500300","中和區"
"235058","151-BY","2018/11/02 19:39:14","新北市中和區員山路124巷2號","121.481543333333","24.9959283333333","6500300","中和區"
"235055","183-VK","2018/11/02 19:39:13","新北市中和區中山路三段181巷26號","121.473023333333","25.0051516666667","6500300","中和區"
"235038","185-VK","2018/11/02 19:39:22","新北市中和區自強路27巷22號","121.52165","24.9932283333333","6500300","中和區"
"235049","186-VK","2018/11/02 19:39:19","新北市中和區景新街220號","121.507195","24.9950416666667","6500300","中和區"
"235067","255-BX","2018/11/02 19:39:12","新北市中和區新生街186巷1弄1號","121.4835","24.999665","6500300","中和區"
"235044","293-VK","2018/11/02 19:39:16","新北市中和區南山路399巷7號","121.506885","24.9902583333333","6500300","中和區"
"235072","301-VK","2018/11/02 19:39:16","新北市中和區連城路265巷6弄4號","121.491225","24.99593","6500300","中和區"
"235043","352-BY","2018/11/02 19:39:13","新北市中和區興南路一段77號","121.509936666667","24.9890866666667","6500300","中和區"
"235042","KEA-2878","2018/11/02 19:39:04","新北市中和區景安路79巷37弄22號","121.507751666667","24.9962966666667","6500300","中和區"
"235070","558-UM","2018/11/02 19:39:18","新北市中和區景平路495-3號","121.49988","24.9981216666667","6500300","中和區"
"235045","565-BX","2018/11/02 19:39:19","新北市中和區景新街340號","121.51205","24.9905533333333","6500300","中和區"
"235054","640-BX","2018/11/02 19:39:23","新北市中和區莒光路4號","121.471963333333","25.00472","6500300","中和區"
"235060","647-TV","2018/11/02 19:39:16","新北市中和區新生街16巷24號","121.48223","25.0044216666667","6500300","中和區"
"235047","732-UM","2018/11/02 19:39:14","新北市中和區景平路259巷40號","121.506656666667","24.992805","6500300","中和區"
"235046","733-UM","2018/11/02 19:39:12","新北市中和區景新街462號","121.513485","24.9873533333333","6500300","中和區"
"235071","783-BX","2018/11/02 19:39:23","新北市中和區中正路839巷29號","121.483568333333","25.0023983333333","6500300","中和區"
"235057","801-TS","2018/11/02 19:39:18","新北市中和區員山路176-1號","121.481428333333","25.0000833333333","6500300","中和區"
"235041","802-TS","2018/11/02 19:39:19","新北市中和區中和路456號","121.512165","25.0038183333333","6500300","中和區"
"235052","805-TS","2018/11/02 19:39:22","新北市中和區華新街208號","121.506585","24.9819366666667","6500300","中和區"
"235048","896-TW","2018/11/02 19:39:14","新北市中和區忠孝街1巷2-1號","121.509205","24.983105","6500300","中和區"
"235053","900-TW","2018/11/02 19:39:19","新北市中和區國光街211號","121.466473333333","25.0019166666667","6500300","中和區"
"235051","157-BY","2018/11/02 19:39:18","新北市中和區中興街132巷28弄1號","121.498766666667","24.9915866666667","6500300","中和區"
"235037","AAC-213","2018/11/02 19:39:22","新北市中和區秀朗路三段50巷4弄4號","121.525665","24.995755","6500300","中和區"
"235059","AAC-215","2018/11/02 19:39:13","新北市中和區圓通路282號","121.491565","24.9905766666667","6500300","中和區"
"220065","072-UY","2018/11/02 19:39:24","新北市板橋區國泰街39巷7弄2號","121.46864","25.0056533333333","6500100","板橋區"
"220106","075-UY","2018/11/02 19:39:15","新北市板橋區民治街26巷18號","121.477298333333","25.0335733333333","6500100","板橋區"
"220069","AAD-861","2018/11/02 19:39:25","新北市板橋區貴興路106巷16弄2號","121.45481","25.0035333333333","6500100","板橋區"
"247008","336-TH","2018/11/02 19:39:20","新北市蘆洲區中山一路176號","121.474211666667","25.0811683333333","6501400","蘆洲區"
"247004","002-UY","2018/11/02 19:39:15","新北市蘆洲區長安街102巷67號","121.462643333333","25.0823583333333","6501400","蘆洲區"
"226004","205-ST","2018/11/02 19:39:11","新北市平溪區靜安路三段392巷3號","121.784466666667","25.049545","6502400","平溪區"
"228001","670-TC","2018/11/02 19:39:26","新北市貢寮區真理里延平街67巷1號","121.924268333333","25.055635","6502600","貢寮區"
"228003","828-UM","2018/11/02 19:39:10","新北市貢寮區真理里美艷山街15-3號","121.923715","25.0679866666667","6502600","貢寮區"
"224010","AGQ-8101","2018/11/02 19:39:23","新北市瑞芳區石崁巷1號","121.839475","25.1088383333333","6501200","瑞芳區"
"224002","639-TC","2018/11/02 19:39:26","新北市瑞芳區三爪子坑路303-2號","121.818326666667","25.105645","6501200","瑞芳區"
"227011","642-TC","2018/11/02 19:39:21","新北市雙溪區新基里新基北街20號","121.867205","25.03889","6502500","雙溪區"
"227003","400-TW","2018/11/02 19:39:22","新北市雙溪區雙溪里太平路16號","121.864323333333","25.0351783333333","6502500","雙溪區"
"222001","KEA-2212","2018/11/02 19:39:21","新北市深坑區深坑街148號","121.613043333333","25.00145","6501800","深坑區"
"208002","KEA-2872","2018/11/02 19:39:21","新北市金山區三民街11號","121.6347","25.2226616666667","6502700","金山區"
"208003","665-BX","2018/11/02 19:39:24","新北市金山區中山路151號","121.638691666667","25.22015","6502700","金山區"
"208001","761-BX","2018/11/02 19:39:28","新北市金山區重和里六股林口14-6號","121.605931666667","25.2224733333333","6502700","金山區"
"251005","010-UM","2018/11/02 19:39:16","新北市淡水區原德路108巷2號","121.44336","25.1735016666667","6501000","淡水區"
"251010","413-VK","2018/11/02 19:39:06","新北市淡水區崁頂三路135號","121.431423333333","25.2009733333333","6501000","淡水區"
"251012","441-VK","2018/11/02 19:39:05","新北市淡水區埤島6-10號","121.44588","25.1943816666667","6501000","淡水區"
"251001","559-UM","2018/11/02 19:39:20","新北市淡水區民權路49號","121.45978","25.139475","6501000","淡水區"
"251006","561-UM","2018/11/02 19:39:05","新北市淡水區中山北路一段207巷74號","121.44147","25.1793183333333","6501000","淡水區"
"251009","575-R6","2018/11/02 19:39:14","新北市淡水區中山北路一段198巷7號","121.44516","25.179325","6501000","淡水區"
"251007","577-R6","2018/11/02 19:39:18","新北市淡水區中正東路一段111巷11號","121.454696666667","25.1607633333333","6501000","淡水區"
"251011","650-BX","2018/11/02 19:39:08","新北市淡水區紅樹林路207號","121.460823333333","25.1561683333333","6501000","淡水區"
"207003","550-UM","2018/11/02 19:39:18","新北市萬里區大鵬里下社1-1號","121.64782","25.2155833333333","6502800","萬里區"
"207004","225-TW","2018/11/02 19:39:19","新北市萬里區萬里里瑪鋉路5-1號","121.686843333333","25.17528","6502800","萬里區"
"252002","178-VK","2018/11/02 19:39:20","新北市三芝區中正路一段18巷56號","121.504266666667","25.2586816666667","6502100","三芝區"
"252001","292-VK","2018/11/02 19:39:17","新北市三芝區公正街66號","121.499798333333","25.2574566666667","6502100","三芝區"
"237007","153-BY","2018/11/02 19:39:28","新北市三峽區二鬮路136巷20弄1號","121.356203333333","24.91004","6500900","三峽區"
"237009","210-TH","2018/11/02 19:39:13","新北市三峽區中園街103號","121.367825","24.9247483333333","6500900","三峽區"
"237013","252-BX","2018/11/02 19:39:12","新北市三峽區介壽路二段106號","121.393118333333","24.935665","6500900","三峽區"
"237012","275-BY","2018/11/02 19:39:22","新北市三峽區中華路11巷2號","121.373946666667","24.9323033333333","6500900","三峽區"
"237008","302-VK","2018/11/02 19:39:22","新北市三峽區中正路一段292巷31號","121.370248333333","24.9259783333333","6500900","三峽區"
"237014","433-BY","2018/11/02 19:39:06","新北市三峽區嘉添37號","121.368725","24.9110416666667","6500900","三峽區"
"237006","5529-G3","2018/11/02 19:39:04","新北市三峽區中正路一段336巷15弄2號","121.369968333333","24.924935","6500900","三峽區"
"237011","KEA-2596","2018/11/02 19:39:18","新北市三峽區中正路一段276號","121.37181","24.9264816666667","6500900","三峽區"
"237015","649-BX","2018/11/02 19:39:11","新北市三峽區溪東路218巷1號","121.407436666667","24.9316633333333","6500900","三峽區"
"237005","AKY-6261","2018/11/02 19:39:15","新北市三峽區中山路110號","121.365883333333","24.9357816666667","6500900","三峽區"
"236069","105-UM","2018/11/02 19:39:08","新北市土城區金城路二段2巷5號","121.447768333333","24.976345","6501300","土城區"
"236042","KED-0685","2018/11/02 19:39:24","新北市土城區學士路19號","121.453343333333","24.9826733333333","6501300","土城區"
"236079","166-UM","2018/11/02 19:39:13","新北市土城區中央路四段464號","121.409711666667","24.95038","6501300","土城區"
"236030","253-BX","2018/11/02 19:39:13","新北市土城區中央路一段318巷15號","121.442558333333","24.9817916666667","6501300","土城區"
"236026","269-VK","2018/11/02 19:39:08","新北市土城區中央路二段61巷26號","121.443275","24.9786433333333","6501300","土城區"
"236039","271-VK","2018/11/02 19:39:14","新北市土城區仁愛路16巷11號","121.460015","24.9800883333333","6501300","土城區"
"236020","401-BY","2018/11/02 19:39:28","新北市土城區峰廷街14號","121.468718333333","24.9875366666667","6501300","土城區"
"236059","912-UM","2018/11/02 19:39:14","新北市土城區中央路二段63號","121.442688333333","24.9788966666667","6501300","土城區"
"236048","913-UM","2018/11/02 19:39:26","新北市土城區明德路一段137-4號","121.46547","24.9812233333333","6501300","土城區"
"236063","915-UM","2018/11/02 19:39:15","新北市土城區延平街69巷3號","121.467416666667","24.9927966666667","6501300","土城區"
"236055","AAC-216","2018/11/02 19:39:20","新北市土城區學府路一段66號","121.457023333333","24.9883766666667","6501300","土城區"
"242037","AAC-296","2018/11/02 19:39:11","新北市新莊區民安路207巷8號","121.426606666667","25.0226266666667","6500500","新莊區"
"242056","751-BX","2018/11/02 19:39:17","新北市新莊區新莊路634號","121.443076666667","25.033065","6500500","新莊區"
"242027","615-BX","2018/11/02 19:39:10","新北市新莊區新泰路357巷3弄57號","121.44208","25.0392","6500500","新莊區"
"242029","612-BX","2018/11/02 19:39:05","新北市新莊區新泰路255巷83號","121.442348333333","25.0391733333333","6500500","新莊區"
"242048","497-BY","2018/11/02 19:39:24","新北市新莊區後港一路3號","121.424148333333","25.026265","6500500","新莊區"
"242023","362-BY","2018/11/02 19:39:21","新北市新莊區復興路二段145號","121.457681666667","25.0444333333333","6500500","新莊區"
"242034","135-UY","2018/11/02 19:39:09","新北市新莊區仁愛街18號","121.444271666667","25.0356933333333","6500500","新莊區"
"242013","173-VK","2018/11/02 19:39:25","新北市新莊區中誠街149號","121.448743333333","25.0474433333333","6500500","新莊區"
"242007","176-VK","2018/11/02 19:39:20","新北市新莊區思源路593巷30號","121.457658333333","25.0597633333333","6500500","新莊區"
"242032","348-TH","2018/11/02 19:39:18","新北市新莊區公園一路138號","121.446313333333","25.03818","6500500","新莊區"
"242005","349-TH","2018/11/02 19:39:07","新北市新莊區化成路29巷90號","121.461858333333","25.0440083333333","6500500","新莊區"
"238015","755-BX","2018/11/02 19:39:27","新北市樹林區日新街109號","121.4214","24.9898333333333","6500700","樹林區"
"238023","601-UM","2018/11/02 19:39:17","新北市樹林區三寶街1號","121.406553333333","25.0158483333333","6500700","樹林區"
"238019","599-UM","2018/11/02 19:39:11","新北市樹林區大同街3號","121.418983333333","24.98274","6500700","樹林區"
"238024","5061-A6","2018/11/02 19:39:10","新北市樹林區中山路三段155號","121.395551666667","24.972765","6500700","樹林區"
"238022","KEA-2213","2018/11/02 19:39:18","新北市樹林區國凱街32號","121.41979","24.9785316666667","6500700","樹林區"
"238021","KEA-2539","2018/11/02 19:39:15","新北市樹林區佳園路三段101巷38弄20號","121.391341666667","24.9501766666667","6500700","樹林區"
"238025","303-VK","2018/11/02 19:39:22","新北市樹林區中山路一段372-3號","121.418998333333","24.9858316666667","6500700","樹林區"
"238017","283-BY","2018/11/02 19:39:16","新北市樹林區保安街二段16號","121.415686666667","25.0015583333333","6500700","樹林區"
"238014","282-BY","2018/11/02 19:39:19","新北市樹林區千歲街35號","121.425216666667","24.9958866666667","6500700","樹林區"
"238026","172-UY","2018/11/02 19:39:01","新北市樹林區佳園路二段23號","121.392588333333","24.96371","6500700","樹林區"
"239006","891-R6","2018/11/02 19:39:06","新北市鶯歌區永昌街136號","121.339896666667","24.9503833333333","6500800","鶯歌區"
"239003","360-BY","2018/11/02 19:36:53","新北市樹林區中山路三段210-2號","121.380756666667","24.9674","6500800","鶯歌區"
"239005","292-BY","2018/11/02 19:39:17","新北市鶯歌區中湖街210號","121.349203333333","24.9750416666667","6500800","鶯歌區"
"221008","489-VK","2018/11/02 19:39:24","新北市汐止區康寧街61巷33號","121.619623333333","25.0674983333333","6501100","汐止區"
"221036","130-UY","2018/11/02 19:39:09","新北市汐止區康寧街901號","121.651431666667","25.0750266666667","6501100","汐止區"
"221015","131-UY","2018/11/02 19:39:09","新北市汐止區康寧街901號","121.651663333333","25.07493","6501100","汐止區"
"221010","269-BY","2018/11/02 19:39:25","新北市汐止區汐萬路二段23巷2號","121.64949","25.0812366666667","6501100","汐止區"
"221012","278-VK","2018/11/02 19:39:09","新北市汐止區大同路三段334號","121.679618333333","25.070945","6501100","汐止區"
"221023","279-VK","2018/11/02 19:39:23","新北市汐止區中興路250號","121.629093333333","25.0687083333333","6501100","汐止區"
"221032","280-BY","2018/11/02 19:39:18","新北市汐止區新江北路17號","121.652838333333","25.070485","6501100","汐止區"
"221027","281-BY","2018/11/02 19:39:11","新北市汐止區忠孝東路9號","121.65825","25.0659633333333","6501100","汐止區"
"221029","298-VK","2018/11/02 19:39:20","新北市汐止區康寧街901號","121.651526666667","25.0749816666667","6501100","汐止區"
"221021","299-VK","2018/11/02 19:39:21","新北市汐止區南興路6巷4號","121.65179","25.063195","6501100","汐止區"
"221031","353-TW","2018/11/02 19:39:23","新北市汐止區康寧街901號","121.650861666667","25.07527","6501100","汐止區"
"221025","623-UM","2018/11/02 19:39:10","新北市汐止區福安街20巷2號","121.662495","25.0649866666667","6501100","汐止區"
"221038","646-BX","2018/11/02 19:39:11","新北市汐止區忠孝東路262號","121.663253333333","25.067805","6501100","汐止區"
"221033","647-BX","2018/11/02 19:39:12","新北市汐止區南勢街3號","121.627095","25.037395","6501100","汐止區"
"221002","707-TV","2018/11/02 19:39:28","新北市汐止區工建路504號","121.633191666667","25.0583516666667","6501100","汐止區"
"220079","145-BY","2018/11/02 19:39:18","新北市板橋區建國街83號","121.4594","25.0173066666667","6500100","板橋區"
"220080","200-UY","2018/11/02 19:39:16","新北市板橋區大觀路二段22巷31號","121.445085","25.00357","6500100","板橋區"
"220082","610-BX","2018/11/02 19:39:24","新北市板橋區溪北路85號","121.428401666667","24.989455","6500100","板橋區"
"220101","245-BX","2018/11/02 19:39:14","新北市板橋區莊敬路208巷4弄2號","121.471651666667","25.02098","6500100","板橋區"
"220056","276-BY","2018/11/02 19:39:11","新北市板橋區四川路二段47巷3弄1號","121.454166666667","24.99482","6500100","板橋區"
"220072","277-BY","2018/11/02 19:39:21","新北市板橋區金門街215巷2弄2號","121.432776666667","24.9896933333333","6500100","板橋區"
"220057","282-UM","2018/11/02 19:39:23","新北市板橋區和平路29號","121.459698333333","24.9956683333333","6500100","板橋區"
"220071","283-VK","2018/11/02 19:39:11","新北市板橋區信義路279巷21號","121.464331666667","24.990195","6500100","板橋區"
"220094","285-UM","2018/11/02 19:39:22","新北市板橋區宏國路103號","121.47003","25.0322616666667","6500100","板橋區"
"220053","285-VK","2018/11/02 19:39:26","新北市板橋區中山路二段253號","121.477433333333","25.017455","6500100","板橋區"
"220083","286-VK","2018/11/02 19:39:23","新北市板橋區龍興街71巷2-1號","121.443673333333","25.0019033333333","6500100","板橋區"
"220081","287-VK","2018/11/02 19:39:15","新北市板橋區大觀路一段29巷131弄2號","121.45054","25.0053583333333","6500100","板橋區"
"220090","288-VK","2018/11/02 19:39:19","新北市板橋區新海路431巷10號","121.457866666667","25.0271566666667","6500100","板橋區"
"220061","295-UM","2018/11/02 19:39:25","新北市板橋區中山路一段265巷30號","121.468751666667","25.0146716666667","6500100","板橋區"
"220075","303-R5","2018/11/02 19:39:10","新北市板橋區大勇街17號","121.454576666667","25.0172316666667","6500100","板橋區"
"220062","305-R5","2018/11/02 19:39:19","新北市板橋區三民路二段29巷4號","121.481486666667","25.0180116666667","6500100","板橋區"
"220092","307-R5","2018/11/02 19:39:21","新北市板橋區文化路一段387巷11號","121.46643","25.0220216666667","6500100","板橋區"
"220098","317-R6","2018/11/02 19:39:17","新北市板橋區裕民街93巷8號","121.460425","25.027615","6500100","板橋區"
"220064","486-VK","2018/11/02 19:39:17","新北市板橋區中山路一段139-2號","121.462573333333","25.011065","6500100","板橋區"
"220089","487-VK","2018/11/02 19:39:15","新北市板橋區新海路150號","121.460563333333","25.0238383333333","6500100","板橋區"
"242015","280-VK","2018/11/02 19:39:21","新北市新莊區三和路12-21號","121.442078333333","25.03826","6500500","新莊區"
"220088","491-VK","2018/11/02 19:39:14","新北市板橋區文化路二段554號","121.476278333333","25.0341633333333","6500100","板橋區"
"220035","560-BX","2018/11/02 19:39:19","新北市板橋區金華街104號","121.45863","25.02077","6500100","板橋區"
"220103","561-BX","2018/11/02 19:39:23","新北市板橋區文化路一段292號","121.467666666667","25.0214416666667","6500100","板橋區"
"220084","568-UM","2018/11/02 19:39:18","新北市板橋區滿平二街1-3號","121.425475","24.986385","6500100","板橋區"
"220063","609-BX","2018/11/02 19:39:23","新北市板橋區中山路二段376號","121.481936666667","25.0203616666667","6500100","板橋區"
"220086","630-UY","2018/11/02 19:39:24","新北市板橋區林園街20號","121.454083333333","25.00992","6500100","板橋區"
"220091","637-BX","2018/11/02 19:39:20","新北市板橋區懷德街127巷14弄1號","121.479346666667","25.031115","6500100","板橋區"
"220077","687-BX","2018/11/02 19:39:21","新北市板橋區僑中一街94號","121.446961666667","25.0116466666667","6500100","板橋區"
"220093","689-BX","2018/11/02 19:39:12","新北市板橋區長江路一段93-3號","121.459158333333","25.02947","6500100","板橋區"
"220054","741-BX","2018/11/02 19:39:20","新北市板橋區忠孝路188號","121.464965","25.0026116666667","6500100","板橋區"
"220102","KEA-2699","2018/11/02 19:39:23","新北市板橋區松柏街36巷8-1號","121.47535","25.0296716666667","6500100","板橋區"
"220055","827-TW","2018/11/02 19:39:09","新北市板橋區國慶路149巷13弄13號","121.460348333333","24.9970016666667","6500100","板橋區"
"220067","829-TW","2018/11/02 19:39:27","新北市板橋區漢生東路279巷8號","121.471793333333","25.009175","6500100","板橋區"
"220068","830-TW","2018/11/02 19:39:21","新北市板橋區中山路二段547號","121.483786666667","25.0216666666667","6500100","板橋區"
"220096","831-TW","2018/11/02 19:39:12","新北市板橋區民生路二段232-10號","121.468711666667","25.0227266666667","6500100","板橋區"
"220074","895-R6","2018/11/02 19:39:21","新北市板橋區倉後街1-8號","121.455553333333","25.0091233333333","6500100","板橋區"
"220073","985-R7","2018/11/02 19:39:26","新北市板橋區國光路31巷15號","121.457991666667","25.0183333333333","6500100","板橋區"
"220097","AAC-210","2018/11/02 19:39:13","新北市板橋區漢生西路151巷1號","121.463073333333","25.02215","6500100","板橋區"
"220070","AAC-253","2018/11/02 19:39:10","新北市板橋區民族路180號","121.467715","25.00778","6500100","板橋區"
"235068","KEA-2873","2018/11/02 19:39:15","新北市中和區景平路493號","121.500035","24.9978016666667","6500300","中和區"
"235061","KEA-2875","2018/11/02 19:39:26","新北市中和區民利街56號","121.479108333333","24.9986966666667","6500300","中和區"
