"lineid","car","time","location","longitude","latitude","cityid","cityname"
"234046","148-BY","2018/11/02 19:49:18","新北市永和區永利路248號","121.524153333333","25.0028783333333","6500400","永和區"
"234007","207-UY","2018/11/02 19:49:17","新北市中和區南工路8號","121.50546","25.00036","6500400","永和區"
"234081","298-R6","2018/11/02 19:49:17","新北市永和區永亨路98號","121.523028333333","25.00488","6500400","永和區"
"234038","336-UY","2018/11/02 19:49:26","新北市永和區成功路二段110號","121.526603333333","24.9981616666667","6500400","永和區"
"234064","337-UY","2018/11/02 19:49:18","新北市永和區中正路368巷8號","121.518086666667","25.00071","6500400","永和區"
"234086","338-UY","2018/11/02 19:49:26","新北市永和區永亨路132號","121.524708333333","25.0039666666667","6500400","永和區"
"234070","552-UM","2018/11/02 19:49:20","新北市永和區竹林路77號","121.51953","25.0126366666667","6500400","永和區"
"234017","745-BX","2018/11/02 19:49:24","新北市永和區永和路二段299號","121.516056666667","25.0161383333333","6500400","永和區"
"234030","746-BX","2018/11/02 19:49:17","新北市永和區民生路67巷32號","121.52438","24.9972766666667","6500400","永和區"
"234054","KEA-2590","2018/11/02 19:49:05","新北市永和區竹林路75巷1-1號","121.519096666667","25.0132683333333","6500400","永和區"
"234013","KEA-2591","2018/11/02 19:49:18","新北市永和區永平路296號","121.507426666667","25.0122216666667","6500400","永和區"
"234061","AAD-866","2018/11/02 19:49:24","新北市永和區中正路17號","121.514233333333","24.99573","6500400","永和區"
"234042","862-TW","2018/11/02 19:49:26","新北市永和區中和路389巷8號","121.508103333333","25.0009166666667","6500400","永和區"
"234050","863-TW","2018/11/02 19:49:22","新北市永和區保安路144號","121.50855","25.0149066666667","6500400","永和區"
"234011","9372-KE","2018/11/02 19:49:16","新北市永和區保生路55號","121.504706666667","25.01059","6500400","永和區"
"234026","9371-KE","2018/11/02 19:49:22","新北市永和區雙和街27號","121.50911","25.0021683333333","6500400","永和區"
"249001","173-UM","2018/11/02 19:49:11","新北市八里區中華路二段203號","121.405441666667","25.1496283333333","6502300","八里區"
"249004","303-UY","2018/11/02 19:49:06","新北市八里區仁愛路79號","121.41173","25.159875","6502300","八里區"
"249002","305-UY","2018/11/02 19:49:14","新北市八里區頂寮五街22號","121.451241666667","25.12615","6502300","八里區"
"249003","593-UM","2018/11/02 19:49:09","新北市八里區中華路二段558號","121.398595","25.1452083333333","6502300","八里區"
"248016","026-BX","2018/11/02 19:49:26","新北市五股區成泰路三段577巷80弄7號","121.449526666667","25.1042766666667","6501500","五股區"
"248008","095-VK","2018/11/02 19:49:06","新北市五股區國道路三段21號","121.468473333333","25.0753233333333","6501500","五股區"
"248018","225-UY","2018/11/02 19:49:07","新北市五股區外寮路1-5號","121.425951666667","25.076845","6501500","五股區"
"248012","247-BX","2018/11/02 19:49:11","新北市五股區蓬萊路1-3號","121.434485","25.0796383333333","6501500","五股區"
"248010","272-BY","2018/11/02 19:49:16","新北市五股區登林路貿商巷5弄3號","121.429431666667","25.0700883333333","6501500","五股區"
"248004","653-BX","2018/11/02 19:49:19","新北市五股區成泰路一段149-3號","121.435433333333","25.0733966666667","6501500","五股區"
"248002","678-BX","2018/11/02 19:49:21","新北市五股區成泰路四段14號","121.453455","25.106775","6501500","五股區"
"234023","9380-KE","2018/11/02 19:49:13","新北市永和區中正路702巷20弄1號","121.516565","25.0105183333333","6500400","永和區"
"234077","969-R7","2018/11/02 19:49:19","新北市永和區民權路29巷20號","121.521101666667","24.998","6500400","永和區"
"234074","AAC-211","2018/11/02 19:49:23","新北市永和區竹林路213巷21號","121.522188333333","25.008985","6500400","永和區"
"234067","AAC-212","2018/11/02 19:49:07","新北市永和區保平路236巷24弄1號","121.508045","25.0068766666667","6500400","永和區"
"234003","AAC-295","2018/11/02 19:49:12","新北市永和區福和路316號","121.5161","25.0073233333333","6500400","永和區"
"244023","069-UM","2018/11/02 19:49:22","新北市林口區文林五街9-2號","121.372945","25.0846383333333","6501700","林口區"
"243013","AAD-798","2018/11/02 19:49:18","新北市泰山區應化街7號","121.423865","25.0437116666667","6501600","泰山區"
"243009","297-R6","2018/11/02 19:49:16","新北市泰山區美寧街64號","121.431006666667","25.064675","6501600","泰山區"
"243016","KEA-2801","2018/11/02 19:49:16","新北市泰山區明志路三段492號","121.421015","25.0311816666667","6501600","泰山區"
"243015","421-VK","2018/11/02 19:49:12","新北市泰山區明志路二段214巷11號","121.426666666667","25.0488466666667","6501600","泰山區"
"243012","539-UM","2018/11/02 19:49:06","新北市泰山區全興路13號","121.43237","25.0589416666667","6501600","泰山區"
"243011","KEA-2215","2018/11/02 19:49:19","新北市泰山區明志路三段196巷21弄26號","121.422565","25.0385183333333","6501600","泰山區"
"243010","KEA-2216","2018/11/02 19:49:23","新北市泰山區民生路30號","121.431178333333","25.051965","6501600","泰山區"
"243014","680-BX","2018/11/02 19:49:22","新北市泰山區泰林路二段33-8號","121.43518","25.05646","6501600","泰山區"
"222003","436-BY","2018/11/02 19:49:13","新北市深坑區深南路51-1號","121.62124","25.00983","6501800","深坑區"
"222002","659-BX","2018/11/02 19:49:23","新北市深坑區北深路二段2巷3號","121.621671666667","25.004685","6501800","深坑區"
"231059","046-UY","2018/11/02 19:49:23","新北市新店區安和路二段227號","121.517261666667","24.97615","6500600","新店區"
"231040","047-UY","2018/11/02 19:49:13","新北市新店區大新街7巷1號","121.54323","24.9686933333333","6500600","新店區"
"231046","107-UY","2018/11/02 19:49:15","新北市新店區三民路159巷19弄46號","121.532228333333","24.9732266666667","6500600","新店區"
"231053","108-UY","2018/11/02 19:49:12","新北市新店區新烏路三段145號","121.551138333333","24.9017766666667","6500600","新店區"
"231048","187-VK","2018/11/02 19:49:20","新北市新店區中興路二段100巷2號","121.547511666667","24.9712416666667","6500600","新店區"
"231054","KEA-2219","2018/11/02 19:49:21","新北市新店區光明街138巷5號","121.539703333333","24.9612116666667","6500600","新店區"
"231057","256-BX","2018/11/02 19:49:19","新北市新店區梅崗三路1號","121.558345","24.9312733333333","6500600","新店區"
"231042","268-BY","2018/11/02 19:49:15","新北市新店區中興路一段267-1號","121.544975","24.9677333333333","6500600","新店區"
"231051","278-BY","2018/11/02 19:49:10","新北市新店區中央路153號","121.529956666667","24.9731183333333","6500600","新店區"
"231050","AAD-862","2018/11/02 19:49:20","新北市新店區北宜路二段417號","121.560161666667","24.954475","6500600","新店區"
"231044","355-BY","2018/11/02 19:49:12","新北市新店區復興路40-1號","121.53874","24.9868083333333","6500600","新店區"
"231058","3713-VJ","2018/11/02 19:49:24","新北市新店區環河路103-5號","121.531776666667","24.9709916666667","6500600","新店區"
"231066","4716-K9","2018/11/02 19:49:21","新北市新店區安康路二段341巷4號","121.496873333333","24.9550383333333","6500600","新店區"
"231056","4715-K9","2018/11/02 19:49:12","新北市新店區民權路72號","121.538193333333","24.9831116666667","6500600","新店區"
"231067","4772-VM","2018/11/02 19:49:17","新北市新店區精忠路10-1號","121.532571666667","24.9590916666667","6500600","新店區"
"231065","512-UM","2018/11/02 19:49:26","新北市新店區安祥路109巷151弄12號","121.478128333333","24.958885","6500600","新店區"
"231049","513-UM","2018/11/02 19:49:11","新北市新店區民權路88-5號","121.53621","24.9834983333333","6500600","新店區"
"231045","617-UM","2018/11/02 19:49:08","新北市新店區北宜路二段384號","121.564513333333","24.9529066666667","6500600","新店區"
"231041","618-UM","2018/11/02 19:49:22","新北市新店區中央路226號","121.529638333333","24.972815","6500600","新店區"
"231061","619-UM","2018/11/02 19:49:24","新北市新店區安民街199號","121.517126666667","24.9718533333333","6500600","新店區"
"231063","641-BX","2018/11/02 19:49:20","新北市新店區車子路11號","121.503028333333","24.9519816666667","6500600","新店區"
"231068","718-UY","2018/11/02 19:49:11","新北市新店區安一路一段1-1號","121.519575","24.9612666666667","6500600","新店區"
"231064","719-UM","2018/11/02 19:47:34","新北市新店區安和路二段115號","121.51849","24.9702033333333","6500600","新店區"
"231062","720-UM","2018/11/02 19:49:08","新北市新店區永業路97號","121.528875","24.9487883333333","6500600","新店區"
"231060","897-TW","2018/11/02 19:49:23","新北市新店區安康路二段223號","121.508618333333","24.9587283333333","6500600","新店區"
"231043","899-TW","2018/11/02 19:49:22","新北市新店區中正路263-4號","121.538335","24.973895","6500600","新店區"
"231055","AKT-0513","2018/11/02 19:49:07","新北市新店區力行路14巷16弄8號","121.539455","24.96557","6500600","新店區"
"241011","013-R5","2018/11/02 19:49:18","新北市三重區三和路二段173巷23號","121.498878333333","25.070045","6500200","三重區"
"241028","022-UY","2018/11/02 19:49:14","新北市三重區中正南路135號","121.493991666667","25.0568983333333","6500200","三重區"
"241008","059-VK","2018/11/02 19:49:24","新北市三重區永福街96號","121.478808333333","25.0759","6500200","三重區"
"241022","060-VK","2018/11/02 19:49:11","新北市三重區新北大道一段7號","121.489665","25.0615833333333","6500200","三重區"
"241031","061-VK","2018/11/02 19:49:12","新北市三重區重新路四段244巷6號","121.486178333333","25.0535183333333","6500200","三重區"
"241015","062-VK","2018/11/02 19:49:09","新北市三重區重新路一段1號","121.503716666667","25.0643033333333","6500200","三重區"
"241017","063-VK","2018/11/02 19:49:19","新北市三重區重陽路三段5巷10號","121.489465","25.0661716666667","6500200","三重區"
"241026","066-VK","2018/11/02 19:49:09","新北市三重區文化南路42號","121.500411666667","25.0602333333333","6500200","三重區"
"241003","091-VK","2018/11/02 19:49:21","新北市三重區五華街91號","121.491916666667","25.083585","6500200","三重區"
"241016","266-UM","2018/11/02 19:49:10","新北市三重區正德街43號","121.495778333333","25.0627333333333","6500200","三重區"
"241009","267-UM","2018/11/02 19:49:21","新北市三重區三和路四段396巷2-1號","121.48146","25.079155","6500200","三重區"
"241018","268-UM","2018/11/02 19:49:06","新北市三重區雙園街57巷32號","121.494433333333","25.0683733333333","6500200","三重區"
"241013","270-UM","2018/11/02 19:49:25","新北市三重區三和路三段85號","121.494313333333","25.0722183333333","6500200","三重區"
"241025","271-UM","2018/11/02 19:49:18","新北市三重區忠孝路三段54號","121.480658333333","25.06555","6500200","三重區"
"241007","398-BY","2018/11/02 19:49:22","新北市三重區三和路四段143-1號","121.484365","25.0782583333333","6500200","三重區"
"241035","KEA-2210","2018/11/02 19:49:20","新北市三重區文化北路8號","121.499471666667","25.0636333333333","6500200","三重區"
"241020","478-VK","2018/11/02 19:49:13","新北市三重區三和路四段20巷16-2號","121.490545","25.073325","6500200","三重區"
"241014","543-UM","2018/11/02 19:49:18","新北市三重區長安街84號","121.50162","25.0674516666667","6500200","三重區"
"241023","545-UM","2018/11/02 19:49:10","新北市三重區頂崁街172號","121.477526666667","25.0659066666667","6500200","三重區"
"241001","547-UM","2018/11/02 19:49:16","新北市三重區仁愛街327巷45-1號","121.49339","25.0801633333333","6500200","三重區"
"241019","KEA-2593","2018/11/02 19:49:25","新北市三重區自強路二段67巷17號","121.48944","25.0702233333333","6500200","三重區"
"241006","AAD-863","2018/11/02 19:49:23","新北市三重區力行路二段33巷1號","121.482508333333","25.0736316666667","6500200","三重區"
"241030","743-BX","2018/11/02 19:49:22","新北市三重區成功路97號","121.487868333333","25.0515516666667","6500200","三重區"
"241004","887-TS","2018/11/02 19:49:16","新北市三重區仁愛街377巷132號","121.49357","25.0820133333333","6500200","三重區"
"241012","941-UM","2018/11/02 19:49:23","新北市三重區仁興街41號","121.4991","25.0757933333333","6500200","三重區"
"241029","942-UM","2018/11/02 19:49:14","新北市三重區光明路11號","121.490926666667","25.0587033333333","6500200","三重區"
"241033","AAC-255","2018/11/02 19:49:14","新北市三重區中興南街29-1號","121.470588333333","25.0440083333333","6500200","三重區"
"235066","003-UY","2018/11/02 19:49:15","新北市中和區南工路22巷2號","121.505575","25.00067","6500300","中和區"
"235056","096-UM","2018/11/02 19:49:14","新北市中和區中山路三段136巷41號","121.473881666667","25.0071533333333","6500300","中和區"
"235039","097-UM","2018/11/02 19:49:15","新北市中和區大勇街27巷20號","121.516466666667","24.99384","6500300","中和區"
"235065","098-UM","2018/11/02 19:49:07","新北市中和區福祥路90巷5號","121.499663333333","25.005855","6500300","中和區"
"235040","150-BY","2018/11/02 19:49:10","新北市中和區安平路38號","121.509698333333","24.9949233333333","6500300","中和區"
"235058","151-BY","2018/11/02 19:49:14","新北市中和區員山路146巷19號","121.482525","24.9968466666667","6500300","中和區"
"235055","183-VK","2018/11/02 19:49:13","新北市中和區德光路27巷28號","121.470963333333","25.00353","6500300","中和區"
"235038","185-VK","2018/11/02 19:49:22","新北市中和區自立路6號","121.522436666667","24.9964766666667","6500300","中和區"
"235049","186-VK","2018/11/02 19:49:19","新北市中和區中興街15號","121.501255","24.99498","6500300","中和區"
"235067","255-BX","2018/11/02 19:49:12","新北市中和區新生街186巷1弄6號","121.483338333333","24.9994283333333","6500300","中和區"
"235044","293-VK","2018/11/02 19:49:16","新北市中和區板南路150號","121.502023333333","24.9926016666667","6500300","中和區"
"235072","301-VK","2018/11/02 19:49:16","新北市中和區連城路174巷42號","121.494563333333","25.0008033333333","6500300","中和區"
"235043","352-BY","2018/11/02 19:49:13","新北市中和區興南路二段159巷26號","121.505443333333","24.9827383333333","6500300","中和區"
"235042","KEA-2878","2018/11/02 19:49:04","新北市中和區宜安路138號","121.509723333333","24.9983733333333","6500300","中和區"
"235050","4979-A6","2018/11/02 19:49:07","新北市中和區景平路241巷84弄57號","121.50609","24.9923166666667","6500300","中和區"
"235070","558-UM","2018/11/02 19:49:18","新北市中和區圓通路151號","121.498281666667","24.9956333333333","6500300","中和區"
"235054","640-BX","2018/11/02 19:49:23","新北市中和區莒光路56號","121.472208333333","25.0034166666667","6500300","中和區"
"235060","647-TV","2018/11/02 19:49:16","新北市中和區民樂路78號","121.484398333333","25.00125","6500300","中和區"
"235047","732-UM","2018/11/02 19:49:20","新北市中和區南山路150號","121.504196666667","24.9921616666667","6500300","中和區"
"235046","733-UM","2018/11/02 19:49:12","新北市中和區仁愛街44號","121.511068333333","24.9881766666667","6500300","中和區"
"235071","783-BX","2018/11/02 19:49:23","新北市中和區中板路7-1號","121.484856666667","25.0114133333333","6500300","中和區"
"235057","801-TS","2018/11/02 19:49:18","新北市中和區員山路295號","121.481236666667","24.99996","6500300","中和區"
"235041","802-TS","2018/11/02 19:49:19","新北市中和區永貞路239巷1號","121.512963333333","25.003485","6500300","中和區"
"235052","805-TS","2018/11/02 19:49:22","新北市中和區華新街30巷3號","121.507315","24.9842783333333","6500300","中和區"
"235048","896-TW","2018/11/02 19:49:14","新北市中和區興南路一段141號","121.50884","24.987445","6500300","中和區"
"235053","900-TW","2018/11/02 19:49:19","新北市中和區國光街140號","121.468415","25.0013433333333","6500300","中和區"
"235051","157-BY","2018/11/02 19:49:18","新北市中和區中興街180巷50弄3號","121.498686666667","24.98904","6500300","中和區"
"235037","AAC-213","2018/11/02 19:49:22","新北市中和區秀朗路三段173-2號","121.524463333333","24.991295","6500300","中和區"
"235059","AAC-215","2018/11/02 19:49:13","新北市中和區圓通路305巷29弄2號","121.49505","24.989125","6500300","中和區"
"220065","072-UY","2018/11/02 19:49:24","新北市板橋區海山路41號","121.46731","25.009815","6500100","板橋區"
"220106","075-UY","2018/11/02 19:49:14","新北市板橋區民治街57巷24弄1號","121.48036","25.0337883333333","6500100","板橋區"
"220069","AAD-861","2018/11/02 19:49:26","新北市板橋區大明街23號","121.45865","25.00251","6500100","板橋區"
"247002","893-R6","2018/11/02 19:49:22","新北市蘆洲區永樂街38巷57弄1號","121.458421666667","25.09006","6501400","蘆洲區"
"247014","339-TH","2018/11/02 19:49:18","新北市蘆洲區中央路89號","121.47273","25.0842233333333","6501400","蘆洲區"
"247008","336-TH","2018/11/02 19:49:20","新北市蘆洲區中山一路54號","121.479243333333","25.080915","6501400","蘆洲區"
"247004","002-UY","2018/11/02 19:49:15","新北市蘆洲區中原路85號","121.458046666667","25.081615","6501400","蘆洲區"
"226004","205-ST","2018/11/02 19:49:11","新北市平溪區靜安路三段392巷3號","121.784456666667","25.049555","6502400","平溪區"
"228001","670-TC","2018/11/02 19:49:26","新北市貢寮區仁理村仁愛路95-1號","121.927593333333","25.055535","6502600","貢寮區"
"228003","828-UM","2018/11/02 19:49:10","新北市貢寮區真理里美艷山街3-1號","121.925725","25.0596183333333","6502600","貢寮區"
"224010","AGQ-8101","2018/11/02 19:49:23","新北市瑞芳區輕便路131號","121.843511666667","25.10874","6501200","瑞芳區"
"224002","639-TC","2018/11/02 19:49:26","新北市瑞芳區員山子路員山巷1號","121.816881666667","25.10365","6501200","瑞芳區"
"227011","642-TC","2018/11/02 19:49:21","新北市雙溪區新基里中華路74號","121.865821666667","25.03827","6502500","雙溪區"
"227003","400-TW","2018/11/02 19:49:08","新北市雙溪區雙溪里內挖路47號","121.863205","25.0367783333333","6502500","雙溪區"
"222001","KEA-2212","2018/11/02 19:49:22","新北市深坑區北深路三段71號","121.60687","25.00147","6501800","深坑區"
"208002","KEA-2872","2018/11/02 19:49:09","新北市金山區中華路366-1號","121.633186666667","25.2245","6502700","金山區"
"208003","665-BX","2018/11/02 19:49:04","新北市金山區環金路462號","121.630188333333","25.2248566666667","6502700","金山區"
"208001","761-BX","2018/11/02 19:49:27","新北市金山區重和里六股林口9號","121.599341666667","25.2117833333333","6502700","金山區"
"251005","010-UM","2018/11/02 19:49:16","新北市淡水區中山路8號","121.444681666667","25.16904","6501000","淡水區"
"251012","441-VK","2018/11/02 19:49:26","新北市淡水區淡金路三段70巷1號","121.448325","25.200555","6501000","淡水區"
"251001","559-UM","2018/11/02 19:49:25","新北市淡水區淡金路73號","121.456263333333","25.1618783333333","6501000","淡水區"
"251006","561-UM","2018/11/02 19:49:25","新北市淡水區水碓街15號","121.443493333333","25.1769533333333","6501000","淡水區"
"251009","575-R6","2018/11/02 19:49:14","新北市淡水區中正路32號","121.443835","25.169225","6501000","淡水區"
"251007","577-R6","2018/11/02 19:49:18","新北市淡水區竿蓁一街56號","121.453168333333","25.16633","6501000","淡水區"
"251011","650-BX","2018/11/02 19:49:08","新北市淡水區淡金路二段600號","121.446536666667","25.1929233333333","6501000","淡水區"
"251003","766-UM","2018/11/02 19:49:07","新北市淡水區崁頂78-5號","121.429801666667","25.2064066666667","6501000","淡水區"
"207003","550-UM","2018/11/02 19:49:18","新北市萬里區大鵬里萬里加投46-1號","121.641906666667","25.2113933333333","6502800","萬里區"
"207004","225-TW","2018/11/02 19:49:19","新北市萬里區萬里里瑪鋉路170號","121.68985","25.179815","6502800","萬里區"
"252002","178-VK","2018/11/02 19:49:20","新北市三芝區三民街33-1號","121.504611666667","25.2585283333333","6502100","三芝區"
"252001","292-VK","2018/11/02 19:49:18","新北市三芝區公正街9號","121.499766666667","25.2574816666667","6502100","三芝區"
"237007","153-BY","2018/11/02 19:49:09","新北市三峽區麻園24-12號","121.362995","24.918385","6500900","三峽區"
"237009","210-TH","2018/11/02 19:49:13","新北市三峽區民族街78巷2弄4號","121.368528333333","24.9299216666667","6500900","三峽區"
"237013","252-BX","2018/11/02 19:49:12","新北市三峽區溪北街43號","121.396975","24.936045","6500900","三峽區"
"237012","275-BY","2018/11/02 19:49:22","新北市三峽區中華路74-5號","121.371481666667","24.929255","6500900","三峽區"
"237008","302-VK","2018/11/02 19:49:22","新北市三峽區中正路一段174巷4弄4號","121.372403333333","24.92881","6500900","三峽區"
"237014","433-BY","2018/11/02 19:49:06","新北市三峽區添福141-13號","121.374213333333","24.90105","6500900","三峽區"
"237006","5529-G3","2018/11/02 19:49:24","新北市三峽區中正路一段336巷15弄2號","121.36996","24.924935","6500900","三峽區"
"237011","KEA-2596","2018/11/02 19:49:18","新北市三峽區中正路一段532號","121.36891","24.920075","6500900","三峽區"
"237015","649-BX","2018/11/02 19:49:11","新北市三峽區介壽路三段20號","121.395975","24.9361766666667","6500900","三峽區"
"237005","AKY-6261","2018/11/02 19:49:15","新北市三峽區長泰街18巷1號","121.379065","24.9317","6500900","三峽區"
"236069","105-UM","2018/11/02 19:49:08","新北市土城區中央路二段346巷12-2號","121.439596666667","24.972235","6501300","土城區"
"236042","KED-0685","2018/11/02 19:49:18","新北市土城區裕民路233巷1號","121.45481","24.983805","6501300","土城區"
"236079","166-UM","2018/11/02 19:49:13","新北市土城區福安街106號","121.41725","24.9638916666667","6501300","土城區"
"236030","253-BX","2018/11/02 19:49:12","新北市土城區中央路一段294號","121.443346666667","24.9823966666667","6501300","土城區"
"236026","269-VK","2018/11/02 19:49:28","新北市土城區中央路二段61巷26號","121.443293333333","24.9786933333333","6501300","土城區"
"236039","271-VK","2018/11/02 19:49:14","新北市土城區國際路158巷19號","121.468661666667","24.9760483333333","6501300","土城區"
"236020","401-BY","2018/11/02 19:49:08","新北市土城區延吉街137巷8號","121.470876666667","24.9857183333333","6501300","土城區"
"236059","912-UM","2018/11/02 19:49:14","新北市土城區中央路一段139號","121.446741666667","24.9882383333333","6501300","土城區"
"236048","913-UM","2018/11/02 19:49:24","新北市土城區青雲路150號","121.45907","24.9832116666667","6501300","土城區"
"236063","915-UM","2018/11/02 19:49:15","新北市土城區金城路三段163巷16號","121.468883333333","24.9891966666667","6501300","土城區"
"236055","AAC-216","2018/11/02 19:49:20","新北市土城區延和路191-1號","121.469425","24.9902933333333","6501300","土城區"
"242037","AAC-296","2018/11/02 19:49:11","新北市新莊區建安街91號","121.427026666667","25.0244366666667","6500500","新莊區"
"242056","751-BX","2018/11/02 19:49:17","新北市新莊區新泰路87號","121.448781666667","25.0344216666667","6500500","新莊區"
"242027","615-BX","2018/11/02 19:49:10","新北市新莊區中平路276號","121.444778333333","25.0505266666667","6500500","新莊區"
"242029","612-BX","2018/11/02 19:49:25","新北市新莊區中平路268號","121.44481","25.050065","6500500","新莊區"
"242048","497-BY","2018/11/02 19:49:23","新北市新莊區建安街92巷9號","121.425816666667","25.0242916666667","6500500","新莊區"
"242039","415-TV","2018/11/02 19:49:16","新北市新莊區民安路299巷33號","121.429286666667","25.0231966666667","6500500","新莊區"
"242023","362-BY","2018/11/02 19:49:01","新北市新莊區化成路127號","121.465578333333","25.047245","6500500","新莊區"
"242060","353-BY","2018/11/02 19:49:18","新北市新莊區瓊林路118號","121.442215","25.0255516666667","6500500","新莊區"
"242034","135-UY","2018/11/02 19:49:19","新北市新莊區建中街90巷3弄19號","121.44573","25.0370383333333","6500500","新莊區"
"242013","173-VK","2018/11/02 19:49:04","新北市新莊區中泰街38巷10號","121.450803333333","25.0473483333333","6500500","新莊區"
"242007","176-VK","2018/11/02 19:49:20","新北市新莊區思源路593巷6弄1號","121.45917","25.0597833333333","6500500","新莊區"
"242032","348-TH","2018/11/02 19:49:18","新北市新莊區忠孝街14號","121.443961666667","25.034895","6500500","新莊區"
"242005","349-TH","2018/11/02 19:49:21","新北市新莊區化成路63巷24弄38號","121.46161","25.0459883333333","6500500","新莊區"
"242021","350-TH","2018/11/02 19:49:11","新北市新莊區中正路400號","121.441938333333","25.0342316666667","6500500","新莊區"
"238015","755-BX","2018/11/02 19:49:14","新北市樹林區中山路一段149-2號","121.422085","24.9892316666667","6500700","樹林區"
"238023","601-UM","2018/11/02 19:49:17","新北市樹林區中正路193號","121.423355","25.0032816666667","6500700","樹林區"
"238019","599-UM","2018/11/02 19:49:11","新北市樹林區中山路二段249巷2號","121.401958333333","24.9758583333333","6500700","樹林區"
"238021","KEA-2539","2018/11/02 19:49:15","新北市樹林區佳園路三段101巷38弄2號","121.391428333333","24.9508783333333","6500700","樹林區"
"238025","303-VK","2018/11/02 19:49:22","新北市樹林區中山路二段133號","121.406596666667","24.9791366666667","6500700","樹林區"
"238017","283-BY","2018/11/02 19:49:23","新北市樹林區保安街二段45巷46號","121.413643333333","25.00026","6500700","樹林區"
"238014","282-BY","2018/11/02 19:49:19","新北市樹林區千歲街68號","121.426206666667","24.9974866666667","6500700","樹林區"
"239006","891-R6","2018/11/02 19:49:05","新北市鶯歌區重慶街43號","121.351416666667","24.95245","6500800","鶯歌區"
"221008","489-VK","2018/11/02 19:49:24","新北市汐止區康寧街143號","121.621545","25.0667533333333","6501100","汐止區"
"221036","130-UY","2018/11/02 19:49:29","新北市汐止區汐萬路一段160號","121.652561666667","25.071605","6501100","汐止區"
"221015","131-UY","2018/11/02 19:49:09","新北市汐止區大同路二段527號","121.661785","25.0689733333333","6501100","汐止區"
"221010","269-BY","2018/11/02 19:49:25","新北市汐止區康寧街885巷19號","121.650233333333","25.0765966666667","6501100","汐止區"
"221012","278-VK","2018/11/02 19:49:09","新北市汐止區保長路271巷2號","121.680921666667","25.074325","6501100","汐止區"
"221023","279-VK","2018/11/02 19:49:23","新北市汐止區民族六街7巷1號","121.630056666667","25.069555","6501100","汐止區"
"221032","280-BY","2018/11/02 19:49:18","新北市汐止區橫科路403巷18號","121.625491666667","25.04756","6501100","汐止區"
"221027","281-BY","2018/11/02 19:49:26","新北市汐止區大同路二段583號","121.663526666667","25.0701066666667","6501100","汐止區"
"221029","298-VK","2018/11/02 19:49:20","新北市汐止區康寧街901號","121.651505","25.0749766666667","6501100","汐止區"
"221021","299-VK","2018/11/02 19:49:21","新北市汐止區新興路108號","121.65732","25.060875","6501100","汐止區"
"221031","353-TW","2018/11/02 19:49:23","新北市汐止區福德三路127號","121.633651666667","25.0675166666667","6501100","汐止區"
"221035","622-UM","2018/11/02 19:49:13","新北市汐止區長江街13巷6弄1號","121.65474","25.071695","6501100","汐止區"
"221025","623-UM","2018/11/02 19:49:10","新北市汐止區秀峰路81巷28號","121.661166666667","25.064475","6501100","汐止區"
"221038","646-BX","2018/11/02 19:49:24","新北市汐止區忠孝東路425號","121.665768333333","25.07174","6501100","汐止區"
"221033","647-BX","2018/11/02 19:49:12","新北市汐止區東勢街64號","121.632721666667","25.0395783333333","6501100","汐止區"
"221002","707-TV","2018/11/02 19:49:08","新北市汐止區工建路504號","121.633228333333","25.0583283333333","6501100","汐止區"
"221018","753-BX","2018/11/02 19:49:23","新北市汐止區大同路二段544號","121.661731666667","25.068905","6501100","汐止區"
"220079","145-BY","2018/11/02 19:49:17","新北市板橋區大仁街51號","121.454655","25.0163683333333","6500100","板橋區"
"220080","200-UY","2018/11/02 19:49:16","新北市板橋區大觀路二段22巷31號","121.445085","25.00357","6500100","板橋區"
"220082","610-BX","2018/11/02 19:49:22","新北市板橋區篤行路二段128-3號","121.43117","24.9906316666667","6500100","板橋區"
"220101","245-BX","2018/11/02 19:49:14","新北市板橋區莊敬路263巷15號","121.47317","25.0216816666667","6500100","板橋區"
"220072","277-BY","2018/11/02 19:49:21","新北市板橋區篤行路二段31巷8號","121.432328333333","24.99258","6500100","板橋區"
"220057","282-UM","2018/11/02 19:49:09","新北市板橋區廣和街83號","121.462768333333","24.9919866666667","6500100","板橋區"
"220071","283-VK","2018/11/02 19:49:10","新北市板橋區五權街30巷24弄15號","121.463761666667","24.9933366666667","6500100","板橋區"
"220094","285-UM","2018/11/02 19:49:21","新北市板橋區溪頭街74號","121.458543333333","25.029525","6500100","板橋區"
"220053","285-VK","2018/11/02 19:49:26","新北市板橋區中山路二段60巷1弄18號","121.474913333333","25.01559","6500100","板橋區"
"220083","286-VK","2018/11/02 19:49:12","新北市板橋區龍興街71巷2-1號","121.443901666667","25.0020316666667","6500100","板橋區"
"220081","287-VK","2018/11/02 19:49:15","新北市板橋區大觀路一段29巷9號","121.450126666667","25.008115","6500100","板橋區"
"220090","288-VK","2018/11/02 19:49:19","新北市板橋區綠堤街33-4號","121.455693333333","25.0264616666667","6500100","板橋區"
"220061","295-UM","2018/11/02 19:49:25","新北市板橋區板新路200巷22號","121.468631666667","25.0165833333333","6500100","板橋區"
"242002","281-VK","2018/11/02 19:49:11","新北市新莊區新泰路2-11號","121.450135","25.03249","6500500","新莊區"
"220075","303-R5","2018/11/02 19:49:10","新北市板橋區金華街10巷48弄22號","121.457751666667","25.0198983333333","6500100","板橋區"
"220062","305-R5","2018/11/02 19:49:23","新北市板橋區光復街33巷35號","121.482506666667","25.01898","6500100","板橋區"
"220092","307-R5","2018/11/02 19:49:22","新北市板橋區四維路137巷15號","121.464385","25.0246833333333","6500100","板橋區"
"220098","317-R6","2018/11/02 19:49:17","新北市板橋區新海路385巷12號","121.458481666667","25.0258216666667","6500100","板橋區"
"220064","486-VK","2018/11/02 19:49:25","新北市板橋區公園街8號","121.463003333333","25.00909","6500100","板橋區"
"220089","487-VK","2018/11/02 19:49:26","新北市板橋區龍泉街71號","121.456525","25.0253833333333","6500100","板橋區"
"242015","280-VK","2018/11/02 19:49:21","新北市新莊區中平路82巷36-2號","121.446555","25.0448783333333","6500500","新莊區"
"220088","491-VK","2018/11/02 19:49:14","新北市板橋區仁化街76號","121.476103333333","25.03186","6500100","板橋區"
"220035","560-BX","2018/11/02 19:49:19","新北市板橋區新生街53巷1弄10號","121.457005","25.0215583333333","6500100","板橋區"
"220103","561-BX","2018/11/02 19:49:24","新北市板橋區陽明街29巷5號","121.465153333333","25.0216966666667","6500100","板橋區"
"220084","568-UM","2018/11/02 19:49:20","新北市板橋區溪崑二街103巷20號","121.427211666667","24.9886483333333","6500100","板橋區"
"220063","609-BX","2018/11/02 19:49:22","新北市板橋區三民路一段147號","121.479188333333","25.0197883333333","6500100","板橋區"
"220091","637-BX","2018/11/02 19:49:20","新北市板橋區文聖街131號","121.478111666667","25.02851","6500100","板橋區"
"220077","687-BX","2018/11/02 19:49:21","新北市板橋區僑中一街124巷11弄1號","121.44599","25.012955","6500100","板橋區"
"220093","689-BX","2018/11/02 19:49:17","新北市板橋區長江路二段317號","121.47122","25.0334133333333","6500100","板橋區"
"220054","741-BX","2018/11/02 19:49:20","新北市板橋區實踐路65巷43號","121.465191666667","25.00626","6500100","板橋區"
"220102","KEA-2699","2018/11/02 19:49:23","新北市板橋區松柏街31號","121.47517","25.030295","6500100","板橋區"
"220055","827-TW","2018/11/02 19:49:09","新北市板橋區國慶路167巷13號","121.461808333333","24.997045","6500100","板橋區"
"220067","829-TW","2018/11/02 19:49:20","新北市板橋區長安街255巷39號","121.472321666667","25.0111533333333","6500100","板橋區"
"220068","830-TW","2018/11/02 19:49:21","新北市板橋區中山路二段416巷32弄1號","121.483226666667","25.0202533333333","6500100","板橋區"
"220096","831-TW","2018/11/02 19:49:12","新北市板橋區莊敬路167號","121.470968333333","25.02399","6500100","板橋區"
"220074","895-R6","2018/11/02 19:49:21","新北市板橋區東門街30號","121.457986666667","25.0086133333333","6500100","板橋區"
"220073","985-R7","2018/11/02 19:49:26","新北市板橋區大仁街105號","121.452696666667","25.0157466666667","6500100","板橋區"
"220097","AAC-210","2018/11/02 19:49:13","新北市板橋區幸福路40號","121.461456666667","25.020185","6500100","板橋區"
"220070","AAC-253","2018/11/02 19:49:19","新北市板橋區民族路115號","121.467006666667","25.0081083333333","6500100","板橋區"
"235068","KEA-2873","2018/11/02 19:49:15","新北市中和區永和路8巷23弄7號","121.500663333333","25.0038533333333","6500300","中和區"
"235061","KEA-2875","2018/11/02 19:49:08","新北市中和區員山路226巷3弄4號","121.481643333333","25.000905","6500300","中和區"
