"lineid","car","time","location","longitude","latitude","cityid","cityname"
"234081","298-R6","2018/11/02 20:19:17","新北市永和區國中路132巷5號","121.523696666667","25.00722","6500400","永和區"
"234038","336-UY","2018/11/02 20:19:26","新北市永和區成功路一段1號","121.527188333333","25.0053633333333","6500400","永和區"
"234064","337-UY","2018/11/02 20:19:18","新北市永和區得和路168號","121.519561666667","25.0000783333333","6500400","永和區"
"234086","338-UY","2018/11/02 20:19:26","新北市永和區福和路261號","121.517826666667","25.007365","6500400","永和區"
"234070","552-UM","2018/11/02 20:19:20","新北市永和區福和路261號","121.51787","25.0073216666667","6500400","永和區"
"234017","745-BX","2018/11/02 20:19:24","新北市永和區仁愛路71號","121.513201666667","25.013245","6500400","永和區"
"234030","746-BX","2018/11/02 20:19:17","新北市永和區民有街75巷10弄33號","121.519238333333","24.996035","6500400","永和區"
"234054","KEA-2590","2018/11/02 20:19:25","新北市永和區光復街2巷18號","121.517113333333","25.016545","6500400","永和區"
"234013","KEA-2591","2018/11/02 20:19:18","新北市永和區仁愛路264號","121.504346666667","25.0086983333333","6500400","永和區"
"234061","AAD-866","2018/11/02 20:19:23","新北市永和區得和路15號","121.515276666667","25.0006033333333","6500400","永和區"
"234042","862-TW","2018/11/02 20:19:06","新北市中和區中和路350巷12弄2號","121.510825","25.00016","6500400","永和區"
"234050","863-TW","2018/11/02 20:19:22","新北市永和區新生路43號","121.509053333333","25.016445","6500400","永和區"
"249005","172-UM","2018/11/02 20:19:12","新北市八里區下罟子2-21號","121.38896","25.1418783333333","6502300","八里區"
"249001","173-UM","2018/11/02 20:19:10","新北市八里區中華路二段341-10號","121.399101666667","25.144985","6502300","八里區"
"249004","303-UY","2018/11/02 20:19:26","新北市八里區中山路一段129巷29號","121.413998333333","25.1585366666667","6502300","八里區"
"249002","305-UY","2018/11/02 20:19:14","新北市八里區龍米路二段32巷16號","121.449001666667","25.1406466666667","6502300","八里區"
"249003","593-UM","2018/11/02 20:19:09","新北市八里區華峰一街75號","121.398101666667","25.14597","6502300","八里區"
"248012","247-BX","2018/11/02 20:19:11","新北市五股區民義路一段206號","121.43055","25.0891266666667","6501500","五股區"
"248002","678-BX","2018/11/02 20:19:21","新北市五股區成泰路三段163號","121.445175","25.09178","6501500","五股區"
"234023","9380-KE","2018/11/02 20:19:13","新北市永和區永和路二段230號","121.516066666667","25.0142966666667","6500400","永和區"
"234077","969-R7","2018/11/02 20:19:19","新北市永和區民享街7號","121.515196666667","24.9954766666667","6500400","永和區"
"234074","AAC-211","2018/11/02 20:19:23","新北市永和區豫溪街160巷2號","121.523271666667","25.0095516666667","6500400","永和區"
"234067","AAC-212","2018/11/02 20:19:07","新北市永和區保平路268巷14號","121.507936666667","25.0060016666667","6500400","永和區"
"234003","AAC-295","2018/11/02 20:19:12","新北市永和區大新街12號","121.51496","25.0085033333333","6500400","永和區"
"243013","AAD-798","2018/11/02 20:19:25","新北市泰山區新民路30號","121.426831666667","25.0445","6501600","泰山區"
"243009","297-R6","2018/11/02 20:19:16","新北市泰山區明志路一段247號","121.43227","25.060555","6501600","泰山區"
"243016","KEA-2801","2018/11/02 20:19:16","新北市泰山區明志路三段12號","121.424743333333","25.0433316666667","6501600","泰山區"
"243015","421-VK","2018/11/02 20:19:18","新北市泰山區仁德路125號","121.432615","25.0561533333333","6501600","泰山區"
"243012","539-UM","2018/11/02 20:19:06","新北市泰山區楓江路58-5號","121.436335","25.0627833333333","6501600","泰山區"
"243011","KEA-2215","2018/11/02 20:19:19","新北市泰山區壽山路134巷18號","121.418286666667","25.031135","6501600","泰山區"
"243010","KEA-2216","2018/11/02 20:19:23","新北市泰山區明志路二段273巷14弄1號","121.427711666667","25.04726","6501600","泰山區"
"243014","680-BX","2018/11/02 20:19:22","新北市泰山區泰林路二段483號","121.425135","25.0638983333333","6501600","泰山區"
"222003","436-BY","2018/11/02 20:19:13","新北市深坑區文化街86號","121.617703333333","25.0018983333333","6501800","深坑區"
"222002","659-BX","2018/11/02 20:19:16","新北市深坑區萬福路75巷21號","121.59922","25.009675","6501800","深坑區"
"231059","046-UY","2018/11/02 20:19:23","新北市新店區安德街62號","121.510585","24.9621666666667","6500600","新店區"
"231040","047-UY","2018/11/02 20:19:13","新北市新店區中正路159號","121.541223333333","24.9718883333333","6500600","新店區"
"231053","108-UY","2018/11/02 20:19:12","新北市新店區松林路2號","121.546775","24.9110416666667","6500600","新店區"
"231048","187-VK","2018/11/02 20:19:07","新北市新店區寶橋路80號","121.546091666667","24.9755366666667","6500600","新店區"
"231054","KEA-2219","2018/11/02 20:19:21","新北市新店區檳榔路109號","121.544375","24.9618266666667","6500600","新店區"
"231057","256-BX","2018/11/02 20:19:27","新北市新店區花園七路一段14號","121.554035","24.9349116666667","6500600","新店區"
"231042","268-BY","2018/11/02 20:19:15","新北市新店區中興路二段226號","121.547943333333","24.9751283333333","6500600","新店區"
"231051","278-BY","2018/11/02 20:19:10","新北市新店區中央六街89號","121.526413333333","24.97683","6500600","新店區"
"231050","AAD-862","2018/11/02 20:19:20","新北市新店區博愛街11巷2號","121.540975","24.97322","6500600","新店區"
"231044","355-BY","2018/11/02 20:19:12","新北市新店區北新路三段67號","121.54165","24.981175","6500600","新店區"
"231056","4715-K9","2018/11/02 20:19:12","新北市新店區中正路326號","121.536848333333","24.9748433333333","6500600","新店區"
"231067","4772-VM","2018/11/02 20:19:17","新北市新店區安康路一段293號","121.52276","24.9636966666667","6500600","新店區"
"231065","512-UM","2018/11/02 20:19:26","新北市新店區安祥路104巷6弄36號","121.483101666667","24.9629483333333","6500600","新店區"
"231049","513-UM","2018/11/02 20:19:11","新北市新店區北新路一段331號","121.541756666667","24.9685","6500600","新店區"
"231045","617-UM","2018/11/02 20:17:28","新北市新店區五峰路145巷7號","121.545508333333","24.96476","6500600","新店區"
"231041","618-UM","2018/11/02 20:19:22","新北市新店區民權路42-1號","121.540361666667","24.9829116666667","6500600","新店區"
"231061","619-UM","2018/11/02 20:19:09","新北市新店區安民街379巷28號","121.515411666667","24.9759266666667","6500600","新店區"
"231063","641-BX","2018/11/02 20:19:20","新北市新店區薏仁坑路自強巷2號","121.497605","24.9588166666667","6500600","新店區"
"231068","718-UY","2018/11/02 20:19:11","新北市新店區寶安街30號","121.54209","24.9823783333333","6500600","新店區"
"231064","719-UM","2018/11/02 20:19:13","新北市新店區安業街8巷1號","121.515843333333","24.9772583333333","6500600","新店區"
"231062","720-UM","2018/11/02 20:19:28","新北市新店區安泰路7巷16號","121.485711666667","24.9509633333333","6500600","新店區"
"231060","897-TW","2018/11/02 20:19:12","新北市新店區錦秀路11巷96弄21號","121.478841666667","24.9416416666667","6500600","新店區"
"231043","899-TW","2018/11/02 20:19:22","新北市新店區建國路131號","121.539386666667","24.9781666666667","6500600","新店區"
"231055","AKT-0513","2018/11/02 20:19:27","新北市新店區北新路一段187號","121.540223333333","24.9645466666667","6500600","新店區"
"241011","013-R5","2018/11/02 20:19:18","新北市三重區龍門路205號","121.499991666667","25.07328","6500200","三重區"
"241028","022-UY","2018/11/02 20:19:14","新北市三重區大同南路128號","121.496326666667","25.0582983333333","6500200","三重區"
"241008","059-VK","2018/11/02 20:19:24","新北市三重區永福街211巷2弄2號","121.479908333333","25.0742166666667","6500200","三重區"
"241022","060-VK","2018/11/02 20:19:11","新北市三重區新北大道一段32號","121.488275","25.061415","6500200","三重區"
"241031","061-VK","2018/11/02 20:19:12","新北市三重區三寧街18號","121.489363333333","25.059775","6500200","三重區"
"241015","062-VK","2018/11/02 20:19:28","新北市三重區重新路一段130號","121.500185","25.06287","6500200","三重區"
"241017","063-VK","2018/11/02 20:19:19","新北市三重區自強路一段165號","121.493156666667","25.0672833333333","6500200","三重區"
"241024","065-VK","2018/11/02 20:19:23","新北市三重區忠孝路三段1號","121.481855","25.0678583333333","6500200","三重區"
"241026","066-VK","2018/11/02 20:19:09","新北市三重區重新路一段12號","121.50393","25.0639083333333","6500200","三重區"
"241002","090-VK","2018/11/02 20:19:18","新北市三重區仁義街101巷2號","121.497646666667","25.0800516666667","6500200","三重區"
"241003","091-VK","2018/11/02 20:19:21","新北市三重區富華街45號","121.490841666667","25.0832383333333","6500200","三重區"
"241005","262-UM","2018/11/02 20:19:12","新北市三重區分子尾街79巷1號","121.489088333333","25.0824383333333","6500200","三重區"
"241016","266-UM","2018/11/02 20:19:10","新北市三重區大同北路97-1號","121.494526666667","25.0636066666667","6500200","三重區"
"241009","267-UM","2018/11/02 20:19:21","新北市三重區三和路四段382巷2號","121.481918333333","25.0785433333333","6500200","三重區"
"241018","268-UM","2018/11/02 20:19:25","新北市三重區自強路一段157號","121.4934","25.0671183333333","6500200","三重區"
"241013","270-UM","2018/11/02 20:19:25","新北市三重區三和路三段167巷23號","121.492808333333","25.0743116666667","6500200","三重區"
"241025","271-UM","2018/11/02 20:19:18","新北市三重區三民街272巷6-1號","121.478746666667","25.0677883333333","6500200","三重區"
"241007","398-BY","2018/11/02 20:19:22","新北市三重區溪尾街108巷18號","121.48875","25.0785716666667","6500200","三重區"
"241035","KEA-2210","2018/11/02 20:19:19","新北市三重區正義北路33巷25號","121.498368333333","25.06376","6500200","三重區"
"241020","478-VK","2018/11/02 20:19:15","新北市三重區三和路三段188號","121.492003333333","25.073625","6500200","三重區"
"241014","543-UM","2018/11/02 20:19:18","新北市三重區長榮路75號","121.502608333333","25.0692233333333","6500200","三重區"
"241023","545-UM","2018/11/02 20:19:30","新北市三重區忠孝路三段84巷5號","121.480276666667","25.0643266666667","6500200","三重區"
"241001","547-UM","2018/11/02 20:19:16","新北市三重區溪尾街42-5號","121.490686666667","25.07706","6500200","三重區"
"241019","KEA-2593","2018/11/02 20:19:25","新北市三重區忠孝路一段27號","121.491745","25.0718483333333","6500200","三重區"
"241006","AAD-863","2018/11/02 20:19:23","新北市三重區車路頭街135-1號","121.484275","25.076175","6500200","三重區"
"241030","743-BX","2018/11/02 20:19:22","新北市三重區環河南路254巷63號","121.487748333333","25.052355","6500200","三重區"
"241004","887-TS","2018/11/02 20:19:16","新北市三重區仁愛街382號","121.491023333333","25.08083","6500200","三重區"
"241012","941-UM","2018/11/02 20:19:23","新北市三重區河邊北街262號","121.501673333333","25.07644","6500200","三重區"
"241029","942-UM","2018/11/02 20:19:27","新北市三重區光明路98號","121.492523333333","25.0566","6500200","三重區"
"241033","AAC-255","2018/11/02 20:19:23","新北市三重區五谷王北街50巷8號","121.475745","25.05144","6500200","三重區"
"235066","003-UY","2018/11/02 20:19:15","新北市中和區南工路85巷2號","121.50706","25.0029216666667","6500300","中和區"
"235039","097-UM","2018/11/02 20:19:15","新北市中和區大勇街29巷12-1號","121.515876666667","24.9945516666667","6500300","中和區"
"235065","098-UM","2018/11/02 20:19:07","新北市中和區橋和路290號","121.496581666667","25.0067683333333","6500300","中和區"
"247012","KEA-2869","2018/11/02 20:19:16","新北市蘆洲區中興街24號","121.480781666667","25.0869016666667","6501400","蘆洲區"
"235050","4979-A6","2018/11/02 20:19:27","新北市中和區景平路400號","121.509305","24.9930783333333","6500300","中和區"
"235069","4980-A6","2018/11/02 20:19:23","新北市中和區南山路127巷29號","121.503463333333","24.9974466666667","6500300","中和區"
"235054","640-BX","2018/11/02 20:19:23","新北市八里區商港路120號","121.392765","25.1501433333333","6500300","中和區"
"235059","AAC-215","2018/11/02 20:19:13","新北市中和區員山路30-1號","121.483275","24.9879116666667","6500300","中和區"
"247002","893-R6","2018/11/02 20:19:22","新北市蘆洲區長安街313巷6弄10號","121.456858333333","25.0864533333333","6501400","蘆洲區"
"247016","546-UM","2018/11/02 20:19:09","新北市蘆洲區中正路185巷45弄2號","121.465893333333","25.0837116666667","6501400","蘆洲區"
"247024","500-BY","2018/11/02 20:19:14","新北市蘆洲區光榮路120巷8弄41號","121.464548333333","25.0879116666667","6501400","蘆洲區"
"247006","337-TH","2018/11/02 20:19:20","新北市蘆洲區九芎街167巷6號","121.46484","25.0786033333333","6501400","蘆洲區"
"247008","336-TH","2018/11/02 20:19:20","新北市蘆洲區集賢路232-1號","121.482201666667","25.0860266666667","6501400","蘆洲區"
"247020","057-VK","2018/11/02 20:19:25","新北市蘆洲區仁愛街57號","121.471831666667","25.0933133333333","6501400","蘆洲區"
"247010","056-VK","2018/11/02 20:19:22","新北市蘆洲區信義路269號","121.478928333333","25.0850066666667","6501400","蘆洲區"
"247018","007-UY","2018/11/02 20:19:21","新北市蘆洲區民族路255巷16號","121.476121666667","25.0894966666667","6501400","蘆洲區"
"247004","002-UY","2018/11/02 20:19:15","新北市蘆洲區長安街299巷3號","121.457695","25.0846516666667","6501400","蘆洲區"
"247022","001-UY","2018/11/02 20:19:08","新北市蘆洲區三民路241號","121.469171666667","25.0888183333333","6501400","蘆洲區"
"222001","KEA-2212","2018/11/02 20:19:21","新北市深坑區北深路三段249號","121.599318333333","25.00421","6501800","深坑區"
"251010","413-VK","2018/11/02 20:19:26","新北市淡水區新民街一段134號","121.427528333333","25.188915","6501000","淡水區"
"251012","441-VK","2018/11/02 20:19:25","新北市淡水區淡金路三段426號","121.45045","25.2117516666667","6501000","淡水區"
"251004","443-VK","2018/11/02 20:19:24","新北市淡水區民族路31巷48號","121.462775","25.1369083333333","6501000","淡水區"
"251001","559-UM","2018/11/02 20:19:20","新北市淡水區淡金路二段599號","121.445945","25.1924383333333","6501000","淡水區"
"251006","561-UM","2018/11/02 20:19:25","新北市淡水區淡金路一段571號","121.452588333333","25.18047","6501000","淡水區"
"251009","575-R6","2018/11/02 20:19:10","新北市淡水區中正東路36-1號","121.448886666667","25.1657","6501000","淡水區"
"251003","766-UM","2018/11/02 20:19:27","新北市淡水區中山北路一段229號","121.444473333333","25.1795416666667","6501000","淡水區"
"207004","225-TW","2018/11/02 20:19:19","新北市萬里區北基里大仁路10號","121.682593333333","25.1755166666667","6502800","萬里區"
"252002","178-VK","2018/11/02 20:19:20","新北市三芝區中正路一段39號","121.503211666667","25.2583383333333","6502100","三芝區"
"252001","292-VK","2018/11/02 20:19:17","新北市三芝區中山路一段14號","121.500683333333","25.258065","6502100","三芝區"
"236069","105-UM","2018/11/02 20:19:08","新北市土城區中山路53號","121.422518333333","24.9631933333333","6501300","土城區"
"236042","KED-0685","2018/11/02 20:19:18","新北市土城區中央路一段80號","121.447195","24.9889533333333","6501300","土城區"
"236030","253-BX","2018/11/02 20:19:12","新北市土城區學成路108巷13弄11號","121.44958","24.9900883333333","6501300","土城區"
"236026","269-VK","2018/11/02 20:19:28","新北市土城區裕生路88號","121.44717","24.985095","6501300","土城區"
"236014","270-VK","2018/11/02 20:19:21","新北市土城區廣明街90巷18號","121.455453333333","24.9944783333333","6501300","土城區"
"236059","912-UM","2018/11/02 20:19:14","新北市土城區亞洲路59號","121.433143333333","24.9710633333333","6501300","土城區"
"236048","913-UM","2018/11/02 20:19:26","新北市土城區城林路6巷80號","121.438628333333","24.9800083333333","6501300","土城區"
"242037","AAC-296","2018/11/02 20:19:25","新北市新莊區建安街62巷14號","121.426951666667","25.02518","6500500","新莊區"
"242058","986-R7","2018/11/02 20:19:20","新北市新莊區四維路205-3號","121.42172","25.0202716666667","6500500","新莊區"
"242056","751-BX","2018/11/02 20:19:17","新北市新莊區新莊路713巷7弄3號","121.443803333333","25.03194","6500500","新莊區"
"242027","615-BX","2018/11/02 20:19:26","新北市新莊區幸福路83號","121.456373333333","25.04936","6500500","新莊區"
"242025","613-BX","2018/11/02 20:19:26","新北市新莊區五工一路80巷5號","121.461625","25.0671616666667","6500500","新莊區"
"242029","612-BX","2018/11/02 20:19:24","新北市新莊區中華路二段157號","121.452878333333","25.0515633333333","6500500","新莊區"
"242044","566-BX","2018/11/02 20:19:14","新北市新莊區中正路新建巷28弄83號","121.413503333333","25.0213016666667","6500500","新莊區"
"242048","497-BY","2018/11/02 20:19:23","新北市新莊區龍安路226號","121.420425","25.0198533333333","6500500","新莊區"
"242054","441-UM","2018/11/02 20:19:25","新北市新莊區西盛街344巷3號","121.427741666667","25.0137683333333","6500500","新莊區"
"242039","415-TV","2018/11/02 20:19:16","新北市新莊區龍安路441號","121.424465","25.01856","6500500","新莊區"
"242009","413-TV","2018/11/02 20:19:16","新北市新莊區昌盛街35巷2弄16號","121.454815","25.0502283333333","6500500","新莊區"
"242046","400-BY","2018/11/02 20:19:14","新北市新莊區裕民街94號","121.418405","25.0236166666667","6500500","新莊區"
"242023","362-BY","2018/11/02 20:19:20","新北市新莊區化成路968號","121.465151666667","25.0637316666667","6500500","新莊區"
"242060","353-BY","2018/11/02 20:19:18","新北市新莊區新樹路279號","121.434003333333","25.0205716666667","6500500","新莊區"
"242011","132-UY","2018/11/02 20:19:25","新北市新莊區中信街37巷1弄12號","121.45091","25.05044","6500500","新莊區"
"242041","133-UY","2018/11/02 20:19:10","新北市新莊區中正路694巷84號","121.417378333333","25.0294833333333","6500500","新莊區"
"242034","135-UY","2018/11/02 20:19:09","新北市新莊區新泰路207號","121.446876666667","25.038515","6500500","新莊區"
"242050","172-VK","2018/11/02 20:19:19","新北市新莊區民安西路252巷31號","121.425136666667","25.0136566666667","6500500","新莊區"
"242013","173-VK","2018/11/02 20:19:27","新北市新莊區中平路270巷7弄19號","121.445638333333","25.0509233333333","6500500","新莊區"
"242019","175-VK","2018/11/02 20:19:26","新北市新莊區復興路二段92號","121.455996666667","25.0441633333333","6500500","新莊區"
"242007","176-VK","2018/11/02 20:19:20","新北市新莊區福壽街124巷34弄15號","121.459363333333","25.050685","6500500","新莊區"
"242017","346-TH","2018/11/02 20:19:05","新北市新莊區中港二街137號","121.44828","25.0455316666667","6500500","新莊區"
"242032","348-TH","2018/11/02 20:19:24","新北市泰山區新生路181號","121.435688333333","25.039435","6500500","新莊區"
"242005","349-TH","2018/11/02 20:19:27","新北市三重區中興北街60巷12號","121.46808","25.0518633333333","6500500","新莊區"
"242021","350-TH","2018/11/02 20:19:11","新北市新莊區復興路一段7號","121.445663333333","25.0415183333333","6500500","新莊區"
"221008","489-VK","2018/11/02 20:19:24","新北市汐止區康寧街65號","121.618705","25.066675","6501100","汐止區"
"221036","130-UY","2018/11/02 20:19:09","新北市汐止區仁愛路152巷31號","121.664965","25.06372","6501100","汐止區"
"221015","131-UY","2018/11/02 20:19:09","新北市汐止區建成路142巷19弄9號","121.662041666667","25.0738833333333","6501100","汐止區"
"221010","269-BY","2018/11/02 20:19:25","新北市汐止區八連路二段494號","121.628946666667","25.1061633333333","6501100","汐止區"
"221012","278-VK","2018/11/02 20:19:09","新北市汐止區保新街271號","121.691848333333","25.068405","6501100","汐止區"
"221023","279-VK","2018/11/02 20:19:23","新北市汐止區明峰街129號","121.63039","25.0709016666667","6501100","汐止區"
"221032","280-BY","2018/11/02 20:19:18","新北市汐止區民權街二段37號","121.61942","25.0495733333333","6501100","汐止區"
"221027","281-BY","2018/11/02 20:19:13","新北市汐止區大同路二段403號","121.658145","25.0672483333333","6501100","汐止區"
"221029","298-VK","2018/11/02 20:19:20","新北市汐止區工建路48-1號","121.641256666667","25.0631216666667","6501100","汐止區"
"221021","299-VK","2018/11/02 20:19:21","新北市汐止區水源路一段273號","121.654076666667","25.0589083333333","6501100","汐止區"
"221031","353-TW","2018/11/02 20:19:23","新北市汐止區中興路150巷13號","121.632905","25.0649716666667","6501100","汐止區"
"221035","622-UM","2018/11/02 20:19:13","新北市汐止區長江街101-5號","121.658675","25.0731483333333","6501100","汐止區"
"221025","623-UM","2018/11/02 20:19:10","新北市汐止區水源路二段34號","121.654918333333","25.05727","6501100","汐止區"
"221038","646-BX","2018/11/02 20:19:11","新北市汐止區忠孝東路424-3號","121.666046666667","25.07177","6501100","汐止區"
"221033","647-BX","2018/11/02 20:19:12","新北市汐止區東勢街203號","121.633735","25.04191","6501100","汐止區"
"221002","707-TV","2018/11/02 20:19:08","新北市汐止區福德一路86巷10號","121.637821666667","25.0688433333333","6501100","汐止區"
"221018","753-BX","2018/11/02 20:19:23","新北市汐止區茄安路16號","121.673203333333","25.0679016666667","6501100","汐止區"
"220101","245-BX","2018/11/02 20:19:14","新北市板橋區莊敬路36-2號","121.473326666667","25.0274366666667","6500100","板橋區"
"220083","286-VK","2018/11/02 20:19:12","新北市板橋區僑中二街102巷36號","121.444735","25.0086516666667","6500100","板橋區"
"220081","287-VK","2018/11/02 20:19:15","新北市板橋區僑中一街88號","121.447151666667","25.0115933333333","6500100","板橋區"
"220061","295-UM","2018/11/02 20:19:25","新北市板橋區館前西路19號","121.458665","25.006885","6500100","板橋區"
"242002","281-VK","2018/11/02 20:19:11","新北市新莊區化成路31號","121.465128333333","25.04393","6500500","新莊區"
"220098","317-R6","2018/11/02 20:19:17","新北市新莊區五工一路85號","121.461791666667","25.0676083333333","6500100","板橋區"
"220089","487-VK","2018/11/02 20:19:22","新北市板橋區四維路137巷19號","121.464158333333","25.0247916666667","6500100","板橋區"
"242015","280-VK","2018/11/02 20:19:21","新北市新莊區永樂街241號","121.446058333333","25.044305","6500500","新莊區"
"220103","561-BX","2018/11/02 20:19:23","新北市板橋區陽明街29巷2號","121.46534","25.0217216666667","6500100","板橋區"
"220102","KEA-2699","2018/11/02 20:19:23","新北市板橋區文化路一段280-1號","121.467081666667","25.02113","6500100","板橋區"
"220074","895-R6","2018/11/02 20:19:25","新北市板橋區南雅南路一段7巷22弄2號","121.455916666667","25.0047583333333","6500100","板橋區"
"220073","985-R7","2018/11/02 20:18:26","新北市五股區中直路13-7號","121.42419","25.110685","6500100","板橋區"
"220097","AAC-210","2018/11/02 20:19:17","新北市板橋區光正街9巷22弄2號","121.462621666667","25.0165916666667","6500100","板橋區"
"220070","AAC-253","2018/11/02 20:19:26","新北市板橋區四川路二段245巷12-1號","121.450871666667","24.9930483333333","6500100","板橋區"
"235068","KEA-2873","2018/11/02 20:19:15","新北市中和區勝利路35巷1弄34號","121.500266666667","25.0078416666667","6500300","中和區"
