"lineid","car","time","location","longitude","latitude","cityid","cityname"
"234081","298-R6","2018/11/02 20:29:17","新北市永和區永貞路82號","121.520186666667","25.0050633333333","6500400","永和區"
"234064","337-UY","2018/11/02 20:29:18","新北市永和區中正路417號","121.517061666667","25.0048166666667","6500400","永和區"
"234086","338-UY","2018/11/02 20:29:26","新北市永和區永和路二段185號","121.515315","25.0134666666667","6500400","永和區"
"234070","552-UM","2018/11/02 20:29:21","新北市永和區永亨路6-1號","121.519286666667","25.0055683333333","6500400","永和區"
"234030","746-BX","2018/11/02 20:29:17","新北市中和區大勇街8號","121.51716","24.9927183333333","6500400","永和區"
"234054","KEA-2590","2018/11/02 20:29:25","新北市永和區環河東路一段82號","121.51968","25.0164883333333","6500400","永和區"
"234061","AAD-866","2018/11/02 20:29:24","新北市永和區安樂路194巷18號","121.5163","25.000945","6500400","永和區"
"234042","862-TW","2018/11/02 20:29:06","新北市永和區安樂路274號","121.514485","25.0042283333333","6500400","永和區"
"234050","863-TW","2018/11/02 20:29:22","新北市永和區環河西路二段101號","121.506426666667","25.014745","6500400","永和區"
"249001","173-UM","2018/11/02 20:29:10","新北市八里區下罟子5-11號","121.386715","25.1421766666667","6502300","八里區"
"249004","303-UY","2018/11/02 20:29:26","新北市八里區中山路一段129巷31號","121.413991666667","25.1585183333333","6502300","八里區"
"249002","305-UY","2018/11/02 20:29:14","新北市八里區龍米路二段125巷13號","121.445946666667","25.1455083333333","6502300","八里區"
"249003","593-UM","2018/11/02 20:29:09","新北市八里區中山路二段446號","121.399433333333","25.1475083333333","6502300","八里區"
"248002","678-BX","2018/11/02 20:29:21","新北市五股區成泰路三段45號","121.442603333333","25.0891666666667","6501500","五股區"
"234023","9380-KE","2018/11/02 20:29:13","新北市永和區博愛街32巷17-1號","121.518913333333","25.0152733333333","6500400","永和區"
"234074","AAC-211","2018/11/02 20:29:27","新北市永和區豫溪街191巷7弄20號","121.523305","25.011015","6500400","永和區"
"234067","AAC-212","2018/11/02 20:29:07","新北市中和區保平路231號","121.508058333333","25.0043983333333","6500400","永和區"
"243013","AAD-798","2018/11/02 20:29:18","新北市泰山區貴子路2號","121.425093333333","25.04213","6501600","泰山區"
"243009","297-R6","2018/11/02 20:29:16","新北市泰山區泰林路二段408號","121.427558333333","25.06432","6501600","泰山區"
"243016","KEA-2801","2018/11/02 20:29:21","新北市泰山區明志路二段211號","121.427365","25.04865","6501600","泰山區"
"243015","421-VK","2018/11/02 20:29:12","新北市泰山區泰林路二段480號","121.425136666667","25.0639766666667","6501600","泰山區"
"243012","539-UM","2018/11/02 20:29:06","新北市泰山區忠孝街19巷3-1號","121.427478333333","25.065745","6501600","泰山區"
"243011","KEA-2215","2018/11/02 20:29:19","新北市泰山區台麗街2號","121.4242","25.0383216666667","6501600","泰山區"
"243010","KEA-2216","2018/11/02 20:29:23","新北市泰山區明志路二段237巷21號","121.42808","25.04817","6501600","泰山區"
"243014","680-BX","2018/11/02 20:29:22","新北市泰山區泰林路三段772巷8號","121.40306","25.0734683333333","6501600","泰山區"
"222003","436-BY","2018/11/02 20:29:13","新北市深坑區深坑街42號","121.61493","25.00174","6501800","深坑區"
"222002","659-BX","2018/11/02 20:29:16","新北市深坑區萬福路43號","121.599383333333","25.0068533333333","6501800","深坑區"
"231059","046-UY","2018/11/02 20:29:23","新北市新店區安德街173號","121.508805","24.9588983333333","6500600","新店區"
"231040","047-UY","2018/11/02 20:29:27","新北市新店區民族路192號","121.536003333333","24.9754033333333","6500600","新店區"
"231053","108-UY","2018/11/02 20:29:12","新北市新店區松林路36號","121.546233333333","24.910275","6500600","新店區"
"231048","187-VK","2018/11/02 20:29:07","新北市新店區寶慶街58巷21-1號","121.542018333333","24.9874566666667","6500600","新店區"
"231054","KEA-2219","2018/11/02 20:29:21","新北市新店區檳榔路174號","121.54413","24.9619066666667","6500600","新店區"
"231057","256-BX","2018/11/02 20:29:19","新北市新店區花園五路二段3號","121.553611666667","24.9341983333333","6500600","新店區"
"231042","268-BY","2018/11/02 20:29:15","新北市新店區寶橋路188-6號","121.55029","24.97811","6500600","新店區"
"231051","278-BY","2018/11/02 20:29:10","新北市新店區中央七街6號","121.530505","24.9747266666667","6500600","新店區"
"231050","AAD-862","2018/11/02 20:29:24","新北市新店區建興街5號","121.540088333333","24.9764283333333","6500600","新店區"
"231044","355-BY","2018/11/02 20:29:12","新北市新店區建國路188號","121.537835","24.9802033333333","6500600","新店區"
"231058","3713-VJ","2018/11/02 20:29:24","新北市新店區自由街29號","121.534901666667","24.9742633333333","6500600","新店區"
"231056","4715-K9","2018/11/02 20:29:12","新北市新店區中央五街3-2號","121.53044","24.97436","6500600","新店區"
"231067","4772-VM","2018/11/02 20:29:17","新北市新店區安一路一段1-1號","121.519855","24.96127","6500600","新店區"
"231065","512-UM","2018/11/02 20:29:26","新北市新店區安祥路102巷46弄71號","121.486848333333","24.9633516666667","6500600","新店區"
"231049","513-UM","2018/11/02 20:29:20","新北市新店區永業路81巷3弄2號","121.530041666667","24.94905","6500600","新店區"
"231045","617-UM","2018/11/02 20:29:28","新北市新店區新坡一街18巷2弄19號","121.548165","24.9603316666667","6500600","新店區"
"231041","618-UM","2018/11/02 20:29:22","新北市新店區中正路520號","121.533733333333","24.9837283333333","6500600","新店區"
"231061","619-UM","2018/11/02 20:29:09","新北市新店區新和街35號","121.519191666667","24.984915","6500600","新店區"
"231063","641-BX","2018/11/02 20:29:20","新北市新店區玫瑰路4-1號","121.493625","24.9513766666667","6500600","新店區"
"231068","718-UY","2018/11/02 20:29:11","新北市新店區中興路三段223號","121.543296666667","24.9829133333333","6500600","新店區"
"231064","719-UM","2018/11/02 20:29:20","新北市新店區永安街74巷2號","121.519718333333","24.98644","6500600","新店區"
"231062","720-UM","2018/11/02 20:29:08","新北市新店區安泰路7巷16號","121.485681666667","24.9509433333333","6500600","新店區"
"231060","897-TW","2018/11/02 20:29:12","新北市新店區安康路三段738號","121.4738","24.9420866666667","6500600","新店區"
"231043","899-TW","2018/11/02 20:29:22","新北市新店區明德路67巷17號","121.540523333333","24.977045","6500600","新店區"
"241011","013-R5","2018/11/02 20:29:18","新北市三重區龍門路43號","121.496098333333","25.0723466666667","6500200","三重區"
"241028","022-UY","2018/11/02 20:29:14","新北市三重區光興街89號","121.497441666667","25.0599366666667","6500200","三重區"
"241008","059-VK","2018/11/02 20:29:24","新北市三重區永福街192號","121.481683333333","25.0742816666667","6500200","三重區"
"241022","060-VK","2018/11/02 20:29:11","新北市三重區民生街61巷18弄2號","121.48781","25.0630516666667","6500200","三重區"
"241031","061-VK","2018/11/02 20:29:12","新北市三重區三寧街15號","121.48938","25.05976","6500200","三重區"
"241015","062-VK","2018/11/02 20:29:08","新北市三重區長元街2-2號","121.498771666667","25.0658766666667","6500200","三重區"
"241017","063-VK","2018/11/02 20:29:19","新北市三重區自強路一段195號","121.491788333333","25.068295","6500200","三重區"
"241024","065-VK","2018/11/02 20:29:23","新北市三重區三民街237號","121.480013333333","25.067435","6500200","三重區"
"241026","066-VK","2018/11/02 20:29:09","新北市三重區環河南路9-1號","121.503706666667","25.0631133333333","6500200","三重區"
"241002","090-VK","2018/11/02 20:29:18","新北市三重區仁義街211巷45號","121.498003333333","25.0825083333333","6500200","三重區"
"241003","091-VK","2018/11/02 20:29:21","新北市三重區富華街151號","121.493106666667","25.084825","6500200","三重區"
"241005","262-UM","2018/11/02 20:29:12","新北市三重區碧華街317號","121.491008333333","25.0842883333333","6500200","三重區"
"241016","266-UM","2018/11/02 20:29:10","新北市三重區正義北路65號","121.497321666667","25.0646266666667","6500200","三重區"
"241009","267-UM","2018/11/02 20:29:21","新北市三重區永福街73號","121.480305","25.0776983333333","6500200","三重區"
"241018","268-UM","2018/11/02 20:29:25","新北市三重區正義北路220號","121.496285","25.067615","6500200","三重區"
"241013","270-UM","2018/11/02 20:29:25","新北市三重區溪尾街17號","121.491605","25.0747316666667","6500200","三重區"
"241025","271-UM","2018/11/02 20:29:18","新北市三重區頂崁街210巷23弄1號","121.47587","25.068035","6500200","三重區"
"241007","398-BY","2018/11/02 20:29:22","新北市三重區三和路四段95號","121.488076666667","25.0759833333333","6500200","三重區"
"241035","KEA-2210","2018/11/02 20:29:19","新北市三重區正義北路15-4號","121.497605","25.06315","6500200","三重區"
"241020","478-VK","2018/11/02 20:29:19","新北市三重區三和路三段142號","121.493273333333","25.0724616666667","6500200","三重區"
"241014","543-UM","2018/11/02 20:29:18","新北市三重區長興街105號","121.501885","25.06919","6500200","三重區"
"241023","545-UM","2018/11/02 20:29:10","新北市三重區自由街16號","121.479856666667","25.06648","6500200","三重區"
"241001","547-UM","2018/11/02 20:29:16","新北市三重區自強路四段22號","121.488705","25.0765166666667","6500200","三重區"
"241019","KEA-2593","2018/11/02 20:29:25","新北市三重區重陽路四段62號","121.491866666667","25.0702816666667","6500200","三重區"
"241006","AAD-863","2018/11/02 20:29:23","新北市三重區車路頭街139巷14號","121.484306666667","25.0762166666667","6500200","三重區"
"241030","743-BX","2018/11/02 20:29:22","新北市三重區成功路62號","121.488638333333","25.05092","6500200","三重區"
"241004","887-TS","2018/11/02 20:29:16","新北市三重區溪尾街257號","121.487758333333","25.0817966666667","6500200","三重區"
"241012","941-UM","2018/11/02 20:29:23","新北市三重區龍濱路261號","121.501488333333","25.0728983333333","6500200","三重區"
"241029","942-UM","2018/11/02 20:29:14","新北市三重區集美街225號","121.49199","25.0551216666667","6500200","三重區"
"241033","AAC-255","2018/11/02 20:29:14","新北市三重區五谷王北街80巷60號","121.474665","25.0528283333333","6500200","三重區"
"235066","003-UY","2018/11/02 20:29:15","新北市中和區保平路362巷11號","121.505808333333","25.0039683333333","6500300","中和區"
"247012","KEA-2869","2018/11/02 20:29:16","新北市蘆洲區復興路276號","121.480488333333","25.08981","6501400","蘆洲區"
"235050","4979-A6","2018/11/02 20:29:27","新北市中和區景新街160巷15號","121.505065","24.9967616666667","6500300","中和區"
"235069","4980-A6","2018/11/02 20:29:18","新北市中和區中正路412號","121.492046666667","24.9941933333333","6500300","中和區"
"235059","AAC-215","2018/11/02 20:29:13","新北市中和區員山路36巷7號","121.483231666667","24.9909416666667","6500300","中和區"
"247002","893-R6","2018/11/02 20:29:22","新北市蘆洲區長安街361巷11號","121.456463333333","25.0874333333333","6501400","蘆洲區"
"247016","546-UM","2018/11/02 20:29:09","新北市蘆洲區光華路71號","121.468105","25.0826633333333","6501400","蘆洲區"
"247024","500-BY","2018/11/02 20:29:14","新北市蘆洲區光復路70巷19號","121.464615","25.085265","6501400","蘆洲區"
"247014","339-TH","2018/11/02 20:29:18","新北市蘆洲區中山二路19號","121.474873333333","25.0817616666667","6501400","蘆洲區"
"247006","337-TH","2018/11/02 20:29:20","新北市蘆洲區光華路175巷62號","121.465676666667","25.0807116666667","6501400","蘆洲區"
"247008","336-TH","2018/11/02 20:29:20","新北市蘆洲區永安北路二段70-7號","121.483363333333","25.0842533333333","6501400","蘆洲區"
"247020","057-VK","2018/11/02 20:29:25","新北市蘆洲區仁愛街109號","121.470685","25.0944133333333","6501400","蘆洲區"
"247010","056-VK","2018/11/02 20:29:22","新北市蘆洲區信義路222巷4號","121.47936","25.08522","6501400","蘆洲區"
"247004","002-UY","2018/11/02 20:29:15","新北市蘆洲區長安街297號","121.45804","25.0848583333333","6501400","蘆洲區"
"247022","001-UY","2018/11/02 20:29:22","新北市蘆洲區中正路263巷2號","121.467285","25.0876183333333","6501400","蘆洲區"
"222001","KEA-2212","2018/11/02 20:29:22","新北市深坑區北深路三段301號","121.598058333333","25.0047016666667","6501800","深坑區"
"251010","413-VK","2018/11/02 20:29:06","新北市淡水區沙崙路181巷15號","121.423946666667","25.1843566666667","6501000","淡水區"
"251012","441-VK","2018/11/02 20:29:25","新北市淡水區興仁路108號","121.451693333333","25.21817","6501000","淡水區"
"251001","559-UM","2018/11/02 20:29:20","新北市淡水區淡金路一段571號","121.452685","25.18072","6501000","淡水區"
"251006","561-UM","2018/11/02 20:29:25","新北市淡水區商工路300號","121.46112","25.18589","6501000","淡水區"
"251009","575-R6","2018/11/02 20:29:08","新北市淡水區中正東路二段88巷37-23號","121.459638333333","25.1437083333333","6501000","淡水區"
"251007","577-R6","2018/11/02 20:29:18","新北市淡水區崁頂51-2號","121.441976666667","25.1974","6501000","淡水區"
"251003","766-UM","2018/11/02 20:29:07","新北市淡水區新生街39號","121.440193333333","25.1748","6501000","淡水區"
"252002","178-VK","2018/11/02 20:29:20","新北市三芝區淡金路二段47-2號","121.503656666667","25.2605033333333","6502100","三芝區"
"252001","292-VK","2018/11/02 20:29:17","新北市三芝區中山路一段14號","121.500665","25.2580166666667","6502100","三芝區"
"236048","913-UM","2018/11/02 20:29:06","新北市樹林區環河路600號","121.404678333333","24.9691383333333","6501300","土城區"
"242037","AAC-296","2018/11/02 20:29:17","新北市新莊區後港一路52號","121.426191666667","25.0262783333333","6500500","新莊區"
"242058","986-R7","2018/11/02 20:29:20","新北市新莊區四維路123-1號","121.42296","25.022925","6500500","新莊區"
"242056","751-BX","2018/11/02 20:29:19","新北市新莊區瓊泰路161號","121.443211666667","25.031195","6500500","新莊區"
"242027","615-BX","2018/11/02 20:29:26","新北市新莊區思源路233號","121.459881666667","25.0466133333333","6500500","新莊區"
"242025","613-BX","2018/11/02 20:29:26","新北市新莊區五工二路50巷3號","121.461161666667","25.0655083333333","6500500","新莊區"
"242029","612-BX","2018/11/02 20:29:24","新北市新莊區昌隆街14號","121.45353","25.0508533333333","6500500","新莊區"
"242044","566-BX","2018/11/02 20:29:17","新北市新莊區中正路新建巷11號","121.414031666667","25.022455","6500500","新莊區"
"242048","497-BY","2018/11/02 20:29:23","新北市新莊區富國路41號","121.419136666667","25.0262383333333","6500500","新莊區"
"242054","441-UM","2018/11/02 20:29:25","新北市新莊區西盛街323巷6號","121.428483333333","25.0146166666667","6500500","新莊區"
"242039","415-TV","2018/11/02 20:29:28","新北市新莊區成功街23號","121.425603333333","25.021435","6500500","新莊區"
"242009","413-TV","2018/11/02 20:29:15","新北市新莊區昌盛街103巷2號","121.456173333333","25.0502133333333","6500500","新莊區"
"242046","400-BY","2018/11/02 20:29:14","新北市新莊區中正路879-17號","121.418281666667","25.02578","6500500","新莊區"
"242023","362-BY","2018/11/02 20:29:20","新北市新莊區化成路412號","121.466018333333","25.0508283333333","6500500","新莊區"
"242060","353-BY","2018/11/02 20:29:18","新北市新莊區民安東路132號","121.430973333333","25.0205116666667","6500500","新莊區"
"242011","132-UY","2018/11/02 20:29:26","新北市新莊區中義街47號","121.449461666667","25.051145","6500500","新莊區"
"242041","133-UY","2018/11/02 20:29:10","新北市新莊區天祥街47巷23號","121.416225","25.02809","6500500","新莊區"
"242034","135-UY","2018/11/02 20:29:18","新北市新莊區中正路334巷25弄47號","121.445313333333","25.0361783333333","6500500","新莊區"
"242050","172-VK","2018/11/02 20:29:09","新北市新莊區西盛街258巷2號","121.427895","25.01596","6500500","新莊區"
"242013","173-VK","2018/11/02 20:29:25","新北市新莊區中和街191巷3-1號","121.447995","25.0511066666667","6500500","新莊區"
"242019","175-VK","2018/11/02 20:29:26","新北市新莊區民樂街79號","121.4579","25.0429266666667","6500500","新莊區"
"242007","176-VK","2018/11/02 20:29:20","新北市新莊區思源路277號","121.459738333333","25.0480416666667","6500500","新莊區"
"242017","346-TH","2018/11/02 20:29:20","新北市新莊區中港三街33號","121.450068333333","25.0463183333333","6500500","新莊區"
"242032","348-TH","2018/11/02 20:29:18","新北市新莊區中正路508巷5弄2號","121.435023333333","25.033875","6500500","新莊區"
"242005","349-TH","2018/11/02 20:29:07","新北市新莊區化成路736巷3號","121.466041666667","25.0575516666667","6500500","新莊區"
"242021","350-TH","2018/11/02 20:29:11","新北市新莊區公園路10巷1號","121.447895","25.03882","6500500","新莊區"
"221008","489-VK","2018/11/02 20:29:24","新北市汐止區康寧街453號","121.631521666667","25.0683016666667","6501100","汐止區"
"221036","130-UY","2018/11/02 20:29:09","新北市汐止區新台五路二段69號","121.663891666667","25.06661","6501100","汐止區"
"221015","131-UY","2018/11/02 20:29:09","新北市汐止區建成路142巷19弄9號","121.662028333333","25.0738666666667","6501100","汐止區"
"221010","269-BY","2018/11/02 20:29:24","新北市汐止區八連路一段207號","121.641226666667","25.0805983333333","6501100","汐止區"
"221012","278-VK","2018/11/02 20:29:09","新北市汐止區大同路三段279號","121.674163333333","25.075065","6501100","汐止區"
"221023","279-VK","2018/11/02 20:29:23","新北市汐止區湖東街49號","121.63579","25.0734583333333","6501100","汐止區"
"221032","280-BY","2018/11/02 20:29:18","新北市汐止區弘道街53巷24號","121.618783333333","25.0496883333333","6501100","汐止區"
"221027","281-BY","2018/11/02 20:29:11","新北市汐止區中正路223號","121.658111666667","25.0688066666667","6501100","汐止區"
"221029","298-VK","2018/11/02 20:29:20","新北市汐止區工建路129巷34弄21號","121.640405","25.0653266666667","6501100","汐止區"
"221021","299-VK","2018/11/02 20:29:21","新北市汐止區水源路一段284號","121.654228333333","25.0583216666667","6501100","汐止區"
"221031","353-TW","2018/11/02 20:29:23","新北市汐止區福德一路237號","121.634256666667","25.0646833333333","6501100","汐止區"
"221035","622-UM","2018/11/02 20:29:13","新北市汐止區長江街101-5號","121.658775","25.0731233333333","6501100","汐止區"
"221025","623-UM","2018/11/02 20:29:10","新北市汐止區水源路二段88巷1弄4號","121.656386666667","25.05569","6501100","汐止區"
"221038","646-BX","2018/11/02 20:29:11","新北市汐止區水源路一段56-1號","121.657221666667","25.0654316666667","6501100","汐止區"
"221033","647-BX","2018/11/02 20:29:19","新北市汐止區林森街73巷1號","121.623376666667","25.0408","6501100","汐止區"
"221002","707-TV","2018/11/02 20:29:28","新北市汐止區福德二路51號","121.634211666667","25.0672266666667","6501100","汐止區"
"221018","753-BX","2018/11/02 20:29:03","新北市汐止區茄苳路225巷11弄38號","121.670555","25.07012","6501100","汐止區"
"220101","245-BX","2018/11/02 20:29:14","新北市新莊區五權一路13-3號","121.459981666667","25.0685933333333","6500100","板橋區"
"220083","286-VK","2018/11/02 20:29:12","新北市板橋區僑中二街104巷14號","121.445416666667","25.0079783333333","6500100","板橋區"
"220061","295-UM","2018/11/02 20:29:25","新北市板橋區四川路一段326號","121.457838333333","25.0004233333333","6500100","板橋區"
"242002","281-VK","2018/11/02 20:29:11","新北市新莊區中正路147-5號","121.457665","25.0372833333333","6500500","新莊區"
"220098","317-R6","2018/11/02 20:29:17","新北市八里區商港路88-4號","121.393626666667","25.148925","6500100","板橋區"
"220089","487-VK","2018/11/02 20:29:15","新北市板橋區四維路345號","121.46242","25.029845","6500100","板橋區"
"242015","280-VK","2018/11/02 20:29:21","新北市新莊區中平路82巷16號","121.445531666667","25.044815","6500500","新莊區"
"220103","561-BX","2018/11/02 20:29:23","新北市板橋區漢生東路23巷49號","121.46594","25.0180916666667","6500100","板橋區"
"220097","AAC-210","2018/11/02 20:29:28","新北市板橋區公館街31號","121.461373333333","25.01551","6500100","板橋區"
"220070","AAC-253","2018/11/02 20:29:10","新北市板橋區僑中一街124巷70-5號","121.449218333333","25.0160383333333","6500100","板橋區"
