"lineid","car","time","location","longitude","latitude","cityid","cityname"
"234064","337-UY","2018/11/02 20:39:18","新北市永和區保順路8號","121.502985","25.01186","6500400","永和區"
"249001","173-UM","2018/11/02 20:39:10","新北市八里區中山路三段333號","121.37743","25.1387666666667","6502300","八里區"
"249004","303-UY","2018/11/02 20:39:26","新北市八里區中山路一段153號","121.41263","25.158895","6502300","八里區"
"249003","593-UM","2018/11/02 20:39:09","新北市林口區太平里180號","121.367066666667","25.1350816666667","6502300","八里區"
"234023","9380-KE","2018/11/02 20:39:24","新北市永和區竹林路23號","121.517325","25.014725","6500400","永和區"
"234074","AAC-211","2018/11/02 20:39:23","新北市永和區竹林路117-1號","121.520076666667","25.0114883333333","6500400","永和區"
"243015","421-VK","2018/11/02 20:39:12","新北市泰山區泰林路三段745巷145號","121.40556","25.0679283333333","6501600","泰山區"
"243012","539-UM","2018/11/02 20:39:26","新北市泰山區橫窠雅36號","121.402738333333","25.0716216666667","6501600","泰山區"
"243011","KEA-2215","2018/11/02 20:39:19","新北市泰山區公園路67-1號","121.42663","25.0551716666667","6501600","泰山區"
"222003","436-BY","2018/11/02 20:39:28","新北市深坑區麻竹寮2-9號","121.61418","24.9989366666667","6501800","深坑區"
"222002","659-BX","2018/11/02 20:39:16","新北市深坑區萬福路43號","121.59938","25.0068316666667","6501800","深坑區"
"231059","046-UY","2018/11/02 20:39:23","新北市新店區僑信路123號","121.500773333333","24.9458616666667","6500600","新店區"
"231040","047-UY","2018/11/02 20:39:13","新北市新店區中正路263號","121.53859","24.97362","6500600","新店區"
"231053","108-UY","2018/11/02 20:39:12","新北市新店區新烏路二段300號","121.548693333333","24.9130033333333","6500600","新店區"
"231048","187-VK","2018/11/02 20:39:27","新北市新店區寶慶街2-1號","121.544041666667","24.986805","6500600","新店區"
"231054","KEA-2219","2018/11/02 20:39:21","新北市新店區北新路一段64巷39弄2號","121.54246","24.9658883333333","6500600","新店區"
"231057","256-BX","2018/11/02 20:39:19","新北市新店區花園二路一段9-6號","121.556323333333","24.9328566666667","6500600","新店區"
"231042","268-BY","2018/11/02 20:39:15","新北市新店區寶橋路236號","121.551566666667","24.97885","6500600","新店區"
"231051","278-BY","2018/11/02 20:39:10","新北市新店區民生路158巷1號","121.528526666667","24.9803","6500600","新店區"
"231050","AAD-862","2018/11/02 20:39:20","新北市新店區中正路265號","121.53804","24.973855","6500600","新店區"
"231044","355-BY","2018/11/02 20:39:12","新北市新店區民權路90巷36號","121.536981666667","24.9847016666667","6500600","新店區"
"231058","3713-VJ","2018/11/02 20:39:24","新北市新店區平等街30號","121.53665","24.9736716666667","6500600","新店區"
"231056","4715-K9","2018/11/02 20:39:12","新北市新店區中央七街61巷30號","121.529606666667","24.97568","6500600","新店區"
"231067","4772-VM","2018/11/02 20:39:17","新北市新店區安一路一段1-1號","121.519861666667","24.96124","6500600","新店區"
"231065","512-UM","2018/11/02 20:39:26","新北市新店區安祥路102巷22號","121.483671666667","24.9639366666667","6500600","新店區"
"231049","513-UM","2018/11/02 20:39:11","新北市新店區永業路81巷5弄33號","121.53117","24.950055","6500600","新店區"
"231045","617-UM","2018/11/02 20:39:08","新北市新店區長春路66號","121.551173333333","24.95807","6500600","新店區"
"231041","618-UM","2018/11/02 20:39:22","新北市新店區中正路696號","121.534008333333","24.9905016666667","6500600","新店區"
"231061","619-UM","2018/11/02 20:39:09","新北市新店區新和街33號","121.519148333333","24.98492","6500600","新店區"
"231063","641-BX","2018/11/02 20:39:20","新北市新店區玫瑰路4-2號","121.494096666667","24.9510666666667","6500600","新店區"
"231068","718-UY","2018/11/02 20:39:11","新北市新店區寶元路一段65號","121.542241666667","24.98581","6500600","新店區"
"231064","719-UM","2018/11/02 20:39:13","新北市新店區安和路三段175號","121.515776666667","24.9861583333333","6500600","新店區"
"231062","720-UM","2018/11/02 20:39:27","新北市新店區安泰路60巷55弄111號","121.48458","24.9463366666667","6500600","新店區"
"231060","897-TW","2018/11/02 20:39:12","新北市新店區安康路三段740號","121.473815","24.9419566666667","6500600","新店區"
"231043","899-TW","2018/11/02 20:39:22","新北市新店區博愛街13巷24號","121.54024","24.9740066666667","6500600","新店區"
"241011","013-R5","2018/11/02 20:39:18","新北市三重區龍濱路217號","121.501931666667","25.0719833333333","6500200","三重區"
"241028","022-UY","2018/11/02 20:39:14","新北市三重區光興街89號","121.497446666667","25.0599183333333","6500200","三重區"
"241008","059-VK","2018/11/02 20:39:24","新北市三重區下竹圍街42-1號","121.48106","25.074885","6500200","三重區"
"241022","060-VK","2018/11/02 20:39:16","新北市三重區中山路33巷27-5號","121.487928333333","25.062165","6500200","三重區"
"241031","061-VK","2018/11/02 20:39:12","新北市三重區重陽路一段43巷30號","121.48829","25.05851","6500200","三重區"
"241015","062-VK","2018/11/02 20:39:28","新北市三重區文化北路224-2號","121.49764","25.0691133333333","6500200","三重區"
"241017","063-VK","2018/11/02 20:39:25","新北市三重區大同北路273號","121.490833333333","25.06749","6500200","三重區"
"241024","065-VK","2018/11/02 20:39:23","新北市三重區三民街212號","121.480445","25.0670083333333","6500200","三重區"
"241026","066-VK","2018/11/02 20:39:29","新北市三重區文化南路8號","121.50012","25.0624083333333","6500200","三重區"
"241002","090-VK","2018/11/02 20:39:18","新北市三重區仁義街167巷2號","121.497178333333","25.0816216666667","6500200","三重區"
"241003","091-VK","2018/11/02 20:39:21","新北市三重區五華街141巷60號","121.4935","25.0867216666667","6500200","三重區"
"241005","262-UM","2018/11/02 20:39:23","新北市三重區五華街141巷60號","121.493396666667","25.0866516666667","6500200","三重區"
"241016","266-UM","2018/11/02 20:39:10","新北市三重區自強路一段143號","121.494608333333","25.0668416666667","6500200","三重區"
"241009","267-UM","2018/11/02 20:39:21","新北市三重區仁愛街578號","121.4848","25.08125","6500200","三重區"
"241018","268-UM","2018/11/02 20:39:25","新北市三重區重陽路四段1號","121.49095","25.0687316666667","6500200","三重區"
"241013","270-UM","2018/11/02 20:39:25","新北市三重區三和路四段6號","121.491565","25.07384","6500200","三重區"
"241025","271-UM","2018/11/02 20:39:18","新北市三重區大有街1-41號","121.47604","25.0657183333333","6500200","三重區"
"241007","398-BY","2018/11/02 20:39:22","新北市三重區三和路四段143-1號","121.484366666667","25.0783016666667","6500200","三重區"
"241035","KEA-2210","2018/11/02 20:39:19","新北市三重區正義北路305號","121.494395","25.071015","6500200","三重區"
"241020","478-VK","2018/11/02 20:39:13","新北市三重區忠孝路一段101號","121.489401666667","25.0720783333333","6500200","三重區"
"241014","543-UM","2018/11/02 20:39:18","新北市三重區萬壽街14號","121.49933","25.0693566666667","6500200","三重區"
"241023","545-UM","2018/11/02 20:39:23","新北市三重區自由街41號","121.478861666667","25.0668816666667","6500200","三重區"
"241001","547-UM","2018/11/02 20:39:16","新北市三重區自強路三段110巷15號","121.486428333333","25.0746016666667","6500200","三重區"
"241019","KEA-2593","2018/11/02 20:39:24","新北市三重區忠孝路一段10巷36號","121.491223333333","25.0713033333333","6500200","三重區"
"241006","AAD-863","2018/11/02 20:39:23","新北市三重區車路頭街139巷14號","121.484361666667","25.076235","6500200","三重區"
"241030","743-BX","2018/11/02 20:39:22","新北市三重區成功路73巷12號","121.48942","25.0519233333333","6500200","三重區"
"241004","887-TS","2018/11/02 20:39:16","新北市三重區仁愛街409號","121.490748333333","25.081185","6500200","三重區"
"241012","941-UM","2018/11/02 20:39:23","新北市三重區龍濱路251號","121.501556666667","25.0726766666667","6500200","三重區"
"241029","942-UM","2018/11/02 20:39:14","新北市三重區集美街126巷24號","121.489916666667","25.05403","6500200","三重區"
"241033","AAC-255","2018/11/02 20:39:14","新北市三重區光復路二段1號","121.472336666667","25.0532683333333","6500200","三重區"
"247012","KEA-2869","2018/11/02 20:39:16","新北市蘆洲區中興街77號","121.482015","25.087845","6501400","蘆洲區"
"235050","4979-A6","2018/11/02 20:39:07","新北市中和區中正路406號","121.492528333333","24.994205","6500300","中和區"
"235069","4980-A6","2018/11/02 20:39:18","新北市中和區中正路448號","121.490916666667","24.9942066666667","6500300","中和區"
"247002","893-R6","2018/11/02 20:39:22","新北市蘆洲區永樂街2號","121.459315","25.0882733333333","6501400","蘆洲區"
"247016","546-UM","2018/11/02 20:39:09","新北市蘆洲區中山二路288號","121.468746666667","25.0775366666667","6501400","蘆洲區"
"247024","500-BY","2018/11/02 20:39:14","新北市蘆洲區長樂路91號","121.462376666667","25.08754","6501400","蘆洲區"
"247014","339-TH","2018/11/02 20:39:17","新北市蘆洲區中山一路230號","121.472931666667","25.0804133333333","6501400","蘆洲區"
"247006","337-TH","2018/11/02 20:39:20","新北市蘆洲區和平路122號","121.46748","25.08011","6501400","蘆洲區"
"247008","336-TH","2018/11/02 20:39:20","新北市三重區仁愛街755號","121.481143333333","25.0805083333333","6501400","蘆洲區"
"247020","057-VK","2018/11/02 20:39:25","新北市蘆洲區民族路331號","121.473783333333","25.091765","6501400","蘆洲區"
"247004","002-UY","2018/11/02 20:39:15","新北市蘆洲區長安街297號","121.458038333333","25.0848433333333","6501400","蘆洲區"
"247022","001-UY","2018/11/02 20:39:08","新北市蘆洲區中正路243巷9號","121.467158333333","25.0863483333333","6501400","蘆洲區"
"222001","KEA-2212","2018/11/02 20:39:21","新北市深坑區北深路三段228號","121.600815","25.0038983333333","6501800","深坑區"
"251010","413-VK","2018/11/02 20:39:26","新北市淡水區沙崙路181巷1號","121.424008333333","25.1843483333333","6501000","淡水區"
"251012","441-VK","2018/11/02 20:39:25","新北市淡水區興仁路108號","121.451618333333","25.2181633333333","6501000","淡水區"
"251001","559-UM","2018/11/02 20:39:20","新北市淡水區淡金路101號","121.456646666667","25.1634183333333","6501000","淡水區"
"251006","561-UM","2018/11/02 20:39:25","新北市淡水區商工路143號","121.447346666667","25.1882466666667","6501000","淡水區"
"251009","575-R6","2018/11/02 20:39:08","新北市淡水區民權路187巷17號","121.460336666667","25.13326","6501000","淡水區"
"251007","577-R6","2018/11/02 20:39:18","新北市淡水區忠愛街3-1號","121.45795","25.1716366666667","6501000","淡水區"
"251003","766-UM","2018/11/02 20:39:27","新北市淡水區新民街152巷6弄20號","121.438698333333","25.178475","6501000","淡水區"
"252002","178-VK","2018/11/02 20:39:20","新北市三芝區淡金路二段47-2號","121.503661666667","25.2605116666667","6502100","三芝區"
"252001","292-VK","2018/11/02 20:39:17","新北市三芝區育英街31號","121.50127","25.2572433333333","6502100","三芝區"
"236048","913-UM","2018/11/02 20:39:26","新北市樹林區育德街78-1號","121.38831","24.9681516666667","6501300","土城區"
"242037","AAC-296","2018/11/02 20:39:19","新北市新莊區建福路29號","121.42638","25.0287533333333","6500500","新莊區"
"242056","751-BX","2018/11/02 20:39:17","新北市新莊區瓊泰路92號","121.443371666667","25.0293716666667","6500500","新莊區"
"242027","615-BX","2018/11/02 20:39:10","新北市新莊區幸福路1號","121.460111666667","25.04953","6500500","新莊區"
"242025","613-BX","2018/11/02 20:39:26","新北市三重區光復路二段206號","121.469551666667","25.0635783333333","6500500","新莊區"
"242029","612-BX","2018/11/02 20:39:24","新北市新莊區中港路371號","121.45182","25.04648","6500500","新莊區"
"242044","566-BX","2018/11/02 20:39:14","新北市新莊區龍安路108號","121.418455","25.0205166666667","6500500","新莊區"
"242048","497-BY","2018/11/02 20:39:23","新北市新莊區中正路588號","121.427031666667","25.0301766666667","6500500","新莊區"
"242054","441-UM","2018/11/02 20:39:25","新北市新莊區民安西路189巷10弄24號","121.426493333333","25.0149616666667","6500500","新莊區"
"242039","415-TV","2018/11/02 20:39:25","新北市新莊區民安路391號","121.432158333333","25.022935","6500500","新莊區"
"242009","413-TV","2018/11/02 20:39:15","新北市新莊區幸福路64巷3弄2號","121.457048333333","25.0499633333333","6500500","新莊區"
"242046","400-BY","2018/11/02 20:39:14","新北市新莊區龍安路108號","121.41844","25.0204666666667","6500500","新莊區"
"242023","362-BY","2018/11/02 20:39:20","新北市新莊區復興路三段46號","121.461573333333","25.0444283333333","6500500","新莊區"
"242060","353-BY","2018/11/02 20:39:18","新北市新莊區新樹路262號","121.43264","25.0148283333333","6500500","新莊區"
"242011","132-UY","2018/11/02 20:39:25","新北市新莊區中榮街122巷2號","121.44669","25.0530766666667","6500500","新莊區"
"242034","135-UY","2018/11/02 20:39:29","新北市新莊區中正路315號","121.448","25.0349983333333","6500500","新莊區"
"242050","172-VK","2018/11/02 20:39:09","新北市新莊區民安西路89號","121.427031666667","25.01913","6500500","新莊區"
"242013","173-VK","2018/11/02 20:39:25","新北市新莊區中平路396號","121.444703333333","25.0538983333333","6500500","新莊區"
"242019","175-VK","2018/11/02 20:39:26","新北市新莊區銘德街140號","121.454678333333","25.0427783333333","6500500","新莊區"
"242007","176-VK","2018/11/02 20:39:20","新北市新莊區思源路287巷19號","121.458828333333","25.04823","6500500","新莊區"
"242032","348-TH","2018/11/02 20:39:18","新北市新莊區中正路535-11號","121.437525","25.03295","6500500","新莊區"
"242005","349-TH","2018/11/02 20:39:07","新北市新莊區化成路445號","121.464561666667","25.0608083333333","6500500","新莊區"
"242021","350-TH","2018/11/02 20:39:11","新北市新莊區公園路118號","121.45144","25.0399333333333","6500500","新莊區"
"221008","489-VK","2018/11/02 20:39:24","新北市汐止區康寧街706-2號","121.638508333333","25.0731133333333","6501100","汐止區"
"221036","130-UY","2018/11/02 20:39:09","新北市汐止區新昌路74號","121.663586666667","25.06887","6501100","汐止區"
"221015","131-UY","2018/11/02 20:39:09","新北市汐止區建成路19號","121.664413333333","25.0725866666667","6501100","汐止區"
"221023","279-VK","2018/11/02 20:39:23","新北市汐止區明峰街11號","121.635191666667","25.0713633333333","6501100","汐止區"
"221032","280-BY","2018/11/02 20:39:18","新北市汐止區橫科路221巷19-1號","121.621521666667","25.0495466666667","6501100","汐止區"
"221027","281-BY","2018/11/02 20:39:11","新北市汐止區大同路二段563-1號","121.662833333333","25.06997","6501100","汐止區"
"221029","298-VK","2018/11/02 20:39:29","新北市汐止區大同路一段513號","121.645363333333","25.06215","6501100","汐止區"
"221021","299-VK","2018/11/02 20:39:21","新北市汐止區水源路一段284號","121.654185","25.058285","6501100","汐止區"
"221035","622-UM","2018/11/02 20:39:13","新北市汐止區長江街101-5號","121.658825","25.0731483333333","6501100","汐止區"
"221025","623-UM","2018/11/02 20:39:10","新北市汐止區水源路二段283巷1號","121.659183333333","25.0498966666667","6501100","汐止區"
"221038","646-BX","2018/11/02 20:39:11","新北市汐止區汐萬路一段204號","121.65215","25.07215","6501100","汐止區"
"221033","647-BX","2018/11/02 20:39:12","新北市汐止區合順街18巷8弄5號","121.620325","25.0419316666667","6501100","汐止區"
"221002","707-TV","2018/11/02 20:39:08","新北市汐止區福德二路138號","121.630745","25.0652066666667","6501100","汐止區"
"221018","753-BX","2018/11/02 20:39:23","新北市汐止區茄苳路109號","121.667865","25.0713033333333","6501100","汐止區"
"220101","245-BX","2018/11/02 20:39:13","新北市八里區商港路105巷15-1號","121.393456666667","25.1491733333333","6500100","板橋區"
"220083","286-VK","2018/11/02 20:39:18","新北市板橋區僑中二街116巷7號","121.445256666667","25.0064333333333","6500100","板橋區"
"242002","281-VK","2018/11/02 20:39:11","新北市新莊區中正路92號","121.455318333333","25.036715","6500500","新莊區"
"242015","280-VK","2018/11/02 20:39:21","新北市新莊區中和街6號","121.448485","25.0429783333333","6500500","新莊區"
"220103","561-BX","2018/11/02 20:39:23","新北市板橋區漢生東路83巷25號","121.467396666667","25.0167183333333","6500100","板橋區"
"220070","AAC-253","2018/11/02 20:39:10","新北市五股區凌雲路三段24巷19-1號","121.435188333333","25.1072633333333","6500100","板橋區"
