"lineid","car","time","location","longitude","latitude","cityid","cityname"
"243015","421-VK","2018/11/02 20:59:12","新北市泰山區犁頭窠3-1號","121.422188333333","25.0606383333333","6501600","泰山區"
"243012","539-UM","2018/11/02 20:59:06","新北市泰山區橫窠雅10-8號","121.415833333333","25.0666083333333","6501600","泰山區"
"231059","046-UY","2018/11/02 20:59:26","新北市新店區僑信路112號","121.50028","24.946745","6500600","新店區"
"231040","047-UY","2018/11/02 20:59:23","新北市新店區中正路137號","121.541756666667","24.9714633333333","6500600","新店區"
"231053","108-UY","2018/11/02 20:59:12","新北市新店區安康路一段140號","121.526548333333","24.9629066666667","6500600","新店區"
"231048","187-VK","2018/11/02 20:59:07","新北市新店區寶元路一段109號","121.545703333333","24.9830883333333","6500600","新店區"
"231054","KEA-2219","2018/11/02 20:59:21","新北市新店區五峰路27號","121.544066666667","24.9691683333333","6500600","新店區"
"231042","268-BY","2018/11/02 20:59:15","新北市新店區寶高路102巷20號","121.552666666667","24.974045","6500600","新店區"
"231051","278-BY","2018/11/02 20:59:10","新北市新店區中正路663巷7弄15號","121.532913333333","24.990065","6500600","新店區"
"231050","AAD-862","2018/11/02 20:59:20","新北市新店區三民路20巷2號","121.537525","24.9706733333333","6500600","新店區"
"231058","3713-VJ","2018/11/02 20:59:24","新北市新店區薏仁坑路6號","121.500496666667","24.9580233333333","6500600","新店區"
"231066","4716-K9","2018/11/02 20:59:20","新北市新店區吉安街9號","121.516731666667","24.9656983333333","6500600","新店區"
"231067","4772-VM","2018/11/02 20:59:17","新北市新店區安德街148巷11弄2號","121.507748333333","24.960135","6500600","新店區"
"231065","512-UM","2018/11/02 20:59:26","新北市新店區安祥路69巷54弄57號","121.48354","24.9585333333333","6500600","新店區"
"231061","619-UM","2018/11/02 20:59:09","新北市新店區永安街72號","121.519826666667","24.9866166666667","6500600","新店區"
"231063","641-BX","2018/11/02 20:59:20","新北市新店區玫瑰路58巷1號","121.495385","24.9465466666667","6500600","新店區"
"231068","718-UY","2018/11/02 20:59:11","新北市新店區寶中路73號","121.547468333333","24.98054","6500600","新店區"
"231064","719-UM","2018/11/02 20:57:34","新北市新店區安民街303巷9弄2號","121.51689","24.97342","6500600","新店區"
"231062","720-UM","2018/11/02 20:59:08","新北市新店區裕合街2號","121.489921666667","24.9499433333333","6500600","新店區"
"231060","897-TW","2018/11/02 20:59:12","新北市新店區安康路三段47號","121.492696666667","24.9525566666667","6500600","新店區"
"231043","899-TW","2018/11/02 20:59:22","新北市新店區中央路155號","121.529645","24.9725983333333","6500600","新店區"
"241011","013-R5","2018/11/02 20:59:18","新北市三重區秀江街117號","121.499743333333","25.07222","6500200","三重區"
"241028","022-UY","2018/11/02 20:59:14","新北市三重區重新路二段102號","121.496886666667","25.0617816666667","6500200","三重區"
"241008","059-VK","2018/11/02 20:59:24","新北市三重區力行路二段136巷1弄17號","121.482378333333","25.0765283333333","6500200","三重區"
"241022","060-VK","2018/11/02 20:59:11","新北市三重區過圳街27-5號","121.48796","25.0624066666667","6500200","三重區"
"241031","061-VK","2018/11/02 20:59:12","新北市三重區重陽路一段113巷3號","121.487563333333","25.05979","6500200","三重區"
"241015","062-VK","2018/11/02 20:59:28","新北市三重區福德北路61號","121.50224","25.0655316666667","6500200","三重區"
"241017","063-VK","2018/11/02 20:59:19","新北市三重區國隆路30號","121.492251666667","25.0643583333333","6500200","三重區"
"241024","065-VK","2018/11/02 20:59:03","新北市三重區大勇街49號","121.481323333333","25.0719516666667","6500200","三重區"
"241026","066-VK","2018/11/02 20:59:29","新北市三重區和平街1號","121.500193333333","25.0622833333333","6500200","三重區"
"241002","090-VK","2018/11/02 20:59:18","新北市三重區五華街1巷66號","121.496786666667","25.080345","6500200","三重區"
"241003","091-VK","2018/11/02 20:59:21","新北市三重區仁義街248號","121.49388","25.085935","6500200","三重區"
"241005","262-UM","2018/11/02 20:59:12","新北市三重區三信路186號","121.488006666667","25.086085","6500200","三重區"
"241016","266-UM","2018/11/02 20:59:30","新北市三重區正義北路104號","121.497035","25.0650816666667","6500200","三重區"
"241009","267-UM","2018/11/02 20:59:21","新北市三重區三和路四段386號","121.482351666667","25.0790283333333","6500200","三重區"
"241018","268-UM","2018/11/02 20:59:25","新北市三重區雙園街103號","121.49375","25.0672816666667","6500200","三重區"
"241032","269-UM","2018/11/02 20:59:29","新北市三重區興華街129號","121.483193333333","25.059905","6500200","三重區"
"241013","270-UM","2018/11/02 20:59:25","新北市三重區仁賢街4號","121.495615","25.0747533333333","6500200","三重區"
"241025","271-UM","2018/11/02 20:59:18","新北市三重區貴陽街14號","121.484236666667","25.0618683333333","6500200","三重區"
"241007","398-BY","2018/11/02 20:59:22","新北市三重區三和路四段143-1號","121.484345","25.0782583333333","6500200","三重區"
"241020","478-VK","2018/11/02 20:59:13","新北市三重區忠孝路二段34號","121.485818333333","25.0710183333333","6500200","三重區"
"241014","543-UM","2018/11/02 20:59:17","新北市三重區長榮路75號","121.50258","25.0691116666667","6500200","三重區"
"241023","545-UM","2018/11/02 20:59:10","新北市三重區忠孝路三段84巷63號","121.48231","25.063735","6500200","三重區"
"241001","547-UM","2018/11/02 20:59:16","新北市三重區三和路四段128號","121.488905","25.075185","6500200","三重區"
"241019","KEA-2593","2018/11/02 20:59:24","新北市三重區三張街104號","121.487886666667","25.0698583333333","6500200","三重區"
"241006","AAD-863","2018/11/02 20:59:23","新北市三重區永福街64號","121.480715","25.077815","6500200","三重區"
"241030","743-BX","2018/11/02 20:59:22","新北市三重區環河南路220-8號","121.49341","25.0527216666667","6500200","三重區"
"241004","887-TS","2018/11/02 20:59:16","新北市三重區仁愛街418號","121.490515","25.0813833333333","6500200","三重區"
"241012","941-UM","2018/11/02 20:59:23","新北市三重區仁信街27號","121.501313333333","25.075555","6500200","三重區"
"241029","942-UM","2018/11/02 20:59:14","新北市三重區大同南路111號","121.496261666667","25.0583283333333","6500200","三重區"
"241033","AAC-255","2018/11/02 20:59:14","新北市三重區光復路二段2號","121.472175","25.0533333333333","6500200","三重區"
"247012","KEA-2869","2018/11/02 20:59:16","新北市蘆洲區民權路6-1號","121.476726666667","25.0856933333333","6501400","蘆洲區"
"235069","4980-A6","2018/11/02 20:59:18","新北市中和區新生街232號","121.483853333333","24.9982033333333","6500300","中和區"
"247002","893-R6","2018/11/02 20:59:22","新北市蘆洲區永樂街40號","121.458025","25.088345","6501400","蘆洲區"
"247016","546-UM","2018/11/02 20:59:09","新北市蘆洲區正和街94號","121.468156666667","25.0807633333333","6501400","蘆洲區"
"247024","500-BY","2018/11/02 20:59:14","新北市蘆洲區長興路213號","121.461183333333","25.0863666666667","6501400","蘆洲區"
"247014","339-TH","2018/11/02 20:59:23","新北市蘆洲區得勝街50-1號","121.473076666667","25.083615","6501400","蘆洲區"
"247006","337-TH","2018/11/02 20:59:20","新北市蘆洲區永安南路二段18號","121.467696666667","25.0770866666667","6501400","蘆洲區"
"247008","336-TH","2018/11/02 20:59:20","新北市蘆洲區民生街121號","121.472873333333","25.0789983333333","6501400","蘆洲區"
"247020","057-VK","2018/11/02 20:59:25","新北市蘆洲區民族路488號","121.471125","25.0912666666667","6501400","蘆洲區"
"247010","056-VK","2018/11/02 20:59:22","新北市蘆洲區鷺江街91號","121.476901666667","25.0837616666667","6501400","蘆洲區"
"247018","007-UY","2018/11/02 20:59:21","新北市蘆洲區民權路95號","121.472875","25.0890716666667","6501400","蘆洲區"
"247004","002-UY","2018/11/02 20:59:15","新北市蘆洲區永安南路二段268號","121.458665","25.080745","6501400","蘆洲區"
"247022","001-UY","2018/11/02 20:59:08","新北市蘆洲區中正路198號","121.46682","25.0883316666667","6501400","蘆洲區"
"251005","010-UM","2018/11/02 20:59:16","新北市淡水區學府路51巷2弄16號","121.447966666667","25.169995","6501000","淡水區"
"251002","012-UM","2018/11/02 20:59:17","新北市淡水區英專路67號","121.445658333333","25.1711633333333","6501000","淡水區"
"251010","413-VK","2018/11/02 20:59:26","新北市淡水區中正路一段116-3號","121.423936666667","25.178755","6501000","淡水區"
"251012","441-VK","2018/11/02 20:59:25","新北市淡水區淡金路五段116-1號","121.456536666667","25.2369666666667","6501000","淡水區"
"251001","559-UM","2018/11/02 20:59:20","新北市淡水區淡金路二段147號","121.449811666667","25.1827683333333","6501000","淡水區"
"251009","575-R6","2018/11/02 20:59:08","新北市淡水區民權路187巷17號","121.46036","25.1334116666667","6501000","淡水區"
"251007","577-R6","2018/11/02 20:59:18","新北市淡水區仁愛街2巷41號","121.446801666667","25.1718416666667","6501000","淡水區"
"251011","650-BX","2018/11/02 20:59:28","新北市淡水區新民街320號","121.435185","25.183125","6501000","淡水區"
"251003","766-UM","2018/11/02 20:59:27","新北市淡水區新春街103-37號","121.440928333333","25.1827266666667","6501000","淡水區"
"242044","566-BX","2018/11/02 20:59:14","新北市五股區新五路二段236號","121.440188333333","25.0812933333333","6500500","新莊區"
"242046","400-BY","2018/11/02 20:59:13","新北市五股區新五路二段258號","121.440438333333","25.081605","6500500","新莊區"
"242023","362-BY","2018/11/02 20:59:21","新北市八里區荖阡坑路22-5號","121.398798333333","25.1351233333333","6500500","新莊區"
"221029","298-VK","2018/11/02 20:59:20","新北市汐止區康寧街901號","121.651638333333","25.074915","6501100","汐止區"
"242015","280-VK","2018/11/02 20:59:21","新北市五股區凌雲路一段25號","121.452336666667","25.0996133333333","6500500","新莊區"
"220070","AAC-253","2018/11/02 20:59:10","新北市八里區中山路三段409號","121.368721666667","25.134355","6500100","板橋區"
