"lineid","car","time","location","longitude","latitude","cityid","cityname"
"251008","181-VK","2018/11/02 22:29:19","新北市淡水區學府路104號","121.449848333333","25.171755","6501000","淡水區"
"251010","413-VK","2018/11/02 22:29:22","新北市淡水區沙崙路200號","121.424675","25.1839016666667","6501000","淡水區"
"251004","443-VK","2018/11/02 22:29:30","新北市淡水區民族路72號","121.462166666667","25.1357333333333","6501000","淡水區"
"251007","577-R6","2018/11/02 22:29:18","新北市淡水區北新路180號","121.449308333333","25.1787283333333","6501000","淡水區"
"251011","650-BX","2018/11/02 22:29:28","新北市淡水區水碓街7號","121.443161666667","25.1771583333333","6501000","淡水區"
