"lineid","car","time","location","longitude","latitude","cityid","cityname"
"248005","653-BX","2018/07/03 07:59:29","新北市五股區明德路12巷6號","121.433336666667","25.0718116666667","6501500","五股區"
"244002","248-BX","2018/07/03 07:59:17","新北市林口區下福里14鄰80號","121.30847","25.1157216666667","6501700","林口區"
"222004","289-BY","2018/07/03 07:59:18","新北市深坑區昇高坑路30號","121.62705","25.000225","6501800","深坑區"
"231007","189-VK","2018/07/03 07:59:23","新北市新店區安一路一段1-1號","121.519761666667","24.96116","6500600","新店區"
"231009","192-VK","2018/07/03 07:59:12","新北市新店區安一路一段1-1號","121.519308333333","24.9613633333333","6500600","新店區"
"235001","611-BX","2018/07/03 07:59:23","新北市中和區圓通路367巷6號","121.491643333333","24.9892466666667","6500300","中和區"
"235001","157-BY","2018/07/03 07:59:20","新北市中和區和平街29-1號","121.507488333333","24.9910483333333","6500300","中和區"
"226005","5620-A6","2018/07/03 07:59:22","新北市平溪區石底里公園街18-3號","121.733508333333","25.02559","6502400","平溪區"
"226002","7418-A5","2018/07/03 07:59:25","新北市平溪區南山里乾坑11號","121.782741666667","25.04718","6502400","平溪區"
"226006","AGD-0702","2018/07/03 07:59:18","新北市平溪區十分里十分街45號","121.774473333333","25.040775","6502400","平溪區"
"223006","022-BY","2018/07/03 07:59:11","新北市坪林區北宜路八段379號","121.708741666667","24.9322883333333","6501900","石碇區"
"223002","KEA-2673","2018/07/03 07:57:36","新北市石碇區大格門3號","121.668473333333","24.9554216666667","6501900","石碇區"
"223003","205-TH","2018/07/03 07:59:27","新北市石碇區崩山36-1號","121.672635","24.958","6501900","石碇區"
"223001","592-UM","2018/07/03 07:59:17","新北市石碇區橫坪2-2號","121.667231666667","24.9722316666667","6501900","石碇區"
"223004","660-BX","2018/07/03 07:59:13","新北市石碇區石崁1號","121.651961666667","25.0002883333333","6501900","石碇區"
"223005","677-TV","2018/07/03 07:59:32","新北市石碇區石崁1號","121.651983333333","25.00031","6501900","石碇區"
"227006","282-VK","2018/07/03 07:59:12","新北市雙溪區牡丹里中正路68號","121.863386666667","25.0428533333333","6502500","雙溪區"
"252004","249-BX","2018/07/03 07:59:17","新北市三芝區興華里車埕36-21號","121.505773333333","25.1930466666667","6502100","三芝區"
"252007","AAC-283","2018/07/03 07:59:08","新北市三芝區後厝里土地公坑61-5號","121.464896666667","25.247295","6502100","三芝區"
"237001","159-UY","2018/07/03 07:59:19","新北市三峽區大學路65巷1號","121.376531666667","24.9413283333333","6500900","三峽區"
"236008","165-UM","2018/07/03 07:59:16","新北市土城區永豐路139-1號","121.466915","24.98316","6501300","土城區"
"236002","339-SR","2018/07/03 07:59:16","新北市土城區龍泉路89-2號","121.443485","24.942535","6501300","土城區"
