"lineid","car","time","location","longitude","latitude","cityid","cityname"
"248005","653-BX","2018/07/03 10:09:49","新北市五股區中興路三段3-6號","121.451005","25.0799983333333","6501500","五股區"
"231007","189-VK","2018/07/03 10:09:43","新北市新店區新潭路三段215巷25號","121.508116666667","24.904085","6500600","新店區"
"231009","192-VK","2018/07/03 10:08:12","新北市新店區平廣路一段125號","121.527456666667","24.8948983333333","6500600","新店區"
"223008","406-TH","2018/07/03 10:09:36","新北市石碇區小粗坑(潭邊里)9-2號","121.679008333333","24.9861366666667","6501900","石碇區"
"227006","282-VK","2018/07/03 10:09:32","新北市雙溪區長源里柑腳18號","121.804705","25.0141316666667","6502500","雙溪區"
"227012","030-BX","2018/07/03 10:09:40","新北市坪林區鷺鶿岫4-1號","121.788281666667","24.9559116666667","6502500","雙溪區"
"252004","249-BX","2018/07/03 10:09:37","新北市三芝區福德里埔尾3號","121.502831666667","25.2471566666667","6502100","三芝區"
"252007","AAC-283","2018/07/03 10:09:48","新北市三芝區古庄里古庄103號","121.495188333333","25.271725","6502100","三芝區"
"237001","159-UY","2018/07/03 10:09:40","新北市三峽區大義路398號","121.376088333333","24.94935","6500900","三峽區"
"220055","256-TC","2018/07/03 10:09:47","新北市板橋區中正路325巷5弄6號","121.453325","25.0192316666667","6500100","板橋區"
