"lineid","car","time","location","longitude","latitude","cityid","cityname"
"248005","653-BX","2018/07/03 10:17:49","新北市五股區中興路二段63巷17號","121.460318333333","25.0754166666667","6501500","五股區"
"231007","189-VK","2018/07/03 10:17:43","新北市新店區新潭路三段215巷25號","121.508126666667","24.90408","6500600","新店區"
"231009","192-VK","2018/07/03 10:17:32","新北市新店區小坑一路22號","121.53112","24.9135116666667","6500600","新店區"
"227006","282-VK","2018/07/03 10:17:52","新北市雙溪區長源里柑腳18號","121.804701666667","25.0141516666667","6502500","雙溪區"
"227012","030-BX","2018/07/03 10:17:40","新北市雙溪區泰平里料角坑40號","121.792906666667","24.959645","6502500","雙溪區"
"252004","249-BX","2018/07/03 10:17:37","新北市三芝區中興街二段260號","121.501516666667","25.2532566666667","6502100","三芝區"
"252007","AAC-283","2018/07/03 10:17:48","新北市三芝區新庄里番社后18號","121.497785","25.2740266666667","6502100","三芝區"
"237001","159-UY","2018/07/03 10:17:40","新北市三峽區國際一街30號","121.373718333333","24.9427533333333","6500900","三峽區"
"220055","256-TC","2018/07/03 10:17:47","新北市板橋區大仁街33巷2號","121.455263333333","25.0164533333333","6500100","板橋區"
