"lineid","car","time","location","longitude","latitude","cityid","cityname"
"248005","653-BX","2018/07/03 10:29:49","新北市五股區中興路二段37巷24號","121.46069","25.0750216666667","6501500","五股區"
"231007","189-VK","2018/07/03 10:29:43","新北市新店區新潭路三段190號","121.507358333333","24.9049533333333","6500600","新店區"
"231009","192-VK","2018/07/03 10:27:12","新北市新店區小坑一路88-1號","121.530043333333","24.9065183333333","6500600","新店區"
"227006","282-VK","2018/07/03 10:29:52","新北市雙溪區上林里內平林131-1號","121.822153333333","25.0251716666667","6502500","雙溪區"
"237001","159-UY","2018/07/03 10:29:40","新北市三峽區國際一街39號","121.373105","24.9420383333333","6500900","三峽區"
"220055","256-TC","2018/07/03 10:29:47","新北市板橋區大仁街33巷2號","121.455176666667","25.0164283333333","6500100","板橋區"
