"lineid","car","time","location","longitude","latitude","cityid","cityname"
"231007","189-VK","2018/07/03 10:39:46","新北市新店區新潭路三段119號","121.509358333333","24.9110233333333","6500600","新店區"
"231009","192-VK","2018/07/03 10:39:32","新北市新店區小坑一路22號","121.533075","24.9136983333333","6500600","新店區"
"227006","282-VK","2018/07/03 10:39:32","新北市雙溪區新基里新基東街15號","121.871111666667","25.0414283333333","6502500","雙溪區"
"237001","159-UY","2018/07/03 10:39:40","新北市樹林區大義路182號","121.378133333333","24.9454983333333","6500900","三峽區"
"220055","256-TC","2018/07/03 10:39:47","新北市板橋區南雅東路110號","121.453416666667","25.00817","6500100","板橋區"
