"lineid","car","time","location","longitude","latitude","cityid","cityname"
"231007","189-VK","2018/07/03 10:59:43","新北市新店區新潭路二段80號","121.517411666667","24.92503","6500600","新店區"
"231009","192-VK","2018/07/03 10:59:12","新北市新店區成功路58-1號","121.538965","24.9002883333333","6500600","新店區"
"227006","282-VK","2018/07/03 10:59:52","新北市雙溪區魚行里坤溪8號","121.866336666667","25.021265","6502500","雙溪區"
"237001","159-UY","2018/07/03 10:59:40","新北市三峽區復興路239號","121.367371666667","24.939035","6500900","三峽區"
"220055","256-TC","2018/07/03 10:59:47","新北市板橋區四川路2段6-1號","121.447345","24.994265","6500100","板橋區"
