"lineid","car","time","location","longitude","latitude","cityid","cityname"
"234044","148-BY","2018/07/03 12:29:47","新北市永和區福和路1號","121.526436666667","25.00985","6500400","永和區"
"234078","298-R6","2018/07/03 12:29:55","新北市永和區福和路8巷1號","121.525036666667","25.0090133333333","6500400","永和區"
"234036","336-UY","2018/07/03 12:29:41","新北市永和區福和路1號","121.526753333333","25.0101383333333","6500400","永和區"
"234084","338-UY","2018/07/03 12:29:51","新北市永和區福和路1號","121.526401666667","25.0097016666667","6500400","永和區"
"234015","745-BX","2018/07/03 12:29:56","新北市永和區福和路1號","121.526391666667","25.0096216666667","6500400","永和區"
"234048","863-TW","2018/07/03 12:29:52","新北市永和區福和路1號","121.526516666667","25.00974","6500400","永和區"
"234076","969-R7","2018/07/03 12:29:37","新北市永和區福和路1號","121.526461666667","25.0097733333333","6500400","永和區"
"231003","268-BY","2018/07/03 12:29:47","新北市新店區安華路28-1號","121.5194","24.9605866666667","6500600","新店區"
"235029","098-UM","2018/07/03 12:29:54","新北市中和區員山路36巷16-3號","121.485091666667","24.9913133333333","6500300","中和區"
"228004","212-TW","2018/07/03 12:29:49","新北市貢寮區龍崗里嵩陽街2-1號","121.903086666667","25.01635","6502600","貢寮區"
"228005","828-UM","2018/07/03 12:29:51","新北市貢寮區福連里蓬萊街15號","121.987286666667","24.997585","6502600","貢寮區"
"207002","749-BX","2018/07/03 12:29:50","新北市萬里區雙興里太和路7-2號","121.658585","25.17397","6502800","萬里區"
"220055","256-TC","2018/07/03 12:29:47","新北市板橋區四川路2段6-1號","121.447336666667","24.9942783333333","6500100","板橋區"
"235025","KEA-2875","2018/07/03 12:24:29","新北市中和區和城路一段271巷1號","121.485368333333","24.9917433333333","6500300","中和區"
