"lineid","car","time","location","longitude","latitude","cityid","cityname"
"234044","148-BY","2018/07/03 12:49:47","新北市永和區秀朗路二段150號","121.525613333333","25.0015266666667","6500400","永和區"
"234005","207-UY","2018/07/03 12:49:50","新北市永和區文化路153號","121.510568333333","25.016335","6500400","永和區"
"234078","298-R6","2018/07/03 12:49:47","新北市永和區永利路108號","121.521236666667","25.0034266666667","6500400","永和區"
"234036","336-UY","2018/07/03 12:49:41","新北市永和區成功路一段77號","121.526966666667","25.00317","6500400","永和區"
"234084","338-UY","2018/07/03 12:49:51","新北市永和區中正路76號","121.513653333333","24.9951583333333","6500400","永和區"
"234068","552-UM","2018/07/03 12:49:35","新北市永和區中興街98號","121.518958333333","25.012125","6500400","永和區"
"234015","745-BX","2018/07/03 12:49:56","新北市永和區忠孝街26巷8號","121.515345","25.0167383333333","6500400","永和區"
"234028","746-BX","2018/07/03 12:49:46","新北市永和區得和路341號","121.523845","24.999575","6500400","永和區"
"234052","KEA-2590","2018/07/03 12:49:52","新北市永和區竹林路139號","121.520233333333","25.010665","6500400","永和區"
"234012","KEA-2591","2018/07/03 12:49:51","新北市永和區保福路二段133巷22號","121.50918","25.01361","6500400","永和區"
"234060","AAD-866","2018/07/03 12:49:35","新北市永和區中正路509巷4號","121.516548333333","25.0070466666667","6500400","永和區"
"234048","863-TW","2018/07/03 12:49:52","新北市永和區福和路1號","121.526478333333","25.0097816666667","6500400","永和區"
"234025","9371-KE","2018/07/03 12:49:38","新北市永和區豫溪街134號","121.521025","25.0103366666667","6500400","永和區"
"234010","9373-KE","2018/07/03 12:49:45","新北市永和區環河東路一段108號","121.520256666667","25.01613","6500400","永和區"
"248017","225-UY","2018/07/03 12:49:46","新北市五股區中興路二段83巷26-6號","121.460061666667","25.0751983333333","6501500","五股區"
"234022","9380-KE","2018/07/03 12:49:45","新北市永和區竹林路119巷22弄32號","121.522763333333","25.011165","6500400","永和區"
"234076","969-R7","2018/07/03 12:49:57","新北市永和區中正路4號","121.512343333333","24.9936016666667","6500400","永和區"
"234066","AAC-212","2018/07/03 12:49:42","新北市永和區永和路一段22號","121.513006666667","25.0048633333333","6500400","永和區"
"234001","AAC-295","2018/07/03 12:49:53","新北市永和區中正路547號","121.516885","25.00807","6500400","永和區"
"231028","046-UY","2018/07/03 12:49:38","新北市新店區安華路28-1號","121.519576666667","24.960995","6500600","新店區"
"231001","047-UY","2018/07/03 12:49:44","新北市新店區安一路一段1-1號","121.519225","24.9610066666667","6500600","新店區"
"231005","106-UY","2018/07/03 12:49:52","新北市新店區安華路28-1號","121.519625","24.9607533333333","6500600","新店區"
"231010","188-VK","2018/07/03 12:49:37","新北市新店區安一路一段1-1號","121.519265","24.9615683333333","6500600","新店區"
"231003","268-BY","2018/07/03 12:49:47","新北市新店區安華路28-1號","121.519401666667","24.9606316666667","6500600","新店區"
"231018","278-BY","2018/07/03 12:49:51","新北市新店區安一路一段1-1號","121.519765","24.9612066666667","6500600","新店區"
"231037","4716-K9","2018/07/03 12:49:52","新北市新店區安一路一段1-1號","121.51945","24.9612066666667","6500600","新店區"
"231036","512-UM","2018/07/03 12:49:54","新北市新店區安一路一段1-1號","121.519471666667","24.9612933333333","6500600","新店區"
"231013","513-UM","2018/07/03 12:49:48","新北市新店區安一路一段1-1號","121.519618333333","24.9611083333333","6500600","新店區"
"231030","619-UM","2018/07/03 12:49:52","新北市新店區安華路28-1號","121.51955","24.9608866666667","6500600","新店區"
"231035","719-UM","2018/07/03 12:49:51","新北市新店區安一路一段1-1號","121.519575","24.96138","6500600","新店區"
"235028","005-UY","2018/07/03 12:49:46","新北市中和區員山路36巷16-3號","121.484998333333","24.9914016666667","6500300","中和區"
"235029","098-UM","2018/07/03 12:49:54","新北市中和區中正路589巷9號","121.485865","24.9940566666667","6500300","中和區"
"235002","185-VK","2018/07/03 12:49:33","新北市中和區和城路一段271巷1號","121.485423333333","24.9918216666667","6500300","中和區"
"235031","255-BX","2018/07/03 12:49:41","新北市中和區新民街12-3號","121.482235","25.0072933333333","6500300","中和區"
"235001","611-BX","2018/07/03 12:49:42","新北市中和區中山路三段94號","121.477436666667","25.0056183333333","6500300","中和區"
"235035","783-BX","2018/07/03 12:49:40","新北市中和區員山路36巷16-3號","121.485071666667","24.99147","6500300","中和區"
"228004","212-TW","2018/07/03 12:49:49","新北市貢寮區吉林里內寮街20-1號","121.889855","24.994755","6502600","貢寮區"
"228005","828-UM","2018/07/03 12:49:51","新北市貢寮區福連里福連街37號","121.988683333333","25.0110766666667","6502600","貢寮區"
"207002","749-BX","2018/07/03 12:49:49","新北市萬里區雙興里大坪路9號","121.637946666667","25.1678383333333","6502800","萬里區"
"207001","662-BX","2018/07/03 12:49:53","新北市萬里區萬里里獅頭路1號","121.691463333333","25.1780033333333","6502800","萬里區"
"252005","AAC-283","2018/07/03 12:49:54","新北市三芝區埔坪里埔頭坑41號","121.504455","25.2644366666667","6502100","三芝區"
"236006","498-BY","2018/07/03 12:49:40","新北市土城區永寧路29號","121.43047","24.9629966666667","6501300","土城區"
"221032","280-BY","2018/07/03 12:49:49","新北市汐止區大同路二段341-1號","121.6562","25.067125","6501100","汐止區"
"220055","256-TC","2018/07/03 12:49:47","新北市板橋區四川路2段6-1號","121.447373333333","24.99425","6500100","板橋區"
"235025","KEA-2875","2018/07/03 12:24:29","新北市中和區和城路一段271巷1號","121.485368333333","24.9917433333333","6500300","中和區"
