"lineid","car","time","location","longitude","latitude","cityid","cityname"
"234044","148-BY","2018/07/03 13:09:47","新北市永和區秀朗路二段124-3號","121.524831666667","25.001465","6500400","永和區"
"234005","207-UY","2018/07/03 13:09:50","新北市永和區中山路一段149號","121.51012","25.0094883333333","6500400","永和區"
"234078","298-R6","2018/07/03 13:09:55","新北市永和區福和路57巷14弄1號","121.52276","25.00691","6500400","永和區"
"234036","336-UY","2018/07/03 13:09:41","新北市永和區民樂街71巷1號","121.527395","24.9975166666667","6500400","永和區"
"234062","337-UY","2018/07/03 13:09:48","新北市永和區秀朗路二段48號","121.521605","25.002225","6500400","永和區"
"234084","338-UY","2018/07/03 13:09:51","新北市永和區永貞路75號","121.518748333333","25.0044183333333","6500400","永和區"
"234068","552-UM","2018/07/03 13:09:35","新北市永和區豫溪街57巷10弄1號","121.517361666667","25.0106333333333","6500400","永和區"
"234015","745-BX","2018/07/03 13:09:36","新北市永和區文化路90巷17號","121.513725","25.0161666666667","6500400","永和區"
"234028","746-BX","2018/07/03 13:09:46","新北市永和區民生路23號","121.522865","24.99881","6500400","永和區"
"234052","KEA-2590","2018/07/03 13:09:52","新北市永和區竹林路72巷2號","121.519101666667","25.0129333333333","6500400","永和區"
"234012","KEA-2591","2018/07/03 13:09:51","新北市永和區保福路二段50號","121.510973333333","25.0121733333333","6500400","永和區"
"234060","AAD-866","2018/07/03 13:09:55","新北市永和區自由街33號","121.514403333333","25.0062316666667","6500400","永和區"
"234040","862-TW","2018/07/03 13:09:37","新北市永和區永貞路334號","121.511205","25.005555","6500400","永和區"
"234048","863-TW","2018/07/03 13:09:55","新北市永和區文化路135巷24弄2號","121.51064","25.0147116666667","6500400","永和區"
"234025","9371-KE","2018/07/03 13:09:38","新北市永和區永和路一段72巷4號","121.513465","25.0061033333333","6500400","永和區"
"234010","9373-KE","2018/07/03 13:09:45","新北市永和區仁愛路85號","121.513216666667","25.0131216666667","6500400","永和區"
"248017","225-UY","2018/07/03 13:09:46","新北市五股區御成路6號","121.442041666667","25.09094","6501500","五股區"
"234022","9380-KE","2018/07/03 13:09:45","新北市永和區中興街12號","121.515783333333","25.0119683333333","6500400","永和區"
"234076","969-R7","2018/07/03 13:09:36","新北市永和區中正路164號","121.515023333333","24.9965783333333","6500400","永和區"
"234072","AAC-211","2018/07/03 13:09:42","新北市永和區竹林路174號","121.520375","25.01005","6500400","永和區"
"234066","AAC-212","2018/07/03 13:09:42","新北市永和區保平路25號","121.512595","25.0073433333333","6500400","永和區"
"234001","AAC-295","2018/07/03 13:09:33","新北市永和區和平街34號","121.513153333333","25.00992","6500400","永和區"
"244002","248-BX","2018/07/03 13:09:42","新北市林口區頭湖74-6號","121.366141666667","25.088095","6501700","林口區"
"231002","002-UM","2018/07/03 13:09:49","新北市新店區安華路28-1號","121.519611666667","24.9608333333333","6500600","新店區"
"231028","046-UY","2018/07/03 13:09:38","新北市新店區安華路28-1號","121.519533333333","24.9609516666667","6500600","新店區"
"231001","047-UY","2018/07/03 13:09:45","新北市新店區安華路28-1號","121.519308333333","24.96086","6500600","新店區"
"231005","106-UY","2018/07/03 13:09:52","新北市新店區安華路28-1號","121.519628333333","24.9607733333333","6500600","新店區"
"231020","108-UY","2018/07/03 13:09:54","新北市新店區安華路28-1號","121.51968","24.960985","6500600","新店區"
"231012","187-VK","2018/07/03 13:09:54","新北市新店區安一路一段1-1號","121.519551666667","24.9612066666667","6500600","新店區"
"231010","188-VK","2018/07/03 13:09:38","新北市新店區安一路一段1-1號","121.519336666667","24.961385","6500600","新店區"
"231023","KEA-2219","2018/07/03 13:09:51","新北市新店區安一路一段1-1號","121.519918333333","24.96117","6500600","新店區"
"231026","256-BX","2018/07/03 13:09:53","新北市新店區安一路一段1-1號","121.519775","24.9611216666667","6500600","新店區"
"231003","268-BY","2018/07/03 13:09:47","新北市新店區安華路28-1號","121.51941","24.9606583333333","6500600","新店區"
"231018","278-BY","2018/07/03 13:09:51","新北市新店區安一路一段1-1號","121.519556666667","24.9611833333333","6500600","新店區"
"231038","3712-VJ","2018/07/03 13:09:52","新北市新店區安華路28-1號","121.519146666667","24.9606916666667","6500600","新店區"
"231037","4716-K9","2018/07/03 13:09:52","新北市新店區安華路28-1號","121.51979","24.960965","6500600","新店區"
"231025","4715-K9","2018/07/03 13:09:55","新北市新店區安華路28-1號","121.519381666667","24.9607016666667","6500600","新店區"
"231036","512-UM","2018/07/03 13:09:54","新北市新店區安一路一段1-1號","121.519276666667","24.961245","6500600","新店區"
"231013","513-UM","2018/07/03 13:09:48","新北市新店區安一路一段1-1號","121.519615","24.9611933333333","6500600","新店區"
"231006","617-UM","2018/07/03 13:09:48","新北市新店區安一路一段1-1號","121.51947","24.96115","6500600","新店區"
"231030","619-UM","2018/07/03 13:09:52","新北市新店區安華路28-1號","121.519516666667","24.9608983333333","6500600","新店區"
"231034","641-BX","2018/07/03 13:09:42","新北市新店區安華路28-1號","121.519561666667","24.96052","6500600","新店區"
"231035","719-UM","2018/07/03 13:09:51","新北市新店區安一路一段1-1號","121.51976","24.9611833333333","6500600","新店區"
"231032","720-UM","2018/07/03 13:09:57","新北市新店區安一路一段1-1號","121.519121666667","24.9612066666667","6500600","新店區"
"231029","897-TW","2018/07/03 13:09:55","新北市新店區安華路28-1號","121.519518333333","24.9608316666667","6500600","新店區"
"231004","899-TW","2018/07/03 13:09:43","新北市新店區安華路28-1號","121.5192","24.9608466666667","6500600","新店區"
"231024","AKT-0513","2018/07/03 13:09:54","新北市新店區安華路28-1號","121.519456666667","24.960645","6500600","新店區"
"235030","003-UY","2018/07/03 13:09:41","新北市中和區中和路119號","121.501601666667","25.0002183333333","6500300","中和區"
"235028","005-UY","2018/07/03 13:09:46","新北市中和區中正路275號","121.495415","24.9937166666667","6500300","中和區"
"235027","006-UY","2018/07/03 13:09:51","新北市中和區員山路36巷16-3號","121.484946666667","24.9912516666667","6500300","中和區"
"235003","097-UM","2018/07/03 13:09:38","新北市中和區和城路一段271巷1號","121.485568333333","24.991905","6500300","中和區"
"235029","098-UM","2018/07/03 13:09:54","新北市中和區莊敬路49巷20弄20號","121.502681666667","25.0057733333333","6500300","中和區"
"235004","150-BY","2018/07/03 13:09:51","新北市中和區和城路一段271巷1號","121.48545","24.99177","6500300","中和區"
"235022","151-BY","2018/07/03 13:09:56","新北市中和區圓通路367巷33弄6-1號","121.493051666667","24.9856266666667","6500300","中和區"
"235002","185-VK","2018/07/03 13:09:54","新北市中和區景平路136號","121.518645","24.99183","6500300","中和區"
"235031","255-BX","2018/07/03 13:09:55","新北市中和區新生街185號","121.483718333333","25.0004483333333","6500300","中和區"
"235006","KEA-2878","2018/07/03 13:09:45","新北市中和區圓通路238號","121.4948","24.99256","6500300","中和區"
"235033","4980-A6","2018/07/03 13:09:46","新北市中和區中正路637巷60弄61號","121.485601666667","24.9932366666667","6500300","中和區"
"235034","558-UM","2018/07/03 13:09:43","新北市中和區中正路291號","121.493648333333","24.9938","6500300","中和區"
"235018","640-BX","2018/07/03 13:09:35","新北市中和區連城路607號","121.47778","24.99303","6500300","中和區"
"235010","733-UM","2018/07/03 13:09:38","新北市中和區中正路488-2號","121.489068333333","24.9943566666667","6500300","中和區"
"235035","783-BX","2018/07/03 13:09:40","新北市中和區立德街199號","121.484015","25.0090033333333","6500300","中和區"
"235026","800-TS","2018/07/03 13:09:41","新北市中和區建一路103號","121.488015","25.0012283333333","6500300","中和區"
"235021","801-TS","2018/07/03 13:09:36","新北市中和區員山路36巷16-3號","121.484873333333","24.9918583333333","6500300","中和區"
"235005","802-TS","2018/07/03 13:09:49","新北市中和區建八路28-1號","121.486953333333","24.9986316666667","6500300","中和區"
"235016","805-TS","2018/07/03 13:09:45","新北市中和區和城路一段271巷1號","121.485463333333","24.9921916666667","6500300","中和區"
"235012","896-TW","2018/07/03 13:09:50","新北市中和區員山路36巷16-3號","121.484915","24.99189","6500300","中和區"
"235017","900-TW","2018/07/03 13:09:52","新北市中和區員山路36巷16-3號","121.484978333333","24.9918783333333","6500300","中和區"
"235015","157-BY","2018/07/03 13:09:47","新北市中和區捷運路171號","121.505978333333","24.9912416666667","6500300","中和區"
"235001","AAC-213","2018/07/03 13:09:37","新北市中和區景平路189號","121.511486666667","24.9926483333333","6500300","中和區"
"235023","AAC-215","2018/07/03 13:09:51","新北市中和區員山路36巷16-3號","121.484951666667","24.9913633333333","6500300","中和區"
"235011","251-BX","2018/07/03 13:09:55","新北市中和區錦和路350-1號","121.49057","24.9935733333333","6500300","中和區"
"228004","212-TW","2018/07/03 13:09:49","新北市貢寮區吉林里內寮街75號","121.891255","24.97236","6502600","貢寮區"
"228005","828-UM","2018/07/03 13:09:51","新北市貢寮區仁理村研海街62-2號","121.925365","25.04599","6502600","貢寮區"
"207002","749-BX","2018/07/03 13:09:49","新北市萬里區崁腳里崁腳路166號","121.645013333333","25.155815","6502800","萬里區"
"207001","662-BX","2018/07/03 13:09:53","新北市萬里區萬里里瑪鋉路157號","121.689895","25.1782716666667","6502800","萬里區"
"252005","AAC-283","2018/07/03 13:09:54","新北市三芝區八賢里八連溪41-1號","121.51329","25.2366183333333","6502100","三芝區"
"236006","498-BY","2018/07/03 13:09:40","新北市土城區亞洲路60號","121.435196666667","24.97358","6501300","土城區"
"242048","172-VK","2018/07/03 13:09:51","新北市新莊區中平路26巷30號","121.446091666667","25.043065","6500500","新莊區"
"221032","280-BY","2018/07/03 13:09:49","新北市汐止區大同路二段184巷8號","121.653423333333","25.063875","6501100","汐止區"
"220055","256-TC","2018/07/03 13:09:47","新北市板橋區四川路2段6-1號","121.44732","24.994265","6500100","板橋區"
"220010","305-R5","2018/07/03 13:09:46","新北市板橋區民生路二段120號","121.470403333333","25.0196816666667","6500100","板橋區"
"235032","KEA-2873","2018/07/03 13:09:40","新北市中和區員山路36巷16-3號","121.48515","24.991375","6500300","中和區"
"235025","KEA-2875","2018/07/03 13:09:39","新北市中和區中正路637巷52弄1號","121.485405","24.9934983333333","6500300","中和區"
