"lineid","car","time","location","longitude","latitude","cityid","cityname"
"234044","148-BY","2018/07/03 13:49:47","新北市永和區永利路218號","121.523401666667","25.00247","6500400","永和區"
"234005","207-UY","2018/07/03 13:49:50","新北市中和區永貞路292號","121.512786666667","25.0043933333333","6500400","永和區"
"234078","298-R6","2018/07/03 13:49:55","新北市永和區林森路92號","121.523126666667","25.0035083333333","6500400","永和區"
"234036","336-UY","2018/07/03 13:49:41","新北市永和區成功路二段113號","121.526751666667","24.998725","6500400","永和區"
"234062","337-UY","2018/07/03 13:49:48","新北市永和區中正路368巷5號","121.518086666667","25.0009533333333","6500400","永和區"
"234084","338-UY","2018/07/03 13:49:51","新北市永和區中正路562號","121.517245","25.0059933333333","6500400","永和區"
"234068","552-UM","2018/07/03 13:49:35","新北市永和區竹林路88號","121.519475","25.0126266666667","6500400","永和區"
"234015","745-BX","2018/07/03 13:49:56","新北市永和區文化路69號","121.51392","25.0151066666667","6500400","永和區"
"234028","746-BX","2018/07/03 13:49:46","新北市永和區民生路47巷17號","121.52363","24.9977416666667","6500400","永和區"
"234052","KEA-2590","2018/07/03 13:49:52","新北市永和區竹林路75巷17號","121.519878333333","25.0138466666667","6500400","永和區"
"234012","KEA-2591","2018/07/03 13:49:51","新北市永和區保生路55號","121.504718333333","25.0105966666667","6500400","永和區"
"234060","AAD-866","2018/07/03 13:49:55","新北市永和區中正路285號","121.517328333333","25.0011916666667","6500400","永和區"
"234040","862-TW","2018/07/03 13:49:47","新北市永和區中和路389巷36號","121.508191666667","25.001835","6500400","永和區"
"234048","863-TW","2018/07/03 13:49:52","新北市永和區保安路144號","121.508531666667","25.0148366666667","6500400","永和區"
"234025","9371-KE","2018/07/03 13:49:38","新北市永和區自由街58號","121.513826666667","25.0059566666667","6500400","永和區"
"234010","9373-KE","2018/07/03 13:49:45","新北市永和區仁愛路315號","121.503485","25.0078833333333","6500400","永和區"
"248017","225-UY","2018/07/03 13:49:46","新北市五股區民義路一段293號","121.42511","25.0933266666667","6501500","五股區"
"234022","9380-KE","2018/07/03 13:49:45","新北市永和區中正路662巷12號","121.517716666667","25.0087283333333","6500400","永和區"
"234076","969-R7","2018/07/03 13:49:36","新北市永和區民族街42號","121.518471666667","24.9987683333333","6500400","永和區"
"234072","AAC-211","2018/07/03 13:49:42","新北市永和區豫溪街215巷18號","121.524071666667","25.0099183333333","6500400","永和區"
"234066","AAC-212","2018/07/03 13:49:42","新北市永和區中山路一段255巷22號","121.50842","25.007065","6500400","永和區"
"234001","AAC-295","2018/07/03 13:49:52","新北市永和區永和路一段83號","121.513291666667","25.0072733333333","6500400","永和區"
"244002","248-BX","2018/07/03 13:49:42","新北市林口區南勢里31號","121.35216","25.0704233333333","6501700","林口區"
"231002","002-UM","2018/07/03 13:49:49","新北市新店區溪園路247號","121.525251666667","24.9832183333333","6500600","新店區"
"231027","0293-UT","2018/07/03 13:49:46","新北市新店區北宜路一段39巷20號","121.538816666667","24.9585183333333","6500600","新店區"
"231028","046-UY","2018/07/03 13:49:58","新北市新店區安和路二段221號","121.517485","24.9757783333333","6500600","新店區"
"231001","047-UY","2018/07/03 13:49:51","新北市新店區三民路109號","121.535116666667","24.9721383333333","6500600","新店區"
"231005","106-UY","2018/07/03 13:49:52","新北市新店區寶中路121-1號","121.549651666667","24.9794666666667","6500600","新店區"
"231020","108-UY","2018/07/03 13:49:54","新北市新店區永興路95-3號","121.54449","24.9326033333333","6500600","新店區"
"231015","110-UY","2018/07/03 13:49:40","新北市新店區北宜路二段112-1號","121.556491666667","24.9539033333333","6500600","新店區"
"231012","187-VK","2018/07/03 13:49:54","新北市新店區德正街25巷6號","121.544583333333","24.97175","6500600","新店區"
"231010","188-VK","2018/07/03 13:49:37","新北市新店區平等街48巷1號","121.535771666667","24.9730633333333","6500600","新店區"
"231023","KEA-2219","2018/07/03 13:49:51","新北市新店區文中路58號","121.540388333333","24.9564983333333","6500600","新店區"
"231026","256-BX","2018/07/03 13:49:53","新北市新店區三民路159巷19弄48號","121.532196666667","24.9731683333333","6500600","新店區"
"231003","268-BY","2018/07/03 13:49:47","新北市新店區中興路一段162號","121.542685","24.9640333333333","6500600","新店區"
"231018","278-BY","2018/07/03 13:49:50","新北市新店區百忍街50巷2弄1號","121.533821666667","24.9765116666667","6500600","新店區"
"231038","3712-VJ","2018/07/03 13:49:52","新北市新店區安華路1-1號","121.519461666667","24.9604783333333","6500600","新店區"
"231037","4716-K9","2018/07/03 13:49:52","新北市新店區安康路三段359巷12弄2號","121.48456","24.9500216666667","6500600","新店區"
"231025","4715-K9","2018/07/03 13:49:55","新北市新店區中央路7號","121.533445","24.9785983333333","6500600","新店區"
"231036","512-UM","2018/07/03 13:49:54","新北市新店區安祥路110巷39號","121.473301666667","24.9565966666667","6500600","新店區"
"231013","513-UM","2018/07/03 13:49:57","新北市新店區二十張路25巷18弄9號","121.539313333333","24.9815616666667","6500600","新店區"
"231006","617-UM","2018/07/03 13:49:49","新北市新店區北宜路一段276號","121.546301666667","24.9526716666667","6500600","新店區"
"231030","619-UM","2018/07/03 13:49:52","新北市新店區秀山路66號","121.530788333333","24.961","6500600","新店區"
"231034","641-BX","2018/07/03 13:49:52","新北市新店區達觀路16-7號","121.502371666667","24.9408116666667","6500600","新店區"
"231035","719-UM","2018/07/03 13:49:57","新北市新店區安忠路57巷5-6號","121.513255","24.9587","6500600","新店區"
"231032","720-UM","2018/07/03 13:49:37","新北市新店區莒光路44巷21弄11-3號","121.51847","24.952165","6500600","新店區"
"231029","897-TW","2018/07/03 13:49:56","新北市新店區安康路二段125-1號","121.512385","24.9609716666667","6500600","新店區"
"231004","899-TW","2018/07/03 13:49:43","新北市新店區寶橋路132號","121.547495","24.976055","6500600","新店區"
"231024","AKT-0513","2018/07/03 13:49:54","新北市新店區新生街13巷14號","121.539428333333","24.96596","6500600","新店區"
"235030","003-UY","2018/07/03 13:49:41","新北市中和區水源路18巷9號","121.503958333333","25.00288","6500300","中和區"
"235028","005-UY","2018/07/03 13:49:46","新北市中和區景平路511號","121.499396666667","24.998865","6500300","中和區"
"235027","006-UY","2018/07/03 13:49:51","新北市中和區中正路462號","121.490196666667","24.99427","6500300","中和區"
"235020","096-UM","2018/07/03 13:49:45","新北市中和區新民街94巷7號","121.48128","25.0087266666667","6500300","中和區"
"235003","097-UM","2018/07/03 13:49:38","新北市中和區大勇街25巷3號","121.517091666667","24.993175","6500300","中和區"
"235029","098-UM","2018/07/03 13:49:53","新北市中和區勝利路35巷1弄2號","121.499026666667","25.007375","6500300","中和區"
"235004","150-BY","2018/07/03 13:49:51","新北市中和區保健路48巷61號","121.509326666667","24.9960316666667","6500300","中和區"
"235022","151-BY","2018/07/03 13:49:56","新北市中和區連城路575號","121.478946666667","24.9942583333333","6500300","中和區"
"235019","183-VK","2018/07/03 13:49:47","新北市中和區德光路77巷6弄4號","121.46971","25.00335","6500300","中和區"
"235002","185-VK","2018/07/03 13:49:54","新北市中和區大勇街43巷10號","121.517371666667","24.99474","6500300","中和區"
"235013","186-VK","2018/07/03 13:49:51","新北市中和區景新街210巷15號","121.507005","24.9945983333333","6500300","中和區"
"235031","255-BX","2018/07/03 13:49:41","新北市中和區新生街264號","121.483528333333","24.9972116666667","6500300","中和區"
"235008","293-VK","2018/07/03 13:49:44","新北市中和區復興路337號","121.500065","24.9902283333333","6500300","中和區"
"235036","301-VK","2018/07/03 13:49:45","新北市中和區中山路二段22號","121.504705","25.0053483333333","6500300","中和區"
"235007","352-BY","2018/07/03 13:49:37","新北市中和區景平路1號","121.525571666667","24.9900716666667","6500300","中和區"
"235006","KEA-2878","2018/07/03 13:49:41","新北市中和區自立路56巷11號","121.522988333333","24.9916966666667","6500300","中和區"
"235014","4979-A6","2018/07/03 13:49:56","新北市中和區忠孝街62巷30號","121.51283","24.983545","6500300","中和區"
"235033","4980-A6","2018/07/03 13:49:46","新北市中和區南山路111巷3號","121.502605","24.9977583333333","6500300","中和區"
"235034","558-UM","2018/07/03 13:49:43","新北市中和區南山路7號","121.501998333333","24.99939","6500300","中和區"
"235009","565-BX","2018/07/03 13:49:54","新北市中和區興南路一段86號","121.50995","24.9893616666667","6500300","中和區"
"235018","640-BX","2018/07/03 13:49:35","新北市中和區民享街54巷9號","121.47352","25.00233","6500300","中和區"
"235024","647-TV","2018/07/03 13:49:57","新北市中和區中山路三段171號","121.473093333333","25.0062833333333","6500300","中和區"
"235010","733-UM","2018/07/03 13:49:38","新北市中和區仁愛街36巷42號","121.511358333333","24.98639","6500300","中和區"
"235035","783-BX","2018/07/03 13:49:40","新北市中和區立德街26巷5弄28號","121.489581666667","25.008305","6500300","中和區"
"235026","800-TS","2018/07/03 13:49:41","新北市中和區中山路二段340巷19號","121.493415","25.0031083333333","6500300","中和區"
"235021","801-TS","2018/07/03 13:49:56","新北市中和區民利街12號","121.480711666667","24.9992316666667","6500300","中和區"
"235005","802-TS","2018/07/03 13:49:49","新北市中和區永貞路249巷18號","121.512483333333","25.0036333333333","6500300","中和區"
"235016","805-TS","2018/07/03 13:49:45","新北市中和區興南路二段399巷51-1號","121.501186666667","24.9767466666667","6500300","中和區"
"235012","896-TW","2018/07/03 13:49:50","新北市中和區南山路240-6號","121.507145","24.9895283333333","6500300","中和區"
"235017","900-TW","2018/07/03 13:49:52","新北市中和區華福街31號","121.466063333333","24.9967383333333","6500300","中和區"
"235035","911-UM","2018/07/03 13:49:52","新北市中和區中正路741號","121.485106666667","24.999515","6500300","中和區"
"235015","157-BY","2018/07/03 13:49:47","新北市中和區忠孝街35號","121.510648333333","24.98325","6500300","中和區"
"235001","AAC-213","2018/07/03 13:49:37","新北市中和區秀朗路三段128巷13號","121.524483333333","24.9933116666667","6500300","中和區"
"235023","AAC-215","2018/07/03 13:49:51","新北市中和區圓通路391-7號","121.48965","24.988985","6500300","中和區"
"220016","013-TV","2018/07/03 13:49:50","新北市板橋區民生路二段89-4號","121.471326666667","25.01848","6500100","板橋區"
"220003","015-TV","2018/07/03 13:49:48","新北市板橋區民權路65號","121.461676666667","25.0111983333333","6500100","板橋區"
"220013","072-UY","2018/07/03 13:49:40","新北市板橋區民族路247巷5弄40號","121.47016","25.0084333333333","6500100","板橋區"
"220105","075-UY","2018/07/03 13:49:40","新北市板橋區民生路二段161巷9號","121.470225","25.0196533333333","6500100","板橋區"
"220017","AAD-861","2018/07/03 13:49:45","新北市板橋區大華街15號","121.459023333333","25.0060666666667","6500100","板橋區"
"247009","341-TH","2018/07/03 13:49:39","新北市蘆洲區中正路520巷10號","121.463933333333","25.099785","6501400","蘆洲區"
"247003","337-TH","2018/07/03 13:49:55","新北市蘆洲區中原路22號","121.460316666667","25.0828933333333","6501400","蘆洲區"
"247005","336-TH","2018/07/03 13:49:41","新北市蘆洲區和平路77號","121.469323333333","25.079035","6501400","蘆洲區"
"247007","056-VK","2018/07/03 13:49:49","新北市蘆洲區永安北路二段76巷1-1號","121.483548333333","25.08482","6501400","蘆洲區"
"235011","251-BX","2018/07/03 13:49:55","新北市中和區興南路二段34巷28弄2號","121.505058333333","24.9864533333333","6500300","中和區"
"228004","212-TW","2018/07/03 13:45:09","新北市貢寮區龍崗里嵩陽街8號","121.901895","25.01083","6502600","貢寮區"
"228005","828-UM","2018/07/03 13:49:31","新北市雙溪區三港里雙澳路91號","121.888966666667","25.0574816666667","6502600","貢寮區"
"207002","749-BX","2018/07/03 13:49:49","新北市萬里區崁腳里崁腳路166號","121.645058333333","25.1558516666667","6502800","萬里區"
"207001","662-BX","2018/07/03 13:49:53","新北市金山區月眉21-1號","121.636336666667","25.2148983333333","6502800","萬里區"
"252005","AAC-283","2018/07/03 13:49:54","新北市三芝區橫山里橫山57-2號","121.535605","25.2535216666667","6502100","三芝區"
"236065","105-UM","2018/07/03 13:49:38","新北市土城區城林路6巷80號","121.438425","24.9795783333333","6501300","土城區"
"236040","107-UM","2018/07/03 13:49:52","新北市土城區城林路6巷80號","121.438486666667","24.9797016666667","6501300","土城區"
"236074","166-UM","2018/07/03 13:49:54","新北市土城區中華路二段136號","121.437481666667","24.9727883333333","6501300","土城區"
"236029","253-BX","2018/07/03 13:49:38","新北市土城區城林路6巷80號","121.43852","24.9797433333333","6501300","土城區"
"236032","271-VK","2018/07/03 13:49:48","新北市土城區城林路6巷80號","121.438521666667","24.9797233333333","6501300","土城區"
"236017","401-BY","2018/07/03 13:49:44","新北市土城區城林路6巷80號","121.43849","24.979835","6501300","土城區"
"236006","498-BY","2018/07/03 13:49:40","新北市土城區中央路二段61巷54號","121.444456666667","24.97812","6501300","土城區"
"236013","752-BX","2018/07/03 13:49:39","新北市土城區城林路6巷80號","121.438205","24.9797666666667","6501300","土城區"
"236057","912-UM","2018/07/03 13:49:42","新北市土城區中華路二段196號","121.437521666667","24.9706083333333","6501300","土城區"
"236060","915-UM","2018/07/03 13:49:38","新北市土城區城林路6巷80號","121.438598333333","24.979715","6501300","土城區"
"236054","AAC-216","2018/07/03 13:49:46","新北市土城區城林路6巷80號","121.438726666667","24.9796766666667","6501300","土城區"
"242048","172-VK","2018/07/03 13:38:31","新北市新莊區利濟街16號","121.453115","25.0335766666667","6500500","新莊區"
"221032","280-BY","2018/07/03 13:49:49","新北市汐止區長江街13巷17弄5號","121.653786666667","25.0727883333333","6501100","汐止區"
"220027","145-BY","2018/07/03 13:49:52","新北市板橋區民權路202巷7弄25號","121.459043333333","25.0149383333333","6500100","板橋區"
"220028","200-UY","2018/07/03 13:49:50","新北市板橋區大觀路二段265巷60弄1號","121.442741666667","24.9979683333333","6500100","板橋區"
"220030","610-BX","2018/07/03 13:49:50","新北市板橋區篤行路三段77號","121.427118333333","24.9852383333333","6500100","板橋區"
"220055","256-TC","2018/07/03 13:49:47","新北市板橋區四川路2段6-1號","121.447321666667","24.99426","6500100","板橋區"
"220040","267-BY","2018/07/03 13:49:41","新北市板橋區民生路二段177號","121.46985","25.0203066666667","6500100","板橋區"
"220004","276-BY","2018/07/03 13:49:38","新北市板橋區四川路二段23-3號","121.454685","24.9956683333333","6500100","板橋區"
"220020","277-BY","2018/07/03 13:49:49","新北市板橋區大觀路三段36巷44號","121.434311666667","24.99669","6500100","板橋區"
"220019","283-VK","2018/07/03 13:49:40","新北市板橋區重慶路245巷69號","121.465636666667","25.0010866666667","6500100","板橋區"
"220043","285-UM","2018/07/03 13:49:47","新北市板橋區民生路二段161巷3號","121.470043333333","25.0197333333333","6500100","板橋區"
"220001","285-VK","2018/07/03 13:49:45","新北市板橋區民生路二段105號","121.471353333333","25.017885","6500100","板橋區"
"220031","286-VK","2018/07/03 13:49:55","新北市板橋區大觀路一段38巷156弄142號","121.443653333333","25.00865","6500100","板橋區"
"220029","287-VK","2018/07/03 13:49:44","新北市板橋區光華街10號","121.454163333333","25.0115233333333","6500100","板橋區"
"220039","288-VK","2018/07/03 13:49:46","新北市板橋區民生路二段89-6號","121.47059","25.01939","6500100","板橋區"
"220032","296-UM","2018/07/03 13:49:52","新北市板橋區大觀路二段174巷102弄202號","121.442188333333","25.00116","6500100","板橋區"
"220023","303-R5","2018/07/03 13:49:46","新北市板橋區館前西路267號","121.453823333333","25.0087283333333","6500100","板橋區"
"220010","305-R5","2018/07/03 13:49:46","新北市板橋區中山路二段28號","121.472653333333","25.0151266666667","6500100","板橋區"
"220041","307-R5","2018/07/03 13:49:39","新北市板橋區民生路二段120號","121.470686666667","25.0197066666667","6500100","板橋區"
"220047","317-R6","2018/07/03 13:49:57","新北市板橋區民生路二段120號","121.47069","25.0194366666667","6500100","板橋區"
"220012","486-VK","2018/07/03 13:49:44","新北市板橋區民生路二段36-1號","121.472111666667","25.01673","6500100","板橋區"
"220037","491-VK","2018/07/03 13:49:39","新北市板橋區民生路二段171號","121.469865","25.0201516666667","6500100","板橋區"
"220104","560-BX","2018/07/03 13:49:58","新北市板橋區中正路325巷3弄3-1號","121.453713333333","25.0190383333333","6500100","板橋區"
"220052","561-BX","2018/07/03 13:47:29","新北市板橋區民生路二段56-6號","121.471066666667","25.018955","6500100","板橋區"
"220011","609-BX","2018/07/03 13:49:52","新北市板橋區中山路二段50-2號","121.473388333333","25.0153566666667","6500100","板橋區"
"220034","630-UY","2018/07/03 13:49:48","新北市板橋區大智街62號","121.454153333333","25.01543","6500100","板橋區"
"220005","686-BX","2018/07/03 13:49:56","新北市板橋區館前東路10-4號","121.459865","25.00704","6500100","板橋區"
"220002","741-BX","2018/07/03 13:49:49","新北市板橋區後埔街19號","121.460456666667","25.0066533333333","6500100","板橋區"
"220051","KEA-2699","2018/07/03 13:49:51","新北市板橋區民生路二段161巷1號","121.470273333333","25.0198833333333","6500100","板橋區"
"220012","806-UM","2018/07/03 13:49:46","新北市板橋區大觀路二段265巷7-7號","121.443688333333","24.9941233333333","6500100","板橋區"
"220014","829-TW","2018/07/03 13:49:59","新北市板橋區民生路一段81號","121.474905","25.013765","6500100","板橋區"
"220022","895-R6","2018/07/03 13:49:57","新北市板橋區府中路67號","121.458063333333","25.0094316666667","6500100","板橋區"
"220021","985-R7","2018/07/03 13:49:40","新北市板橋區南門街1號","121.45787","25.0094716666667","6500100","板橋區"
"220018","AAC-253","2018/07/03 13:49:54","新北市板橋區四川路一段107-7號","121.459856666667","25.0049966666667","6500100","板橋區"
"235032","KEA-2873","2018/07/03 13:49:40","新北市中和區連勝街28號","121.498345","24.9979716666667","6500300","中和區"
"235025","KEA-2875","2018/07/03 13:49:39","新北市中和區民治街132巷5號","121.475046666667","25.0023","6500300","中和區"
