"lineid","car","time","location","longitude","latitude","cityid","cityname"
"234025","9371-KE","2018/07/03 14:59:17","新北市永和區水源街21巷14弄2號","121.511605","25.003925","6500400","永和區"
"248017","225-UY","2018/07/03 14:59:06","新北市五股區登林路91-9號","121.420286666667","25.0724283333333","6501500","五股區"
"244002","248-BX","2018/07/03 14:59:23","新北市林口區南勢里10鄰34-2號","121.352175","25.0705216666667","6501700","林口區"
"231002","002-UM","2018/07/03 14:59:29","新北市新店區中正路501-4號","121.53358","24.98381","6500600","新店區"
"231027","0293-UT","2018/07/03 14:59:26","新北市新店區薏仁坑路自強巷6號","121.496643333333","24.958545","6500600","新店區"
"231028","046-UY","2018/07/03 14:59:18","新北市新店區安康路二段360號","121.502081666667","24.95739","6500600","新店區"
"231001","047-UY","2018/07/03 14:59:24","新北市新店區中正路253號","121.53891","24.97344","6500600","新店區"
"231005","106-UY","2018/07/03 14:59:12","新北市新店區寶慶街58巷2號","121.542108333333","24.986735","6500600","新店區"
"231020","108-UY","2018/07/03 14:59:14","新北市新店區桂山路2-1號","121.556658333333","24.9054883333333","6500600","新店區"
"231015","110-UY","2018/07/03 14:59:24","新北市新店區明山路24巷1號","121.562663333333","24.9542383333333","6500600","新店區"
"231012","187-VK","2018/07/03 14:59:14","新北市新店區寶橋路132號","121.547398333333","24.9760466666667","6500600","新店區"
"231023","KEA-2219","2018/07/03 14:59:11","新北市新店區檳榔路174號","121.544263333333","24.961915","6500600","新店區"
"231026","256-BX","2018/07/03 14:59:18","新北市新店區博愛街12巷1號","121.541463333333","24.9738483333333","6500600","新店區"
"231003","268-BY","2018/07/03 14:59:27","新北市新店區中興路二段100巷1號","121.547515","24.97168","6500600","新店區"
"231018","278-BY","2018/07/03 14:59:11","新北市新店區中央六街5號","121.530341666667","24.9745616666667","6500600","新店區"
"231038","3712-VJ","2018/07/03 14:59:12","新北市新店區安華路28-1號","121.519556666667","24.9609516666667","6500600","新店區"
"231025","4715-K9","2018/07/03 14:59:14","新北市新店區大同街8巷1號","121.539693333333","24.98014","6500600","新店區"
"231036","512-UM","2018/07/03 14:59:14","新北市新店區安祥路102巷28號","121.484081666667","24.9639866666667","6500600","新店區"
"231006","617-UM","2018/07/03 14:59:29","新北市新店區新坡一街85號","121.549033333333","24.964545","6500600","新店區"
"231030","619-UM","2018/07/03 14:59:12","新北市新店區安民街341-1號","121.516863333333","24.9749166666667","6500600","新店區"
"231034","641-BX","2018/07/03 14:59:22","新北市新店區玫瑰路4-1號","121.493563333333","24.9513316666667","6500600","新店區"
"231039","718-UY","2018/07/03 14:59:11","新北市新店區民權路9號","121.542495","24.9828783333333","6500600","新店區"
"231035","719-UM","2018/07/03 14:59:11","新北市新店區安業街19號","121.516858333333","24.97777","6500600","新店區"
"231032","720-UM","2018/07/03 14:59:17","新北市新店區安泰路60巷6號","121.483975","24.9467666666667","6500600","新店區"
"231029","897-TW","2018/07/03 14:59:16","新北市新店區安康路三段545號","121.477721666667","24.945335","6500600","新店區"
"231004","899-TW","2018/07/03 14:59:23","新北市新店區民族路26號","121.540756666667","24.978765","6500600","新店區"
"231024","AKT-0513","2018/07/03 14:59:14","新北市新店區中華路83巷17號","121.53879","24.9680983333333","6500600","新店區"
"235030","003-UY","2018/07/03 14:59:21","新北市中和區中山路二段67號","121.504041666667","25.0044266666667","6500300","中和區"
"235020","096-UM","2018/07/03 14:59:22","新北市中和區中山路三段188號","121.47221","25.006685","6500300","中和區"
"235003","097-UM","2018/07/03 14:59:18","新北市中和區安樂路217巷5號","121.513891666667","24.9985833333333","6500300","中和區"
"235004","150-BY","2018/07/03 14:59:11","新北市中和區景安路79巷21號","121.506951666667","24.9967466666667","6500300","中和區"
"235013","186-VK","2018/07/03 14:59:11","新北市中和區南華路15號","121.502375","24.9956933333333","6500300","中和區"
"235031","255-BX","2018/07/03 14:59:21","新北市三重區大有街25號","121.467386666667","25.0647233333333","6500300","中和區"
"235036","301-VK","2018/07/03 14:59:25","新北市中和區連城路164號","121.494098333333","24.9976166666667","6500300","中和區"
"235007","352-BY","2018/07/03 14:59:17","新北市中和區華新街230號","121.506113333333","24.9817083333333","6500300","中和區"
"235014","4979-A6","2018/07/03 14:59:15","新北市中和區景平路155巷4號","121.513351666667","24.9916466666667","6500300","中和區"
"235033","4980-A6","2018/07/03 14:59:26","新北市中和區南山路8號","121.50177","24.998755","6500300","中和區"
"235034","558-UM","2018/07/03 14:59:22","新北市中和區圓通路75號","121.5","24.9969733333333","6500300","中和區"
"235018","640-BX","2018/07/03 14:59:14","新北市中和區民享街4號","121.474043333333","25.0051783333333","6500300","中和區"
"235010","733-UM","2018/07/03 14:59:18","新北市中和區興南路一段105巷20弄5號","121.510261666667","24.9855216666667","6500300","中和區"
"235035","783-BX","2018/07/03 14:59:20","新北市中和區中正路707號","121.485138333333","24.9985466666667","6500300","中和區"
"235012","896-TW","2018/07/03 14:59:10","新北市中和區忠孝街1巷2-1號","121.509146666667","24.9830633333333","6500300","中和區"
"235015","157-BY","2018/07/03 14:59:26","新北市中和區中正路155號","121.498818333333","24.9934683333333","6500300","中和區"
"235001","AAC-213","2018/07/03 14:59:17","新北市中和區自立路16-1號","121.522008333333","24.9937","6500300","中和區"
"235023","AAC-215","2018/07/03 14:59:15","新北市中和區圓通路333號","121.491963333333","24.9904566666667","6500300","中和區"
"220016","013-TV","2018/07/03 14:59:19","新北市板橋區中山路二段318巷2弄2號","121.480406666667","25.01918","6500100","板橋區"
"220003","015-TV","2018/07/03 14:59:08","新北市板橋區國慶路213巷13號","121.46281","24.9971033333333","6500100","板橋區"
"220013","072-UY","2018/07/03 14:59:19","新北市板橋區中山路一段154巷3弄2號","121.465425","25.0104516666667","6500100","板橋區"
"220105","075-UY","2018/07/03 14:59:20","新北市板橋區文聖街13號","121.475551666667","25.0323516666667","6500100","板橋區"
"220017","AAD-861","2018/07/03 14:59:26","新北市板橋區大明街27號","121.458448333333","25.00245","6500100","板橋區"
"228004","212-TW","2018/07/03 14:59:09","新北市貢寮區雙玉里田寮洋街25-4號","121.930486666667","25.0178066666667","6502600","貢寮區"
"207002","749-BX","2018/07/03 14:59:18","新北市萬里區崁腳里崁腳路76號","121.648421666667","25.1596933333333","6502800","萬里區"
"207001","662-BX","2018/07/03 14:59:22","新北市萬里區雙興里太和路27號","121.654961666667","25.1759016666667","6502800","萬里區"
"236065","105-UM","2018/07/03 14:59:18","新北市土城區裕生路85號","121.446788333333","24.983945","6501300","土城區"
"236040","107-UM","2018/07/03 14:59:12","新北市土城區學士路31號","121.452968333333","24.9822466666667","6501300","土城區"
"236074","166-UM","2018/07/03 14:59:14","新北市土城區中州路3巷43號","121.413401666667","24.9563633333333","6501300","土城區"
"236029","253-BX","2018/07/03 14:59:18","新北市土城區中央路二段14巷15-1號","121.442191666667","24.9808116666667","6501300","土城區"
"236024","269-VK","2018/07/03 14:59:24","新北市土城區中正路74巷3弄2號","121.444813333333","24.9747133333333","6501300","土城區"
"236032","271-VK","2018/07/03 14:59:08","新北市土城區仁愛路4號","121.459766666667","24.9811933333333","6501300","土城區"
"236017","401-BY","2018/07/03 14:59:24","新北市土城區延安街35巷15號","121.468718333333","24.98475","6501300","土城區"
"236013","752-BX","2018/07/03 14:59:14","新北市土城區立德路47號","121.462541666667","24.9881566666667","6501300","土城區"
"236057","912-UM","2018/07/03 14:59:22","新北市土城區金城路二段188號","121.453853333333","24.981085","6501300","土城區"
"236045","913-UM","2018/07/03 14:59:15","新北市土城區青雲路234號","121.459056666667","24.9807016666667","6501300","土城區"
"236060","915-UM","2018/07/03 14:59:18","新北市土城區延和路88巷9號","121.466855","24.988835","6501300","土城區"
"236054","AAC-216","2018/07/03 14:59:26","新北市土城區學成路48號","121.452266666667","24.9876","6501300","土城區"
"221032","280-BY","2018/07/03 14:59:09","新北市八里區商港路48號","121.395411666667","25.1448516666667","6501100","汐止區"
"220030","610-BX","2018/07/03 14:59:12","新北市板橋區大觀路三段131號","121.432468333333","24.994205","6500100","板橋區"
"220050","245-BX","2018/07/03 14:59:24","新北市板橋區萬板路182號","121.475813333333","25.023905","6500100","板橋區"
"220055","256-TC","2018/07/03 14:59:27","新北市樹林區水源街86號","121.425931666667","24.9801916666667","6500100","板橋區"
"220040","267-BY","2018/07/03 14:59:21","新北市板橋區文聖街89巷27號","121.478485","25.0306766666667","6500100","板橋區"
"220020","277-BY","2018/07/03 14:59:29","新北市板橋區大觀路三段131號","121.432426666667","24.994035","6500100","板橋區"
"220019","283-VK","2018/07/03 14:59:19","新北市板橋區廣權路99號","121.464566666667","24.992615","6500100","板橋區"
"220043","285-UM","2018/07/03 14:59:26","新北市板橋區文德路11號","121.462691666667","25.0244083333333","6500100","板橋區"
"220001","285-VK","2018/07/03 14:59:30","新北市板橋區永豐街51-2號","121.474098333333","25.0180483333333","6500100","板橋區"
"220031","286-VK","2018/07/03 14:59:14","新北市板橋區僑中二街90巷19號","121.445341666667","25.0092666666667","6500100","板橋區"
"220029","287-VK","2018/07/03 14:59:24","新北市板橋區僑中一街80巷14弄2號","121.44823","25.0135933333333","6500100","板橋區"
"220039","288-VK","2018/07/03 14:59:26","新北市板橋區新海路136號","121.460991666667","25.02323","6500100","板橋區"
"220009","293-UM","2018/07/03 14:59:26","新北市板橋區民生路二段107號","121.471205","25.0178933333333","6500100","板橋區"
"220023","303-R5","2018/07/03 14:59:26","新北市板橋區金華街10巷70號","121.457543333333","25.0202383333333","6500100","板橋區"
"220010","305-R5","2018/07/03 14:59:06","新北市板橋區中山路二段613號","121.485393333333","25.0224916666667","6500100","板橋區"
"220041","307-R5","2018/07/03 14:59:19","新北市板橋區裕民街128巷3號","121.458791666667","25.0276783333333","6500100","板橋區"
"220047","317-R6","2018/07/03 14:59:17","新北市板橋區新海路72巷5弄1號","121.462101666667","25.0221683333333","6500100","板橋區"
"220012","486-VK","2018/07/03 14:59:26","新北市板橋區區運路8號","121.465103333333","25.0090616666667","6500100","板橋區"
"220037","491-VK","2018/07/03 14:59:20","新北市板橋區懷德街78巷1號","121.478316666667","25.0315266666667","6500100","板橋區"
"220052","561-BX","2018/07/03 14:59:09","新北市板橋區文化路一段421巷23-1號","121.466131666667","25.0232683333333","6500100","板橋區"
"220011","609-BX","2018/07/03 14:59:11","新北市板橋區中山路二段387號","121.480176666667","25.019385","6500100","板橋區"
"220005","686-BX","2018/07/03 14:59:23","新北市板橋區四川路二段74號","121.452351666667","24.9948083333333","6500100","板橋區"
"220042","689-BX","2018/07/03 14:59:19","新北市板橋區文化路二段505巷7號","121.475795","25.0345916666667","6500100","板橋區"
"220051","KEA-2699","2018/07/03 14:59:11","新北市板橋區文聖街61號","121.476795","25.0310533333333","6500100","板橋區"
"220025","806-UM","2018/07/03 14:59:26","新北市板橋區板城路275號","121.451836666667","25.001375","6500100","板橋區"
"220014","829-TW","2018/07/03 14:59:18","新北市板橋區中山路一段263號","121.468681666667","25.013295","6500100","板橋區"
"220045","830-TW","2018/07/03 14:59:17","新北市板橋區莒光路133巷20號","121.472738333333","25.024485","6500100","板橋區"
"220038","833-TW","2018/07/03 14:59:17","新北市板橋區龍泉街56-1號","121.457088333333","25.0260266666667","6500100","板橋區"
"220022","895-R6","2018/07/03 14:59:17","新北市板橋區館前西路105號","121.45697","25.00741","6500100","板橋區"
"220021","985-R7","2018/07/03 14:59:20","新北市板橋區大觀路二段153巷53號","121.447211666667","25.0009566666667","6500100","板橋區"
"220046","AAC-210","2018/07/03 14:59:29","新北市板橋區光正街24號","121.462416666667","25.0172416666667","6500100","板橋區"
"220018","AAC-253","2018/07/03 14:59:14","新北市板橋區成都街16號","121.46056","25.004725","6500100","板橋區"
"235032","KEA-2873","2018/07/03 14:59:10","新北市中和區連城路263號","121.491786666667","24.996555","6500300","中和區"
