"lineid","car","time","location","longitude","latitude","cityid","cityname"
"231046","188-VK","2018/07/03 16:29:26","新北市新店區灣潭路3-2號","121.538273333333","24.9508216666667","6500600","新店區"
"241011","013-R5","2018/07/03 16:29:21","新北市三重區龍濱路251號","121.501436666667","25.07273","6500200","三重區"
"241028","022-UY","2018/07/03 16:29:31","新北市三重區中正南路212號","121.493941666667","25.0555783333333","6500200","三重區"
"241008","059-VK","2018/07/03 16:29:15","新北市三重區力行路二段136巷45弄12號","121.479108333333","25.075435","6500200","三重區"
"241022","060-VK","2018/07/03 16:29:13","新北市三重區新北大道一段86巷15號","121.48595","25.06211","6500200","三重區"
"241031","061-VK","2018/07/03 16:29:21","新北市三重區重陽路一段51號","121.486636666667","25.05839","6500200","三重區"
"241015","062-VK","2018/07/03 16:29:19","新北市三重區福德北路34號","121.502025","25.0653166666667","6500200","三重區"
"241017","063-VK","2018/07/03 16:29:13","新北市三重區重新路二段99號","121.495548333333","25.06186","6500200","三重區"
"241024","065-VK","2018/07/03 16:29:29","新北市三重區中正北路269號","121.47532","25.0712","6500200","三重區"
"241026","066-VK","2018/07/03 16:29:19","新北市三重區文化南路42號","121.500475","25.0604366666667","6500200","三重區"
"241002","090-VK","2018/07/03 16:29:23","新北市三重區五華街9-2號","121.495143333333","25.08005","6500200","三重區"
"241003","091-VK","2018/07/03 16:29:28","新北市三重區仁義街228巷10號","121.494353333333","25.0844533333333","6500200","三重區"
"241007","742-BX","2018/07/03 16:29:20","新北市三重區三和路四段167巷134號","121.486888333333","25.0800416666667","6500200","三重區"
"241005","262-UM","2018/07/03 16:29:29","新北市三重區溪尾街300-2號","121.48746","25.0836966666667","6500200","三重區"
"241020","265-UM","2018/07/03 16:29:29","新北市三重區車路頭街37巷11號","121.484116666667","25.0716516666667","6500200","三重區"
"241016","266-UM","2018/07/03 16:29:21","新北市三重區大智街23號","121.494293333333","25.0658583333333","6500200","三重區"
"241009","267-UM","2018/07/03 16:29:17","新北市三重區三和路四段191巷78號","121.484551666667","25.0798733333333","6500200","三重區"
"241018","268-UM","2018/07/03 16:29:17","新北市三重區重陽路四段18號","121.490945","25.069165","6500200","三重區"
"241032","269-UM","2018/07/03 16:29:23","新北市三重區三陽路100巷3弄13號","121.483066666667","25.0580816666667","6500200","三重區"
"241013","270-UM","2018/07/03 16:29:12","新北市三重區龍門路28-1號","121.495418333333","25.0723416666667","6500200","三重區"
"241025","271-UM","2018/07/03 16:29:15","新北市三重區中正北路560巷100弄17-1號","121.472658333333","25.0684816666667","6500200","三重區"
"241004","475-VK","2018/07/03 16:29:15","新北市三重區仁愛街371號","121.491646666667","25.0803633333333","6500200","三重區"
"241030","480-VK","2018/07/03 16:29:17","新北市三重區成功路106-1號","121.487553333333","25.05148","6500200","三重區"
"241014","543-UM","2018/07/03 16:29:17","新北市三重區河邊北街76號","121.504046666667","25.0686116666667","6500200","三重區"
"241023","545-UM","2018/07/03 16:29:14","新北市三重區忠孝路三段50巷43號","121.482838333333","25.0644516666667","6500200","三重區"
"241001","547-UM","2018/07/03 16:29:14","新北市三重區仁政街116號","121.49196","25.0782066666667","6500200","三重區"
"241033","557-UM","2018/07/03 16:05:44","新北市三重區五谷王南街50-1號","121.473948333333","25.0445033333333","6500200","三重區"
"241019","KEA-2593","2018/07/03 16:29:26","新北市三重區重陽路三段99號","121.490388333333","25.0680866666667","6500200","三重區"
"241006","743-BX","2018/07/03 16:29:27","新北市三重區力行路二段202號","121.48339","25.0777033333333","6500200","三重區"
"241012","941-UM","2018/07/03 16:29:22","新北市三重區河邊北街375號","121.501828333333","25.0763966666667","6500200","三重區"
"241029","942-UM","2018/07/03 16:29:17","新北市三重區集美街126巷13號","121.489498333333","25.0536316666667","6500200","三重區"
"235064","005-UY","2018/07/03 16:29:22","新北市中和區員山路36巷16-3號","121.48499","24.9913583333333","6500300","中和區"
"235026","800-TS","2018/07/03 16:29:20","新北市中和區建八路125巷6弄11號","121.490163333333","24.99913","6500300","中和區"
"224007","275-VK","2018/07/03 16:29:26","新北市瑞芳區瑞竹路77號","121.763841666667","25.1025516666667","6501200","瑞芳區"
"224005","271-BY","2018/07/03 16:29:27","新北市瑞芳區瑞濱路32-6號","121.823491666667","25.1208533333333","6501200","瑞芳區"
"227009","642-TC","2018/07/03 16:29:26","新北市雙溪區三港里雙澳路22號","121.869516666667","25.0499316666667","6502500","雙溪區"
"227003","400-TW","2018/07/03 16:29:22","新北市雙溪區上林里內平林120-2號","121.82449","25.0262833333333","6502500","雙溪區"
"251013","KEA-2871","2018/07/03 16:29:12","新北市淡水區北新路三段162號","121.492373333333","25.1915133333333","6501000","淡水區"
"251016","179-VK","2018/07/03 16:29:22","新北市淡水區沙崙路17號","121.421238333333","25.1813166666667","6501000","淡水區"
"251014","180-VK","2018/07/03 16:29:13","新北市淡水區中正路二段31號","121.41946","25.1816916666667","6501000","淡水區"
"251008","443-VK","2018/07/03 16:29:11","新北市淡水區民權路81號","121.459903333333","25.1383666666667","6501000","淡水區"
"220055","256-TC","2018/07/03 16:06:50","新北市板橋區四川路2段6-1號","121.447328333333","24.9942366666667","6500100","板橋區"
