"lineid","car","time","location","longitude","latitude","cityid","cityname"
"249005","172-UM","2018/07/03 17:29:22","新北市八里區荖阡坑路36號","121.408693333333","25.1254683333333","6502300","八里區"
"249001","173-UM","2018/07/03 17:29:26","新北市八里區大崁腳47-3號","121.424485","25.15898","6502300","八里區"
"249004","303-UY","2018/07/03 17:29:21","新北市八里區賢一街219號","121.415641666667","25.15584","6502300","八里區"
"249002","305-UY","2018/07/03 17:29:16","新北市八里區龍形五街29號","121.449748333333","25.1333816666667","6502300","八里區"
"249003","759-BX","2018/07/03 17:29:28","新北市八里區中山路二段313號","121.400661666667","25.1478616666667","6502300","八里區"
"244007","080-UY","2018/07/03 17:29:26","新北市林口區湖子16號","121.385278333333","25.0902433333333","6501700","林口區"
"244019","403-UM","2018/07/03 17:29:26","新北市林口區公園路163號","121.370875","25.0714683333333","6501700","林口區"
"244009","410-SL","2018/07/03 17:29:19","新北市林口區中北三街178號","121.383076666667","25.082685","6501700","林口區"
"244023","483-VK","2018/07/03 17:29:19","新北市林口區東明一街56號","121.392023333333","25.0721766666667","6501700","林口區"
"244017","485-VK","2018/07/03 17:29:27","新北市林口區中山路319號","121.383655","25.0805183333333","6501700","林口區"
"244011","657-BX","2018/07/03 17:29:23","新北市林口區仁愛路一段619號","121.390061666667","25.076595","6501700","林口區"
"244025","837-TS","2018/07/03 17:29:19","新北市林口區文化北路一段392-2號","121.363878333333","25.0749733333333","6501700","林口區"
"244021","838-TS","2018/07/03 17:29:29","新北市林口區中山路2-2號","121.396731666667","25.078715","6501700","林口區"
"231046","188-VK","2018/07/03 17:29:26","新北市新店區直潭路92號","121.530906666667","24.93758","6500600","新店區"
"241011","013-R5","2018/07/03 17:29:21","新北市三重區河邊北街124巷31號","121.502973333333","25.071425","6500200","三重區"
"241015","062-VK","2018/07/03 17:29:19","新北市三重區長元街65巷20弄18號","121.50362","25.0661533333333","6500200","三重區"
"241017","063-VK","2018/07/03 17:29:13","新北市三重區大同北路34巷50號","121.493648333333","25.0620283333333","6500200","三重區"
"241024","065-VK","2018/07/03 17:29:29","新北市三重區大勇街82巷15弄19號","121.480668333333","25.0719533333333","6500200","三重區"
"241003","091-VK","2018/07/03 17:29:28","新北市三重區進安街82號","121.495858333333","25.0848366666667","6500200","三重區"
"241005","262-UM","2018/07/03 17:29:09","新北市三重區永安北路二段5巷33號","121.482705","25.0811933333333","6500200","三重區"
"241020","265-UM","2018/07/03 17:29:29","新北市三重區忠孝路一段177號","121.487523333333","25.0717633333333","6500200","三重區"
"241016","266-UM","2018/07/03 17:29:21","新北市三重區信義西街41號","121.495243333333","25.064025","6500200","三重區"
"241018","268-UM","2018/07/03 17:29:17","新北市三重區中正北路23號","121.492343333333","25.0616566666667","6500200","三重區"
"241032","269-UM","2018/07/03 17:29:23","新北市三重區名源街44號","121.482406666667","25.0594516666667","6500200","三重區"
"241025","271-UM","2018/07/03 17:29:15","新北市三重區中正北路311號","121.47398","25.0714216666667","6500200","三重區"
"241030","480-VK","2018/07/03 17:29:17","新北市三重區環河南路220-8號","121.493338333333","25.0528083333333","6500200","三重區"
"241014","543-UM","2018/07/03 17:29:17","新北市三重區長壽街63號","121.501475","25.0684233333333","6500200","三重區"
"241023","545-UM","2018/07/03 17:29:14","新北市三重區三民街146巷3弄2號","121.481706666667","25.0646216666667","6500200","三重區"
"241033","557-UM","2018/07/03 17:29:07","新北市三重區興德路129號","121.470236666667","25.0531883333333","6500200","三重區"
"241019","KEA-2593","2018/07/03 17:29:25","新北市三重區六張街209號","121.488573333333","25.0686666666667","6500200","三重區"
"241006","743-BX","2018/07/03 17:28:07","新北市五股區中興路三段163號","121.449383333333","25.0804283333333","6500200","三重區"
"241012","941-UM","2018/07/03 17:29:22","新北市三重區仁興街31巷2號","121.499366666667","25.0752866666667","6500200","三重區"
"247024","893-R6","2018/07/03 17:29:28","新北市蘆洲區長榮路488號","121.460311666667","25.0898283333333","6501400","蘆洲區"
"247014","546-UM","2018/07/03 17:29:25","新北市蘆洲區三民路33號","121.47545","25.0830566666667","6501400","蘆洲區"
"247022","500-BY","2018/07/03 17:29:14","新北市蘆洲區三民路251號","121.4685","25.08942","6501400","蘆洲區"
"247010","341-TH","2018/07/03 17:29:29","新北市蘆洲區信義路132-1號","121.479595","25.0828333333333","6501400","蘆洲區"
"247012","339-TH","2018/07/03 17:29:32","新北市蘆洲區民族路36號","121.476518333333","25.08439","6501400","蘆洲區"
"247004","337-TH","2018/07/03 17:29:19","新北市蘆洲區長安街233巷18號","121.45866","25.0826383333333","6501400","蘆洲區"
"247006","336-TH","2018/07/03 17:29:18","新北市蘆洲區九芎街90巷29號","121.464285","25.0812433333333","6501400","蘆洲區"
"247018","057-VK","2018/07/03 17:29:30","新北市蘆洲區民義街22巷18號","121.471673333333","25.0881","6501400","蘆洲區"
"247008","056-VK","2018/07/03 17:29:24","新北市蘆洲區民生街89號","121.473786666667","25.0780233333333","6501400","蘆洲區"
"247016","007-UY","2018/07/03 17:29:14","新北市蘆洲區光華路22巷50號","121.468063333333","25.0851883333333","6501400","蘆洲區"
"247002","002-UY","2018/07/03 17:29:30","新北市蘆洲區永樂街38巷57弄14號","121.457708333333","25.090495","6501400","蘆洲區"
"247020","001-UY","2018/07/03 17:29:27","新北市蘆洲區仁愛街101巷10號","121.470633333333","25.094045","6501400","蘆洲區"
"228001","212-TW","2018/07/03 17:29:16","新北市貢寮區仁理村仁愛路52號","121.925366666667","25.0533133333333","6502600","貢寮區"
"228002","663-BX","2018/07/03 17:29:20","新北市貢寮區福隆里興隆街15號","121.94381","25.0165266666667","6502600","貢寮區"
"228003","828-UM","2018/07/03 17:29:13","新北市貢寮區仁理村仁和路2-2號","121.923343333333","25.0484266666667","6502600","貢寮區"
"224010","AGQ-8101","2018/07/03 17:29:30","新北市瑞芳區逢甲路3號","121.810078333333","25.1083816666667","6501200","瑞芳區"
"224006","676-BX","2018/07/03 17:29:28","新北市瑞芳區靜安路四段92號","121.7932","25.1099983333333","6501200","瑞芳區"
"224008","285-BY","2018/07/03 17:29:17","新北市瑞芳區九芎橋路17號","121.832811666667","25.0927566666667","6501200","瑞芳區"
"224009","273-VK","2018/07/03 17:29:30","新北市瑞芳區汽車路7-3號","121.846971666667","25.1106766666667","6501200","瑞芳區"
"224005","271-BY","2018/07/03 17:29:15","新北市瑞芳區洞頂路138-1號","121.862111666667","25.1246716666667","6501200","瑞芳區"
"227009","642-TC","2018/07/03 17:29:26","新北市雙溪區三貂里十三層5-3號","121.853113333333","25.0773433333333","6502500","雙溪區"
"227003","400-TW","2018/07/03 17:29:22","新北市雙溪區平林里梅竹蹊67號","121.842156666667","25.03102","6502500","雙溪區"
"251004","009-UM","2018/07/03 17:29:13","新北市淡水區中正東路二段88巷15號","121.459006666667","25.1504533333333","6501000","淡水區"
"251005","010-UM","2018/07/03 17:29:12","新北市淡水區鄧公路31巷9號","121.451675","25.1707016666667","6501000","淡水區"
"251002","012-UM","2018/07/03 17:29:18","新北市淡水區中正路437號","121.432066666667","25.1747283333333","6501000","淡水區"
"251013","KEA-2871","2018/07/03 17:29:31","新北市淡水區大竹圍5號","121.466575","25.1952483333333","6501000","淡水區"
"251016","179-VK","2018/07/03 17:29:22","新北市淡水區大竹圍63號","121.463111666667","25.19125","6501000","淡水區"
"251014","180-VK","2018/07/03 17:29:15","新北市淡水區公埔子20-2號","121.469616666667","25.2289116666667","6501000","淡水區"
"251015","181-VK","2018/07/03 17:29:11","新北市淡水區樹林口7-1號","121.479005","25.1671016666667","6501000","淡水區"
"251010","413-VK","2018/07/03 17:29:11","新北市淡水區中正路二段206號","121.426241666667","25.18912","6501000","淡水區"
"251012","441-VK","2018/07/03 17:29:12","新北市淡水區北新路98號","121.447168333333","25.1783766666667","6501000","淡水區"
"251008","443-VK","2018/07/03 17:29:11","新北市淡水區大同路105巷1號","121.463113333333","25.140395","6501000","淡水區"
"251006","561-UM","2018/07/03 17:29:26","新北市淡水區大仁街19號","121.442456666667","25.1751533333333","6501000","淡水區"
"251009","575-R6","2018/07/03 17:29:13","新北市淡水區新生街30巷11號","121.439288333333","25.1731533333333","6501000","淡水區"
"251007","577-R6","2018/07/03 17:29:26","新北市淡水區民生路60號","121.462105","25.1379416666667","6501000","淡水區"
"251011","650-BX","2018/07/03 17:29:17","新北市淡水區坪頂路712號","121.482508333333","25.1584633333333","6501000","淡水區"
"251003","766-UM","2018/07/03 17:29:13","新北市淡水區中山路157號","121.440751666667","25.1728883333333","6501000","淡水區"
"207003","550-UM","2018/07/03 17:29:13","新北市萬里區龜吼里日光路6巷16號","121.683476666667","25.1866383333333","6502800","萬里區"
"207004","225-TW","2018/07/03 17:29:22","新北市萬里區萬里里景美路11-2號","121.685485","25.1728716666667","6502800","萬里區"
"252002","178-VK","2018/07/03 17:29:12","新北市三芝區忠孝街1-14號","121.505426666667","25.2539433333333","6502100","三芝區"
"252001","292-VK","2018/07/03 17:29:13","新北市三芝區淡金路一段4-5號","121.498076666667","25.259715","6502100","三芝區"
"237012","275-BY","2018/07/03 17:29:17","新北市三峽區中山路459巷137號","121.349961666667","24.933895","6500900","三峽區"
"237011","KEA-2596","2018/07/03 17:29:10","新北市三峽區中山路459巷163-3號","121.348641666667","24.9329733333333","6500900","三峽區"
"237016","649-BX","2018/07/03 17:29:28","新北市三峽區中山路107巷83-1號","121.350661666667","24.9343233333333","6500900","三峽區"
"242034","AAC-296","2018/07/03 17:29:25","新北市新莊區新泰路1號","121.44974","25.03212","6500500","新莊區"
"242058","986-R7","2018/07/03 17:29:17","新北市新莊區中正路530號","121.430945","25.0316083333333","6500500","新莊區"
"242054","751-BX","2018/07/03 17:29:30","新北市新莊區瓊林南路305巷35號","121.435983333333","25.0051516666667","6500500","新莊區"
"242027","615-BX","2018/07/03 17:29:12","新北市新莊區思源路31號","121.460123333333","25.0394933333333","6500500","新莊區"
"242025","613-BX","2018/07/03 17:29:28","新北市新莊區復興路二段22號","121.454405","25.0439266666667","6500500","新莊區"
"242029","612-BX","2018/07/03 17:29:24","新北市新莊區復興路二段188號","121.459115","25.0443","6500500","新莊區"
"242042","566-BX","2018/07/03 17:29:32","新北市新莊區新樹路113巷32號","121.438731666667","25.0267016666667","6500500","新莊區"
"242046","497-BY","2018/07/03 17:29:15","新北市新莊區新樹路49號","121.440175","25.0320366666667","6500500","新莊區"
"242051","442-UM","2018/07/03 17:29:11","新北市新莊區新樹路447號","121.43266","25.0134866666667","6500500","新莊區"
"242037","415-TV","2018/07/03 17:29:16","新北市新莊區建國一路288巷38號","121.434366666667","25.0256033333333","6500500","新莊區"
"242007","413-TV","2018/07/03 17:29:27","新北市新莊區自強街54號","121.454765","25.0467533333333","6500500","新莊區"
"242044","400-BY","2018/07/03 17:29:21","新北市新莊區富國路76號","121.420006666667","25.0259233333333","6500500","新莊區"
"242023","362-BY","2018/07/03 17:29:31","新北市新莊區公園路150號","121.453178333333","25.04008","6500500","新莊區"
"242061","353-BY","2018/07/03 17:29:28","新北市新莊區瓊林南路12-1號","121.436878333333","25.0195883333333","6500500","新莊區"
"242009","132-UY","2018/07/03 17:29:20","新北市新莊區中原路185號","121.453113333333","25.05415","6500500","新莊區"
"242039","133-UY","2018/07/03 17:29:22","新北市新莊區民安路276號","121.427698333333","25.0214666666667","6500500","新莊區"
"242032","135-UY","2018/07/03 17:29:18","新北市新莊區新泰路401巷29-1號","121.44247","25.0439333333333","6500500","新莊區"
"242048","172-VK","2018/07/03 17:29:11","新北市新莊區龍安路256號","121.421288333333","25.01956","6500500","新莊區"
"242011","173-VK","2018/07/03 17:29:25","新北市新莊區中港路437號","121.452311666667","25.048075","6500500","新莊區"
"242017","175-VK","2018/07/03 17:29:13","新北市新莊區復興路一段207號","121.452258333333","25.0436283333333","6500500","新莊區"
"242005","176-VK","2018/07/03 17:29:20","新北市新莊區中港路286號","121.452996666667","25.044295","6500500","新莊區"
"242015","346-TH","2018/07/03 17:29:18","新北市新莊區新泰路146號","121.44779","25.0371083333333","6500500","新莊區"
"242056","347-TH","2018/07/03 17:29:29","新北市新莊區新泰路8號","121.449738333333","25.0328633333333","6500500","新莊區"
"242021","348-TH","2018/07/03 17:29:13","新北市新莊區中華路一段18號","121.45198","25.03713","6500500","新莊區"
"242002","349-TH","2018/07/03 17:29:17","新北市新莊區新莊路211號","121.455308333333","25.035385","6500500","新莊區"
"242019","350-TH","2018/07/03 17:29:26","新北市新莊區中港路54號","121.45541","25.038555","6500500","新莊區"
"242013","351-TH","2018/07/03 17:29:26","新北市新莊區中誠街16巷28號","121.451925","25.0487766666667","6500500","新莊區"
"238015","755-BX","2018/07/03 17:29:28","新北市樹林區大安路269號","121.41899","24.9936516666667","6500700","樹林區"
"238023","601-UM","2018/07/03 17:29:23","新北市樹林區中正路290號","121.414435","25.01042","6500700","樹林區"
"238018","571-TV","2018/07/03 17:29:10","新北市樹林區博愛街248號","121.423948333333","24.988795","6500700","樹林區"
"238024","5061-A6","2018/07/03 17:29:12","新北市樹林區鎮前街159號","121.423838333333","24.9887416666667","6500700","樹林區"
"238022","KEA-2213","2018/07/03 17:29:14","新北市樹林區仁愛街24號","121.42245","24.9821","6500700","樹林區"
"238021","KEA-2539","2018/07/03 17:29:27","新北市樹林區西圳街一段203巷25-6號","121.394285","24.9588966666667","6500700","樹林區"
"238025","303-VK","2018/07/03 17:29:19","新北市樹林區保安街一段204號","121.421153333333","24.9958783333333","6500700","樹林區"
"238017","283-BY","2018/07/03 17:29:12","新北市樹林區中正路246號","121.417986666667","25.0075416666667","6500700","樹林區"
"238014","282-BY","2018/07/03 17:29:16","新北市樹林區保安街一段217號","121.419973333333","24.9960316666667","6500700","樹林區"
"238020","268-VK","2018/07/03 17:29:31","新北市樹林區俊英街162號","121.426901666667","25.0066333333333","6500700","樹林區"
"238026","172-UY","2018/07/03 17:29:22","新北市樹林區新興街2巷1號","121.400188333333","24.97423","6500700","樹林區"
"238016","169-UY","2018/07/03 17:29:25","新北市樹林區長壽街2巷5-4號","121.42413","24.99354","6500700","樹林區"
"239006","891-R6","2018/07/03 17:29:25","新北市鶯歌區鶯桃路472巷24號","121.333323333333","24.9658383333333","6500800","鶯歌區"
"239008","527-UM","2018/07/03 17:29:31","新北市鶯歌區大湖路389號","121.331081666667","24.978745","6500800","鶯歌區"
"239005","526-UM","2018/07/03 17:29:16","新北市鶯歌區福隆一街3號","121.325658333333","24.9718383333333","6500800","鶯歌區"
"239001","417-VK","2018/07/03 17:29:19","新北市鶯歌區中正三路149號","121.336868333333","24.94019","6500800","鶯歌區"
"239003","360-BY","2018/07/03 17:29:28","新北市鶯歌區鶯桃路297-2號","121.334388333333","24.96056","6500800","鶯歌區"
"239002","359-BY","2018/07/03 17:29:15","新北市鶯歌區育才街84號","121.347663333333","24.9546616666667","6500800","鶯歌區"
"239004","193-VK","2018/07/03 17:29:22","新北市鶯歌區三鶯路12號","121.356553333333","24.94125","6500800","鶯歌區"
"221008","489-VK","2018/07/03 17:29:28","新北市汐止區康寧街901號","121.65136","25.0749666666667","6501100","汐止區"
"221033","647-BX","2018/07/03 17:29:16","新北市汐止區汐萬路一段312號","121.65041","25.0750166666667","6501100","汐止區"
