"lineid","car","time","location","longitude","latitude","cityid","cityname"
"234026","9371-KE","2018/07/03 17:59:31","新北市永和區永和路一段45-1號","121.512836666667","25.006285","6500400","永和區"
"249005","172-UM","2018/07/03 17:59:21","新北市八里區荖阡坑路20號","121.397433333333","25.1363783333333","6502300","八里區"
"249001","173-UM","2018/07/03 17:59:26","新北市八里區龍米路二段30號","121.448548333333","25.140045","6502300","八里區"
"249004","303-UY","2018/07/03 17:59:21","新北市八里區龍米路二段209-26號","121.431365","25.1585033333333","6502300","八里區"
"249002","305-UY","2018/07/03 17:59:13","新北市八里區龍米路一段259號","121.450668333333","25.1337183333333","6502300","八里區"
"249003","759-BX","2018/07/03 17:59:29","新北市八里區中山路二段181號","121.404753333333","25.1501683333333","6502300","八里區"
"248008","095-VK","2018/07/03 17:59:19","新北市五股區更洲路10號","121.458333333333","25.0788083333333","6501500","五股區"
"248018","225-UY","2018/07/03 17:59:28","新北市五股區中興路二段161號","121.457783333333","25.077225","6501500","五股區"
"248002","678-BX","2018/07/03 17:59:13","新北市五股區中興路二段37巷28號","121.460196666667","25.0749916666667","6501500","五股區"
"232011","375-UM","2018/07/03 17:59:28","新北市坪林區北宜路八段235號","121.709351666667","24.93508","6502000","坪林區"
"244007","080-UY","2018/07/03 17:59:26","新北市林口區林口路213號","121.38725","25.0830766666667","6501700","林口區"
"244019","403-UM","2018/07/03 17:59:26","新北市林口區麗園路121號","121.37158","25.0675316666667","6501700","林口區"
"244009","410-SL","2018/07/03 17:59:19","新北市林口區佳林路56巷4號","121.385685","25.0817766666667","6501700","林口區"
"244023","483-VK","2018/07/03 17:59:19","新北市林口區東湖路75巷19號","121.385165","25.0727533333333","6501700","林口區"
"244017","485-VK","2018/07/03 17:59:27","新北市林口區文化二路一段335-9號","121.369423333333","25.073915","6501700","林口區"
"244011","657-BX","2018/07/03 17:59:23","新北市林口區中正路186號","121.391926666667","25.0776133333333","6501700","林口區"
"244025","837-TS","2018/07/03 17:59:19","新北市林口區文化三路一段37號","121.360716666667","25.0668416666667","6501700","林口區"
"244021","838-TS","2018/07/03 17:59:29","新北市林口區新寮27號","121.397003333333","25.0674483333333","6501700","林口區"
"222002","016-RS","2018/07/03 17:59:28","新北市深坑區深坑街35號","121.615948333333","25.0018483333333","6501800","深坑區"
"222003","436-BY","2018/07/03 17:59:29","新北市深坑區炮子崙23號","121.607166666667","24.9909366666667","6501800","深坑區"
"231046","188-VK","2018/07/03 17:59:26","新北市新店區下石厝路29-1號","121.534326666667","24.9289316666667","6500600","新店區"
"221018","KEA-2785","2018/07/03 17:59:23","新北市汐止區忠孝東路348號","121.665551666667","25.0697766666667","6501100","汐止區"
"231056","4715-K9","2018/07/03 17:59:14","新北市新店區安華路3號","121.519246666667","24.9601883333333","6500600","新店區"
"231055","AKT-0513","2018/07/03 17:59:12","新北市新店區安華路3號","121.519233333333","24.960265","6500600","新店區"
"241024","065-VK","2018/07/03 17:59:29","新北市三重區車路頭街52號","121.483931666667","25.0722983333333","6500200","三重區"
"241016","266-UM","2018/07/03 17:59:21","新北市五股區五工一路107號","121.45706","25.07046","6500200","三重區"
"241033","557-UM","2018/07/03 17:54:53","新北市三重區重新路五段613號","121.468158333333","25.04467","6500200","三重區"
"241006","743-BX","2018/07/03 17:59:27","新北市八里區商港路6號","121.397123333333","25.1441483333333","6500200","三重區"
"235064","005-UY","2018/07/03 17:59:15","新北市中和區員山路36巷16-3號","121.485035","24.9912916666667","6500300","中和區"
"235063","006-UY","2018/07/03 17:59:28","新北市中和區員山路36巷16-3號","121.485081666667","24.9911983333333","6500300","中和區"
"235065","098-UM","2018/07/03 17:59:13","新北市中和區中山路二段385號","121.486933333333","25.004855","6500300","中和區"
"235040","150-BY","2018/07/03 17:59:22","新北市中和區和城路一段271巷1號","121.485418333333","24.9917683333333","6500300","中和區"
"235058","151-BY","2018/07/03 17:59:22","新北市中和區錦和路350-1號","121.490528333333","24.9935383333333","6500300","中和區"
"235038","185-VK","2018/07/03 17:59:15","新北市中和區中正路395號","121.489738333333","24.993985","6500300","中和區"
"235042","KEA-2878","2018/07/03 17:59:16","新北市中和區錦和路216號","121.490386666667","24.9939316666667","6500300","中和區"
"235070","558-UM","2018/07/03 17:59:29","新北市中和區員山路36巷16-3號","121.48498","24.9917583333333","6500300","中和區"
"235054","640-BX","2018/07/03 17:59:10","新北市中和區連城路523巷13弄2號","121.48164","24.9935583333333","6500300","中和區"
"235060","647-TV","2018/07/03 17:59:12","新北市中和區員山路36巷13號","121.484351666667","24.9909633333333","6500300","中和區"
"235057","801-TS","2018/07/03 17:59:14","新北市中和區員山路36巷13號","121.484215","24.9911816666667","6500300","中和區"
"235051","157-BY","2018/07/03 17:59:11","新北市中和區員山路36巷16-2號","121.485348333333","24.99175","6500300","中和區"
"235037","AAC-213","2018/07/03 17:59:14","新北市中和區錦和路350-1號","121.490511666667","24.99356","6500300","中和區"
"247024","893-R6","2018/07/03 17:59:28","新北市蘆洲區長興路50巷3號","121.463895","25.0841033333333","6501400","蘆洲區"
"247014","546-UM","2018/07/03 17:59:25","新北市蘆洲區忠孝路110號","121.471398333333","25.08644","6501400","蘆洲區"
"247022","500-BY","2018/07/03 17:59:14","新北市蘆洲區中正路516巷10-1號","121.462245","25.0979883333333","6501400","蘆洲區"
"247010","341-TH","2018/07/03 17:59:29","新北市蘆洲區信義路190號","121.479153333333","25.0843566666667","6501400","蘆洲區"
"247012","339-TH","2018/07/03 17:59:32","新北市蘆洲區民族路180號","121.479876666667","25.086855","6501400","蘆洲區"
"247006","336-TH","2018/07/03 17:59:18","新北市蘆洲區中華街10號","121.463225","25.081565","6501400","蘆洲區"
"247018","057-VK","2018/07/03 17:59:30","新北市蘆洲區復興路195號","121.479308333333","25.0895366666667","6501400","蘆洲區"
"247016","007-UY","2018/07/03 17:59:14","新北市蘆洲區中正路185巷80弄2號","121.465943333333","25.08419","6501400","蘆洲區"
"247002","002-UY","2018/07/03 17:59:30","新北市蘆洲區永平街32巷45弄36號","121.45827","25.0931616666667","6501400","蘆洲區"
"247020","001-UY","2018/07/03 17:59:27","新北市蘆洲區民義街35巷5號","121.471631666667","25.089435","6501400","蘆洲區"
"226004","205-ST","2018/07/03 17:59:16","新北市平溪區石底里石筍尖18號","121.730785","25.0257866666667","6502400","平溪區"
"228001","212-TW","2018/07/03 17:59:19","新北市貢寮區真理里新港街26巷53號","121.928053333333","25.053565","6502600","貢寮區"
"228002","663-BX","2018/07/03 17:59:20","新北市貢寮區福隆里桂安街17號","121.965023333333","25.0214616666667","6502600","貢寮區"
"228003","828-UM","2018/07/03 17:59:32","新北市貢寮區真理里美艷山街6-2號","121.928818333333","25.060745","6502600","貢寮區"
"224010","AGQ-8101","2018/07/03 17:59:10","新北市瑞芳區汽車路3號","121.84754","25.11149","6501200","瑞芳區"
"224006","676-BX","2018/07/03 17:59:17","新北市瑞芳區大寮路356-1號","121.784903333333","25.10326","6501200","瑞芳區"
"224002","639-TC","2018/07/03 17:59:16","新北市瑞芳區三爪子坑路32巷1號","121.810261666667","25.1060383333333","6501200","瑞芳區"
"224008","285-BY","2018/07/03 17:59:17","新北市瑞芳區明燈路一段201巷105號","121.819015","25.1061066666667","6501200","瑞芳區"
"224009","273-VK","2018/07/03 17:59:30","新北市瑞芳區山尖路191號","121.851043333333","25.1117566666667","6501200","瑞芳區"
"224005","271-BY","2018/07/03 17:59:15","新北市瑞芳區深澳路16-7號","121.819385","25.1310466666667","6501200","瑞芳區"
"227009","642-TC","2018/07/03 17:59:26","新北市雙溪區三貂里政光路3-1號","121.850793333333","25.0634033333333","6502500","雙溪區"
"253005","032-BX","2018/07/03 17:59:14","新北市石門區中山路62-7號","121.567365","25.2901616666667","6502200","石門區"
"253006","295-VK","2018/07/03 17:59:24","新北市石門區大丘田45-2號","121.549835","25.2748566666667","6502200","石門區"
"222001","KEA-2212","2018/07/03 17:59:18","新北市深坑區北深路三段34號","121.6091","25.00092","6501800","深坑區"
"208002","KEA-2872","2018/07/03 17:59:20","新北市金山區三界壇路35號","121.627525","25.2279533333333","6502700","金山區"
"208001","761-BX","2018/07/03 17:59:23","新北市金山區磺港里磺港路248號","121.6439","25.2250483333333","6502700","金山區"
"251004","009-UM","2018/07/03 17:59:13","新北市淡水區民權路20號","121.459581666667","25.1379283333333","6501000","淡水區"
"251005","010-UM","2018/07/03 17:59:26","新北市淡水區英專路125-6號","121.446105","25.1726883333333","6501000","淡水區"
"251001","011-UM","2018/07/03 17:59:23","新北市淡水區民權路94巷1號","121.463135","25.1247883333333","6501000","淡水區"
"251002","012-UM","2018/07/03 17:59:18","新北市淡水區中正東路8-8號","121.447895","25.1667383333333","6501000","淡水區"
"251013","KEA-2871","2018/07/03 17:59:12","新北市淡水區泉洲厝30號","121.479675","25.1909733333333","6501000","淡水區"
"251016","179-VK","2018/07/03 17:59:21","新北市淡水區埤島28號","121.447576666667","25.19846","6501000","淡水區"
"251014","180-VK","2018/07/03 17:59:13","新北市淡水區公埔子16-6號","121.480695","25.22422","6501000","淡水區"
"251015","181-VK","2018/07/03 17:59:31","新北市淡水區興福寮88巷1號","121.485443333333","25.165025","6501000","淡水區"
"251010","413-VK","2018/07/03 17:59:31","新北市淡水區中正路一段87巷1號","121.421786666667","25.1791533333333","6501000","淡水區"
"251012","441-VK","2018/07/03 17:59:12","新北市淡水區北新路三段38巷7號","121.484535","25.1870066666667","6501000","淡水區"
"251008","443-VK","2018/07/03 17:59:26","新北市淡水區八勢一街23號","121.461655","25.156375","6501000","淡水區"
"251006","561-UM","2018/07/03 17:59:26","新北市淡水區新生街30巷13號","121.43893","25.1733083333333","6501000","淡水區"
"251009","575-R6","2018/07/03 17:59:12","新北市淡水區大仁街6巷1號","121.442528333333","25.1745866666667","6501000","淡水區"
"251007","577-R6","2018/07/03 17:59:25","新北市淡水區中正東路二段153號","121.459721666667","25.1465516666667","6501000","淡水區"
"251011","650-BX","2018/07/03 17:59:17","新北市淡水區三空泉5-1號","121.478003333333","25.1620316666667","6501000","淡水區"
"251003","766-UM","2018/07/03 17:59:13","新北市淡水區大忠街47號","121.444685","25.1764483333333","6501000","淡水區"
"207003","550-UM","2018/07/03 17:59:13","新北市萬里區港東路野柳風景區攤販64號","121.691421666667","25.205895","6502800","萬里區"
"207004","225-TW","2018/07/03 17:59:22","新北市萬里區中幅里中福路48號","121.683346666667","25.17411","6502800","萬里區"
"252002","178-VK","2018/07/03 17:59:12","新北市三芝區中山路二段29號","121.502835","25.2553366666667","6502100","三芝區"
"252001","292-VK","2018/07/03 17:59:13","新北市三芝區中興街二段2號","121.4984","25.2566066666667","6502100","三芝區"
"237004","KEA-2597","2018/07/03 17:59:27","新北市三峽區民權街189號","121.367806666667","24.9293166666667","6500900","三峽區"
"237009","210-TH","2018/07/03 17:59:22","新北市三峽區中山路106巷16-2號","121.36608","24.9364233333333","6500900","三峽區"
"237013","252-BX","2018/07/03 17:59:24","新北市三峽區長泰街76號","121.37671","24.9332566666667","6500900","三峽區"
"237012","275-BY","2018/07/03 17:59:17","新北市三峽區民生街19巷3號","121.376185","24.9362116666667","6500900","三峽區"
"237008","302-VK","2018/07/03 17:59:29","新北市三峽區白雞33-27號","121.37158","24.9120716666667","6500900","三峽區"
"237014","433-BY","2018/07/03 17:59:21","新北市三峽區復興路101巷1弄28號","121.371075","24.9378233333333","6500900","三峽區"
"237006","5529-G3","2018/07/03 17:59:21","新北市三峽區介壽路二段138巷26號","121.394421666667","24.9331016666667","6500900","三峽區"
"237011","KEA-2596","2018/07/03 17:59:30","新北市三峽區中華路138號","121.37075","24.9271033333333","6500900","三峽區"
"237016","649-BX","2018/07/03 17:59:28","新北市三峽區紫微路93號","121.41034","24.9151","6500900","三峽區"
"237010","706-TV","2018/07/03 17:59:14","新北市三峽區中山路66號","121.367345","24.9348583333333","6500900","三峽區"
"237005","AKY-6261","2018/07/03 17:59:24","新北市三峽區和平街81號","121.369993333333","24.9373116666667","6500900","三峽區"
"236070","105-UM","2018/07/03 17:59:06","新北市土城區青雲路663號","121.464595","24.965835","6501300","土城區"
"236042","107-UM","2018/07/03 17:59:13","新北市土城區城林路6巷80號","121.438726666667","24.9796683333333","6501300","土城區"
"236074","166-UM","2018/07/03 17:59:31","新北市土城區永寧路32巷10弄3號","121.428853333333","24.9610216666667","6501300","土城區"
"236030","253-BX","2018/07/03 17:59:31","新北市土城區城林路6巷80號","121.438571666667","24.9796","6501300","土城區"
"236026","269-VK","2018/07/03 17:59:19","新北市土城區中華路二段2號","121.439686666667","24.97936","6501300","土城區"
"236038","271-VK","2018/07/03 17:59:10","新北市土城區城林路6巷80號","121.43846","24.9797983333333","6501300","土城區"
"236021","401-BY","2018/07/03 17:59:14","新北市土城區城林路6巷80號","121.438791666667","24.979645","6501300","土城區"
"236014","752-BX","2018/07/03 17:59:18","新北市土城區城林路6巷80號","121.438435","24.9796316666667","6501300","土城區"
"236059","912-UM","2018/07/03 17:59:27","新北市土城區中央路三段226號","121.42892","24.9644783333333","6501300","土城區"
"236049","913-UM","2018/07/03 17:59:28","新北市土城區城林路6巷80號","121.43871","24.979645","6501300","土城區"
"236063","915-UM","2018/07/03 17:59:18","新北市土城區城林路6巷80號","121.438685","24.97967","6501300","土城區"
"236055","AAC-216","2018/07/03 17:59:33","新北市土城區城林路6巷80號","121.43848","24.9795966666667","6501300","土城區"
"242034","AAC-296","2018/07/03 17:59:24","新北市新莊區中正路421巷24號","121.444595","25.0334516666667","6500500","新莊區"
"242058","986-R7","2018/07/03 17:59:17","新北市新莊區新北大道七段239號","121.413013333333","25.0296916666667","6500500","新莊區"
"242054","751-BX","2018/07/03 17:59:30","新北市新莊區民安西路401號","121.429526666667","25.0098733333333","6500500","新莊區"
"242027","615-BX","2018/07/03 17:59:12","新北市新莊區思源路368號","121.459988333333","25.0516033333333","6500500","新莊區"
"242025","613-BX","2018/07/03 17:59:28","新北市新莊區五工路78號","121.457716666667","25.0637116666667","6500500","新莊區"
"242029","612-BX","2018/07/03 17:59:19","新北市新莊區中平路79號","121.444666666667","25.0451983333333","6500500","新莊區"
"242042","566-BX","2018/07/03 17:59:29","新北市泰山區壽山路54號","121.420181666667","25.02918","6500500","新莊區"
"242046","497-BY","2018/07/03 17:59:15","新北市新莊區福營路197號","121.43111","25.0304466666667","6500500","新莊區"
"242051","442-UM","2018/07/03 17:59:11","新北市新莊區民本街43巷11號","121.428576666667","25.0183583333333","6500500","新莊區"
"242037","415-TV","2018/07/03 17:59:24","新北市新莊區建福路44號","121.426578333333","25.027855","6500500","新莊區"
"242007","413-TV","2018/07/03 17:59:27","新北市新莊區自信街29號","121.454006666667","25.04828","6500500","新莊區"
"242044","400-BY","2018/07/03 17:59:21","新北市新莊區雙鳳路137號","121.412901666667","25.0272333333333","6500500","新莊區"
"242023","362-BY","2018/07/03 17:59:31","新北市新莊區幸福路40號","121.457915","25.0495483333333","6500500","新莊區"
"242061","353-BY","2018/07/03 17:59:22","新北市新莊區新樹路501-1號","121.432733333333","25.0113716666667","6500500","新莊區"
"242009","132-UY","2018/07/03 17:59:21","新北市新莊區昌平街59巷46號","121.45352","25.05332","6500500","新莊區"
"242039","133-UY","2018/07/03 17:59:22","新北市新莊區民安路95號","121.424456666667","25.0253933333333","6500500","新莊區"
"242032","135-UY","2018/07/03 17:59:18","新北市新莊區新泰路289巷24號","121.444428333333","25.0406533333333","6500500","新莊區"
"242048","172-VK","2018/07/03 17:59:11","新北市新莊區萬安街47巷9號","121.42223","25.0245333333333","6500500","新莊區"
"242011","173-VK","2018/07/03 17:59:25","新北市新莊區中港路中慶巷13號","121.450588333333","25.0538216666667","6500500","新莊區"
"242017","175-VK","2018/07/03 17:59:13","新北市新莊區中和街60巷29號","121.449221666667","25.044935","6500500","新莊區"
"242005","176-VK","2018/07/03 17:59:22","新北市新莊區福樂街71巷6號","121.456791666667","25.04752","6500500","新莊區"
"242015","346-TH","2018/07/03 17:59:32","新北市新莊區新泰路502巷41弄6號","121.443651666667","25.0465816666667","6500500","新莊區"
"242056","347-TH","2018/07/03 17:59:20","新北市新莊區豐年街124巷24號","121.445423333333","25.02995","6500500","新莊區"
"242021","348-TH","2018/07/03 17:59:13","新北市新莊區建興街6號","121.450206666667","25.0365383333333","6500500","新莊區"
"242002","349-TH","2018/07/03 17:59:17","新北市新莊區中正路145-18號","121.458291666667","25.0375933333333","6500500","新莊區"
"242019","350-TH","2018/07/03 17:59:25","新北市新莊區明中街47巷15號","121.456975","25.03864","6500500","新莊區"
"242013","351-TH","2018/07/03 17:59:26","新北市新莊區中和街125巷14號","121.446925","25.0486233333333","6500500","新莊區"
"238015","755-BX","2018/07/03 17:59:28","新北市樹林區啟智街78號","121.41977","24.991875","6500700","樹林區"
"238023","601-UM","2018/07/03 17:59:32","新北市樹林區福興街31號","121.404273333333","25.0156133333333","6500700","樹林區"
"238019","599-UM","2018/07/03 17:59:29","新北市樹林區中華路71號","121.423151666667","24.98305","6500700","樹林區"
"238018","571-TV","2018/07/03 17:59:30","新北市樹林區中正路241號","121.430285","24.9986066666667","6500700","樹林區"
"238022","KEA-2213","2018/07/03 17:59:14","新北市樹林區太順街60號","121.417956666667","24.9793083333333","6500700","樹林區"
"238021","KEA-2539","2018/07/03 17:59:27","新北市樹林區柑園街一段35號","121.403598333333","24.9602116666667","6500700","樹林區"
"238025","303-VK","2018/07/03 17:59:20","新北市樹林區俊興街228號","121.417828333333","25.0152016666667","6500700","樹林區"
"238017","283-BY","2018/07/03 17:59:31","新北市樹林區中正路464號","121.412726666667","25.01271","6500700","樹林區"
"238014","282-BY","2018/07/03 17:59:16","新北市樹林區中正路87號","121.425858333333","25.0003766666667","6500700","樹林區"
"238020","268-VK","2018/07/03 17:59:31","新北市樹林區三俊街201號","121.420121666667","25.015575","6500700","樹林區"
"238026","172-UY","2018/07/03 17:59:24","新北市樹林區佳園路一段4號","121.392738333333","24.971535","6500700","樹林區"
"238016","169-UY","2018/07/03 17:59:25","新北市樹林區育英街135巷1弄1號","121.419645","24.9890466666667","6500700","樹林區"
"239006","891-R6","2018/07/03 17:59:25","新北市鶯歌區鶯桃路455巷4弄1號","121.331963333333","24.9648883333333","6500800","鶯歌區"
"239008","527-UM","2018/07/03 17:59:18","新北市鶯歌區朝陽街1號","121.336283333333","24.976575","6500800","鶯歌區"
"239005","526-UM","2018/07/03 17:59:16","新北市鶯歌區鶯桃路658巷87號","121.331288333333","24.9705666666667","6500800","鶯歌區"
"239001","417-VK","2018/07/03 17:59:19","新北市鶯歌區中正三路106-1號","121.338098333333","24.9408683333333","6500800","鶯歌區"
"239003","360-BY","2018/07/03 17:59:28","新北市鶯歌區福安街1號","121.334238333333","24.963985","6500800","鶯歌區"
"239002","359-BY","2018/07/03 17:59:15","新北市鶯歌區光明街76號","121.346876666667","24.9558516666667","6500800","鶯歌區"
"239004","193-VK","2018/07/03 17:59:22","新北市鶯歌區尖山路135號","121.346975","24.948585","6500800","鶯歌區"
"221008","489-VK","2018/07/03 17:59:28","新北市汐止區明峰街29號","121.63419","25.0713733333333","6501100","汐止區"
"221036","130-UY","2018/07/03 17:59:32","新北市汐止區大同路三段62巷1號","121.667788333333","25.07704","6501100","汐止區"
"221015","131-UY","2018/07/03 17:59:25","新北市汐止區長江街286-3號","121.665218333333","25.0810233333333","6501100","汐止區"
"221010","269-BY","2018/07/03 17:59:30","新北市汐止區汐萬路二段234號","121.64658","25.088485","6501100","汐止區"
"221012","278-VK","2018/07/03 17:59:24","新北市汐止區長興街二段50巷5號","121.674191666667","25.081615","6501100","汐止區"
"221023","279-VK","2018/07/03 17:59:26","新北市汐止區明峰街154號","121.629543333333","25.0706516666667","6501100","汐止區"
"221032","280-BY","2018/07/03 17:59:17","新北市汐止區民權街一段16號","121.621331666667","25.0534833333333","6501100","汐止區"
"221027","281-BY","2018/07/03 17:59:28","新北市汐止區大同路二段374號","121.657798333333","25.0671833333333","6501100","汐止區"
"221029","298-VK","2018/07/03 17:59:29","新北市汐止區樟樹二路251巷46號","121.640438333333","25.0671866666667","6501100","汐止區"
"221021","299-VK","2018/07/03 17:59:29","新北市汐止區新興路32號","121.656543333333","25.0641616666667","6501100","汐止區"
"221031","353-TW","2018/07/03 17:59:23","新北市汐止區中興路194號","121.631536666667","25.0657833333333","6501100","汐止區"
"221035","622-UM","2018/07/03 17:59:30","新北市汐止區汐萬路一段117號","121.65416","25.071025","6501100","汐止區"
"221025","623-UM","2018/07/03 17:59:18","新北市汐止區仁愛路39號","121.659503333333","25.0634483333333","6501100","汐止區"
"221038","646-BX","2018/07/03 17:59:23","新北市汐止區水源路一段238巷1號","121.654115","25.0604433333333","6501100","汐止區"
"221033","647-BX","2018/07/03 17:59:16","新北市汐止區合順街1巷3號","121.619416666667","25.0430283333333","6501100","汐止區"
"221002","707-TV","2018/07/03 17:59:18","新北市汐止區中興路60號","121.635568333333","25.0614733333333","6501100","汐止區"
