"lineid","car","time","location","longitude","latitude","cityid","cityname"
"234046","148-BY","2018/07/03 20:05:58","新北市永和區得和路392號","121.525228333333","24.9991766666667","6500400","永和區"
"234007","207-UY","2018/07/03 20:13:11","新北市永和區保順路35號","121.503218333333","25.0105483333333","6500400","永和區"
"234081","298-R6","2018/07/03 20:06:23","新北市永和區永亨路110號","121.523668333333","25.0045183333333","6500400","永和區"
"234038","336-UY","2018/07/03 20:03:23","新北市永和區成功路二段114號","121.526603333333","24.9980016666667","6500400","永和區"
"234064","337-UY","2018/07/03 20:05:34","新北市永和區秀朗路一段218-2號","121.519941666667","25.0029233333333","6500400","永和區"
"234070","552-UM","2018/07/03 20:07:34","新北市永和區中正路628號","121.51715","25.0080216666667","6500400","永和區"
"234017","745-BX","2018/07/03 20:10:04","新北市永和區文化路74號","121.514161666667","25.0151433333333","6500400","永和區"
"234030","746-BX","2018/07/03 20:05:47","新北市永和區民權路51號","121.520116666667","24.997105","6500400","永和區"
"234054","KEA-2590","2018/07/03 20:02:39","新北市永和區博愛街45巷2號","121.519276666667","25.0158566666667","6500400","永和區"
"234013","KEA-2591","2018/07/03 20:10:16","新北市永和區永貞路387號","121.50802","25.0086666666667","6500400","永和區"
"234061","AAD-866","2018/07/03 20:06:24","新北市永和區中正路151巷5弄2-1號","121.515691666667","24.9986883333333","6500400","永和區"
"234086","847-RS","2018/07/03 20:03:25","新北市永和區福和路137號","121.521218333333","25.0077033333333","6500400","永和區"
"234042","862-TW","2018/07/03 20:06:12","新北市永和區雙和街64巷22弄1號","121.509673333333","25.0031716666667","6500400","永和區"
"234050","863-TW","2018/07/03 20:06:13","新北市永和區保安路292號","121.50522","25.01186","6500400","永和區"
"234026","9371-KE","2018/07/03 20:17:11","新北市永和區保順路8號","121.503985","25.0111783333333","6500400","永和區"
"234011","9373-KE","2018/07/03 20:16:10","新北市永和區仁愛路352巷114號","121.500401666667","25.0083033333333","6500400","永和區"
"249005","172-UM","2018/07/03 20:10:21","新北市八里區下罟子58-8號","121.387625","25.1379066666667","6502300","八里區"
"249001","173-UM","2018/07/03 20:12:19","新北市八里區中華路二段326號","121.40325","25.1479466666667","6502300","八里區"
"249004","303-UY","2018/07/03 20:15:01","新北市八里區中山路一段326號","121.412821666667","25.1590766666667","6502300","八里區"
"249002","305-UY","2018/07/03 20:10:53","新北市八里區龍米路一段3-6號","121.457108333333","25.11759","6502300","八里區"
"249003","759-BX","2018/07/03 20:09:59","新北市八里區中山路二段540巷9弄2號","121.396845","25.14717","6502300","八里區"
"248016","026-BX","2018/07/03 20:10:22","新北市五股區成泰路三段577巷80弄72號","121.448918333333","25.1047766666667","6501500","五股區"
"248008","095-VK","2018/07/03 20:10:59","新北市五股區中興路一段1巷27號","121.46983","25.070385","6501500","五股區"
"248012","247-BX","2018/07/03 20:11:35","新北市五股區六合街70號","121.431825","25.0901366666667","6501500","五股區"
"248014","261-SL","2018/07/03 20:07:57","新北市五股區五福路14巷26號","121.435441666667","25.08886","6501500","五股區"
"248010","272-BY","2018/07/03 20:06:37","新北市五股區成泰路一段7巷44號","121.43249","25.06716","6501500","五股區"
"248004","655-BX","2018/07/03 20:07:01","新北市五股區成泰路一段106-1號","121.435701666667","25.0718216666667","6501500","五股區"
"248002","678-BX","2018/07/03 20:04:53","新北市五股區成泰路三段318-1號","121.449486666667","25.09689","6501500","五股區"
"234023","9380-KE","2018/07/03 20:02:20","新北市永和區豫溪街57巷8弄1號","121.517475","25.0104016666667","6500400","永和區"
"234077","969-R7","2018/07/03 20:13:30","新北市永和區民享街23巷21號","121.516586666667","24.9954183333333","6500400","永和區"
"234074","AAC-211","2018/07/03 20:10:35","新北市永和區豫溪街134號","121.521051666667","25.010365","6500400","永和區"
"234067","AAC-212","2018/07/03 20:09:08","新北市永和區保平路214巷8弄2號","121.509535","25.0061983333333","6500400","永和區"
"234003","AAC-295","2018/07/03 20:10:08","新北市永和區中正路620號","121.517025","25.0078916666667","6500400","永和區"
"243013","AAD-798","2018/07/03 20:02:23","新北市泰山區應化街13號","121.423851666667","25.0437133333333","6501600","泰山區"
"243009","297-R6","2018/07/03 20:07:01","新北市泰山區泰林路二段142巷7弄7號","121.434485","25.060555","6501600","泰山區"
"243016","380-SR","2018/07/03 20:08:35","新北市泰山區貴陽街29號","121.4226","25.0334183333333","6501600","泰山區"
"243015","421-VK","2018/07/03 20:07:44","新北市泰山區明志路一段398號","121.430681666667","25.0572083333333","6501600","泰山區"
"243011","KEA-2215","2018/07/03 20:08:54","新北市泰山區明志路三段531巷5號","121.42086","25.0298433333333","6501600","泰山區"
"243010","KEA-2216","2018/07/03 20:07:31","新北市泰山區明志路二段136巷19號","121.426101666667","25.0519216666667","6501600","泰山區"
"243012","646-TV","2018/07/03 20:13:36","新北市泰山區楓江路162號","121.440773333333","25.0657283333333","6501600","泰山區"
"243014","680-BX","2018/07/03 20:07:43","新北市泰山區明志路一段24號","121.433608333333","25.0655333333333","6501600","泰山區"
"222002","016-RS","2018/07/03 20:15:08","新北市深坑區北深路三段206巷1弄18號","121.601593333333","25.0044366666667","6501800","深坑區"
"222003","436-BY","2018/07/03 20:08:29","新北市深坑區埔新街63號","121.620261666667","25.0024133333333","6501800","深坑區"
"231041","002-UM","2018/07/03 20:09:32","新北市新店區中正路468號","121.533941666667","24.9794166666667","6500600","新店區"
"231059","046-UY","2018/07/03 20:08:48","新北市新店區安成街27號","121.510078333333","24.96091","6500600","新店區"
"231040","047-UY","2018/07/03 20:05:49","新北市新店區中正路7號","121.545626666667","24.9692766666667","6500600","新店區"
"231044","106-UY","2018/07/03 20:17:40","新北市新店區北新路三段179號","121.540963333333","24.984195","6500600","新店區"
"231053","108-UY","2018/07/03 20:14:57","新北市新店區新烏路三段132號","121.552276666667","24.9030316666667","6500600","新店區"
"231050","110-UY","2018/07/03 20:17:15","新北市新店區中正路114號","121.54254","24.9708883333333","6500600","新店區"
"231048","187-VK","2018/07/03 20:12:31","新北市新店區永華街24號","121.544183333333","24.97596","6500600","新店區"
"231054","KEA-2219","2018/07/03 20:06:19","新北市新店區光明街290號","121.540451666667","24.9646816666667","6500600","新店區"
"221018","KEA-2785","2018/07/03 20:18:43","新北市汐止區茄安路33號","121.673343333333","25.0680983333333","6501100","汐止區"
"231057","256-BX","2018/07/03 20:12:39","新北市新店區花園一路一段2號","121.553081666667","24.93244","6500600","新店區"
"231042","268-BY","2018/07/03 20:13:59","新北市新店區中興路二段55號","121.546498333333","24.9702283333333","6500600","新店區"
"231051","278-BY","2018/07/03 20:10:23","新北市新店區中央六街5號","121.5303","24.97444","6500600","新店區"
"231058","3713-VJ","2018/07/03 20:12:20","新北市新店區安興路131巷2號","121.51559","24.97915","6500600","新店區"
"231066","4716-K9","2018/07/03 20:16:26","新北市新店區柴埕路34-1號","121.51353","24.9651983333333","6500600","新店區"
"231056","4715-K9","2018/07/03 20:11:14","新北市新店區中正路156號","121.541505","24.9717783333333","6500600","新店區"
"231067","4772-VM","2018/07/03 20:09:31","新北市新店區秀山路11巷18弄1號","121.531643333333","24.95901","6500600","新店區"
"231065","512-UM","2018/07/03 20:15:55","新北市新店區安祥路106巷36號","121.47741","24.96192","6500600","新店區"
"231049","513-UM","2018/07/03 20:02:24","新北市新店區明德路77號","121.54131","24.978145","6500600","新店區"
"231045","617-UM","2018/07/03 20:07:30","新北市新店區北宜路一段152-2號","121.540316666667","24.953815","6500600","新店區"
"231061","619-UM","2018/07/03 20:12:56","新北市新店區安民街133巷9號","121.516036666667","24.96921","6500600","新店區"
"231063","641-BX","2018/07/03 20:14:46","新北市新店區黎明路3號","121.503886666667","24.9525316666667","6500600","新店區"
"231068","718-UY","2018/07/03 20:16:59","新北市新店區民權路6號","121.542556666667","24.9829133333333","6500600","新店區"
"231064","719-UM","2018/07/03 20:02:05","新北市新店區安康路二段16巷48號","121.51678","24.9656483333333","6500600","新店區"
"231062","720-UM","2018/07/03 20:14:55","新北市新店區安豐路25號","121.501125","24.957145","6500600","新店區"
"231060","897-TW","2018/07/03 20:05:57","新北市新店區安康路三段242號","121.48781","24.9517516666667","6500600","新店區"
"231043","899-TW","2018/07/03 20:08:14","新北市新店區民族路190號","121.53641","24.9755583333333","6500600","新店區"
"231055","AKT-0513","2018/07/03 20:07:51","新北市新店區中華路48巷40號","121.54126","24.9694616666667","6500600","新店區"
"241011","013-R5","2018/07/03 20:05:35","新北市三重區三和路三段39號","121.49586","25.0713283333333","6500200","三重區"
"241028","022-UY","2018/07/03 20:13:10","新北市三重區中正南路155號","121.493895","25.0563483333333","6500200","三重區"
"241008","059-VK","2018/07/03 20:09:21","新北市三重區永福街197巷33號","121.478446666667","25.0743933333333","6500200","三重區"
"241022","060-VK","2018/07/03 20:11:46","新北市三重區重陽路二段1號","121.486846666667","25.06174","6500200","三重區"
"241031","061-VK","2018/07/03 20:18:21","新北市三重區過圳街9-1號","121.488728333333","25.0601333333333","6500200","三重區"
"241015","062-VK","2018/07/03 20:09:45","新北市三重區福德北路45號","121.502261666667","25.0649716666667","6500200","三重區"
"241017","063-VK","2018/07/03 20:17:53","新北市三重區自強路一段165號","121.49311","25.0672766666667","6500200","三重區"
"241024","065-VK","2018/07/03 20:16:49","新北市三重區中正北路248號","121.481548333333","25.0680266666667","6500200","三重區"
"241026","066-VK","2018/07/03 20:15:11","新北市三重區中央南路84號","121.501608333333","25.0608966666667","6500200","三重區"
"241002","090-VK","2018/07/03 20:14:22","新北市三重區仁義街225巷40號","121.49769","25.08304","6500200","三重區"
"241003","091-VK","2018/07/03 20:18:17","新北市三重區富華街29號","121.49052","25.083045","6500200","三重區"
"241007","742-BX","2018/07/03 20:08:32","新北市三重區三和路四段125巷38號","121.486076666667","25.0784116666667","6500200","三重區"
"241005","262-UM","2018/07/03 20:15:49","新北市三重區碧華街259號","121.489778333333","25.0831033333333","6500200","三重區"
"241020","265-UM","2018/07/03 20:02:14","新北市三重區大智街179巷15號","121.490486666667","25.0728433333333","6500200","三重區"
"241016","266-UM","2018/07/03 20:11:01","新北市三重區中正北路25巷8號","121.493441666667","25.0628383333333","6500200","三重區"
"241009","267-UM","2018/07/03 20:08:55","新北市三重區永福街123號","121.479106666667","25.0770483333333","6500200","三重區"
"241018","268-UM","2018/07/03 20:07:11","新北市三重區自強路一段157號","121.49347","25.0671633333333","6500200","三重區"
"241032","269-UM","2018/07/03 20:13:22","新北市三重區捷運路19巷4弄2號","121.485056666667","25.0564516666667","6500200","三重區"
"241013","270-UM","2018/07/03 20:13:45","新北市三重區三和路三段155號","121.492095","25.073765","6500200","三重區"
"241025","271-UM","2018/07/03 20:10:27","新北市三重區中正北路193巷43號","121.475695","25.0709383333333","6500200","三重區"
"241035","462-BY","2018/07/03 20:11:50","新北市三重區大榮街30號","121.498526666667","25.06347","6500200","三重區"
"241004","475-VK","2018/07/03 20:11:15","新北市三重區溪尾街96號","121.489735","25.0785633333333","6500200","三重區"
"241030","480-VK","2018/07/03 20:13:17","新北市三重區集美街69號","121.488481666667","25.0537716666667","6500200","三重區"
"241014","543-UM","2018/07/03 20:14:08","新北市三重區長樂街133-3號","121.50305","25.0697033333333","6500200","三重區"
"241023","545-UM","2018/07/03 20:10:14","新北市三重區頂崁街237號","121.477036666667","25.0685366666667","6500200","三重區"
"241001","547-UM","2018/07/03 20:08:56","新北市三重區溪尾街24-1號","121.491018333333","25.0764116666667","6500200","三重區"
"241019","KEA-2593","2018/07/03 20:11:45","新北市三重區自強路二段67巷39號","121.489735","25.0699283333333","6500200","三重區"
"241006","743-BX","2018/07/03 20:02:27","新北市三重區力行路二段121號","121.483043333333","25.076475","6500200","三重區"
"241012","941-UM","2018/07/03 20:15:22","新北市三重區河邊北街266號","121.50166","25.0765116666667","6500200","三重區"
"241029","942-UM","2018/07/03 20:10:37","新北市三重區光明路32巷38號","121.492231666667","25.0588616666667","6500200","三重區"
"235066","003-UY","2018/07/03 20:17:46","新北市中和區保平路293號","121.506423333333","25.0034933333333","6500300","中和區"
"235003","097-UM","2018/07/03 20:15:15","新北市中和區大勇街27巷10號","121.517028333333","24.9938716666667","6500300","中和區"
"235065","098-UM","2018/07/03 20:02:13","新北市中和區永和路90巷2弄14號","121.497826666667","25.0055166666667","6500300","中和區"
"235040","150-BY","2018/07/03 20:11:22","新北市中和區保健路33巷9號","121.509178333333","24.9979533333333","6500300","中和區"
"235058","151-BY","2018/07/03 20:06:42","新北市中和區員山路148巷19號","121.482051666667","24.9971633333333","6500300","中和區"
"235044","293-VK","2018/07/03 20:12:00","新北市中和區中正路760號","121.485196666667","24.9992866666667","6500300","中和區"
"235050","4979-A6","2018/07/03 20:09:38","新北市中和區景新街296號","121.511256666667","24.9920566666667","6500300","中和區"
"235069","4980-A6","2018/07/03 20:13:56","新北市中和區南山路127巷27弄14號","121.5034","24.9979316666667","6500300","中和區"
"235070","558-UM","2018/07/03 20:12:50","新北市中和區中正路910-2號","121.483843333333","25.0072433333333","6500300","中和區"
"235054","640-BX","2018/07/03 20:06:10","新北市中和區莒光路9號","121.471878333333","25.00583","6500300","中和區"
"235051","157-BY","2018/07/03 20:12:31","新北市中和區圓通路211巷2號","121.496903333333","24.9939016666667","6500300","中和區"
"235059","AAC-215","2018/07/03 20:05:28","新北市中和區圓通路335巷33弄17號","121.493048333333","24.98897","6500300","中和區"
"220068","013-TV","2018/07/03 20:04:12","新北市板橋區光復街103號","121.484145","25.0191033333333","6500100","板橋區"
"220055","015-TV","2018/07/03 20:04:27","新北市板橋區仁愛路76巷3弄2號","121.46066","24.9990933333333","6500100","板橋區"
"220106","075-UY","2018/07/03 20:02:30","新北市板橋區懷德街55號","121.477288333333","25.0327783333333","6500100","板橋區"
"220069","AAD-861","2018/07/03 20:04:22","新北市板橋區大明街25巷2弄23號","121.457516666667","25.0025066666667","6500100","板橋區"
"247024","893-R6","2018/07/03 20:13:14","新北市蘆洲區光榮路120巷8弄39號","121.464548333333","25.0879416666667","6501400","蘆洲區"
"247014","546-UM","2018/07/03 20:12:36","新北市蘆洲區中山二路174號","121.470618333333","25.08074","6501400","蘆洲區"
"247022","500-BY","2018/07/03 20:12:09","新北市蘆洲區保和街24號","121.470486666667","25.0867033333333","6501400","蘆洲區"
"247010","341-TH","2018/07/03 20:02:40","新北市蘆洲區集賢路232號","121.482223333333","25.0861066666667","6501400","蘆洲區"
"247012","339-TH","2018/07/03 20:07:52","新北市蘆洲區民族路262號","121.478885","25.08907","6501400","蘆洲區"
"247004","337-TH","2018/07/03 20:03:36","新北市蘆洲區長安街267巷27號","121.457296666667","25.0830933333333","6501400","蘆洲區"
"247006","336-TH","2018/07/03 20:11:01","新北市蘆洲區永安南路二段16巷8號","121.467738333333","25.07727","6501400","蘆洲區"
"247018","057-VK","2018/07/03 20:07:36","新北市蘆洲區民族路314巷1號","121.477236666667","25.0901466666667","6501400","蘆洲區"
"247008","056-VK","2018/07/03 20:14:36","新北市蘆洲區集賢路300號","121.481598333333","25.0851033333333","6501400","蘆洲區"
"247016","007-UY","2018/07/03 20:15:14","新北市蘆洲區和平路208號","121.465801666667","25.0822533333333","6501400","蘆洲區"
"247002","002-UY","2018/07/03 20:14:01","新北市蘆洲區永康街116號","121.458133333333","25.0853533333333","6501400","蘆洲區"
"247020","001-UY","2018/07/03 20:11:55","新北市蘆洲區民義街70號","121.47328","25.08987","6501400","蘆洲區"
"226004","205-ST","2018/07/03 20:11:56","新北市平溪區十分里十分街312號","121.774911666667","25.0437933333333","6502400","平溪區"
"224010","AGQ-8101","2018/07/03 20:04:10","新北市瑞芳區輕便路294-3號","121.843613333333","25.1091833333333","6501200","瑞芳區"
"224002","639-TC","2018/07/03 20:02:16","新北市瑞芳區蛇子形路7號","121.825988333333","25.1049966666667","6501200","瑞芳區"
"227003","400-TW","2018/07/03 20:11:42","新北市雙溪區牡丹里中正路58巷34號","121.86622","25.042005","6502500","雙溪區"
"222001","KEA-2212","2018/07/03 20:08:18","新北市深坑區北深路三段196號","121.601523333333","25.003695","6501800","深坑區"
"208002","KEA-2872","2018/07/03 20:08:40","新北市金山區中山路5-1號","121.64219","25.2167316666667","6502700","金山區"
"208003","665-BX","2018/07/03 20:07:06","新北市金山區海興路38號","121.630755","25.2384716666667","6502700","金山區"
"251004","009-UM","2018/07/03 20:12:24","新北市淡水區民族路31巷21-1號","121.461916666667","25.1365883333333","6501000","淡水區"
"251005","010-UM","2018/07/03 20:13:32","新北市淡水區淡金路一段158號","121.454641666667","25.1792766666667","6501000","淡水區"
"251001","011-UM","2018/07/03 20:18:03","新北市淡水區淡金路二段599號","121.445963333333","25.19247","6501000","淡水區"
"251002","012-UM","2018/07/03 20:10:58","新北市淡水區中正路314號","121.436998333333","25.1725","6501000","淡水區"
"251013","KEA-2871","2018/07/03 20:10:52","新北市淡水區水汴頭16-8號","121.46672","25.205135","6501000","淡水區"
"251016","179-VK","2018/07/03 20:11:02","新北市淡水區番子田20-2號","121.457758333333","25.2282266666667","6501000","淡水區"
"251014","180-VK","2018/07/03 20:17:53","新北市淡水區石頭厝1號","121.45873","25.2355216666667","6501000","淡水區"
"251015","181-VK","2018/07/03 20:10:51","新北市淡水區淡金路二段270-1號","121.44725","25.1885733333333","6501000","淡水區"
"251010","413-VK","2018/07/03 20:16:31","新北市淡水區中正路二段301號","121.426228333333","25.1902333333333","6501000","淡水區"
"251012","441-VK","2018/07/03 20:07:12","新北市淡水區淡金路三段185號","121.448666666667","25.20447","6501000","淡水區"
"251008","443-VK","2018/07/03 20:15:26","新北市淡水區淡海路111號","121.42171","25.1827416666667","6501000","淡水區"
"251006","561-UM","2018/07/03 20:16:46","新北市淡水區北新路169巷69號","121.448215","25.18053","6501000","淡水區"
"251009","575-R6","2018/07/03 20:11:52","新北市淡水區中山路93-2號","121.442268333333","25.17057","6501000","淡水區"
"251003","766-UM","2018/07/03 20:11:33","新北市淡水區中山北路一段281-6號","121.444623333333","25.18198","6501000","淡水區"
"207003","550-UM","2018/07/03 20:09:33","新北市萬里區大鵬里萬里加投180號","121.64303","25.2158533333333","6502800","萬里區"
"207004","225-TW","2018/07/03 20:11:02","新北市萬里區北基里愛三街11號","121.681808333333","25.1766533333333","6502800","萬里區"
"252002","178-VK","2018/07/03 20:15:12","新北市三芝區中正路一段18巷6號","121.503335","25.2589983333333","6502100","三芝區"
"252001","292-VK","2018/07/03 20:14:53","新北市三芝區中山路一段14號","121.500688333333","25.25806","6502100","三芝區"
"237014","433-BY","2018/07/03 20:10:20","新北市三峽區民生街17號","121.376221666667","24.9366733333333","6500900","三峽區"
"237006","5529-G3","2018/07/03 20:14:41","新北市三峽區嘉添137號","121.369205","24.911425","6500900","三峽區"
"237016","649-BX","2018/07/03 20:16:48","新北市三峽區介壽路二段138巷16號","121.39591","24.934225","6500900","三峽區"
"237005","AKY-6261","2018/07/03 20:13:23","新北市三峽區大學路86-2號","121.375583333333","24.9424983333333","6500900","三峽區"
"236070","105-UM","2018/07/03 20:13:26","新北市土城區大安路22號","121.432825","24.9663016666667","6501300","土城區"
"236042","107-UM","2018/07/03 20:03:32","新北市土城區學府路一段120巷5號","121.455005","24.98803","6501300","土城區"
"236079","166-UM","2018/07/03 20:03:11","新北市土城區三民路25號","121.420188333333","24.9636383333333","6501300","土城區"
"236030","253-BX","2018/07/03 20:05:11","新北市土城區中央路一段164-2號","121.445875","24.9868733333333","6501300","土城區"
"236026","269-VK","2018/07/03 20:07:39","新北市土城區裕生路102巷8號","121.4467","24.9846616666667","6501300","土城區"
"236038","271-VK","2018/07/03 20:07:30","新北市土城區延吉街355號","121.464565","24.9839983333333","6501300","土城區"
"236021","401-BY","2018/07/03 20:04:34","新北市土城區","121.47295","24.988225","6501300","土城區"
"236014","752-BX","2018/07/03 20:05:18","新北市土城區廣明街16號","121.455816666667","24.9922116666667","6501300","土城區"
"236059","912-UM","2018/07/03 20:08:27","新北市土城區中央路二段191號","121.44211","24.97547","6501300","土城區"
"236049","913-UM","2018/07/03 20:06:08","新北市土城區金城路三段153號","121.468726666667","24.988365","6501300","土城區"
"236063","915-UM","2018/07/03 20:05:38","新北市土城區延和路12巷13號","121.46451","24.987465","6501300","土城區"
"236055","AAC-216","2018/07/03 20:09:53","新北市土城區中華路一段166號","121.44146","24.9831633333333","6501300","土城區"
"242034","AAC-296","2018/07/03 20:03:56","新北市新莊區建中街80號","121.447288333333","25.036725","6500500","新莊區"
"242058","986-R7","2018/07/03 20:08:47","新北市新莊區八德街81號","121.42455","25.0218316666667","6500500","新莊區"
"242054","751-BX","2018/07/03 20:07:10","新北市新莊區西盛街395巷25弄1號","121.428623333333","25.0122966666667","6500500","新莊區"
"242025","613-BX","2018/07/03 20:09:20","新北市五股區五工一路115號","121.455556666667","25.074215","6500500","新莊區"
"242029","612-BX","2018/07/03 20:07:09","新北市新莊區中原路339號","121.445396666667","25.054785","6500500","新莊區"
"242042","566-BX","2018/07/03 20:02:45","新北市新莊區青山路一段28巷23號","121.410251666667","25.0279083333333","6500500","新莊區"
"242046","497-BY","2018/07/03 20:05:15","新北市新莊區福營路472號","121.41945","25.0243716666667","6500500","新莊區"
"242051","442-UM","2018/07/03 20:08:11","新北市新莊區民安西路172巷13號","121.425268333333","25.0160066666667","6500500","新莊區"
"242037","415-TV","2018/07/03 20:07:16","新北市新莊區後港一路130巷41號","121.429945","25.0258183333333","6500500","新莊區"
"242007","413-TV","2018/07/03 20:03:52","新北市新莊區福壽街202巷24號","121.459208333333","25.053695","6500500","新莊區"
"242044","400-BY","2018/07/03 20:02:08","新北市新莊區中正路929巷23號","121.411178333333","25.020065","6500500","新莊區"
"242023","362-BY","2018/07/03 20:03:39","新北市新莊區化成路528號","121.466201666667","25.0528683333333","6500500","新莊區"
"242061","353-BY","2018/07/03 20:06:34","新北市新莊區瓊林路瓊英巷9號","121.443363333333","25.0275233333333","6500500","新莊區"
"242009","132-UY","2018/07/03 20:05:33","新北市新莊區昌盛街24號","121.453916666667","25.049925","6500500","新莊區"
"242039","133-UY","2018/07/03 20:08:22","新北市新莊區民安西路108號","121.42675","25.0189266666667","6500500","新莊區"
"242032","135-UY","2018/07/03 20:05:46","新北市新莊區中正路437號","121.443291666667","25.034135","6500500","新莊區"
"242048","172-VK","2018/07/03 20:06:31","新北市新莊區四維路152巷15號","121.422325","25.02296","6500500","新莊區"
"242011","173-VK","2018/07/03 20:03:45","新北市新莊區中榮街74號","121.448378333333","25.0530533333333","6500500","新莊區"
"242017","175-VK","2018/07/03 20:07:33","新北市新莊區中港路379號","121.451693333333","25.0467583333333","6500500","新莊區"
"242005","176-VK","2018/07/03 20:09:39","新北市新莊區頭興街7巷1號","121.462683333333","25.0535566666667","6500500","新莊區"
"242015","346-TH","2018/07/03 20:05:49","新北市新莊區中平路26巷13號","121.445471666667","25.0433116666667","6500500","新莊區"
"242056","347-TH","2018/07/03 20:04:13","新北市新莊區新莊路496號","121.446373333333","25.03344","6500500","新莊區"
"242021","348-TH","2018/07/03 20:02:13","新北市新莊區建中街28號","121.449058333333","25.0375516666667","6500500","新莊區"
"242002","349-TH","2018/07/03 20:02:17","新北市新莊區中正路181號","121.453905","25.036445","6500500","新莊區"
"242019","350-TH","2018/07/03 20:06:32","新北市新莊區長青街9號","121.459185","25.0423416666667","6500500","新莊區"
"242013","351-TH","2018/07/03 20:04:46","新北市新莊區中港路483巷26號","121.45099","25.049645","6500500","新莊區"
"238015","755-BX","2018/07/03 20:02:25","新北市樹林區育德街78-1號","121.387836666667","24.968185","6500700","樹林區"
"238014","282-BY","2018/07/03 20:16:16","新北市樹林區育德街78-1號","121.387611666667","24.9682866666667","6500700","樹林區"
"221008","489-VK","2018/07/03 20:14:47","新北市汐止區康寧街15號","121.617971666667","25.067185","6501100","汐止區"
"221036","130-UY","2018/07/03 20:10:11","新北市汐止區新台五路二段39號","121.663176666667","25.0663783333333","6501100","汐止區"
"221015","131-UY","2018/07/03 20:14:25","新北市汐止區建成路160巷16號","121.661973333333","25.0739666666667","6501100","汐止區"
"221010","269-BY","2018/07/03 20:04:41","新北市汐止區八連路一段121號","121.642983333333","25.0796333333333","6501100","汐止區"
"221012","278-VK","2018/07/03 20:07:23","新北市汐止區汐平路一段168號","121.689373333333","25.0666866666667","6501100","汐止區"
"221023","279-VK","2018/07/03 20:09:46","新北市汐止區明峰街298巷7弄1號","121.62497","25.0687333333333","6501100","汐止區"
"221032","280-BY","2018/07/03 20:07:17","新北市汐止區弘道街9巷3弄2號","121.61693","25.0491583333333","6501100","汐止區"
"221027","281-BY","2018/07/03 20:10:28","新北市汐止區光明街15號","121.660551666667","25.06862","6501100","汐止區"
"221029","298-VK","2018/07/03 20:12:34","新北市汐止區樟樹一路99巷2弄12號","121.641126666667","25.0640066666667","6501100","汐止區"
"221021","299-VK","2018/07/03 20:09:29","新北市汐止區連興街140號","121.65391","25.0615216666667","6501100","汐止區"
"221031","353-TW","2018/07/03 20:05:43","新北市汐止區中興路214巷14號","121.631696666667","25.0665916666667","6501100","汐止區"
"221035","622-UM","2018/07/03 20:12:30","新北市汐止區長江街79巷16號","121.657975","25.072925","6501100","汐止區"
"221025","623-UM","2018/07/03 20:03:27","新北市汐止區秀峰路91號","121.660111666667","25.0639333333333","6501100","汐止區"
"221038","646-BX","2018/07/03 20:04:02","新北市汐止區大同路三段66號","121.667998333333","25.0771366666667","6501100","汐止區"
"221033","647-BX","2018/07/03 20:16:16","新北市汐止區東勢街201巷96號","121.633845","25.043065","6501100","汐止區"
"221002","707-TV","2018/07/03 20:15:18","新北市汐止區福德二路18號","121.635046666667","25.0681116666667","6501100","汐止區"
"220080","200-UY","2018/07/03 20:02:07","新北市板橋區大觀路二段169巷23號","121.446583333333","24.9997116666667","6500100","板橋區"
"220101","245-BX","2018/07/03 20:10:16","新北市板橋區莒光路171巷1弄18-4號","121.474501666667","25.0246716666667","6500100","板橋區"
"220072","277-BY","2018/07/03 20:07:43","新北市板橋區篤行路一段10號","121.432111666667","24.9955133333333","6500100","板橋區"
"220071","283-VK","2018/07/03 20:10:21","新北市土城區四川路22號","121.454751666667","24.996125","6500100","板橋區"
"220094","285-UM","2018/07/03 20:07:48","新北市板橋區雙十路三段22-1號","121.471283333333","25.03069","6500100","板橋區"
"220053","285-VK","2018/07/03 20:04:12","新北市板橋區永豐街107號","121.474026666667","25.019385","6500100","板橋區"
"220083","286-VK","2018/07/03 20:07:14","新北市板橋區僑中二街88巷28號","121.445006666667","25.0096333333333","6500100","板橋區"
"220081","287-VK","2018/07/03 20:02:17","新北市板橋區僑中一街124巷20弄46號","121.448191666667","25.0137033333333","6500100","板橋區"
"220061","293-UM","2018/07/03 20:03:12","新北市板橋區觀光街79巷2號","121.469406666667","25.0168916666667","6500100","板橋區"
"220062","305-R5","2018/07/03 20:05:21","新北市板橋區民治街61巷30號","121.481538333333","25.03453","6500100","板橋區"
"220092","307-R5","2018/07/03 20:08:02","新北市板橋區光正街45巷35號","121.461741666667","25.0157716666667","6500100","板橋區"
"220098","317-R6","2018/07/03 20:05:21","新北市板橋區新海路72巷13號","121.46244","25.0221283333333","6500100","板橋區"
"220064","486-VK","2018/07/03 20:04:43","新北市板橋區漢生東路193巷2號","121.47111","25.0119533333333","6500100","板橋區"
"220088","491-VK","2018/07/03 20:05:03","新北市板橋區仁化街131號","121.4771","25.0326933333333","6500100","板橋區"
"220103","561-BX","2018/07/03 20:05:38","新北市板橋區文化路一段421巷11弄15號","121.466868333333","25.0225966666667","6500100","板橋區"
"220093","689-BX","2018/07/03 20:06:06","新北市板橋區長江路二段280-8號","121.470008333333","25.0328733333333","6500100","板橋區"
"220054","741-BX","2018/07/03 20:05:33","新北市板橋區忠孝路忠義巷9弄46號","121.4652","25.0046183333333","6500100","板橋區"
"220102","KEA-2699","2018/07/03 20:08:23","新北市板橋區懷德街78巷21號","121.47786","25.031125","6500100","板橋區"
"220077","806-UM","2018/07/03 20:18:38","新北市林口區太平里180號","121.3684","25.1344766666667","6500100","板橋區"
"220067","829-TW","2018/07/03 20:05:42","新北市板橋區中山路一段206巷54號","121.471501666667","25.0129783333333","6500100","板橋區"
"220096","830-TW","2018/07/03 20:08:05","新北市板橋區莒光路158-2號","121.473851666667","25.0238083333333","6500100","板橋區"
"220089","833-TW","2018/07/03 20:02:35","新北市板橋區新海路385巷10弄11號","121.458066666667","25.0264983333333","6500100","板橋區"
"220074","895-R6","2018/07/03 20:04:24","新北市板橋區館前西路120號","121.456691666667","25.0076533333333","6500100","板橋區"
"220097","AAC-210","2018/07/03 20:04:57","新北市板橋區公館街100號","121.461363333333","25.016795","6500100","板橋區"
"220070","AAC-253","2018/07/03 20:07:12","新北市板橋區德興街38巷2號","121.453291666667","24.993675","6500100","板橋區"
"235068","KEA-2873","2018/07/03 20:09:23","新北市中和區福祥路85巷2弄3號","121.49864","25.0059383333333","6500300","中和區"
