"lineid","car","time","location","longitude","latitude","cityid","cityname"
"234077","969-R7","2018/07/03 21:49:30","新北市永和區環河東路二段56號","121.523443333333","25.0114483333333","6500400","永和區"
"241005","262-UM","2018/07/03 21:49:08","新北市三重區環河北路三段106號","121.494975","25.0868216666667","6500200","三重區"
"241014","543-UM","2018/07/03 21:49:28","新北市八里區下罟子8-10號","121.384343333333","25.1448066666667","6500200","三重區"
"241006","743-BX","2018/07/03 21:49:27","新北市八里區商港路48號","121.39459","25.1444916666667","6500200","三重區"
"251004","009-UM","2018/07/03 21:49:17","新北市淡水區民權路14號","121.462828333333","25.1246833333333","6501000","淡水區"
"251005","010-UM","2018/07/03 21:49:32","新北市淡水區鄧公路30巷22號","121.453311666667","25.1697433333333","6501000","淡水區"
"251001","011-UM","2018/07/03 21:49:23","新北市淡水區沙崙路二段112號","121.433173333333","25.1985083333333","6501000","淡水區"
"251002","012-UM","2018/07/03 21:49:38","新北市淡水區大忠街159號","121.44825","25.1765916666667","6501000","淡水區"
"251014","180-VK","2018/07/03 21:49:33","新北市淡水區淡金路二段600號","121.446451666667","25.192625","6501000","淡水區"
"251010","413-VK","2018/07/03 21:49:11","新北市淡水區中正路二段211號","121.42621","25.1890933333333","6501000","淡水區"
"251012","441-VK","2018/07/03 21:49:32","新北市淡水區淡金路三段305號","121.44905","25.20557","6501000","淡水區"
"251008","443-VK","2018/07/03 21:49:25","新北市淡水區學府路104號","121.44988","25.171765","6501000","淡水區"
"251006","561-UM","2018/07/03 21:49:26","新北市淡水區中正路11巷3號","121.437815","25.170765","6501000","淡水區"
"251009","575-R6","2018/07/03 21:49:32","新北市淡水區民族路35巷42號","121.465295","25.1370566666667","6501000","淡水區"
"251007","577-R6","2018/07/03 21:49:25","新北市淡水區水源街二段177巷100號","121.452156666667","25.17751","6501000","淡水區"
"251011","650-BX","2018/07/03 21:49:29","新北市淡水區新民街322巷9號","121.436398333333","25.18285","6501000","淡水區"
"251003","766-UM","2018/07/03 21:49:33","新北市淡水區新春街83號","121.43889","25.1824416666667","6501000","淡水區"
"220064","486-VK","2018/07/03 21:49:21","新北市新莊區新泰路255巷83號","121.442015","25.0388716666667","6500100","板橋區"
"220070","AAC-253","2018/07/03 21:49:32","新北市板橋區華東街1-9號","121.448258333333","24.99486","6500100","板橋區"
