"lineid","car","time","location","longitude","latitude","cityid","cityname"
"234005","207-UY","2018/07/03 22:00:51","新北市永和區福和路1號","121.526615","25.0101183333333","6500400","永和區"
"234066","AAC-212","2018/07/03 22:26:52","新北市永和區福和路1號","121.52638","25.0095983333333","6500400","永和區"
"247005","336-TH","2018/07/03 22:24:58","新北市五股區中興路三段2巷10號","121.449056666667","25.080845","6501400","蘆洲區"
"251004","009-UM","2018/07/03 22:29:17","新北市淡水區民族路33號","121.462318333333","25.1356916666667","6501000","淡水區"
"251001","011-UM","2018/07/03 22:29:23","新北市淡水區後洲路一段157號","121.427626666667","25.1983233333333","6501000","淡水區"
"251010","413-VK","2018/07/03 22:29:31","新北市淡水區沙崙路200號","121.42466","25.1838733333333","6501000","淡水區"
"251008","443-VK","2018/07/03 22:29:25","新北市淡水區學府路104號","121.449866666667","25.171815","6501000","淡水區"
"251011","650-BX","2018/07/03 22:29:29","新北市淡水區水碓街7號","121.443195","25.1771783333333","6501000","淡水區"
