"lineid","car","time","location","longitude","latitude","cityid","cityname"
"244003","656-BX","2018/05/26 11:19:18","新北市林口區粉寮69號","121.40477","25.0910066666667","6501700","林口區"
"231007","189-VK","2018/05/26 11:19:27","新北市新店區新潭路二段2號","121.527876666667","24.9270283333333","6500600","新店區"
"231008","192-VK","2018/05/26 11:19:18","新北市新店區松林路81號","121.547286666667","24.907305","6500600","新店區"
"235029","098-UM","2018/05/26 11:19:29","新北市中和區員山路36巷16-3號","121.485081666667","24.991305","6500300","中和區"
"227006","030-BX","2018/05/26 11:19:28","新北市雙溪區魚行里魚杭5號","121.88147","25.0263416666667","6502500","雙溪區"
