"lineid","car","time","location","longitude","latitude","cityid","cityname"
"234044","148-BY","2018/05/26 12:29:15","新北市永和區福和路1號","121.526443333333","25.009965","6500400","永和區"
"234078","298-R6","2018/05/26 12:29:29","新北市永和區環河東路三段60號","121.526796666667","25.005805","6500400","永和區"
"234084","338-UY","2018/05/26 12:29:12","新北市永和區環河東路二段92號","121.524166666667","25.0104766666667","6500400","永和區"
"234068","553-UM","2018/05/26 12:29:25","新北市永和區福和路8巷3號","121.524873333333","25.0090683333333","6500400","永和區"
"234015","745-BX","2018/05/26 12:29:28","新北市永和區福和路1號","121.52641","25.0096283333333","6500400","永和區"
"234040","862-TW","2018/05/26 12:29:25","新北市永和區豫溪街217巷1號","121.524805","25.0093633333333","6500400","永和區"
"234048","863-TW","2018/05/26 12:29:33","新北市永和區福和路1號","121.526745","25.0100416666667","6500400","永和區"
"234076","969-R7","2018/05/26 12:29:13","新北市永和區福和路1號","121.526573333333","25.009825","6500400","永和區"
"235029","098-UM","2018/05/26 12:29:29","新北市中和區員山路36巷16-3號","121.485026666667","24.99129","6500300","中和區"
"228005","097-TW","2018/05/26 12:29:30","新北市貢寮區福連里蓬萊街16號","121.984256666667","24.9947716666667","6502600","貢寮區"
"228004","212-TW","2018/05/26 12:29:27","新北市貢寮區貢寮里長泰路1號","121.906301666667","25.019245","6502600","貢寮區"
"207002","749-BX","2018/05/26 12:28:57","新北市萬里區雙興里太和路7-2號","121.658575","25.1738366666667","6502800","萬里區"
