"lineid","car","time","location","longitude","latitude","cityid","cityname"
"234025","9371-KE","2018/05/26 14:49:30","新北市永和區雙和街41號","121.50889","25.0024733333333","6500400","永和區"
"231002","002-UM","2018/05/26 14:49:30","新北市新店區民權路46-5號","121.539718333333","24.982995","6500600","新店區"
"231028","046-UY","2018/05/26 14:49:32","新北市新店區安成街31號","121.509776666667","24.96093","6500600","新店區"
"231001","047-UY","2018/05/26 14:49:29","新北市新店區三民路125號","121.534681666667","24.9723916666667","6500600","新店區"
"231005","106-UY","2018/05/26 14:49:26","新北市新店區復興路2號","121.532428333333","24.9882516666667","6500600","新店區"
"231020","108-UY","2018/05/26 14:49:24","新北市新店區梅崗一路9號","121.556585","24.929665","6500600","新店區"
"231012","187-VK","2018/05/26 14:49:24","新北市新店區寶橋路61號","121.545198333333","24.9750116666667","6500600","新店區"
"231023","KEA-2219","2018/05/26 14:49:28","新北市新店區檳榔路109號","121.544521666667","24.9616666666667","6500600","新店區"
"231026","256-BX","2018/05/26 14:49:34","新北市新店區安康路一段355-10號","121.520846666667","24.9638283333333","6500600","新店區"
"231003","268-BY","2018/05/26 14:49:22","新北市新店區中興路二段121巷1號","121.547446666667","24.9720716666667","6500600","新店區"
"231018","278-BY","2018/05/26 14:49:21","新北市新店區中央五街3-2號","121.530381666667","24.9744016666667","6500600","新店區"
"231017","AAD-862","2018/05/26 14:49:23","新北市新店區北宜路三段54號","121.57354","24.95142","6500600","新店區"
"231038","3712-VJ","2018/05/26 14:49:37","新北市新店區安華路28-1號","121.51965","24.9609483333333","6500600","新店區"
"231027","3713-VJ","2018/05/26 14:49:24","新北市新店區安和路三段1-1號","121.517133333333","24.9795416666667","6500600","新店區"
"231037","4716-K9","2018/05/26 14:49:23","新北市新店區安民街133巷26號","121.515461666667","24.969375","6500600","新店區"
"231025","4715-K9","2018/05/26 14:49:24","新北市新店區民族路161號","121.5376","24.9767366666667","6500600","新店區"
"231036","512-UM","2018/05/26 14:49:31","新北市新店區安祥路106巷28號","121.477665","24.96214","6500600","新店區"
"231013","513-UM","2018/05/26 14:49:27","新北市新店區北新路二段97巷9弄29號","121.542341666667","24.9734866666667","6500600","新店區"
"231034","616-UM","2018/05/26 14:49:17","新北市新店區安康路二段335號","121.49893","24.956375","6500600","新店區"
"231006","617-UM","2018/05/26 14:49:28","新北市新店區北宜路一段121-3號","121.540325","24.9538266666667","6500600","新店區"
"231030","619-UM","2018/05/26 14:49:19","新北市新店區安民街337號","121.517221666667","24.9749483333333","6500600","新店區"
"231039","718-UY","2018/05/26 14:49:28","新北市新店區安華路28-1號","121.519368333333","24.9609633333333","6500600","新店區"
"231035","719-UM","2018/05/26 14:49:21","新北市新店區安樂街16號","121.520835","24.973265","6500600","新店區"
"231033","720-UM","2018/05/26 14:49:29","新北市新店區安康路三段296號","121.487488333333","24.9518083333333","6500600","新店區"
"231029","897-TW","2018/05/26 14:49:25","新北市新店區錦秀路11巷12號","121.480973333333","24.944295","6500600","新店區"
"231004","899-TW","2018/05/26 14:49:19","新北市新店區民族路100號","121.539218333333","24.9781616666667","6500600","新店區"
"231024","AKT-0513","2018/05/26 14:49:24","新北市新店區力行路30號","121.539173333333","24.96473","6500600","新店區"
"235011","031-BX","2018/05/26 14:49:27","新北市中和區和平街84號","121.507593333333","24.9911383333333","6500300","中和區"
"235020","096-UM","2018/05/26 14:49:35","新北市中和區中山路三段114巷2號","121.476065","25.0064816666667","6500300","中和區"
"235003","097-UM","2018/05/26 14:49:25","新北市中和區安平路182號","121.512878333333","24.9989716666667","6500300","中和區"
"235029","098-UM","2018/05/26 14:49:29","新北市中和區橋和路284號","121.496501666667","25.0068533333333","6500300","中和區"
"235004","150-BY","2018/05/26 14:49:15","新北市中和區安平路30號","121.509581666667","24.9948033333333","6500300","中和區"
"235022","151-BY","2018/05/26 14:49:18","新北市中和區員山路132巷19號","121.482241666667","24.9963383333333","6500300","中和區"
"235019","183-VK","2018/05/26 14:49:23","新北市中和區民德路8-1號","121.468721666667","25.0029816666667","6500300","中和區"
"235013","186-VK","2018/05/26 14:49:32","新北市中和區中正路68-1號","121.500928333333","24.993835","6500300","中和區"
"235031","255-BX","2018/05/26 14:49:23","新北市中和區中正路998號","121.482518333333","25.008715","6500300","中和區"
"235008","293-VK","2018/05/26 14:49:22","新北市中和區南山路399巷9號","121.506935","24.990315","6500300","中和區"
"235036","301-VK","2018/05/26 14:49:29","新北市中和區保平路340巷18號","121.506076666667","25.00452","6500300","中和區"
"235007","352-BY","2018/05/26 14:49:35","新北市中和區安樂路49號","121.51199","24.9932866666667","6500300","中和區"
"235014","4979-A6","2018/05/26 14:49:19","新北市中和區景平路241巷84弄54號","121.506118333333","24.9923283333333","6500300","中和區"
"235033","4980-A6","2018/05/26 14:49:26","新北市中和區南山路37巷8弄1號","121.502611666667","24.9987916666667","6500300","中和區"
"235034","558-UM","2018/05/26 14:49:29","新北市中和區連勝街45號","121.498113333333","24.997555","6500300","中和區"
"235018","640-BX","2018/05/26 14:49:34","新北市土城區延壽路118-6號","121.469075","24.99469","6500300","中和區"
"235024","647-TV","2018/05/26 14:49:25","新北市中和區新生街30巷3號","121.482935","25.0038383333333","6500300","中和區"
"235010","733-UM","2018/05/26 14:49:34","新北市中和區仁愛街35號","121.510931666667","24.9886266666667","6500300","中和區"
"235026","800-TS","2018/05/26 14:49:27","新北市中和區中山路二段332巷1號","121.494388333333","25.0023583333333","6500300","中和區"
"235016","805-TS","2018/05/26 14:49:23","新北市中和區華新街192巷22弄23號","121.506991666667","24.9834066666667","6500300","中和區"
"235012","896-TW","2018/05/26 14:49:15","新北市新店區安和路三段134號","121.51637","24.9859616666667","6500300","中和區"
"235017","900-TW","2018/05/26 14:49:33","新北市中和區國光街215巷47號","121.467226666667","25.000475","6500300","中和區"
"235030","911-UM","2018/05/26 14:49:28","新北市中和區南工路48號","121.505838333333","25.0013966666667","6500300","中和區"
"235015","157-BY","2018/05/26 14:49:32","新北市中和區景安路198號","121.504238333333","24.9914333333333","6500300","中和區"
"235001","AAC-213","2018/05/26 14:49:29","新北市中和區自立路60號","121.523681666667","24.9915333333333","6500300","中和區"
"235023","AAC-215","2018/05/26 14:49:31","新北市中和區圓通路335巷4弄4號","121.49187","24.98978","6500300","中和區"
"220013","072-UY","2018/05/26 14:49:34","新北市板橋區民族路89號","121.466218333333","25.0083816666667","6500100","板橋區"
"220034","073-UY","2018/05/26 14:49:33","新北市板橋區中正路168號","121.456471666667","25.01704","6500100","板橋區"
"220105","075-UY","2018/05/26 14:49:16","新北市板橋區民治街61巷24號","121.480538333333","25.0334016666667","6500100","板橋區"
"220017","AAD-861","2018/05/26 14:49:33","新北市板橋區貴興路117號","121.455655","25.0023","6500100","板橋區"
"247015","007-UY","2018/05/26 14:49:19","新北市蘆洲區和平路208號","121.465741666667","25.0820783333333","6501400","蘆洲區"
"247001","002-UY","2018/05/26 14:49:34","新北市蘆洲區永康街2巷6號","121.45932","25.086135","6501400","蘆洲區"
"228005","097-TW","2018/05/26 14:49:30","新北市貢寮區美豐里丹裡街65號","121.90944","25.0589316666667","6502600","貢寮區"
"228004","212-TW","2018/05/26 14:49:27","新北市貢寮區福隆里龜壽谷街31號","121.94694","25.015065","6502600","貢寮區"
"253003","6232-TK","2018/05/26 14:49:30","新北市石門區尖子鹿116-1號","121.575098333333","25.2975633333333","6502200","石門區"
"253001","6251-TK","2018/05/26 14:49:19","新北市石門區崁子腳35-2號","121.539766666667","25.2698616666667","6502200","石門區"
"253002","637-UY","2018/05/26 14:49:31","新北市石門區楓林29-1號","121.542706666667","25.288815","6502200","石門區"
"253004","8270-PC","2018/05/26 14:49:24","新北市石門區茂林社區74-1號","121.591871666667","25.2671966666667","6502200","石門區"
"207002","749-BX","2018/05/26 14:49:16","新北市萬里區崁腳里崁腳路73號","121.647588333333","25.1596183333333","6502800","萬里區"
"252005","073-UM","2018/05/26 14:49:26","新北市三芝區埔坪里埔頭坑85號","121.507481666667","25.2543116666667","6502100","三芝區"
"207001","662-BX","2018/05/26 14:49:32","新北市萬里區雙興里二坪路1-1號","121.650831666667","25.1763633333333","6502800","萬里區"
"236068","105-UM","2018/05/26 14:49:37","新北市土城區明德路二段99巷2弄2號","121.450348333333","24.981015","6501300","土城區"
"236040","107-UM","2018/05/26 14:49:16","新北市土城區學府路一段256巷4弄7號","121.451035","24.985125","6501300","土城區"
"236074","166-UM","2018/05/26 14:49:34","新北市土城區中央路四段185巷23號","121.415618333333","24.9557816666667","6501300","土城區"
"236029","253-BX","2018/05/26 14:49:23","新北市土城區忠義路26巷10號","121.439905","24.9699016666667","6501300","土城區"
"236024","269-VK","2018/05/26 14:49:32","新北市土城區慶安街58號","121.440883333333","24.9731","6501300","土城區"
"236013","270-VK","2018/05/26 14:49:26","新北市土城區金城路二段356號","121.46172","24.9851433333333","6501300","土城區"
"236032","271-VK","2018/05/26 14:49:33","新北市土城區明德路一段164號","121.462911666667","24.9784516666667","6501300","土城區"
"236017","401-BY","2018/05/26 14:49:21","新北市土城區延安街1號","121.467211666667","24.9862316666667","6501300","土城區"
"236057","912-UM","2018/05/26 14:49:33","新北市土城區和平路51-1號","121.443311666667","24.97172","6501300","土城區"
"236045","913-UM","2018/05/26 14:49:37","新北市土城區青雲路113號","121.458805","24.9844233333333","6501300","土城區"
"236060","915-UM","2018/05/26 14:49:36","新北市土城區金城路三段149巷9號","121.468065","24.9887483333333","6501300","土城區"
"236054","AAC-216","2018/05/26 14:49:21","新北市土城區裕民路149號","121.451963333333","24.986065","6501300","土城區"
"221002","707-TV","2018/05/26 14:49:31","新北市汐止區青山路41-1號","121.656483333333","25.0612983333333","6501100","汐止區"
"220027","145-BY","2018/05/26 14:49:18","新北市板橋區中正路135巷12弄1號","121.455628333333","25.0156016666667","6500100","板橋區"
"220028","200-UY","2018/05/26 14:49:29","新北市板橋區大觀路二段59巷30號","121.447645","25.002285","6500100","板橋區"
"220030","610-BX","2018/05/26 14:49:33","新北市板橋區篤行路二段105號","121.4317","24.991245","6500100","板橋區"
"220050","245-BX","2018/05/26 14:49:21","新北市板橋區縣民大道三段79巷17號","121.475153333333","25.0221916666667","6500100","板橋區"
"220052","257-TC","2018/05/26 14:49:14","新北市板橋區陽明街29巷32號","121.46366","25.0227316666667","6500100","板橋區"
"220043","267-BY","2018/05/26 14:49:17","新北市板橋區溪頭街4-1號","121.457551666667","25.02894","6500100","板橋區"
"220020","277-BY","2018/05/26 14:49:20","新北市板橋區篤行路二段77巷9弄1號","121.432226666667","24.9918033333333","6500100","板橋區"
"220019","283-VK","2018/05/26 14:49:33","新北市板橋區五權街1-9號","121.46375","24.9952633333333","6500100","板橋區"
"220001","285-VK","2018/05/26 14:49:21","新北市板橋區中山路二段60巷1弄11號","121.474685","25.0155366666667","6500100","板橋區"
"220031","286-VK","2018/05/26 14:49:35","新北市板橋區僑中二街12巷34號","121.445393333333","25.010865","6500100","板橋區"
"220029","287-VK","2018/05/26 14:49:30","新北市板橋區僑中一街80巷12弄2號","121.448055","25.0130016666667","6500100","板橋區"
"220039","288-VK","2018/05/26 14:49:35","新北市板橋區龍泉街90巷3號","121.456131666667","25.02486","6500100","板橋區"
"220009","293-UM","2018/05/26 14:49:24","新北市板橋區觀光街55號","121.470511666667","25.0164866666667","6500100","板橋區"
"220010","295-UM","2018/05/26 14:49:15","新北市板橋區三民路二段29巷31弄1號","121.481376666667","25.0177366666667","6500100","板橋區"
"220032","296-UM","2018/05/26 14:49:19","新北市板橋區溪崑二街114號","121.426415","24.9883816666667","6500100","板橋區"
"220023","303-R5","2018/05/26 14:49:36","新北市板橋區金華街10巷48弄11號","121.457455","25.0199266666667","6500100","板橋區"
"220041","307-R5","2018/05/26 14:49:20","新北市板橋區四維路137巷11號","121.464478333333","25.0247416666667","6500100","板橋區"
"220047","317-R6","2018/05/26 14:49:28","新北市板橋區新海路385巷12號","121.458455","25.0258266666667","6500100","板橋區"
"220012","486-VK","2018/05/26 14:49:31","新北市板橋區光明街97號","121.464498333333","25.002855","6500100","板橋區"
"220037","491-VK","2018/05/26 14:49:29","新北市板橋區文聖街72-5號","121.477198333333","25.0304916666667","6500100","板橋區"
"220104","560-BX","2018/05/26 14:49:24","新北市板橋區金華街145號","121.459798333333","25.0210983333333","6500100","板橋區"
"220011","609-BX","2018/05/26 14:49:20","新北市板橋區林森街3巷2弄5號","121.482475","25.0235833333333","6500100","板橋區"
"220040","637-BX","2018/05/26 14:49:32","新北市板橋區懷德街127巷23弄31號","121.480265","25.0322233333333","6500100","板橋區"
"220005","686-BX","2018/05/26 14:49:16","新北市板橋區廣權路2號","121.460338333333","24.99083","6500100","板橋區"
"220025","687-BX","2018/05/26 14:49:35","新北市板橋區僑中一街112號","121.446281666667","25.0116716666667","6500100","板橋區"
"220042","689-BX","2018/05/26 14:49:34","新北市板橋區長江路一段423號","121.463146666667","25.0311816666667","6500100","板橋區"
"220002","741-BX","2018/05/26 14:49:23","新北市板橋區實踐路93巷38號","121.465543333333","25.0048633333333","6500100","板橋區"
"220051","KEA-2699","2018/05/26 14:49:15","新北市板橋區文化路二段410巷1弄2號","121.4744","25.0311783333333","6500100","板橋區"
"220003","827-TW","2018/05/26 14:49:21","新北市板橋區仁愛路76巷3弄1號","121.46065","24.9990933333333","6500100","板橋區"
"220014","829-TW","2018/05/26 14:49:35","新北市板橋區漢生東路193巷69弄1號","121.472306666667","25.01217","6500100","板橋區"
"220016","830-TW","2018/05/26 14:49:33","新北市板橋區光復街172巷2弄2號","121.485226666667","25.0194883333333","6500100","板橋區"
"220045","831-TW","2018/05/26 14:49:36","新北市板橋區文化路二段124巷34弄2號","121.471245","25.0253066666667","6500100","板橋區"
"220038","833-TW","2018/05/26 14:49:34","新北市板橋區龍泉街98-4號","121.456655","25.0250033333333","6500100","板橋區"
"220022","895-R6","2018/05/26 14:49:26","新北市板橋區府後街6號","121.458918333333","25.0103133333333","6500100","板橋區"
"220021","985-R7","2018/05/26 14:49:28","新北市板橋區南雅西路二段81號","121.452718333333","25.0102083333333","6500100","板橋區"
"220046","AAC-210","2018/05/26 14:49:32","新北市板橋區文化路一段285巷2弄28號","121.464191666667","25.0195783333333","6500100","板橋區"
"220018","AAC-253","2018/05/26 14:49:23","新北市板橋區民族路83號","121.465701666667","25.00858","6500100","板橋區"
"235032","KEA-2873","2018/05/26 14:49:29","新北市中和區福美路301巷25號","121.497648333333","25.0038983333333","6500300","中和區"
"235025","KEA-2875","2018/05/26 14:49:10","新北市中和區民安街2巷35弄10號","121.479785","25.0016433333333","6500300","中和區"
