"lineid","car","time","location","longitude","latitude","cityid","cityname"
"231028","046-UY","2018/05/26 15:59:30","新北市新店區安華路16號","121.516626666667","24.9579116666667","6500600","新店區"
"231020","108-UY","2018/05/26 15:59:24","新北市新店區環河路18號","121.53706","24.9614266666667","6500600","新店區"
"231012","187-VK","2018/05/26 15:59:22","新北市新店區中正路384號","121.534743333333","24.97699","6500600","新店區"
"231046","188-VK","2018/05/26 15:59:19","新北市新店區安康路一段259號","121.524428333333","24.9633833333333","6500600","新店區"
"231003","268-BY","2018/05/26 15:59:22","新北市新店區寶興路60巷3號","121.549988333333","24.971925","6500600","新店區"
"231018","278-BY","2018/05/26 15:59:21","新北市新店區中正路663巷1弄2號","121.532958333333","24.990045","6500600","新店區"
"231017","AAD-862","2018/05/26 15:59:22","新北市新店區中正路284巷4弄3號","121.538411666667","24.9747366666667","6500600","新店區"
"231038","3712-VJ","2018/05/26 15:59:17","新北市新店區柴埕路116號","121.504568333333","24.959605","6500600","新店區"
"231037","4716-K9","2018/05/26 15:59:30","新北市新店區吉安街10號","121.5168","24.965725","6500600","新店區"
"231034","616-UM","2018/05/26 15:59:17","新北市新店區富貴街20巷17號","121.49318","24.9476266666667","6500600","新店區"
"231030","619-UM","2018/05/26 15:59:19","新北市新店區永平街51巷1號","121.516176666667","24.9841983333333","6500600","新店區"
"231035","719-UM","2018/05/26 15:59:21","新北市新店區安民街303巷2號","121.517336666667","24.97376","6500600","新店區"
"241011","013-R5","2018/05/26 15:58:05","新北市三重區正義北路222號","121.496183333333","25.0677666666667","6500200","三重區"
"241028","022-UY","2018/05/26 15:59:25","新北市三重區電信街84號","121.49585","25.0582333333333","6500200","三重區"
"241008","059-VK","2018/05/26 15:59:27","新北市三重區重新路四段121號","121.48495","25.0523316666667","6500200","三重區"
"241031","061-VK","2018/05/26 15:59:35","新北市三重區重新路四段121號","121.484693333333","25.05229","6500200","三重區"
"241015","062-VK","2018/05/26 15:59:20","新北市三重區重新路四段121號","121.48517","25.0519366666667","6500200","三重區"
"241017","063-VK","2018/05/26 15:59:37","新北市三重區大仁街23號","121.491921666667","25.06462","6500200","三重區"
"241026","066-VK","2018/05/26 15:59:18","新北市三重區中正南路10號","121.49348","25.0605966666667","6500200","三重區"
"241002","090-VK","2018/05/26 15:59:36","新北市三重區河邊北街174巷1號","121.503155","25.0738066666667","6500200","三重區"
"241003","091-VK","2018/05/26 15:59:33","新北市三重區自強路五段106號","121.496845","25.0834966666667","6500200","三重區"
"241022","742-BX","2018/05/26 15:59:20","新北市三重區中正北路176巷1號","121.483186666667","25.066685","6500200","三重區"
"241005","262-UM","2018/05/26 15:59:24","新北市三重區集賢路2號","121.496118333333","25.0864933333333","6500200","三重區"
"241016","266-UM","2018/05/26 15:59:29","新北市三重區成功路108巷8號","121.485801666667","25.050385","6500200","三重區"
"241018","268-UM","2018/05/26 15:59:28","新北市三重區中正北路71巷5號","121.490858333333","25.0633383333333","6500200","三重區"
"241013","270-UM","2018/05/26 15:59:24","新北市三重區文化北路248號","121.497316666667","25.0699466666667","6500200","三重區"
"241025","271-UM","2018/05/26 15:59:29","新北市三重區三民街188號","121.481703333333","25.0658616666667","6500200","三重區"
"241007","398-BY","2018/05/26 15:59:28","新北市三重區慈愛街10號","121.484536666667","25.0783833333333","6500200","三重區"
"241030","413-TH","2018/05/26 15:59:21","新北市三重區重新路四段121號","121.48482","25.0524533333333","6500200","三重區"
"241019","462-BY","2018/05/26 15:59:27","新北市三重區重新路四段121號","121.48489","25.0519816666667","6500200","三重區"
"241004","475-VK","2018/05/26 15:59:23","新北市三重區仁義街241巷2號","121.496295","25.082965","6500200","三重區"
"241020","478-VK","2018/05/26 15:59:24","新北市三重區忠孝路二段95號","121.48429","25.0700066666667","6500200","三重區"
"241014","543-UM","2018/05/26 15:59:32","新北市三重區重新路四段121號","121.485073333333","25.0518816666667","6500200","三重區"
"241023","545-UM","2018/05/26 15:59:20","新北市三重區中正北路174號","121.483848333333","25.066505","6500200","三重區"
"241001","547-UM","2018/05/26 15:59:22","新北市三重區自強路四段32-2號","121.489066666667","25.0771083333333","6500200","三重區"
"241006","AAD-863","2018/05/26 15:59:35","新北市三重區永福街220號","121.483095","25.0745483333333","6500200","三重區"
"241024","887-TS","2018/05/26 15:59:25","新北市三重區力行路一段38巷27號","121.48542","25.06704","6500200","三重區"
"241012","941-UM","2018/05/26 15:59:26","新北市三重區文化北路118巷66號","121.497098333333","25.0660233333333","6500200","三重區"
"241029","942-UM","2018/05/26 15:59:34","新北市三重區大同南路212巷37號","121.497798333333","25.0566766666667","6500200","三重區"
"241033","AAC-255","2018/05/26 15:59:30","新北市三重區重新路五段440號","121.474753333333","25.04743","6500200","三重區"
"247006","053-VK","2018/05/26 15:33:40","新北市五股區中興路三段163號","121.449238333333","25.0806533333333","6501400","蘆洲區"
"224007","275-VK","2018/05/26 15:59:25","新北市瑞芳區楓子瀨路14號","121.772785","25.106905","6501200","瑞芳區"
"227010","642-TC","2018/05/26 15:59:20","新北市雙溪區三港里雙澳路32-2號","121.870635","25.049595","6502500","雙溪區"
"227002","400-TW","2018/05/26 15:59:32","新北市雙溪區平林里外平林71號","121.84233","25.0349483333333","6502500","雙溪區"
"251008","181-VK","2018/05/26 15:59:33","新北市淡水區中正路二段31號","121.419396666667","25.1817183333333","6501000","淡水區"
"236074","166-UM","2018/05/26 15:59:34","新北市土城區民族街26號","121.41882","24.963275","6501300","土城區"
"236057","912-UM","2018/05/26 15:59:33","新北市土城區大安路2號","121.432853333333","24.9654833333333","6501300","土城區"
"236045","913-UM","2018/05/26 15:59:36","新北市土城區永平街72號","121.427365","24.9591416666667","6501300","土城區"
