"lineid","car","time","location","longitude","latitude","cityid","cityname"
"231046","188-VK","2018/05/26 16:29:19","新北市新店區灣潭路3-2號","121.53829","24.950815","6500600","新店區"
"241011","013-R5","2018/05/26 16:29:32","新北市三重區龍濱路257號","121.501485","25.0728466666667","6500200","三重區"
"241028","022-UY","2018/05/26 16:29:25","新北市三重區同安街114巷18號","121.49427","25.0554666666667","6500200","三重區"
"241008","059-VK","2018/05/26 16:29:27","新北市三重區力行路二段136巷45弄10號","121.479106666667","25.0753083333333","6500200","三重區"
"241031","061-VK","2018/05/26 16:29:35","新北市三重區重陽路一段51號","121.486685","25.0583483333333","6500200","三重區"
"241015","062-VK","2018/05/26 16:29:40","新北市三重區福德北路36-1號","121.501808333333","25.0650966666667","6500200","三重區"
"241017","063-VK","2018/05/26 16:29:34","新北市三重區大同北路85號","121.494815","25.0636116666667","6500200","三重區"
"241026","066-VK","2018/05/26 16:29:18","新北市三重區光興街1號","121.500328333333","25.0603966666667","6500200","三重區"
"241002","090-VK","2018/05/26 16:29:36","新北市三重區五華街9-1號","121.495161666667","25.0801283333333","6500200","三重區"
"241003","091-VK","2018/05/26 16:29:33","新北市三重區仁義街228巷8號","121.494433333333","25.08453","6500200","三重區"
"241022","742-BX","2018/05/26 16:29:28","新北市三重區過圳街100號","121.486078333333","25.0620783333333","6500200","三重區"
"241005","262-UM","2018/05/26 16:29:24","新北市三重區溪尾街300-2號","121.487401666667","25.0837","6500200","三重區"
"241009","265-UM","2018/05/26 16:29:29","新北市三重區三和路四段191巷59號","121.483886666667","25.07958","6500200","三重區"
"241016","266-UM","2018/05/26 16:29:29","新北市三重區自強路一段160巷2弄28號","121.494868333333","25.065815","6500200","三重區"
"241018","268-UM","2018/05/26 16:29:28","新北市三重區重陽路三段49號","121.489611666667","25.0672883333333","6500200","三重區"
"241032","269-UM","2018/05/26 16:29:33","新北市三重區三陽路100巷3弄13號","121.48301","25.0580866666667","6500200","三重區"
"241013","270-UM","2018/05/26 16:29:24","新北市三重區仁愛街52號","121.495981666667","25.07281","6500200","三重區"
"241025","271-UM","2018/05/26 16:29:29","新北市三重區中正北路560巷100弄2號","121.472383333333","25.0682166666667","6500200","三重區"
"241007","398-BY","2018/05/26 16:29:28","新北市三重區三和路四段163巷157號","121.488223333333","25.0800566666667","6500200","三重區"
"241030","413-TH","2018/05/26 16:29:21","新北市三重區成功路117號","121.487563333333","25.0517983333333","6500200","三重區"
"241019","462-BY","2018/05/26 16:29:26","新北市三重區重陽路三段184號","121.490203333333","25.0681016666667","6500200","三重區"
"241004","475-VK","2018/05/26 16:29:23","新北市三重區仁愛街377巷60號","121.492578333333","25.0809666666667","6500200","三重區"
"241020","478-VK","2018/05/26 16:29:24","新北市三重區後竹圍街244號","121.48452","25.0713633333333","6500200","三重區"
"241014","543-UM","2018/05/26 16:29:32","新北市三重區河邊北街70-1號","121.504461666667","25.0682916666667","6500200","三重區"
"241023","545-UM","2018/05/26 16:29:20","新北市三重區忠孝路三段50巷45號","121.482855","25.0643116666667","6500200","三重區"
"241001","547-UM","2018/05/26 16:29:22","新北市三重區仁政街116號","121.492021666667","25.0781933333333","6500200","三重區"
"241006","AAD-863","2018/05/26 16:29:35","新北市三重區力行路二段125號","121.48316","25.0766516666667","6500200","三重區"
"241024","887-TS","2018/05/26 16:29:25","新北市三重區中正北路259號","121.475408333333","25.0710583333333","6500200","三重區"
"241012","941-UM","2018/05/26 16:29:06","新北市三重區河邊北街375號","121.501816666667","25.0763533333333","6500200","三重區"
"241029","942-UM","2018/05/26 16:29:34","新北市三重區集美街126巷15號","121.489595","25.0535383333333","6500200","三重區"
"241033","AAC-255","2018/05/26 16:29:30","新北市三重區重新路五段283號","121.478728333333","25.0488416666667","6500200","三重區"
"235046","733-UM","2018/05/26 16:29:34","新北市中和區員山路36巷13號","121.48415","24.9908383333333","6500300","中和區"
"247008","056-VK","2018/05/26 16:29:34","新北市五股區中興路三段2巷10號","121.449218333333","25.0808883333333","6501400","蘆洲區"
"224007","275-VK","2018/05/26 16:29:28","新北市瑞芳區瑞竹路77號","121.763846666667","25.1025566666667","6501200","瑞芳區"
"224005","271-BY","2018/05/26 16:29:37","新北市瑞芳區瑞濱路67號","121.822336666667","25.1208033333333","6501200","瑞芳區"
"227010","642-TC","2018/05/26 16:29:21","新北市雙溪區三港里雙澳路22號","121.869476666667","25.04992","6502500","雙溪區"
"227002","400-TW","2018/05/26 16:29:32","新北市雙溪區上林里內平林120-2號","121.82446","25.02626","6502500","雙溪區"
"251013","KEA-2871","2018/05/26 16:29:29","新北市淡水區北新路三段162號","121.49237","25.1914966666667","6501000","淡水區"
"251016","179-VK","2018/05/26 16:29:31","新北市淡水區中正路二段31號","121.41924","25.1822366666667","6501000","淡水區"
"251008","181-VK","2018/05/26 16:29:33","新北市淡水區樹梅坑10號","121.473888333333","25.142085","6501000","淡水區"
