"lineid","car","time","location","longitude","latitude","cityid","cityname"
"249005","172-UM","2018/05/26 16:59:18","新北市八里區渡船頭3-19號","121.433905","25.1516333333333","6502300","八里區"
"249001","173-UM","2018/05/26 16:59:24","新北市八里區中山路三段106號","121.391128333333","25.1422616666667","6502300","八里區"
"249004","303-UY","2018/05/26 16:59:34","新北市八里區挖子尾街6號","121.415628333333","25.1645133333333","6502300","八里區"
"249002","305-UY","2018/05/26 16:54:17","新北市八里區牛寮埔34號","121.430493333333","25.1454766666667","6502300","八里區"
"249003","593-UM","2018/05/26 16:59:33","新北市八里區中山路二段370號","121.400988333333","25.1481966666667","6502300","八里區"
"244007","080-UY","2018/05/26 16:59:25","新北市林口區中華路96號","121.38475","25.0904733333333","6501700","林口區"
"244023","483-VK","2018/05/26 16:59:27","新北市林口區粉寮路二段160巷28號","121.405166666667","25.0908116666667","6501700","林口區"
"244021","838-TS","2018/05/26 16:59:28","新北市林口區粉寮69號","121.404918333333","25.0910166666667","6501700","林口區"
"231046","188-VK","2018/05/26 16:59:39","新北市新店區直潭路25號","121.534021666667","24.9453733333333","6500600","新店區"
"241011","013-R5","2018/05/26 16:59:32","新北市三重區仁愛街55巷15號","121.498746666667","25.0726566666667","6500200","三重區"
"241028","022-UY","2018/05/26 16:59:25","新北市三重區中正南路30號","121.493658333333","25.0602133333333","6500200","三重區"
"241008","059-VK","2018/05/26 16:59:29","新北市三重區永安北路一段11巷26號","121.47766","25.0749166666667","6500200","三重區"
"241031","061-VK","2018/05/26 16:59:35","新北市三重區重新路三段115巷10號","121.490393333333","25.0602266666667","6500200","三重區"
"241015","062-VK","2018/05/26 16:59:27","新北市三重區三和路二段1號","121.50172","25.06647","6500200","三重區"
"241017","063-VK","2018/05/26 16:59:33","新北市三重區國隆路14號","121.492971666667","25.0638166666667","6500200","三重區"
"241026","066-VK","2018/05/26 16:59:18","新北市三重區文化南路42號","121.500396666667","25.0602816666667","6500200","三重區"
"241002","090-VK","2018/05/26 16:59:36","新北市三重區仁義街101巷2號","121.49759","25.0802616666667","6500200","三重區"
"241003","091-VK","2018/05/26 16:59:32","新北市三重區五華街141巷60號","121.493545","25.08683","6500200","三重區"
"241022","742-BX","2018/05/26 16:59:20","新北市三重區新北大道一段100巷29號","121.48535","25.062585","6500200","三重區"
"241005","262-UM","2018/05/26 16:59:24","新北市三重區仁華街118巷26弄23號","121.485153333333","25.08329","6500200","三重區"
"241009","265-UM","2018/05/26 16:59:29","新北市三重區仁美街108巷32號","121.484535","25.080315","6500200","三重區"
"241016","266-UM","2018/05/26 16:59:29","新北市三重區大同北路121巷2號","121.493743333333","25.064115","6500200","三重區"
"241018","268-UM","2018/05/26 16:59:28","新北市三重區六張街126巷25弄1號","121.492346666667","25.0688733333333","6500200","三重區"
"241032","269-UM","2018/05/26 16:59:33","新北市三重區三民街1號","121.485733333333","25.0604666666667","6500200","三重區"
"241013","270-UM","2018/05/26 16:59:34","新北市三重區仁孝街62號","121.497265","25.074565","6500200","三重區"
"241025","271-UM","2018/05/26 16:59:29","新北市三重區中正北路508巷13號","121.472726666667","25.070965","6500200","三重區"
"241007","398-BY","2018/05/26 16:59:28","新北市三重區三和路四段181巷223號","121.487495","25.080415","6500200","三重區"
"241030","413-TH","2018/05/26 16:59:21","新北市三重區昌隆街64號","121.491136666667","25.05104","6500200","三重區"
"241019","462-BY","2018/05/26 16:59:26","新北市三重區自強路二段74巷19號","121.488026666667","25.0699733333333","6500200","三重區"
"241004","475-VK","2018/05/26 16:59:23","新北市三重區五華街92巷19號","121.491546666667","25.08158","6500200","三重區"
"241020","478-VK","2018/05/26 16:59:24","新北市三重區後竹圍街175巷18號","121.485728333333","25.07257","6500200","三重區"
"241014","543-UM","2018/05/26 16:59:32","新北市三重區三和路二段173巷143號","121.501028333333","25.0706783333333","6500200","三重區"
"241023","545-UM","2018/05/26 16:59:20","新北市三重區新北大道一段252號","121.480166666667","25.0616133333333","6500200","三重區"
"241001","547-UM","2018/05/26 16:59:22","新北市三重區仁愛街170號","121.494205","25.0766466666667","6500200","三重區"
"241006","AAD-863","2018/05/26 16:59:35","新北市三重區車路頭街131巷16號","121.485038333333","25.0758783333333","6500200","三重區"
"241024","887-TS","2018/05/26 16:59:25","新北市三重區大勇街82巷26弄41號","121.478273333333","25.07194","6500200","三重區"
"241012","941-UM","2018/05/26 16:59:26","新北市三重區仁和街205號","121.500591666667","25.0749766666667","6500200","三重區"
"241029","942-UM","2018/05/26 16:59:34","新北市三重區中正南路260-1號","121.493206666667","25.05306","6500200","三重區"
"241033","AAC-255","2018/05/26 16:59:30","新北市三重區新北大道二段65號","121.469078333333","25.0609683333333","6500200","三重區"
"235046","733-UM","2018/05/26 16:30:07","新北市中和區員山路36巷13號","121.484111666667","24.990865","6500300","中和區"
"247024","893-R6","2018/05/26 16:59:39","新北市蘆洲區長興路202號","121.460568333333","25.0875233333333","6501400","蘆洲區"
"247014","546-UM","2018/05/26 16:59:34","新北市蘆洲區得勝街69巷20號","121.473961666667","25.0832216666667","6501400","蘆洲區"
"247010","341-TH","2018/05/26 16:59:37","新北市蘆洲區信義路154號","121.479293333333","25.0833266666667","6501400","蘆洲區"
"247004","337-TH","2018/05/26 16:59:23","新北市蘆洲區長安街137號","121.460845","25.081455","6501400","蘆洲區"
"247018","057-VK","2018/05/26 16:59:26","新北市蘆洲區民族路304號","121.477551666667","25.0899533333333","6501400","蘆洲區"
"247008","056-VK","2018/05/26 16:59:34","新北市蘆洲區信義路56號","121.475458333333","25.0796183333333","6501400","蘆洲區"
"247006","053-VK","2018/05/26 16:59:27","新北市蘆洲區永安南路二段232號","121.460668333333","25.07959","6501400","蘆洲區"
"247016","007-UY","2018/05/26 16:59:33","新北市蘆洲區光華路41巷18號","121.469555","25.0824583333333","6501400","蘆洲區"
"247020","001-UY","2018/05/26 16:59:22","新北市蘆洲區民族路422巷84號","121.473726666667","25.0939383333333","6501400","蘆洲區"
"228003","097-TW","2018/05/26 16:59:27","新北市貢寮區福隆里興隆街36號","121.942556666667","25.0165683333333","6502600","貢寮區"
"228001","212-TW","2018/05/26 16:59:37","新北市貢寮區貢寮里朝陽街1-2號","121.912213333333","25.0212416666667","6502600","貢寮區"
"228002","585-TW","2018/05/26 16:59:26","新北市貢寮區貢寮里朝陽街108號","121.908146666667","25.02233","6502600","貢寮區"
"224006","676-BX","2018/05/26 16:59:37","新北市瑞芳區大寮路23號","121.782741666667","25.0990083333333","6501200","瑞芳區"
"224008","285-BY","2018/05/26 16:59:39","新北市瑞芳區明燈路一段45巷2-1號","121.821068333333","25.1068966666667","6501200","瑞芳區"
"224007","275-VK","2018/05/26 16:59:25","新北市瑞芳區頂埔巷19號","121.765906666667","25.1030266666667","6501200","瑞芳區"
"224009","273-VK","2018/05/26 16:59:38","新北市瑞芳區濱二路24號","121.836526666667","25.11245","6501200","瑞芳區"
"224005","271-BY","2018/05/26 16:59:37","新北市瑞芳區南雅路81號","121.887171666667","25.12108","6501200","瑞芳區"
"227010","642-TC","2018/05/26 16:59:20","新北市雙溪區牡丹里中正路103號","121.86219","25.04791","6502500","雙溪區"
"227002","400-TW","2018/05/26 16:59:32","新北市雙溪區長源里柑腳28號","121.804375","25.0140933333333","6502500","雙溪區"
"251009","008-UM","2018/05/26 16:59:25","新北市淡水區中正路一段68號","121.42521","25.177","6501000","淡水區"
"251005","010-UM","2018/05/26 16:59:28","新北市淡水區原德路13號","121.4422","25.1713766666667","6501000","淡水區"
"251013","KEA-2871","2018/05/26 16:59:29","新北市淡水區泉洲厝32號","121.489295","25.19255","6501000","淡水區"
"251016","179-VK","2018/05/26 16:59:31","新北市淡水區瓦坑6-1號","121.477658333333","25.18112","6501000","淡水區"
"251014","180-VK","2018/05/26 16:59:34","新北市淡水區淡金路四段472巷24號","121.452921666667","25.22399","6501000","淡水區"
"251008","181-VK","2018/05/26 16:59:33","新北市淡水區樹梅坑9號","121.47277","25.1426133333333","6501000","淡水區"
"251015","182-VK","2018/05/26 16:59:34","新北市淡水區忠愛街9-1號","121.456758333333","25.1744483333333","6501000","淡水區"
"251010","413-VK","2018/05/26 16:59:31","新北市淡水區新市二路三段16號","121.432015","25.1939533333333","6501000","淡水區"
"251007","442-VK","2018/05/26 16:59:27","新北市淡水區中正東路二段121號","121.459476666667","25.1502066666667","6501000","淡水區"
"251012","443-VK","2018/05/26 16:59:25","新北市淡水區沙崙路228號","121.425448333333","25.1845383333333","6501000","淡水區"
"251006","561-UM","2018/05/26 16:59:19","新北市淡水區真理街1號","121.438191666667","25.1729","6501000","淡水區"
"251011","650-BX","2018/05/26 16:59:32","新北市淡水區坪頂路49號","121.457885","25.1625766666667","6501000","淡水區"
"252002","178-VK","2018/05/26 16:59:22","新北市三芝區忠孝街173號","121.505418333333","25.2613866666667","6502100","三芝區"
"252001","292-VK","2018/05/26 16:59:38","新北市三芝區淡金路二段38-1號","121.502973333333","25.259955","6502100","三芝區"
"242053","751-BX","2018/05/26 16:59:24","新北市新莊區新泰路357巷3弄57號","121.441956666667","25.03908","6500500","新莊區"
"242029","612-BX","2018/05/26 16:59:18","新北市新莊區新泰路255巷83號","121.442146666667","25.0391116666667","6500500","新莊區"
"242042","566-BX","2018/05/26 16:59:38","新北市新莊區新泰路255巷83號","121.442063333333","25.0390416666667","6500500","新莊區"
"242036","415-TV","2018/05/26 16:59:19","新北市新莊區新泰路357巷3弄57號","121.441951666667","25.0392966666667","6500500","新莊區"
"242023","362-BY","2018/05/26 16:59:34","新北市新莊區新泰路255巷83號","121.442446666667","25.03866","6500500","新莊區"
"242017","175-VK","2018/05/26 16:59:36","新北市新莊區三和路12-21號","121.441956666667","25.03868","6500500","新莊區"
"242021","348-TH","2018/05/26 16:59:34","新北市新莊區新泰路357巷3弄57號","121.442053333333","25.0395133333333","6500500","新莊區"
"242013","351-TH","2018/05/26 16:59:20","新北市新莊區新泰路357巷3弄57號","121.442093333333","25.0395016666667","6500500","新莊區"
"238014","282-BY","2018/05/26 16:59:32","新北市樹林區育德街78-1號","121.388465","24.9680783333333","6500700","樹林區"
"239003","360-BY","2018/05/26 16:59:29","新北市鶯歌區二甲路12-2號","121.345648333333","24.9350066666667","6500800","鶯歌區"
"239007","292-BY","2018/05/26 16:59:25","新北市鶯歌區二甲路12-2號","121.345731666667","24.9351883333333","6500800","鶯歌區"
"242002","KEA-2550","2018/05/26 16:59:27","新北市新莊區三和路12-18號","121.442226666667","25.0375983333333","6500500","新莊區"
