"lineid","car","time","location","longitude","latitude","cityid","cityname"
"234046","148-BY","2018/05/26 19:59:40","新北市永和區成功路一段2號","121.527015","25.00566","6500400","永和區"
"234007","207-UY","2018/05/26 19:59:39","新北市永和區保生路22巷17號","121.507035","25.0081466666667","6500400","永和區"
"234081","298-R6","2018/05/26 19:59:29","新北市永和區林森路62號","121.523843333333","25.00438","6500400","永和區"
"234038","336-UY","2018/05/26 19:59:26","新北市永和區成功路二段171號","121.526583333333","24.9969433333333","6500400","永和區"
"234064","337-UY","2018/05/26 19:59:28","新北市永和區中正路368巷1弄47號","121.519163333333","25.0012266666667","6500400","永和區"
"234086","338-UY","2018/05/26 19:59:23","新北市永和區福和路152號","121.521715","25.007985","6500400","永和區"
"234070","553-UM","2018/05/26 19:59:37","新北市永和區國光路6號","121.519658333333","25.00843","6500400","永和區"
"234017","745-BX","2018/05/26 19:59:38","新北市永和區文化路97號","121.513163333333","25.01518","6500400","永和區"
"234030","746-BX","2018/05/26 19:59:26","新北市永和區民生路22巷25號","121.521283333333","24.9969883333333","6500400","永和區"
"234054","KEA-2590","2018/05/26 19:59:40","新北市永和區環河東路一段122號","121.520696666667","25.0155633333333","6500400","永和區"
"234013","KEA-2591","2018/05/26 19:59:39","新北市永和區保生路55號","121.504685","25.010605","6500400","永和區"
"234061","AAD-866","2018/05/26 19:59:39","新北市永和區中正路283巷28號","121.516936666667","25.0006266666667","6500400","永和區"
"234042","862-TW","2018/05/26 19:59:43","新北市永和區中和路335巷18弄14號","121.507835","25.00033","6500400","永和區"
"234050","863-TW","2018/05/26 19:59:22","新北市永和區保安路250號","121.506371666667","25.0125766666667","6500400","永和區"
"234026","9371-KE","2018/05/26 19:59:29","新北市永和區水源街21巷14弄3號","121.51144","25.0037716666667","6500400","永和區"
"234011","9373-KE","2018/05/26 19:59:28","新北市永和區仁愛路352巷114號","121.50052","25.0081833333333","6500400","永和區"
"249005","172-UM","2018/05/26 19:59:37","新北市八里區楓林路3-4號","121.381635","25.1295833333333","6502300","八里區"
"249001","173-UM","2018/05/26 19:59:23","新北市八里區中華路二段249-1號","121.403915","25.14826","6502300","八里區"
"249004","303-UY","2018/05/26 19:59:33","新北市八里區中華路一段333-1號","121.412971666667","25.15426","6502300","八里區"
"249002","305-UY","2018/05/26 19:59:35","新北市八里區龍米路一段87巷35-4號","121.452455","25.1231966666667","6502300","八里區"
"249003","593-UM","2018/05/26 19:59:21","新北市八里區中華路二段538-3號","121.398871666667","25.14504","6502300","八里區"
"248014","025-BX","2018/05/26 19:59:43","新北市五股區五福路14巷26號","121.43547","25.0889016666667","6501500","五股區"
"248016","026-BX","2018/05/26 19:59:29","新北市五股區成泰路三段577巷80弄54號","121.449735","25.1049633333333","6501500","五股區"
"248008","095-VK","2018/05/26 19:59:42","新北市五股區中興路一段1巷13號","121.46965","25.07147","6501500","五股區"
"248020","225-UY","2018/05/26 19:59:37","新北市五股區凌雲路三段9號","121.431011666667","25.106565","6501500","五股區"
"248012","247-BX","2018/05/26 19:59:33","新北市五股區民義路一段84號","121.436016666667","25.0849583333333","6501500","五股區"
"248010","272-BY","2018/05/26 19:59:30","新北市五股區登林路75號","121.428333333333","25.0698316666667","6501500","五股區"
"248004","677-BX","2018/05/26 19:59:41","新北市五股區成泰路一段32巷48號","121.434655","25.067135","6501500","五股區"
"248002","678-BX","2018/05/26 19:59:28","新北市五股區成泰路三段487號","121.450801666667","25.099315","6501500","五股區"
"234077","969-R7","2018/05/26 19:59:34","新北市永和區民有街26號","121.516758333333","24.9963283333333","6500400","永和區"
"234074","AAC-211","2018/05/26 19:59:43","新北市永和區豫溪街207巷5號","121.523486666667","25.0099633333333","6500400","永和區"
"234067","AAC-212","2018/05/26 19:59:36","新北市永和區保平路236巷15弄27號","121.507595","25.0067416666667","6500400","永和區"
"234003","AAC-295","2018/05/26 19:59:32","新北市永和區永和路二段37號","121.514551666667","25.0105583333333","6500400","永和區"
"243013","AAD-798","2018/05/26 19:37:31","新北市泰山區應化街7號","121.423866666667","25.0437216666667","6501600","泰山區"
"243009","297-R6","2018/05/26 19:59:37","新北市泰山區楓江路16巷13號","121.434028333333","25.0617716666667","6501600","泰山區"
"243016","380-SR","2018/05/26 19:59:43","新北市泰山區貴鳳街2號","121.421073333333","25.0311","6501600","泰山區"
"243015","421-VK","2018/05/26 19:59:31","新北市泰山區明志路二段194號","121.427358333333","25.0497033333333","6501600","泰山區"
"243011","KEA-2215","2018/05/26 19:59:30","新北市泰山區明志路三段182巷27號","121.423251666667","25.0392166666667","6501600","泰山區"
"243010","KEA-2216","2018/05/26 19:59:22","新北市泰山區中華街10巷2號","121.427973333333","25.05244","6501600","泰山區"
"243012","646-TV","2018/05/26 19:59:32","新北市泰山區明志路一段293號","121.431863333333","25.059615","6501600","泰山區"
"243014","680-BX","2018/05/26 19:59:25","新北市泰山區泰林路二段115號","121.434368333333","25.0594916666667","6501600","泰山區"
"222003","436-BY","2018/05/26 19:59:35","新北市深坑區埔新街14號","121.620746666667","25.0039466666667","6501800","深坑區"
"222002","659-BX","2018/05/26 19:59:21","新北市深坑區北深路二段55巷12弄23號","121.618461666667","25.00304","6501800","深坑區"
"231041","002-UM","2018/05/26 19:59:30","新北市新店區中正路351號","121.535231666667","24.9759633333333","6500600","新店區"
"231059","046-UY","2018/05/26 19:59:40","新北市新店區安和路一段15號","121.516836666667","24.9640566666667","6500600","新店區"
"231040","047-UY","2018/05/26 19:59:35","新北市新店區中正路75巷71號","121.543093333333","24.9689","6500600","新店區"
"231044","106-UY","2018/05/26 19:59:34","新北市新店區復興路27號","121.538936666667","24.9867016666667","6500600","新店區"
"231052","108-UY","2018/05/26 19:59:39","新北市新店區新烏路三段寶島巷2弄3號","121.551998333333","24.898615","6500600","新店區"
"231048","187-VK","2018/05/26 19:59:34","新北市新店區寶宏路36號","121.549495","24.9756683333333","6500600","新店區"
"231054","KEA-2219","2018/05/26 19:59:32","新北市新店區光明街125號","121.539418333333","24.9617816666667","6500600","新店區"
"231057","256-BX","2018/05/26 19:59:37","新北市新店區花園二路一段11號","121.55553","24.9325","6500600","新店區"
"231042","268-BY","2018/05/26 19:59:24","新北市新店區中興路一段292號","121.545903333333","24.9691766666667","6500600","新店區"
"231051","278-BY","2018/05/26 19:59:27","新北市新店區中央五街30號","121.528888333333","24.9747383333333","6500600","新店區"
"231050","AAD-862","2018/05/26 19:59:38","新北市新店區北宜路二段579巷13號","121.565498333333","24.9544316666667","6500600","新店區"
"231056","4715-K9","2018/05/26 19:59:32","新北市新店區北新路二段200號","121.542986666667","24.97683","6500600","新店區"
"231067","4772-VM","2018/05/26 19:59:26","新北市新店區溪洲路46號","121.532913333333","24.961215","6500600","新店區"
"231065","512-UM","2018/05/26 19:59:29","新北市新店區安祥路109巷151弄12號","121.478163333333","24.9588633333333","6500600","新店區"
"231049","513-UM","2018/05/26 19:59:36","新北市新店區明德路89號","121.54157","24.9783166666667","6500600","新店區"
"231063","616-UM","2018/05/26 19:59:35","新北市新店區黎明路52巷9號","121.502028333333","24.948785","6500600","新店區"
"231045","617-UM","2018/05/26 19:59:40","新北市新店區北宜路二段150-2號","121.558036666667","24.954015","6500600","新店區"
"231061","619-UM","2018/05/26 19:59:24","新北市新店區安民街304號","121.517676666667","24.9738266666667","6500600","新店區"
"231068","718-UY","2018/05/26 19:59:29","新北市新店區安康路一段355號","121.51997","24.963755","6500600","新店區"
"231064","719-UM","2018/05/26 19:59:40","新北市新店區碧安街6巷8號","121.517351666667","24.9677716666667","6500600","新店區"
"231062","720-UM","2018/05/26 19:59:35","新北市新店區華城路36巷1-5號","121.527531666667","24.9554066666667","6500600","新店區"
"231060","897-TW","2018/05/26 19:59:25","新北市新店區安康路二段393號","121.494391666667","24.9542","6500600","新店區"
"231043","899-TW","2018/05/26 19:59:39","新北市新店區中正路263-3號","121.53829","24.973735","6500600","新店區"
"231055","AKT-0513","2018/05/26 19:59:23","新北市新店區中華路83巷47號","121.53858","24.9676616666667","6500600","新店區"
"241011","013-R5","2018/05/26 19:59:21","新北市三重區三和路二段165號","121.497936666667","25.0695833333333","6500200","三重區"
"241028","022-UY","2018/05/26 19:59:20","新北市三重區中正南路41巷1號","121.493886666667","25.059875","6500200","三重區"
"241008","059-VK","2018/05/26 19:59:35","新北市三重區永福街179巷28號","121.478061666667","25.0748633333333","6500200","三重區"
"241031","061-VK","2018/05/26 19:59:35","新北市三重區重新路四段184巷16號","121.4871","25.0549633333333","6500200","三重區"
"241015","062-VK","2018/05/26 19:59:25","新北市三重區三和路二段8號","121.501158333333","25.066905","6500200","三重區"
"241017","063-VK","2018/05/26 19:59:33","新北市三重區自強路一段306號","121.491325","25.06843","6500200","三重區"
"241026","066-VK","2018/05/26 19:59:38","新北市三重區中央南路11號","121.501223333333","25.0627716666667","6500200","三重區"
"241002","090-VK","2018/05/26 19:59:36","新北市三重區五華街1巷2號","121.49558","25.0796916666667","6500200","三重區"
"241003","091-VK","2018/05/26 19:59:31","新北市三重區仁愛街425巷1號","121.490568333333","25.081615","6500200","三重區"
"241022","742-BX","2018/05/26 19:59:24","新北市三重區過圳街31巷2號","121.488958333333","25.0605733333333","6500200","三重區"
"241005","262-UM","2018/05/26 19:59:24","新北市三重區溪尾街325巷32號","121.488723333333","25.0835466666667","6500200","三重區"
"241009","265-UM","2018/05/26 19:59:28","新北市三重區三和路四段388-2號","121.482013333333","25.0790066666667","6500200","三重區"
"241016","266-UM","2018/05/26 19:59:28","新北市三重區正義北路28巷49號","121.49583","25.0632566666667","6500200","三重區"
"241018","268-UM","2018/05/26 19:59:27","新北市三重區正義北路244巷54號","121.494398333333","25.067775","6500200","三重區"
"241032","269-UM","2018/05/26 19:59:41","新北市三重區捷運路65號","121.48345","25.0555866666667","6500200","三重區"
"241013","270-UM","2018/05/26 19:59:32","新北市三重區三和路三段125巷42號","121.494036666667","25.0737616666667","6500200","三重區"
"241025","271-UM","2018/05/26 19:59:24","新北市三重區頂崁街210巷20號","121.476293333333","25.0678383333333","6500200","三重區"
"241007","398-BY","2018/05/26 19:59:28","新北市三重區慈愛街133號","121.48878","25.0799","6500200","三重區"
"241035","KEA-2210","2018/05/26 19:59:43","新北市三重區大榮街7號","121.498168333333","25.0630933333333","6500200","三重區"
"241030","413-TH","2018/05/26 19:59:37","新北市三重區重新路四段246號","121.485696666667","25.0535916666667","6500200","三重區"
"241019","462-BY","2018/05/26 19:59:26","新北市三重區重陽路四段18號","121.490813333333","25.0692483333333","6500200","三重區"
"241004","475-VK","2018/05/26 19:59:33","新北市三重區仁愛街425巷91-1號","121.492263333333","25.0826716666667","6500200","三重區"
"241020","478-VK","2018/05/26 19:59:24","新北市三重區忠孝路一段87號","121.489851666667","25.07205","6500200","三重區"
"241014","543-UM","2018/05/26 19:59:31","新北市三重區三和路二段156號","121.499505","25.06841","6500200","三重區"
"241023","545-UM","2018/05/26 19:59:40","新北市三重區頂崁街166號","121.477578333333","25.0658466666667","6500200","三重區"
"241001","547-UM","2018/05/26 19:59:28","新北市三重區仁愛街269巷6-1號","121.493253333333","25.07886","6500200","三重區"
"241006","AAD-863","2018/05/26 19:59:35","新北市三重區力行路二段84號","121.48187","25.0739816666667","6500200","三重區"
"241024","887-TS","2018/05/26 19:59:33","新北市三重區力行路一段277號","121.482263333333","25.0715016666667","6500200","三重區"
"241012","941-UM","2018/05/26 19:59:32","新北市三重區仁厚街55號","121.500545","25.0766166666667","6500200","三重區"
"241029","942-UM","2018/05/26 19:59:24","新北市三重區重安街1號","121.489965","25.0583316666667","6500200","三重區"
"241033","AAC-255","2018/05/26 19:59:38","新北市三重區中興北街40-1號","121.469651666667","25.0490033333333","6500200","三重區"
"235047","031-BX","2018/05/26 19:59:36","新北市中和區和平街74號","121.507855","24.9911","6500300","中和區"
"235056","096-UM","2018/05/26 19:59:27","新北市中和區中山路三段170巷8弄15號","121.473021666667","25.00768","6500300","中和區"
"235039","097-UM","2018/05/26 19:59:39","新北市中和區大勇街27巷31號","121.51603","24.9938966666667","6500300","中和區"
"235065","098-UM","2018/05/26 19:59:29","新北市中和區莊敬路4號","121.499546666667","25.0042483333333","6500300","中和區"
"235040","150-BY","2018/05/26 19:59:23","新北市中和區保健路10巷12號","121.507633333333","24.9969216666667","6500300","中和區"
"235055","183-VK","2018/05/26 19:59:41","新北市中和區民生街12巷2號","121.470723333333","25.0056066666667","6500300","中和區"
"235049","186-VK","2018/05/26 19:59:33","新北市中和區南華路13號","121.502401666667","24.9955433333333","6500300","中和區"
"235067","255-BX","2018/05/26 19:59:28","新北市中和區新生街142號","121.483608333333","25.0009066666667","6500300","中和區"
"235044","293-VK","2018/05/26 19:59:33","新北市中和區南山路291號","121.504408333333","24.99203","6500300","中和區"
"235043","352-BY","2018/05/26 19:59:40","新北市中和區興南路二段159巷7號","121.505246666667","24.9832016666667","6500300","中和區"
"235050","4979-A6","2018/05/26 19:59:42","新北市中和區景平路155巷2弄1號","121.513396666667","24.9918383333333","6500300","中和區"
"235069","4980-A6","2018/05/26 19:59:39","新北市中和區景新街64巷11弄9號","121.504548333333","24.998245","6500300","中和區"
"235070","558-UM","2018/05/26 19:59:39","新北市中和區圓通路111號","121.499426666667","24.9964933333333","6500300","中和區"
"235054","640-BX","2018/05/26 19:59:32","新北市中和區莒光路23號","121.471928333333","25.0056066666667","6500300","中和區"
"235060","647-TV","2018/05/26 19:59:25","新北市中和區新生街45號","121.483506666667","25.0030166666667","6500300","中和區"
"235046","733-UM","2018/05/26 19:59:39","新北市中和區興南路一段93巷58弄3號","121.510598333333","24.9858466666667","6500300","中和區"
"235041","802-TS","2018/05/26 19:59:30","新北市中和區安平路144號","121.512291666667","24.998135","6500300","中和區"
"235052","805-TS","2018/05/26 19:59:33","新北市中和區華新街192巷22弄6號","121.50686","24.9833916666667","6500300","中和區"
"235048","896-TW","2018/05/26 19:59:30","新北市中和區景新街566-1號","121.514515","24.9865983333333","6500300","中和區"
"235066","911-UM","2018/05/26 19:59:42","新北市中和區中山路二段56號","121.504165","25.0048316666667","6500300","中和區"
"235051","157-BY","2018/05/26 19:59:32","新北市中和區復興路301巷2弄2號","121.501518333333","24.98996","6500300","中和區"
"235037","AAC-213","2018/05/26 19:59:24","新北市中和區自立路99巷1號","121.522083333333","24.9948433333333","6500300","中和區"
"235059","AAC-215","2018/05/26 19:59:39","新北市中和區圓通路335巷5弄1號","121.4928","24.9899433333333","6500300","中和區"
"220065","072-UY","2018/05/26 19:59:41","新北市板橋區中山路一段154巷3弄2號","121.465413333333","25.01038","6500100","板橋區"
"220086","073-UY","2018/05/26 19:59:37","新北市板橋區南雅西路二段7巷27號","121.451976666667","25.00942","6500100","板橋區"
"220106","075-UY","2018/05/26 19:59:37","新北市板橋區民治街61巷25號","121.480401666667","25.0335833333333","6500100","板橋區"
"220069","AAD-861","2018/05/26 19:59:34","新北市板橋區貴興路61號","121.457263333333","25.003115","6500100","板橋區"
"247024","893-R6","2018/05/26 19:59:33","新北市蘆洲區光榮路120巷8弄21號","121.4651","25.0882616666667","6501400","蘆洲區"
"247014","546-UM","2018/05/26 19:59:27","新北市蘆洲區成功路114號","121.472323333333","25.082425","6501400","蘆洲區"
"247012","339-TH","2018/05/26 19:59:18","新北市蘆洲區民族路155號","121.479383333333","25.087955","6501400","蘆洲區"
"247004","337-TH","2018/05/26 19:59:34","新北市蘆洲區長安街267巷9弄1號","121.458","25.0835283333333","6501400","蘆洲區"
"247008","056-VK","2018/05/26 19:59:34","新北市蘆洲區中山一路95巷22弄1號","121.477568333333","25.0802633333333","6501400","蘆洲區"
"247006","053-VK","2018/05/26 19:59:31","新北市蘆洲區九芎街109號","121.4657","25.0796716666667","6501400","蘆洲區"
"247016","007-UY","2018/05/26 19:59:25","新北市蘆洲區光華路10號","121.469803333333","25.083495","6501400","蘆洲區"
"247002","002-UY","2018/05/26 19:59:30","新北市蘆洲區長安街276號","121.457295","25.0871033333333","6501400","蘆洲區"
"247020","001-UY","2018/05/26 19:59:38","新北市蘆洲區民義街69號","121.47317","25.0900533333333","6501400","蘆洲區"
"228003","097-TW","2018/05/26 19:59:27","新北市貢寮區仁理村仁和路246號","121.924096666667","25.053955","6502600","貢寮區"
"224010","AGQ-8101","2018/05/26 19:59:28","新北市瑞芳區基山街213號","121.842545","25.1072716666667","6501200","瑞芳區"
"224002","639-TC","2018/05/26 19:59:29","新北市瑞芳區三爪子坑路93號","121.811285","25.1073383333333","6501200","瑞芳區"
"227010","642-TC","2018/05/26 19:59:24","新北市雙溪區新基里新基南街25號","121.866236666667","25.038135","6502500","雙溪區"
"227002","400-TW","2018/05/26 19:59:32","新北市雙溪區雙溪里長安街16號","121.864951666667","25.0347","6502500","雙溪區"
"222001","KEA-2212","2018/05/26 19:59:32","新北市深坑區北深路三段166號","121.602248333333","25.0033816666667","6501800","深坑區"
"208002","KEA-2872","2018/05/26 19:59:38","新北市金山區環金路159號","121.633826666667","25.2179","6502700","金山區"
"208003","665-BX","2018/05/26 19:59:34","新北市金山區永興里濆水路4號","121.623938333333","25.27106","6502700","金山區"
"208001","761-BX","2018/05/26 19:59:35","新北市金山區重和里林口10號","121.598665","25.21135","6502700","金山區"
"251009","008-UM","2018/05/26 19:59:24","新北市淡水區英專路28巷2弄2號","121.44583","25.169935","6501000","淡水區"
"251004","009-UM","2018/05/26 19:38:15","新北市淡水區中正東路二段143巷2弄1號","121.460543333333","25.147285","6501000","淡水區"
"251005","010-UM","2018/05/26 19:59:28","新北市淡水區學府路136巷33號","121.451703333333","25.1727233333333","6501000","淡水區"
"251013","KEA-2871","2018/05/26 19:59:29","新北市淡水區下圭柔山63-7號","121.4518","25.20616","6501000","淡水區"
"251016","179-VK","2018/05/26 19:59:34","新北市淡水區淡金路四段562號","121.451811666667","25.227635","6501000","淡水區"
"251014","180-VK","2018/05/26 19:59:34","新北市淡水區石頭厝14-53號","121.464138333333","25.236675","6501000","淡水區"
"251008","181-VK","2018/05/26 19:59:29","新北市淡水區淡海路76號","121.423065","25.1810066666667","6501000","淡水區"
"251015","182-VK","2018/05/26 19:59:34","新北市淡水區埤島80-7號","121.448928333333","25.1890666666667","6501000","淡水區"
"251010","413-VK","2018/05/26 19:59:31","新北市淡水區崁頂76-2號","121.431801666667","25.2043666666667","6501000","淡水區"
"251007","442-VK","2018/05/26 19:59:26","新北市淡水區淡金路39號","121.456321666667","25.1609583333333","6501000","淡水區"
"251012","443-VK","2018/05/26 19:59:25","新北市淡水區下圭柔山100-10號","121.440101666667","25.21177","6501000","淡水區"
"251001","559-UM","2018/05/26 19:59:31","新北市淡水區淡金路二段38號","121.45185","25.1815233333333","6501000","淡水區"
"251006","561-UM","2018/05/26 19:59:39","新北市淡水區北新路8號","121.444441666667","25.1774133333333","6501000","淡水區"
"251011","650-BX","2018/05/26 19:59:37","新北市淡水區崁頂55-3號","121.442261666667","25.1966716666667","6501000","淡水區"
"251003","673-BX","2018/05/26 19:59:40","新北市淡水區中山北路二段189巷15弄29號","121.443351666667","25.1842416666667","6501000","淡水區"
"207003","550-UM","2018/05/26 19:59:30","新北市萬里區磺潭里公館崙5號","121.641906666667","25.2142316666667","6502800","萬里區"
"207004","225-TW","2018/05/26 19:59:40","新北市萬里區北基里忠二街35號","121.685638333333","25.1757283333333","6502800","萬里區"
"252002","178-VK","2018/05/26 19:59:22","新北市三芝區忠孝街116-3號","121.50549","25.2575516666667","6502100","三芝區"
"252001","292-VK","2018/05/26 19:59:38","新北市三芝區公正街9號","121.499683333333","25.2575483333333","6502100","三芝區"
"237004","KEA-2597","2018/05/26 19:59:35","新北市三峽區添福29-1號","121.37314","24.9033283333333","6500900","三峽區"
"237007","153-BY","2018/05/26 19:59:31","新北市三峽區麻園35-2號","121.363476666667","24.9189316666667","6500900","三峽區"
"237009","210-TH","2018/05/26 19:59:28","新北市三峽區民族街28巷7號","121.368843333333","24.9307","6500900","三峽區"
"237012","275-BY","2018/05/26 19:59:36","新北市三峽區安溪路313號","121.371058333333","24.930665","6500900","三峽區"
"237008","302-VK","2018/05/26 19:59:23","新北市三峽區中正路一段174巷4弄26號","121.372858333333","24.92927","6500900","三峽區"
"237014","433-BY","2018/05/26 19:59:26","新北市三峽區正義街157號","121.368203333333","24.915135","6500900","三峽區"
"237006","5529-G3","2018/05/26 19:59:40","新北市三峽區中正路二段168號","121.366046666667","24.9158166666667","6500900","三峽區"
"237005","AKY-6261","2018/05/26 19:59:28","新北市三峽區民生街1巷7號","121.379738333333","24.93589","6500900","三峽區"
"236070","105-UM","2018/05/26 19:59:29","新北市土城區承天路101號","121.442925","24.9625466666667","6501300","土城區"
"236042","107-UM","2018/05/26 19:59:32","新北市土城區學府路一段107號","121.455845","24.9876933333333","6501300","土城區"
"236079","166-UM","2018/05/26 19:59:23","新北市土城區福安街106號","121.417345","24.9639366666667","6501300","土城區"
"236030","253-BX","2018/05/26 19:59:20","新北市土城區中央路一段250巷1號","121.44419","24.984625","6501300","土城區"
"236026","269-VK","2018/05/26 19:59:34","新北市土城區員林街1號","121.442236666667","24.9782416666667","6501300","土城區"
"236014","270-VK","2018/05/26 19:59:25","新北市土城區廣福街123號","121.456286666667","24.9929266666667","6501300","土城區"
"236038","271-VK","2018/05/26 19:59:33","新北市土城區國際路42巷2號","121.46616","24.9790716666667","6501300","土城區"
"236021","401-BY","2018/05/26 19:59:37","新北市土城區延吉街111巷12弄8號","121.47171","24.9858183333333","6501300","土城區"
"236059","912-UM","2018/05/26 19:59:26","新北市土城區中央路一段265號","121.44502","24.9853816666667","6501300","土城區"
"236049","913-UM","2018/05/26 19:59:35","新北市土城區金城路三段205-1號","121.470378333333","24.98928","6501300","土城區"
"236063","915-UM","2018/05/26 19:59:36","新北市土城區延和路64號","121.465763333333","24.989085","6501300","土城區"
"236055","AAC-216","2018/05/26 19:59:40","新北市土城區學府路一段51號","121.457511666667","24.9883283333333","6501300","土城區"
"242034","AAC-296","2018/05/26 19:59:31","新北市新莊區建中街109號","121.446263333333","25.036545","6500500","新莊區"
"242025","613-BX","2018/05/26 19:59:40","新北市新莊區五工一路87巷6號","121.461038333333","25.067375","6500500","新莊區"
"242029","612-BX","2018/05/26 19:59:38","新北市新莊區中榮街152巷20號","121.44614","25.0534533333333","6500500","新莊區"
"242042","566-BX","2018/05/26 19:59:38","新北市新莊區青山路一段8-2號","121.411625","25.027485","6500500","新莊區"
"242046","442-UM","2018/05/26 19:59:29","新北市新莊區裕民街19巷4號","121.419696666667","25.0252583333333","6500500","新莊區"
"242056","440-UM","2018/05/26 19:59:23","新北市新莊區新豐街20巷9號","121.44772","25.034405","6500500","新莊區"
"242036","415-TV","2018/05/26 19:59:34","新北市新莊區建安街37號","121.428963333333","25.0255666666667","6500500","新莊區"
"242007","413-TV","2018/05/26 19:59:39","新北市新莊區思源路585號","121.459695","25.05945","6500500","新莊區"
"242023","362-BY","2018/05/26 19:59:39","新北市新莊區化成路430號","121.465991666667","25.0511883333333","6500500","新莊區"
"242061","353-BY","2018/05/26 19:59:39","新北市新莊區瓊泰路19號","121.44432","25.0286083333333","6500500","新莊區"
"242039","133-UY","2018/05/26 19:59:33","新北市新莊區民安路296號","121.42817","25.02174","6500500","新莊區"
"242031","135-UY","2018/05/26 19:59:38","新北市新莊區公園一路61號","121.443105","25.03641","6500500","新莊區"
"242048","172-VK","2018/05/26 19:59:25","新北市新莊區民安路207巷4號","121.426561666667","25.0225533333333","6500500","新莊區"
"242011","173-VK","2018/05/26 19:59:36","新北市新莊區中港路531巷35號","121.4499","25.0514733333333","6500500","新莊區"
"242017","175-VK","2018/05/26 19:59:36","新北市新莊區中港路318號","121.45264","25.04571","6500500","新莊區"
"242004","176-VK","2018/05/26 19:59:41","新北市新莊區化成路219號","121.465938333333","25.0525166666667","6500500","新莊區"
"242015","346-TH","2018/05/26 19:59:29","新北市新莊區復興路一段33巷8號","121.44627","25.0422966666667","6500500","新莊區"
"242019","347-TH","2018/05/26 19:59:28","新北市新莊區民生街17號","121.45582","25.0422016666667","6500500","新莊區"
"242021","348-TH","2018/05/26 19:59:33","新北市新莊區建中街32巷4號","121.448915","25.03778","6500500","新莊區"
"242013","351-TH","2018/05/26 19:59:20","新北市新莊區中港路451號","121.452605","25.0484716666667","6500500","新莊區"
"238021","KEA-2539","2018/05/26 19:59:32","新北市樹林區佳園路三段101巷48-1號","121.39233","24.95069","6500700","樹林區"
"239006","891-R6","2018/05/26 19:59:31","新北市鶯歌區中正一路497號","121.376485","24.9619033333333","6500800","鶯歌區"
"239002","359-BY","2018/05/26 19:59:31","新北市鶯歌區中正一路465號","121.371763333333","24.95884","6500800","鶯歌區"
"221008","489-VK","2018/05/26 19:59:38","新北市汐止區忠一街9巷7號","121.620503333333","25.0732466666667","6501100","汐止區"
"221036","130-UY","2018/05/26 19:59:33","新北市汐止區新台五路二段85巷15號","121.664125","25.0672616666667","6501100","汐止區"
"221015","131-UY","2018/05/26 19:59:33","新北市汐止區建成路11號","121.66458","25.072455","6501100","汐止區"
"221010","269-BY","2018/05/26 19:59:34","新北市汐止區八連路一段197巷25號","121.64156","25.079285","6501100","汐止區"
"221012","278-VK","2018/05/26 19:59:22","新北市汐止區大同路三段248號","121.675938333333","25.072285","6501100","汐止區"
"221023","279-VK","2018/05/26 19:59:23","新北市汐止區明峰街198號","121.627868333333","25.0693916666667","6501100","汐止區"
"221032","280-BY","2018/05/26 19:59:21","新北市汐止區橫科路18巷9弄1號","121.617918333333","25.05074","6501100","汐止區"
"221027","281-BY","2018/05/26 19:59:28","新北市汐止區中正路97號","121.660948333333","25.0693533333333","6501100","汐止區"
"221029","298-VK","2018/05/26 19:59:24","新北市汐止區樟樹一路137巷26號","121.640955","25.06604","6501100","汐止區"
"221021","299-VK","2018/05/26 19:59:42","新北市汐止區水源路一段175號","121.655188333333","25.0618666666667","6501100","汐止區"
"221031","353-TW","2018/05/26 19:59:31","新北市汐止區福德一路176巷1弄1號","121.63561","25.0662833333333","6501100","汐止區"
"221035","622-UM","2018/05/26 19:59:24","新北市汐止區長江街57巷10號","121.656156666667","25.0719366666667","6501100","汐止區"
"221025","623-UM","2018/05/26 19:59:29","新北市汐止區秀峰路105-1號","121.66007","25.0634816666667","6501100","汐止區"
"221038","646-BX","2018/05/26 19:59:31","新北市汐止區忠孝東路462巷40號","121.666393333333","25.0740616666667","6501100","汐止區"
"221033","647-BX","2018/05/26 19:59:29","新北市汐止區東勢街201巷13號","121.634628333333","25.0432033333333","6501100","汐止區"
"221018","753-BX","2018/05/26 19:59:28","新北市汐止區茄苳路277號","121.672371666667","25.06789","6501100","汐止區"
"220079","145-BY","2018/05/26 19:59:27","新北市板橋區僑中一街124巷70-5號","121.448525","25.01672","6500100","板橋區"
"220080","200-UY","2018/05/26 19:59:41","新北市板橋區大觀路二段169巷1號","121.445433333333","25.0002766666667","6500100","板橋區"
"220101","245-BX","2018/05/26 19:59:28","新北市板橋區縣民大道三段33巷11號","121.473815","25.0208933333333","6500100","板橋區"
"220103","257-TC","2018/05/26 19:59:25","新北市板橋區自由路13號","121.465491666667","25.02271","6500100","板橋區"
"220094","267-BY","2018/05/26 19:59:32","新北市板橋區陽明街243號","121.462911666667","25.0245216666667","6500100","板橋區"
"220072","277-BY","2018/05/26 19:59:35","新北市板橋區金門街121巷1號","121.433318333333","24.9915716666667","6500100","板橋區"
"220071","283-VK","2018/05/26 19:59:30","新北市板橋區五權街30巷24弄25號","121.463683333333","24.99371","6500100","板橋區"
"220053","285-VK","2018/05/26 19:59:35","新北市板橋區永豐街53號","121.474066666667","25.0181066666667","6500100","板橋區"
"220083","286-VK","2018/05/26 19:59:40","新北市板橋區僑中二街56號","121.445903333333","25.0101966666667","6500100","板橋區"
"220081","287-VK","2018/05/26 19:59:27","新北市板橋區大觀路一段28巷75號","121.450081666667","25.0111616666667","6500100","板橋區"
"220090","288-VK","2018/05/26 19:59:32","新北市板橋區龍泉街82巷14弄23號","121.456015","25.02625","6500100","板橋區"
"220061","293-UM","2018/05/26 19:59:39","新北市板橋區縣民大道二段200巷3號","121.46979","25.0171616666667","6500100","板橋區"
"220062","295-UM","2018/05/26 19:59:35","新北市板橋區萬安街85巷18-1號","121.484148333333","25.0256333333333","6500100","板橋區"
"220075","303-R5","2018/05/26 19:59:34","新北市板橋區金華街10巷124號","121.459588333333","25.0205183333333","6500100","板橋區"
"220092","307-R5","2018/05/26 19:59:36","新北市板橋區四維路269巷83號","121.460053333333","25.02668","6500100","板橋區"
"220098","317-R6","2018/05/26 19:59:44","新北市板橋區漢生西路165巷1號","121.462788333333","25.0233333333333","6500100","板橋區"
"220035","461-BY","2018/05/26 19:59:23","新北市板橋區金華街21巷2號","121.456068333333","25.0207233333333","6500100","板橋區"
"220064","486-VK","2018/05/26 19:59:37","新北市板橋區民族路166號","121.464856666667","25.0084033333333","6500100","板橋區"
"242044","280-VK","2018/05/26 19:59:35","新北市新莊區中正路746巷37號","121.410958333333","25.0248933333333","6500500","新莊區"
"220088","491-VK","2018/05/26 19:59:26","新北市板橋區懷德街189-1號","121.479821666667","25.029565","6500100","板橋區"
"220091","637-BX","2018/05/26 19:59:35","新北市板橋區懷德街158巷5號","121.478553333333","25.030475","6500100","板橋區"
"220057","686-BX","2018/05/26 19:59:41","新北市板橋區南雅南路二段120-7號","121.45226","24.99946","6500100","板橋區"
"220093","689-BX","2018/05/26 19:59:26","新北市板橋區長江路三段118號","121.475168333333","25.0342683333333","6500100","板橋區"
"220054","741-BX","2018/05/26 19:59:28","新北市板橋區忠孝路忠義巷9弄1-1號","121.46513","25.0046333333333","6500100","板橋區"
"220102","KEA-2699","2018/05/26 19:59:33","新北市板橋區仁化街64巷14號","121.475685","25.0314866666667","6500100","板橋區"
"220055","827-TW","2018/05/26 19:59:30","新北市板橋區仁愛路62巷15弄2號","121.46002","24.9984783333333","6500100","板橋區"
"220067","829-TW","2018/05/26 19:59:33","新北市板橋區漢生東路163號","121.469456666667","25.01263","6500100","板橋區"
"220068","830-TW","2018/05/26 19:59:26","新北市板橋區光復街172巷4弄1號","121.485326666667","25.0193","6500100","板橋區"
"220096","831-TW","2018/05/26 19:59:31","新北市板橋區莒光路40巷9號","121.470271666667","25.0236483333333","6500100","板橋區"
"220089","833-TW","2018/05/26 19:59:40","新北市板橋區新海路403巷28號","121.457246666667","25.0261266666667","6500100","板橋區"
"220074","895-R6","2018/05/26 19:59:23","新北市板橋區縣民大道一段287號","121.460698333333","25.0101116666667","6500100","板橋區"
"220073","985-R7","2018/05/26 19:59:38","新北市板橋區南雅西路二段98-5號","121.452358333333","25.011475","6500100","板橋區"
"220097","AAC-210","2018/05/26 19:59:31","新北市板橋區國光路226號","121.462501666667","25.01854","6500100","板橋區"
"220070","AAC-253","2018/05/26 19:59:30","新北市板橋區四川路一段336號","121.456985","24.99713","6500100","板橋區"
"235068","KEA-2873","2018/05/26 19:59:40","新北市中和區福美路301巷42號","121.497811666667","25.0035033333333","6500300","中和區"
"235061","KEA-2875","2018/05/26 19:59:37","新北市中和區新生街176巷34號","121.482475","24.9997416666667","6500300","中和區"
