"lineid","car","time","location","longitude","latitude","cityid","cityname"
"234007","207-UY","2018/05/26 20:19:39","新北市永和區仁愛路352巷112弄26號","121.501978333333","25.0088233333333","6500400","永和區"
"234081","298-R6","2018/05/26 20:19:30","新北市永和區國中路132巷5號","121.523693333333","25.0071416666667","6500400","永和區"
"234038","336-UY","2018/05/26 20:19:26","新北市永和區成功路一段93巷12號","121.527618333333","25.002695","6500400","永和區"
"234064","337-UY","2018/05/26 20:19:28","新北市永和區得和路110號","121.518301666667","25.0000916666667","6500400","永和區"
"234086","338-UY","2018/05/26 20:19:23","新北市永和區永和路二段233號","121.515536666667","25.0141583333333","6500400","永和區"
"234070","553-UM","2018/05/26 20:19:27","新北市永和區永利路25號","121.518123333333","25.0060233333333","6500400","永和區"
"234017","745-BX","2018/05/26 20:19:41","新北市永和區仁愛路85號","121.513163333333","25.0132383333333","6500400","永和區"
"234030","746-BX","2018/05/26 20:19:26","新北市中和區自強路20號","121.52023","24.995455","6500400","永和區"
"234054","KEA-2590","2018/05/26 20:19:40","新北市永和區光復街2巷24號","121.517591666667","25.0165616666667","6500400","永和區"
"234013","KEA-2591","2018/05/26 20:19:39","新北市永和區仁愛路295號","121.50508","25.009125","6500400","永和區"
"234061","AAD-866","2018/05/26 20:19:25","新北市中和區安平路222號","121.51402","25.0000483333333","6500400","永和區"
"234042","862-TW","2018/05/26 20:19:21","新北市永和區中和路463號","121.509855","25.0016766666667","6500400","永和區"
"234050","863-TW","2018/05/26 20:19:42","新北市永和區文化路208號","121.51027","25.0166533333333","6500400","永和區"
"234011","9373-KE","2018/05/26 20:19:29","新北市永和區仁愛路352巷140號","121.499758333333","25.0089733333333","6500400","永和區"
"249005","172-UM","2018/05/26 20:19:37","新北市八里區下罟子1-16號","121.389811666667","25.1420333333333","6502300","八里區"
"249001","173-UM","2018/05/26 20:19:23","新北市八里區中華路二段538號","121.399085","25.1450383333333","6502300","八里區"
"249004","303-UY","2018/05/26 20:19:33","新北市八里區中山路一段129巷19-1號","121.413963333333","25.15863","6502300","八里區"
"249002","305-UY","2018/05/26 20:19:35","新北市八里區龍米路二段32巷15號","121.448968333333","25.14061","6502300","八里區"
"249003","593-UM","2018/05/26 20:19:26","新北市八里區訊塘路68號","121.39789","25.145925","6502300","八里區"
"248014","025-BX","2018/05/26 20:19:23","新北市八里區商港路105巷15號","121.388863333333","25.14733","6501500","五股區"
"248016","026-BX","2018/05/26 20:19:29","新北市五股區天乙路34號","121.448443333333","25.1035","6501500","五股區"
"248012","247-BX","2018/05/26 20:19:33","新北市五股區民義路一段206號","121.430535","25.08915","6501500","五股區"
"248010","272-BY","2018/05/26 20:19:30","新北市泰山區楓江路119號","121.439045","25.0643616666667","6501500","五股區"
"248004","677-BX","2018/05/26 20:19:40","新北市五股區成泰路一段239號","121.4369","25.0808066666667","6501500","五股區"
"248002","678-BX","2018/05/26 20:19:39","新北市五股區成泰路三段152號","121.444803333333","25.091235","6501500","五股區"
"234023","9380-KE","2018/05/26 20:19:40","新北市永和區復興街1巷6號","121.515833333333","25.0129633333333","6500400","永和區"
"234077","969-R7","2018/05/26 20:19:34","新北市永和區民享街9號","121.515326666667","24.9954183333333","6500400","永和區"
"234074","AAC-211","2018/05/26 20:19:23","新北市永和區豫溪街160巷2號","121.52325","25.009575","6500400","永和區"
"234067","AAC-212","2018/05/26 20:19:42","新北市永和區保平路246-1號","121.50905","25.005255","6500400","永和區"
"234003","AAC-295","2018/05/26 20:19:32","新北市永和區自強街6巷1弄5號","121.51452","25.0080766666667","6500400","永和區"
"243013","AAD-798","2018/05/26 20:19:27","新北市泰山區中央路5巷17弄22號","121.427346666667","25.043945","6501600","泰山區"
"243009","297-R6","2018/05/26 20:19:37","新北市泰山區泰林路二段115號","121.434408333333","25.05941","6501600","泰山區"
"243016","380-SR","2018/05/26 20:19:42","新北市泰山區明志路三段133號","121.424943333333","25.0404316666667","6501600","泰山區"
"243015","421-VK","2018/05/26 20:19:31","新北市泰山區全興路111號","121.433866666667","25.0565616666667","6501600","泰山區"
"243011","KEA-2215","2018/05/26 20:19:30","新北市新莊區明志路19號","121.419893333333","25.0292133333333","6501600","泰山區"
"243010","KEA-2216","2018/05/26 20:19:29","新北市泰山區明志路二段246巷4號","121.426455","25.0483233333333","6501600","泰山區"
"243012","646-TV","2018/05/26 20:19:32","新北市泰山區楓江路81號","121.436738333333","25.063515","6501600","泰山區"
"243014","680-BX","2018/05/26 20:19:41","新北市泰山區泰林路二段323號","121.429441666667","25.0632816666667","6501600","泰山區"
"222003","436-BY","2018/05/26 20:19:35","新北市深坑區文化街43號","121.617718333333","25.001855","6501800","深坑區"
"222002","659-BX","2018/05/26 20:19:42","新北市深坑區萬福路75巷48號","121.598256666667","25.0099333333333","6501800","深坑區"
"231041","002-UM","2018/05/26 20:19:30","新北市新店區民權路42號","121.540418333333","24.9829233333333","6500600","新店區"
"231059","046-UY","2018/05/26 20:19:40","新北市新店區安德街84號","121.510053333333","24.9614466666667","6500600","新店區"
"231040","047-UY","2018/05/26 20:19:35","新北市新店區三民路9號","121.53976","24.9723916666667","6500600","新店區"
"231044","106-UY","2018/05/26 20:19:34","新北市新店區北新路三段126號","121.541663333333","24.9817383333333","6500600","新店區"
"231052","108-UY","2018/05/26 20:19:39","新北市新店區松林路2號","121.54671","24.911055","6500600","新店區"
"231048","187-VK","2018/05/26 20:19:34","新北市新店區寶橋路132號","121.547373333333","24.9760783333333","6500600","新店區"
"231054","KEA-2219","2018/05/26 20:19:32","新北市新店區檳榔路109號","121.544293333333","24.9617766666667","6500600","新店區"
"231057","256-BX","2018/05/26 20:19:37","新北市新店區花園五路二段27號","121.554758333333","24.934745","6500600","新店區"
"231042","268-BY","2018/05/26 20:19:24","新北市新店區中興路二段192號","121.548316666667","24.9733816666667","6500600","新店區"
"231051","278-BY","2018/05/26 20:19:27","新北市新店區溪園路493號","121.524815","24.97736","6500600","新店區"
"231050","AAD-862","2018/05/26 20:19:38","新北市新店區博愛街6巷1號","121.541085","24.9732616666667","6500600","新店區"
"231058","3713-VJ","2018/05/26 20:19:37","新北市新店區中正路358號","121.53558","24.9757833333333","6500600","新店區"
"231066","4716-K9","2018/05/26 20:19:27","新北市新店區安興路102號","121.515175","24.976835","6500600","新店區"
"231056","4715-K9","2018/05/26 20:19:32","新北市新店區建安街33巷12號","121.538386666667","24.9754633333333","6500600","新店區"
"231067","4772-VM","2018/05/26 20:19:26","新北市新店區安華路28-1號","121.519746666667","24.9607733333333","6500600","新店區"
"231065","512-UM","2018/05/26 20:19:30","新北市新店區安祥路106巷163號","121.473706666667","24.959275","6500600","新店區"
"231049","513-UM","2018/05/26 20:19:43","新北市新店區北新路一段128號","121.542173333333","24.969985","6500600","新店區"
"231063","616-UM","2018/05/26 20:19:25","新北市新店區黎明路11號","121.501986666667","24.9497583333333","6500600","新店區"
"231045","617-UM","2018/05/26 20:19:20","新北市新店區中興路一段140號","121.542315","24.9637066666667","6500600","新店區"
"231061","619-UM","2018/05/26 20:19:25","新北市新店區安興路33-1號","121.515848333333","24.9704516666667","6500600","新店區"
"231068","718-UY","2018/05/26 20:19:29","新北市新店區寶安街18號","121.542101666667","24.981915","6500600","新店區"
"231064","719-UM","2018/05/26 20:19:20","新北市新店區安樂街16號","121.520816666667","24.9732816666667","6500600","新店區"
"231062","720-UM","2018/05/26 20:19:35","新北市新店區安泰路7巷16號","121.48569","24.95096","6500600","新店區"
"231060","897-TW","2018/05/26 20:19:25","新北市新店區錦秀路11巷94弄1號","121.48018","24.9422766666667","6500600","新店區"
"231043","899-TW","2018/05/26 20:19:39","新北市新店區建國路133號","121.539333333333","24.9782583333333","6500600","新店區"
"231055","AKT-0513","2018/05/26 20:19:23","新北市新店區北新路一段309號","121.541331666667","24.9679116666667","6500600","新店區"
"241011","013-R5","2018/05/26 20:19:41","新北市三重區龍門路195號","121.499671666667","25.07328","6500200","三重區"
"241028","022-UY","2018/05/26 20:19:40","新北市三重區大同南路111號","121.496303333333","25.05834","6500200","三重區"
"241008","059-VK","2018/05/26 20:19:35","新北市三重區永福街158號","121.480505","25.074515","6500200","三重區"
"241031","061-VK","2018/05/26 20:19:35","新北市三重區三寧街15號","121.489485","25.05976","6500200","三重區"
"241015","062-VK","2018/05/26 20:19:06","新北市三重區重新路一段118號","121.500493333333","25.062995","6500200","三重區"
"241017","063-VK","2018/05/26 20:19:33","新北市三重區自強路一段179號","121.492348333333","25.06776","6500200","三重區"
"241026","066-VK","2018/05/26 20:19:38","新北市三重區中央南路109號","121.501426666667","25.0601483333333","6500200","三重區"
"241002","090-VK","2018/05/26 20:19:36","新北市三重區仁義街101巷42號","121.499168333333","25.0808316666667","6500200","三重區"
"241003","091-VK","2018/05/26 20:19:31","新北市三重區富華街90號","121.49113","25.083505","6500200","三重區"
"241022","742-BX","2018/05/26 20:19:24","新北市三重區新北大道一段36號","121.488223333333","25.0613866666667","6500200","三重區"
"241005","262-UM","2018/05/26 20:19:24","新北市三重區仁愛街475號","121.48914","25.08235","6500200","三重區"
"241009","265-UM","2018/05/26 20:19:28","新北市三重區三和路四段382巷2號","121.481961666667","25.0785183333333","6500200","三重區"
"241016","266-UM","2018/05/26 20:19:28","新北市三重區大同北路97-3號","121.494356666667","25.0636383333333","6500200","三重區"
"241018","268-UM","2018/05/26 20:19:27","新北市三重區自強路一段236號","121.49324","25.067065","6500200","三重區"
"241032","269-UM","2018/05/26 20:19:41","新北市三重區捷運路37巷20號","121.484133333333","25.0569866666667","6500200","三重區"
"241013","270-UM","2018/05/26 20:19:32","新北市三重區三和路三段167巷1號","121.49199","25.0740833333333","6500200","三重區"
"241025","271-UM","2018/05/26 20:19:24","新北市三重區三民街281號","121.479081666667","25.0681866666667","6500200","三重區"
"241007","398-BY","2018/05/26 20:19:28","新北市三重區溪尾街108巷53號","121.487631666667","25.0782966666667","6500200","三重區"
"241035","KEA-2210","2018/05/26 20:19:23","新北市三重區正義北路33巷25號","121.498295","25.0637983333333","6500200","三重區"
"241030","413-TH","2018/05/26 20:19:37","新北市三重區環河南路254巷53號","121.487995","25.0522866666667","6500200","三重區"
"241019","462-BY","2018/05/26 20:19:26","新北市三重區忠孝路一段28號","121.491651666667","25.0718066666667","6500200","三重區"
"241004","475-VK","2018/05/26 20:19:33","新北市三重區自強路四段98號","121.491025","25.079805","6500200","三重區"
"241020","478-VK","2018/05/26 20:19:24","新北市三重區三和路三段170巷28號","121.49156","25.0726133333333","6500200","三重區"
"241014","543-UM","2018/05/26 20:19:31","新北市三重區長榮路75號","121.502641666667","25.0691466666667","6500200","三重區"
"241023","545-UM","2018/05/26 20:19:40","新北市三重區忠孝路三段54號","121.48063","25.0655633333333","6500200","三重區"
"241001","547-UM","2018/05/26 20:19:28","新北市三重區溪尾街42-8號","121.490513333333","25.0769766666667","6500200","三重區"
"241006","AAD-863","2018/05/26 20:19:35","新北市三重區車路頭街139巷12號","121.484218333333","25.07621","6500200","三重區"
"241024","887-TS","2018/05/26 20:19:33","新北市三重區忠孝路三段4號","121.481886666667","25.067495","6500200","三重區"
"241012","941-UM","2018/05/26 20:19:32","新北市三重區河邊北街379-1號","121.501745","25.0764883333333","6500200","三重區"
"241029","942-UM","2018/05/26 20:19:24","新北市三重區集美街227號","121.492126666667","25.0551833333333","6500200","三重區"
"241033","AAC-255","2018/05/26 20:19:38","新北市三重區五谷王北街50巷58號","121.474826666667","25.051355","6500200","三重區"
"235039","097-UM","2018/05/26 20:19:39","新北市中和區大勇街25巷11弄1號","121.516443333333","24.99337","6500300","中和區"
"235065","098-UM","2018/05/26 20:19:29","新北市中和區永和路128巷45號","121.497763333333","25.00683","6500300","中和區"
"235050","4979-A6","2018/05/26 20:19:42","新北市中和區景安路177巷10號","121.505813333333","24.99401","6500300","中和區"
"235069","4980-A6","2018/05/26 20:19:39","新北市中和區中正路432巷20號","121.491033333333","24.9953433333333","6500300","中和區"
"235066","911-UM","2018/05/26 20:19:42","新北市中和區南工路85巷2號","121.507095","25.00293","6500300","中和區"
"235059","AAC-215","2018/05/26 20:13:19","新北市中和區圓通路320號","121.487136666667","24.98822","6500300","中和區"
"247024","893-R6","2018/05/26 20:19:33","新北市蘆洲區光明路112巷29弄9號","121.46411","25.08765","6501400","蘆洲區"
"247014","546-UM","2018/05/26 20:19:27","新北市蘆洲區中山二路137巷10號","121.472056666667","25.081285","6501400","蘆洲區"
"247022","500-BY","2018/05/26 20:19:33","新北市蘆洲區民族路451號","121.467413333333","25.0887383333333","6501400","蘆洲區"
"247010","341-TH","2018/05/26 20:19:39","新北市蘆洲區信義路188巷11號","121.479691666667","25.0845266666667","6501400","蘆洲區"
"247012","339-TH","2018/05/26 20:19:38","新北市蘆洲區中興街55號","121.481383333333","25.0873216666667","6501400","蘆洲區"
"247004","337-TH","2018/05/26 20:19:34","新北市蘆洲區永康街116號","121.458238333333","25.08539","6501400","蘆洲區"
"247018","057-VK","2018/05/26 20:19:23","新北市蘆洲區民族路408巷13號","121.474921666667","25.0922216666667","6501400","蘆洲區"
"247008","056-VK","2018/05/26 20:19:34","新北市蘆洲區集賢路226-1號","121.4824","25.0864033333333","6501400","蘆洲區"
"247006","053-VK","2018/05/26 20:19:31","新北市蘆洲區九芎街153巷9號","121.465565","25.0787866666667","6501400","蘆洲區"
"247016","007-UY","2018/05/26 20:19:25","新北市蘆洲區光華路132巷41號","121.465893333333","25.0838216666667","6501400","蘆洲區"
"247002","002-UY","2018/05/26 20:19:30","新北市蘆洲區長安街331巷27號","121.455485","25.0865433333333","6501400","蘆洲區"
"247020","001-UY","2018/05/26 20:19:38","新北市蘆洲區仁愛街42號","121.471965","25.0932783333333","6501400","蘆洲區"
"224010","AGQ-8101","2018/05/26 20:19:28","新北市瑞芳區汽車路3號","121.847445","25.1114933333333","6501200","瑞芳區"
"222001","KEA-2212","2018/05/26 20:19:32","新北市深坑區北深路三段213號","121.60035","25.0040166666667","6501800","深坑區"
"251009","008-UM","2018/05/26 20:19:24","新北市淡水區中正路8巷25號","121.441725","25.1702316666667","6501000","淡水區"
"251002","012-UM","2018/05/26 20:19:29","新北市淡水區中正路86-1號","121.442431666667","25.169675","6501000","淡水區"
"251013","KEA-2871","2018/05/26 20:19:29","新北市淡水區奎柔山路752巷31號","121.474683333333","25.2057933333333","6501000","淡水區"
"251016","179-VK","2018/05/26 20:19:34","新北市淡水區淡金路五段20號","121.453131666667","25.232455","6501000","淡水區"
"251014","180-VK","2018/05/26 20:19:34","新北市淡水區石頭厝1號","121.45872","25.2355283333333","6501000","淡水區"
"251008","181-VK","2018/05/26 20:19:29","新北市淡水區淡海路180巷20號","121.421396666667","25.1845816666667","6501000","淡水區"
"251015","182-VK","2018/05/26 20:19:34","新北市淡水區淡金路三段436號","121.450586666667","25.2132316666667","6501000","淡水區"
"251010","413-VK","2018/05/26 20:19:31","新北市淡水區新民街一段134號","121.427556666667","25.18881","6501000","淡水區"
"251007","442-VK","2018/05/26 20:19:26","新北市淡水區淡金路一段69號","121.458205","25.1734","6501000","淡水區"
"251012","443-VK","2018/05/26 20:19:24","新北市淡水區淡金路三段426號","121.450586666667","25.2126716666667","6501000","淡水區"
"251001","559-UM","2018/05/26 20:19:31","新北市淡水區新市二路四段265號","121.445746666667","25.1924733333333","6501000","淡水區"
"251006","561-UM","2018/05/26 20:19:39","新北市淡水區淡金路一段571號","121.452611666667","25.1805666666667","6501000","淡水區"
"251003","673-BX","2018/05/26 20:19:20","新北市淡水區中山北路一段196號","121.444531666667","25.179375","6501000","淡水區"
"207004","225-TW","2018/05/26 20:19:40","新北市萬里區北基里仁六街2-1號","121.681588333333","25.1750916666667","6502800","萬里區"
"252002","178-VK","2018/05/26 20:19:42","新北市三芝區中正路一段21號","121.502945","25.2586116666667","6502100","三芝區"
"252001","292-VK","2018/05/26 20:19:38","新北市三芝區中山路一段14號","121.50067","25.2580433333333","6502100","三芝區"
"237006","5529-G3","2018/05/26 20:19:40","新北市三峽區中正路二段156號","121.366161666667","24.9159383333333","6500900","三峽區"
"236070","105-UM","2018/05/26 20:19:29","新北市土城區福安街52巷4號","121.418535","24.9654383333333","6501300","土城區"
"236079","166-UM","2018/05/26 20:19:23","新北市土城區德安街4巷2號","121.422231666667","24.964815","6501300","土城區"
"236030","253-BX","2018/05/26 20:19:40","新北市土城區學成路128巷8弄1號","121.44949","24.9899483333333","6501300","土城區"
"236026","269-VK","2018/05/26 20:19:34","新北市土城區中央路一段249巷10弄16號","121.445841666667","24.9852633333333","6501300","土城區"
"236014","270-VK","2018/05/26 20:19:25","新北市土城區廣明街90巷21號","121.455435","24.99456","6501300","土城區"
"236059","912-UM","2018/05/26 20:19:26","新北市土城區中央路三段134-1號","121.433475","24.9656316666667","6501300","土城區"
"236049","913-UM","2018/05/26 20:19:35","新北市土城區自強街35號","121.432855","24.97335","6501300","土城區"
"242034","AAC-296","2018/05/26 20:19:44","新北市新莊區建中街150號","121.444973333333","25.036535","6500500","新莊區"
"242058","986-R7","2018/05/26 20:19:25","新北市新莊區八德街165號","121.42337","25.01918","6500500","新莊區"
"242027","615-BX","2018/05/26 20:19:27","新北市新莊區幸福路556號","121.454743333333","25.0493716666667","6500500","新莊區"
"242025","613-BX","2018/05/26 20:19:40","新北市新莊區五工一路72巷2號","121.461898333333","25.0669433333333","6500500","新莊區"
"242029","612-BX","2018/05/26 20:19:38","新北市新莊區中原路191號","121.452135","25.054285","6500500","新莊區"
"242042","566-BX","2018/05/26 20:19:38","新北市新莊區壽山路73號","121.40961","25.0326633333333","6500500","新莊區"
"242046","442-UM","2018/05/26 20:19:29","新北市新莊區中正路新生巷46號","121.41722","25.0233033333333","6500500","新莊區"
"242051","441-UM","2018/05/26 20:19:39","新北市新莊區民安西路212巷8號","121.42524","25.0149933333333","6500500","新莊區"
"242056","440-UM","2018/05/26 20:19:23","新北市新莊區豐年街28巷16號","121.445568333333","25.0323666666667","6500500","新莊區"
"242036","415-TV","2018/05/26 20:19:34","新北市新莊區建安街76巷5弄1號","121.426161666667","25.0250533333333","6500500","新莊區"
"242007","413-TV","2018/05/26 20:19:39","新北市新莊區福壽街124巷41弄18號","121.459291666667","25.051855","6500500","新莊區"
"242023","362-BY","2018/05/26 20:19:39","新北市新莊區化成路858號","121.46472","25.0608366666667","6500500","新莊區"
"242061","353-BY","2018/05/26 20:19:39","新北市新莊區新樹路172號","121.43466","25.0218","6500500","新莊區"
"242009","132-UY","2018/05/26 20:19:35","新北市新莊區昌平街1號","121.454863333333","25.0512633333333","6500500","新莊區"
"242039","133-UY","2018/05/26 20:19:33","新北市新莊區成功街77號","121.42467","25.0198233333333","6500500","新莊區"
"242031","135-UY","2018/05/26 20:19:38","新北市新莊區三和路20-6號","121.439441666667","25.0374266666667","6500500","新莊區"
"242048","172-VK","2018/05/26 20:19:25","新北市新莊區四維路212巷4弄8號","121.42123","25.0205516666667","6500500","新莊區"
"242011","173-VK","2018/05/26 20:18:58","新北市新莊區中港路599號","121.45137","25.0529666666667","6500500","新莊區"
"242017","175-VK","2018/05/26 20:19:36","新北市新莊區中港二街145號","121.44807","25.04551","6500500","新莊區"
"242004","176-VK","2018/05/26 20:19:21","新北市新莊區頭前路60-5號","121.466723333333","25.0526583333333","6500500","新莊區"
"242015","346-TH","2018/05/26 20:19:29","新北市新莊區中和街31巷22號","121.447043333333","25.043955","6500500","新莊區"
"242019","347-TH","2018/05/26 20:19:28","新北市新莊區復興路二段92號","121.45598","25.04411","6500500","新莊區"
"242021","348-TH","2018/05/26 20:19:33","新北市新莊區和興街41號","121.446641666667","25.0403466666667","6500500","新莊區"
"242013","351-TH","2018/05/26 20:19:40","新北市新莊區中信街63巷4弄12號","121.448536666667","25.0501716666667","6500500","新莊區"
"239002","359-BY","2018/05/26 20:19:31","新北市鶯歌區二甲路12-2號","121.345753333333","24.934885","6500800","鶯歌區"
"221008","489-VK","2018/05/26 20:19:38","新北市汐止區康寧街393號","121.629336666667","25.0678583333333","6501100","汐止區"
"221036","130-UY","2018/05/26 20:19:33","新北市汐止區仁愛路152巷23號","121.66469","25.0639533333333","6501100","汐止區"
"221015","131-UY","2018/05/26 20:19:23","新北市汐止區建成路142巷19弄9號","121.662016666667","25.0738933333333","6501100","汐止區"
"221010","269-BY","2018/05/26 20:19:33","新北市汐止區八連路二段636-3號","121.625296666667","25.11016","6501100","汐止區"
"221012","278-VK","2018/05/26 20:19:22","新北市汐止區保新街283號","121.69257","25.068395","6501100","汐止區"
"221023","279-VK","2018/05/26 20:19:23","新北市汐止區明峰街109號","121.631288333333","25.07112","6501100","汐止區"
"221032","280-BY","2018/05/26 20:19:40","新北市汐止區民權街二段70號","121.61918","25.0482083333333","6501100","汐止區"
"221027","281-BY","2018/05/26 20:19:28","新北市汐止區大同路二段375號","121.657411666667","25.0672966666667","6501100","汐止區"
"221029","298-VK","2018/05/26 20:19:23","新北市汐止區工建路98號","121.639563333333","25.0634766666667","6501100","汐止區"
"221021","299-VK","2018/05/26 20:19:42","新北市汐止區水源路一段280號","121.654115","25.05833","6501100","汐止區"
"221031","353-TW","2018/05/26 20:19:31","新北市汐止區中興路150巷8號","121.633153333333","25.06498","6501100","汐止區"
"221035","622-UM","2018/05/26 20:19:24","新北市汐止區長江街101-5號","121.65867","25.0732333333333","6501100","汐止區"
"221025","623-UM","2018/05/26 20:19:35","新北市汐止區水源路二段34號","121.654985","25.0573483333333","6501100","汐止區"
"221038","646-BX","2018/05/26 20:19:31","新北市汐止區忠孝東路466號","121.66629","25.0731916666667","6501100","汐止區"
"221033","647-BX","2018/05/26 20:19:29","新北市汐止區東勢街215巷2號","121.634375","25.0430166666667","6501100","汐止區"
"221002","707-TV","2018/05/26 20:19:31","新北市汐止區福德三路95號","121.636106666667","25.0689533333333","6501100","汐止區"
"221018","753-BX","2018/05/26 20:19:28","新北市汐止區茄苳路244號","121.671366666667","25.0684516666667","6501100","汐止區"
"242002","KEA-2550","2018/05/26 20:19:40","新北市新莊區化成路9號","121.464916666667","25.043095","6500500","新莊區"
"220101","245-BX","2018/05/26 20:19:28","新北市板橋區莊敬路75巷4號","121.47318","25.0265983333333","6500100","板橋區"
"220103","257-TC","2018/05/26 20:19:25","新北市板橋區新海路106號","121.46139","25.0224783333333","6500100","板橋區"
"220083","286-VK","2018/05/26 20:19:31","新北市板橋區僑中二街102巷31號","121.444818333333","25.0083966666667","6500100","板橋區"
"220081","287-VK","2018/05/26 20:19:27","新北市板橋區僑中一街80巷7弄10號","121.447346666667","25.0128533333333","6500100","板橋區"
"220090","288-VK","2018/05/26 20:19:32","新北市板橋區長江路一段413號","121.462383333333","25.03259","6500100","板橋區"
"220061","293-UM","2018/05/26 20:19:39","新北市板橋區文華街10號","121.457906666667","25.0004233333333","6500100","板橋區"
"242044","280-VK","2018/05/26 20:19:35","新北市新莊區中正路895-12號","121.412933333333","25.0212","6500500","新莊區"
"220088","491-VK","2018/05/26 20:19:26","新北市三重區光復路二段87巷63號","121.475765","25.05819","6500100","板橋區"
"220057","686-BX","2018/05/26 20:19:40","新北市五股區中直路21號","121.421186666667","25.1120033333333","6500100","板橋區"
"220102","KEA-2699","2018/05/26 20:19:33","新北市板橋區漢生東路83巷2-1號","121.467015","25.0158016666667","6500100","板橋區"
"220055","827-TW","2018/05/26 20:19:30","新北市板橋區仁愛路23號","121.458891666667","24.9994666666667","6500100","板橋區"
"220089","833-TW","2018/05/26 20:19:40","新北市板橋區四維路137巷17號","121.464321666667","25.0248766666667","6500100","板橋區"
"220097","AAC-210","2018/05/26 20:19:31","新北市板橋區復興街133號","121.461045","25.0180966666667","6500100","板橋區"
"220070","AAC-253","2018/05/26 20:19:30","新北市板橋區南雅南路二段114號","121.453218333333","25.0005683333333","6500100","板橋區"
"235068","KEA-2873","2018/05/26 20:19:10","新北市中和區中山路二段2巷95弄7號","121.500343333333","25.007495","6500300","中和區"
