"lineid","car","time","location","longitude","latitude","cityid","cityname"
"234086","338-UY","2018/05/26 20:39:23","新北市新店區安民街247號","121.516223333333","24.97258","6500400","永和區"
"234061","AAD-866","2018/05/26 20:39:25","新北市永和區秀朗路一段114號","121.516878333333","25.0036966666667","6500400","永和區"
"249001","173-UM","2018/05/26 20:39:43","新北市八里區中山路三段371號","121.372973333333","25.137825","6502300","八里區"
"249004","303-UY","2018/05/26 20:39:33","新北市八里區中山路一段217巷62號","121.41182","25.1574816666667","6502300","八里區"
"234023","9380-KE","2018/05/26 20:39:40","新北市永和區竹林路23號","121.517198333333","25.01465","6500400","永和區"
"234074","AAC-211","2018/05/26 20:39:23","新北市永和區竹林路119巷16號","121.521028333333","25.0114166666667","6500400","永和區"
"243009","297-R6","2018/05/26 20:39:37","新北市泰山區泰林路二段542巷3弄1號","121.423311666667","25.0641316666667","6501600","泰山區"
"243016","380-SR","2018/05/26 20:39:42","新北市泰山區文程路111號","121.430465","25.0481733333333","6501600","泰山區"
"243015","421-VK","2018/05/26 20:39:31","新北市泰山區橫窠雅36號","121.403605","25.0722683333333","6501600","泰山區"
"243011","KEA-2215","2018/05/26 20:39:30","新北市泰山區明志路三段46號","121.424598333333","25.0424516666667","6501600","泰山區"
"243010","KEA-2216","2018/05/26 20:39:42","新北市泰山區公園路97號","121.425175","25.05615","6501600","泰山區"
"222003","436-BY","2018/05/26 20:39:35","新北市深坑區深坑街134號","121.6133","25.0012566666667","6501800","深坑區"
"222002","659-BX","2018/05/26 20:39:21","新北市深坑區萬福路47號","121.599573333333","25.0068516666667","6501800","深坑區"
"231041","002-UM","2018/05/26 20:39:38","新北市新店區中正路698號","121.534055","24.9906916666667","6500600","新店區"
"231059","046-UY","2018/05/26 20:39:40","新北市新店區吉祥街15巷60號","121.499778333333","24.9452266666667","6500600","新店區"
"231040","047-UY","2018/05/26 20:39:35","新北市新店區中正路270號","121.538981666667","24.973565","6500600","新店區"
"231044","106-UY","2018/05/26 20:39:34","新北市新店區建國路293巷1號","121.536713333333","24.986155","6500600","新店區"
"231052","108-UY","2018/05/26 20:39:39","新北市新店區廣興路7-6號","121.546093333333","24.9117166666667","6500600","新店區"
"231048","187-VK","2018/05/26 20:39:34","新北市新店區寶慶街36號","121.543025","24.986755","6500600","新店區"
"231054","KEA-2219","2018/05/26 20:39:32","新北市新店區北新路一段64巷43號","121.542301666667","24.9656583333333","6500600","新店區"
"231057","256-BX","2018/05/26 20:39:37","新北市新店區花園六路二段14號","121.55498","24.9333366666667","6500600","新店區"
"231042","268-BY","2018/05/26 20:39:24","新北市新店區寶橋路238號","121.551703333333","24.9788933333333","6500600","新店區"
"231051","278-BY","2018/05/26 20:39:27","新北市新店區中央七街84號","121.526805","24.9767716666667","6500600","新店區"
"231050","AAD-862","2018/05/26 20:39:38","新北市新店區中正路265巷21號","121.537763333333","24.9731683333333","6500600","新店區"
"231058","3713-VJ","2018/05/26 20:39:37","新北市新店區平等街17號","121.536823333333","24.9739","6500600","新店區"
"231066","4716-K9","2018/05/26 20:39:27","新北市新店區安民街365巷1弄8號","121.516406666667","24.9751516666667","6500600","新店區"
"231056","4715-K9","2018/05/26 20:39:32","新北市新店區中央七街58號","121.528133333333","24.97615","6500600","新店區"
"231067","4772-VM","2018/05/26 20:39:26","新北市新店區安康路一段355號","121.519801666667","24.9630533333333","6500600","新店區"
"231065","512-UM","2018/05/26 20:39:30","新北市新店區安祥路102巷21號","121.484803333333","24.96458","6500600","新店區"
"231049","513-UM","2018/05/26 20:39:43","新北市新店區永業路81巷3弄1號","121.529781666667","24.9492566666667","6500600","新店區"
"231063","616-UM","2018/05/26 20:39:25","新北市新店區玫瑰路16號","121.494715","24.950425","6500600","新店區"
"231045","617-UM","2018/05/26 20:39:40","新北市新店區長春路30號","121.550116666667","24.957525","6500600","新店區"
"231061","619-UM","2018/05/26 20:39:24","新北市新店區新和街37號","121.519275","24.9849366666667","6500600","新店區"
"231068","718-UY","2018/05/26 20:39:29","新北市新店區寶慶街35巷3弄1號","121.543215","24.9861266666667","6500600","新店區"
"231064","719-UM","2018/05/26 20:39:40","新北市新店區永安街34巷12號","121.517965","24.9859366666667","6500600","新店區"
"231062","720-UM","2018/05/26 20:39:35","新北市新店區安泰路60巷55弄125號","121.484531666667","24.9464266666667","6500600","新店區"
"231060","897-TW","2018/05/26 20:39:25","新北市新店區安康路三段567-1號","121.475496666667","24.9434666666667","6500600","新店區"
"231043","899-TW","2018/05/26 20:39:39","新北市新店區博愛街13巷23號","121.540313333333","24.9740866666667","6500600","新店區"
"241011","013-R5","2018/05/26 20:39:41","新北市三重區龍濱路190號","121.501256666667","25.0731666666667","6500200","三重區"
"241028","022-UY","2018/05/26 20:39:40","新北市三重區光興街93號","121.497308333333","25.0599766666667","6500200","三重區"
"241008","059-VK","2018/05/26 20:39:35","新北市三重區下竹圍街36號","121.480986666667","25.0749783333333","6500200","三重區"
"241031","061-VK","2018/05/26 20:39:35","新北市三重區重陽路一段43巷30號","121.48824","25.0586683333333","6500200","三重區"
"241015","062-VK","2018/05/26 20:39:25","新北市三重區三和路二段154巷27號","121.498026666667","25.0681116666667","6500200","三重區"
"241017","063-VK","2018/05/26 20:39:33","新北市三重區大同北路263號","121.490938333333","25.067195","6500200","三重區"
"241026","066-VK","2018/05/26 20:39:38","新北市三重區福德南路24巷8號","121.503736666667","25.0632566666667","6500200","三重區"
"241002","090-VK","2018/05/26 20:39:36","新北市三重區仁義街167巷38弄2號","121.498735","25.0827033333333","6500200","三重區"
"241003","091-VK","2018/05/26 20:39:31","新北市三重區五華街141巷60號","121.493581666667","25.0868033333333","6500200","三重區"
"241022","742-BX","2018/05/26 20:39:24","新北市三重區民生街61巷6弄3號","121.488595","25.0620183333333","6500200","三重區"
"241005","262-UM","2018/05/26 20:39:24","新北市三重區仁義街288號","121.493405","25.0861766666667","6500200","三重區"
"241009","265-UM","2018/05/26 20:39:28","新北市三重區碧華街51號","121.484648333333","25.0813216666667","6500200","三重區"
"241016","266-UM","2018/05/26 20:39:28","新北市三重區長壽西街91號","121.494995","25.0669433333333","6500200","三重區"
"241018","268-UM","2018/05/26 20:39:27","新北市三重區自強路一段199號","121.49168","25.0683466666667","6500200","三重區"
"241032","269-UM","2018/05/26 20:39:41","新北市三重區重陽路一段120巷35號","121.485085","25.060205","6500200","三重區"
"241013","270-UM","2018/05/26 20:39:32","新北市三重區三和路四段2號","121.491656666667","25.073885","6500200","三重區"
"241025","271-UM","2018/05/26 20:39:24","新北市三重區頂崁街157號","121.478455","25.06496","6500200","三重區"
"241007","398-BY","2018/05/26 20:39:28","新北市三重區自強路四段32-2號","121.488883333333","25.0771016666667","6500200","三重區"
"241035","KEA-2210","2018/05/26 20:39:23","新北市三重區正義北路305號","121.49436","25.0710266666667","6500200","三重區"
"241030","413-TH","2018/05/26 20:39:37","新北市三重區成功路73巷11號","121.489436666667","25.051915","6500200","三重區"
"241019","462-BY","2018/05/26 20:39:26","新北市三重區忠孝路一段10巷17號","121.491413333333","25.071445","6500200","三重區"
"241004","475-VK","2018/05/26 20:39:32","新北市三重區仁愛街458巷13號","121.489628333333","25.08191","6500200","三重區"
"241020","478-VK","2018/05/26 20:39:24","新北市三重區忠孝路一段101號","121.489598333333","25.0721416666667","6500200","三重區"
"241014","543-UM","2018/05/26 20:39:31","新北市三重區萬壽街14號","121.49939","25.0694083333333","6500200","三重區"
"241023","545-UM","2018/05/26 20:39:40","新北市三重區自由街35巷2號","121.47903","25.066885","6500200","三重區"
"241001","547-UM","2018/05/26 20:39:28","新北市三重區三和路四段160巷124號","121.486208333333","25.07501","6500200","三重區"
"241006","AAD-863","2018/05/26 20:39:35","新北市三重區車路頭街135-1號","121.484288333333","25.0761683333333","6500200","三重區"
"241024","887-TS","2018/05/26 20:39:33","新北市三重區中正北路324號","121.478911666667","25.0692083333333","6500200","三重區"
"241012","941-UM","2018/05/26 20:39:31","新北市三重區秀江街31號","121.502046666667","25.0728933333333","6500200","三重區"
"241029","942-UM","2018/05/26 20:39:23","新北市三重區集美街126巷30號","121.49016","25.0539266666667","6500200","三重區"
"241033","AAC-255","2018/05/26 20:39:37","新北市三重區光復路二段2號","121.47217","25.0533816666667","6500200","三重區"
"235039","097-UM","2018/05/26 20:39:39","新北市中和區大勇街29巷12-1號","121.51588","24.994525","6500300","中和區"
"235069","4980-A6","2018/05/26 20:39:39","新北市中和區員山路254號","121.481365","25.0016","6500300","中和區"
"247024","893-R6","2018/05/26 20:39:33","新北市蘆洲區長樂路68號","121.4627","25.0867783333333","6501400","蘆洲區"
"247014","546-UM","2018/05/26 20:39:39","新北市蘆洲區成功路60號","121.472526666667","25.080445","6501400","蘆洲區"
"247022","500-BY","2018/05/26 20:39:33","新北市蘆洲區中正路243巷7弄19號","121.467765","25.0856833333333","6501400","蘆洲區"
"247010","341-TH","2018/05/26 20:39:39","新北市蘆洲區重陽街68號","121.481805","25.08402","6501400","蘆洲區"
"247012","339-TH","2018/05/26 20:39:38","新北市蘆洲區集賢路224巷46弄60-1號","121.48079","25.08808","6501400","蘆洲區"
"247004","337-TH","2018/05/26 20:39:34","新北市蘆洲區長安街297號","121.458075","25.0848766666667","6501400","蘆洲區"
"247008","056-VK","2018/05/26 20:39:34","新北市蘆洲區重陽一街23號","121.480758333333","25.08166","6501400","蘆洲區"
"247006","053-VK","2018/05/26 20:39:30","新北市蘆洲區和平路187號","121.466276666667","25.0813133333333","6501400","蘆洲區"
"247016","007-UY","2018/05/26 20:39:25","新北市蘆洲區和平路42號","121.470695","25.0791533333333","6501400","蘆洲區"
"247002","002-UY","2018/05/26 20:39:30","新北市蘆洲區長安街375巷25號","121.456055","25.08777","6501400","蘆洲區"
"247020","001-UY","2018/05/26 20:39:38","新北市蘆洲區民族路424號","121.473853333333","25.0918","6501400","蘆洲區"
"222001","KEA-2212","2018/05/26 20:39:32","新北市深坑區北深路三段189巷6弄16號","121.600463333333","25.003735","6501800","深坑區"
"251009","008-UM","2018/05/26 20:39:24","新北市淡水區民族路112巷70號","121.461718333333","25.1338883333333","6501000","淡水區"
"251002","012-UM","2018/05/26 20:39:29","新北市淡水區中正路28號","121.444278333333","25.169035","6501000","淡水區"
"251013","KEA-2871","2018/05/26 20:39:29","新北市淡水區下圭柔山28巷29號","121.458333333333","25.2040333333333","6501000","淡水區"
"251016","179-VK","2018/05/26 20:39:34","新北市淡水區後洲子8-2號","121.449645","25.2240216666667","6501000","淡水區"
"251014","180-VK","2018/05/26 20:39:34","新北市淡水區公埔子26號","121.467603333333","25.233055","6501000","淡水區"
"251015","182-VK","2018/05/26 20:39:34","新北市淡水區淡金路四段542巷17號","121.452741666667","25.2270766666667","6501000","淡水區"
"251010","413-VK","2018/05/26 20:39:31","新北市淡水區沙崙路181巷15號","121.423915","25.1843816666667","6501000","淡水區"
"251007","442-VK","2018/05/26 20:39:26","新北市淡水區淡金路一段69號","121.45818","25.1734333333333","6501000","淡水區"
"251012","443-VK","2018/05/26 20:39:24","新北市淡水區興仁路108號","121.451688333333","25.2181433333333","6501000","淡水區"
"251001","559-UM","2018/05/26 20:39:38","新北市淡水區忠愛街4號","121.459751666667","25.1715916666667","6501000","淡水區"
"251006","561-UM","2018/05/26 20:39:39","新北市淡水區商工路186巷27號","121.450668333333","25.1869666666667","6501000","淡水區"
"251003","673-BX","2018/05/26 20:39:40","新北市淡水區新民街120巷52號","121.438691666667","25.1783583333333","6501000","淡水區"
"252002","178-VK","2018/05/26 20:39:42","新北市三芝區淡金路二段47-1號","121.503645","25.2604983333333","6502100","三芝區"
"252001","292-VK","2018/05/26 20:39:38","新北市三芝區育英街31號","121.50126","25.2572083333333","6502100","三芝區"
"242034","AAC-296","2018/05/26 20:39:31","新北市新莊區中正路334巷25弄2號","121.445466666667","25.03594","6500500","新莊區"
"242058","986-R7","2018/05/26 20:39:25","新北市新莊區四維路188巷2號","121.42188","25.020895","6500500","新莊區"
"242027","615-BX","2018/05/26 20:39:27","新北市新莊區思源路34號","121.460213333333","25.0419566666667","6500500","新莊區"
"242025","613-BX","2018/05/26 20:39:40","新北市新莊區化成路565號","121.465065","25.0656133333333","6500500","新莊區"
"242029","612-BX","2018/05/26 20:39:38","新北市新莊區中華路二段37號","121.453425","25.0464483333333","6500500","新莊區"
"242042","566-BX","2018/05/26 20:39:38","新北市新莊區中正路694巷1弄8號","121.418365","25.0282283333333","6500500","新莊區"
"242046","442-UM","2018/05/26 20:39:41","新北市新莊區裕民街120號","121.418153333333","25.02274","6500500","新莊區"
"242051","441-UM","2018/05/26 20:39:39","新北市新莊區西盛街258巷19號","121.427436666667","25.01581","6500500","新莊區"
"242056","440-UM","2018/05/26 20:39:43","新北市新莊區瓊泰路139號","121.443323333333","25.030665","6500500","新莊區"
"242036","415-TV","2018/05/26 20:39:34","新北市新莊區建安街10號","121.428493333333","25.026555","6500500","新莊區"
"242007","413-TV","2018/05/26 20:39:39","新北市新莊區思源路287巷2弄13號","121.459258333333","25.0488066666667","6500500","新莊區"
"242023","362-BY","2018/05/26 20:39:39","新北市新莊區復興路三段40號","121.46147","25.04448","6500500","新莊區"
"242061","353-BY","2018/05/26 20:39:39","新北市新莊區新樹路262號","121.432651666667","25.0148166666667","6500500","新莊區"
"242009","132-UY","2018/05/26 20:39:36","新北市新莊區昌隆街67號","121.457106666667","25.051045","6500500","新莊區"
"242039","133-UY","2018/05/26 20:39:33","新北市新莊區民安路461號","121.434671666667","25.02246","6500500","新莊區"
"242031","135-UY","2018/05/26 20:39:38","新北市新莊區中正路508巷5弄2號","121.435025","25.033845","6500500","新莊區"
"242048","172-VK","2018/05/26 20:39:25","新北市新莊區中正路671號","121.426651666667","25.0300166666667","6500500","新莊區"
"242011","173-VK","2018/05/26 20:39:36","新北市新莊區中榮街104巷21弄2號","121.446826666667","25.05361","6500500","新莊區"
"242017","175-VK","2018/05/26 20:39:36","新北市新莊區中平路87巷1號","121.444776666667","25.0457733333333","6500500","新莊區"
"242015","346-TH","2018/05/26 20:39:33","新北市新莊區中和街36號","121.448248333333","25.0440133333333","6500500","新莊區"
"242019","347-TH","2018/05/26 20:39:28","新北市新莊區銘德街112號","121.455311666667","25.0433133333333","6500500","新莊區"
"242021","348-TH","2018/05/26 20:39:33","新北市新莊區中華路一段73號","121.452206666667","25.040075","6500500","新莊區"
"242013","351-TH","2018/05/26 20:39:40","新北市新莊區中和街191巷1-1號","121.447806666667","25.0511716666667","6500500","新莊區"
"221008","489-VK","2018/05/26 20:39:38","新北市汐止區康寧街706-2號","121.638503333333","25.0729983333333","6501100","汐止區"
"221036","130-UY","2018/05/26 20:39:33","新北市汐止區新昌路5號","121.66216","25.0671316666667","6501100","汐止區"
"221015","131-UY","2018/05/26 20:39:43","新北市汐止區建成路26號","121.664386666667","25.0727066666667","6501100","汐止區"
"221012","278-VK","2018/05/26 20:39:42","新北市汐止區大同路三段241號","121.672671666667","25.0766816666667","6501100","汐止區"
"221023","279-VK","2018/05/26 20:39:43","新北市汐止區民族二街28號","121.635011666667","25.0718533333333","6501100","汐止區"
"221032","280-BY","2018/05/26 20:39:40","新北市汐止區民權街二段28號","121.619541666667","25.0500633333333","6501100","汐止區"
"221027","281-BY","2018/05/26 20:39:28","新北市汐止區大同路二段567號","121.662876666667","25.0699633333333","6501100","汐止區"
"221029","298-VK","2018/05/26 20:39:43","新北市汐止區大同路一段421號","121.642668333333","25.0612833333333","6501100","汐止區"
"221021","299-VK","2018/05/26 20:39:22","新北市汐止區水源路一段282巷5號","121.65387","25.0580566666667","6501100","汐止區"
"221031","353-TW","2018/05/26 20:39:31","新北市汐止區中興路27巷10號","121.63442","25.06077","6501100","汐止區"
"221035","622-UM","2018/05/26 20:39:44","新北市汐止區長江街101-5號","121.658725","25.07319","6501100","汐止區"
"221025","623-UM","2018/05/26 20:39:35","新北市汐止區水源路二段119號","121.658225","25.052065","6501100","汐止區"
"221038","646-BX","2018/05/26 20:39:31","新北市汐止區新江北路30巷15號","121.653028333333","25.069455","6501100","汐止區"
"221033","647-BX","2018/05/26 20:39:29","新北市汐止區合順街18巷8弄5號","121.620325","25.041875","6501100","汐止區"
"221002","707-TV","2018/05/26 20:39:31","新北市汐止區福德二路167號","121.630968333333","25.0650866666667","6501100","汐止區"
"221018","753-BX","2018/05/26 20:39:41","新北市汐止區茄苳路56號","121.66632","25.0707433333333","6501100","汐止區"
"242002","KEA-2550","2018/05/26 20:39:40","新北市新莊區中正路147-9號","121.457471666667","25.03711","6500500","新莊區"
"220103","257-TC","2018/05/26 20:39:25","新北市板橋區漢生東路63巷1號","121.465858333333","25.0163583333333","6500100","板橋區"
"220090","288-VK","2018/05/26 20:39:32","新北市八里區中山路三段382號","121.368605","25.13615","6500100","板橋區"
"242044","280-VK","2018/05/26 20:39:35","新北市新莊區龍安路20號","121.414445","25.0223716666667","6500500","新莊區"
"220088","491-VK","2018/05/26 20:39:26","新北市林口區汕頭32號","121.366406666667","25.1349683333333","6500100","板橋區"
"220070","AAC-253","2018/05/26 20:39:30","新北市八里區商港路88-1號","121.394695","25.14732","6500100","板橋區"
