"lineid","car","time","location","longitude","latitude","cityid","cityname"
"231059","046-UY","2018/05/26 20:59:40","新北市新店區僑信路116號","121.500331666667","24.94664","6500600","新店區"
"231040","047-UY","2018/05/26 20:59:35","新北市新店區北新路一段351號","121.541993333333","24.9692783333333","6500600","新店區"
"231052","108-UY","2018/05/26 20:59:39","新北市新店區光明街22號","121.538096666667","24.9587583333333","6500600","新店區"
"231048","187-VK","2018/05/26 20:59:34","新北市新店區寶元路二段1巷2號","121.550386666667","24.984135","6500600","新店區"
"231054","KEA-2219","2018/05/26 20:59:32","新北市新店區中正路75巷71號","121.543163333333","24.9690083333333","6500600","新店區"
"231042","268-BY","2018/05/26 20:59:24","新北市新店區中興路二段233-1號","121.547511666667","24.975265","6500600","新店區"
"231051","278-BY","2018/05/26 20:59:27","新北市新店區中正路663巷1弄24號","121.532778333333","24.9899666666667","6500600","新店區"
"231050","AAD-862","2018/05/26 20:59:38","新北市新店區三民路20巷4號","121.537926666667","24.9705866666667","6500600","新店區"
"231066","4716-K9","2018/05/26 20:59:27","新北市新店區吉安街18號","121.51654","24.965805","6500600","新店區"
"231065","512-UM","2018/05/26 20:59:29","新北市新店區安祥路69巷38號","121.481785","24.96043","6500600","新店區"
"231063","616-UM","2018/05/26 20:59:25","新北市新店區如意街97號","121.49553","24.94698","6500600","新店區"
"231045","617-UM","2018/05/26 20:59:40","新北市新店區薏仁坑路自強巷1號","121.497303333333","24.957765","6500600","新店區"
"231061","619-UM","2018/05/26 20:59:24","新北市新店區新和街116巷13號","121.521443333333","24.9860333333333","6500600","新店區"
"231068","718-UY","2018/05/26 20:59:29","新北市新店區寶中路79號","121.547671666667","24.9807366666667","6500600","新店區"
"231064","719-UM","2018/05/26 20:59:40","新北市新店區安民街304號","121.517798333333","24.9738133333333","6500600","新店區"
"231062","720-UM","2018/05/26 20:59:35","新北市新店區裕合街31號","121.489881666667","24.9496766666667","6500600","新店區"
"231060","897-TW","2018/05/26 20:59:25","新北市新店區安康路三段401號","121.483281666667","24.94988","6500600","新店區"
"231043","899-TW","2018/05/26 20:59:39","新北市新店區民族路195號","121.53718","24.97623","6500600","新店區"
"241011","013-R5","2018/05/26 20:59:41","新北市三重區秀江街119號","121.49969","25.072165","6500200","三重區"
"241028","022-UY","2018/05/26 20:59:40","新北市三重區重新路三段82號","121.493106666667","25.0609383333333","6500200","三重區"
"241008","059-VK","2018/05/26 20:59:35","新北市三重區車路頭街135-1號","121.484285","25.076085","6500200","三重區"
"241031","061-VK","2018/05/26 20:59:35","新北市三重區重陽路一段113巷2弄2號","121.487535","25.05989","6500200","三重區"
"241015","062-VK","2018/05/26 20:59:25","新北市三重區福德北路61號","121.502095","25.0654966666667","6500200","三重區"
"241017","063-VK","2018/05/26 20:59:33","新北市三重區國隆路30-1號","121.492193333333","25.0645216666667","6500200","三重區"
"241026","066-VK","2018/05/26 20:59:38","新北市三重區文化南路45號","121.500223333333","25.0614533333333","6500200","三重區"
"241002","090-VK","2018/05/26 20:59:35","新北市三重區仁義街155號","121.497113333333","25.0811183333333","6500200","三重區"
"241003","091-VK","2018/05/26 20:59:31","新北市三重區進安街198號","121.493883333333","25.08603","6500200","三重區"
"241022","742-BX","2018/05/26 20:59:24","新北市三重區中正北路22號","121.488321666667","25.0632216666667","6500200","三重區"
"241005","262-UM","2018/05/26 20:59:44","新北市三重區五華街184號","121.488743333333","25.0863066666667","6500200","三重區"
"241009","265-UM","2018/05/26 20:59:28","新北市三重區三和路四段326號","121.483828333333","25.0782016666667","6500200","三重區"
"241016","266-UM","2018/05/26 20:59:28","新北市三重區正義北路75號","121.497236666667","25.0648016666667","6500200","三重區"
"241018","268-UM","2018/05/26 20:59:27","新北市三重區雙園街105號","121.493695","25.0672816666667","6500200","三重區"
"241032","269-UM","2018/05/26 20:59:41","新北市三重區中華路2巷2號","121.482983333333","25.0601883333333","6500200","三重區"
"241013","270-UM","2018/05/26 20:59:32","新北市三重區仁愛街129巷1號","121.495613333333","25.0749216666667","6500200","三重區"
"241025","271-UM","2018/05/26 20:59:44","新北市三重區貴陽街14號","121.484246666667","25.0618083333333","6500200","三重區"
"241007","398-BY","2018/05/26 20:59:28","新北市三重區三和路四段155巷31號","121.48482","25.07858","6500200","三重區"
"241030","413-TH","2018/05/26 20:59:39","新北市三重區中正南路293號","121.492651666667","25.0519183333333","6500200","三重區"
"241019","462-BY","2018/05/26 20:59:26","新北市三重區自強路二段74巷19號","121.488031666667","25.0699266666667","6500200","三重區"
"241004","475-VK","2018/05/26 20:59:32","新北市三重區仁愛街420號","121.490388333333","25.081425","6500200","三重區"
"241020","478-VK","2018/05/26 20:59:24","新北市三重區忠孝路二段31號","121.486006666667","25.0710733333333","6500200","三重區"
"241014","543-UM","2018/05/26 20:59:31","新北市三重區長壽街120巷11號","121.502523333333","25.0690966666667","6500200","三重區"
"241023","545-UM","2018/05/26 20:59:40","新北市三重區洛陽街45巷15號","121.482361666667","25.0637333333333","6500200","三重區"
"241001","547-UM","2018/05/26 20:59:28","新北市三重區自強路三段97號","121.487653333333","25.0751166666667","6500200","三重區"
"241006","AAD-863","2018/05/26 20:59:35","新北市三重區永福街23號","121.481808333333","25.0781983333333","6500200","三重區"
"241024","887-TS","2018/05/26 20:59:33","新北市三重區國道路一段58巷15號","121.48134","25.0720366666667","6500200","三重區"
"241012","941-UM","2018/05/26 20:59:32","新北市三重區仁信街6號","121.50133","25.075515","6500200","三重區"
"241029","942-UM","2018/05/26 20:59:23","新北市三重區正義南路111號","121.498236666667","25.0585433333333","6500200","三重區"
"241033","AAC-255","2018/05/26 20:59:37","新北市三重區光復路二段49號","121.47215","25.0560066666667","6500200","三重區"
"247024","893-R6","2018/05/26 20:59:33","新北市蘆洲區長興路213號","121.461156666667","25.0863216666667","6501400","蘆洲區"
"247014","546-UM","2018/05/26 20:59:27","新北市蘆洲區中山二路36巷42-1號","121.473963333333","25.08355","6501400","蘆洲區"
"247022","500-BY","2018/05/26 20:59:33","新北市蘆洲區三民路263號","121.468145","25.0892916666667","6501400","蘆洲區"
"247010","341-TH","2018/05/26 20:59:39","新北市蘆洲區鷺江街89巷2號","121.476651666667","25.08372","6501400","蘆洲區"
"247012","339-TH","2018/05/26 20:59:38","新北市蘆洲區民權路26號","121.476746666667","25.08572","6501400","蘆洲區"
"247004","337-TH","2018/05/26 20:59:34","新北市蘆洲區永安南路二段268號","121.458645","25.08075","6501400","蘆洲區"
"247018","057-VK","2018/05/26 20:59:23","新北市蘆洲區民權路136-2號","121.473148333333","25.08885","6501400","蘆洲區"
"247006","053-VK","2018/05/26 20:59:30","新北市蘆洲區永安南路二段16巷8號","121.467751666667","25.0772266666667","6501400","蘆洲區"
"247016","007-UY","2018/05/26 20:59:25","新北市蘆洲區正和街84號","121.468385","25.0809266666667","6501400","蘆洲區"
"247020","001-UY","2018/05/26 20:59:38","新北市蘆洲區民族路371號","121.471191666667","25.091345","6501400","蘆洲區"
"251009","008-UM","2018/05/26 20:59:24","新北市淡水區民族路176號","121.461788333333","25.1338233333333","6501000","淡水區"
"251005","010-UM","2018/05/26 20:59:28","新北市淡水區學府路51巷2弄16號","121.447945","25.17003","6501000","淡水區"
"251002","012-UM","2018/05/26 20:59:29","新北市淡水區水源街一段145號","121.447321666667","25.17185","6501000","淡水區"
"251013","KEA-2871","2018/05/26 20:59:29","新北市淡水區中洲(子)6號","121.470245","25.2012533333333","6501000","淡水區"
"251016","179-VK","2018/05/26 20:59:34","新北市淡水區牛埔子10-1號","121.45006","25.21843","6501000","淡水區"
"251014","180-VK","2018/05/26 20:59:34","新北市淡水區淡金路五段72號","121.454981666667","25.2335366666667","6501000","淡水區"
"251015","182-VK","2018/05/26 20:59:34","新北市淡水區淡金路四段542巷17號","121.452728333333","25.2270816666667","6501000","淡水區"
"251010","413-VK","2018/05/26 20:59:31","新北市淡水區中正路一段116-3號","121.42389","25.1787483333333","6501000","淡水區"
"251007","442-VK","2018/05/26 20:59:26","新北市淡水區學府路104號","121.449905","25.17196","6501000","淡水區"
"251012","443-VK","2018/05/26 20:59:24","新北市淡水區淡金路五段116-1號","121.45653","25.236865","6501000","淡水區"
"251001","559-UM","2018/05/26 20:59:31","新北市淡水區淡金路二段66號","121.450608333333","25.1822583333333","6501000","淡水區"
"251011","650-BX","2018/05/26 20:59:37","新北市淡水區新民街300號","121.435105","25.1827216666667","6501000","淡水區"
"251003","673-BX","2018/05/26 20:59:40","新北市淡水區新春街146號","121.442126666667","25.1814516666667","6501000","淡水區"
"242046","442-UM","2018/05/26 20:59:28","新北市五股區成泰路一段8巷9-9號","121.437655","25.0684333333333","6500500","新莊區"
"221036","130-UY","2018/05/26 20:59:33","新北市汐止區水源路一段3號","121.65711","25.0672016666667","6501100","汐止區"
"221012","278-VK","2018/05/26 20:59:22","新北市汐止區汐萬路一段256巷3號","121.653365","25.0746583333333","6501100","汐止區"
"221029","298-VK","2018/05/26 20:59:23","新北市汐止區康寧街901號","121.651711666667","25.07492","6501100","汐止區"
"220090","288-VK","2018/05/26 20:59:32","新北市林口區太平里180號","121.368308333333","25.13425","6500100","板橋區"
"220088","491-VK","2018/05/26 20:59:26","新北市八里區荖阡坑路34-2號","121.401313333333","25.1299933333333","6500100","板橋區"
"220070","AAC-253","2018/05/26 20:59:30","新北市八里區中山路三段409號","121.368606666667","25.1349166666667","6500100","板橋區"
