"lineid","car","time","location","longitude","latitude","cityid","cityname"
"243001","297-R6","2018/05/26 21:11:29","新北市泰山區黎明路25號","121.421905","25.06087","6501600","泰山區"
"243006","680-BX","2018/05/26 21:05:48","新北市泰山區黎明路25號","121.42216","25.0606583333333","6501600","泰山區"
"231048","187-VK","2018/05/26 21:29:34","新北市新店區薏仁坑路11號","121.49835","24.9590483333333","6500600","新店區"
"231054","KEA-2219","2018/05/26 21:29:31","新北市新店區薏仁坑路6號","121.50057","24.9581383333333","6500600","新店區"
"231063","616-UM","2018/05/26 21:29:25","新北市新店區如意街61號","121.4937","24.9472583333333","6500600","新店區"
"241011","013-R5","2018/05/26 21:29:41","新北市三重區龍濱路190號","121.501243333333","25.07319","6500200","三重區"
"241017","063-VK","2018/05/26 21:29:33","新北市三重區中正北路25巷2號","121.493196666667","25.06269","6500200","三重區"
"241003","091-VK","2018/05/26 21:29:31","新北市三重區五華街141巷60號","121.493526666667","25.0866633333333","6500200","三重區"
"241005","262-UM","2018/05/26 21:29:44","新北市三重區仁華街118巷6號","121.48581","25.08302","6500200","三重區"
"241018","268-UM","2018/05/26 21:29:27","新北市五股區新城八路1號","121.447853333333","25.0887183333333","6500200","三重區"
"241007","398-BY","2018/05/26 21:29:28","新北市三重區正義北路120號","121.496885","25.06542","6500200","三重區"
"241024","887-TS","2018/05/26 21:29:33","新北市三重區忠孝路二段124巷8弄1號","121.483531666667","25.0683083333333","6500200","三重區"
"247010","341-TH","2018/05/26 21:29:39","新北市蘆洲區三民路28號","121.475921666667","25.0827383333333","6501400","蘆洲區"
"247006","053-VK","2018/05/26 21:29:30","新北市蘆洲區中原路23號","121.460496666667","25.0828766666667","6501400","蘆洲區"
"247016","007-UY","2018/05/26 21:29:25","新北市八里區荖阡坑路4-28號","121.398366666667","25.1425216666667","6501400","蘆洲區"
"251009","008-UM","2018/05/26 21:29:24","新北市淡水區民族路33巷16-8號","121.463395","25.135955","6501000","淡水區"
"251004","009-UM","2018/05/26 21:28:02","新北市淡水區民權路42號","121.459978333333","25.1370566666667","6501000","淡水區"
"251005","010-UM","2018/05/26 21:29:28","新北市淡水區長興街43巷14號","121.443491666667","25.1718483333333","6501000","淡水區"
"251013","KEA-2871","2018/05/26 21:29:29","新北市淡水區埤島60-1號","121.459313333333","25.1953316666667","6501000","淡水區"
"251016","179-VK","2018/05/26 21:29:34","新北市淡水區前洲子28號","121.441146666667","25.2192083333333","6501000","淡水區"
"251014","180-VK","2018/05/26 21:29:34","新北市淡水區六塊厝2-1號","121.450135","25.2404733333333","6501000","淡水區"
"251008","181-VK","2018/05/26 21:29:45","新北市淡水區水源街二段118-1號","121.45292","25.1746483333333","6501000","淡水區"
"251015","182-VK","2018/05/26 21:29:34","新北市淡水區淡金路三段2-1號","121.446745","25.1978816666667","6501000","淡水區"
"251010","413-VK","2018/05/26 21:29:31","新北市淡水區沙崙路25巷21號","121.42053","25.1824383333333","6501000","淡水區"
"251007","442-VK","2018/05/26 21:29:34","新北市淡水區淡金路一段69號","121.458303333333","25.1734483333333","6501000","淡水區"
"251012","443-VK","2018/05/26 21:29:44","新北市淡水區淡金路五段35巷46號","121.452488333333","25.234755","6501000","淡水區"
"251001","559-UM","2018/05/26 21:29:31","新北市淡水區濱海路二段202巷65弄31號","121.435065","25.19359","6501000","淡水區"
"251006","561-UM","2018/05/26 21:29:39","新北市淡水區公明街55號","121.443478333333","25.168665","6501000","淡水區"
"251011","650-BX","2018/05/26 21:29:37","新北市淡水區新民街166號","121.436943333333","25.1784883333333","6501000","淡水區"
"251003","673-BX","2018/05/26 21:29:40","新北市淡水區崁頂15-5號","121.439011666667","25.1858933333333","6501000","淡水區"
"242046","442-UM","2018/05/26 21:29:29","新北市八里區中山路三段409號","121.368471666667","25.135045","6500500","新莊區"
"220070","AAC-253","2018/05/26 21:29:30","新北市泰山區楓里路10號","121.442361666667","25.0580183333333","6500100","板橋區"
