"lineid","car","time","location","longitude","latitude","cityid","cityname"
"241024","887-TS","2018/05/26 22:09:33","新北市林口區太平里180號","121.368348333333","25.133855","6500200","三重區"
"235010","733-UM","2018/05/26 21:41:46","新北市中和區員山路36巷13號","121.484171666667","24.990805","6500300","中和區"
"247010","341-TH","2018/05/26 22:06:39","新北市八里區中山路三段409號","121.36859","25.1350916666667","6501400","蘆洲區"
"251004","009-UM","2018/05/26 22:09:30","新北市淡水區民族路33號","121.462251666667","25.1358683333333","6501000","淡水區"
"251005","010-UM","2018/05/26 22:09:28","新北市淡水區水源街一段150號","121.448193333333","25.1715433333333","6501000","淡水區"
"251008","181-VK","2018/05/26 22:09:25","新北市淡水區學府路104號","121.449853333333","25.1717883333333","6501000","淡水區"
"251010","413-VK","2018/05/26 22:09:31","新北市淡水區沙崙路200號","121.424725","25.18395","6501000","淡水區"
"251007","442-VK","2018/05/26 22:09:34","新北市淡水區北新路180號","121.449456666667","25.1787716666667","6501000","淡水區"
"251011","650-BX","2018/05/26 22:09:37","新北市淡水區水碓街7號","121.44314","25.1771366666667","6501000","淡水區"
