"lineid","car","time","location","longitude","latitude","cityid","cityname"
"248005","653-BX","2018/02/10 09:49:46","新北市五股區成泰路一段222號","121.4366","25.080085","6501500","五股區"
"244008","656-BX","2018/02/10 09:49:29","新北市林口區公園路52號","121.368755","25.06939","6501700","林口區"
"222004","289-BY","2018/02/10 09:47:06","新北市深坑區昇高坑路50-1號","121.629311666667","24.99568","6501800","深坑區"
"231007","189-VK","2018/02/10 09:49:28","新北市新店區新潭路三段215巷25號","121.508113333333","24.9041533333333","6500600","新店區"
"231008","192-VK","2018/02/10 09:48:40","新北市新店區平廣路一段256號","121.507888333333","24.8883616666667","6500600","新店區"
"235001","611-BX","2018/02/10 09:49:32","新北市中和區連城路607號","121.47812","24.9934033333333","6500300","中和區"
"223001","205-TH","2018/02/10 09:49:42","新北市石碇區二格路10號","121.625228333333","24.9631566666667","6501900","石碇區"
"223005","677-TV","2018/02/10 09:49:30","新北市石碇區小粗坑(潭邊里)2號","121.671221666667","24.9825033333333","6501900","石碇區"
"227006","282-VK","2018/02/10 09:43:58","新北市雙溪區長源里盤山坑1-1號","121.79285","25.0028183333333","6502500","雙溪區"
"252004","702-TV","2018/02/10 09:49:23","新北市三芝區圓山里石曹子坑64號","121.523746666667","25.2121916666667","6502100","三芝區"
"252007","AAC-283","2018/02/10 09:49:41","新北市三芝區新庄里新庄子112號","121.520988333333","25.266065","6502100","三芝區"
"237001","159-UY","2018/02/10 09:49:29","新北市三峽區國際二街73號","121.370736666667","24.9422166666667","6500900","三峽區"
"236006","498-BY","2018/02/10 09:49:26","新北市土城區中華路二段243號","121.437633333333","24.9724716666667","6501300","土城區"
