"lineid","car","time","location","longitude","latitude","cityid","cityname"
"248005","653-BX","2018/02/10 09:59:26","新北市五股區成泰路一段235-1號","121.436191666667","25.0795183333333","6501500","五股區"
"244008","656-BX","2018/02/10 09:59:29","新北市林口區文化一路一段15巷8-1號","121.36879","25.0693483333333","6501700","林口區"
"231007","189-VK","2018/02/10 09:59:29","新北市新店區新潭路三段215巷25號","121.508106666667","24.9041383333333","6500600","新店區"
"231008","192-VK","2018/02/10 09:48:40","新北市新店區平廣路一段256號","121.507888333333","24.8883616666667","6500600","新店區"
"223001","205-TH","2018/02/10 09:59:42","新北市石碇區內楒仔腳1號","121.632595","24.97005","6501900","石碇區"
"227006","282-VK","2018/02/10 09:54:38","新北市雙溪區長源里盤山坑16號","121.777381666667","24.998935","6502500","雙溪區"
"252004","702-TV","2018/02/10 09:59:43","新北市三芝區福德里土地公埔47號","121.515873333333","25.225505","6502100","三芝區"
"252007","AAC-283","2018/02/10 09:59:41","新北市三芝區新庄里新庄子91-1號","121.51035","25.2694433333333","6502100","三芝區"
