"lineid","car","time","location","longitude","latitude","cityid","cityname"
"248005","653-BX","2018/02/10 10:39:26","新北市五股區中興路二段37巷26號","121.460513333333","25.0749866666667","6501500","五股區"
"244008","656-BX","2018/02/10 10:39:29","新北市林口區文化一路一段15巷8-1號","121.368823333333","25.069265","6501700","林口區"
"231007","189-VK","2018/02/10 10:39:28","新北市新店區新潭路三段7號","121.50859","24.9159866666667","6500600","新店區"
"231008","192-VK","2018/02/10 10:39:08","新北市新店區小坑一路21-1號","121.532693333333","24.9126616666667","6500600","新店區"
"227006","282-VK","2018/02/10 10:39:38","新北市雙溪區新基里新基北街40-1號","121.867978333333","25.0376283333333","6502500","雙溪區"
"252007","AAC-283","2018/02/10 10:39:41","新北市三芝區新庄里番社后3號","121.501828333333","25.2666533333333","6502100","三芝區"
