"lineid","car","time","location","longitude","latitude","cityid","cityname"
"244008","656-BX","2018/02/10 10:59:29","新北市林口區文化一路一段15巷8-1號","121.368746666667","25.0693366666667","6501700","林口區"
"231007","189-VK","2018/02/10 10:59:38","新北市新店區新潭路二段20號","121.527163333333","24.9261816666667","6500600","新店區"
"231008","192-VK","2018/02/10 10:59:28","新北市新店區松林路16巷41號","121.546256666667","24.9067633333333","6500600","新店區"
"235028","005-UY","2018/02/10 10:59:46","新北市中和區員山路36巷16-3號","121.485011666667","24.99137","6500300","中和區"
"227006","282-VK","2018/02/10 10:59:38","新北市雙溪區雙溪里太平路70號","121.865608333333","25.0363033333333","6502500","雙溪區"
