"lineid","car","time","location","longitude","latitude","cityid","cityname"
"244008","656-BX","2018/02/10 11:19:28","新北市林口區中山路18號","121.396203333333","25.0782616666667","6501700","林口區"
"231007","189-VK","2018/02/10 11:19:48","新北市新店區華潭街52號","121.528735","24.95471","6500600","新店區"
"231008","192-VK","2018/02/10 11:19:28","新北市新店區成功路91號","121.537593333333","24.89521","6500600","新店區"
"235028","005-UY","2018/02/10 11:19:46","新北市中和區員山路36巷16-3號","121.485035","24.9913983333333","6500300","中和區"
"227006","282-VK","2018/02/10 11:19:38","新北市雙溪區魚行里公館7號","121.880821666667","25.020695","6502500","雙溪區"
