"lineid","car","time","location","longitude","latitude","cityid","cityname"
"234010","9373-KE","2018/02/10 12:08:53","新北市永和區福和路1號","121.525695","25.009345","6500400","永和區"
"231008","192-VK","2018/02/10 12:09:45","新北市新店區屈尺路199號","121.541588333333","24.9208883333333","6500600","新店區"
"235028","005-UY","2018/02/10 12:09:46","新北市中和區員山路36巷16-3號","121.485023333333","24.9913066666667","6500300","中和區"
"235031","255-BX","2018/02/10 12:03:01","新北市中和區和城路一段271巷1號","121.485535","24.9919033333333","6500300","中和區"
"228005","097-TW","2018/02/10 12:09:34","新北市貢寮區福隆里興隆街36號","121.941208333333","25.0172666666667","6502600","貢寮區"
"228004","212-TW","2018/02/10 12:09:37","新北市貢寮區貢寮里長泰路3號","121.907085","25.0205366666667","6502600","貢寮區"
"221010","297-VK","2018/02/10 12:09:44","新北市汐止區汐萬路一段256巷3號","121.652111666667","25.07482","6501100","汐止區"
