"lineid","car","time","location","longitude","latitude","cityid","cityname"
"234044","148-BY","2018/02/10 12:49:46","新北市永和區秀朗路二段126巷16號","121.524786666667","25.0012466666667","6500400","永和區"
"234005","207-UY","2018/02/10 12:49:35","新北市永和區文化路33號","121.514776666667","25.0150583333333","6500400","永和區"
"234078","298-R6","2018/02/10 12:49:41","新北市永和區永利路108號","121.521223333333","25.003335","6500400","永和區"
"234036","336-UY","2018/02/10 12:49:50","新北市永和區環河東路三段54號","121.526825","25.0061933333333","6500400","永和區"
"234062","337-UY","2018/02/10 12:49:45","新北市永和區環河東路二段92號","121.524433333333","25.0106283333333","6500400","永和區"
"234084","338-UY","2018/02/10 12:49:37","新北市永和區中正路140號","121.514675","24.9962","6500400","永和區"
"234015","745-BX","2018/02/10 12:49:39","新北市永和區忠孝街26巷27弄1號","121.515246666667","25.0169716666667","6500400","永和區"
"234028","746-BX","2018/02/10 12:49:38","新北市永和區得和路327號","121.523476666667","24.9996816666667","6500400","永和區"
"234012","KEA-2591","2018/02/10 12:49:44","新北市永和區保福路二段133巷27號","121.509205","25.013565","6500400","永和區"
"234060","AAD-866","2018/02/10 12:49:38","新北市永和區福和路307號","121.51626","25.0070833333333","6500400","永和區"
"234040","862-TW","2018/02/10 12:49:46","新北市永和區永貞路265號","121.511778333333","25.0047166666667","6500400","永和區"
"234048","863-TW","2018/02/10 12:49:41","新北市永和區保安路2號","121.51085","25.0174733333333","6500400","永和區"
"234025","9371-KE","2018/02/10 12:49:31","新北市永和區中正路657號","121.514868333333","25.0102333333333","6500400","永和區"
"234022","9381-KE","2018/02/10 12:49:38","新北市永和區竹林路119巷47號","121.522026666667","25.0118633333333","6500400","永和區"
"234010","9373-KE","2018/02/10 12:49:36","新北市永和區保福路二段158巷1號","121.509083333333","25.0150216666667","6500400","永和區"
"248017","225-UY","2018/02/10 12:49:41","新北市五股區中興路二段83巷26-6號","121.459943333333","25.0751766666667","6501500","五股區"
"234076","969-R7","2018/02/10 12:49:44","新北市永和區中正路46-1號","121.512981666667","24.9944316666667","6500400","永和區"
"234072","AAC-211","2018/02/10 12:49:42","新北市永和區福和路1號","121.52612","25.0097933333333","6500400","永和區"
"234066","AAC-212","2018/02/10 12:49:30","新北市中和區永貞路255號","121.512743333333","25.004065","6500400","永和區"
"234001","AAC-295","2018/02/10 12:49:38","新北市永和區福和路256號","121.518453333333","25.00755","6500400","永和區"
"231028","046-UY","2018/02/10 12:49:41","新北市新店區安華路28-1號","121.519558333333","24.961015","6500600","新店區"
"231060","106-UY","2018/02/10 12:49:34","新北市新店區安華路28-1號","121.519831666667","24.9608466666667","6500600","新店區"
"231012","108-UY","2018/02/10 12:49:48","新北市新店區安華路28-1號","121.519576666667","24.9610633333333","6500600","新店區"
"231013","110-UY","2018/02/10 12:49:47","新北市新店區安華路28-1號","121.51926","24.9612283333333","6500600","新店區"
"231017","KEA-2219","2018/02/10 12:49:28","新北市新店區安華路28-1號","121.519951666667","24.9613416666667","6500600","新店區"
"231023","AAD-862","2018/02/10 12:49:46","新北市新店區安華路28-1號","121.520021666667","24.9613316666667","6500600","新店區"
"231038","4715-K9","2018/02/10 12:49:28","新北市新店區安華路1-1號","121.519281666667","24.9603716666667","6500600","新店區"
"231034","645-TV","2018/02/10 12:49:42","新北市新店區安華路28-1號","121.519325","24.9606216666667","6500600","新店區"
"231033","720-UM","2018/02/10 12:49:37","新北市新店區安華路28-1號","121.518991666667","24.9611433333333","6500600","新店區"
"231005","897-TW","2018/02/10 12:49:37","新北市新店區安華路28-1號","121.519688333333","24.96061","6500600","新店區"
"231004","899-TW","2018/02/10 12:49:41","新北市新店區安華路28-1號","121.519091666667","24.96092","6500600","新店區"
"231037","AKT-0513","2018/02/10 12:49:36","新北市新店區安華路1-1號","121.51941","24.9605166666667","6500600","新店區"
"235028","005-UY","2018/02/10 12:49:46","新北市中和區員山路36巷16-3號","121.485035","24.991205","6500300","中和區"
"235002","185-VK","2018/02/10 12:49:46","新北市中和區景平路349號","121.504968333333","24.9934583333333","6500300","中和區"
"235031","255-BX","2018/02/10 12:49:37","新北市中和區新民街90號","121.48201","25.0077166666667","6500300","中和區"
"235035","269-TV","2018/02/10 12:49:35","新北市中和區員山路36巷16-3號","121.485245","24.9911566666667","6500300","中和區"
"228005","097-TW","2018/02/10 12:49:34","新北市貢寮區福連里福連街34-1號","121.988678333333","25.0111266666667","6502600","貢寮區"
"228004","212-TW","2018/02/10 12:49:36","新北市貢寮區吉林里內寮街20-1號","121.889855","24.99475","6502600","貢寮區"
"208004","AAC-292","2018/02/10 12:49:44","新北市金山區磺清路135號","121.639391666667","25.2277933333333","6502700","金山區"
"207002","749-BX","2018/02/10 12:49:16","新北市萬里區雙興里二坪路6號","121.651298333333","25.1742316666667","6502800","萬里區"
"252005","073-UM","2018/02/10 12:49:33","新北市三芝區埔坪里埔頭坑41號","121.50464","25.26462","6502100","三芝區"
"207001","662-BX","2018/02/10 12:49:35","新北市萬里區萬里里瑪鋉路261-1號","121.68984","25.1794416666667","6502800","萬里區"
"236006","498-BY","2018/02/10 12:49:42","新北市土城區永寧路35號","121.430183333333","24.96205","6501300","土城區"
