"lineid","car","time","location","longitude","latitude","cityid","cityname"
"234044","148-BY","2018/02/10 13:19:42","新北市永和區秀朗路二段148巷5弄2號","121.525333333333","25.0007516666667","6500400","永和區"
"234005","207-UY","2018/02/10 13:19:44","新北市永和區中山路一段324號","121.506365","25.00673","6500400","永和區"
"234078","298-R6","2018/02/10 13:19:41","新北市永和區福和路7巷7號","121.525315","25.0078216666667","6500400","永和區"
"234036","336-UY","2018/02/10 13:19:45","新北市永和區民樂街59巷1號","121.527748333333","24.9983533333333","6500400","永和區"
"234062","337-UY","2018/02/10 13:19:44","新北市永和區永元路17巷15號","121.521298333333","25.0006983333333","6500400","永和區"
"234084","338-UY","2018/02/10 13:19:37","新北市永和區永利路4巷8號","121.51757","25.0051533333333","6500400","永和區"
"234068","552-UM","2018/02/10 13:19:46","新北市永和區豫溪街97號","121.518651666667","25.01008","6500400","永和區"
"234015","745-BX","2018/02/10 13:19:39","新北市永和區文化路144巷27號","121.512438333333","25.016745","6500400","永和區"
"234028","746-BX","2018/02/10 13:19:37","新北市永和區厚德街62號","121.524308333333","24.998895","6500400","永和區"
"234052","KEA-2590","2018/02/10 13:19:43","新北市永和區中興街45號","121.516471666667","25.0118233333333","6500400","永和區"
"234012","KEA-2591","2018/02/10 13:19:38","新北市永和區仁愛路96號","121.512318333333","25.0131783333333","6500400","永和區"
"234060","AAD-866","2018/02/10 13:19:38","新北市永和區秀朗路一段147號","121.516298333333","25.0046266666667","6500400","永和區"
"234040","862-TW","2018/02/10 13:19:46","新北市永和區保平路151巷6弄12號","121.509785","25.0050433333333","6500400","永和區"
"234048","863-TW","2018/02/10 13:19:41","新北市永和區保福路二段88巷17號","121.511505","25.013795","6500400","永和區"
"234025","9371-KE","2018/02/10 13:19:31","新北市永和區大新街19巷4號","121.515036666667","25.0088816666667","6500400","永和區"
"234022","9381-KE","2018/02/10 13:19:35","新北市永和區竹林路124巷22號","121.518545","25.0112883333333","6500400","永和區"
"234010","9373-KE","2018/02/10 13:19:48","新北市永和區文化路90巷32弄10號","121.5136","25.0165183333333","6500400","永和區"
"248017","225-UY","2018/02/10 13:19:41","新北市五股區御史路205-1號","121.430925","25.1010683333333","6501500","五股區"
"234076","969-R7","2018/02/10 13:19:36","新北市永和區民有街5號","121.516045","24.9971733333333","6500400","永和區"
"234072","AAC-211","2018/02/10 13:19:42","新北市永和區竹林路46號","121.517655","25.0142316666667","6500400","永和區"
"234066","AAC-212","2018/02/10 13:19:50","新北市永和區保平路59號","121.511598333333","25.006995","6500400","永和區"
"234001","AAC-295","2018/02/10 13:19:38","新北市永和區保福路一段88號","121.512178333333","25.0103316666667","6500400","永和區"
"244005","248-BX","2018/02/10 13:19:30","新北市林口區文化北路一段370號","121.362605","25.07419","6501700","林口區"
"231002","002-UM","2018/02/10 13:19:39","新北市新店區安華路28-1號","121.519838333333","24.960755","6500600","新店區"
"231025","0293-UT","2018/02/10 13:19:45","新北市新店區環河路29巷1號","121.53684","24.96137","6500600","新店區"
"231028","046-UY","2018/02/10 13:19:42","新北市新店區安華路28-1號","121.5196","24.9609083333333","6500600","新店區"
"231029","106-UY","2018/02/10 13:19:34","新北市新店區安華路28-1號","121.519771666667","24.9609283333333","6500600","新店區"
"231018","107-UY","2018/02/10 13:19:32","新北市新店區安康路一段3-1號","121.53445","24.9607683333333","6500600","新店區"
"231012","108-UY","2018/02/10 13:19:47","新北市新店區安康路一段61號","121.530586666667","24.9610083333333","6500600","新店區"
"231013","110-UY","2018/02/10 13:19:47","新北市新店區秀山路72號","121.531213333333","24.9609633333333","6500600","新店區"
"231020","187-VK","2018/02/10 13:19:46","新北市新店區北宜路一段122號","121.53933","24.9551166666667","6500600","新店區"
"231035","188-VK","2018/02/10 13:19:32","新北市新店區安華路28-1號","121.519571666667","24.961125","6500600","新店區"
"231017","KEA-2219","2018/02/10 13:19:28","新北市新店區安康路一段85號","121.529493333333","24.9614183333333","6500600","新店區"
"231026","256-BX","2018/02/10 13:19:42","新北市新店區安華路28-1號","121.519896666667","24.9612016666667","6500600","新店區"
"231010","278-BY","2018/02/10 13:19:45","新北市新店區安康路一段24巷2號","121.532895","24.9603866666667","6500600","新店區"
"231023","AAD-862","2018/02/10 13:19:46","新北市新店區安康路一段9-2號","121.533898333333","24.9605633333333","6500600","新店區"
"231027","3712-VJ","2018/02/10 13:19:35","新北市新店區安康路一段9-2號","121.53375","24.960525","6500600","新店區"
"231024","4716-K9","2018/02/10 13:19:32","新北市新店區安康路一段52巷2號","121.53012","24.961165","6500600","新店區"
"231038","4715-K9","2018/02/10 13:19:48","新北市新店區安華路28-1號","121.519388333333","24.9606283333333","6500600","新店區"
"231003","616-UM","2018/02/10 13:19:44","新北市新店區安康路一段206號","121.524051666667","24.96347","6500600","新店區"
"231001","619-UM","2018/02/10 13:19:46","新北市新店區安華路28-1號","121.5196","24.9608","6500600","新店區"
"231034","645-TV","2018/02/10 13:19:43","新北市新店區安華路28-1號","121.519431666667","24.9605883333333","6500600","新店區"
"231036","719-UY","2018/02/10 13:19:31","新北市新店區安豐路54-1號","121.499991666667","24.9540166666667","6500600","新店區"
"231033","720-UM","2018/02/10 13:19:37","新北市新店區安忠路205巷8號","121.509823333333","24.9552133333333","6500600","新店區"
"231005","897-TW","2018/02/10 13:19:37","新北市新店區安華路28-1號","121.519545","24.960555","6500600","新店區"
"231006","898-TW","2018/02/10 13:19:48","新北市新店區安華路28-1號","121.519413333333","24.9608933333333","6500600","新店區"
"231004","899-TW","2018/02/10 13:19:41","新北市新店區安華路28-1號","121.519241666667","24.9608966666667","6500600","新店區"
"231037","AKT-0513","2018/02/10 13:19:47","新北市新店區安華路1-1號","121.519578333333","24.96047","6500600","新店區"
"235030","003-UY","2018/02/10 13:19:41","新北市中和區中山路二段64巷14弄2號","121.503431666667","25.0054416666667","6500300","中和區"
"235028","005-UY","2018/02/10 13:19:46","新北市中和區中正路140號","121.499383333333","24.9937583333333","6500300","中和區"
"235027","006-UY","2018/02/10 13:19:43","新北市中和區和城路一段271巷1號","121.485463333333","24.991875","6500300","中和區"
"235020","096-UM","2018/02/10 13:19:35","新北市中和區員山路36巷13號","121.484293333333","24.9915316666667","6500300","中和區"
"235003","097-UM","2018/02/10 13:19:45","新北市中和區中正路2-1號","121.50325","24.9936816666667","6500300","中和區"
"235029","098-UM","2018/02/10 13:19:34","新北市中和區橋和路328號","121.49774","25.0073916666667","6500300","中和區"
"235004","150-BY","2018/02/10 13:19:38","新北市中和區安平路38號","121.509826666667","24.99497","6500300","中和區"
"235022","151-BY","2018/02/10 13:19:36","新北市中和區圓通路367巷60-1號","121.491855","24.98411","6500300","中和區"
"235019","183-VK","2018/02/10 13:19:41","新北市中和區中正路637巷52弄1號","121.485406666667","24.9935666666667","6500300","中和區"
"235002","185-VK","2018/02/10 13:19:46","新北市中和區大智街30號","121.521335","24.99203","6500300","中和區"
"235013","186-VK","2018/02/10 13:19:43","新北市中和區員山路36巷16-3號","121.48453","24.991165","6500300","中和區"
"235031","255-BX","2018/02/10 13:19:37","新北市中和區民樂路65號","121.483913333333","25.0012916666667","6500300","中和區"
"235036","301-VK","2018/02/10 13:19:52","新北市中和區連城路220號","121.491311666667","24.99649","6500300","中和區"
"235007","352-BY","2018/02/10 13:19:33","新北市中和區景平路379號","121.504026666667","24.9934316666667","6500300","中和區"
"235025","378-QA","2018/02/10 13:19:32","新北市中和區民德路218號","121.468201666667","24.9979283333333","6500300","中和區"
"235035","269-TV","2018/02/10 13:19:35","新北市中和區永和路458巷1弄26號","121.48327","25.0126516666667","6500300","中和區"
"235033","4980-A6","2018/02/10 13:19:29","新北市中和區圓通路222號","121.495461666667","24.99315","6500300","中和區"
"235006","551-UM","2018/02/10 13:19:44","新北市中和區大仁街19巷8號","121.517303333333","24.9932583333333","6500300","中和區"
"235034","558-UM","2018/02/10 13:19:29","新北市中和區圓通路177號","121.497568333333","24.9950383333333","6500300","中和區"
"235009","565-BX","2018/02/10 13:19:35","新北市中和區復興路303號","121.501476666667","24.99012","6500300","中和區"
"235018","640-BX","2018/02/10 13:19:37","新北市中和區國光街60號","121.470503333333","25.00025","6500300","中和區"
"235024","647-TV","2018/02/10 13:19:41","新北市中和區員山路36巷16-3號","121.484885","24.9916066666667","6500300","中和區"
"235011","732-UM","2018/02/10 13:19:39","新北市中和區中興街127號","121.499966666667","24.991685","6500300","中和區"
"235026","800-TS","2018/02/10 13:19:31","新北市中和區錦和路126號","121.489085","24.9983916666667","6500300","中和區"
"235021","801-TS","2018/02/10 13:19:41","新北市中和區員山路90號","121.480888333333","24.9944383333333","6500300","中和區"
"235005","802-TS","2018/02/10 13:19:34","新北市中和區中興街118巷8號","121.499891666667","24.9935866666667","6500300","中和區"
"235016","805-TS","2018/02/10 13:19:43","新北市中和區興南路一段137號","121.508906666667","24.9874983333333","6500300","中和區"
"235012","896-TW","2018/02/10 13:19:44","新北市中和區錦和路350-1號","121.49049","24.9935916666667","6500300","中和區"
"235017","900-TW","2018/02/10 13:19:47","新北市中和區員山路36巷16-2號","121.48512","24.9917366666667","6500300","中和區"
"235015","157-BY","2018/02/10 13:19:41","新北市中和區信義街75-2號","121.51185","24.9876033333333","6500300","中和區"
"235001","AAC-213","2018/02/10 13:19:41","新北市中和區景德街52號","121.51754","24.9915283333333","6500300","中和區"
"228005","097-TW","2018/02/10 13:19:46","新北市貢寮區美豐里丹裡街18-2號","121.912421666667","25.0573133333333","6502600","貢寮區"
"228004","212-TW","2018/02/10 13:19:36","新北市貢寮區吉林里內寮街23號","121.901918333333","24.9847","6502600","貢寮區"
"253001","4710-YM","2018/02/10 13:19:32","新北市石門區楓林11號","121.537168333333","25.2947916666667","6502200","石門區"
"253003","6232-TK","2018/02/10 13:19:33","新北市石門區內石門50-4號","121.571255","25.2629133333333","6502200","石門區"
"253002","637-UY","2018/02/10 13:19:30","新北市石門區九芎林4-1號","121.555696666667","25.273085","6502200","石門區"
"253004","8270-PC","2018/02/10 13:19:28","新北市石門區阿里荖1號","121.616816666667","25.27766","6502200","石門區"
"208004","AAC-292","2018/02/10 13:19:44","新北市金山區南勢湖86號","121.606511666667","25.2096133333333","6502700","金山區"
"207002","749-BX","2018/02/10 13:19:43","新北市萬里區雙興里大坪路38號","121.626405","25.1714916666667","6502800","萬里區"
"252005","073-UM","2018/02/10 13:19:34","新北市三芝區八賢里八連溪78號","121.51962","25.2295783333333","6502100","三芝區"
"207001","662-BX","2018/02/10 13:19:35","新北市萬里區龜吼里新墾丁路30號","121.679651666667","25.1943816666667","6502800","萬里區"
"236006","498-BY","2018/02/10 13:19:42","新北市土城區亞洲路134號","121.43365","24.9716933333333","6501300","土城區"
"242046","172-VK","2018/02/10 13:19:45","新北市新莊區中正路316號","121.446365","25.03507","6500500","新莊區"
"238001","282-BY","2018/02/10 13:19:40","新北市樹林區千歲街68號","121.425975","24.9976016666667","6500700","樹林區"
"220010","305-R5","2018/02/10 13:19:49","新北市板橋區民生路二段120號","121.47041","25.0196183333333","6500100","板橋區"
"220014","829-TW","2018/02/10 13:19:46","新北市板橋區民生路二段89-6號","121.470486666667","25.01938","6500100","板橋區"
