"lineid","car","time","location","longitude","latitude","cityid","cityname"
"234044","148-BY","2018/02/10 13:59:47","新北市永和區永利路163號","121.52505","25.003465","6500400","永和區"
"234005","207-UY","2018/02/10 13:59:35","新北市中和區中和路356號","121.510343333333","25.0016516666667","6500400","永和區"
"234078","298-R6","2018/02/10 13:59:50","新北市永和區永亨路107號","121.523401666667","25.0047116666667","6500400","永和區"
"234036","336-UY","2018/02/10 13:59:50","新北市永和區成功路二段151號","121.52677","24.9975783333333","6500400","永和區"
"234062","337-UY","2018/02/10 13:59:44","新北市永和區中正路368巷1弄18號","121.5189","25.000985","6500400","永和區"
"234084","338-UY","2018/02/10 13:59:42","新北市永和區永利路45號","121.519125","25.0055283333333","6500400","永和區"
"234068","552-UM","2018/02/10 13:59:46","新北市永和區竹林路222號","121.520801666667","25.007965","6500400","永和區"
"234015","745-BX","2018/02/10 13:59:39","新北市永和區永和路二段290號","121.51607","25.0155483333333","6500400","永和區"
"234028","746-BX","2018/02/10 13:59:37","新北市永和區民生路67巷22號","121.523843333333","24.9971066666667","6500400","永和區"
"234052","KEA-2590","2018/02/10 13:59:34","新北市永和區竹林路73-1號","121.51873","25.01328","6500400","永和區"
"234012","KEA-2591","2018/02/10 13:59:38","新北市永和區仁愛路242號","121.508198333333","25.0116116666667","6500400","永和區"
"234060","AAD-866","2018/02/10 13:59:38","新北市永和區中正路283巷2號","121.51727","25.0011433333333","6500400","永和區"
"234040","862-TW","2018/02/10 13:59:46","新北市永和區雙和街13號","121.509501666667","25.0018133333333","6500400","永和區"
"234048","863-TW","2018/02/10 13:59:41","新北市永和區保安路214號","121.507453333333","25.0136266666667","6500400","永和區"
"234022","9381-KE","2018/02/10 13:59:35","新北市永和區永和路二段166號","121.515375","25.0128933333333","6500400","永和區"
"248017","225-UY","2018/02/10 13:59:41","新北市五股區民義路一段287巷3號","121.425116666667","25.09211","6501500","五股區"
"234076","969-R7","2018/02/10 13:59:36","新北市永和區民權路30號","121.520218333333","24.9991","6500400","永和區"
"234072","AAC-211","2018/02/10 13:59:42","新北市永和區豫溪街185號","121.52249","25.0103566666667","6500400","永和區"
"234066","AAC-212","2018/02/10 13:59:50","新北市永和區永貞路360巷2號","121.510401666667","25.0066383333333","6500400","永和區"
"234001","AAC-295","2018/02/10 13:59:48","新北市永和區福和路315號","121.516025","25.0072233333333","6500400","永和區"
"231002","002-UM","2018/02/10 13:59:39","新北市新店區中正路727號","121.53354","24.9912616666667","6500600","新店區"
"231025","0293-UT","2018/02/10 13:59:45","新北市新店區中正路328巷42弄6號","121.538378333333","24.976175","6500600","新店區"
"231028","046-UY","2018/02/10 13:59:41","新北市新店區安和路三段61號","121.517975","24.9831316666667","6500600","新店區"
"231029","106-UY","2018/02/10 13:59:34","新北市新店區安康路二段57號","121.514143333333","24.9633033333333","6500600","新店區"
"231018","107-UY","2018/02/10 13:59:32","新北市新店區中央路68號","121.532568333333","24.9771833333333","6500600","新店區"
"231012","108-UY","2018/02/10 13:59:48","新北市新店區中興路一段282-3號","121.546106666667","24.9683083333333","6500600","新店區"
"231013","110-UY","2018/02/10 13:59:47","新北市新店區明德路111號","121.541455","24.979475","6500600","新店區"
"231020","187-VK","2018/02/10 13:59:46","新北市新店區屈尺路216號","121.543538333333","24.9236783333333","6500600","新店區"
"231035","188-VK","2018/02/10 13:59:52","新北市新店區安康路二段85巷6號","121.513445","24.9625766666667","6500600","新店區"
"231017","KEA-2219","2018/02/10 13:59:48","新北市新店區郵政路62號","121.55549","24.9515783333333","6500600","新店區"
"231026","256-BX","2018/02/10 13:59:42","新北市新店區中央路133巷15弄29號","121.53182","24.9748166666667","6500600","新店區"
"231023","AAD-862","2018/02/10 13:59:46","新北市新店區文中路51號","121.539781666667","24.9566016666667","6500600","新店區"
"231027","3712-VJ","2018/02/10 13:59:35","新北市新店區北宜路一段7號","121.538373333333","24.9583366666667","6500600","新店區"
"231024","4716-K9","2018/02/10 13:59:52","新北市新店區新生街55號","121.538836666667","24.96691","6500600","新店區"
"231038","4715-K9","2018/02/10 13:59:48","新北市新店區溪洲路121號","121.531063333333","24.9628633333333","6500600","新店區"
"231003","616-UM","2018/02/10 13:59:44","新北市新店區北宜路一段3號","121.538533333333","24.9585516666667","6500600","新店區"
"231030","618-UM","2018/02/10 13:59:39","新北市新店區安興路7-1號","121.514965","24.9685283333333","6500600","新店區"
"231001","619-UM","2018/02/10 13:59:46","新北市新店區三民路24號","121.53713","24.97102","6500600","新店區"
"231034","645-TV","2018/02/10 13:59:43","新北市新店區達觀路27-1號","121.503701666667","24.938455","6500600","新店區"
"231036","719-UY","2018/02/10 13:59:31","新北市新店區安祥路110巷30弄15號","121.474321666667","24.9570683333333","6500600","新店區"
"231033","720-UM","2018/02/10 13:59:37","新北市新店區太平路27號","121.533695","24.958285","6500600","新店區"
"231005","897-TW","2018/02/10 13:59:37","新北市新店區中興路三段248號","121.542948333333","24.98394","6500600","新店區"
"231006","898-TW","2018/02/10 13:59:48","新北市新店區北宜路二段215號","121.55327","24.95339","6500600","新店區"
"231004","899-TW","2018/02/10 13:59:41","新北市新店區北新路二段107號","121.5429","24.9744416666667","6500600","新店區"
"231037","AKT-0513","2018/02/10 13:59:46","新北市新店區安康路三段207巷15號","121.488421666667","24.95084","6500600","新店區"
"235030","003-UY","2018/02/10 13:59:41","新北市中和區中山路二段131巷4號","121.502715","25.00264","6500300","中和區"
"235028","005-UY","2018/02/10 13:59:46","新北市中和區泰和街25號","121.49937","25.0001083333333","6500300","中和區"
"235027","006-UY","2018/02/10 13:59:43","新北市中和區錦和路91號","121.490026666667","24.9957883333333","6500300","中和區"
"235020","096-UM","2018/02/10 13:59:35","新北市中和區中正路1226號","121.479383333333","25.0109683333333","6500300","中和區"
"235003","097-UM","2018/02/10 13:59:45","新北市中和區景平路64巷13弄16號","121.521976666667","24.991405","6500300","中和區"
"235029","098-UM","2018/02/10 13:59:34","新北市中和區福祥路158號","121.498613333333","25.0077833333333","6500300","中和區"
"235004","150-BY","2018/02/10 13:59:38","新北市中和區保健路61巷3號","121.509598333333","24.9974533333333","6500300","中和區"
"235022","151-BY","2018/02/10 13:59:36","新北市中和區連城路532巷12號","121.47507","24.9926183333333","6500300","中和區"
"235019","183-VK","2018/02/10 13:59:21","新北市中和區中山路三段229巷35號","121.469518333333","25.0056983333333","6500300","中和區"
"235002","185-VK","2018/02/10 13:59:46","新北市中和區大勇街31巷6弄3號","121.517226666667","24.9943666666667","6500300","中和區"
"235013","186-VK","2018/02/10 13:59:53","新北市中和區景安路167巷31號","121.506838333333","24.9952116666667","6500300","中和區"
"235031","255-BX","2018/02/10 13:59:36","新北市中和區新生街220巷4號","121.483001666667","24.9985033333333","6500300","中和區"
"235008","293-VK","2018/02/10 13:59:52","新北市中和區中興街161巷6弄2號","121.500735","24.9908616666667","6500300","中和區"
"235036","301-VK","2018/02/10 13:59:44","新北市中和區景平路681號","121.496613333333","25.002935","6500300","中和區"
"235007","352-BY","2018/02/10 13:59:33","新北市中和區秀朗路三段24號","121.526513333333","24.9962183333333","6500300","中和區"
"235032","377-QA","2018/02/10 13:59:53","新北市中和區圓通路222號","121.495386666667","24.9931233333333","6500300","中和區"
"235025","378-QA","2018/02/10 13:59:52","新北市中和區民治街21巷1號","121.47535","25.0024166666667","6500300","中和區"
"235035","269-TV","2018/02/10 13:59:35","新北市中和區建一路85號","121.488023333333","25.002525","6500300","中和區"
"235014","4979-A6","2018/02/10 13:59:49","新北市中和區忠孝街58巷7號","121.512046666667","24.98335","6500300","中和區"
"235033","4980-A6","2018/02/10 13:59:49","新北市中和區景平路459巷2弄1號","121.500306666667","24.996395","6500300","中和區"
"235006","551-UM","2018/02/10 13:59:44","新北市中和區秀朗路三段50巷2弄8號","121.526178333333","24.9958983333333","6500300","中和區"
"235034","558-UM","2018/02/10 13:59:49","新北市中和區中和路200號","121.505455","24.9996833333333","6500300","中和區"
"235009","565-BX","2018/02/10 13:59:37","新北市中和區景新街467巷32弄10號","121.514308333333","24.988085","6500300","中和區"
"235018","640-BX","2018/02/10 13:59:37","新北市中和區民享街29-1號","121.473973333333","25.004295","6500300","中和區"
"235024","647-TV","2018/02/10 13:59:46","新北市中和區中山路三段134號","121.473888333333","25.0062683333333","6500300","中和區"
"235011","732-UM","2018/02/10 13:59:39","新北市中和區興南路二段32巷5號","121.507071666667","24.9854766666667","6500300","中和區"
"235010","733-UM","2018/02/10 13:59:41","新北市中和區興南路一段135巷22弄12號","121.509081666667","24.9867733333333","6500300","中和區"
"235026","800-TS","2018/02/10 13:59:52","新北市中和區中山路二段340巷21-1號","121.49341","25.0031566666667","6500300","中和區"
"235021","801-TS","2018/02/10 13:59:41","新北市中和區民安街63號","121.478686666667","24.9995966666667","6500300","中和區"
"235005","802-TS","2018/02/10 13:59:34","新北市中和區永貞路253號","121.512798333333","25.0040933333333","6500300","中和區"
"235016","805-TS","2018/02/10 13:59:43","新北市中和區興南路二段261巷1號","121.50259","24.9813883333333","6500300","中和區"
"235012","896-TW","2018/02/10 13:59:43","新北市中和區南山路250巷2號","121.50782","24.9889266666667","6500300","中和區"
"235017","900-TW","2018/02/10 13:59:47","新北市中和區民德路330號","121.466638333333","24.99448","6500300","中和區"
"235015","157-BY","2018/02/10 13:59:41","新北市中和區忠孝街106巷43號","121.513721666667","24.9843533333333","6500300","中和區"
"235001","AAC-213","2018/02/10 13:59:41","新北市中和區自立路141巷36號","121.523971666667","24.993785","6500300","中和區"
"235023","AAC-215","2018/02/10 13:59:50","新北市中和區圓通路367巷18-5號","121.491696666667","24.9884733333333","6500300","中和區"
"220016","013-TV","2018/02/10 13:59:33","新北市板橋區中山路二段465巷74弄2-5號","121.4812","25.0220733333333","6500100","板橋區"
"220013","072-UY","2018/02/10 13:59:32","新北市板橋區漢生東路340巷12號","121.471381666667","25.0073166666667","6500100","板橋區"
"220034","073-UY","2018/02/10 13:59:39","新北市板橋區中正路245號","121.455838333333","25.01823","6500100","板橋區"
"220105","075-UY","2018/02/10 13:59:39","新北市板橋區莊敬路66號","121.471673333333","25.0254683333333","6500100","板橋區"
"220017","AAD-861","2018/02/10 13:59:51","新北市板橋區華興街76號","121.45714","25.0050583333333","6500100","板橋區"
"247019","500-BY","2018/02/10 13:59:46","新北市蘆洲區民族路422巷35號","121.473485","25.0935016666667","6501400","蘆洲區"
"247007","341-TH","2018/02/10 13:59:37","新北市蘆洲區集賢路269巷3號","121.481558333333","25.0836516666667","6501400","蘆洲區"
"247009","339-TH","2018/02/10 13:59:45","新北市蘆洲區集賢路224巷25號","121.481646666667","25.0870533333333","6501400","蘆洲區"
"247001","337-TH","2018/02/10 13:59:47","新北市蘆洲區三民路605號","121.460531666667","25.0937133333333","6501400","蘆洲區"
"247003","336-TH","2018/02/10 13:59:53","新北市蘆洲區中華街6巷8號","121.463176666667","25.0818616666667","6501400","蘆洲區"
"247015","057-VK","2018/02/10 13:59:39","新北市蘆洲區光華路32號","121.4693","25.0832683333333","6501400","蘆洲區"
"247005","056-VK","2018/02/10 13:59:45","新北市蘆洲區永安南路二段58號","121.465453333333","25.0778983333333","6501400","蘆洲區"
"247013","007-UY","2018/02/10 13:59:40","新北市蘆洲區中正路100號","121.469818333333","25.0843666666667","6501400","蘆洲區"
"247017","001-UY","2018/02/10 13:59:38","新北市蘆洲區民族路327巷93號","121.475783333333","25.08902","6501400","蘆洲區"
"228005","097-TW","2018/02/10 13:59:14","新北市貢寮區美豐里雞母嶺街52-1號","121.88856","25.0685983333333","6502600","貢寮區"
"228004","212-TW","2018/02/10 13:59:36","新北市貢寮區龍崗里嵩陽街35-1號","121.906681666667","25.017505","6502600","貢寮區"
"253001","4710-YM","2018/02/10 13:59:32","新北市石門區八甲61號","121.52742","25.2716516666667","6502200","石門區"
"253003","6232-TK","2018/02/10 13:59:47","新北市石門區尖子鹿50號","121.580398333333","25.273345","6502200","石門區"
"253002","637-UY","2018/02/10 13:59:38","新北市石門區七股56號","121.553871666667","25.2561866666667","6502200","石門區"
"253004","8270-PC","2018/02/10 13:59:48","新北市石門區草埔尾27-1號","121.603816666667","25.2645116666667","6502200","石門區"
"208004","AAC-292","2018/02/10 13:59:45","新北市金山區名流路2號","121.596626666667","25.203255","6502700","金山區"
"207004","291-VK","2018/02/10 13:59:46","新北市萬里區溪底里富士坪路19號","121.626105","25.1487766666667","6502800","萬里區"
"252005","073-UM","2018/02/10 13:59:33","新北市三芝區圓山里二坪頂79號","121.540423333333","25.2451133333333","6502100","三芝區"
"207001","662-BX","2018/02/10 13:59:35","新北市萬里區磺潭里清水18號","121.637861666667","25.1975866666667","6502800","萬里區"
"236068","105-UM","2018/02/10 13:59:43","新北市土城區明德路一段134號","121.463606666667","24.9788833333333","6501300","土城區"
"236041","107-UM","2018/02/10 13:59:41","新北市土城區城林路6巷80號","121.438333333333","24.9797333333333","6501300","土城區"
"236075","166-UM","2018/02/10 13:59:37","新北市土城區永寧路32巷2號","121.429173333333","24.96061","6501300","土城區"
"236029","253-BX","2018/02/10 13:59:46","新北市土城區中央路二段219-7號","121.440796666667","24.9738883333333","6501300","土城區"
"236024","269-VK","2018/02/10 13:59:40","新北市土城區承天路67號","121.439556666667","24.9634516666667","6501300","土城區"
"236013","270-VK","2018/02/10 13:59:35","新北市土城區城林路6巷80號","121.438468333333","24.9798183333333","6501300","土城區"
"236035","271-VK","2018/02/10 13:59:49","新北市土城區中央路二段98號","121.442143333333","24.9783416666667","6501300","土城區"
"236017","401-BY","2018/02/10 13:59:50","新北市土城區城林路6巷80號","121.438625","24.9797633333333","6501300","土城區"
"236006","498-BY","2018/02/10 13:59:42","新北市土城區中央路一段19號","121.448506666667","24.99099","6501300","土城區"
"236057","912-UM","2018/02/10 13:59:36","新北市土城區中央路三段188號","121.430471666667","24.964895","6501300","土城區"
"236045","913-UM","2018/02/10 13:59:34","新北市土城區城林路6巷80號","121.438383333333","24.9797916666667","6501300","土城區"
"236061","915-UM","2018/02/10 13:59:52","新北市土城區學士路123號","121.447495","24.9760466666667","6501300","土城區"
"236054","AAC-216","2018/02/10 13:59:51","新北市土城區城林路6巷80號","121.438408333333","24.9798283333333","6501300","土城區"
"242046","172-VK","2018/02/10 13:59:45","新北市樹林區環河路10號","121.427553333333","24.9785966666667","6500500","新莊區"
"238001","282-BY","2018/02/10 13:59:40","新北市樹林區千歲街62號","121.425938333333","24.9974366666667","6500700","樹林區"
"220027","145-BY","2018/02/10 13:59:43","新北市板橋區民權路202巷7弄25號","121.458991666667","25.0149816666667","6500100","板橋區"
"220028","200-UY","2018/02/10 13:59:43","新北市板橋區大觀路二段265巷1弄14號","121.443565","24.998465","6500100","板橋區"
"220030","610-BX","2018/02/10 13:59:40","新北市板橋區篤行路三段2-1號","121.429348333333","24.9878666666667","6500100","板橋區"
"220040","267-BY","2018/02/10 13:59:32","新北市板橋區莒光路165巷44號","121.47449","25.0251383333333","6500100","板橋區"
"220004","276-BY","2018/02/10 13:59:45","新北市板橋區信義路28-6號","121.457106666667","24.995115","6500100","板橋區"
"220020","277-BY","2018/02/10 13:59:41","新北市板橋區溪北路154號","121.430441666667","24.988245","6500100","板橋區"
"220050","280-UM","2018/02/10 13:59:47","新北市板橋區文化路二段182巷17號","121.472221666667","25.0266316666667","6500100","板橋區"
"220019","283-VK","2018/02/10 13:59:34","新北市板橋區忠孝路130號","121.463351666667","25.0021883333333","6500100","板橋區"
"220043","285-UM","2018/02/10 13:59:44","新北市板橋區文化路二段31號","121.468796666667","25.0249116666667","6500100","板橋區"
"220001","285-VK","2018/02/10 13:59:36","新北市板橋區中山路二段89巷33號","121.473646666667","25.01694","6500100","板橋區"
"220031","286-VK","2018/02/10 13:59:40","新北市板橋區大觀路一段38巷156弄39號","121.442663333333","25.0059433333333","6500100","板橋區"
"220029","287-VK","2018/02/10 13:59:41","新北市板橋區南雅西路二段100號","121.452433333333","25.0117716666667","6500100","板橋區"
"220039","288-VK","2018/02/10 13:59:41","新北市板橋區四維路177巷2弄1號","121.463916666667","25.026245","6500100","板橋區"
"220009","293-UM","2018/02/10 13:59:45","新北市板橋區富山街109巷79號","121.47516","25.021115","6500100","板橋區"
"220032","296-UM","2018/02/10 13:59:36","新北市板橋區龍興街63巷2號","121.442985","25.00129","6500100","板橋區"
"220023","303-R5","2018/02/10 13:59:42","新北市板橋區館前西路211號","121.45458","25.0084066666667","6500100","板橋區"
"220010","305-R5","2018/02/10 13:59:49","新北市板橋區三民路二段245巷67號","121.48102","25.0125583333333","6500100","板橋區"
"220041","307-R5","2018/02/10 13:59:48","新北市板橋區文化路一段247號","121.464333333333","25.0180583333333","6500100","板橋區"
"220098","317-R6","2018/02/10 13:59:47","新北市板橋區民有街21號","121.466026666667","25.0250416666667","6500100","板橋區"
"220012","486-VK","2018/02/10 13:59:48","新北市板橋區漢生東路168號","121.466835","25.0146216666667","6500100","板橋區"
"220038","487-VK","2018/02/10 13:59:44","新北市板橋區文化路二段315號","121.472198333333","25.0297316666667","6500100","板橋區"
"220037","491-VK","2018/02/10 13:59:49","新北市板橋區文化路二段16-2號","121.468861666667","25.0243333333333","6500100","板橋區"
"220104","560-BX","2018/02/10 13:59:50","新北市板橋區中正路341巷35號","121.454171666667","25.0197316666667","6500100","板橋區"
"220052","561-BX","2018/02/10 13:59:35","新北市板橋區介壽街120號","121.46984","25.0177533333333","6500100","板橋區"
"220011","609-BX","2018/02/10 13:59:40","新北市板橋區中山路二段121號","121.474848333333","25.0162766666667","6500100","板橋區"
"220005","686-BX","2018/02/10 13:59:43","新北市板橋區館前東路62號","121.461151666667","25.00734","6500100","板橋區"
"220025","687-BX","2018/02/10 13:59:48","新北市板橋區大觀路二段443-2號","121.440885","24.9949733333333","6500100","板橋區"
"220042","689-BX","2018/02/10 13:59:38","新北市板橋區民生路三段12號","121.46771","25.0242366666667","6500100","板橋區"
"220002","741-BX","2018/02/10 13:59:51","新北市板橋區重慶路141號","121.462375","25.0045616666667","6500100","板橋區"
"220003","827-TW","2018/02/10 13:59:42","新北市板橋區中山路一段158巷6號","121.465973333333","25.0116183333333","6500100","板橋區"
"220014","829-TW","2018/02/10 13:59:46","新北市板橋區三民路二段186巷40號","121.477308333333","25.0138633333333","6500100","板橋區"
"220045","830-TW","2018/02/10 13:59:49","新北市板橋區莒光路92號","121.471873333333","25.0240166666667","6500100","板橋區"
"220022","895-R6","2018/02/10 13:59:30","新北市板橋區南雅南路一段106號","121.454836666667","25.0043316666667","6500100","板橋區"
"220021","985-R7","2018/02/10 13:59:33","新北市板橋區西門街2號","121.455841666667","25.011555","6500100","板橋區"
"220046","AAC-210","2018/02/10 13:59:47","新北市板橋區四維路137巷31號","121.463791666667","25.0246616666667","6500100","板橋區"
"220018","AAC-253","2018/02/10 13:59:34","新北市板橋區四川路一段318號","121.458426666667","25.0001416666667","6500100","板橋區"
