"lineid","car","time","location","longitude","latitude","cityid","cityname"
"234005","207-UY","2018/02/10 14:39:35","新北市永和區安樂路196號","121.51506","25.0015733333333","6500400","永和區"
"234062","337-UY","2018/02/10 14:39:44","新北市永和區光復街31-1號","121.516618333333","25.0180183333333","6500400","永和區"
"234084","338-UY","2018/02/10 14:39:37","新北市永和區光復街21號","121.516513333333","25.0174433333333","6500400","永和區"
"234028","746-BX","2018/02/10 14:39:37","新北市永和區民權路84號","121.519918333333","24.997025","6500400","永和區"
"234052","KEA-2590","2018/02/10 14:39:34","新北市永和區環河東路一段82號","121.519596666667","25.016415","6500400","永和區"
"234060","AAD-866","2018/02/10 14:39:44","新北市永和區秀安街19號","121.516218333333","25.00372","6500400","永和區"
"234025","9371-KE","2018/02/10 14:39:51","新北市永和區中和路501巷5號","121.510465","25.0026033333333","6500400","永和區"
"248017","225-UY","2018/02/10 14:17:12","新北市五股區壟路16號","121.415366666667","25.08588","6501500","五股區"
"234072","AAC-211","2018/02/10 14:39:42","新北市永和區環河東路二段8號","121.522153333333","25.0133633333333","6500400","永和區"
"234001","AAC-295","2018/02/10 14:39:38","新北市永和區中正路626號","121.516943333333","25.0079333333333","6500400","永和區"
"231002","002-UM","2018/02/10 14:39:39","新北市新店區中正路468號","121.53399","24.9794283333333","6500600","新店區"
"231025","0293-UT","2018/02/10 14:39:45","新北市新店區民族路161號","121.537598333333","24.97674","6500600","新店區"
"231028","046-UY","2018/02/10 14:39:41","新北市新店區安德街60巷15號","121.51064","24.962665","6500600","新店區"
"231029","106-UY","2018/02/10 14:39:34","新北市新店區安康路三段275號","121.486123333333","24.95167","6500600","新店區"
"231018","107-UY","2018/02/10 14:39:32","新北市新店區中央五街22號","121.529355","24.9745083333333","6500600","新店區"
"231012","108-UY","2018/02/10 14:39:47","新北市新店區寶宏路40巷1號","121.549421666667","24.97541","6500600","新店區"
"231013","110-UY","2018/02/10 14:39:47","新北市新店區北新路二段171巷4號","121.542165","24.9764516666667","6500600","新店區"
"231020","187-VK","2018/02/10 14:39:46","新北市新店區新烏路三段49號","121.555426666667","24.9051716666667","6500600","新店區"
"231035","188-VK","2018/02/10 14:39:52","新北市新店區安德街60巷13號","121.510565","24.962515","6500600","新店區"
"231017","KEA-2219","2018/02/10 14:39:48","新北市新店區北宜路三段221號","121.592405","24.9532916666667","6500600","新店區"
"231023","AAD-862","2018/02/10 14:39:46","新北市新店區檳榔路22巷1號","121.54134","24.9641833333333","6500600","新店區"
"231027","3712-VJ","2018/02/10 14:39:35","新北市新店區北新路二段2號","121.542851666667","24.9707066666667","6500600","新店區"
"231038","4715-K9","2018/02/10 14:39:48","新北市新店區溪洲路187-2號","121.529311666667","24.9644166666667","6500600","新店區"
"231003","616-UM","2018/02/10 14:39:44","新北市新店區中興路一段298號","121.546115","24.9694266666667","6500600","新店區"
"231030","618-UM","2018/02/10 14:39:39","新北市新店區安民街195號","121.517078333333","24.9716483333333","6500600","新店區"
"231001","619-UM","2018/02/10 14:39:45","新北市新店區中正路96號","121.54345","24.97039","6500600","新店區"
"231034","645-TV","2018/02/10 14:39:42","新北市新店區黎明路53巷1號","121.502301666667","24.948725","6500600","新店區"
"231036","719-UY","2018/02/10 14:39:51","新北市新店區安祥路109巷151弄16號","121.477838333333","24.958825","6500600","新店區"
"231005","897-TW","2018/02/10 14:39:36","新北市新店區順安街73號","121.540685","24.9868616666667","6500600","新店區"
"231006","898-TW","2018/02/10 14:39:48","新北市新店區北宜路二段131號","121.551086666667","24.95302","6500600","新店區"
"231004","899-TW","2018/02/10 14:39:41","新北市新店區中正路271號","121.53777","24.9742666666667","6500600","新店區"
"235030","003-UY","2018/02/10 14:39:41","新北市中和區中和路196巷9弄7號","121.505423333333","24.999135","6500300","中和區"
"235028","005-UY","2018/02/10 14:39:46","新北市中和區南華路49號","121.503961666667","24.99682","6500300","中和區"
"235027","006-UY","2018/02/10 14:39:43","新北市中和區連城路223號","121.494181666667","24.9975883333333","6500300","中和區"
"235020","096-UM","2018/02/10 14:39:35","新北市中和區員山路581巷31弄1號","121.47735","25.0102983333333","6500300","中和區"
"235003","097-UM","2018/02/10 14:39:45","新北市永和區中正路76號","121.513688333333","24.9951216666667","6500300","中和區"
"235029","098-UM","2018/02/10 14:39:34","新北市中和區永和路9巷1號","121.499245","25.0040133333333","6500300","中和區"
"235004","150-BY","2018/02/10 14:39:38","新北市中和區宜安路1巷28弄2號","121.512461666667","24.994245","6500300","中和區"
"235022","151-BY","2018/02/10 14:39:36","新北市中和區連城路521-2號","121.481755","24.9952216666667","6500300","中和區"
"235019","183-VK","2018/02/10 14:39:40","新北市中和區德光路15巷6號","121.471278333333","25.0039833333333","6500300","中和區"
"235013","186-VK","2018/02/10 14:39:42","新北市中和區安平路17號","121.509183333333","24.9942","6500300","中和區"
"235031","255-BX","2018/02/10 14:39:36","新北市中和區新生街220巷17號","121.482893333333","24.9983933333333","6500300","中和區"
"235008","293-VK","2018/02/10 14:39:32","新北市中和區南山路272號","121.507928333333","24.98799","6500300","中和區"
"235036","301-VK","2018/02/10 14:39:52","新北市中和區中和路74號","121.500808333333","25.0001333333333","6500300","中和區"
"235007","352-BY","2018/02/10 14:39:53","新北市中和區景平路532號","121.502875","24.9945783333333","6500300","中和區"
"235032","377-QA","2018/02/10 14:39:33","新北市中和區枋寮街71號","121.501035","25.001165","6500300","中和區"
"235025","378-QA","2018/02/10 14:39:52","新北市中和區民利街31巷2弄10號","121.479701666667","24.998625","6500300","中和區"
"235035","269-TV","2018/02/10 14:39:35","新北市中和區中正路747號","121.484876666667","24.9997483333333","6500300","中和區"
"235014","4979-A6","2018/02/10 14:39:49","新北市中和區中正路637巷60弄61號","121.485446666667","24.99281","6500300","中和區"
"235006","551-UM","2018/02/10 14:39:44","新北市中和區保健路2巷32號","121.506995","24.9973616666667","6500300","中和區"
"235034","558-UM","2018/02/10 14:39:49","新北市中和區景平路634-3號","121.499326666667","24.99904","6500300","中和區"
"235009","565-BX","2018/02/10 14:39:53","新北市中和區景新街320號","121.511606666667","24.9913183333333","6500300","中和區"
"235018","640-BX","2018/02/10 14:39:44","新北市中和區國光街102巷9號","121.470761666667","25.0008916666667","6500300","中和區"
"235024","647-TV","2018/02/10 14:39:41","新北市中和區中山路二段523巷41號","121.482308333333","25.0032283333333","6500300","中和區"
"235011","732-UM","2018/02/10 14:39:44","新北市中和區景平路329巷1弄2號","121.505863333333","24.9929066666667","6500300","中和區"
"235010","733-UM","2018/02/10 14:39:41","新北市中和區忠孝街120號","121.51214","24.98577","6500300","中和區"
"235026","800-TS","2018/02/10 14:39:31","新北市中和區建六路67巷22號","121.486638333333","25.002955","6500300","中和區"
"235021","801-TS","2018/02/10 14:39:41","新北市中和區員山路238號","121.481366666667","25.00124","6500300","中和區"
"235005","802-TS","2018/02/10 14:39:34","新北市中和區中和路250-1號","121.507513333333","24.9995083333333","6500300","中和區"
"235016","805-TS","2018/02/10 14:39:43","新北市中和區華新街143巷106弄27號","121.50686","24.9787233333333","6500300","中和區"
"235012","896-TW","2018/02/10 14:39:43","新北市中和區忠孝街99-1號","121.512073333333","24.9859466666667","6500300","中和區"
"235017","900-TW","2018/02/10 14:39:47","新北市中和區民德路197-2號","121.46874","24.99884","6500300","中和區"
"235015","157-BY","2018/02/10 14:39:41","新北市中和區景平路239巷53弄7號","121.508981666667","24.9917683333333","6500300","中和區"
"235001","AAC-213","2018/02/10 14:39:41","新北市中和區秀朗路三段10巷29弄11號","121.525068333333","24.99595","6500300","中和區"
"235023","AAC-215","2018/02/10 14:39:50","新北市中和區圓通路305巷1-1號","121.49346","24.9905966666667","6500300","中和區"
"220016","013-TV","2018/02/10 14:39:36","新北市板橋區中山路二段537號","121.48352","25.021475","6500100","板橋區"
"220013","072-UY","2018/02/10 14:39:32","新北市板橋區國泰街75巷28弄3-2號","121.467751666667","25.00537","6500100","板橋區"
"220034","073-UY","2018/02/10 14:39:39","新北市板橋區中正路216巷9號","121.456333333333","25.0185233333333","6500100","板橋區"
"220105","075-UY","2018/02/10 14:39:38","新北市板橋區雙十路三段19號","121.470698333333","25.031215","6500100","板橋區"
"220017","AAD-861","2018/02/10 14:39:51","新北市板橋區縣民大道一段64巷18號","121.455465","25.0037283333333","6500100","板橋區"
"247011","546-UM","2018/02/10 14:39:50","新北市蘆洲區集賢路224巷64弄10號","121.480965","25.0882416666667","6501400","蘆洲區"
"247019","500-BY","2018/02/10 14:39:40","新北市蘆洲區民義街75號","121.473261666667","25.090165","6501400","蘆洲區"
"247007","341-TH","2018/02/10 14:39:37","新北市蘆洲區成功路54號","121.472983333333","25.0798683333333","6501400","蘆洲區"
"247009","339-TH","2018/02/10 14:39:45","新北市蘆洲區信義路222巷38號","121.48094","25.08545","6501400","蘆洲區"
"247001","337-TH","2018/02/10 14:39:47","新北市蘆洲區永樂街38巷57弄5號","121.458106666667","25.0902316666667","6501400","蘆洲區"
"247003","336-TH","2018/02/10 14:39:53","新北市蘆洲區長安街283號","121.458278333333","25.0844266666667","6501400","蘆洲區"
"247015","057-VK","2018/02/10 14:39:39","新北市蘆洲區光華路73巷37號","121.468815","25.081675","6501400","蘆洲區"
"247005","056-VK","2018/02/10 14:39:45","新北市蘆洲區中華街59號","121.462403333333","25.0808316666667","6501400","蘆洲區"
"247013","007-UY","2018/02/10 14:39:40","新北市蘆洲區忠孝路12-1號","121.470555","25.0840533333333","6501400","蘆洲區"
"247023","002-UY","2018/02/10 14:39:38","新北市蘆洲區中山二路220號","121.469726666667","25.0799283333333","6501400","蘆洲區"
"228005","097-TW","2018/02/10 14:39:34","新北市貢寮區美豐里雞母嶺街7號","121.902105","25.0642766666667","6502600","貢寮區"
"228004","212-TW","2018/02/10 14:39:36","新北市貢寮區福隆里龜壽谷街30-5號","121.946896666667","25.0140483333333","6502600","貢寮區"
"253001","4710-YM","2018/02/10 14:39:32","新北市石門區八甲1-12號","121.521325","25.2839333333333","6502200","石門區"
"253003","6232-TK","2018/02/10 14:39:32","新北市石門區尖子鹿103-1號","121.579508333333","25.2943966666667","6502200","石門區"
"253002","637-UY","2018/02/10 14:39:50","新北市三芝區橫山里橫山31-1號","121.544375","25.2578983333333","6502200","石門區"
"253004","8270-PC","2018/02/10 14:39:48","新北市石門區內阿里磅1號","121.592153333333","25.2545316666667","6502200","石門區"
"208004","AAC-292","2018/02/10 14:39:43","新北市金山區兩湖里葵扇湖15-2號","121.592443333333","25.2368516666667","6502700","金山區"
"207004","291-VK","2018/02/10 14:39:46","新北市萬里區崁腳里崁腳路92號","121.647136666667","25.159185","6502800","萬里區"
"252005","073-UM","2018/02/10 14:39:33","新北市三芝區橫山里大坑98-2號","121.526148333333","25.2610916666667","6502100","三芝區"
"207001","662-BX","2018/02/10 14:39:35","新北市萬里區雙興里豐稟路26號","121.641376666667","25.1876583333333","6502800","萬里區"
"236068","105-UM","2018/02/10 14:39:43","新北市土城區永豐路340巷8-1號","121.474178333333","24.9769033333333","6501300","土城區"
"236041","107-UM","2018/02/10 14:39:41","新北市土城區學成路94巷9弄18號","121.450281666667","24.9896783333333","6501300","土城區"
"236075","166-UM","2018/02/10 14:39:37","新北市土城區大暖路61-2號","121.42204","24.95828","6501300","土城區"
"236029","253-BX","2018/02/10 14:39:46","新北市土城區中華路二段110號","121.437995","24.9741083333333","6501300","土城區"
"236024","269-VK","2018/02/10 14:39:51","新北市土城區和平路11號","121.442835","24.9741383333333","6501300","土城區"
"236013","270-VK","2018/02/10 14:39:48","新北市土城區清水路196號","121.460271666667","24.9817966666667","6501300","土城區"
"236035","271-VK","2018/02/10 14:39:49","新北市土城區明德路一段291巷11弄1號","121.460435","24.9766383333333","6501300","土城區"
"236017","401-BY","2018/02/10 14:39:50","新北市土城區延吉街253巷3號","121.467643333333","24.984675","6501300","土城區"
"236057","912-UM","2018/02/10 14:39:36","新北市土城區中央路三段155號","121.43206","24.9652366666667","6501300","土城區"
"236045","913-UM","2018/02/10 14:39:34","新北市土城區明德路一段64號","121.46553","24.983355","6501300","土城區"
"236061","915-UM","2018/02/10 14:39:52","新北市土城區延壽路13巷38號","121.469975","24.9914016666667","6501300","土城區"
"236054","AAC-216","2018/02/10 14:39:51","新北市土城區中華路一段25號","121.44654","24.9890516666667","6501300","土城區"
"238001","282-BY","2018/02/10 14:39:40","新北市樹林區中山路三段204號","121.387153333333","24.9681916666667","6500700","樹林區"
"220027","145-BY","2018/02/10 14:39:52","新北市板橋區民權路202巷15弄7號","121.460318333333","25.016055","6500100","板橋區"
"220028","200-UY","2018/02/10 14:39:43","新北市板橋區大觀路二段37巷280號","121.449726666667","25.0009366666667","6500100","板橋區"
"220030","610-BX","2018/02/10 14:39:49","新北市板橋區金門街237號","121.43205","24.989555","6500100","板橋區"
"220040","267-BY","2018/02/10 14:39:52","新北市板橋區懷德街201巷3號","121.480823333333","25.0293233333333","6500100","板橋區"
"220004","276-BY","2018/02/10 14:39:45","新北市板橋區國慶路49巷17號","121.459418333333","24.9962233333333","6500100","板橋區"
"220020","277-BY","2018/02/10 14:39:41","新北市板橋區金門街253巷17弄1號","121.433183333333","24.9887233333333","6500100","板橋區"
"220050","280-UM","2018/02/10 14:39:47","新北市板橋區縣民大道三段33巷1弄30號","121.473178333333","25.0204466666667","6500100","板橋區"
"220019","283-VK","2018/02/10 14:39:34","新北市板橋區四川路一段325巷12號","121.45895","25.0002883333333","6500100","板橋區"
"220043","285-UM","2018/02/10 14:39:44","新北市板橋區宏國路97-3號","121.469811666667","25.0322716666667","6500100","板橋區"
"220001","285-VK","2018/02/10 14:39:35","新北市板橋區懷仁街77巷32號","121.47775","25.0192883333333","6500100","板橋區"
"220031","286-VK","2018/02/10 14:39:40","新北市板橋區龍興街71巷1號","121.443783333333","25.0017933333333","6500100","板橋區"
"220029","287-VK","2018/02/10 14:39:42","新北市板橋區大觀路一段75巷16號","121.44773","25.0043816666667","6500100","板橋區"
"220039","288-VK","2018/02/10 14:39:41","新北市板橋區長江路一段48巷10弄2號","121.459385","25.0281066666667","6500100","板橋區"
"220009","293-UM","2018/02/10 14:39:37","新北市板橋區中山路一段265巷16號","121.468665","25.0146866666667","6500100","板橋區"
"220032","296-UM","2018/02/10 14:39:36","新北市板橋區滿平街84巷100弄5號","121.426245","24.9863966666667","6500100","板橋區"
"220023","303-R5","2018/02/10 14:39:42","新北市板橋區中正路253巷8號","121.455281666667","25.01819","6500100","板橋區"
"220010","305-R5","2018/02/10 14:39:49","新北市板橋區三民路二段81巷26號","121.480528333333","25.0165733333333","6500100","板橋區"
"220041","307-R5","2018/02/10 14:39:48","新北市板橋區光武街2巷23號","121.468533333333","25.0255016666667","6500100","板橋區"
"220098","317-R6","2018/02/10 14:39:47","新北市板橋區民生路三段299巷5號","121.463245","25.0304066666667","6500100","板橋區"
"220012","486-VK","2018/02/10 14:39:48","新北市板橋區重慶路40號","121.46137","25.007395","6500100","板橋區"
"220038","487-VK","2018/02/10 14:39:44","新北市板橋區英士路17號","121.461778333333","25.0251466666667","6500100","板橋區"
"220037","491-VK","2018/02/10 14:39:49","新北市板橋區文化路二段182巷3弄77號","121.472945","25.0294383333333","6500100","板橋區"
"220104","560-BX","2018/02/10 14:39:50","新北市板橋區中正路413巷5號","121.453855","25.0225783333333","6500100","板橋區"
"220052","561-BX","2018/02/10 14:39:35","新北市板橋區文化路一段290號","121.467585","25.021425","6500100","板橋區"
"220011","609-BX","2018/02/10 14:38:40","新北市板橋區三民路二段253-1號","121.479066666667","25.0117283333333","6500100","板橋區"
"220005","686-BX","2018/02/10 14:39:43","新北市板橋區和平路101巷1號","121.46232","24.9948916666667","6500100","板橋區"
"220025","687-BX","2018/02/10 14:39:48","新北市板橋區僑中一街70號","121.447706666667","25.0115266666667","6500100","板橋區"
"220042","689-BX","2018/02/10 14:39:38","新北市板橋區新海路360號","121.459798333333","25.025115","6500100","板橋區"
"220002","741-BX","2018/02/10 14:39:51","新北市板橋區重慶路218號","121.462558333333","25.0022","6500100","板橋區"
"220003","827-TW","2018/02/10 14:39:51","新北市板橋區國慶路149巷15號","121.461126666667","24.9972633333333","6500100","板橋區"
"220014","829-TW","2018/02/10 14:39:46","新北市板橋區漢生東路279巷24-3號","121.47232","25.0092666666667","6500100","板橋區"
"220045","830-TW","2018/02/10 14:39:42","新北市板橋區民生路二段226巷6弄2號","121.46958","25.0217416666667","6500100","板橋區"
"220022","895-R6","2018/02/10 14:39:50","新北市板橋區大東街28號","121.456545","25.0088166666667","6500100","板橋區"
"220021","985-R7","2018/02/10 14:39:53","新北市板橋區中正路220號","121.455835","25.0185283333333","6500100","板橋區"
"220046","AAC-210","2018/02/10 14:39:47","新北市板橋區幸福路32巷4弄16號","121.461538333333","25.02148","6500100","板橋區"
"220018","AAC-253","2018/02/10 14:39:34","新北市板橋區民族路258號","121.469398333333","25.0071833333333","6500100","板橋區"
