"lineid","car","time","location","longitude","latitude","cityid","cityname"
"249005","172-UM","2018/02/10 16:49:51","新北市八里區大堀湖2-3號","121.422338333333","25.1537","6502300","八里區"
"249004","303-UY","2018/02/10 16:49:39","新北市八里區博物館路202巷38號","121.405303333333","25.1595666666667","6502300","八里區"
"249002","305-UY","2018/02/10 16:49:52","新北市八里區牛寮埔31號","121.429888333333","25.1457566666667","6502300","八里區"
"249003","593-UM","2018/02/10 16:49:39","新北市八里區中山路二段131號","121.40542","25.1517383333333","6502300","八里區"
"244009","658-BX","2018/02/10 16:49:45","新北市林口區粉寮69號","121.404936666667","25.0909366666667","6501700","林口區"
"231046","278-BY","2018/02/10 16:49:48","新北市新店區灣潭路29-5號","121.539613333333","24.9387033333333","6500600","新店區"
"241011","013-R5","2018/02/10 16:49:55","新北市三重區仁愛街53巷166號","121.499925","25.0728316666667","6500200","三重區"
"241028","022-UY","2018/02/10 16:49:41","新北市三重區光興街201號","121.494958333333","25.0595633333333","6500200","三重區"
"241008","059-VK","2018/02/10 16:49:45","新北市三重區永安北路一段17巷1號","121.47646","25.0751116666667","6500200","三重區"
"241009","060-VK","2018/02/10 16:49:49","新北市三重區三和路四段203巷223號","121.48678","25.0807733333333","6500200","三重區"
"241031","061-VK","2018/02/10 16:49:45","新北市三重區過圳街42-17號","121.487603333333","25.060745","6500200","三重區"
"241015","062-VK","2018/02/10 16:49:45","新北市三重區長元西街1號","121.498808333333","25.0656716666667","6500200","三重區"
"241017","063-VK","2018/02/10 16:49:54","新北市三重區國隆路2巷39號","121.492585","25.0631983333333","6500200","三重區"
"241024","065-VK","2018/02/10 16:49:34","新北市三重區中正北路317巷1號","121.473903333333","25.0721766666667","6500200","三重區"
"241026","066-VK","2018/02/10 16:49:42","新北市三重區文化南路12號","121.500251666667","25.06203","6500200","三重區"
"241002","090-VK","2018/02/10 16:49:41","新北市三重區仁義街223號","121.496598333333","25.0820466666667","6500200","三重區"
"241014","156-TC","2018/02/10 16:49:56","新北市三重區長壽街120巷11號","121.502501666667","25.0691266666667","6500200","三重區"
"241005","262-UM","2018/02/10 16:49:37","新北市三重區仁華街80巷20號","121.484431666667","25.0836933333333","6500200","三重區"
"241018","265-UM","2018/02/10 16:49:40","新北市三重區安樂街68號","121.495085","25.0694166666667","6500200","三重區"
"241016","266-UM","2018/02/10 16:49:49","新北市三重區大同北路103號","121.494205","25.06413","6500200","三重區"
"241022","267-UM","2018/02/10 16:49:41","新北市三重區中華路109號","121.48352","25.06353","6500200","三重區"
"241032","269-UM","2018/02/10 16:49:44","新北市三重區重陽路一段120巷5號","121.486295","25.0601216666667","6500200","三重區"
"241013","270-UM","2018/02/10 16:49:47","新北市三重區仁壽街48號","121.49762","25.0737","6500200","三重區"
"241025","271-UM","2018/02/10 16:49:41","新北市三重區中正北路518號","121.472056666667","25.0716233333333","6500200","三重區"
"241007","398-BY","2018/02/10 16:49:52","新北市三重區三和路四段171號","121.482976666667","25.0788266666667","6500200","三重區"
"241020","413-TH","2018/02/10 16:49:49","新北市三重區忠孝路二段34號","121.485805","25.071045","6500200","三重區"
"241004","475-VK","2018/02/10 16:49:54","新北市三重區仁愛街416號","121.490553333333","25.08134","6500200","三重區"
"241030","480-VK","2018/02/10 16:49:36","新北市三重區中正南路263號","121.492841666667","25.052895","6500200","三重區"
"241023","545-UM","2018/02/10 16:49:49","新北市三重區中華路96號","121.48332","25.0631383333333","6500200","三重區"
"241001","547-UM","2018/02/10 16:49:48","新北市三重區仁政街76巷10號","121.492195","25.0772316666667","6500200","三重區"
"241019","KEA-2593","2018/02/10 16:49:52","新北市三重區力行路一段155號","121.485056666667","25.06917","6500200","三重區"
"241006","AAD-863","2018/02/10 16:49:54","新北市三重區力行路二段164號","121.482996666667","25.0766516666667","6500200","三重區"
"241003","887-TS","2018/02/10 16:49:38","新北市三重區五華街87巷16號","121.492553333333","25.08366","6500200","三重區"
"241012","941-UM","2018/02/10 16:49:50","新北市三重區三和路三段101巷173號","121.499385","25.0739233333333","6500200","三重區"
"241029","942-UM","2018/02/10 16:49:41","新北市三重區集美街112巷33號","121.490393333333","25.0543616666667","6500200","三重區"
"241033","AAC-255","2018/02/10 16:49:48","新北市三重區新北大道二段139巷13號","121.46644","25.0606933333333","6500200","三重區"
"235046","733-UM","2018/02/10 16:36:28","新北市中和區員山路36巷13號","121.484145","24.9908233333333","6500300","中和區"
"235023","AAC-215","2018/02/10 16:49:50","新北市中和區員山路31-4號","121.480446666667","24.9876483333333","6500300","中和區"
"247008","341-TH","2018/02/10 16:49:53","新北市蘆洲區中山一路176號","121.474193333333","25.0811783333333","6501400","蘆洲區"
"247004","336-TH","2018/02/10 16:49:52","新北市五股區成泰路三段544-18號","121.452688333333","25.1033216666667","6501400","蘆洲區"
"247016","057-VK","2018/02/10 16:49:41","新北市蘆洲區正和街7號","121.470365","25.0826333333333","6501400","蘆洲區"
"247006","056-VK","2018/02/10 16:49:38","新北市蘆洲區永安南路二段166號","121.461448333333","25.0789683333333","6501400","蘆洲區"
"247018","001-UY","2018/02/10 16:49:44","新北市蘆洲區中正路520巷9號","121.462843333333","25.099775","6501400","蘆洲區"
"228003","097-TW","2018/02/10 16:49:35","新北市貢寮區貢寮里朝陽街1-2號","121.912361666667","25.0212683333333","6502600","貢寮區"
"228002","585-TW","2018/02/10 16:49:38","新北市貢寮區貢寮里朝陽街120巷2號","121.907966666667","25.022965","6502600","貢寮區"
"224006","676-BX","2018/02/10 16:37:54","新北市瑞芳區大寮路356-1號","121.784711666667","25.1032816666667","6501200","瑞芳區"
"224008","275-VK","2018/02/10 16:49:35","新北市瑞芳區逢甲路5號","121.809981666667","25.1083566666667","6501200","瑞芳區"
"224007","273-VK","2018/02/10 16:49:31","新北市瑞芳區月眉路36-2號","121.760963333333","25.1114883333333","6501200","瑞芳區"
"224005","271-BY","2018/02/10 16:49:51","新北市瑞芳區洞頂路8-1號","121.862271666667","25.1216966666667","6501200","瑞芳區"
"227002","642-TC","2018/02/10 16:49:55","新北市雙溪區外柑里外柑腳71號","121.807086666667","25.0175666666667","6502500","雙溪區"
"227010","400-TW","2018/02/10 16:49:44","新北市雙溪區牡丹里五分10-1號","121.86635","25.0471066666667","6502500","雙溪區"
"251013","179-VK","2018/02/10 16:49:35","新北市淡水區泉洲厝32號","121.489301666667","25.1925283333333","6501000","淡水區"
"251014","180-VK","2018/02/10 16:49:33","新北市淡水區淡金路三段344號","121.449253333333","25.2087883333333","6501000","淡水區"
"251008","181-VK","2018/02/10 16:49:46","新北市淡水區樹梅坑44號","121.474603333333","25.14434","6501000","淡水區"
"251015","182-VK","2018/02/10 16:49:44","新北市淡水區忠愛街5-1號","121.460736666667","25.1715933333333","6501000","淡水區"
"251010","413-VK","2018/02/10 16:49:46","新北市淡水區中正路二段31號","121.419423333333","25.181445","6501000","淡水區"
"251012","441-VK","2018/02/10 16:49:40","新北市淡水區中正路二段31號","121.419395","25.1815833333333","6501000","淡水區"
"251016","442-VK","2018/02/10 16:49:45","新北市淡水區水頭42號","121.478406666667","25.185065","6501000","淡水區"
"251007","577-R6","2018/02/10 16:49:50","新北市淡水區沙崙路1號","121.420331666667","25.18083","6501000","淡水區"
"251011","650-BX","2018/02/10 16:49:49","新北市淡水區文化路65號","121.43797","25.1729516666667","6501000","淡水區"
"252002","178-VK","2018/02/10 16:49:35","新北市三芝區忠孝街173號","121.50542","25.2613783333333","6502100","三芝區"
"252001","292-VK","2018/02/10 16:49:39","新北市三芝區埔坪里埔頭坑107號","121.504615","25.2616066666667","6502100","三芝區"
"236075","166-UM","2018/02/10 16:49:54","新北市土城區福安街14號","121.42003","24.96511","6501300","土城區"
"242023","613-BX","2018/02/10 16:49:57","新北市新莊區新泰路357巷3弄57號","121.442146666667","25.0392133333333","6500500","新莊區"
"242039","566-BX","2018/02/10 16:49:41","新北市新莊區新泰路357巷3弄57號","121.442103333333","25.0390916666667","6500500","新莊區"
"242034","415-TV","2018/02/10 16:49:30","新北市新莊區新泰路357巷1弄57號","121.44254","25.0394416666667","6500500","新莊區"
"242061","362-BY","2018/02/10 16:49:42","新北市新莊區新泰路255巷83號","121.442305","25.0388483333333","6500500","新莊區"
"242013","346-TH","2018/02/10 16:44:30","新北市新莊區三和路12-18號","121.44197","25.0376666666667","6500500","新莊區"
"242051","347-TH","2018/02/10 16:49:45","新北市新莊區三和路16-2號","121.441275","25.036705","6500500","新莊區"
"238025","303-VK","2018/02/10 16:49:47","新北市樹林區育德街78號","121.387676666667","24.9684466666667","6500700","樹林區"
"238001","282-BY","2018/02/10 16:49:51","新北市樹林區中山路三段204號","121.386756666667","24.9681416666667","6500700","樹林區"
"239007","AAC-297","2018/02/10 16:49:48","新北市鶯歌區二甲路13-16號","121.344806666667","24.935315","6500800","鶯歌區"
