"lineid","car","time","location","longitude","latitude","cityid","cityname"
"234026","9371-KE","2018/02/10 17:49:57","新北市永和區和平街74號","121.511875","25.0100116666667","6500400","永和區"
"249005","172-UM","2018/02/10 17:49:50","新北市八里區荖阡坑路41-6號","121.402326666667","25.1321333333333","6502300","八里區"
"249001","173-UM","2018/02/10 17:49:52","新北市八里區龍米路二段125巷25號","121.446141666667","25.146015","6502300","八里區"
"249004","303-UY","2018/02/10 17:49:39","新北市八里區中華路一段79巷11號","121.42104","25.1564316666667","6502300","八里區"
"249002","305-UY","2018/02/10 17:46:52","新北市八里區石壁腳9號","121.44316","25.13512","6502300","八里區"
"249003","593-UM","2018/02/10 17:49:39","新北市八里區中山路二段212號","121.405318333333","25.15202","6502300","八里區"
"248006","077-UY","2018/02/10 17:49:38","新北市五股區中興路二段83巷26-6號","121.460036666667","25.07499","6501500","五股區"
"248002","678-BX","2018/02/10 17:49:37","新北市五股區中興路二段37巷26號","121.460388333333","25.0749616666667","6501500","五股區"
"232011","375-UM","2018/02/10 17:49:46","新北市坪林區北宜路八段66號","121.705136666667","24.93522","6502000","坪林區"
"244013","069-UM","2018/02/10 17:49:37","新北市林口區中正路446號","121.38359","25.077735","6501700","林口區"
"244007","080-UY","2018/02/10 17:49:37","新北市林口區林口路170號","121.387765","25.0825466666667","6501700","林口區"
"244019","402-UM","2018/02/10 17:49:44","新北市林口區文化一路一段89-5號","121.371875","25.0703983333333","6501700","林口區"
"244023","483-VK","2018/02/10 17:49:43","新北市林口區興林路318巷7號","121.388463333333","25.0704866666667","6501700","林口區"
"244017","485-VK","2018/02/10 17:49:40","新北市林口區文化二路一段260巷9-3號","121.371556666667","25.0729316666667","6501700","林口區"
"244009","658-BX","2018/02/10 17:49:44","新北市林口區中北三街398號","121.38403","25.08572","6501700","林口區"
"244011","701-TV","2018/02/10 17:49:36","新北市林口區佳林路221號","121.38408","25.0768916666667","6501700","林口區"
"244025","837-TS","2018/02/10 17:49:56","新北市林口區忠孝三路42號","121.360148333333","25.0698616666667","6501700","林口區"
"244021","838-TS","2018/02/10 17:49:38","新北市林口區仁愛路一段139巷7號","121.398278333333","25.07168","6501700","林口區"
"243013","646-TV","2018/02/10 17:49:42","新北市泰山區自強路12號","121.416831666667","25.061005","6501600","泰山區"
"222003","436-BY","2018/02/10 17:49:46","新北市深坑區阿柔洋60-1號","121.6086","24.9985566666667","6501800","深坑區"
"222002","659-BX","2018/02/10 17:49:53","新北市深坑區平埔街22巷17弄1號","121.614901666667","25.0008616666667","6501800","深坑區"
"221015","KEA-2785","2018/02/10 17:49:57","新北市汐止區長江街250號","121.663016666667","25.079295","6501100","汐止區"
"231046","278-BY","2018/02/10 17:49:48","新北市新店區下石厝路1號","121.531181666667","24.9298733333333","6500600","新店區"
"231058","3712-VJ","2018/02/10 17:49:49","新北市新店區安華路1-1號","121.51925","24.96032","6500600","新店區"
"241024","065-VK","2018/02/10 17:49:54","新北市三重區大勇街2號","121.483486666667","25.0713083333333","6500200","三重區"
"241014","156-TC","2018/02/10 17:49:56","新北市三重區河邊北街100巷35號","121.502303333333","25.0700966666667","6500200","三重區"
"241005","262-UM","2018/02/10 17:49:37","新北市三重區碧華街159號","121.486818333333","25.0820383333333","6500200","三重區"
"241016","266-UM","2018/02/10 17:49:49","新北市三重區新北大道一段7號","121.489783333333","25.0613883333333","6500200","三重區"
"241020","413-TH","2018/02/10 17:49:49","新北市三重區忠孝路二段34號","121.485798333333","25.0709883333333","6500200","三重區"
"241019","KEA-2593","2018/02/10 17:49:52","新北市三重區六張街197號","121.488836666667","25.0687116666667","6500200","三重區"
"241003","887-TS","2018/02/10 17:49:38","新北市三重區集賢路21號","121.496395","25.0854916666667","6500200","三重區"
"241033","AAC-255","2018/02/10 17:49:48","新北市三重區光復路一段11號","121.472171666667","25.0471983333333","6500200","三重區"
"235064","005-UY","2018/02/10 17:49:52","新北市中和區員山路36巷16-2號","121.485176666667","24.9913933333333","6500300","中和區"
"235058","151-BY","2018/02/10 17:49:47","新北市中和區員山路36巷16-8號","121.48545","24.9924616666667","6500300","中和區"
"235038","185-VK","2018/02/10 17:49:43","新北市中和區中正路637巷52弄1號","121.485468333333","24.9936283333333","6500300","中和區"
"235046","733-UM","2018/02/10 17:49:56","新北市中和區員山路36巷13號","121.484063333333","24.99092","6500300","中和區"
"235062","800-TS","2018/02/10 17:49:49","新北市中和區員山路36巷16-3號","121.484868333333","24.9914266666667","6500300","中和區"
"247022","893-R6","2018/02/10 17:49:57","新北市蘆洲區中正路304-1號","121.464778333333","25.09058","6501400","蘆洲區"
"247020","500-BY","2018/02/10 17:49:52","新北市蘆洲區民義街101巷17-1號","121.47298","25.09132","6501400","蘆洲區"
"247012","402-BY","2018/02/10 17:49:43","新北市蘆洲區復興路112號","121.476168333333","25.0871733333333","6501400","蘆洲區"
"247008","341-TH","2018/02/10 17:49:53","新北市蘆洲區和平路29巷15號","121.472136666667","25.078415","6501400","蘆洲區"
"247010","339-TH","2018/02/10 17:49:54","新北市蘆洲區民族路43號","121.478316666667","25.085295","6501400","蘆洲區"
"247002","337-TH","2018/02/10 17:49:36","新北市蘆洲區永平街32巷21弄31號","121.45813","25.092175","6501400","蘆洲區"
"247004","336-TH","2018/02/10 17:49:57","新北市蘆洲區長安街174號","121.459101666667","25.0833633333333","6501400","蘆洲區"
"247006","057-VK","2018/02/10 17:49:53","新北市蘆洲區九芎街156號","121.464238333333","25.0781966666667","6501400","蘆洲區"
"247016","053-VK","2018/02/10 17:49:48","新北市蘆洲區中正路185巷25弄17號","121.467081666667","25.0840083333333","6501400","蘆洲區"
"247014","007-UY","2018/02/10 17:49:53","新北市蘆洲區中正路108號","121.469588333333","25.0845383333333","6501400","蘆洲區"
"247024","002-UY","2018/02/10 17:49:40","新北市蘆洲區長樂路120巷2號","121.462253333333","25.0897433333333","6501400","蘆洲區"
"247018","001-UY","2018/02/10 17:49:44","新北市蘆洲區復興路136號","121.476856666667","25.08755","6501400","蘆洲區"
"228003","097-TW","2018/02/10 17:49:55","新北市貢寮區真理里美艷山街6-2號","121.92879","25.0607783333333","6502600","貢寮區"
"228001","212-TW","2018/02/10 17:49:53","新北市貢寮區仁理村仁愛路95-1號","121.927663333333","25.05544","6502600","貢寮區"
"228002","585-TW","2018/02/10 17:49:38","新北市貢寮區福隆里龜壽谷街11-1號","121.955106666667","25.006645","6502600","貢寮區"
"224006","676-BX","2018/02/10 17:49:50","新北市瑞芳區傑魚坑路64-1號","121.793235","25.11051","6501200","瑞芳區"
"224009","285-BY","2018/02/10 17:49:41","新北市瑞芳區新山路189號","121.851211666667","25.1090216666667","6501200","瑞芳區"
"224008","275-VK","2018/02/10 17:49:41","新北市瑞芳區明燈路一段6號","121.823106666667","25.10739","6501200","瑞芳區"
"224005","271-BY","2018/02/10 17:49:41","新北市瑞芳區建基路一段64號","121.816903333333","25.1276716666667","6501200","瑞芳區"
"253006","295-VK","2018/02/10 17:49:49","新北市石門區中山路64-1號","121.567708333333","25.2903883333333","6502200","石門區"
"208002","742-BX","2018/02/10 17:49:49","新北市金山區磺清路135號","121.639276666667","25.227625","6502700","金山區"
"208003","665-BX","2018/02/10 17:49:41","新北市金山區磺清路135號","121.639496666667","25.227715","6502700","金山區"
"251009","008-UM","2018/02/10 17:49:45","新北市淡水區長興街29號","121.443931666667","25.1710566666667","6501000","淡水區"
"251004","009-UM","2018/02/10 17:49:39","新北市淡水區民權一街1號","121.459375","25.13694","6501000","淡水區"
"251013","179-VK","2018/02/10 17:49:34","新北市淡水區泉洲厝31號","121.479571666667","25.1910366666667","6501000","淡水區"
"251014","180-VK","2018/02/10 17:49:53","新北市淡水區公埔子16-6號","121.481018333333","25.2245733333333","6501000","淡水區"
"251008","181-VK","2018/02/10 17:49:46","新北市淡水區八勢路一段156號","121.468111666667","25.1564316666667","6501000","淡水區"
"251015","182-VK","2018/02/10 17:49:44","新北市淡水區興福寮1-6號","121.488376666667","25.1645916666667","6501000","淡水區"
"251010","413-VK","2018/02/10 17:49:46","新北市淡水區中正路二段54號","121.419241666667","25.1835616666667","6501000","淡水區"
"251012","441-VK","2018/02/10 17:49:40","新北市淡水區北新路二段30號","121.476975","25.1857116666667","6501000","淡水區"
"251016","442-VK","2018/02/10 17:49:45","新北市淡水區埤島39-15號","121.452743333333","25.1958883333333","6501000","淡水區"
"251005","443-VK","2018/02/10 17:49:50","新北市淡水區學府路102巷4號","121.45047","25.1719633333333","6501000","淡水區"
"251001","559-UM","2018/02/10 17:49:54","新北市淡水區民權路92巷35-1號","121.462136666667","25.126615","6501000","淡水區"
"251006","561-UM","2018/02/10 17:49:36","新北市淡水區大信街1巷16號","121.440073333333","25.1768266666667","6501000","淡水區"
"251011","650-BX","2018/02/10 17:44:30","新北市淡水區吳(仔)厝9-1號","121.47976","25.1466766666667","6501000","淡水區"
"251002","672-BX","2018/02/10 17:49:53","新北市淡水區中山路42號","121.444255","25.17","6501000","淡水區"
"251003","673-BX","2018/02/10 17:49:50","新北市淡水區大忠街5巷1號","121.443068333333","25.1764166666667","6501000","淡水區"
"207003","550-UM","2018/02/10 17:49:46","新北市萬里區野柳里東澳路66號","121.692798333333","25.2009683333333","6502800","萬里區"
"207004","225-TW","2018/02/10 17:49:45","新北市萬里區萬里里瑪鋉頂街71號","121.687731666667","25.18034","6502800","萬里區"
"252002","178-VK","2018/02/10 17:49:35","新北市三芝區中山路一段88巷15號","121.502838333333","25.256725","6502100","三芝區"
"252001","292-VK","2018/02/10 17:49:39","新北市三芝區中興街一段12號","121.49741","25.25925","6502100","三芝區"
"237004","KEA-2597","2018/02/10 17:49:42","新北市三峽區中山路128號","121.365425","24.93602","6500900","三峽區"
"237007","153-BY","2018/02/10 17:49:45","新北市三峽區中園街223號","121.36693","24.9201","6500900","三峽區"
"237009","210-TH","2018/02/10 17:49:49","新北市三峽區大勇路3巷35號","121.367601666667","24.9367416666667","6500900","三峽區"
"237013","252-BX","2018/02/10 17:49:53","新北市三峽區愛國路14號","121.374223333333","24.93361","6500900","三峽區"
"237012","275-BY","2018/02/10 17:49:34","新北市三峽區復興路175號","121.369856666667","24.938625","6500900","三峽區"
"237008","302-VK","2018/02/10 17:49:43","新北市三峽區中正路一段524號","121.36931","24.9200283333333","6500900","三峽區"
"237014","433-BY","2018/02/10 17:49:45","新北市三峽區和平街36巷17號","121.37124","24.9370216666667","6500900","三峽區"
"237006","5529-G3","2018/02/10 17:49:43","新北市三峽區介壽路二段136巷83-4號","121.392483333333","24.9318783333333","6500900","三峽區"
"237011","KEA-2596","2018/02/10 17:49:48","新北市三峽區大同路35號","121.376711666667","24.9282933333333","6500900","三峽區"
"237015","649-BX","2018/02/10 17:25:57","新北市三峽區隆恩街250號","121.357091666667","24.9409033333333","6500900","三峽區"
"237010","706-TV","2018/02/10 17:49:47","新北市三峽區文化路158號","121.37004","24.93613","6500900","三峽區"
"237005","AKY-6261","2018/02/10 17:49:47","新北市三峽區中山路459巷137號","121.3501","24.9340533333333","6500900","三峽區"
"236073","105-UM","2018/02/10 17:49:51","新北市土城區青雲路378巷14號","121.45762","24.9741483333333","6501300","土城區"
"236043","107-UM","2018/02/10 17:49:48","新北市土城區城林路6巷80號","121.438498333333","24.9797","6501300","土城區"
"236079","166-UM","2018/02/10 17:49:55","新北市土城區中華路二段196號","121.43751","24.9704733333333","6501300","土城區"
"236031","253-BX","2018/02/10 17:49:46","新北市土城區城林路6巷80號","121.438511666667","24.97964","6501300","土城區"
"236026","269-VK","2018/02/10 17:49:35","新北市土城區城林路6巷80號","121.438243333333","24.979515","6501300","土城區"
"236015","270-VK","2018/02/10 17:49:49","新北市土城區城林路6巷80號","121.438563333333","24.9795916666667","6501300","土城區"
"236038","271-VK","2018/02/10 17:49:43","新北市土城區城林路6巷80號","121.438441666667","24.9797516666667","6501300","土城區"
"236023","401-BY","2018/02/10 17:49:42","新北市土城區城林路6巷80號","121.438596666667","24.979745","6501300","土城區"
"236059","912-UM","2018/02/10 17:49:47","新北市土城區中華路二段281號","121.437588333333","24.969575","6501300","土城區"
"236049","913-UM","2018/02/10 17:49:51","新北市土城區城林路6巷80號","121.438496666667","24.9797483333333","6501300","土城區"
"236063","915-UM","2018/02/10 17:49:51","新北市土城區城林路6巷80號","121.438653333333","24.9797833333333","6501300","土城區"
"236055","AAC-216","2018/02/10 17:49:53","新北市土城區城林路6巷80號","121.438478333333","24.9797616666667","6501300","土城區"
"242031","AAC-296","2018/02/10 17:49:48","新北市新莊區新泰路321巷3弄8號","121.444471666667","25.041135","6500500","新莊區"
"242029","986-R7","2018/02/10 17:49:46","新北市新莊區復興路一段101號","121.449046666667","25.0428633333333","6500500","新莊區"
"242025","615-BX","2018/02/10 17:49:44","新北市新莊區化成路447號","121.46424","25.0609366666667","6500500","新莊區"
"242023","613-BX","2018/02/10 17:49:41","新北市新莊區福樂街50號","121.457853333333","25.0458233333333","6500500","新莊區"
"242027","612-BX","2018/02/10 17:49:42","新北市新莊區福壽街150號","121.457895","25.0523083333333","6500500","新莊區"
"242039","566-BX","2018/02/10 17:49:41","新北市新莊區民安路208號","121.425736666667","25.0230083333333","6500500","新莊區"
"242048","441-UM","2018/02/10 17:49:56","新北市新莊區萬安街101號","121.420968333333","25.023115","6500500","新莊區"
"242053","440-UM","2018/02/10 17:49:54","新北市新莊區民安西路470-1號","121.431675","25.0078133333333","6500500","新莊區"
"242034","415-TV","2018/02/10 17:49:50","新北市新莊區新莊路650號","121.442651666667","25.03285","6500500","新莊區"
"242004","413-TV","2018/02/10 17:49:40","新北市新莊區思源路177巷5弄12號","121.45875","25.0450883333333","6500500","新莊區"
"242042","400-BY","2018/02/10 17:49:46","新北市新莊區中正路612-1號","121.426175","25.0302366666667","6500500","新莊區"
"242061","362-BY","2018/02/10 17:49:42","新北市新莊區新樹路607號","121.43349","25.0055233333333","6500500","新莊區"
"242058","353-BY","2018/02/10 17:49:49","新北市新莊區中正路704-1號","121.417373333333","25.0257683333333","6500500","新莊區"
"242007","132-UY","2018/02/10 17:49:43","新北市新莊區福樂街108巷31號","121.457853333333","25.0487266666667","6500500","新莊區"
"242036","133-UY","2018/02/10 17:49:50","新北市新莊區後港一路105號","121.428265","25.0270816666667","6500500","新莊區"
"242021","135-UY","2018/02/10 17:49:44","新北市新莊區中港路205號","121.454863333333","25.0419916666667","6500500","新莊區"
"242046","172-VK","2018/02/10 17:49:45","新北市新莊區福營路97巷15號","121.434885","25.0317616666667","6500500","新莊區"
"242009","173-VK","2018/02/10 17:49:48","新北市新莊區昌明街14巷7弄11號","121.456825","25.0533683333333","6500500","新莊區"
"242015","175-VK","2018/02/10 17:49:48","新北市新莊區新泰路462號","121.44328","25.0448083333333","6500500","新莊區"
"242002","176-VK","2018/02/10 17:49:49","新北市新莊區景德路192號","121.44991","25.03412","6500500","新莊區"
"242013","346-TH","2018/02/10 17:49:50","新北市新莊區幸福路753巷10弄1號","121.44841","25.0485416666667","6500500","新莊區"
"242051","347-TH","2018/02/10 17:49:45","新北市新莊區西盛街252號","121.428061666667","25.0159766666667","6500500","新莊區"
"242019","348-TH","2018/02/10 17:49:46","新北市新莊區中港路259號","121.453828333333","25.043255","6500500","新莊區"
"242056","349-TH","2018/02/10 17:49:43","新北市新莊區瓊林路38巷10號","121.447546666667","25.0305066666667","6500500","新莊區"
"242017","350-TH","2018/02/10 17:49:37","新北市新莊區永安街126號","121.449761666667","25.0444816666667","6500500","新莊區"
"242011","351-TH","2018/02/10 17:49:53","新北市新莊區中港路684號","121.450835","25.0567316666667","6500500","新莊區"
"238015","755-BX","2018/02/10 17:49:37","新北市樹林區樹德街136巷10號","121.419383333333","24.9936816666667","6500700","樹林區"
"238023","601-UM","2018/02/10 17:49:50","新北市樹林區龍興街13巷17號","121.403615","25.0166216666667","6500700","樹林區"
"238019","599-UM","2018/02/10 17:49:54","新北市樹林區太平路96號","121.41874","24.9795716666667","6500700","樹林區"
"238018","571-TV","2018/02/10 17:49:42","新北市樹林區博愛街6號","121.42759","24.9931883333333","6500700","樹林區"
"238022","KEA-2213","2018/02/10 17:49:52","新北市樹林區太元街36號","121.418101666667","24.9800033333333","6500700","樹林區"
"238026","KEA-2539","2018/02/10 17:49:47","新北市樹林區柑園街一段253巷47號","121.396986666667","24.9531833333333","6500700","樹林區"
"238025","303-VK","2018/02/10 17:49:47","新北市樹林區三俊街27號","121.412153333333","25.0156483333333","6500700","樹林區"
"238017","283-BY","2018/02/10 17:49:49","新北市樹林區三德街30巷3號","121.41459","25.0130983333333","6500700","樹林區"
"238014","282-BY","2018/02/10 17:49:51","新北市樹林區大安路143號","121.422023333333","24.99691","6500700","樹林區"
"238020","268-VK","2018/02/10 17:49:40","新北市樹林區三俊街253號","121.422278333333","25.014495","6500700","樹林區"
"238026","172-UY","2018/02/10 17:49:38","新北市樹林區新興街19巷2弄15號","121.401313333333","24.97283","6500700","樹林區"
"238016","169-UY","2018/02/10 17:49:53","新北市樹林區啟智街129-4號","121.417858333333","24.9891833333333","6500700","樹林區"
"239007","AAC-297","2018/02/10 17:49:48","新北市鶯歌區鶯桃路170巷4號","121.33745","24.955475","6500800","鶯歌區"
"239006","891-R6","2018/02/10 17:49:39","新北市鶯歌區永和街115巷66-1號","121.333768333333","24.97006","6500800","鶯歌區"
"239008","527-UM","2018/02/10 17:49:40","新北市鶯歌區香賓街8巷1號","121.336623333333","24.9790183333333","6500800","鶯歌區"
"239005","526-UM","2018/02/10 17:49:43","新北市鶯歌區鳳吉四街45號","121.327423333333","24.9731683333333","6500800","鶯歌區"
"239001","417-VK","2018/02/10 17:49:37","新北市鶯歌區中正三路215號","121.335176666667","24.9393683333333","6500800","鶯歌區"
"239003","360-BY","2018/02/10 17:49:47","新北市鶯歌區鶯桃路289-1號","121.33471","24.9601566666667","6500800","鶯歌區"
"239004","193-VK","2018/02/10 17:49:36","新北市鶯歌區文化路224號","121.352788333333","24.9487233333333","6500800","鶯歌區"
"221008","489-VK","2018/02/10 17:49:37","新北市汐止區康寧街901號","121.651398333333","25.0750766666667","6501100","汐止區"
"221036","130-UY","2018/02/10 17:49:57","新北市汐止區長江街255巷2號","121.663453333333","25.0794933333333","6501100","汐止區"
"221012","278-VK","2018/02/10 17:49:55","新北市汐止區長江街101-5號","121.659005","25.0734016666667","6501100","汐止區"
"221023","279-VK","2018/02/10 17:49:52","新北市汐止區民族二街36號","121.634873333333","25.0705366666667","6501100","汐止區"
"221032","280-BY","2018/02/10 17:49:45","新北市汐止區大同路一段215-1號","121.63372","25.057345","6501100","汐止區"
"221027","281-BY","2018/02/10 17:49:47","新北市汐止區汐萬路一段273號","121.650476666667","25.07452","6501100","汐止區"
"221010","297-VK","2018/02/10 17:49:47","新北市汐止區汐萬路二段50號","121.649553333333","25.0817583333333","6501100","汐止區"
"221029","298-VK","2018/02/10 17:49:52","新北市汐止區康寧街901號","121.651488333333","25.0749733333333","6501100","汐止區"
"221021","299-VK","2018/02/10 17:49:49","新北市汐止區水源路一段16號","121.657111666667","25.0666933333333","6501100","汐止區"
"221031","353-TW","2018/02/10 17:49:50","新北市汐止區中興路86-4號","121.634743333333","25.0622033333333","6501100","汐止區"
"221035","622-UM","2018/02/10 17:49:53","新北市汐止區汐萬路一段211巷15號","121.651496666667","25.0719016666667","6501100","汐止區"
"221025","623-UM","2018/02/10 17:49:54","新北市汐止區新台五路一段207號","121.656713333333","25.0636583333333","6501100","汐止區"
"221038","646-BX","2018/02/10 17:49:52","新北市汐止區汐萬路一段191號","121.652388333333","25.071695","6501100","汐止區"
"221033","647-BX","2018/02/10 17:49:18","新北市汐止區林森街78號","121.624156666667","25.0409416666667","6501100","汐止區"
"221002","707-TV","2018/02/10 17:49:47","新北市汐止區康寧街901號","121.65148","25.0750183333333","6501100","汐止區"
"221018","753-BX","2018/02/10 17:49:54","新北市汐止區汐萬路一段20號","121.655948333333","25.067625","6501100","汐止區"
"242044","280-VK","2018/02/10 17:49:39","新北市新莊區中正路855巷4號","121.419638333333","25.0275783333333","6500500","新莊區"
