"lineid","car","time","location","longitude","latitude","cityid","cityname"
"234046","148-BY","2018/02/10 18:29:41","新北市永和區福和路1號","121.526083333333","25.009645","6500400","永和區"
"234007","207-UY","2018/02/10 18:29:42","新北市永和區環河西路二段219號","121.501361666667","25.0102566666667","6500400","永和區"
"234081","298-R6","2018/02/10 18:29:52","新北市永和區環河東路三段40號","121.526595","25.0066016666667","6500400","永和區"
"234017","745-BX","2018/02/10 18:29:41","新北市永和區福和路1號","121.526315","25.0096183333333","6500400","永和區"
"234013","KEA-2591","2018/02/10 18:29:46","新北市永和區中興街1號","121.515336666667","25.0122183333333","6500400","永和區"
"234042","862-TW","2018/02/10 18:29:44","新北市永和區永和路一段122號","121.513801666667","25.0076633333333","6500400","永和區"
"234026","9371-KE","2018/02/10 18:29:53","新北市永和區豫溪街52巷16號","121.515671666667","25.009185","6500400","永和區"
"234023","9381-KE","2018/02/10 18:29:00","新北市永和區福和路1號","121.526026666667","25.009155","6500400","永和區"
"234011","9373-KE","2018/02/10 18:29:39","新北市永和區保福路二段158巷5號","121.509191666667","25.01524","6500400","永和區"
"249005","172-UM","2018/02/10 18:29:50","新北市八里區中華路三段145巷5號","121.392","25.1343066666667","6502300","八里區"
"249001","173-UM","2018/02/10 18:29:52","新北市八里區龍米路一段140號","121.452938333333","25.1255966666667","6502300","八里區"
"249004","303-UY","2018/02/10 18:29:39","新北市八里區文心街65號","121.428401666667","25.1609466666667","6502300","八里區"
"249002","305-UY","2018/02/10 18:29:52","新北市八里區龍形三街17號","121.44902","25.1316383333333","6502300","八里區"
"248014","025-BX","2018/02/10 18:29:43","新北市五股區自強路124號","121.432336666667","25.071705","6501500","五股區"
"248016","026-BX","2018/02/10 18:29:42","新北市五股區凌雲路一段83巷10弄5號","121.450336666667","25.1011083333333","6501500","五股區"
"248006","077-UY","2018/02/10 18:29:38","新北市五股區四維路79號","121.467248333333","25.0723316666667","6501500","五股區"
"248008","095-VK","2018/02/10 18:29:53","新北市五股區四維路185巷42弄1號","121.46368","25.0769016666667","6501500","五股區"
"248020","225-UY","2018/02/10 18:29:42","新北市五股區孝義路55巷5號","121.45136","25.1120833333333","6501500","五股區"
"248012","247-BX","2018/02/10 18:29:47","新北市五股區御成路148號","121.440835","25.0944616666667","6501500","五股區"
"248010","272-BY","2018/02/10 18:29:53","新北市五股區明德路12巷1號","121.433245","25.0716166666667","6501500","五股區"
"248004","677-BX","2018/02/10 18:29:57","新北市五股區工商路130號","121.436031666667","25.08606","6501500","五股區"
"248002","678-BX","2018/02/10 18:29:37","新北市五股區西雲路116-6號","121.444621666667","25.0937483333333","6501500","五股區"
"234077","969-R7","2018/02/10 18:29:50","新北市永和區福和路1號","121.526473333333","25.0097466666667","6500400","永和區"
"232011","375-UM","2018/02/10 18:29:46","新北市坪林區坪雙路一段43號","121.711678333333","24.94249","6502000","坪林區"
"244013","069-UM","2018/02/10 18:29:56","新北市林口區佳林路101巷15號","121.386845","25.080025","6501700","林口區"
"244007","080-UY","2018/02/10 18:29:57","新北市林口區湖子36-1號","121.38624","25.0947033333333","6501700","林口區"
"244019","402-UM","2018/02/10 18:29:44","新北市林口區忠孝路551號","121.372508333333","25.0686783333333","6501700","林口區"
"244023","483-VK","2018/02/10 18:29:43","新北市林口區佳林路211號","121.38426","25.0765016666667","6501700","林口區"
"244017","485-VK","2018/02/10 18:29:49","新北市林口區文化二路一段6號","121.364295","25.0664416666667","6501700","林口區"
"244009","658-BX","2018/02/10 18:29:53","新北市林口區中山路490號","121.380171666667","25.0824016666667","6501700","林口區"
"244011","701-TV","2018/02/10 18:29:56","新北市林口區中正路74巷5弄1號","121.394621666667","25.0779683333333","6501700","林口區"
"244025","837-TS","2018/02/10 18:29:47","新北市林口區南勢六街57號","121.35544","25.0718883333333","6501700","林口區"
"244021","838-TS","2018/02/10 18:29:38","新北市林口區自強一街9號","121.397913333333","25.0785916666667","6501700","林口區"
"243012","AAD-798","2018/02/10 18:29:44","新北市泰山區忠孝街10號","121.42763","25.0647016666667","6501600","泰山區"
"243013","646-TV","2018/02/10 18:29:42","新北市泰山區明志路三段206巷3號","121.423256666667","25.03793","6501600","泰山區"
"222003","436-BY","2018/02/10 18:29:46","新北市深坑區烏月路56-1號","121.631205","25.00573","6501800","深坑區"
"222002","659-BX","2018/02/10 18:29:52","新北市深坑區雲鄉路196號","121.622115","24.9982733333333","6501800","深坑區"
"231041","002-UM","2018/02/10 18:29:43","新北市新店區安華路28-1號","121.519608333333","24.9608183333333","6500600","新店區"
"231059","046-UY","2018/02/10 18:29:41","新北市新店區安華路28-1號","121.519521666667","24.9608333333333","6500600","新店區"
"231060","106-UY","2018/02/10 18:29:43","新北市新店區安華路28-1號","121.519715","24.9607983333333","6500600","新店區"
"231051","107-UY","2018/02/10 18:29:47","新北市新店區安華路28-1號","121.519316666667","24.9612283333333","6500600","新店區"
"231048","108-UY","2018/02/10 18:29:45","新北市新店區安華路28-1號","121.519448333333","24.9609933333333","6500600","新店區"
"231049","110-UY","2018/02/10 18:29:50","新北市新店區安華路28-1號","121.519076666667","24.961205","6500600","新店區"
"231052","187-VK","2018/02/10 18:29:46","新北市新店區新烏路一段28號","121.546336666667","24.9509983333333","6500600","新店區"
"231064","188-VK","2018/02/10 18:29:52","新北市新店區安華路28-1號","121.519651666667","24.961105","6500600","新店區"
"231050","KEA-2219","2018/02/10 18:29:39","新北市新店區安華路28-1號","121.519863333333","24.9612883333333","6500600","新店區"
"221015","KEA-2785","2018/02/10 18:29:37","新北市汐止區鄉長路18巷3號","121.66833","25.0824533333333","6501100","汐止區"
"231057","256-BX","2018/02/10 18:29:53","新北市新店區光明街101號","121.538826666667","24.9613383333333","6500600","新店區"
"231046","278-BY","2018/02/10 18:29:48","新北市新店區直潭七街60號","121.532288333333","24.9398216666667","6500600","新店區"
"231054","AAD-862","2018/02/10 18:29:42","新北市新店區安華路28-1號","121.519865","24.9613016666667","6500600","新店區"
"231058","3712-VJ","2018/02/10 18:29:49","新北市新店區新店後街54號","121.537808333333","24.953955","6500600","新店區"
"231056","3713-VJ","2018/02/10 18:29:52","新北市新店區中正路438號","121.534185","24.9783133333333","6500600","新店區"
"231055","4716-K9","2018/02/10 18:29:47","新北市新店區中正路128巷15號","121.542603333333","24.9723933333333","6500600","新店區"
"231067","4772-VM","2018/02/10 18:29:52","新北市新店區安華路28-1號","121.519155","24.960615","6500600","新店區"
"231042","616-UM","2018/02/10 18:29:41","新北市新店區安華路28-1號","121.51947","24.9605416666667","6500600","新店區"
"231040","619-UM","2018/02/10 18:29:47","新北市新店區安華路28-1號","121.519543333333","24.9608583333333","6500600","新店區"
"231063","645-TV","2018/02/10 18:29:37","新北市新店區安華路1-1號","121.519358333333","24.9605033333333","6500600","新店區"
"231065","719-UY","2018/02/10 18:29:40","新北市新店區安華路28-1號","121.519255","24.9613216666667","6500600","新店區"
"231062","720-UM","2018/02/10 18:29:42","新北市新店區安華路28-1號","121.51918","24.9610716666667","6500600","新店區"
"231044","897-TW","2018/02/10 18:29:51","新北市新店區安華路28-1號","121.519363333333","24.9605883333333","6500600","新店區"
"231045","898-TW","2018/02/10 18:12:44","新北市新店區安華路28-1號","121.519298333333","24.960955","6500600","新店區"
"231043","899-TW","2018/02/10 18:29:49","新北市新店區安華路28-1號","121.519325","24.9610166666667","6500600","新店區"
"231066","AKT-0513","2018/02/10 18:29:53","新北市新店區安華路1-1號","121.519421666667","24.9605116666667","6500600","新店區"
"241023","545-UM","2018/02/10 18:29:49","新北市三重區忠孝路三段99巷4號","121.480196666667","25.0643166666667","6500200","三重區"
"235066","003-UY","2018/02/10 18:29:40","新北市中和區中山路二段122號","121.502653333333","25.00363","6500300","中和區"
"235064","005-UY","2018/02/10 18:29:52","新北市中和區圓通路141巷48弄23號","121.49816","24.9943766666667","6500300","中和區"
"235063","006-UY","2018/02/10 18:29:48","新北市中和區連城路347巷16弄20號","121.487506666667","24.9950833333333","6500300","中和區"
"235056","096-UM","2018/02/10 18:29:45","新北市中和區員山路611巷1號","121.477915","25.011295","6500300","中和區"
"235039","097-UM","2018/02/10 18:29:47","新北市中和區中正路19號","121.50286","24.993525","6500300","中和區"
"235065","098-UM","2018/02/10 18:29:54","新北市中和區莊敬路49巷10弄10號","121.501855","25.00538","6500300","中和區"
"235040","150-BY","2018/02/10 18:14:16","新北市中和區中正路305號","121.492801666667","24.9939116666667","6500300","中和區"
"235058","151-BY","2018/02/10 18:29:47","新北市中和區圓通路369巷30弄16號","121.48958","24.9851066666667","6500300","中和區"
"235055","183-VK","2018/02/10 18:29:53","新北市中和區莒光路93號","121.472341666667","25.0031716666667","6500300","中和區"
"235038","185-VK","2018/02/10 18:29:43","新北市中和區大智街106巷1號","121.524308333333","24.992605","6500300","中和區"
"235049","186-VK","2018/02/10 18:29:53","新北市中和區中正路292號","121.494496666667","24.994","6500300","中和區"
"235072","301-VK","2018/02/10 18:29:54","新北市中和區中山路二段110號","121.502788333333","25.0039616666667","6500300","中和區"
"235043","352-BY","2018/02/10 18:29:53","新北市中和區景平路434號","121.50707","24.9932916666667","6500300","中和區"
"235061","378-QA","2018/02/10 18:29:49","新北市中和區民享街116巷2號","121.474371666667","24.9988083333333","6500300","中和區"
"235050","4979-A6","2018/02/10 18:29:42","新北市中和區興南路一段55-2號","121.510723333333","24.9901833333333","6500300","中和區"
"235069","4980-A6","2018/02/10 18:29:37","新北市中和區圓通路207號","121.49708","24.9943516666667","6500300","中和區"
"235042","551-UM","2018/02/10 18:29:41","新北市中和區大仁街20巷25弄39號","121.519445","24.99366","6500300","中和區"
"235070","558-UM","2018/02/10 18:29:55","新北市中和區圓通路158巷8-1號","121.497866666667","24.99611","6500300","中和區"
"235045","565-BX","2018/02/10 18:29:54","新北市中和區南山路236巷20弄5號","121.50564","24.9892966666667","6500300","中和區"
"235054","640-BX","2018/02/10 18:29:46","新北市中和區民享街90巷1號","121.474795","25.00022","6500300","中和區"
"235060","647-TV","2018/02/10 18:29:56","新北市中和區員山路372號","121.480705","25.00409","6500300","中和區"
"235046","733-UM","2018/02/10 18:29:36","新北市中和區板南路202號","121.499401666667","24.9930216666667","6500300","中和區"
"235062","800-TS","2018/02/10 18:29:50","新北市中和區景平路728號","121.496698333333","25.0037566666667","6500300","中和區"
"235057","801-TS","2018/02/10 18:29:36","新北市中和區民享街97巷19號","121.475378333333","24.9995466666667","6500300","中和區"
"235052","805-TS","2018/02/10 18:29:56","新北市中和區興南路二段96號","121.504911666667","24.984115","6500300","中和區"
"235048","896-TW","2018/02/10 18:29:43","新北市中和區中正路192號","121.497666666667","24.9937366666667","6500300","中和區"
"235053","900-TW","2018/02/10 18:29:48","新北市中和區民享街457號","121.470498333333","24.993185","6500300","中和區"
"235051","157-BY","2018/02/10 18:29:52","新北市中和區興南路一段147號","121.508728333333","24.9873366666667","6500300","中和區"
"235037","AAC-213","2018/02/10 18:29:42","新北市中和區景平路111巷60弄46號","121.514876666667","24.99087","6500300","中和區"
"220065","072-UY","2018/02/10 18:29:39","新北市板橋區南雅南路一段5巷19號","121.456525","25.0054","6500100","板橋區"
"220086","073-UY","2018/02/10 18:29:54","新北市板橋區南雅南路二段146號","121.451535","24.9961283333333","6500100","板橋區"
"226004","312-R5","2018/02/10 18:29:41","新北市平溪區靜安路二段149號","121.722646666667","25.023315","6502400","平溪區"
"228003","097-TW","2018/02/10 18:29:55","新北市貢寮區和美里和美街46號","121.915001666667","25.09324","6502600","貢寮區"
"228001","212-TW","2018/02/10 18:29:53","新北市貢寮區仁理村仁和路72號","121.92271","25.0499683333333","6502600","貢寮區"
"228002","585-TW","2018/02/10 18:29:38","新北市貢寮區福連里福連街37號","121.988826666667","25.010915","6502600","貢寮區"
"224006","676-BX","2018/02/10 18:29:48","新北市瑞芳區明燈路二段40號","121.810043333333","25.1077733333333","6501200","瑞芳區"
"224002","639-TC","2018/02/10 18:29:57","新北市瑞芳區正貿新村22號","121.813361666667","25.1056666666667","6501200","瑞芳區"
"224009","285-BY","2018/02/10 18:29:41","新北市瑞芳區祈堂路184號","121.857758333333","25.1095183333333","6501200","瑞芳區"
"224008","275-VK","2018/02/10 18:29:55","新北市瑞芳區逢甲路204號","121.806808333333","25.1101266666667","6501200","瑞芳區"
"224007","273-VK","2018/02/10 18:29:54","新北市瑞芳區大埔路吉慶公園城24號","121.764738333333","25.0999116666667","6501200","瑞芳區"
"224005","271-BY","2018/02/10 18:29:39","新北市瑞芳區台電新村125號","121.811273333333","25.1276783333333","6501200","瑞芳區"
"227002","642-TC","2018/02/10 18:29:50","新北市雙溪區魚行里新店76號","121.872265","25.02646","6502500","雙溪區"
"227010","400-TW","2018/02/10 18:29:43","新北市雙溪區牡丹里牡丹111號","121.851116666667","25.05996","6502500","雙溪區"
"253005","032-BX","2018/02/10 18:29:41","新北市石門區老崩山10-1號","121.552888333333","25.2911666666667","6502200","石門區"
"253006","295-VK","2018/02/10 18:29:49","新北市石門區公地16號","121.545718333333","25.2902833333333","6502200","石門區"
"222001","KEA-2212","2018/02/10 18:29:42","新北市深坑區北深路一段232號","121.63031","25.0088983333333","6501800","深坑區"
"208002","742-BX","2018/02/10 18:29:49","新北市金山區民生路81號","121.64007","25.2195716666667","6502700","金山區"
"208003","665-BX","2018/02/10 18:29:41","新北市金山區中山路251號","121.637145","25.2220333333333","6502700","金山區"
"208001","761-BX","2018/02/10 18:29:44","新北市金山區金包里街178號","121.63762","25.2232183333333","6502700","金山區"
"251004","009-UM","2018/02/10 18:29:21","新北市淡水區民族路5號","121.460185","25.1371116666667","6501000","淡水區"
"251013","179-VK","2018/02/10 18:29:55","新北市淡水區椿子林19-1號","121.4804","25.204075","6501000","淡水區"
"251014","180-VK","2018/02/10 18:29:53","新北市淡水區南平26-2號","121.492961666667","25.2160216666667","6501000","淡水區"
"251008","181-VK","2018/02/10 18:29:45","新北市淡水區北投子87-2號","121.468016666667","25.178365","6501000","淡水區"
"251015","182-VK","2018/02/10 18:29:44","新北市淡水區興福寮88巷216號","121.485921666667","25.1666483333333","6501000","淡水區"
"251010","413-VK","2018/02/10 18:29:46","新北市淡水區沙崙路181巷1號","121.424115","25.1842083333333","6501000","淡水區"
"251012","441-VK","2018/02/10 18:29:40","新北市淡水區北新路一段157號","121.458641666667","25.1823033333333","6501000","淡水區"
"251016","442-VK","2018/02/10 18:29:45","新北市淡水區下圭柔山115-10號","121.446245","25.2125666666667","6501000","淡水區"
"251001","559-UM","2018/02/10 18:29:54","新北市淡水區自強路122巷1號","121.46447","25.1331016666667","6501000","淡水區"
"251006","561-UM","2018/02/10 18:29:36","新北市淡水區新民街30號","121.439643333333","25.1757866666667","6501000","淡水區"
"251011","650-BX","2018/02/10 18:29:49","新北市淡水區中正東路36號","121.449176666667","25.1657916666667","6501000","淡水區"
"251002","672-BX","2018/02/10 18:29:53","新北市淡水區竿蓁二街19巷20弄1號","121.453051666667","25.1636733333333","6501000","淡水區"
"251003","673-BX","2018/02/10 18:29:49","新北市淡水區北新路169巷14號","121.449708333333","25.1802066666667","6501000","淡水區"
"207003","550-UM","2018/02/10 18:29:55","新北市萬里區野柳里港東路72號","121.687885","25.2047","6502800","萬里區"
"207004","225-TW","2018/02/10 18:29:45","新北市萬里區萬里里瑪鋉路272-1號","121.688823333333","25.1808716666667","6502800","萬里區"
"252002","178-VK","2018/02/10 18:29:55","新北市三芝區中山路二段33號","121.502766666667","25.2552166666667","6502100","三芝區"
"252003","249-BX","2018/02/10 18:29:48","新北市三芝區後厝里北勢子45-30號","121.469221666667","25.25076","6502100","三芝區"
"252001","292-VK","2018/02/10 18:29:39","新北市三芝區中興街二段2號","121.498355","25.2566266666667","6502100","三芝區"
"237004","KEA-2597","2018/02/10 18:29:42","新北市三峽區五寮106號","121.361866666667","24.8608533333333","6500900","三峽區"
"237007","153-BY","2018/02/10 18:29:45","新北市三峽區中正路三段120號","121.354681666667","24.903625","6500900","三峽區"
"237009","210-TH","2018/02/10 18:29:49","新北市三峽區大仁路64號","121.364955","24.9374116666667","6500900","三峽區"
"237013","252-BX","2018/02/10 18:29:53","新北市三峽區永安街9巷66號","121.375771666667","24.9296","6500900","三峽區"
"237012","275-BY","2018/02/10 18:29:34","新北市三峽區三樹路112號","121.378348333333","24.9392816666667","6500900","三峽區"
"237008","302-VK","2018/02/10 18:29:43","新北市三峽區白雞68-145號","121.391621666667","24.9081116666667","6500900","三峽區"
"237006","5529-G3","2018/02/10 18:29:43","新北市三峽區三樹路98巷119號","121.382848333333","24.9395683333333","6500900","三峽區"
"237011","KEA-2596","2018/02/10 18:29:48","新北市三峽區成福路202號","121.426796666667","24.9258116666667","6500900","三峽區"
"237010","706-TV","2018/02/10 18:29:46","新北市三峽區復興路489號","121.361253333333","24.9384433333333","6500900","三峽區"
"237005","AKY-6261","2018/02/10 18:29:27","新北市三峽區仁愛街18號","121.368361666667","24.9321933333333","6500900","三峽區"
"236073","105-UM","2018/02/10 18:29:51","新北市土城區永豐路255巷21弄2號","121.475111666667","24.9734516666667","6501300","土城區"
"236043","107-UM","2018/02/10 18:29:48","新北市土城區裕民路67巷18號","121.450005","24.988265","6501300","土城區"
"236079","166-UM","2018/02/10 18:29:55","新北市土城區中央路四段6號","121.425741666667","24.96308","6501300","土城區"
"236031","253-BX","2018/02/10 18:29:49","新北市土城區水源街63號","121.440073333333","24.9762116666667","6501300","土城區"
"236026","269-VK","2018/02/10 18:29:56","新北市土城區南天母路111巷15號","121.447961666667","24.9557133333333","6501300","土城區"
"236015","270-VK","2018/02/10 18:29:49","新北市土城區青雲路39巷7號","121.460373333333","24.9873983333333","6501300","土城區"
"236038","271-VK","2018/02/10 18:29:43","新北市土城區青雲路449號","121.458786666667","24.97505","6501300","土城區"
"236023","401-BY","2018/02/10 18:29:42","新北市土城區永豐路202巷14號","121.466483333333","24.9835283333333","6501300","土城區"
"236059","912-UM","2018/02/10 18:29:47","新北市土城區中央路四段273-1號","121.412825","24.9542983333333","6501300","土城區"
"236049","913-UM","2018/02/10 18:29:47","新北市土城區青雲路396號","121.458816666667","24.97279","6501300","土城區"
"236063","915-UM","2018/02/10 18:29:51","新北市土城區延壽路77巷6弄12號","121.468448333333","24.993015","6501300","土城區"
"236055","AAC-216","2018/02/10 18:29:53","新北市土城區中華路一段243號","121.441161666667","24.982275","6501300","土城區"
"242031","AAC-296","2018/02/10 18:29:08","新北市新莊區新泰路255巷64號","121.443526666667","25.0396066666667","6500500","新莊區"
"242029","986-R7","2018/02/10 18:29:45","新北市新莊區幸福路906號","121.442935","25.04904","6500500","新莊區"
"242025","615-BX","2018/02/10 18:29:44","新北市新莊區五工路70號","121.45807","25.06349","6500500","新莊區"
"242053","440-UM","2018/02/10 18:29:54","新北市新莊區樹新路120巷49弄1號","121.430273333333","24.9957683333333","6500500","新莊區"
"242004","413-TV","2018/02/10 18:29:40","新北市新莊區新莊路94號","121.456543333333","25.0361916666667","6500500","新莊區"
"242042","400-BY","2018/02/10 18:29:46","新北市新莊區天祥街120巷3弄2號","121.414698333333","25.0301833333333","6500500","新莊區"
"242061","362-BY","2018/02/10 18:29:42","新北市新莊區後港一路102號","121.428041666667","25.02675","6500500","新莊區"
"242058","353-BY","2018/02/10 18:29:41","新北市新莊區中正路732號","121.414038333333","25.0231716666667","6500500","新莊區"
"242007","132-UY","2018/02/10 18:29:43","新北市新莊區自重街30號","121.45407","25.0475183333333","6500500","新莊區"
"242036","133-UY","2018/02/10 18:29:45","新北市新莊區後港一路49巷3弄11號","121.425121666667","25.0267033333333","6500500","新莊區"
"242021","135-UY","2018/02/10 18:29:44","新北市新莊區新興街1號","121.45069","25.0360733333333","6500500","新莊區"
"242046","172-VK","2018/02/10 18:29:41","新北市新莊區中正路803巷5號","121.421755","25.0280833333333","6500500","新莊區"
"242009","173-VK","2018/02/10 18:29:48","新北市新莊區中華路二段150號","121.453141666667","25.05027","6500500","新莊區"
"242015","175-VK","2018/02/10 18:29:48","新北市新莊區中平路198巷12號","121.44566","25.0483783333333","6500500","新莊區"
"242051","347-TH","2018/02/10 18:29:44","新北市新莊區民本街27巷20號","121.429093333333","25.0190383333333","6500500","新莊區"
"242056","349-TH","2018/02/10 18:29:47","新北市新莊區豐年街豐2巷19號","121.447298333333","25.030905","6500500","新莊區"
"242017","350-TH","2018/02/10 18:29:37","新北市新莊區中港路290號","121.45296","25.0446","6500500","新莊區"
"242011","351-TH","2018/02/10 18:29:53","新北市新莊區中港路485號","121.452186666667","25.0498083333333","6500500","新莊區"
"238015","755-BX","2018/02/10 18:29:57","新北市樹林區文化街112巷6號","121.417016666667","24.99","6500700","樹林區"
"238023","601-UM","2018/02/10 18:29:56","新北市樹林區三福街47巷10號","121.407928333333","25.015625","6500700","樹林區"
"238019","599-UM","2018/02/10 18:29:54","新北市樹林區中華路57號","121.4234","24.9832766666667","6500700","樹林區"
"238018","571-TV","2018/02/10 18:29:41","新北市樹林區保安街一段16巷26號","121.428468333333","24.99408","6500700","樹林區"
"238024","5061-A6","2018/02/10 18:29:58","新北市樹林區中山路一段27-8號","121.424406666667","24.9930083333333","6500700","樹林區"
"238022","KEA-2213","2018/02/10 18:29:12","新北市樹林區中山路三段214號","121.380098333333","24.967815","6500700","樹林區"
"238026","KEA-2539","2018/02/10 18:29:47","新北市樹林區柑園街二段149巷1號","121.382315","24.9538683333333","6500700","樹林區"
"238025","303-VK","2018/02/10 18:29:47","新北市樹林區俊興街173號","121.417036666667","25.01255","6500700","樹林區"
"238017","283-BY","2018/02/10 18:29:49","新北市樹林區保安街二段333巷16號","121.41125","25.0075216666667","6500700","樹林區"
"238014","282-BY","2018/02/10 18:29:51","新北市樹林區中山路三段214號","121.379931666667","24.9678033333333","6500700","樹林區"
"238020","268-VK","2018/02/10 18:29:40","新北市樹林區中正路722號","121.408991666667","25.0181216666667","6500700","樹林區"
"238026","172-UY","2018/02/10 18:29:58","新北市樹林區佳園路一段90號","121.39336","24.9692516666667","6500700","樹林區"
"238016","169-UY","2018/02/10 18:29:46","新北市樹林區啟智街151巷3-1號","121.416728333333","24.9877383333333","6500700","樹林區"
"239007","AAC-297","2018/02/10 18:29:47","新北市鶯歌區文昌街27-9號","121.349736666667","24.9516966666667","6500800","鶯歌區"
"239006","891-R6","2018/02/10 18:29:39","新北市鶯歌區德昌街140巷45號","121.332441666667","24.9615733333333","6500800","鶯歌區"
"239005","526-UM","2018/02/10 18:29:43","新北市鶯歌區鶯桃路668巷25號","121.32909","24.9703566666667","6500800","鶯歌區"
"239001","417-VK","2018/02/10 18:29:56","新北市鶯歌區高職東街13號","121.339776666667","24.941885","6500800","鶯歌區"
"239003","360-BY","2018/02/10 18:29:47","新北市鶯歌區福安街13巷1號","121.335615","24.9652766666667","6500800","鶯歌區"
"239004","193-VK","2018/02/10 18:29:56","新北市鶯歌區尖山路168巷24號","121.3448","24.94866","6500800","鶯歌區"
"221008","489-VK","2018/02/10 18:29:57","新北市汐止區康寧街901號","121.651465","25.0751183333333","6501100","汐止區"
"221036","130-UY","2018/02/10 18:29:57","新北市汐止區長興街一段3號","121.669501666667","25.078495","6501100","汐止區"
"221012","278-VK","2018/02/10 18:29:55","新北市汐止區保長路35巷11號","121.67302","25.07986","6501100","汐止區"
"221023","279-VK","2018/02/10 18:29:52","新北市汐止區康寧街520-1號","121.633805","25.0686583333333","6501100","汐止區"
"221032","280-BY","2018/02/10 18:29:45","新北市汐止區民權街二段97巷10-1號","121.619196666667","25.0468316666667","6501100","汐止區"
"221027","281-BY","2018/02/10 18:29:47","新北市汐止區和平街46巷24號","121.662661666667","25.07187","6501100","汐止區"
"221010","297-VK","2018/02/10 18:29:44","新北市汐止區汐萬路二段275巷1弄2號","121.645655","25.089035","6501100","汐止區"
"221029","298-VK","2018/02/10 18:29:52","新北市汐止區樟樹一路199號","121.642576666667","25.0689633333333","6501100","汐止區"
"221021","299-VK","2018/02/10 18:29:49","新北市汐止區新台五路一段206-1號","121.655563333333","25.062945","6501100","汐止區"
"221031","353-TW","2018/02/10 18:29:50","新北市汐止區大同路一段405-1號","121.641485","25.0602166666667","6501100","汐止區"
"221035","622-UM","2018/02/10 18:29:53","新北市汐止區大同路二段19號","121.647346666667","25.06294","6501100","汐止區"
"221025","623-UM","2018/02/10 18:29:54","新北市汐止區秀峰路129號","121.660303333333","25.062715","6501100","汐止區"
"221038","646-BX","2018/02/10 18:29:52","新北市汐止區忠孝東路220號","121.662243333333","25.0666433333333","6501100","汐止區"
"221033","647-BX","2018/02/10 18:29:38","新北市汐止區宜興街37巷2號","121.622588333333","25.0425666666667","6501100","汐止區"
"221002","707-TV","2018/02/10 18:29:47","新北市汐止區福德一路201巷30號","121.63588","25.0650433333333","6501100","汐止區"
"221018","753-BX","2018/02/10 18:29:54","新北市汐止區茄苳路213號","121.670668333333","25.06887","6501100","汐止區"
"220080","200-UY","2018/02/10 18:29:46","新北市板橋區華東街1-9號","121.448123333333","24.9948766666667","6500100","板橋區"
"220082","610-BX","2018/02/10 18:29:53","新北市板橋區華東街1-10號","121.448261666667","24.9949333333333","6500100","板橋區"
"220056","276-BY","2018/02/10 18:29:53","新北市板橋區華東街1-9號","121.448165","24.99493","6500100","板橋區"
"220071","283-VK","2018/02/10 18:29:46","新北市板橋區華東街1-9號","121.448101666667","24.9949183333333","6500100","板橋區"
"220053","285-VK","2018/02/10 18:29:47","新北市板橋區民生路二段161巷3號","121.470258333333","25.019855","6500100","板橋區"
"220081","287-VK","2018/02/10 18:29:42","新北市板橋區華東街1-10號","121.448318333333","24.99485","6500100","板橋區"
"220084","296-UM","2018/02/10 18:29:53","新北市板橋區華東街1-9號","121.448143333333","24.9949316666667","6500100","板橋區"
"220075","303-R5","2018/02/10 18:29:44","新北市板橋區華東街1-10號","121.448246666667","24.99497","6500100","板橋區"
"220062","305-R5","2018/02/10 18:29:49","新北市板橋區民生路二段120號","121.470466666667","25.0197216666667","6500100","板橋區"
"220064","486-VK","2018/02/10 18:29:44","新北市板橋區縣民大道一段114號","121.457253333333","25.0058683333333","6500100","板橋區"
"242044","280-VK","2018/02/10 18:29:39","新北市新莊區龍安路9號","121.414703333333","25.0226016666667","6500500","新莊區"
"220035","560-BX","2018/02/10 18:29:58","新北市板橋區南雅南路二段11-5號","121.45403","25.0023866666667","6500100","板橋區"
"220077","687-BX","2018/02/10 18:29:55","新北市板橋區華東街1-10號","121.448325","24.994945","6500100","板橋區"
"220054","741-BX","2018/02/10 18:29:51","新北市板橋區華東街1-9號","121.44807","24.99497","6500100","板橋區"
"220067","829-TW","2018/02/10 18:29:45","新北市板橋區民生路二段120號","121.470403333333","25.019675","6500100","板橋區"
"220074","895-R6","2018/02/10 18:29:55","新北市板橋區華東街1-10號","121.448198333333","24.9950166666667","6500100","板橋區"
"220073","985-R7","2018/02/10 18:29:51","新北市板橋區華東街1-10號","121.448301666667","24.99496","6500100","板橋區"
