"lineid","car","time","location","longitude","latitude","cityid","cityname"
"234046","148-BY","2018/02/10 18:39:21","新北市永和區永元路95巷1號","121.52252","25.0019233333333","6500400","永和區"
"234007","207-UY","2018/02/10 18:39:02","新北市永和區文化路230號","121.509841666667","25.0169383333333","6500400","永和區"
"234081","298-R6","2018/02/10 18:39:12","新北市永和區永利路139號","121.524128333333","25.0037233333333","6500400","永和區"
"234064","337-UY","2018/02/10 18:39:27","新北市永和區福和路1號","121.526408333333","25.00999","6500400","永和區"
"234086","338-UY","2018/02/10 18:39:15","新北市永和區永利路69號","121.519968333333","25.0047583333333","6500400","永和區"
"234070","552-UM","2018/02/10 18:39:15","新北市永和區福和路1號","121.525776666667","25.0093966666667","6500400","永和區"
"234017","745-BX","2018/02/10 18:39:22","新北市永和區福和路1號","121.526313333333","25.0096266666667","6500400","永和區"
"234030","746-BX","2018/02/10 18:39:10","新北市永和區得和路311號","121.523161666667","24.9996633333333","6500400","永和區"
"234013","KEA-2591","2018/02/10 18:39:06","新北市永和區保福路二段105號","121.5102","25.01334","6500400","永和區"
"234061","AAD-866","2018/02/10 18:39:13","新北市永和區福和路8巷1號","121.524988333333","25.0089016666667","6500400","永和區"
"234042","862-TW","2018/02/10 18:39:24","新北市永和區永貞路271號","121.511753333333","25.00481","6500400","永和區"
"234050","863-TW","2018/02/10 18:39:17","新北市永和區環河東路二段92號","121.524501666667","25.0105866666667","6500400","永和區"
"234026","9371-KE","2018/02/10 18:39:16","新北市永和區永貞路417巷31號","121.505756666667","25.00887","6500400","永和區"
"234023","9381-KE","2018/02/10 18:39:20","新北市永和區福和路76巷5弄14號","121.522351666667","25.00835","6500400","永和區"
"234011","9373-KE","2018/02/10 18:39:19","新北市永和區文化路9巷22弄67號","121.513981666667","25.0144466666667","6500400","永和區"
"249005","172-UM","2018/02/10 18:39:10","新北市八里區中華路三段34-2號","121.388755","25.125485","6502300","八里區"
"249001","173-UM","2018/02/10 18:39:12","新北市八里區龍米路一段372號","121.451593333333","25.13163","6502300","八里區"
"249004","303-UY","2018/02/10 18:39:19","新北市八里區忠孝路51號","121.428263333333","25.1601683333333","6502300","八里區"
"249002","305-UY","2018/02/10 18:39:12","新北市八里區龍形一街23號","121.449738333333","25.1301916666667","6502300","八里區"
"248014","025-BX","2018/02/10 18:39:23","新北市五股區蓬萊路24號","121.433913333333","25.0799066666667","6501500","五股區"
"248016","026-BX","2018/02/10 18:39:22","新北市五股區凌雲路一段146號","121.449238333333","25.1024166666667","6501500","五股區"
"248008","095-VK","2018/02/10 18:39:13","新北市五股區中興路一段150巷6號","121.46465","25.0742166666667","6501500","五股區"
"248020","225-UY","2018/02/10 18:39:02","新北市五股區孝義路69-1號","121.447331666667","25.1179","6501500","五股區"
"248012","247-BX","2018/02/10 18:39:07","新北市五股區御史路22號","121.442018333333","25.0913033333333","6501500","五股區"
"248010","272-BY","2018/02/10 18:39:05","新北市五股區自強路76號","121.432938333333","25.07298","6501500","五股區"
"248004","677-BX","2018/02/10 18:39:16","新北市五股區六合街21號","121.431095","25.0886933333333","6501500","五股區"
"248002","678-BX","2018/02/10 18:39:18","新北市五股區西雲路183-1號","121.447516666667","25.095545","6501500","五股區"
"234077","969-R7","2018/02/10 18:39:10","新北市永和區中正路432號","121.517453333333","25.002455","6500400","永和區"
"234067","AAC-212","2018/02/10 18:39:19","新北市永和區福和路287號","121.51728","25.0073333333333","6500400","永和區"
"232011","375-UM","2018/02/10 18:39:26","新北市坪林區坪雙路一段43號","121.711688333333","24.9424833333333","6502000","坪林區"
"244013","069-UM","2018/02/10 18:39:17","新北市林口區中山路260號","121.384931666667","25.0797583333333","6501700","林口區"
"244007","080-UY","2018/02/10 18:39:17","新北市林口區後湖11-63號","121.387006666667","25.09765","6501700","林口區"
"244019","402-UM","2018/02/10 18:39:24","新北市林口區忠孝路569巷50號","121.374501666667","25.0683766666667","6501700","林口區"
"244023","483-VK","2018/02/10 18:39:23","新北市林口區四維路156-2號","121.38121","25.075265","6501700","林口區"
"244017","485-VK","2018/02/10 18:39:20","新北市林口區文化二路一段156號","121.368426666667","25.0714416666667","6501700","林口區"
"244009","658-BX","2018/02/10 18:39:24","新北市林口區文林二街30號","121.376263333333","25.0879933333333","6501700","林口區"
"244011","701-TV","2018/02/10 18:39:16","新北市林口區新寮1-65號","121.392711666667","25.0765566666667","6501700","林口區"
"244025","837-TS","2018/02/10 18:39:27","新北市林口區南勢街280號","121.35751","25.0763766666667","6501700","林口區"
"244021","838-TS","2018/02/10 18:39:18","新北市林口區自強四街8號","121.399066666667","25.07676","6501700","林口區"
"243012","AAD-798","2018/02/10 18:39:24","新北市泰山區泰林路二段220號","121.432661666667","25.0619233333333","6501600","泰山區"
"243009","KEA-2216","2018/02/10 18:38:50","新北市泰山區黎明路25號","121.422038333333","25.0607783333333","6501600","泰山區"
"243013","646-TV","2018/02/10 18:39:22","新北市泰山區明志路三段206巷3號","121.423255","25.037925","6501600","泰山區"
"243016","680-BX","2018/02/10 18:39:17","新北市泰山區明志路一段208號","121.432795","25.0617583333333","6501600","泰山區"
"222003","436-BY","2018/02/10 18:39:26","新北市深坑區翠谷街41-1號","121.627053333333","25.0093716666667","6501800","深坑區"
"222002","659-BX","2018/02/10 18:39:19","新北市深坑區文山路二段17號","121.621946666667","24.999915","6501800","深坑區"
"231041","002-UM","2018/02/10 18:39:23","新北市新店區安華路28-1號","121.519535","24.960775","6500600","新店區"
"231059","046-UY","2018/02/10 18:39:21","新北市新店區安華路28-1號","121.519498333333","24.9608633333333","6500600","新店區"
"231060","106-UY","2018/02/10 18:39:22","新北市新店區安華路28-1號","121.519743333333","24.9608116666667","6500600","新店區"
"231051","107-UY","2018/02/10 18:39:07","新北市新店區安康路一段231號","121.525375","24.9631416666667","6500600","新店區"
"231048","108-UY","2018/02/10 18:39:25","新北市新店區秀山路43號","121.53149","24.9608433333333","6500600","新店區"
"231049","110-UY","2018/02/10 18:39:10","新北市新店區安康路一段85號","121.529515","24.9614266666667","6500600","新店區"
"231052","187-VK","2018/02/10 18:39:20","新北市新店區新烏路一段70號","121.545848333333","24.9413816666667","6500600","新店區"
"231064","188-VK","2018/02/10 18:39:12","新北市新店區安華路28-1號","121.519578333333","24.961215","6500600","新店區"
"231050","KEA-2219","2018/02/10 18:39:19","新北市新店區安華路28-1號","121.51981","24.9613116666667","6500600","新店區"
"221015","KEA-2785","2018/02/10 18:39:17","新北市汐止區鄉友街1號","121.667941666667","25.080665","6501100","汐止區"
"231057","256-BX","2018/02/10 18:39:13","新北市新店區新烏路一段201號","121.548128333333","24.9319233333333","6500600","新店區"
"231046","278-BY","2018/02/10 18:39:28","新北市新店區直潭二街1號","121.535533333333","24.943155","6500600","新店區"
"231054","AAD-862","2018/02/10 18:39:22","新北市新店區安華路28-1號","121.519931666667","24.961175","6500600","新店區"
"231058","3712-VJ","2018/02/10 18:39:09","新北市新店區新店路9號","121.54045","24.9529016666667","6500600","新店區"
"231056","3713-VJ","2018/02/10 18:39:12","新北市新店區自立街88號","121.537145","24.9799283333333","6500600","新店區"
"231055","4716-K9","2018/02/10 18:39:23","新北市新店區華興街34號","121.537198333333","24.969015","6500600","新店區"
"231067","4772-VM","2018/02/10 18:39:12","新北市新店區安康路一段355號","121.519783333333","24.9628666666667","6500600","新店區"
"231042","616-UM","2018/02/10 18:39:21","新北市新店區安華路28-1號","121.519466666667","24.9605433333333","6500600","新店區"
"231040","619-UM","2018/02/10 18:39:27","新北市新店區安華路28-1號","121.519483333333","24.9610033333333","6500600","新店區"
"231063","645-TV","2018/02/10 18:39:17","新北市新店區安華路1-1號","121.519351666667","24.960545","6500600","新店區"
"231065","719-UY","2018/02/10 18:39:20","新北市新店區安華路28-1號","121.519076666667","24.9613533333333","6500600","新店區"
"231062","720-UM","2018/02/10 18:39:22","新北市新店區安華路28-1號","121.51915","24.9611716666667","6500600","新店區"
"231044","897-TW","2018/02/10 18:39:11","新北市新店區安康路一段52巷1號","121.529938333333","24.9612283333333","6500600","新店區"
"231045","898-TW","2018/02/10 18:39:18","新北市新店區安華路28-1號","121.51926","24.960915","6500600","新店區"
"231043","899-TW","2018/02/10 18:39:29","新北市新店區安華路28-1號","121.519128333333","24.9608183333333","6500600","新店區"
"231066","AKT-0513","2018/02/10 18:39:14","新北市新店區安華路1-1號","121.519451666667","24.960525","6500600","新店區"
"241011","013-R5","2018/02/10 18:39:15","新北市三重區河邊北街110巷5號","121.503705","25.071105","6500200","三重區"
"241018","265-UM","2018/02/10 18:39:20","新北市三重區安慶街122號","121.495016666667","25.0689183333333","6500200","三重區"
"241023","545-UM","2018/02/10 18:39:09","新北市三重區頂崁街142號","121.477575","25.065075","6500200","三重區"
"235066","003-UY","2018/02/10 18:39:20","新北市中和區水源路7巷4號","121.504056666667","25.0036866666667","6500300","中和區"
"235064","005-UY","2018/02/10 18:39:22","新北市中和區連城路139巷66號","121.496793333333","24.99682","6500300","中和區"
"235063","006-UY","2018/02/10 18:39:07","新北市中和區連城路268-9號","121.486756666667","24.9964216666667","6500300","中和區"
"235056","096-UM","2018/02/10 18:39:25","新北市中和區員山路611巷1號","121.477901666667","25.0113","6500300","中和區"
"235039","097-UM","2018/02/10 18:39:16","新北市中和區宜安路60號","121.511625","24.9969483333333","6500300","中和區"
"235065","098-UM","2018/02/10 18:39:15","新北市中和區莊敬路33巷34弄2號","121.50004","25.0060666666667","6500300","中和區"
"235040","150-BY","2018/02/10 18:14:16","新北市中和區中正路305號","121.492801666667","24.9939116666667","6500300","中和區"
"235058","151-BY","2018/02/10 18:39:07","新北市中和區圓通路316號","121.486588333333","24.9878266666667","6500300","中和區"
"235055","183-VK","2018/02/10 18:39:13","新北市板橋區國泰街39巷9弄15號","121.468941666667","25.005525","6500300","中和區"
"235038","185-VK","2018/02/10 18:39:23","新北市中和區自強路2號","121.520161666667","24.9961033333333","6500300","中和區"
"235049","186-VK","2018/02/10 18:39:13","新北市中和區景平路349號","121.504975","24.9934466666667","6500300","中和區"
"235067","255-BX","2018/02/10 18:39:05","新北市中和區新生街10號","121.482998333333","25.00453","6500300","中和區"
"235044","293-VK","2018/02/10 18:39:14","新北市中和區復興路276號","121.50268","24.9905816666667","6500300","中和區"
"235072","301-VK","2018/02/10 18:39:14","新北市中和區中山路二段189號","121.500243333333","25.002675","6500300","中和區"
"235043","352-BY","2018/02/10 18:39:13","新北市中和區安樂路60巷2號","121.512268333333","24.9929916666667","6500300","中和區"
"235061","378-QA","2018/02/10 18:39:09","新北市中和區民享街90巷16號","121.473805","25.0001833333333","6500300","中和區"
"235050","4979-A6","2018/02/10 18:39:22","新北市中和區景新街418巷16弄2號","121.512136666667","24.988895","6500300","中和區"
"235069","4980-A6","2018/02/10 18:39:17","新北市中和區連勝街59號","121.497481666667","24.997075","6500300","中和區"
"235042","551-UM","2018/02/10 18:39:21","新北市中和區自立路56巷2號","121.523383333333","24.9918133333333","6500300","中和區"
"235070","558-UM","2018/02/10 18:38:55","新北市中和區景平路431巷17號","121.500728333333","24.99505","6500300","中和區"
"235045","565-BX","2018/02/10 18:39:15","新北市中和區復興路1號","121.50639","24.98972","6500300","中和區"
"235054","640-BX","2018/02/10 18:39:26","新北市中和區民享街86巷23號","121.473351666667","25.0004933333333","6500300","中和區"
"235060","647-TV","2018/02/10 18:39:16","新北市中和區中山路二段479號","121.48311","25.00496","6500300","中和區"
"235047","732-UM","2018/02/10 18:39:15","新北市中和區南山路320巷10弄11號","121.506901666667","24.9865266666667","6500300","中和區"
"235046","733-UM","2018/02/10 18:39:16","新北市中和區捷運路8號","121.509863333333","24.9895333333333","6500300","中和區"
"235062","800-TS","2018/02/10 18:39:10","新北市中和區中山路二段312巷12號","121.495408333333","25.0036233333333","6500300","中和區"
"235057","801-TS","2018/02/10 18:39:16","新北市中和區員山路327巷102號","121.479228333333","25.00242","6500300","中和區"
"235041","802-TS","2018/02/10 18:39:11","新北市中和區宜安路166號","121.50903","24.99895","6500300","中和區"
"235052","805-TS","2018/02/10 18:39:16","新北市中和區興南路三段20巷28-2號","121.496883333333","24.9796833333333","6500300","中和區"
"235048","896-TW","2018/02/10 18:39:23","新北市中和區南山路158號","121.504393333333","24.9919633333333","6500300","中和區"
"235053","900-TW","2018/02/10 18:39:08","新北市中和區民德路266號","121.468041666667","24.99661","6500300","中和區"
"235051","157-BY","2018/02/10 18:39:12","新北市中和區興南路二段142巷25弄32號","121.502631666667","24.9842733333333","6500300","中和區"
"235037","AAC-213","2018/02/10 18:39:22","新北市中和區景新街383巷64號","121.514586666667","24.99034","6500300","中和區"
"220068","013-TV","2018/02/10 18:39:12","新北市板橋區民生路二段161巷9號","121.470296666667","25.0196833333333","6500100","板橋區"
"220065","072-UY","2018/02/10 18:39:19","新北市板橋區漢生東路282號","121.471208333333","25.009075","6500100","板橋區"
"220086","073-UY","2018/02/10 18:39:14","新北市板橋區南雅西路二段145巷6號","121.451566666667","25.0118166666667","6500100","板橋區"
"220069","AAD-861","2018/02/10 18:39:21","新北市板橋區華東街1-10號","121.448311666667","24.9950833333333","6500100","板橋區"
"226004","312-R5","2018/02/10 18:39:21","新北市平溪區石底里公園街16號","121.737345","25.0249283333333","6502400","平溪區"
"228003","097-TW","2018/02/10 18:39:15","新北市貢寮區和美里龍洞街34號","121.916241666667","25.1116766666667","6502600","貢寮區"
"228001","212-TW","2018/02/10 18:39:13","新北市貢寮區仁理村保健街73號","121.923728333333","25.0517133333333","6502600","貢寮區"
"228002","585-TW","2018/02/10 18:39:18","新北市貢寮區福隆里桂安街11號","121.960415","25.02058","6502600","貢寮區"
"224010","AGQ-8101","2018/02/10 18:39:25","新北市瑞芳區基山街31巷24號","121.846351666667","25.1104116666667","6501200","瑞芳區"
"224006","676-BX","2018/02/10 18:39:15","新北市瑞芳區明燈路三段84號","121.805781666667","25.1083283333333","6501200","瑞芳區"
"224002","639-TC","2018/02/10 18:39:18","新北市瑞芳區三爪子坑路96號","121.80869","25.10517","6501200","瑞芳區"
"224009","285-BY","2018/02/10 18:39:21","新北市瑞芳區五號路308號","121.856816666667","25.11151","6501200","瑞芳區"
"224008","275-VK","2018/02/10 18:39:15","新北市瑞芳區岳王路37號","121.807958333333","25.1113883333333","6501200","瑞芳區"
"224007","273-VK","2018/02/10 18:39:20","新北市瑞芳區大埔路有勝新村3號","121.764875","25.101205","6501200","瑞芳區"
"224005","271-BY","2018/02/10 18:39:19","新北市瑞芳區永龍新村70號","121.81867","25.11869","6501200","瑞芳區"
"227002","642-TC","2018/02/10 18:39:10","新北市雙溪區魚行里坤溪3-5號","121.8762","25.020715","6502500","雙溪區"
"227010","400-TW","2018/02/10 18:39:23","新北市雙溪區牡丹里牡丹208號","121.85071","25.056755","6502500","雙溪區"
"253005","032-BX","2018/02/10 18:39:21","新北市石門區石門街35號","121.566226666667","25.29056","6502200","石門區"
"253006","295-VK","2018/02/10 18:39:09","新北市石門區楓林28-1號","121.542188333333","25.2893633333333","6502200","石門區"
"222001","KEA-2212","2018/02/10 18:39:22","新北市深坑區北深路一段102號","121.635645","25.0107483333333","6501800","深坑區"
"208002","742-BX","2018/02/10 18:39:09","新北市金山區忠孝一路22號","121.638421666667","25.2195033333333","6502700","金山區"
"208003","665-BX","2018/02/10 18:39:21","新北市金山區中山路395號","121.633325","25.2252783333333","6502700","金山區"
"208001","761-BX","2018/02/10 18:39:24","新北市金山區文化三路46號","121.635008333333","25.2251216666667","6502700","金山區"
"251004","009-UM","2018/02/10 18:39:19","新北市淡水區民權路41號","121.460375","25.1401016666667","6501000","淡水區"
"251013","179-VK","2018/02/10 18:39:15","新北市淡水區小坑子頭5-1號","121.48153","25.2079983333333","6501000","淡水區"
"251014","180-VK","2018/02/10 18:39:13","新北市淡水區崙頂12-8號","121.495566666667","25.2172533333333","6501000","淡水區"
"251008","181-VK","2018/02/10 18:39:25","新北市淡水區北投子99號","121.465588333333","25.178725","6501000","淡水區"
"251015","182-VK","2018/02/10 18:39:24","新北市淡水區興福寮66巷267號","121.486773333333","25.1621266666667","6501000","淡水區"
"251010","413-VK","2018/02/10 18:39:06","新北市淡水區沙崙路122號","121.423306666667","25.1828133333333","6501000","淡水區"
"251012","441-VK","2018/02/10 18:39:20","新北市淡水區北新路117號","121.448896666667","25.1786316666667","6501000","淡水區"
"251016","442-VK","2018/02/10 18:39:25","新北市淡水區下圭柔山76-13號","121.44459","25.2054783333333","6501000","淡水區"
"251001","559-UM","2018/02/10 18:39:14","新北市淡水區自強路415巷2號","121.46546","25.1342983333333","6501000","淡水區"
"251006","561-UM","2018/02/10 18:39:16","新北市淡水區中山北路一段305號","121.444521666667","25.1828283333333","6501000","淡水區"
"251011","650-BX","2018/02/10 18:39:09","新北市淡水區學府路32巷37號","121.448205","25.1678716666667","6501000","淡水區"
"251002","672-BX","2018/02/10 18:39:13","新北市淡水區中正東路一段3巷14弄1號","121.450828333333","25.1642383333333","6501000","淡水區"
"251003","673-BX","2018/02/10 18:39:09","新北市淡水區北新路69巷26號","121.446696666667","25.1800533333333","6501000","淡水區"
"207003","550-UM","2018/02/10 18:39:06","新北市萬里區野柳里八斗60號","121.670873333333","25.2017566666667","6502800","萬里區"
"207004","225-TW","2018/02/10 18:39:25","新北市萬里區萬里里獅頭路12-4號","121.692776666667","25.179445","6502800","萬里區"
"252002","178-VK","2018/02/10 18:39:25","新北市三芝區中正路二段37號","121.503915","25.2547783333333","6502100","三芝區"
"252003","249-BX","2018/02/10 18:39:08","新北市三芝區後厝里大片頭74號","121.459155","25.2462183333333","6502100","三芝區"
"252001","292-VK","2018/02/10 18:39:19","新北市三芝區埔頭里埔頭14號","121.500788333333","25.2538933333333","6502100","三芝區"
"237004","KEA-2597","2018/02/10 18:39:22","新北市三峽區五寮48號","121.369765","24.8661183333333","6500900","三峽區"
"237007","153-BY","2018/02/10 18:39:25","新北市三峽區中正路三段89號","121.338841666667","24.8987733333333","6500900","三峽區"
"237009","210-TH","2018/02/10 18:39:09","新北市三峽區大勇路36巷19號","121.365731666667","24.93704","6500900","三峽區"
"237013","252-BX","2018/02/10 18:39:13","新北市三峽區介壽路一段232號","121.378511666667","24.93027","6500900","三峽區"
"237012","275-BY","2018/02/10 18:39:14","新北市樹林區佳園路三段548號","121.380636666667","24.94399","6500900","三峽區"
"237008","302-VK","2018/02/10 18:39:23","新北市三峽區紫微路87號","121.403978333333","24.9082833333333","6500900","三峽區"
"237006","5529-G3","2018/02/10 18:39:23","新北市三峽區溪東路238巷9號","121.40806","24.9312","6500900","三峽區"
"237011","KEA-2596","2018/02/10 18:39:08","新北市三峽區溪東路173號","121.403436666667","24.9339416666667","6500900","三峽區"
"237010","706-TV","2018/02/10 18:39:07","新北市三峽區復興路323號","121.364761666667","24.938795","6500900","三峽區"
"237005","AKY-6261","2018/02/10 18:39:27","新北市三峽區民生街121號","121.37353","24.9351766666667","6500900","三峽區"
"236073","105-UM","2018/02/10 18:39:25","新北市土城區永豐路157巷29弄6-1號","121.468471666667","24.9814916666667","6501300","土城區"
"236043","107-UM","2018/02/10 18:39:28","新北市土城區學成路108巷13弄2號","121.450143333333","24.989825","6501300","土城區"
"236079","166-UM","2018/02/10 18:39:15","新北市土城區中央路四段47號","121.422343333333","24.9616283333333","6501300","土城區"
"236031","253-BX","2018/02/10 18:39:26","新北市土城區福仁街72號","121.439131666667","24.974225","6501300","土城區"
"236026","269-VK","2018/02/10 18:39:16","新北市土城區千歲路13號","121.441205","24.9696216666667","6501300","土城區"
"236015","270-VK","2018/02/10 18:39:09","新北市土城區青雲路183巷2號","121.459235","24.9826716666667","6501300","土城區"
"236038","271-VK","2018/02/10 18:39:23","新北市土城區明德路一段291巷11弄20號","121.460911666667","24.9759733333333","6501300","土城區"
"236023","401-BY","2018/02/10 18:39:22","新北市土城區延吉街253巷1號","121.467565","24.9847183333333","6501300","土城區"
"236059","912-UM","2018/02/10 18:39:07","新北市土城區中央路四段15號","121.425321666667","24.9626383333333","6501300","土城區"
"236049","913-UM","2018/02/10 18:39:27","新北市土城區明德路一段137-4號","121.465353333333","24.9807866666667","6501300","土城區"
"236063","915-UM","2018/02/10 18:39:11","新北市土城區延壽路13巷22號","121.470433333333","24.9909766666667","6501300","土城區"
"236055","AAC-216","2018/02/10 18:39:19","新北市土城區裕民路33號","121.448188333333","24.9883733333333","6501300","土城區"
"242004","413-TV","2018/02/10 18:39:19","新北市新莊區環河路636-7號","121.437161666667","25.010955","6500500","新莊區"
"242042","400-BY","2018/02/10 18:39:26","新北市新莊區天祥街82巷7號","121.41577","25.0297333333333","6500500","新莊區"
"242061","362-BY","2018/02/10 18:39:22","新北市新莊區四維路11號","121.423816666667","25.02415","6500500","新莊區"
"242058","353-BY","2018/02/10 18:39:21","新北市新莊區中正路897-10號","121.411606666667","25.0216116666667","6500500","新莊區"
"242007","132-UY","2018/02/10 18:39:23","新北市新莊區中港路216號","121.454508333333","25.0426033333333","6500500","新莊區"
"242056","349-TH","2018/02/10 18:39:24","新北市新莊區瓊林路13-3號","121.44888","25.03092","6500500","新莊區"
"238015","755-BX","2018/02/10 18:39:17","新北市樹林區大安路519號","121.414128333333","24.9860866666667","6500700","樹林區"
"238023","601-UM","2018/02/10 18:39:24","新北市樹林區三福街13號","121.408878333333","25.0168083333333","6500700","樹林區"
"238019","599-UM","2018/02/10 18:39:14","新北市樹林區忠孝街103號","121.424573333333","24.9807916666667","6500700","樹林區"
"238018","571-TV","2018/02/10 18:39:22","新北市樹林區樹新路50巷5弄3號","121.429453333333","24.9968516666667","6500700","樹林區"
"238024","5061-A6","2018/02/10 18:39:17","新北市樹林區福順街8號","121.415315","24.97963","6500700","樹林區"
"238022","KEA-2213","2018/02/10 18:39:12","新北市樹林區中山路二段219號","121.402463333333","24.97623","6500700","樹林區"
"238026","KEA-2539","2018/02/10 18:39:27","新北市樹林區西圳街二段78號","121.385961666667","24.9587833333333","6500700","樹林區"
"238017","283-BY","2018/02/10 18:39:09","新北市樹林區光榮街79號","121.411981666667","25.0029666666667","6500700","樹林區"
"238020","268-VK","2018/02/10 18:39:26","新北市樹林區三龍街61號","121.41522","25.0186516666667","6500700","樹林區"
"238026","172-UY","2018/02/10 18:39:18","新北市樹林區佳園路一段75巷14弄10號","121.3952","24.9699383333333","6500700","樹林區"
"238016","169-UY","2018/02/10 18:39:26","新北市樹林區日新街143號","121.4206","24.9885483333333","6500700","樹林區"
"239005","526-UM","2018/02/10 18:39:23","新北市鶯歌區鳳吉三街29號","121.32716","24.97369","6500800","鶯歌區"
"239001","417-VK","2018/02/10 18:39:16","新北市鶯歌區國中街178號","121.338256666667","24.93919","6500800","鶯歌區"
"239003","360-BY","2018/02/10 18:39:07","新北市鶯歌區鶯桃路403號","121.33318","24.964225","6500800","鶯歌區"
"239004","193-VK","2018/02/10 18:39:16","新北市鶯歌區尖山路206號","121.343393333333","24.947415","6500800","鶯歌區"
"221008","489-VK","2018/02/10 18:39:16","新北市汐止區康寧街901號","121.651438333333","25.075085","6501100","汐止區"
"221036","130-UY","2018/02/10 18:39:16","新北市汐止區南昌街31號","121.663145","25.069225","6501100","汐止區"
"221012","278-VK","2018/02/10 18:39:19","新北市汐止區保長路149號","121.676873333333","25.07646","6501100","汐止區"
"221023","279-VK","2018/02/10 18:39:12","新北市汐止區明峰街24號","121.634353333333","25.071465","6501100","汐止區"
"221032","280-BY","2018/02/10 18:39:25","新北市汐止區福山街58巷15號","121.618218333333","25.0459516666667","6501100","汐止區"
"221027","281-BY","2018/02/10 18:39:28","新北市汐止區大同路二段507號","121.66121","25.06867","6501100","汐止區"
"221010","297-VK","2018/02/10 18:39:24","新北市汐止區祥雲街18巷17號","121.646976666667","25.089435","6501100","汐止區"
"221029","298-VK","2018/02/10 18:39:12","新北市汐止區樟樹一路131號","121.642165","25.0650033333333","6501100","汐止區"
"221021","299-VK","2018/02/10 18:39:25","新北市汐止區新台五路一段154號","121.653953333333","25.0623283333333","6501100","汐止區"
"221031","353-TW","2018/02/10 18:39:10","新北市汐止區大同路一段277號","121.636463333333","25.05847","6501100","汐止區"
"221035","622-UM","2018/02/10 18:39:13","新北市汐止區大同路二段294號","121.655141666667","25.0666383333333","6501100","汐止區"
"221025","623-UM","2018/02/10 18:39:14","新北市汐止區仁愛路121巷9號","121.662676666667","25.06428","6501100","汐止區"
"221038","646-BX","2018/02/10 18:39:12","新北市汐止區汐萬路一段256巷3號","121.65329","25.074695","6501100","汐止區"
"221033","647-BX","2018/02/10 18:39:18","新北市汐止區南勢街1巷1號","121.627056666667","25.037455","6501100","汐止區"
"221002","707-TV","2018/02/10 18:39:27","新北市汐止區福德一路143號","121.636833333333","25.0668383333333","6501100","汐止區"
"221018","753-BX","2018/02/10 18:39:14","新北市汐止區茄苳路250巷27號","121.671935","25.0676116666667","6501100","汐止區"
"220079","145-BY","2018/02/10 18:39:20","新北市板橋區華東街328號","121.45271","25.0031916666667","6500100","板橋區"
"220080","200-UY","2018/02/10 18:39:26","新北市板橋區大觀路二段265巷76弄37號","121.44101","24.99676","6500100","板橋區"
"220082","610-BX","2018/02/10 18:39:13","新北市板橋區大觀路三段52號","121.432273333333","24.9960066666667","6500100","板橋區"
"220056","276-BY","2018/02/10 18:39:13","新北市板橋區四川路二段253號","121.450171666667","24.9932166666667","6500100","板橋區"
"220072","277-BY","2018/02/10 18:39:23","新北市板橋區大觀路三段59巷17弄6-1號","121.435141666667","24.9956483333333","6500100","板橋區"
"220071","283-VK","2018/02/10 18:39:26","新北市板橋區四川路二段140巷16弄23號","121.448433333333","24.994045","6500100","板橋區"
"220094","285-UM","2018/02/10 18:39:10","新北市板橋區民生路二段161巷1號","121.470001666667","25.0198316666667","6500100","板橋區"
"220053","285-VK","2018/02/10 18:39:27","新北市板橋區民生路二段161巷1號","121.470223333333","25.019905","6500100","板橋區"
"220083","286-VK","2018/02/10 18:39:13","新北市板橋區大觀路二段153巷46弄1號","121.448565","24.9986466666667","6500100","板橋區"
"220081","287-VK","2018/02/10 18:39:22","新北市板橋區大觀路二段力行3巷77-6號","121.448465","24.9987316666667","6500100","板橋區"
"220084","296-UM","2018/02/10 18:39:13","新北市板橋區大觀路二段153巷44弄11號","121.4468","24.999325","6500100","板橋區"
"220075","303-R5","2018/02/10 18:39:24","新北市板橋區南雅南路二段120-2號","121.452286666667","24.999875","6500100","板橋區"
"220062","305-R5","2018/02/10 18:39:29","新北市板橋區民生路二段120號","121.470396666667","25.0197916666667","6500100","板橋區"
"220047","317-R6","2018/02/10 18:39:09","新北市板橋區民生路二段161巷3號","121.470246666667","25.0198166666667","6500100","板橋區"
"220064","486-VK","2018/02/10 18:39:23","新北市板橋區民生路二段36-1號","121.472093333333","25.0167833333333","6500100","板橋區"
"242044","280-VK","2018/02/10 18:39:18","新北市新莊區中正路887-19號","121.416016666667","25.0239466666667","6500500","新莊區"
"220035","560-BX","2018/02/10 18:39:18","新北市板橋區南雅西路二段145巷10號","121.451531666667","25.011995","6500100","板橋區"
"220103","561-BX","2018/02/10 18:39:25","新北市板橋區民生路二段120號","121.47052","25.0194783333333","6500100","板橋區"
"220063","609-BX","2018/02/10 18:39:22","新北市板橋區民生路二段175號","121.469766666667","25.020175","6500100","板橋區"
"220057","686-BX","2018/02/10 18:39:27","新北市板橋區華東街1-9號","121.448253333333","24.994905","6500100","板橋區"
"220077","687-BX","2018/02/10 18:39:15","新北市板橋區大觀路二段435號","121.441883333333","24.9950166666667","6500100","板橋區"
"220054","741-BX","2018/02/10 18:39:11","新北市板橋區華東街1-9號","121.448113333333","24.9949316666667","6500100","板橋區"
"220055","827-TW","2018/02/10 18:39:23","新北市板橋區華東街11號","121.450376666667","24.9975433333333","6500100","板橋區"
"220067","829-TW","2018/02/10 18:39:06","新北市板橋區民生路二段120號","121.470363333333","25.0197016666667","6500100","板橋區"
"220074","895-R6","2018/02/10 18:39:15","新北市板橋區南雅南路二段140號","121.451855","24.9964233333333","6500100","板橋區"
"220073","985-R7","2018/02/10 18:39:11","新北市板橋區貴興路80號","121.45634","25.0028683333333","6500100","板橋區"
"220070","AAC-253","2018/02/10 18:39:13","新北市板橋區華東街1-8號","121.447955","24.9948716666667","6500100","板橋區"
