"lineid","car","time","location","longitude","latitude","cityid","cityname"
"234046","148-BY","2018/02/10 18:49:21","新北市永和區秀朗路二段148巷12弄16號","121.524785","25.001075","6500400","永和區"
"234007","207-UY","2018/02/10 18:49:22","新北市永和區文化路162號","121.512231666667","25.0153983333333","6500400","永和區"
"234081","298-R6","2018/02/10 18:49:12","新北市永和區永利路116號","121.521435","25.003255","6500400","永和區"
"234038","336-UY","2018/02/10 18:49:15","新北市永和區成功路一段127號","121.526893333333","25.00181","6500400","永和區"
"234064","337-UY","2018/02/10 18:49:27","新北市永和區環河東路二段102號","121.524555","25.0105183333333","6500400","永和區"
"234086","338-UY","2018/02/10 18:49:15","新北市永和區中正路64號","121.513381666667","24.99488","6500400","永和區"
"234070","552-UM","2018/02/10 18:49:15","新北市永和區竹林路96巷1號","121.519403333333","25.0119883333333","6500400","永和區"
"234017","745-BX","2018/02/10 18:49:22","新北市永和區永和路二段405巷3號","121.515235","25.017245","6500400","永和區"
"234030","746-BX","2018/02/10 18:49:10","新北市永和區得和路321號","121.523408333333","24.99966","6500400","永和區"
"234054","KEA-2590","2018/02/10 18:49:12","新北市永和區環河東路二段88號","121.523721666667","25.010485","6500400","永和區"
"234013","KEA-2591","2018/02/10 18:49:06","新北市永和區保福路二段133巷35號","121.509016666667","25.013425","6500400","永和區"
"234061","AAD-866","2018/02/10 18:49:13","新北市永和區中正路509巷15號","121.516506666667","25.006915","6500400","永和區"
"234042","862-TW","2018/02/10 18:49:24","新北市永和區水源街17巷1號","121.511703333333","25.00469","6500400","永和區"
"234050","863-TW","2018/02/10 18:49:17","新北市永和區保安路2號","121.510713333333","25.0175233333333","6500400","永和區"
"234026","9371-KE","2018/02/10 18:49:16","新北市永和區保順路11號","121.504871666667","25.0097416666667","6500400","永和區"
"234023","9381-KE","2018/02/10 18:49:19","新北市永和區竹林路119巷26號","121.521188333333","25.0117383333333","6500400","永和區"
"234011","9373-KE","2018/02/10 18:49:19","新北市永和區文化路109號","121.512843333333","25.015215","6500400","永和區"
"249005","172-UM","2018/02/10 18:49:10","新北市八里區長道坑17號","121.396256666667","25.11561","6502300","八里區"
"249001","173-UM","2018/02/10 18:49:12","新北市八里區龍米路二段16號","121.448975","25.1391133333333","6502300","八里區"
"249004","303-UY","2018/02/10 18:49:19","新北市八里區中山路一段33-2號","121.420041666667","25.1597083333333","6502300","八里區"
"248014","025-BX","2018/02/10 18:49:23","新北市五股區工商路1號","121.439743333333","25.0824433333333","6501500","五股區"
"248016","026-BX","2018/02/10 18:49:22","新北市五股區凌雲路一段149巷13-1號","121.448603333333","25.1008883333333","6501500","五股區"
"248006","077-UY","2018/02/10 18:49:19","新北市五股區四維路1巷3-1號","121.465806666667","25.0704833333333","6501500","五股區"
"248008","095-VK","2018/02/10 18:49:13","新北市五股區中興路一段151巷41號","121.46521","25.0720183333333","6501500","五股區"
"248020","225-UY","2018/02/10 18:48:42","新北市五股區凌雲路三段田埔巷19號","121.433711666667","25.1219333333333","6501500","五股區"
"248012","247-BX","2018/02/10 18:49:27","新北市五股區成泰路二段147巷34-1號","121.437095","25.088435","6501500","五股區"
"248010","272-BY","2018/02/10 18:49:25","新北市五股區水碓三路42號","121.431406666667","25.0725866666667","6501500","五股區"
"248004","677-BX","2018/02/10 18:49:17","新北市五股區民義路二段12-1號","121.420963333333","25.09637","6501500","五股區"
"248002","678-BX","2018/02/10 18:49:24","新北市五股區西雲路237號","121.449015","25.0974716666667","6501500","五股區"
"234077","969-R7","2018/02/10 18:49:10","新北市永和區中正路42巷5號","121.513425","24.9942066666667","6500400","永和區"
"234067","AAC-212","2018/02/10 18:49:19","新北市永和區中和路625號","121.512953333333","25.0049166666667","6500400","永和區"
"234003","AAC-295","2018/02/10 18:49:11","新北市永和區中正路712號","121.516073333333","25.010155","6500400","永和區"
"232011","375-UM","2018/02/10 18:49:26","新北市坪林區坪雙路一段43號","121.711688333333","24.9424583333333","6502000","坪林區"
"244013","069-UM","2018/02/10 18:49:17","新北市林口區文化一路二段92號","121.382003333333","25.0786316666667","6501700","林口區"
"244007","080-UY","2018/02/10 18:49:17","新北市林口區後湖56-7號","121.384661666667","25.1030233333333","6501700","林口區"
"244019","402-UM","2018/02/10 18:49:24","新北市林口區忠孝路622巷2號","121.377333333333","25.0684733333333","6501700","林口區"
"244023","483-VK","2018/02/10 18:49:23","新北市林口區民享路70號","121.380831666667","25.0810916666667","6501700","林口區"
"244017","485-VK","2018/02/10 18:49:20","新北市林口區文化二路一段20巷25弄9號","121.365405","25.0671333333333","6501700","林口區"
"244009","658-BX","2018/02/10 18:49:24","新北市林口區文林一街42號","121.377448333333","25.0865783333333","6501700","林口區"
"244011","701-TV","2018/02/10 18:49:16","新北市林口區興林路17巷3弄2號","121.390198333333","25.077025","6501700","林口區"
"244025","837-TS","2018/02/10 18:49:27","新北市林口區南勢街250巷66號","121.358958333333","25.0762716666667","6501700","林口區"
"244021","838-TS","2018/02/10 18:49:18","新北市林口區自強二街16號","121.397806666667","25.0781366666667","6501700","林口區"
"243012","AAD-798","2018/02/10 18:49:24","新北市泰山區泰林路二段73巷29號","121.434411666667","25.0578566666667","6501600","泰山區"
"243015","380-SR","2018/02/10 18:49:25","新北市泰山區美寧街54號","121.430495","25.0644483333333","6501600","泰山區"
"243014","421-VK","2018/02/10 18:49:22","新北市泰山區黎明路25號","121.422115","25.0606383333333","6501600","泰山區"
"243009","KEA-2216","2018/02/10 18:49:10","新北市泰山區黎明路25號","121.421866666667","25.0608133333333","6501600","泰山區"
"243013","646-TV","2018/02/10 18:49:14","新北市泰山區明志路三段206巷3號","121.423253333333","25.0379366666667","6501600","泰山區"
"243016","680-BX","2018/02/10 18:49:17","新北市泰山區民權街14巷4號","121.428008333333","25.050555","6501600","泰山區"
"222003","436-BY","2018/02/10 18:49:26","新北市深坑區翠谷街17巷40號","121.625298333333","25.0100916666667","6501800","深坑區"
"222002","659-BX","2018/02/10 18:49:13","新北市深坑區文山路一段64號","121.623393333333","25.0008083333333","6501800","深坑區"
"231041","002-UM","2018/02/10 18:49:23","新北市新店區安華路28-1號","121.5195","24.9607966666667","6500600","新店區"
"231059","046-UY","2018/02/10 18:49:21","新北市新店區安華路28-1號","121.519551666667","24.960845","6500600","新店區"
"231060","106-UY","2018/02/10 18:49:23","新北市新店區安華路28-1號","121.519665","24.9608316666667","6500600","新店區"
"231051","107-UY","2018/02/10 18:49:27","新北市新店區中央路63號","121.532576666667","24.9769883333333","6500600","新店區"
"231048","108-UY","2018/02/10 18:49:25","新北市新店區德正街12號","121.543651666667","24.9725383333333","6500600","新店區"
"231049","110-UY","2018/02/10 18:49:10","新北市新店區中正路454-5號","121.534445","24.9790783333333","6500600","新店區"
"231052","187-VK","2018/02/10 18:49:26","新北市新店區永興路23號","121.544016666667","24.938615","6500600","新店區"
"231064","188-VK","2018/02/10 18:49:12","新北市新店區安華路28-1號","121.519648333333","24.9612816666667","6500600","新店區"
"231050","KEA-2219","2018/02/10 18:49:19","新北市新店區安康路一段105號","121.529025","24.9615916666667","6500600","新店區"
"221015","KEA-2785","2018/02/10 18:49:17","新北市汐止區吉祥街8號","121.668231666667","25.0801","6501100","汐止區"
"231046","278-BY","2018/02/10 18:49:08","新北市新店區直潭路71號","121.53239","24.9421783333333","6500600","新店區"
"231054","AAD-862","2018/02/10 18:49:22","新北市新店區光明街99號","121.538856666667","24.9612083333333","6500600","新店區"
"231058","3712-VJ","2018/02/10 18:49:29","新北市新店區北宜路一段63巷1號","121.53848","24.95656","6500600","新店區"
"231056","3713-VJ","2018/02/10 18:49:12","新北市新店區建國路204號","121.537785","24.9807433333333","6500600","新店區"
"231055","4716-K9","2018/02/10 18:49:27","新北市新店區中華路47巷2弄1號","121.539658333333","24.967625","6500600","新店區"
"231067","4772-VM","2018/02/10 18:49:12","新北市新店區安康路一段106巷28號","121.527733333333","24.9630066666667","6500600","新店區"
"231042","616-UM","2018/02/10 18:49:21","新北市新店區安康路一段33-1號","121.53234","24.96048","6500600","新店區"
"231040","619-UM","2018/02/10 18:49:06","新北市新店區力行路15號","121.53702","24.9655166666667","6500600","新店區"
"231063","645-TV","2018/02/10 18:49:17","新北市新店區安華路28-1號","121.519361666667","24.9605966666667","6500600","新店區"
"231065","719-UY","2018/02/10 18:49:20","新北市新店區安豐路22巷20號","121.503431666667","24.9545216666667","6500600","新店區"
"231062","720-UM","2018/02/10 18:49:22","新北市新店區安忠路205巷8號","121.508246666667","24.9547416666667","6500600","新店區"
"231044","897-TW","2018/02/10 18:49:11","新北市新店區中興路二段192號","121.548485","24.97346","6500600","新店區"
"231045","898-TW","2018/02/10 18:49:18","新北市新店區安康路一段52巷2號","121.530176666667","24.9611333333333","6500600","新店區"
"231043","899-TW","2018/02/10 18:49:09","新北市新店區安康路一段140號","121.526585","24.96294","6500600","新店區"
"231066","AKT-0513","2018/02/10 18:49:14","新北市新店區安豐路22巷2號","121.501585","24.955775","6500600","新店區"
"241011","013-R5","2018/02/10 18:49:15","新北市三重區龍濱路197號","121.501905","25.071385","6500200","三重區"
"241018","265-UM","2018/02/10 18:49:20","新北市三重區大智街65號","121.492568333333","25.06813","6500200","三重區"
"241001","547-UM","2018/02/10 18:49:28","新北市三重區仁愛街327巷103號","121.49432","25.0807583333333","6500200","三重區"
"235066","003-UY","2018/02/10 18:49:20","新北市中和區水源路7巷29號","121.504143333333","25.0038616666667","6500300","中和區"
"235064","005-UY","2018/02/10 18:49:12","新北市中和區連城路110號","121.496253333333","24.9997083333333","6500300","中和區"
"235063","006-UY","2018/02/10 18:49:28","新北市中和區建一路198號","121.487531666667","24.9963216666667","6500300","中和區"
"235056","096-UM","2018/02/10 18:49:25","新北市中和區員山路611巷1號","121.477915","25.0113116666667","6500300","中和區"
"235039","097-UM","2018/02/10 18:49:27","新北市永和區安樂路100巷5號","121.514195","24.9995166666667","6500300","中和區"
"235065","098-UM","2018/02/10 18:49:16","新北市中和區中山路二段2巷45弄2號","121.502228333333","25.0072133333333","6500300","中和區"
"235058","151-BY","2018/02/10 18:49:27","新北市中和區連城路573號","121.479095","24.9943533333333","6500300","中和區"
"235055","183-VK","2018/02/10 18:49:13","新北市中和區民生街45號","121.469938333333","25.0051466666667","6500300","中和區"
"235038","185-VK","2018/02/10 18:49:23","新北市中和區大勇街60巷17號","121.518653333333","24.99485","6500300","中和區"
"235049","186-VK","2018/02/10 18:49:22","新北市中和區景平路478號","121.505233333333","24.9937966666667","6500300","中和區"
"235067","255-BX","2018/02/10 18:49:25","新北市中和區新生街5巷1-2號","121.483335","25.00468","6500300","中和區"
"235044","293-VK","2018/02/10 18:49:15","新北市中和區中興街152號","121.499815","24.9919566666667","6500300","中和區"
"235072","301-VK","2018/02/10 18:49:14","新北市中和區景平路729號","121.496431666667","25.0041866666667","6500300","中和區"
"235043","352-BY","2018/02/10 18:49:13","新北市中和區景平路1號","121.52524","24.99016","6500300","中和區"
"235061","378-QA","2018/02/10 18:49:09","新北市中和區民享街114巷10號","121.474006666667","24.9994816666667","6500300","中和區"
"235050","4979-A6","2018/02/10 18:49:22","新北市中和區景新街496巷32弄18號","121.512801666667","24.9854033333333","6500300","中和區"
"235069","4980-A6","2018/02/10 18:49:17","新北市中和區連城路96號","121.49658","25.0001166666667","6500300","中和區"
"235042","551-UM","2018/02/10 18:49:21","新北市中和區秀朗路三段108巷3號","121.525225","24.9926683333333","6500300","中和區"
"235070","558-UM","2018/02/10 18:49:15","新北市中和區景新街131號","121.5059","24.9973333333333","6500300","中和區"
"235045","565-BX","2018/02/10 18:49:14","新北市中和區南山路367號","121.506145","24.9906","6500300","中和區"
"235054","640-BX","2018/02/10 18:49:26","新北市中和區莒光路129巷1弄10號","121.473065","25.002355","6500300","中和區"
"235060","647-TV","2018/02/10 18:49:16","新北市中和區中山路三段16號","121.479453333333","25.0061733333333","6500300","中和區"
"235047","732-UM","2018/02/10 18:49:15","新北市中和區興南路二段34巷69號","121.50493","24.9852866666667","6500300","中和區"
"235046","733-UM","2018/02/10 18:49:15","新北市中和區仁愛街36巷55號","121.51147","24.9864083333333","6500300","中和區"
"235062","800-TS","2018/02/10 18:49:09","新北市中和區景平路703巷1號","121.496261666667","25.00347","6500300","中和區"
"235057","801-TS","2018/02/10 18:49:16","新北市中和區民安街22巷19號","121.479701666667","25.0013366666667","6500300","中和區"
"235041","802-TS","2018/02/10 18:49:11","新北市中和區宜安路118巷16號","121.510746666667","24.9985366666667","6500300","中和區"
"235052","805-TS","2018/02/10 18:49:16","新北市中和區興南路三段52-2號","121.493918333333","24.975575","6500300","中和區"
"235048","896-TW","2018/02/10 18:49:23","新北市中和區南山路276號","121.507891666667","24.9878533333333","6500300","中和區"
"235053","900-TW","2018/02/10 18:49:08","新北市中和區華福街42巷4號","121.466356666667","24.9962616666667","6500300","中和區"
"235051","157-BY","2018/02/10 18:49:11","新北市中和區華新街143巷106弄20號","121.505988333333","24.97902","6500300","中和區"
"235037","AAC-213","2018/02/10 18:49:22","新北市中和區秀朗路三段149號","121.524768333333","24.9922866666667","6500300","中和區"
"220068","013-TV","2018/02/10 18:49:12","新北市板橋區民生路二段120號","121.470646666667","25.0193866666667","6500100","板橋區"
"220065","072-UY","2018/02/10 18:49:20","新北市板橋區漢生東路281號","121.471318333333","25.0089466666667","6500100","板橋區"
"220086","073-UY","2018/02/10 18:49:14","新北市板橋區南雅西路二段186號","121.451598333333","25.0142233333333","6500100","板橋區"
"220106","075-UY","2018/02/10 18:49:29","新北市板橋區民生路二段161巷9號","121.470273333333","25.0196783333333","6500100","板橋區"
"220069","AAD-861","2018/02/10 18:49:21","新北市板橋區南雅南路二段1-1號","121.45477","25.00369","6500100","板橋區"
"226004","312-R5","2018/02/10 18:49:21","新北市平溪區平溪里三坑路12號","121.73726","25.0283516666667","6502400","平溪區"
"228003","097-TW","2018/02/10 18:49:15","新北市貢寮區和美里龍洞街63-7號","121.917123333333","25.1183033333333","6502600","貢寮區"
"228001","212-TW","2018/02/10 18:49:13","新北市貢寮區仁理村研海街12-1號","121.923756666667","25.0517116666667","6502600","貢寮區"
"228002","585-TW","2018/02/10 18:49:17","新北市貢寮區福隆里東興街6-11號","121.950783333333","25.0210583333333","6502600","貢寮區"
"224006","676-BX","2018/02/10 18:49:08","新北市瑞芳區中正路91號","121.805103333333","25.1076483333333","6501200","瑞芳區"
"224002","639-TC","2018/02/10 18:49:17","新北市瑞芳區靜安路四段56巷6號","121.793438333333","25.1024166666667","6501200","瑞芳區"
"224009","285-BY","2018/02/10 18:49:21","新北市瑞芳區祈堂路14號","121.859006666667","25.11114","6501200","瑞芳區"
"224008","275-VK","2018/02/10 18:49:15","新北市瑞芳區瑞芳街87號","121.806103333333","25.1096616666667","6501200","瑞芳區"
"224007","273-VK","2018/02/10 18:49:10","新北市瑞芳區大埔路115巷24-3號","121.762926666667","25.1015916666667","6501200","瑞芳區"
"224005","271-BY","2018/02/10 18:49:19","新北市瑞芳區瑞濱路87號","121.820673333333","25.12096","6501200","瑞芳區"
"227002","642-TC","2018/02/10 18:49:10","新北市雙溪區平林里梅竹蹊30號","121.861578333333","25.036005","6502500","雙溪區"
"227010","400-TW","2018/02/10 18:49:23","新北市雙溪區牡丹里聖南50號","121.854235","25.0555783333333","6502500","雙溪區"
"253005","032-BX","2018/02/10 18:49:21","新北市石門區中山路28-3號","121.565865","25.2898983333333","6502200","石門區"
"253006","295-VK","2018/02/10 18:49:09","新北市石門區下員坑15-13號","121.512486666667","25.2841666666667","6502200","石門區"
"222001","KEA-2212","2018/02/10 18:49:22","新北市深坑區松柏街43巷2號","121.638785","25.0120966666667","6501800","深坑區"
"208002","742-BX","2018/02/10 18:49:09","新北市金山區信義路66號","121.635595","25.21901","6502700","金山區"
"208003","665-BX","2018/02/10 18:49:21","新北市金山區中山路344號","121.63349","25.2253566666667","6502700","金山區"
"208001","761-BX","2018/02/10 18:49:24","新北市金山區文化三路66巷2弄3號","121.634311666667","25.2257416666667","6502700","金山區"
"251009","008-UM","2018/02/10 18:49:25","新北市淡水區重建街178號","121.440838333333","25.174115","6501000","淡水區"
"251013","179-VK","2018/02/10 18:49:15","新北市淡水區安子內5-6號","121.483506666667","25.2152266666667","6501000","淡水區"
"251014","180-VK","2018/02/10 18:49:13","新北市淡水區崙頂3號","121.489806666667","25.2238033333333","6501000","淡水區"
"251008","181-VK","2018/02/10 18:49:25","新北市淡水區北投子17-3號","121.453491666667","25.183195","6501000","淡水區"
"251015","182-VK","2018/02/10 18:49:24","新北市淡水區興福寮88巷1-12號","121.487328333333","25.16789","6501000","淡水區"
"251010","413-VK","2018/02/10 18:49:26","新北市淡水區沙崙路11號","121.4211","25.1812616666667","6501000","淡水區"
"251012","441-VK","2018/02/10 18:49:20","新北市淡水區新興街7號","121.443721666667","25.1804366666667","6501000","淡水區"
"251016","442-VK","2018/02/10 18:49:25","新北市淡水區下圭柔山71-3號","121.447053333333","25.2061983333333","6501000","淡水區"
"251001","559-UM","2018/02/10 18:49:14","新北市淡水區自強路277號","121.46244","25.128275","6501000","淡水區"
"251006","561-UM","2018/02/10 18:49:16","新北市淡水區崁頂64號","121.439053333333","25.200995","6501000","淡水區"
"251011","650-BX","2018/02/10 18:49:10","新北市淡水區鄧公路20號","121.45143","25.1696733333333","6501000","淡水區"
"251002","672-BX","2018/02/10 18:49:13","新北市淡水區鄧公路2號","121.448598333333","25.1697066666667","6501000","淡水區"
"251003","673-BX","2018/02/10 18:49:09","新北市淡水區中山北路一段212巷34號","121.446146666667","25.1792333333333","6501000","淡水區"
"207003","550-UM","2018/02/10 18:49:26","新北市萬里區大鵬里頂社2-1號","121.65974","25.207345","6502800","萬里區"
"207004","225-TW","2018/02/10 18:49:25","新北市萬里區萬里里獅頭路23號","121.69322","25.1782616666667","6502800","萬里區"
"252002","178-VK","2018/02/10 18:49:15","新北市三芝區中正路一段101號","121.504751666667","25.2564983333333","6502100","三芝區"
"252003","249-BX","2018/02/10 18:49:08","新北市三芝區後厝里土地公坑73-18號","121.459815","25.2469366666667","6502100","三芝區"
"252001","292-VK","2018/02/10 18:49:19","新北市三芝區中正路三段9號","121.50288","25.2540116666667","6502100","三芝區"
"237004","KEA-2597","2018/02/10 18:49:22","新北市三峽區插角82號","121.406168333333","24.870915","6500900","三峽區"
"237007","153-BY","2018/02/10 18:49:26","新北市三峽區柑樹路6巷9號","121.362436666667","24.904915","6500900","三峽區"
"237009","210-TH","2018/02/10 18:49:09","新北市三峽區大同路239號","121.36699","24.92635","6500900","三峽區"
"237013","252-BX","2018/02/10 18:49:13","新北市三峽區學勤路198號","121.377223333333","24.947115","6500900","三峽區"
"237012","275-BY","2018/02/10 18:49:14","新北市三峽區三樹路340號","121.383973333333","24.9433466666667","6500900","三峽區"
"237008","302-VK","2018/02/10 18:49:23","新北市三峽區白雞33-60號","121.370905","24.9131466666667","6500900","三峽區"
"237006","5529-G3","2018/02/10 18:49:23","新北市三峽區溪東路371巷4弄25號","121.412858333333","24.9295366666667","6500900","三峽區"
"237011","KEA-2596","2018/02/10 18:49:28","新北市三峽區介壽路三段107號","121.39566","24.93985","6500900","三峽區"
"237010","706-TV","2018/02/10 18:49:27","新北市三峽區復興路239號","121.367553333333","24.93894","6500900","三峽區"
"237005","AKY-6261","2018/02/10 18:49:07","新北市三峽區文化路76號","121.372045","24.93626","6500900","三峽區"
"236073","105-UM","2018/02/10 18:49:10","新北市土城區立德路105號","121.463708333333","24.98746","6501300","土城區"
"236043","107-UM","2018/02/10 18:49:28","新北市土城區裕民路92巷21弄2號","121.449966666667","24.986385","6501300","土城區"
"236079","166-UM","2018/02/10 18:49:15","新北市土城區頂埔街10號","121.41668","24.9584866666667","6501300","土城區"
"236031","253-BX","2018/02/10 18:49:28","新北市土城區忠義路26巷21號","121.43971","24.9697466666667","6501300","土城區"
"236026","269-VK","2018/02/10 18:49:16","新北市土城區中央路二段237號","121.440235","24.9721083333333","6501300","土城區"
"236015","270-VK","2018/02/10 18:49:29","新北市土城區清水路235巷8號","121.461038333333","24.9833766666667","6501300","土城區"
"236038","271-VK","2018/02/10 18:49:23","新北市土城區明德路一段237號","121.462833333333","24.97828","6501300","土城區"
"236023","401-BY","2018/02/10 18:49:22","新北市土城區延安街42-3號","121.467558333333","24.98534","6501300","土城區"
"236059","912-UM","2018/02/10 18:49:27","新北市土城區中央路三段93號","121.437551666667","24.96769","6501300","土城區"
"236049","913-UM","2018/02/10 18:49:27","新北市土城區青雲路41號","121.45978","24.9874566666667","6501300","土城區"
"236063","915-UM","2018/02/10 18:49:16","新北市土城區金城路三段207巷8弄2號","121.47012","24.99013","6501300","土城區"
"236055","AAC-216","2018/02/10 18:49:18","新北市土城區裕民路188號","121.452995","24.9850866666667","6501300","土城區"
"242004","413-TV","2018/02/10 18:49:19","新北市新莊區中正路384號","121.442421666667","25.0348066666667","6500500","新莊區"
"242061","362-BY","2018/02/10 18:49:22","新北市新莊區民安東路180號","121.433198333333","25.0203833333333","6500500","新莊區"
"242058","353-BY","2018/02/10 18:49:21","新北市新莊區中正路887-17號","121.416156666667","25.0241666666667","6500500","新莊區"
"242056","349-TH","2018/02/10 18:49:23","新北市新莊區瓊林南路77-39號","121.437825","25.0139183333333","6500500","新莊區"
"238023","601-UM","2018/02/10 18:49:10","新北市樹林區三福街114號","121.406375","25.0164083333333","6500700","樹林區"
"238019","599-UM","2018/02/10 18:49:14","新北市樹林區國凱街112號","121.421971666667","24.9796733333333","6500700","樹林區"
"238018","571-TV","2018/02/10 18:49:21","新北市樹林區樹新路107號","121.42798","24.9957633333333","6500700","樹林區"
"238024","5061-A6","2018/02/10 18:49:18","新北市樹林區太平路200號","121.418851666667","24.9751883333333","6500700","樹林區"
"238022","KEA-2213","2018/02/10 18:49:12","新北市樹林區太平路174巷3號","121.417975","24.9767616666667","6500700","樹林區"
"238020","268-VK","2018/02/10 18:49:25","新北市樹林區三俊街252巷25號","121.420976666667","25.0138033333333","6500700","樹林區"
"238026","172-UY","2018/02/10 18:49:18","新北市樹林區中山路三段206-2號","121.383275","24.9666883333333","6500700","樹林區"
"238016","169-UY","2018/02/10 18:49:26","新北市樹林區中山路一段249號","121.420483333333","24.9864266666667","6500700","樹林區"
"239005","526-UM","2018/02/10 18:49:23","新北市鶯歌區鳳吉二街150號","121.328735","24.97503","6500800","鶯歌區"
"239001","417-VK","2018/02/10 18:49:16","新北市鶯歌區高職南街13號","121.337346666667","24.9392566666667","6500800","鶯歌區"
"239003","360-BY","2018/02/10 18:49:07","新北市鶯歌區鶯桃路405號","121.333123333333","24.96425","6500800","鶯歌區"
"239004","193-VK","2018/02/10 18:49:16","新北市鶯歌區尖山路308號","121.340283333333","24.9432733333333","6500800","鶯歌區"
"221008","489-VK","2018/02/10 18:49:16","新北市汐止區康寧街901號","121.651395","25.0750966666667","6501100","汐止區"
"221036","130-UY","2018/02/10 18:49:16","新北市汐止區水碓街40號","121.665026666667","25.0686083333333","6501100","汐止區"
"221012","278-VK","2018/02/10 18:49:15","新北市汐止區汐萬路一段141號","121.653568333333","25.0710033333333","6501100","汐止區"
"221023","279-VK","2018/02/10 18:49:12","新北市汐止區康寧街901號","121.650946666667","25.0752383333333","6501100","汐止區"
"221032","280-BY","2018/02/10 18:49:25","新北市汐止區民權街二段79號","121.619186666667","25.04805","6501100","汐止區"
"221027","281-BY","2018/02/10 18:49:27","新北市汐止區康寧街901號","121.651336666667","25.0750033333333","6501100","汐止區"
"221010","297-VK","2018/02/10 18:49:24","新北市汐止區汐萬路二段308號","121.643221666667","25.0909583333333","6501100","汐止區"
"221029","298-VK","2018/02/10 18:49:12","新北市汐止區工建路64號","121.640576666667","25.0629183333333","6501100","汐止區"
"221031","353-TW","2018/02/10 18:49:10","新北市汐止區福德一路272巷9號","121.631823333333","25.0642616666667","6501100","汐止區"
"221035","622-UM","2018/02/10 18:49:13","新北市汐止區汐萬路一段180號","121.652323333333","25.071845","6501100","汐止區"
"221025","623-UM","2018/02/10 18:49:14","新北市汐止區仁愛路113巷8號","121.662098333333","25.063835","6501100","汐止區"
"221038","646-BX","2018/02/10 18:49:12","新北市汐止區汐萬路一段312號","121.65066","25.0753366666667","6501100","汐止區"
"221033","647-BX","2018/02/10 18:49:18","新北市汐止區南勢街1巷1號","121.626993333333","25.0374433333333","6501100","汐止區"
"221002","707-TV","2018/02/10 18:49:27","新北市汐止區中興路25號","121.636881666667","25.0596333333333","6501100","汐止區"
"221018","753-BX","2018/02/10 18:49:14","新北市汐止區茄苳路299號","121.673203333333","25.06707","6501100","汐止區"
"220079","145-BY","2018/02/10 18:49:20","新北市板橋區民權路226號","121.458666666667","25.01426","6500100","板橋區"
"220080","200-UY","2018/02/10 18:49:26","新北市板橋區大觀路二段385巷7號","121.441053333333","24.997505","6500100","板橋區"
"220082","610-BX","2018/02/10 18:49:18","新北市板橋區篤行路三段玉平巷76弄10號","121.427785","24.985865","6500100","板橋區"
"220091","267-BY","2018/02/10 18:49:10","新北市板橋區民生路二段161巷1號","121.47013","25.02012","6500100","板橋區"
"220056","276-BY","2018/02/10 18:49:13","新北市土城區四川路5號","121.455651666667","24.9960183333333","6500100","板橋區"
"220072","277-BY","2018/02/10 18:49:23","新北市板橋區大觀路三段8-1號","121.4346","24.9955466666667","6500100","板橋區"
"220101","280-UM","2018/02/10 18:49:11","新北市板橋區民生路二段161巷3號","121.470051666667","25.0197733333333","6500100","板橋區"
"220071","283-VK","2018/02/10 18:49:26","新北市板橋區忠孝路105號","121.462588333333","25.0023216666667","6500100","板橋區"
"220094","285-UM","2018/02/10 18:49:10","新北市板橋區民生路二段161巷1號","121.470016666667","25.019835","6500100","板橋區"
"220053","285-VK","2018/02/10 18:49:06","新北市板橋區民生路二段123號","121.470645","25.0187433333333","6500100","板橋區"
"220083","286-VK","2018/02/10 18:49:13","新北市板橋區大觀路二段22巷38號","121.444786666667","25.0037683333333","6500100","板橋區"
"220081","287-VK","2018/02/10 18:49:22","新北市板橋區南雅西路二段179號","121.45184","25.012625","6500100","板橋區"
"220090","288-VK","2018/02/10 18:49:17","新北市板橋區民生路二段120號","121.470466666667","25.0196416666667","6500100","板橋區"
"220061","293-UM","2018/02/10 18:49:14","新北市板橋區民生路二段123號","121.470713333333","25.0186683333333","6500100","板橋區"
"220084","296-UM","2018/02/10 18:49:13","新北市板橋區大觀路二段150巷62號","121.441541666667","25.0006566666667","6500100","板橋區"
"220075","303-R5","2018/02/10 18:49:24","新北市板橋區館前西路162號","121.452826666667","25.0085883333333","6500100","板橋區"
"220062","305-R5","2018/02/10 18:49:09","新北市板橋區民生路二段17號","121.472478333333","25.0163183333333","6500100","板橋區"
"220092","307-R5","2018/02/10 18:49:11","新北市板橋區民生路二段120號","121.470591666667","25.0195633333333","6500100","板橋區"
"220047","317-R6","2018/02/10 18:49:09","新北市板橋區民生路二段120號","121.470383333333","25.019635","6500100","板橋區"
"220064","486-VK","2018/02/10 18:49:23","新北市板橋區民生路二段36-1號","121.472081666667","25.0168066666667","6500100","板橋區"
"220088","491-VK","2018/02/10 18:49:24","新北市板橋區民生路二段171號","121.469813333333","25.020175","6500100","板橋區"
"220035","560-BX","2018/02/10 18:49:18","新北市板橋區中正路275巷79弄9號","121.452198333333","25.0176283333333","6500100","板橋區"
"220103","561-BX","2018/02/10 18:49:25","新北市板橋區民生路二段120號","121.470576666667","25.019505","6500100","板橋區"
"220063","609-BX","2018/02/10 18:49:22","新北市板橋區民生路二段123號","121.47069","25.0187","6500100","板橋區"
"220057","686-BX","2018/02/10 18:49:27","新北市板橋區南雅西路一段7巷5號","121.454506666667","25.0038833333333","6500100","板橋區"
"220077","687-BX","2018/02/10 18:49:15","新北市板橋區龍興街103巷1號","121.444401666667","25.0033233333333","6500100","板橋區"
"220093","689-BX","2018/02/10 18:49:20","新北市板橋區莊敬路208巷8弄9號","121.470551666667","25.020255","6500100","板橋區"
"220054","741-BX","2018/02/10 18:49:11","新北市板橋區縣民大道一段112號","121.457053333333","25.0058533333333","6500100","板橋區"
"220055","827-TW","2018/02/10 18:49:23","新北市板橋區縣民大道一段310號","121.461535","25.010745","6500100","板橋區"
"220067","829-TW","2018/02/10 18:49:26","新北市板橋區三民路二段正隆巷45號","121.476776666667","25.013375","6500100","板橋區"
"220074","895-R6","2018/02/10 18:49:23","新北市板橋區南門街31號","121.457451666667","25.0088533333333","6500100","板橋區"
"220073","985-R7","2018/02/10 18:49:11","新北市板橋區館前西路219號","121.454736666667","25.0085133333333","6500100","板橋區"
"220097","AAC-210","2018/02/10 18:49:07","新北市板橋區民生路二段120號","121.470383333333","25.0197333333333","6500100","板橋區"
"220070","AAC-253","2018/02/10 18:49:13","新北市板橋區館前西路53號","121.457723333333","25.0065216666667","6500100","板橋區"
