"lineid","car","time","location","longitude","latitude","cityid","cityname"
"234046","148-BY","2018/02/10 19:09:21","新北市永和區永元路18巷18號","121.523135","25.00021","6500400","永和區"
"234007","207-UY","2018/02/10 19:09:22","新北市永和區中山路一段177號","121.509368333333","25.0090116666667","6500400","永和區"
"234081","298-R6","2018/02/10 19:09:12","新北市永和區國中路156號","121.522651666667","25.0064866666667","6500400","永和區"
"234038","336-UY","2018/02/10 19:09:15","新北市永和區民樂街73巷1號","121.527383333333","24.9973116666667","6500400","永和區"
"234064","337-UY","2018/02/10 19:09:07","新北市永和區秀朗路二段36號","121.521153333333","25.0025016666667","6500400","永和區"
"234086","338-UY","2018/02/10 19:09:15","新北市永和區永貞路91號","121.518313333333","25.0043533333333","6500400","永和區"
"234070","552-UM","2018/02/10 19:09:15","新北市永和區豫溪街137巷1弄24號","121.518425","25.0104383333333","6500400","永和區"
"234017","745-BX","2018/02/10 19:09:22","新北市永和區忠孝街27號","121.51392","25.015555","6500400","永和區"
"234030","746-BX","2018/02/10 19:09:12","新北市永和區四維街80號","121.523278333333","24.9983633333333","6500400","永和區"
"234054","KEA-2590","2018/02/10 19:09:12","新北市永和區中興街113號","121.518363333333","25.01241","6500400","永和區"
"234013","KEA-2591","2018/02/10 19:09:26","新北市永和區中山路一段84號","121.511893333333","25.01091","6500400","永和區"
"234061","AAD-866","2018/02/10 19:09:13","新北市永和區秀朗路一段78-1號","121.515593333333","25.005795","6500400","永和區"
"234042","862-TW","2018/02/10 19:09:24","新北市永和區永貞路307號","121.510613333333","25.00599","6500400","永和區"
"234050","863-TW","2018/02/10 19:09:17","新北市永和區文化路135巷24弄2號","121.510505","25.0146816666667","6500400","永和區"
"234026","9371-KE","2018/02/10 19:09:16","新北市永和區安樂路272巷25號","121.515273333333","25.0042316666667","6500400","永和區"
"234023","9381-KE","2018/02/10 19:09:19","新北市永和區竹林路73-1號","121.518738333333","25.0131666666667","6500400","永和區"
"234011","9373-KE","2018/02/10 19:09:19","新北市永和區仁愛路141巷5弄12號","121.5123","25.0121533333333","6500400","永和區"
"249005","172-UM","2018/02/10 19:09:10","新北市八里區中華路三段145巷9號","121.392515","25.1329616666667","6502300","八里區"
"249001","173-UM","2018/02/10 19:09:12","新北市八里區龍米路二段228-7號","121.432135","25.1584883333333","6502300","八里區"
"248014","025-BX","2018/02/10 19:09:23","新北市五股區新五路二段258號","121.441038333333","25.0820983333333","6501500","五股區"
"248016","026-BX","2018/02/10 19:09:22","新北市五股區凌雲路一段116巷6號","121.450433333333","25.1022066666667","6501500","五股區"
"248006","077-UY","2018/02/10 19:09:18","新北市五股區四維路112號","121.467716666667","25.0737616666667","6501500","五股區"
"248008","095-VK","2018/02/10 19:09:13","新北市五股區中興路一段118巷3號","121.465928333333","25.07385","6501500","五股區"
"248020","225-UY","2018/02/10 19:09:22","新北市五股區凌雲路三段57號","121.425285","25.1250233333333","6501500","五股區"
"248012","247-BX","2018/02/10 19:09:27","新北市五股區中興路四段48巷16號","121.438631666667","25.08344","6501500","五股區"
"248010","272-BY","2018/02/10 19:09:05","新北市五股區水碓一路23號","121.430661666667","25.071335","6501500","五股區"
"248004","677-BX","2018/02/10 19:09:16","新北市五股區民義路二段41-1號","121.411478333333","25.10344","6501500","五股區"
"248002","678-BX","2018/02/10 19:09:18","新北市五股區凌雲路一段158巷6號","121.448135","25.1028383333333","6501500","五股區"
"234077","969-R7","2018/02/10 19:09:10","新北市永和區民族街43巷1號","121.518508333333","24.9985016666667","6500400","永和區"
"234074","AAC-211","2018/02/10 19:09:16","新北市永和區福和路12巷1弄2號","121.524145","25.0089283333333","6500400","永和區"
"234067","AAC-212","2018/02/10 19:09:19","新北市永和區保平路30巷2號","121.51204","25.007325","6500400","永和區"
"234003","AAC-295","2018/02/10 19:09:11","新北市永和區中山路一段101號","121.511171666667","25.0102666666667","6500400","永和區"
"232011","375-UM","2018/02/10 19:09:26","新北市坪林區水聳淒坑19-1號","121.712548333333","24.9348483333333","6502000","坪林區"
"244013","069-UM","2018/02/10 19:09:17","新北市林口區麗園一街11巷1號","121.37705","25.0703616666667","6501700","林口區"
"244019","402-UM","2018/02/10 19:09:24","新北市林口區麗園二街47巷4號","121.381185","25.0689683333333","6501700","林口區"
"244023","483-VK","2018/02/10 19:09:23","新北市林口區民權路17號","121.371298333333","25.0801183333333","6501700","林口區"
"244017","485-VK","2018/02/10 19:09:20","新北市林口區公園路11-1號","121.36887","25.0707916666667","6501700","林口區"
"244009","658-BX","2018/02/10 19:09:24","新北市林口區竹林路330巷1號","121.391506666667","25.0831816666667","6501700","林口區"
"244011","701-TV","2018/02/10 19:09:16","新北市林口區仁愛路一段285巷48號","121.39547","25.0747466666667","6501700","林口區"
"244025","837-TS","2018/02/10 19:09:27","新北市林口區忠孝路1號","121.364128333333","25.0760166666667","6501700","林口區"
"243012","AAD-798","2018/02/10 19:09:24","新北市泰山區辭修路36巷8弄1號","121.427773333333","25.0586","6501600","泰山區"
"243011","297-R6","2018/02/10 19:09:28","新北市泰山區明志路二段323號","121.426345","25.0459866666667","6501600","泰山區"
"243015","380-SR","2018/02/10 19:09:25","新北市泰山區明志路一段405號","121.43082","25.0572066666667","6501600","泰山區"
"243014","421-VK","2018/02/10 19:09:22","新北市泰山區泰林路二段485號","121.42496","25.063895","6501600","泰山區"
"243010","KEA-2215","2018/02/10 19:09:25","新北市泰山區明志路一段352巷11弄2號","121.430338333333","25.058695","6501600","泰山區"
"243009","KEA-2216","2018/02/10 19:09:10","新北市泰山區明志路一段117巷8號","121.433846666667","25.0633616666667","6501600","泰山區"
"243013","646-TV","2018/02/10 19:09:11","新北市泰山區明志路三段277號","121.423071666667","25.036825","6501600","泰山區"
"243016","680-BX","2018/02/10 19:09:17","新北市泰山區明志路二段341號","121.425665","25.0445933333333","6501600","泰山區"
"222003","436-BY","2018/02/10 19:09:26","新北市深坑區深南路162號","121.626096666667","25.0150016666667","6501800","深坑區"
"222002","659-BX","2018/02/10 19:09:13","新北市深坑區北深路一段280號","121.628765","25.0083116666667","6501800","深坑區"
"231041","002-UM","2018/02/10 19:09:23","新北市新店區溪園路403號","121.524006666667","24.9782","6500600","新店區"
"231059","046-UY","2018/02/10 19:09:21","新北市新店區安和路二段120號","121.518958333333","24.970585","6500600","新店區"
"231060","106-UY","2018/02/10 19:09:22","新北市新店區安康路二段250號","121.509103333333","24.9590483333333","6500600","新店區"
"231051","107-UY","2018/02/10 19:09:27","新北市新店區中正路407號","121.534278333333","24.977575","6500600","新店區"
"231048","108-UY","2018/02/10 19:09:25","新北市新店區德正街25巷4號","121.544555","24.971695","6500600","新店區"
"231049","110-UY","2018/02/10 19:08:54","新北市新店區二十張路25巷2號","121.538493333333","24.9819333333333","6500600","新店區"
"231052","187-VK","2018/02/10 19:09:26","新北市新店區自強路61號","121.546333333333","24.9246366666667","6500600","新店區"
"231064","188-VK","2018/02/10 19:09:12","新北市新店區安忠路57巷6號","121.513045","24.9592466666667","6500600","新店區"
"231050","KEA-2219","2018/02/10 19:09:19","新北市新店區竹林路2巷29弄7號","121.550433333333","24.950255","6500600","新店區"
"221015","KEA-2785","2018/02/10 19:09:17","新北市汐止區水源路一段3號","121.65723","25.06722","6501100","汐止區"
"231046","278-BY","2018/02/10 19:09:28","新北市新店區永業路91號","121.529048333333","24.94887","6500600","新店區"
"231054","AAD-862","2018/02/10 19:09:22","新北市新店區新店路149號","121.53705","24.954905","6500600","新店區"
"231058","3712-VJ","2018/02/10 19:09:29","新北市新店區光明街138巷13弄5號","121.5402","24.961475","6500600","新店區"
"231056","3713-VJ","2018/02/10 19:09:12","新北市新店區二十張路33巷16號","121.538958333333","24.9809316666667","6500600","新店區"
"231055","4716-K9","2018/02/10 19:09:07","新北市新店區新生街13巷13號","121.539443333333","24.9659216666667","6500600","新店區"
"231067","4772-VM","2018/02/10 19:09:12","新北市新店區安康路一段195巷5號","121.526353333333","24.9625416666667","6500600","新店區"
"231042","616-UM","2018/02/10 19:09:21","新北市新店區中興路一段110-1號","121.541643333333","24.9625683333333","6500600","新店區"
"231061","618-UM","2018/02/10 19:09:24","新北市新店區安康路一段118號","121.527038333333","24.96268","6500600","新店區"
"231040","619-UM","2018/02/10 19:09:06","新北市新店區三民路98-2號","121.53393","24.9735033333333","6500600","新店區"
"231063","645-TV","2018/02/10 19:09:17","新北市新店區車子路134號","121.505186666667","24.949275","6500600","新店區"
"231065","719-UY","2018/02/10 19:09:20","新北市新店區安祥路145巷16號","121.475163333333","24.95614","6500600","新店區"
"231062","720-UM","2018/02/10 19:09:22","新北市新店區安平路11巷2號","121.52425","24.96514","6500600","新店區"
"231044","897-TW","2018/02/10 19:09:11","新北市新店區中興路三段202號","121.543763333333","24.981975","6500600","新店區"
"231045","898-TW","2018/02/10 19:09:18","新北市新店區北宜路一段121-2號","121.54045","24.953725","6500600","新店區"
"231043","899-TW","2018/02/10 19:09:09","新北市新店區寶橋路75號","121.545615","24.9749616666667","6500600","新店區"
"231066","AKT-0513","2018/02/10 19:09:14","新北市新店區安康路三段359巷12弄2號","121.484495","24.9501116666667","6500600","新店區"
"241011","013-R5","2018/02/10 19:09:15","新北市三重區秀江街49號","121.50106","25.0726466666667","6500200","三重區"
"241017","063-VK","2018/02/10 19:09:14","新北市三重區大仁街1號","121.49163","25.0635033333333","6500200","三重區"
"241026","066-VK","2018/02/10 19:09:16","新北市三重區泉州街86-4號","121.49475","25.0542283333333","6500200","三重區"
"241013","270-UM","2018/02/10 19:09:26","新北市三重區仁福街64巷32號","121.497515","25.07572","6500200","三重區"
"241035","462-BY","2018/02/10 19:09:20","新北市三重區重新路四段121號","121.48496","25.0511183333333","6500200","三重區"
"241001","547-UM","2018/02/10 19:09:08","新北市三重區溪尾街54號","121.490458333333","25.07747","6500200","三重區"
"241029","942-UM","2018/02/10 19:09:23","新北市三重區重安街87巷11號","121.49297","25.05531","6500200","三重區"
"235066","003-UY","2018/02/10 19:09:20","新北市中和區光華街49號","121.505641666667","25.0038216666667","6500300","中和區"
"235064","005-UY","2018/02/10 19:09:12","新北市中和區泰和街38號","121.49924","24.9999266666667","6500300","中和區"
"235063","006-UY","2018/02/10 19:09:07","新北市中和區中正路580號","121.486023333333","24.99478","6500300","中和區"
"235056","096-UM","2018/02/10 19:09:05","新北市中和區中正路1226號","121.47948","25.010865","6500300","中和區"
"235039","097-UM","2018/02/10 19:09:27","新北市中和區安樂路217巷39號","121.513375","24.9979183333333","6500300","中和區"
"235065","098-UM","2018/02/10 19:09:15","新北市中和區勝利路7號","121.499821666667","25.0080166666667","6500300","中和區"
"235040","150-BY","2018/02/10 19:09:16","新北市中和區宜安路23巷8號","121.512585","24.9955116666667","6500300","中和區"
"235058","151-BY","2018/02/10 19:09:27","新北市中和區員山路143巷21號","121.47992","24.995705","6500300","中和區"
"235055","183-VK","2018/02/10 19:09:13","新北市中和區德光路77巷1號","121.469563333333","25.003485","6500300","中和區"
"235038","185-VK","2018/02/10 19:09:23","新北市中和區大勇街31巷8號","121.517108333333","24.9945116666667","6500300","中和區"
"235049","186-VK","2018/02/10 19:09:13","新北市中和區景安路167巷7號","121.505861666667","24.9947716666667","6500300","中和區"
"235067","255-BX","2018/02/10 19:09:25","新北市中和區民樂路73號","121.48422","25.001405","6500300","中和區"
"235044","293-VK","2018/02/10 19:09:14","新北市中和區中興街214號","121.49949","24.9899016666667","6500300","中和區"
"235072","301-VK","2018/02/10 19:09:14","新北市中和區連城路265巷1號","121.491385","24.996255","6500300","中和區"
"235043","352-BY","2018/02/10 19:09:13","新北市中和區景平路132號","121.51889","24.9919516666667","6500300","中和區"
"235061","378-QA","2018/02/10 19:09:09","新北市中和區民治街138號","121.475316666667","25.002","6500300","中和區"
"235071","269-TV","2018/02/10 19:09:16","新北市中和區員山路65號","121.480735","24.993775","6500300","中和區"
"235050","4979-A6","2018/02/10 19:09:22","新北市中和區興南路二段49號","121.507376666667","24.9853416666667","6500300","中和區"
"235069","4980-A6","2018/02/10 19:09:17","新北市中和區景平路459巷2弄4號","121.500253333333","24.9965566666667","6500300","中和區"
"235042","551-UM","2018/02/10 19:09:21","新北市中和區秀朗路三段22巷5號","121.525898333333","24.9962483333333","6500300","中和區"
"235070","558-UM","2018/02/10 19:09:15","新北市中和區南工路1號","121.50525","24.9997833333333","6500300","中和區"
"235045","565-BX","2018/02/10 19:09:14","新北市中和區景新街467巷20弄134號","121.51518","24.98719","6500300","中和區"
"235054","640-BX","2018/02/10 19:09:26","新北市中和區國光街8巷2號","121.471795","25.0002833333333","6500300","中和區"
"235060","647-TV","2018/02/10 19:09:16","新北市中和區民治街5巷2號","121.475011666667","25.004935","6500300","中和區"
"235047","732-UM","2018/02/10 19:09:15","新北市中和區興南路二段33號","121.5077","24.9858583333333","6500300","中和區"
"235046","733-UM","2018/02/10 19:09:15","新北市中和區忠孝街1巷72號","121.508278333333","24.9848166666667","6500300","中和區"
"235057","801-TS","2018/02/10 19:09:16","新北市中和區民利街100巷5弄1號","121.47725","24.998145","6500300","中和區"
"235041","802-TS","2018/02/10 19:09:11","新北市中和區景安路47號","121.50756","24.9982933333333","6500300","中和區"
"235052","805-TS","2018/02/10 19:09:16","新北市中和區興南路二段114巷21弄1號","121.503755","24.984345","6500300","中和區"
"235048","896-TW","2018/02/10 19:09:23","新北市中和區工專路147號","121.508461666667","24.97889","6500300","中和區"
"235053","900-TW","2018/02/10 19:09:28","新北市中和區華福街67號","121.46698","24.9965883333333","6500300","中和區"
"235051","157-BY","2018/02/10 19:09:11","新北市中和區忠孝街11巷1號","121.509881666667","24.9831216666667","6500300","中和區"
"235037","AAC-213","2018/02/10 19:09:22","新北市中和區秀朗路三段60巷9號","121.525681666667","24.995045","6500300","中和區"
"220068","013-TV","2018/02/10 19:09:12","新北市板橋區中山路二段443巷2號","121.481","25.0205533333333","6500100","板橋區"
"220065","072-UY","2018/02/10 19:09:24","新北市板橋區民族路219巷23號","121.469245","25.0080566666667","6500100","板橋區"
"220086","073-UY","2018/02/10 19:09:14","新北市板橋區民權路259號","121.457028333333","25.0160716666667","6500100","板橋區"
"220106","075-UY","2018/02/10 19:09:09","新北市板橋區文化路二段317號","121.472205","25.02979","6500100","板橋區"
"220069","AAD-861","2018/02/10 19:09:21","新北市板橋區東興街91號","121.457753333333","25.00525","6500100","板橋區"
"247004","337-TH","2018/02/10 19:09:16","新北市五股區中興路三段163號","121.449268333333","25.0806583333333","6501400","蘆洲區"
"226004","312-R5","2018/02/10 19:09:21","新北市平溪區嶺腳里田子1-3號","121.750791666667","25.0239866666667","6502400","平溪區"
"228003","097-TW","2018/02/10 19:09:15","新北市貢寮區和美里和美街37號","121.912235","25.086195","6502600","貢寮區"
"228001","212-TW","2018/02/10 19:09:13","新北市貢寮區仁理村仁愛路39號","121.924963333333","25.05333","6502600","貢寮區"
"228002","585-TW","2018/02/10 19:09:17","新北市貢寮區福隆里福隆街28號","121.945043333333","25.017235","6502600","貢寮區"
"224006","676-BX","2018/02/10 19:09:08","新北市瑞芳區三爪子坑路106巷1-11號","121.808","25.1049266666667","6501200","瑞芳區"
"224002","639-TC","2018/02/10 19:09:17","新北市平溪區新寮里五分寮10-2號","121.799533333333","25.0743416666667","6501200","瑞芳區"
"224009","285-BY","2018/02/10 19:09:21","新北市瑞芳區長仁路40號","121.863608333333","25.1183216666667","6501200","瑞芳區"
"224008","275-VK","2018/02/10 19:09:15","新北市瑞芳區逢甲路335號","121.801056666667","25.1122433333333","6501200","瑞芳區"
"224007","273-VK","2018/02/10 19:09:17","新北市瑞芳區中央路48巷9號","121.76152","25.1029716666667","6501200","瑞芳區"
"224005","271-BY","2018/02/10 19:08:59","新北市瑞芳區阿美家園7號","121.81937","25.1140383333333","6501200","瑞芳區"
"227002","642-TC","2018/02/10 19:09:10","新北市雙溪區平林里外平林8-4號","121.859195","25.03811","6502500","雙溪區"
"227010","400-TW","2018/02/10 19:09:23","新北市雙溪區牡丹里中正路25號","121.864473333333","25.0377716666667","6502500","雙溪區"
"253005","032-BX","2018/02/10 19:09:21","新北市石門區阿里磅1號","121.588015","25.29147","6502200","石門區"
"253006","295-VK","2018/02/10 19:09:09","新北市石門區海灣新城14號","121.525653333333","25.28489","6502200","石門區"
"222001","KEA-2212","2018/02/10 19:09:22","新北市深坑區北深路一段300號","121.624186666667","25.00583","6501800","深坑區"
"208002","742-BX","2018/02/10 19:09:09","新北市金山區仁愛路67巷28號","121.633991666667","25.22088","6502700","金山區"
"208003","665-BX","2018/02/10 19:09:21","新北市金山區中正路131號","121.632546666667","25.22151","6502700","金山區"
"208001","761-BX","2018/02/10 19:09:24","新北市金山區福德街14號","121.639273333333","25.2218066666667","6502700","金山區"
"251009","008-UM","2018/02/10 19:09:05","新北市淡水區清水街165號","121.440116666667","25.1720083333333","6501000","淡水區"
"251013","179-VK","2018/02/10 19:09:15","新北市淡水區安子內12號","121.481578333333","25.2190966666667","6501000","淡水區"
"251014","180-VK","2018/02/10 19:09:13","新北市淡水區北勢子9號","121.482728333333","25.22823","6501000","淡水區"
"251015","182-VK","2018/02/10 19:09:24","新北市淡水區白石腳16號","121.486093333333","25.1771833333333","6501000","淡水區"
"251010","413-VK","2018/02/10 19:09:26","新北市淡水區中正路一段156巷3號","121.421183333333","25.1803316666667","6501000","淡水區"
"251016","442-VK","2018/02/10 19:09:25","新北市淡水區淡金路三段70巷1號","121.448278333333","25.20056","6501000","淡水區"
"251005","443-VK","2018/02/10 19:09:10","新北市淡水區文化路15號","121.439575","25.1726316666667","6501000","淡水區"
"251001","559-UM","2018/02/10 19:09:13","新北市淡水區自強路201巷43號","121.462061666667","25.1268666666667","6501000","淡水區"
"251006","561-UM","2018/02/10 19:09:16","新北市淡水區崁頂72-1號","121.438188333333","25.202475","6501000","淡水區"
"251007","577-R6","2018/02/10 19:09:10","新北市淡水區民生路135巷32號","121.466725","25.139115","6501000","淡水區"
"251002","672-BX","2018/02/10 19:09:13","新北市淡水區中山路93號","121.442346666667","25.1705433333333","6501000","淡水區"
"251003","673-BX","2018/02/10 19:09:15","新北市淡水區中山北路一段129號","121.442756666667","25.1768966666667","6501000","淡水區"
"207003","550-UM","2018/02/10 19:09:06","新北市萬里區大鵬里萬里加投24-2號","121.648928333333","25.2071933333333","6502800","萬里區"
"207004","225-TW","2018/02/10 19:09:25","新北市萬里區萬里里瑪鋉路112-1號","121.691183333333","25.178655","6502800","萬里區"
"252003","249-BX","2018/02/10 19:09:27","新北市三芝區錫板里南勢崗6號","121.479573333333","25.2619933333333","6502100","三芝區"
"252001","292-VK","2018/02/10 19:09:19","新北市三芝區長勤街45巷2號","121.50031","25.255115","6502100","三芝區"
"237004","KEA-2597","2018/02/10 19:09:22","新北市三峽區有木178-1號","121.44533","24.8327933333333","6500900","三峽區"
"237007","153-BY","2018/02/10 19:09:25","新北市三峽區中正路二段287號","121.365995","24.91109","6500900","三峽區"
"237009","210-TH","2018/02/10 19:09:09","新北市三峽區民權街161號","121.368065","24.930435","6500900","三峽區"
"237013","252-BX","2018/02/10 19:09:13","新北市樹林區學成路470號","121.378481666667","24.94477","6500900","三峽區"
"237012","275-BY","2018/02/10 19:09:14","新北市三峽區大德路2號","121.378813333333","24.94218","6500900","三峽區"
"237008","302-VK","2018/02/10 19:09:23","新北市三峽區大同路174巷12號","121.372713333333","24.9273133333333","6500900","三峽區"
"237006","5529-G3","2018/02/10 19:09:23","新北市三峽區溪東路307號","121.409838333333","24.930795","6500900","三峽區"
"237011","KEA-2596","2018/02/10 19:09:28","新北市三峽區介壽路三段71號","121.395451666667","24.938085","6500900","三峽區"
"237010","706-TV","2018/02/10 19:09:07","新北市三峽區國光街36號","121.374795","24.9377666666667","6500900","三峽區"
"237005","AKY-6261","2018/02/10 19:09:27","新北市三峽區隆恩街246-1號","121.357478333333","24.940955","6500900","三峽區"
"236073","105-UM","2018/02/10 19:09:10","新北市土城區明德路二段131號","121.449661666667","24.9824283333333","6501300","土城區"
"236043","107-UM","2018/02/10 19:09:08","新北市土城區學府路一段229巷13號","121.451788333333","24.9837266666667","6501300","土城區"
"236079","166-UM","2018/02/10 19:09:15","新北市土城區龍泉路10-1號","121.409533333333","24.949275","6501300","土城區"
"236026","269-VK","2018/02/10 19:09:16","新北市土城區中央路二段189巷22號","121.442893333333","24.975705","6501300","土城區"
"236015","270-VK","2018/02/10 19:09:29","新北市土城區永豐路13巷3號","121.461633333333","24.98884","6501300","土城區"
"236038","271-VK","2018/02/10 19:09:23","新北市土城區清水路141巷6號","121.458506666667","24.9818016666667","6501300","土城區"
"236023","401-BY","2018/02/10 19:09:22","新北市土城區延吉街217巷1弄2號","121.468655","24.98492","6501300","土城區"
"236059","912-UM","2018/02/10 19:09:27","新北市土城區學士路123號","121.447381666667","24.97608","6501300","土城區"
"236049","913-UM","2018/02/10 19:09:27","新北市土城區明德路一段398-1號","121.453651666667","24.9790866666667","6501300","土城區"
"236063","915-UM","2018/02/10 19:09:22","新北市土城區延和路86號","121.466366666667","24.9894583333333","6501300","土城區"
"242056","349-TH","2018/02/10 19:09:23","新北市新莊區瓊泰路77巷16號","121.442656666667","25.0291516666667","6500500","新莊區"
"238023","601-UM","2018/02/10 19:09:10","新北市樹林區大慶街122號","121.39599","25.013525","6500700","樹林區"
"238019","599-UM","2018/02/10 19:09:14","新北市樹林區中華路190號","121.411898333333","24.9805233333333","6500700","樹林區"
"238022","KEA-2213","2018/02/10 19:09:26","新北市樹林區東興街49-2號","121.411363333333","24.9772766666667","6500700","樹林區"
"238026","KEA-2539","2018/02/10 19:09:07","新北市樹林區柑園街二段237號","121.374705","24.9523816666667","6500700","樹林區"
"238014","282-BY","2018/02/10 19:09:11","新北市樹林區千歲街92巷7弄38號","121.427541666667","24.9980133333333","6500700","樹林區"
"238020","268-VK","2018/02/10 19:09:23","新北市樹林區俊英街133巷2號","121.424036666667","25.0114866666667","6500700","樹林區"
"238026","172-UY","2018/02/10 19:09:18","新北市樹林區信和街2巷3號","121.389715","24.9709883333333","6500700","樹林區"
"238016","169-UY","2018/02/10 19:09:17","新北市樹林區備前街26-2號","121.417493333333","24.9857533333333","6500700","樹林區"
"239007","AAC-297","2018/02/10 19:09:28","新北市鶯歌區中正一路建德巷18號","121.364883333333","24.9572716666667","6500800","鶯歌區"
"239006","891-R6","2018/02/10 19:09:19","新北市鶯歌區鶯桃路296巷86號","121.336773333333","24.9619433333333","6500800","鶯歌區"
"239005","526-UM","2018/02/10 19:09:23","新北市鶯歌區大湖路361巷46號","121.330843333333","24.9775566666667","6500800","鶯歌區"
"239001","417-VK","2018/02/10 19:09:16","新北市鶯歌區永明街6號","121.338263333333","24.95501","6500800","鶯歌區"
"239003","360-BY","2018/02/10 19:09:07","新北市鶯歌區鶯桃路632號","121.32961","24.96881","6500800","鶯歌區"
"239004","193-VK","2018/02/10 19:08:56","新北市鶯歌區中正三路230巷12號","121.33028","24.93903","6500800","鶯歌區"
"221008","489-VK","2018/02/10 19:09:16","新北市汐止區康寧街464號","121.63177","25.0682483333333","6501100","汐止區"
"221036","130-UY","2018/02/10 19:09:16","新北市汐止區仁愛路324號","121.664361666667","25.0678016666667","6501100","汐止區"
"221012","278-VK","2018/02/10 19:09:15","新北市汐止區康寧街901號","121.650748333333","25.0753166666667","6501100","汐止區"
"221023","279-VK","2018/02/10 19:09:12","新北市汐止區康寧街901號","121.650876666667","25.07521","6501100","汐止區"
"221032","280-BY","2018/02/10 19:09:25","新北市汐止區橫科路241-5號","121.622466666667","25.048725","6501100","汐止區"
"221027","281-BY","2018/02/10 19:09:27","新北市汐止區康寧街901號","121.651351666667","25.0749416666667","6501100","汐止區"
"221010","297-VK","2018/02/10 19:09:24","新北市汐止區汐萬路三段199巷1弄2號","121.64192","25.0979083333333","6501100","汐止區"
"221029","298-VK","2018/02/10 19:09:12","新北市汐止區樟樹二路345號","121.641921666667","25.07318","6501100","汐止區"
"221031","353-TW","2018/02/10 19:09:10","新北市汐止區中興路181巷3號","121.630246666667","25.0665966666667","6501100","汐止區"
"221025","623-UM","2018/02/10 19:09:14","新北市汐止區康寧街901號","121.651448333333","25.0749983333333","6501100","汐止區"
"221038","646-BX","2018/02/10 19:09:12","新北市汐止區汐萬路一段312號","121.650661666667","25.07531","6501100","汐止區"
"221033","647-BX","2018/02/10 19:09:18","新北市汐止區南勢街1巷1號","121.626986666667","25.037435","6501100","汐止區"
"221002","707-TV","2018/02/10 19:09:07","台北市南港區南港路一段30巷4號","121.618821666667","25.05531","6501100","汐止區"
"220079","145-BY","2018/02/10 19:09:20","新北市板橋區民權路202巷18弄1號","121.460883333333","25.0165483333333","6500100","板橋區"
"220080","200-UY","2018/02/10 19:09:26","新北市板橋區大觀路二段7巷81號","121.4497","25.0030666666667","6500100","板橋區"
"220082","610-BX","2018/02/10 19:09:18","新北市板橋區溪崑二街39號","121.428516666667","24.990945","6500100","板橋區"
"220091","267-BY","2018/02/10 19:09:22","新北市板橋區縣民大道247巷80號","121.482143333333","25.026965","6500100","板橋區"
"220056","276-BY","2018/02/10 19:09:13","新北市土城區廣興街2號","121.45697","24.991955","6500100","板橋區"
"220072","277-BY","2018/02/10 19:09:23","新北市板橋區金門街369巷67弄2號","121.428905","24.9834866666667","6500100","板橋區"
"220101","280-UM","2018/02/10 19:09:12","新北市板橋區民生路二段226巷10弄13號","121.471158333333","25.021345","6500100","板橋區"
"220071","283-VK","2018/02/10 19:09:26","新北市板橋區忠孝路154巷50號","121.464231666667","25.0012783333333","6500100","板橋區"
"220094","285-UM","2018/02/10 19:09:20","新北市板橋區光武街133號","121.465665","25.0291083333333","6500100","板橋區"
"220053","285-VK","2018/02/10 19:09:27","新北市板橋區懷仁街37號","121.476685","25.0195233333333","6500100","板橋區"
"220083","286-VK","2018/02/10 19:09:13","新北市板橋區龍興街99巷29號","121.4434","25.0035066666667","6500100","板橋區"
"220081","287-VK","2018/02/10 19:09:22","新北市板橋區光華街28巷1號","121.453933333333","25.0124266666667","6500100","板橋區"
"220090","288-VK","2018/02/10 19:09:17","新北市板橋區裕民街45巷2號","121.461478333333","25.0284166666667","6500100","板橋區"
"220061","293-UM","2018/02/10 19:09:14","新北市板橋區懷仁街85巷8號","121.47778","25.0187","6500100","板橋區"
"220084","296-UM","2018/02/10 19:09:13","新北市板橋區篤行路二段90巷12號","121.431051666667","24.991935","6500100","板橋區"
"220075","303-R5","2018/02/10 19:09:24","新北市板橋區館前西路140號","121.456303333333","25.0080283333333","6500100","板橋區"
"220062","305-R5","2018/02/10 19:09:11","新北市板橋區三民路二段245巷38號","121.480678333333","25.01239","6500100","板橋區"
"220092","307-R5","2018/02/10 19:09:11","新北市板橋區文化路二段9號","121.46868","25.0242566666667","6500100","板橋區"
"220047","317-R6","2018/02/10 19:09:14","新北市板橋區四維路115-3號","121.465453333333","25.0247916666667","6500100","板橋區"
"220064","486-VK","2018/02/10 19:09:23","新北市板橋區板新路226號","121.468458333333","25.0160183333333","6500100","板橋區"
"220089","487-VK","2018/02/10 19:09:25","新北市板橋區文化路二段464號","121.474776666667","25.0326883333333","6500100","板橋區"
"220088","491-VK","2018/02/10 19:09:24","新北市板橋區文化路二段182巷1弄4號","121.47135","25.027485","6500100","板橋區"
"220035","560-BX","2018/02/10 19:09:18","新北市板橋區中正路413巷15號","121.45345","25.02246","6500100","板橋區"
"220103","561-BX","2018/02/10 19:09:25","新北市板橋區文化路一段188巷9弄21號","121.468535","25.019435","6500100","板橋區"
"220063","609-BX","2018/02/10 19:09:22","新北市板橋區中山路二段256號","121.478763333333","25.0183766666667","6500100","板橋區"
"220057","686-BX","2018/02/10 19:09:16","新北市板橋區重慶路199-1號","121.462893333333","25.0018283333333","6500100","板橋區"
"220077","687-BX","2018/02/10 19:09:15","新北市板橋區大觀路二段125-1號","121.445878333333","25.0013166666667","6500100","板橋區"
"220093","689-BX","2018/02/10 19:09:20","新北市板橋區民生路三段271號","121.464346666667","25.02984","6500100","板橋區"
"220054","741-BX","2018/02/10 19:09:11","新北市板橋區重慶路91巷21號","121.463048333333","25.0063183333333","6500100","板橋區"
"220055","827-TW","2018/02/10 19:09:23","新北市板橋區新民街7巷14號","121.46369","25.0103766666667","6500100","板橋區"
"220067","829-TW","2018/02/10 19:09:26","新北市板橋區民享街116巷2弄4號","121.477741666667","25.0157866666667","6500100","板橋區"
"220096","830-TW","2018/02/10 19:09:11","新北市板橋區雙十路二段47巷3號","121.476211666667","25.0260533333333","6500100","板橋區"
"220074","895-R6","2018/02/10 19:09:15","新北市板橋區北門街61號","121.456128333333","25.0118233333333","6500100","板橋區"
"220073","985-R7","2018/02/10 19:09:18","新北市板橋區中正路233號","121.455956666667","25.0179483333333","6500100","板橋區"
"220097","AAC-210","2018/02/10 19:09:27","新北市板橋區漢生西路89巷4弄2號","121.461031666667","25.0191816666667","6500100","板橋區"
"220070","AAC-253","2018/02/10 19:09:24","新北市板橋區四川路一段367號","121.45826","24.9995733333333","6500100","板橋區"
