"lineid","car","time","location","longitude","latitude","cityid","cityname"
"247008","341-TH","2018/02/10 22:19:21","新北市五股區中興路三段163號","121.449271666667","25.0807716666667","6501400","蘆洲區"
"247003","336-TH","2018/02/10 22:18:18","新北市五股區中興路三段163號","121.448978333333","25.0808966666667","6501400","蘆洲區"
"251004","009-UM","2018/02/10 22:19:15","新北市淡水區民族路33號","121.462303333333","25.13589","6501000","淡水區"
"251008","181-VK","2018/02/10 22:19:25","新北市淡水區學府路104號","121.44985","25.171765","6501000","淡水區"
"251010","413-VK","2018/02/10 22:19:25","新北市淡水區沙崙路200號","121.424703333333","25.1839033333333","6501000","淡水區"
"251012","441-VK","2018/02/10 22:19:20","新北市淡水區下圭柔山90-8號","121.431285","25.2104033333333","6501000","淡水區"
"251007","577-R6","2018/02/10 22:19:15","新北市淡水區北新路180號","121.449458333333","25.1787016666667","6501000","淡水區"
"251011","650-BX","2018/02/10 22:19:27","新北市淡水區水碓街7號","121.443201666667","25.1771283333333","6501000","淡水區"
"242048","441-UM","2018/02/10 22:19:16","新北市新莊區環河路48-7號","121.436588333333","25.00986","6500500","新莊區"
