"lineid","car","time","location","longitude","latitude","cityid","cityname"
"248005","653-BX","2018/04/13 08:09:45","新北市五股區明德路12巷6號","121.433336666667","25.0718616666667","6501500","五股區"
"244004","248-BX","2018/04/13 08:09:47","新北市林口區寶斗厝坑79號","121.33221","25.1186","6501700","林口區"
"222005","289-BY","2018/04/13 08:08:35","新北市深坑區文化街98號","121.617036666667","25.0018166666667","6501800","深坑區"
"231007","189-VK","2018/04/13 08:09:43","新北市新店區新潭路一段22巷10號","121.522568333333","24.94302","6500600","新店區"
"231009","192-VK","2018/04/13 08:09:42","新北市新店區北新路一段88巷1號","121.541736666667","24.9678183333333","6500600","新店區"
"235001","611-BX","2018/04/13 08:09:30","新北市中和區圓通路367巷33弄103號","121.495478333333","24.9840433333333","6500300","中和區"
"226005","5620-A6","2018/04/13 08:09:44","新北市平溪區望古里灰3-1號","121.756153333333","25.0292316666667","6502400","平溪區"
"226001","7418-A5","2018/04/13 08:09:47","新北市平溪區十分里十分街15-1號","121.774478333333","25.04006","6502400","平溪區"
"226001","AGD-0702","2018/04/13 08:09:35","新北市平溪區新寮里石碣11號","121.787828333333","25.057755","6502400","平溪區"
"223006","022-BY","2018/04/13 08:09:32","新北市坪林區水聳淒坑19-1號","121.712501666667","24.934735","6501900","石碇區"
"223002","KEA-2673","2018/04/13 08:09:42","新北市石碇區崩山34號","121.675095","24.9612183333333","6501900","石碇區"
"223001","205-TH","2018/04/13 08:00:38","新北市石碇區崩山36-1號","121.670918333333","24.957975","6501900","石碇區"
"223008","406-TH","2018/04/13 08:09:40","新北市石碇區石碇子埔42-2號","121.672726666667","25.0076216666667","6501900","石碇區"
"223001","592-UM","2018/04/13 08:09:43","新北市石碇區月扇湖3號","121.662826666667","24.9557333333333","6501900","石碇區"
"223004","660-BX","2018/04/13 08:09:35","新北市石碇區外按16-1號","121.650783333333","24.9975283333333","6501900","石碇區"
"223007","661-BX","2018/04/13 08:09:32","新北市石碇區石碇子埔42-2號","121.672663333333","25.0074633333333","6501900","石碇區"
"223005","677-TV","2018/04/13 08:09:27","新北市石碇區外按8號","121.651123333333","24.9960866666667","6501900","石碇區"
"227005","282-VK","2018/04/13 08:09:45","新北市雙溪區上林里內平林140號","121.821526666667","25.0236966666667","6502500","雙溪區"
"237001","159-UY","2018/04/13 08:09:29","新北市三峽區學成路278-3號","121.376248333333","24.9432166666667","6500900","三峽區"
"236010","165-UM","2018/04/13 08:09:46","新北市土城區青雲路322巷12號","121.457631666667","24.9766733333333","6501300","土城區"
"236004","339-SR","2018/04/13 08:09:33","新北市土城區中州路76號","121.412015","24.9583516666667","6501300","土城區"
"236006","498-BY","2018/04/13 08:09:47","新北市土城區永平街72號","121.427341666667","24.9591316666667","6501300","土城區"
"220004","461-BY","2018/04/13 08:09:37","新北市樹林區八德街495-2號","121.401473333333","24.9693333333333","6500100","板橋區"
