"lineid","car","time","location","longitude","latitude","cityid","cityname"
"234068","149-BY","2018/04/13 13:29:46","新北市永和區竹林路178號","121.520476666667","25.009925","6500400","永和區"
"234005","207-UY","2018/04/13 13:29:40","新北市永和區中山路一段193號","121.509225","25.0089633333333","6500400","永和區"
"234078","298-R6","2018/04/13 13:29:52","新北市永和區環河東路三段54號","121.526673333333","25.00617","6500400","永和區"
"234036","336-UY","2018/04/13 13:29:46","新北市永和區民樂街28號","121.52758","25.0015","6500400","永和區"
"234062","337-UY","2018/04/13 13:29:42","新北市永和區中正路368巷1弄75號","121.520441666667","25.0008866666667","6500400","永和區"
"234084","338-UY","2018/04/13 13:29:45","新北市永和區林森路29巷10號","121.526245","25.00476","6500400","永和區"
"234066","553-UM","2018/04/13 13:29:41","新北市永和區保平路190號","121.510488333333","25.00644","6500400","永和區"
"234015","745-BX","2018/04/13 13:29:43","新北市永和區環河西路一段1號","121.515316666667","25.0179266666667","6500400","永和區"
"234028","746-BX","2018/04/13 13:29:53","新北市永和區民生路20號","121.522608333333","24.99735","6500400","永和區"
"234052","KEA-2590","2018/04/13 13:29:49","新北市永和區復興街19巷9號","121.516113333333","25.0131916666667","6500400","永和區"
"234012","KEA-2591","2018/04/13 13:29:51","新北市永和區永平路222號","121.509118333333","25.0106216666667","6500400","永和區"
"234060","AAD-866","2018/04/13 13:29:43","新北市永和區永貞路191號","121.514775","25.0037516666667","6500400","永和區"
"234044","847-RS","2018/04/13 13:29:50","新北市永和區秀朗路二段179號","121.52583","25.001515","6500400","永和區"
"234040","862-TW","2018/04/13 13:29:51","新北市永和區中和路519巷10號","121.511041666667","25.0031816666667","6500400","永和區"
"234048","863-TW","2018/04/13 13:29:37","新北市永和區信義路98號","121.512401666667","25.01374","6500400","永和區"
"234025","9371-KE","2018/04/13 13:29:35","新北市永和區中山路一段17巷4弄15號","121.513463333333","25.0100766666667","6500400","永和區"
"234010","9373-KE","2018/04/13 13:29:43","新北市永和區仁愛路141巷21號","121.51222","25.0115666666667","6500400","永和區"
"248019","225-UY","2018/04/13 13:29:32","新北市五股區天乙路116號","121.447241666667","25.1140216666667","6501500","五股區"
"234022","9380-KE","2018/04/13 13:29:47","新北市永和區竹林路91巷45號","121.521275","25.012925","6500400","永和區"
"234076","969-R7","2018/04/13 13:29:40","新北市永和區智光街33號","121.517933333333","24.9988433333333","6500400","永和區"
"234072","AAC-211","2018/04/13 13:29:33","新北市永和區永和路二段61號","121.514661666667","25.0111116666667","6500400","永和區"
"234001","AAC-295","2018/04/13 13:29:39","新北市永和區永和路一段115-1號","121.513975","25.008055","6500400","永和區"
"244004","248-BX","2018/04/13 13:29:53","新北市林口區南勢71-117號","121.351301666667","25.0806533333333","6501700","林口區"
"231002","002-UM","2018/04/13 13:29:49","新北市新店區環河路64號","121.53709","24.9627116666667","6500600","新店區"
"231027","0293-UT","2018/04/13 13:29:40","新北市新店區國校路32-3號","121.537778333333","24.9541266666667","6500600","新店區"
"231028","046-UY","2018/04/13 13:29:53","新北市新店區安華路28-1號","121.519551666667","24.9608266666667","6500600","新店區"
"231001","047-UY","2018/04/13 13:29:45","新北市新店區中央路175-3號","121.53487","24.9697466666667","6500600","新店區"
"231005","106-UY","2018/04/13 13:29:42","新北市新店區光明街129號","121.539153333333","24.9619483333333","6500600","新店區"
"231022","110-UY","2018/04/13 13:29:41","新北市新店區永興路2號","121.545896666667","24.94076","6500600","新店區"
"231012","187-VK","2018/04/13 13:29:47","新北市新店區北新路二段94號","121.543035","24.9730516666667","6500600","新店區"
"231010","188-VK","2018/04/13 13:29:42","新北市新店區中央路23號","121.533163333333","24.9780916666667","6500600","新店區"
"231023","KEA-2219","2018/04/13 13:29:43","新北市新店區新店路13號","121.540313333333","24.952885","6500600","新店區"
"231026","256-BX","2018/04/13 13:29:35","新北市新店區北新路一段51號","121.538086666667","24.9596233333333","6500600","新店區"
"231035","260-TV","2018/04/13 13:29:51","新北市新店區安華路28-1號","121.519646666667","24.9611366666667","6500600","新店區"
"231018","278-BY","2018/04/13 13:29:41","新北市新店區中央路45號","121.532905","24.9775683333333","6500600","新店區"
"231016","AAD-862","2018/04/13 13:29:41","新北市新店區北宜路二段30巷5弄2號","121.548028333333","24.95087","6500600","新店區"
"231038","3713-VJ","2018/04/13 13:29:49","新北市新店區安華路30巷1號","121.519566666667","24.9592866666667","6500600","新店區"
"231037","4716-K9","2018/04/13 13:29:13","新北市新店區薏仁坑路33號","121.493601666667","24.9627766666667","6500600","新店區"
"231025","4715-K9","2018/04/13 13:29:41","新北市新店區中央六街58號","121.527846666667","24.9757666666667","6500600","新店區"
"231036","512-UM","2018/04/13 13:29:45","新北市新店區安祥路142號","121.474245","24.9555016666667","6500600","新店區"
"231013","513-UM","2018/04/13 13:29:50","新北市新店區中央路135號","121.530411666667","24.973725","6500600","新店區"
"231006","617-UM","2018/04/13 13:29:48","新北市新店區秀山路14號","121.532748333333","24.960305","6500600","新店區"
"231030","618-UM","2018/04/13 13:29:43","新北市新店區安華路16號","121.517028333333","24.958235","6500600","新店區"
"231034","641-BX","2018/04/13 13:29:53","新北市新店區安華路3號","121.519096666667","24.95943","6500600","新店區"
"231003","645-TV","2018/04/13 13:29:55","新北市新店區安康路一段9-2號","121.533693333333","24.960565","6500600","新店區"
"231032","720-UM","2018/04/13 13:29:46","新北市新店區安豐路61號","121.498165","24.9538516666667","6500600","新店區"
"231029","897-TW","2018/04/13 13:29:51","新北市新店區安華路28-1號","121.519825","24.9607966666667","6500600","新店區"
"231004","899-TW","2018/04/13 13:29:43","新北市新店區安康路一段35號","121.531845","24.960695","6500600","新店區"
"231024","AKT-0513","2018/04/13 13:29:41","新北市新店區中正路152號","121.541681666667","24.97181","6500600","新店區"
"235030","003-UY","2018/04/13 13:29:55","新北市中和區中山路二段122號","121.502515","25.0038433333333","6500300","中和區"
"235028","005-UY","2018/04/13 13:29:37","新北市中和區連城路139巷69號","121.496996666667","24.9969716666667","6500300","中和區"
"235027","006-UY","2018/04/13 13:29:52","新北市中和區連城路347巷2號","121.488068333333","24.9959216666667","6500300","中和區"
"235020","096-UM","2018/04/13 13:29:41","新北市中和區新民街5號","121.4824","25.0058","6500300","中和區"
"235003","097-UM","2018/04/13 13:29:51","新北市中和區大勇街25巷2號","121.517248333333","24.9933683333333","6500300","中和區"
"235029","098-UM","2018/04/13 13:29:36","新北市中和區莊敬路49巷20弄30號","121.503343333333","25.00516","6500300","中和區"
"235004","150-BY","2018/04/13 13:29:46","新北市中和區安平路59號","121.509485","24.99505","6500300","中和區"
"235022","151-BY","2018/04/13 13:29:55","新北市中和區圓通路369巷66號","121.490503333333","24.982345","6500300","中和區"
"235019","183-VK","2018/04/13 13:29:42","新北市中和區民享街287號","121.470506666667","24.9958116666667","6500300","中和區"
"235002","185-VK","2018/04/13 13:29:50","新北市中和區立人街14巷26號","121.519505","24.9954166666667","6500300","中和區"
"235013","186-VK","2018/04/13 13:29:54","新北市中和區景安路120巷3號","121.505191666667","24.99468","6500300","中和區"
"235031","255-BX","2018/04/13 13:29:42","新北市中和區新生街220巷2號","121.483208333333","24.99854","6500300","中和區"
"235036","301-VK","2018/04/13 13:29:42","新北市中和區連城路263-2號","121.491523333333","24.9964533333333","6500300","中和區"
"235032","377-QA","2018/04/13 13:29:49","新北市中和區中正路273號","121.495705","24.993775","6500300","中和區"
"235025","378-QA","2018/04/13 13:29:39","新北市中和區民享街92號","121.474803333333","24.99982","6500300","中和區"
"235024","269-TV","2018/04/13 13:29:50","新北市中和區員山路287號","121.481251666667","24.9997766666667","6500300","中和區"
"235014","4979-A6","2018/04/13 13:29:55","新北市中和區景新街410巷18弄6號","121.512075","24.98938","6500300","中和區"
"235033","4980-A6","2018/04/13 13:29:42","新北市中和區連城路127巷5-1號","121.49637","24.9989216666667","6500300","中和區"
"235006","551-UM","2018/04/13 13:29:51","新北市中和區自立路58巷2號","121.52357","24.9916966666667","6500300","中和區"
"235009","565-BX","2018/04/13 13:29:36","新北市中和區南山路236巷22弄8號","121.505468333333","24.9892","6500300","中和區"
"235018","640-BX","2018/04/13 13:29:43","新北市中和區民享街89巷1號","121.474555","25.001655","6500300","中和區"
"235011","732-UM","2018/04/13 13:29:40","新北市中和區南山路300號","121.507916666667","24.9870766666667","6500300","中和區"
"235035","783-BX","2018/04/13 13:29:46","新北市中和區永和路458巷1弄26號","121.483311666667","25.0126333333333","6500300","中和區"
"235026","800-TS","2018/04/13 13:29:37","新北市中和區景平路722-5號","121.496883333333","25.0032866666667","6500300","中和區"
"235021","801-TS","2018/04/13 13:29:42","新北市中和區民享街97巷19號","121.475356666667","24.9995866666667","6500300","中和區"
"235016","805-TS","2018/04/13 13:29:48","新北市中和區興南路二段145號","121.50509","24.9839883333333","6500300","中和區"
"235017","900-TW","2018/04/13 13:29:40","新北市中和區民享街457號","121.470426666667","24.9931766666667","6500300","中和區"
"235034","911-UM","2018/04/13 13:29:52","新北市中和區南華路32號","121.503516666667","24.9961816666667","6500300","中和區"
"235001","157-BY","2018/04/13 13:29:41","新北市中和區興南路二段114巷21弄2號","121.50362","24.9844133333333","6500300","中和區"
"235001","AAC-213","2018/04/13 13:29:53","新北市中和區景德街93號","121.515918333333","24.9914333333333","6500300","中和區"
"220013","072-UY","2018/04/13 13:29:36","新北市板橋區南雅南路二段100號","121.453523333333","25.0011116666667","6500100","板橋區"
"220034","073-UY","2018/04/13 13:29:34","新北市板橋區南雅南路二段120-2號","121.452348333333","24.9997433333333","6500100","板橋區"
"247005","336-TH","2018/04/13 13:29:39","新北市五股區中興路三段163號","121.449398333333","25.08079","6501400","蘆洲區"
"235005","251-BX","2018/04/13 13:29:44","新北市中和區中和路320號","121.509546666667","25.0007166666667","6500300","中和區"
"207002","749-BX","2018/04/13 13:29:38","新北市萬里區崁腳里崁腳路166號","121.645045","25.15584","6502800","萬里區"
"207001","662-BX","2018/04/13 13:29:46","新北市萬里區大鵬里萬里加投51號","121.643206666667","25.209905","6502800","萬里區"
"236006","498-BY","2018/04/13 13:29:44","新北市土城區慶祥街59巷7號","121.436096666667","24.9728266666667","6501300","土城區"
"242046","442-UM","2018/04/13 13:29:52","新北市新莊區中港路349號","121.452073333333","25.04576","6500500","新莊區"
"221032","280-BY","2018/04/13 13:29:37","新北市汐止區水源路一段56號","121.657415","25.0657033333333","6501100","汐止區"
"220027","145-BY","2018/04/13 13:29:40","新北市板橋區板城路421號","121.447933333333","24.9955616666667","6500100","板橋區"
"220028","200-UY","2018/04/13 13:29:32","新北市板橋區華東街1-9號","121.448103333333","24.9948383333333","6500100","板橋區"
"220030","610-BX","2018/04/13 13:29:36","新北市板橋區華東街1-10號","121.448295","24.9949333333333","6500100","板橋區"
"220018","282-UM","2018/04/13 13:29:40","新北市板橋區華東街1-10號","121.448236666667","24.9949966666667","6500100","板橋區"
"220029","287-VK","2018/04/13 13:29:46","新北市板橋區華東街1-10號","121.448241666667","24.9950183333333","6500100","板橋區"
"220023","303-R5","2018/04/13 13:29:41","新北市板橋區華東街1-9號","121.448223333333","24.9949483333333","6500100","板橋區"
"220010","305-R5","2018/04/13 13:29:48","新北市板橋區民生路二段120號","121.470483333333","25.0197333333333","6500100","板橋區"
"220012","486-VK","2018/04/13 13:29:54","新北市板橋區板城路421號","121.448026666667","24.995635","6500100","板橋區"
"220104","560-BX","2018/04/13 13:29:53","新北市板橋區南雅南路二段100號","121.453416666667","25.0010133333333","6500100","板橋區"
"220005","686-BX","2018/04/13 13:29:49","新北市板橋區華東街1-9號","121.44822","24.9948966666667","6500100","板橋區"
"220022","895-R6","2018/04/13 13:29:51","新北市板橋區華東街1-10號","121.448298333333","24.9949816666667","6500100","板橋區"
"220021","985-R7","2018/04/13 13:29:48","新北市板橋區華東街1-10號","121.448283333333","24.9950566666667","6500100","板橋區"
"220025","AAC-253","2018/04/13 13:29:41","新北市板橋區篤行路一段34號","121.431895","24.9938816666667","6500100","板橋區"
