"lineid","car","time","location","longitude","latitude","cityid","cityname"
"234068","149-BY","2018/04/13 13:39:41","新北市永和區永和路二段235號","121.515628333333","25.0143166666667","6500400","永和區"
"234005","207-UY","2018/04/13 13:39:40","新北市永和區永和路一段118號","121.513975","25.0077983333333","6500400","永和區"
"234078","298-R6","2018/04/13 13:39:52","新北市永和區永亨路112號","121.523776666667","25.00445","6500400","永和區"
"234036","336-UY","2018/04/13 13:39:45","新北市永和區環河東路四段10號","121.528395","25.0000566666667","6500400","永和區"
"234062","337-UY","2018/04/13 13:39:42","新北市永和區秀朗路一段192巷6弄10號","121.519101666667","25.0023583333333","6500400","永和區"
"234084","338-UY","2018/04/13 13:39:35","新北市永和區國中路2號","121.524181666667","25.0042366666667","6500400","永和區"
"234066","553-UM","2018/04/13 13:39:41","新北市永和區中山路一段191巷16弄2號","121.509673333333","25.0079516666667","6500400","永和區"
"234015","745-BX","2018/04/13 13:39:46","新北市永和區永和路二段393-1號","121.515571666667","25.0166783333333","6500400","永和區"
"234028","746-BX","2018/04/13 13:39:53","新北市永和區民權路3號","121.52017","24.998485","6500400","永和區"
"234052","KEA-2590","2018/04/13 13:39:49","新北市永和區竹林路39巷21號","121.519","25.014795","6500400","永和區"
"234012","KEA-2591","2018/04/13 13:39:51","新北市永和區仁愛路186巷2號","121.50991","25.012665","6500400","永和區"
"234060","AAD-866","2018/04/13 13:39:43","新北市永和區民有街6號","121.515808333333","24.997065","6500400","永和區"
"234044","847-RS","2018/04/13 13:39:50","新北市永和區成功路一段80號","121.526405","25.0031416666667","6500400","永和區"
"234040","862-TW","2018/04/13 13:39:51","新北市永和區中和路305巷4弄1號","121.506726666667","25.0004666666667","6500400","永和區"
"234048","863-TW","2018/04/13 13:39:45","新北市永和區保安路47號","121.509588333333","25.0159333333333","6500400","永和區"
"234025","9371-KE","2018/04/13 13:39:35","新北市永和區秀朗路一段10巷19號","121.513453333333","25.00613","6500400","永和區"
"234010","9373-KE","2018/04/13 13:39:43","新北市永和區保福路二段15巷15號","121.510508333333","25.0109383333333","6500400","永和區"
"248019","225-UY","2018/04/13 13:39:32","新北市五股區凌雲路三段田埔巷14-3號","121.435851666667","25.1215483333333","6501500","五股區"
"234022","9380-KE","2018/04/13 13:39:47","新北市永和區中正路700號","121.51631","25.00994","6500400","永和區"
"234076","969-R7","2018/04/13 13:39:48","新北市永和區民權路30號","121.520225","24.9990983333333","6500400","永和區"
"234072","AAC-211","2018/04/13 13:39:34","新北市永和區環河東路二段60號","121.523588333333","25.011185","6500400","永和區"
"234001","AAC-295","2018/04/13 13:39:39","新北市永和區永和路一段122號","121.51391","25.0076016666667","6500400","永和區"
"244004","248-BX","2018/04/13 13:39:33","新北市林口區南勢里59-8號","121.359368333333","25.0817233333333","6501700","林口區"
"231002","002-UM","2018/04/13 13:39:49","新北市新店區溪園路403號","121.523945","24.978175","6500600","新店區"
"231027","0293-UT","2018/04/13 13:39:41","新北市新店區北宜路一段105巷10弄3號","121.540405","24.9558016666667","6500600","新店區"
"231028","046-UY","2018/04/13 13:39:53","新北市新店區安和路一段52巷2-1號","121.517663333333","24.9663316666667","6500600","新店區"
"231001","047-UY","2018/04/13 13:39:45","新北市新店區中正路376號","121.534925","24.9766883333333","6500600","新店區"
"231005","106-UY","2018/04/13 13:39:42","新北市新店區寶中路45號","121.545251666667","24.9790616666667","6500600","新店區"
"231022","110-UY","2018/04/13 13:39:41","新北市新店區永興路132號","121.54404","24.9316866666667","6500600","新店區"
"231012","187-VK","2018/04/13 13:39:47","新北市新店區德正街27巷8號","121.545091666667","24.97152","6500600","新店區"
"231010","188-VK","2018/04/13 13:39:46","新北市新店區中正路307巷2號","121.536496666667","24.9745533333333","6500600","新店區"
"231023","KEA-2219","2018/04/13 13:39:43","新北市新店區新店路140號","121.537125","24.9552366666667","6500600","新店區"
"231026","256-BX","2018/04/13 13:39:55","新北市新店區北新路二段2號","121.542545","24.9707883333333","6500600","新店區"
"231035","260-TV","2018/04/13 13:39:51","新北市新店區安忠路76號","121.512391666667","24.95877","6500600","新店區"
"231018","278-BY","2018/04/13 13:39:41","新北市新店區百忍街10巷2號","121.534905","24.9756466666667","6500600","新店區"
"231016","AAD-862","2018/04/13 13:39:56","新北市新店區竹林路28號","121.551646666667","24.9511933333333","6500600","新店區"
"231038","3713-VJ","2018/04/13 13:39:49","新北市新店區安華路30巷1號","121.519566666667","24.9592766666667","6500600","新店區"
"231037","4716-K9","2018/04/13 13:39:53","新北市新店區安康路二段422-1號","121.495996666667","24.9558416666667","6500600","新店區"
"231025","4715-K9","2018/04/13 13:39:41","新北市新店區中央六街56號","121.527901666667","24.9757383333333","6500600","新店區"
"231036","512-UM","2018/04/13 13:39:48","新北市新店區安祥路135號","121.474616666667","24.9560683333333","6500600","新店區"
"231013","513-UM","2018/04/13 13:39:50","新北市新店區中正路454-5號","121.534406666667","24.9790683333333","6500600","新店區"
"231006","617-UM","2018/04/13 13:39:48","新北市新店區北宜路一段107-1號","121.539478333333","24.9551566666667","6500600","新店區"
"231030","618-UM","2018/04/13 13:39:44","新北市新店區安康路一段148號","121.526381666667","24.962905","6500600","新店區"
"231034","641-BX","2018/04/13 13:39:53","新北市新店區車子路109號","121.50523","24.952115","6500600","新店區"
"231003","645-TV","2018/04/13 13:39:55","新北市新店區中興路一段282號","121.545613333333","24.9685266666667","6500600","新店區"
"231032","720-UM","2018/04/13 13:39:46","新北市新店區安忠路205巷8號","121.50895","24.95456","6500600","新店區"
"231029","897-TW","2018/04/13 13:39:51","新北市新店區安康路二段338號","121.5034","24.9577566666667","6500600","新店區"
"231004","899-TW","2018/04/13 13:39:43","新北市新店區北新路二段3號","121.542608333333","24.971285","6500600","新店區"
"231024","AKT-0513","2018/04/13 13:39:38","新北市新店區北新路一段271巷35號","121.53959","24.9670266666667","6500600","新店區"
"235030","003-UY","2018/04/13 13:39:55","新北市中和區水源路34巷1號","121.504908333333","25.0035616666667","6500300","中和區"
"235028","005-UY","2018/04/13 13:39:37","新北市中和區連城路89巷40號","121.497666666667","24.998575","6500300","中和區"
"235027","006-UY","2018/04/13 13:39:52","新北市中和區建一路198號","121.487843333333","24.9962716666667","6500300","中和區"
"235020","096-UM","2018/04/13 13:39:41","新北市中和區員山路466巷17弄2號","121.480568333333","25.00711","6500300","中和區"
"235003","097-UM","2018/04/13 13:39:51","新北市中和區景平路278巷14弄6號","121.51434","24.99294","6500300","中和區"
"235029","098-UM","2018/04/13 13:39:36","新北市中和區中山路二段2巷81弄8號","121.500718333333","25.0073133333333","6500300","中和區"
"235004","150-BY","2018/04/13 13:39:46","新北市中和區安平路59號","121.509636666667","24.9952033333333","6500300","中和區"
"235022","151-BY","2018/04/13 13:39:55","新北市中和區連城路384號","121.48056","24.99505","6500300","中和區"
"235019","183-VK","2018/04/13 13:39:54","新北市中和區國光街102巷29號","121.471375","25.0008516666667","6500300","中和區"
"235002","185-VK","2018/04/13 13:39:50","新北市中和區立人街40號","121.518105","24.9941333333333","6500300","中和區"
"235013","186-VK","2018/04/13 13:39:54","新北市中和區明義街11巷10弄1號","121.503795","24.994795","6500300","中和區"
"235031","255-BX","2018/04/13 13:39:42","新北市中和區新生街220巷17號","121.482885","24.9985166666667","6500300","中和區"
"235008","293-VK","2018/04/13 13:39:47","新北市中和區復興路276號","121.502608333333","24.9903883333333","6500300","中和區"
"235036","301-VK","2018/04/13 13:39:41","新北市中和區連城路87號","121.496861666667","25.0004816666667","6500300","中和區"
"235043","352-BY","2018/04/13 13:39:45","新北市中和區景平路171號","121.512155","24.9924333333333","6500300","中和區"
"235032","377-QA","2018/04/13 13:39:50","新北市中和區中正路211巷33號","121.498035","24.99264","6500300","中和區"
"235025","378-QA","2018/04/13 13:39:39","新北市中和區民享街114巷27號","121.473473333333","24.9995366666667","6500300","中和區"
"235024","269-TV","2018/04/13 13:39:50","新北市中和區中山路二段585號","121.480053333333","25.0056366666667","6500300","中和區"
"235014","4979-A6","2018/04/13 13:39:56","新北市中和區景新街496巷30弄8號","121.513203333333","24.98562","6500300","中和區"
"235033","4980-A6","2018/04/13 13:39:42","新北市中和區連城路99巷59號","121.497258333333","24.9985133333333","6500300","中和區"
"235006","551-UM","2018/04/13 13:39:51","新北市中和區成功路36號","121.526081666667","24.9931783333333","6500300","中和區"
"235009","565-BX","2018/04/13 13:39:36","新北市中和區南山路236巷59號","121.504556666667","24.9880316666667","6500300","中和區"
"235018","640-BX","2018/04/13 13:39:41","新北市中和區民享街32巷6號","121.473665","25.0032783333333","6500300","中和區"
"235011","732-UM","2018/04/13 13:39:40","新北市中和區興南路二段5號","121.508031666667","24.9863916666667","6500300","中和區"
"235035","783-BX","2018/04/13 13:39:46","新北市中和區環中路126號","121.481923333333","25.01266","6500300","中和區"
"235026","800-TS","2018/04/13 13:39:37","新北市中和區中山路二段312巷31號","121.49524","25.0038116666667","6500300","中和區"
"235021","801-TS","2018/04/13 13:39:42","新北市中和區民安街42巷2號","121.47996","25.000615","6500300","中和區"
"235016","805-TS","2018/04/13 13:39:50","新北市中和區興南路三段52巷1-3號","121.494106666667","24.975975","6500300","中和區"
"235017","900-TW","2018/04/13 13:39:40","新北市中和區莒光路213號","121.46902","24.9947033333333","6500300","中和區"
"235034","911-UM","2018/04/13 13:39:52","新北市中和區景平路576號","121.501566666667","24.99544","6500300","中和區"
"235001","157-BY","2018/04/13 13:39:41","新北市中和區華新街143巷106弄31號","121.506798333333","24.97832","6500300","中和區"
"235001","AAC-213","2018/04/13 13:39:53","新北市中和區景德街53號","121.517701666667","24.9914483333333","6500300","中和區"
"235023","AAC-215","2018/04/13 13:39:39","新北市中和區員山路36巷16-8號","121.4854","24.99245","6500300","中和區"
"220016","013-TV","2018/04/13 13:39:37","新北市板橋區民生路二段120號","121.470443333333","25.0195183333333","6500100","板橋區"
"220004","015-TV","2018/04/13 13:39:50","新北市板橋區四川路二段140巷18號","121.449401666667","24.99339","6500100","板橋區"
"220013","072-UY","2018/04/13 13:39:36","新北市板橋區漢生東路262號","121.468293333333","25.013535","6500100","板橋區"
"220034","073-UY","2018/04/13 13:39:34","新北市板橋區南雅西路二段192巷1弄23號","121.452311666667","25.0150933333333","6500100","板橋區"
"220105","075-UY","2018/04/13 13:39:34","新北市板橋區民生路二段120號","121.470481666667","25.0196133333333","6500100","板橋區"
"220017","AAD-861","2018/04/13 13:39:40","新北市板橋區華東街1-10號","121.448296666667","24.99502","6500100","板橋區"
"247005","336-TH","2018/04/13 13:39:39","新北市五股區新五路二段258號","121.440923333333","25.0821916666667","6501400","蘆洲區"
"247007","056-VK","2018/04/13 13:39:44","新北市五股區更洲路68號","121.45666","25.0795666666667","6501400","蘆洲區"
"235005","251-BX","2018/04/13 13:39:44","新北市中和區中安街80號","121.512256666667","25.001855","6500300","中和區"
"207002","749-BX","2018/04/13 13:39:38","新北市萬里區崁腳里崁腳路166號","121.645043333333","25.1558316666667","6502800","萬里區"
"207001","662-BX","2018/04/13 13:39:46","新北市萬里區磺潭里公館崙35號","121.631631666667","25.2107583333333","6502800","萬里區"
"236067","105-UM","2018/04/13 13:39:41","新北市土城區城林路6巷80號","121.438736666667","24.9796933333333","6501300","土城區"
"236040","107-UM","2018/04/13 13:39:40","新北市土城區城林路6巷80號","121.43845","24.9796816666667","6501300","土城區"
"236077","166-UM","2018/04/13 13:39:46","新北市土城區中央路二段278巷2號","121.440776666667","24.9743666666667","6501300","土城區"
"236029","253-BX","2018/04/13 13:39:44","新北市土城區城林路6巷80號","121.438506666667","24.9797966666667","6501300","土城區"
"236013","270-VK","2018/04/13 13:39:46","新北市土城區城林路6巷80號","121.438663333333","24.9798433333333","6501300","土城區"
"236032","271-VK","2018/04/13 13:39:40","新北市土城區城林路6巷80號","121.438501666667","24.9798283333333","6501300","土城區"
"236016","401-BY","2018/04/13 13:39:40","新北市土城區城林路6巷80號","121.438523333333","24.979815","6501300","土城區"
"236006","498-BY","2018/04/13 13:39:44","新北市土城區慶祥街1巷23號","121.437255","24.97409","6501300","土城區"
"236057","912-UM","2018/04/13 13:39:52","新北市土城區城林路6巷80號","121.43847","24.9797216666667","6501300","土城區"
"236060","915-UM","2018/04/13 13:39:40","新北市土城區城林路6巷80號","121.438403333333","24.97978","6501300","土城區"
"242046","442-UM","2018/04/13 13:39:12","新北市新莊區利濟街10號","121.453348333333","25.033625","6500500","新莊區"
"221032","280-BY","2018/04/13 13:39:37","新北市汐止區仁愛路10號","121.659238333333","25.0636116666667","6501100","汐止區"
"220027","145-BY","2018/04/13 13:39:38","新北市板橋區大仁街27-2號","121.455491666667","25.0168683333333","6500100","板橋區"
"220028","200-UY","2018/04/13 13:39:52","新北市板橋區大觀路二段265巷76弄35號","121.441211666667","24.9967166666667","6500100","板橋區"
"220030","610-BX","2018/04/13 13:39:36","新北市板橋區篤行路一段29號","121.431988333333","24.99447","6500100","板橋區"
"220020","277-BY","2018/04/13 13:39:45","新北市板橋區大觀路三段59巷17弄6-1號","121.437248333333","24.9953766666667","6500100","板橋區"
"220018","282-UM","2018/04/13 13:39:40","新北市板橋區大觀路二段266號","121.449711666667","24.9969166666667","6500100","板橋區"
"220019","283-VK","2018/04/13 13:39:38","新北市板橋區四川路二段140巷18號","121.449305","24.99331","6500100","板橋區"
"220043","285-UM","2018/04/13 13:39:37","新北市板橋區民生路二段161巷3號","121.470113333333","25.0197216666667","6500100","板橋區"
"220001","285-VK","2018/04/13 13:39:36","新北市板橋區民生路二段120號","121.470346666667","25.0199566666667","6500100","板橋區"
"220031","286-VK","2018/04/13 13:39:52","新北市板橋區大觀路二段2號","121.446815","25.0038266666667","6500100","板橋區"
"220029","287-VK","2018/04/13 13:39:46","新北市板橋區大觀路二段101巷17號","121.446883333333","25.0014133333333","6500100","板橋區"
"220039","288-VK","2018/04/13 13:39:33","新北市板橋區民生路二段120號","121.470528333333","25.0198366666667","6500100","板橋區"
"220009","293-UM","2018/04/13 13:39:44","新北市板橋區民生路二段120號","121.470535","25.01978","6500100","板橋區"
"220023","303-R5","2018/04/13 13:39:41","新北市板橋區華東街260號","121.452606666667","25.0020016666667","6500100","板橋區"
"220010","305-R5","2018/04/13 13:39:48","新北市板橋區民生路二段120號","121.470471666667","25.01972","6500100","板橋區"
"220012","486-VK","2018/04/13 13:39:54","新北市板橋區板新路230號","121.468311666667","25.0163616666667","6500100","板橋區"
"220104","560-BX","2018/04/13 13:39:33","新北市板橋區南雅西路二段145巷10號","121.451578333333","25.0118966666667","6500100","板橋區"
"220052","561-BX","2018/04/13 13:39:40","新北市板橋區民生路二段161巷3號","121.470188333333","25.0198283333333","6500100","板橋區"
"220032","568-UM","2018/04/13 13:39:48","新北市板橋區大觀路二段251號","121.443275","24.9992083333333","6500100","板橋區"
"220005","686-BX","2018/04/13 13:39:49","新北市板橋區華東街1-9號","121.448233333333","24.9949133333333","6500100","板橋區"
"220002","741-BX","2018/04/13 13:39:45","新北市板橋區華東街1-9號","121.448076666667","24.9949016666667","6500100","板橋區"
"220003","827-TW","2018/04/13 13:39:41","新北市板橋區華東街1-9號","121.448165","24.99492","6500100","板橋區"
"220022","895-R6","2018/04/13 13:39:51","新北市板橋區南雅南路一段42號","121.455855","25.0061466666667","6500100","板橋區"
"220021","985-R7","2018/04/13 13:39:48","新北市板橋區南雅南路二段116號","121.453203333333","25.000325","6500100","板橋區"
"220046","AAC-210","2018/04/13 13:37:52","新北市板橋區民生路二段188號","121.470063333333","25.02024","6500100","板橋區"
"220025","AAC-253","2018/04/13 13:39:39","新北市板橋區大觀路三段129號","121.432651666667","24.994095","6500100","板橋區"
