"lineid","car","time","location","longitude","latitude","cityid","cityname"
"234068","149-BY","2018/04/13 13:59:41","新北市永和區國光路16號","121.519008333333","25.00835","6500400","永和區"
"234005","207-UY","2018/04/13 13:59:40","新北市永和區中和路309號","121.506803333333","24.9996283333333","6500400","永和區"
"234078","298-R6","2018/04/13 13:59:52","新北市永和區國中路12號","121.524351666667","25.0049566666667","6500400","永和區"
"234036","336-UY","2018/04/13 13:59:45","新北市永和區成功路二段117號","121.52669","24.9985916666667","6500400","永和區"
"234062","337-UY","2018/04/13 13:59:46","新北市永和區中正路412巷18號","121.518521666667","25.0020416666667","6500400","永和區"
"234084","338-UY","2018/04/13 13:59:53","新北市永和區福和路96號","121.522376666667","25.0080266666667","6500400","永和區"
"234066","553-UM","2018/04/13 13:59:41","新北市永和區永貞路356號","121.510293333333","25.0065516666667","6500400","永和區"
"234015","745-BX","2018/04/13 13:59:43","新北市永和區文化路86號","121.513866666667","25.015245","6500400","永和區"
"234028","746-BX","2018/04/13 13:59:53","新北市永和區四維街89巷2弄1號","121.524486666667","24.9977133333333","6500400","永和區"
"234052","KEA-2590","2018/04/13 13:59:49","新北市永和區竹林路39巷46號","121.520205","25.01527","6500400","永和區"
"234012","KEA-2591","2018/04/13 13:59:51","新北市永和區保順路11號","121.504721666667","25.009575","6500400","永和區"
"234060","AAD-866","2018/04/13 13:59:43","新北市永和區中正路151巷8弄2號","121.51598","24.9986316666667","6500400","永和區"
"234044","847-RS","2018/04/13 13:59:50","新北市永和區成功路一段115號","121.527058333333","25.0021216666667","6500400","永和區"
"234040","862-TW","2018/04/13 13:59:51","新北市永和區中和路421巷5弄19號","121.508473333333","25.0007866666667","6500400","永和區"
"234048","863-TW","2018/04/13 13:59:39","新北市永和區永平路247號","121.506598333333","25.01278","6500400","永和區"
"234025","9371-KE","2018/04/13 13:59:56","新北市永和區安樂路461號","121.514383333333","25.0052683333333","6500400","永和區"
"234010","9373-KE","2018/04/13 13:59:43","新北市永和區仁愛路352巷112弄15號","121.50106","25.0085916666667","6500400","永和區"
"248019","225-UY","2018/04/13 13:59:23","新北市五股區凌雲路三段57號","121.425323333333","25.1250266666667","6501500","五股區"
"234022","9380-KE","2018/04/13 13:59:47","新北市永和區永和路二段259號","121.515918333333","25.0153616666667","6500400","永和區"
"234076","969-R7","2018/04/13 13:59:37","新北市永和區民權路58巷3號","121.519633333333","24.9983083333333","6500400","永和區"
"234072","AAC-211","2018/04/13 13:59:33","新北市永和區豫溪街187巷1號","121.522488333333","25.0104316666667","6500400","永和區"
"234001","AAC-295","2018/04/13 13:59:52","新北市永和區福和路334號","121.51534","25.0073516666667","6500400","永和區"
"244004","248-BX","2018/04/13 13:59:53","新北市林口區信義路58-2號","121.382836666667","25.078615","6501700","林口區"
"231002","002-UM","2018/04/13 13:59:49","新北市新店區中正路608號","121.53389","24.9884516666667","6500600","新店區"
"231027","0293-UT","2018/04/13 13:59:41","新北市新店區中興路一段24號","121.53864","24.9583333333333","6500600","新店區"
"231028","046-UY","2018/04/13 13:59:53","新北市新店區安和路三段46號","121.51798","24.9819183333333","6500600","新店區"
"231001","047-UY","2018/04/13 13:59:45","新北市新店區三民路45號","121.537118333333","24.970925","6500600","新店區"
"231005","106-UY","2018/04/13 13:59:42","新北市新店區中興路三段245號","121.542821666667","24.9837816666667","6500600","新店區"
"231022","110-UY","2018/04/13 13:59:50","新北市新店區新烏路二段124號","121.54941","24.921195","6500600","新店區"
"231012","187-VK","2018/04/13 13:59:47","新北市新店區中興路二段37號","121.546245","24.9697933333333","6500600","新店區"
"231010","188-VK","2018/04/13 13:59:42","新北市新店區安康路一段35號","121.531858333333","24.960785","6500600","新店區"
"231023","KEA-2219","2018/04/13 13:59:43","新北市新店區文中路39巷2號","121.53939","24.9568566666667","6500600","新店區"
"231026","256-BX","2018/04/13 13:59:35","新北市新店區環河路182-3號","121.533828333333","24.9700566666667","6500600","新店區"
"231035","260-TV","2018/04/13 13:59:51","新北市新店區安和路一段55號","121.51755","24.9661266666667","6500600","新店區"
"231018","278-BY","2018/04/13 13:59:41","新北市新店區中央路97號","121.53113","24.97507","6500600","新店區"
"231016","AAD-862","2018/04/13 13:59:41","新北市新店區北宜路二段106號","121.55568","24.9537133333333","6500600","新店區"
"231038","3713-VJ","2018/04/13 13:59:49","新北市新店區溪洲路101-1號","121.532666666667","24.9621883333333","6500600","新店區"
"231037","4716-K9","2018/04/13 13:59:53","新北市新店區安康路三段170號","121.489651666667","24.9518233333333","6500600","新店區"
"231025","4715-K9","2018/04/13 13:59:41","新北市新店區中正路328巷3號","121.537083333333","24.97521","6500600","新店區"
"231036","512-UM","2018/04/13 13:59:45","新北市新店區安祥路109巷1弄39號","121.47693","24.9603583333333","6500600","新店區"
"231013","513-UM","2018/04/13 13:59:50","新北市新店區明德路70號","121.54145","24.9797666666667","6500600","新店區"
"231006","617-UM","2018/04/13 13:59:48","新北市新店區北宜路二段211號","121.553215","24.9533583333333","6500600","新店區"
"231030","618-UM","2018/04/13 13:59:43","新北市新店區吉安街37-1號","121.515735","24.9661533333333","6500600","新店區"
"231034","641-BX","2018/04/13 13:59:53","新北市新店區達觀路24號","121.50179","24.94085","6500600","新店區"
"231003","645-TV","2018/04/13 13:59:55","新北市新店區中興路一段81號","121.54068","24.9615416666667","6500600","新店區"
"231032","720-UM","2018/04/13 13:59:45","新北市新店區華城路6-1號","121.529358333333","24.9585433333333","6500600","新店區"
"231029","897-TW","2018/04/13 13:59:50","新北市新店區安康路二段87號","121.51345","24.9629016666667","6500600","新店區"
"231004","899-TW","2018/04/13 13:59:43","新北市新店區北新路二段137號","121.542881666667","24.9755716666667","6500600","新店區"
"231024","AKT-0513","2018/04/13 13:59:34","新北市新店區中華路83巷67號","121.538313333333","24.9672933333333","6500600","新店區"
"235030","003-UY","2018/04/13 13:59:34","新北市中和區水源路7巷3號","121.50354","25.00351","6500300","中和區"
"235028","005-UY","2018/04/13 13:59:37","新北市中和區泰和街44巷22號","121.49856","25.000615","6500300","中和區"
"235027","006-UY","2018/04/13 13:59:52","新北市中和區中正路602號","121.485748333333","24.9953316666667","6500300","中和區"
"235020","096-UM","2018/04/13 13:59:41","新北市板橋區三民路二段228號","121.478746666667","25.011345","6500300","中和區"
"235003","097-UM","2018/04/13 13:59:51","新北市中和區自立路58巷5號","121.523538333333","24.9914383333333","6500300","中和區"
"235029","098-UM","2018/04/13 13:59:36","新北市中和區中山路二段2巷83號","121.500973333333","25.0076433333333","6500300","中和區"
"235004","150-BY","2018/04/13 13:59:46","新北市中和區保健路63號","121.509593333333","24.9973066666667","6500300","中和區"
"235022","151-BY","2018/04/13 13:59:35","新北市中和區員山路143巷2號","121.480785","24.9961533333333","6500300","中和區"
"235019","183-VK","2018/04/13 13:59:42","新北市中和區中山路三段229巷3號","121.470771666667","25.0064166666667","6500300","中和區"
"235002","185-VK","2018/04/13 13:59:50","新北市中和區立人街32號","121.518421666667","24.9941316666667","6500300","中和區"
"235013","186-VK","2018/04/13 13:59:54","新北市中和區明仁街20號","121.5065","24.995305","6500300","中和區"
"235031","255-BX","2018/04/13 13:59:42","新北市中和區新生街209號","121.483905","24.99981","6500300","中和區"
"235008","293-VK","2018/04/13 13:59:47","新北市中和區中興街161巷6弄1號","121.500796666667","24.9909133333333","6500300","中和區"
"235036","301-VK","2018/04/13 13:59:41","新北市中和區中山路二段189號","121.500243333333","25.0027866666667","6500300","中和區"
"235043","352-BY","2018/04/13 13:59:45","新北市中和區成功路41巷1號","121.526155","24.993375","6500300","中和區"
"235032","377-QA","2018/04/13 13:59:49","新北市中和區安邦街83號","121.496996666667","24.9965533333333","6500300","中和區"
"235025","378-QA","2018/04/13 13:59:52","新北市中和區中山路三段63巷9號","121.477088333333","25.004515","6500300","中和區"
"235024","269-TV","2018/04/13 13:59:50","新北市中和區中山路三段148號","121.473551666667","25.0062416666667","6500300","中和區"
"235014","4979-A6","2018/04/13 13:59:55","新北市中和區華新街50巷7號","121.507633333333","24.98392","6500300","中和區"
"235033","4980-A6","2018/04/13 13:59:42","新北市中和區景平路604號","121.500733333333","24.996535","6500300","中和區"
"235006","551-UM","2018/04/13 13:59:51","新北市中和區秀朗路三段22巷8號","121.525953333333","24.9962833333333","6500300","中和區"
"235009","565-BX","2018/04/13 13:59:36","新北市中和區景新街467巷20弄86號","121.514401666667","24.9875966666667","6500300","中和區"
"235018","640-BX","2018/04/13 13:59:41","新北市中和區民享街77號","121.47427","25.0018616666667","6500300","中和區"
"235011","732-UM","2018/04/13 13:59:40","新北市中和區興南路二段32巷5號","121.50721","24.9854866666667","6500300","中和區"
"235010","733-UM","2018/04/13 13:59:46","新北市中和區興南路一段135巷17號","121.509371666667","24.987045","6500300","中和區"
"235035","783-BX","2018/04/13 13:59:46","新北市中和區立德街7巷14號","121.489895","25.0061766666667","6500300","中和區"
"235026","800-TS","2018/04/13 13:59:37","新北市中和區中山路二段366巷10號","121.491958333333","25.0042033333333","6500300","中和區"
"235021","801-TS","2018/04/13 13:59:42","新北市中和區民安街65巷4號","121.478678333333","24.9994183333333","6500300","中和區"
"235016","805-TS","2018/04/13 13:59:48","新北市中和區興南路二段131-10號","121.504056666667","24.98084","6500300","中和區"
"235012","896-TW","2018/04/13 13:59:44","新北市中和區華新街34號","121.507871666667","24.9843416666667","6500300","中和區"
"235017","900-TW","2018/04/13 13:59:49","新北市中和區和平路200巷35弄1號","121.465296666667","24.9946766666667","6500300","中和區"
"235034","911-UM","2018/04/13 13:59:51","新北市中和區安和路159號","121.506228333333","24.997445","6500300","中和區"
"235001","157-BY","2018/04/13 13:59:41","新北市中和區興南路一段93巷89弄3號","121.510825","24.98601","6500300","中和區"
"235001","AAC-213","2018/04/13 13:59:53","新北市中和區秀朗路三段10巷14弄39號","121.524133333333","24.9961816666667","6500300","中和區"
"235023","AAC-215","2018/04/13 13:59:39","新北市中和區圓通路367巷20弄31號","121.491288333333","24.9880816666667","6500300","中和區"
"220016","013-TV","2018/04/13 13:59:52","新北市板橋區中山路二段465巷60號","121.481161666667","25.021825","6500100","板橋區"
"220004","015-TV","2018/04/13 13:43:10","新北市板橋區四川路二段245巷38弄11號","121.451911666667","24.9922066666667","6500100","板橋區"
"220013","072-UY","2018/04/13 13:59:45","新北市板橋區漢生東路336號","121.47173","25.007505","6500100","板橋區"
"220034","073-UY","2018/04/13 13:59:54","新北市板橋區中正路236巷21號","121.456886666667","25.0191983333333","6500100","板橋區"
"220105","075-UY","2018/04/13 13:59:34","新北市板橋區莊敬路66號","121.47171","25.0254383333333","6500100","板橋區"
"220017","AAD-861","2018/04/13 13:59:51","新北市板橋區華興街90號","121.45681","25.0055533333333","6500100","板橋區"
"247013","546-UM","2018/04/13 13:59:53","新北市蘆洲區中正路116號","121.469441666667","25.0846566666667","6501400","蘆洲區"
"247009","341-TH","2018/04/13 13:59:43","新北市蘆洲區集賢路224巷12號","121.481953333333","25.0868816666667","6501400","蘆洲區"
"247011","339-TH","2018/04/13 13:59:40","新北市蘆洲區民族路150號","121.479478333333","25.086115","6501400","蘆洲區"
"247003","337-TH","2018/04/13 13:59:46","新北市蘆洲區長榮路20號","121.463701666667","25.0822133333333","6501400","蘆洲區"
"247005","336-TH","2018/04/13 13:59:39","新北市蘆洲區九芎街71巷33號","121.466151666667","25.07763","6501400","蘆洲區"
"247017","057-VK","2018/04/13 13:59:52","新北市蘆洲區民族路327巷136號","121.475281666667","25.08936","6501400","蘆洲區"
"247007","056-VK","2018/04/13 13:59:44","新北市蘆洲區重陽街42-1號","121.480998333333","25.082375","6501400","蘆洲區"
"247015","007-UY","2018/04/13 13:59:44","新北市蘆洲區光華路40號","121.468911666667","25.08323","6501400","蘆洲區"
"247001","002-UY","2018/04/13 13:59:49","新北市蘆洲區三民路605號","121.460626666667","25.0937083333333","6501400","蘆洲區"
"247019","001-UY","2018/04/13 13:59:39","新北市蘆洲區民族路422巷82弄2號","121.47365","25.0937433333333","6501400","蘆洲區"
"235005","251-BX","2018/04/13 13:59:45","新北市中和區中安街54號","121.512725","25.0024066666667","6500300","中和區"
"207002","749-BX","2018/04/13 13:59:38","新北市萬里區溪底里溪底路9-1號","121.618123333333","25.14878","6502800","萬里區"
"207001","662-BX","2018/04/13 13:59:46","新北市萬里區磺潭里清水18號","121.637781666667","25.1978466666667","6502800","萬里區"
"236067","105-UM","2018/04/13 13:59:41","新北市土城區和平路42號","121.444963333333","24.970685","6501300","土城區"
"236040","107-UM","2018/04/13 13:59:40","新北市土城區明德路二段72-3號","121.446831666667","24.9836716666667","6501300","土城區"
"236077","166-UM","2018/04/13 13:59:46","新北市土城區永寧路32巷10弄23號","121.428885","24.9610883333333","6501300","土城區"
"236029","253-BX","2018/04/13 13:59:44","新北市土城區城林路6巷80號","121.438506666667","24.9797966666667","6501300","土城區"
"236024","269-VK","2018/04/13 13:59:44","新北市土城區承天路18號","121.439415","24.9635866666667","6501300","土城區"
"236013","270-VK","2018/04/13 13:59:46","新北市土城區城林路6巷80號","121.43856","24.9797066666667","6501300","土城區"
"236032","271-VK","2018/04/13 13:59:40","新北市土城區城林路6巷80號","121.438485","24.979825","6501300","土城區"
"236016","401-BY","2018/04/13 13:59:40","新北市土城區城林路6巷80號","121.438555","24.9797733333333","6501300","土城區"
"236006","498-BY","2018/04/13 13:59:44","新北市土城區中央路一段365巷10號","121.443698333333","24.980845","6501300","土城區"
"236057","912-UM","2018/04/13 13:59:52","新北市土城區中央路三段244巷5號","121.427818333333","24.96428","6501300","土城區"
"236045","913-UM","2018/04/13 13:59:48","新北市土城區中正路78號","121.444675","24.9755633333333","6501300","土城區"
"236060","915-UM","2018/04/13 13:59:40","新北市土城區城林路6巷80號","121.438418333333","24.979785","6501300","土城區"
"236054","AAC-216","2018/04/13 13:59:51","新北市土城區城林路6巷80號","121.438235","24.9795233333333","6501300","土城區"
"220027","145-BY","2018/04/13 13:59:38","新北市板橋區民權路260巷1弄8號","121.45818","25.0158283333333","6500100","板橋區"
"220028","200-UY","2018/04/13 13:59:52","新北市板橋區大觀路二段19巷113號","121.45046","25.0027316666667","6500100","板橋區"
"220030","610-BX","2018/04/13 13:59:52","新北市板橋區溪北路23號","121.427043333333","24.9902933333333","6500100","板橋區"
"220050","245-BX","2018/04/13 13:59:49","新北市板橋區文化路二段182巷7弄3號","121.472041666667","25.0269783333333","6500100","板橋區"
"220040","267-BY","2018/04/13 13:59:49","新北市板橋區雙十路二段47巷5-1號","121.476143333333","25.0260233333333","6500100","板橋區"
"220020","277-BY","2018/04/13 13:59:45","新北市板橋區大觀路三段50巷59號","121.43184","24.9960266666667","6500100","板橋區"
"220018","282-UM","2018/04/13 13:59:40","新北市板橋區四川路一段489號","121.45706","24.9972766666667","6500100","板橋區"
"220019","283-VK","2018/04/13 13:59:38","新北市板橋區重慶路245巷52弄2號","121.465456666667","25.00055","6500100","板橋區"
"220043","285-UM","2018/04/13 13:59:37","新北市板橋區文化路二段49號","121.468995","25.02517","6500100","板橋區"
"220001","285-VK","2018/04/13 13:59:52","新北市板橋區永豐街53號","121.474116666667","25.0180716666667","6500100","板橋區"
"220031","286-VK","2018/04/13 13:59:43","新北市板橋區龍興街99巷1號","121.44419","25.0029366666667","6500100","板橋區"
"220029","287-VK","2018/04/13 13:59:47","新北市板橋區光華街19巷6號","121.453723333333","25.0121616666667","6500100","板橋區"
"220039","288-VK","2018/04/13 13:59:33","新北市板橋區四維路177巷1弄2號","121.4641","25.026185","6500100","板橋區"
"220009","293-UM","2018/04/13 13:59:53","新北市板橋區富山街100號","121.476333333333","25.0219716666667","6500100","板橋區"
"220023","303-R5","2018/04/13 13:59:41","新北市板橋區南雅西路二段12號","121.453371666667","25.0092883333333","6500100","板橋區"
"220010","305-R5","2018/04/13 13:59:48","新北市板橋區三民路二段253-1號","121.479013333333","25.0116433333333","6500100","板橋區"
"220041","307-R5","2018/04/13 13:59:47","新北市板橋區文化路一段104巷13號","121.465281666667","25.01813","6500100","板橋區"
"220047","317-R6","2018/04/13 13:59:48","新北市板橋區民有街36號","121.466048333333","25.0255983333333","6500100","板橋區"
"220012","486-VK","2018/04/13 13:59:54","新北市板橋區板新路119號","121.471365","25.0149816666667","6500100","板橋區"
"220037","491-VK","2018/04/13 13:59:56","新北市板橋區文化路二段19號","121.4688","25.0244833333333","6500100","板橋區"
"220104","560-BX","2018/04/13 13:59:53","新北市板橋區中正路379巷1弄30號","121.453173333333","25.02172","6500100","板橋區"
"220052","561-BX","2018/04/13 13:59:42","新北市板橋區縣民大道二段279號","121.470075","25.0177766666667","6500100","板橋區"
"220032","568-UM","2018/04/13 13:59:48","新北市板橋區篤行路一段16號","121.431356666667","24.995555","6500100","板橋區"
"220011","609-BX","2018/04/13 13:59:46","新北市板橋區中山路二段237號","121.47704","25.01741","6500100","板橋區"
"220005","686-BX","2018/04/13 13:59:49","新北市板橋區重慶路40號","121.461403333333","25.0075766666667","6500100","板橋區"
"220042","689-BX","2018/04/13 13:59:51","新北市板橋區民生路三段54號","121.46719","25.02522","6500100","板橋區"
"220002","741-BX","2018/04/13 13:59:45","新北市板橋區重慶路139巷15號","121.463458333333","25.0045766666667","6500100","板橋區"
"220051","KEA-2699","2018/04/13 13:59:39","新北市板橋區懷德街235巷2-1號","121.481383333333","25.0280333333333","6500100","板橋區"
"220003","827-TW","2018/04/13 13:59:44","新北市板橋區中山路一段158巷31號","121.466723333333","25.0111166666667","6500100","板橋區"
"220014","830-TW","2018/04/13 13:59:54","新北市板橋區三民路二段正隆巷17號","121.477495","25.0131566666667","6500100","板橋區"
"220045","831-TW","2018/04/13 13:59:50","新北市板橋區莒光路123號","121.472683333333","25.0241016666667","6500100","板橋區"
"220038","833-TW","2018/04/13 13:59:54","新北市板橋區文化路二段315號","121.472241666667","25.0296916666667","6500100","板橋區"
"220022","895-R6","2018/04/13 13:59:51","新北市板橋區西門街59號","121.45438","25.0092266666667","6500100","板橋區"
"220021","985-R7","2018/04/13 13:59:48","新北市板橋區中正路69號","121.456343333333","25.013825","6500100","板橋區"
"220046","AAC-210","2018/04/13 13:59:51","新北市板橋區漢生西路17號","121.463636666667","25.0181316666667","6500100","板橋區"
"220025","AAC-253","2018/04/13 13:59:55","新北市板橋區龍興街103巷1號","121.444455","25.0034166666667","6500100","板橋區"
