"lineid","car","time","location","longitude","latitude","cityid","cityname"
"234068","149-BY","2018/04/13 14:19:41","新北市永和區福和路263巷13號","121.518001666667","25.0065333333333","6500400","永和區"
"234005","207-UY","2018/04/13 14:19:40","新北市永和區中正路568號","121.517243333333","25.00621","6500400","永和區"
"234078","298-R6","2018/04/13 14:19:52","新北市永和區國中路146號","121.523096666667","25.0070483333333","6500400","永和區"
"234036","336-UY","2018/04/13 14:19:45","新北市永和區成功路一段108號","121.526728333333","25.002835","6500400","永和區"
"234062","337-UY","2018/04/13 14:19:42","新北市永和區得和路120號","121.518625","25.0001233333333","6500400","永和區"
"234084","338-UY","2018/04/13 14:19:55","新北市永和區永和路二段185號","121.51536","25.0134883333333","6500400","永和區"
"234066","553-UM","2018/04/13 14:19:51","新北市永和區保平路268巷51弄6號","121.506861666667","25.0063033333333","6500400","永和區"
"234015","745-BX","2018/04/13 14:19:42","新北市永和區文化路22號","121.515271666667","25.0151333333333","6500400","永和區"
"234028","746-BX","2018/04/13 14:19:33","新北市永和區民權路49巷8號","121.520605","24.9972","6500400","永和區"
"234052","KEA-2590","2018/04/13 14:19:49","新北市永和區光復街2巷27號","121.517295","25.0166916666667","6500400","永和區"
"234060","AAD-866","2018/04/13 14:19:42","新北市永和區安樂路194巷3號","121.515293333333","25.0012833333333","6500400","永和區"
"234040","862-TW","2018/04/13 14:19:50","新北市永和區安樂路166號","121.514516666667","25.000735","6500400","永和區"
"234048","863-TW","2018/04/13 14:19:37","新北市永和區新生路27號","121.509273333333","25.016635","6500400","永和區"
"234025","9371-KE","2018/04/13 14:19:56","新北市永和區安樂路144巷31號","121.515278333333","24.9997033333333","6500400","永和區"
"248019","225-UY","2018/04/13 13:59:23","新北市五股區凌雲路三段57號","121.425323333333","25.1250266666667","6501500","五股區"
"234022","9380-KE","2018/04/13 14:19:47","新北市永和區竹林路7號","121.516413333333","25.0149316666667","6500400","永和區"
"234076","969-R7","2018/04/13 14:19:37","新北市永和區民族街81巷58號","121.519998333333","24.996505","6500400","永和區"
"234072","AAC-211","2018/04/13 14:19:53","新北市永和區竹林路119巷69號","121.522936666667","25.011585","6500400","永和區"
"234001","AAC-295","2018/04/13 14:19:39","新北市永和區自強街32巷9號","121.516196666667","25.0076283333333","6500400","永和區"
"244004","248-BX","2018/04/13 14:19:53","新北市林口區竹林路269號","121.38951","25.08097","6501700","林口區"
"231002","002-UM","2018/04/13 14:19:49","新北市新店區中央路129號","121.530543333333","24.973995","6500600","新店區"
"231027","0293-UT","2018/04/13 14:19:41","新北市新店區北新路二段228巷3號","121.54312","24.9774316666667","6500600","新店區"
"231028","046-UY","2018/04/13 14:19:53","新北市新店區安和路二段148號","121.519673333333","24.972985","6500600","新店區"
"231001","047-UY","2018/04/13 14:19:45","新北市新店區北新路一段96巷23號","121.542893333333","24.9689366666667","6500600","新店區"
"231005","106-UY","2018/04/13 14:19:42","新北市新店區中興路三段128號","121.544838333333","24.9797083333333","6500600","新店區"
"231022","110-UY","2018/04/13 14:19:41","新北市新店區桂山路81巷3號","121.566668333333","24.8972366666667","6500600","新店區"
"231012","187-VK","2018/04/13 14:19:47","新北市新店區五峰路63巷10號","121.546443333333","24.9685133333333","6500600","新店區"
"231023","KEA-2219","2018/04/13 14:19:43","新北市新店區光明街138巷6號","121.539701666667","24.9611916666667","6500600","新店區"
"231035","260-TV","2018/04/13 14:19:54","新北市新店區安和路二段117巷10號","121.51827","24.970265","6500600","新店區"
"231018","278-BY","2018/04/13 14:19:41","新北市新店區中央二街58號","121.526895","24.97448","6500600","新店區"
"231016","AAD-862","2018/04/13 14:19:41","新北市新店區北宜路二段392巷2號","121.56533","24.9533033333333","6500600","新店區"
"231038","3713-VJ","2018/04/13 14:19:48","新北市新店區溪洲路6巷32號","121.533878333333","24.9626383333333","6500600","新店區"
"231037","4716-K9","2018/04/13 14:19:53","新北市新店區車子路67號","121.503691666667","24.951315","6500600","新店區"
"231025","4715-K9","2018/04/13 14:19:41","新北市新店區自立街34號","121.538501666667","24.9785433333333","6500600","新店區"
"231036","512-UM","2018/04/13 14:19:45","新北市新店區安祥路109巷151弄1號","121.478033333333","24.958545","6500600","新店區"
"231013","513-UM","2018/04/13 14:19:50","新北市新店區民權路108-1號","121.536065","24.983585","6500600","新店區"
"231006","617-UM","2018/04/13 14:19:48","新北市新店區北宜路二段599號","121.568215","24.95556","6500600","新店區"
"231030","618-UM","2018/04/13 14:19:43","新北市新店區安光路10-1號","121.513608333333","24.9641366666667","6500600","新店區"
"231034","641-BX","2018/04/13 14:19:53","新北市新店區車子路11號","121.503065","24.9520833333333","6500600","新店區"
"231003","645-TV","2018/04/13 14:19:35","新北市新店區中興路一段216號","121.543973333333","24.96567","6500600","新店區"
"231032","720-UM","2018/04/13 14:19:45","新北市新店區溪洲路202-12號","121.528788333333","24.9682716666667","6500600","新店區"
"231029","897-TW","2018/04/13 14:19:50","新北市新店區安康路二段233號","121.508323333333","24.958655","6500600","新店區"
"231004","899-TW","2018/04/13 14:19:43","新北市新店區中正路179號","121.540831666667","24.9721766666667","6500600","新店區"
"231024","AKT-0513","2018/04/13 14:19:34","新北市新店區中華路83巷67號","121.538296666667","24.9672933333333","6500600","新店區"
"235030","003-UY","2018/04/13 14:19:54","新北市中和區枋寮街2號","121.502461666667","24.9999233333333","6500300","中和區"
"235028","005-UY","2018/04/13 14:19:37","新北市中和區連城路2號","121.499293333333","25.0023366666667","6500300","中和區"
"235027","006-UY","2018/04/13 14:19:52","新北市中和區連勝街121巷9號","121.495205","24.99449","6500300","中和區"
"235020","096-UM","2018/04/13 14:19:56","新北市中和區民富街40號","121.476815","25.0067566666667","6500300","中和區"
"235003","097-UM","2018/04/13 14:19:51","新北市中和區秀峰街103巷3弄4號","121.520593333333","24.9899016666667","6500300","中和區"
"235029","098-UM","2018/04/13 14:19:56","新北市中和區福美路269號","121.498155","25.0050166666667","6500300","中和區"
"235004","150-BY","2018/04/13 14:19:46","新北市中和區安平路82號","121.511171666667","24.996715","6500300","中和區"
"235022","151-BY","2018/04/13 14:19:55","新北市中和區連城路324號","121.483313333333","24.9959583333333","6500300","中和區"
"235019","183-VK","2018/04/13 14:19:42","新北市中和區民享街2巷8號","121.472946666667","25.0056066666667","6500300","中和區"
"235002","185-VK","2018/04/13 14:19:49","新北市中和區大仁街36號","121.517816666667","24.99357","6500300","中和區"
"235013","186-VK","2018/04/13 14:19:54","新北市中和區景新街230巷3號","121.508181666667","24.9940616666667","6500300","中和區"
"235031","255-BX","2018/04/13 14:19:42","新北市中和區新生街164號","121.483636666667","25.00022","6500300","中和區"
"235008","293-VK","2018/04/13 14:19:47","新北市中和區中興街266巷1號","121.498368333333","24.9876683333333","6500300","中和區"
"235036","301-VK","2018/04/13 14:19:41","新北市中和區中山路二段3巷22弄38號","121.505733333333","25.00411","6500300","中和區"
"235043","352-BY","2018/04/13 14:19:45","新北市中和區景平路296號","121.513043333333","24.9925733333333","6500300","中和區"
"235032","377-QA","2018/04/13 14:19:49","新北市中和區枋寮街29號","121.50182","25.0004216666667","6500300","中和區"
"235025","378-QA","2018/04/13 14:19:38","新北市中和區民利街61巷15號","121.478786666667","24.998175","6500300","中和區"
"235024","269-TV","2018/04/13 14:19:50","新北市中和區民治街22號","121.475111666667","25.0042416666667","6500300","中和區"
"235014","4979-A6","2018/04/13 14:19:35","新北市中和區景安路208巷4號","121.503751666667","24.99111","6500300","中和區"
"235033","4980-A6","2018/04/13 14:19:42","新北市中和區景平路736巷3弄3號","121.497288333333","25.0037216666667","6500300","中和區"
"235006","551-UM","2018/04/13 14:19:51","新北市永和區中正路198號","121.51569","24.9972533333333","6500300","中和區"
"235009","565-BX","2018/04/13 14:19:36","新北市中和區景新街423巷35弄23號","121.513895","24.9905233333333","6500300","中和區"
"235018","640-BX","2018/04/13 14:19:41","新北市中和區國光街111號","121.46995","25.0004916666667","6500300","中和區"
"235011","732-UM","2018/04/13 14:19:40","新北市中和區景平路241巷53號","121.508148333333","24.9921633333333","6500300","中和區"
"235010","733-UM","2018/04/13 14:19:46","新北市中和區忠孝街2巷2-5號","121.510036666667","24.9824733333333","6500300","中和區"
"235035","783-BX","2018/04/13 14:19:46","新北市中和區立德街72巷18號","121.487796666667","25.0081883333333","6500300","中和區"
"235026","800-TS","2018/04/13 14:19:37","新北市中和區中山路二段365號","121.487671666667","25.00473","6500300","中和區"
"235021","801-TS","2018/04/13 14:19:42","新北市中和區員山路204號","121.481365","25.000685","6500300","中和區"
"235016","805-TS","2018/04/13 14:19:48","新北市中和區興南路二段142巷17弄8號","121.503188333333","24.9832316666667","6500300","中和區"
"235012","896-TW","2018/04/13 14:19:44","新北市中和區華新街109巷1弄1號","121.508696666667","24.982625","6500300","中和區"
"235017","900-TW","2018/04/13 14:19:40","新北市中和區華安街17巷5號","121.466723333333","24.9982433333333","6500300","中和區"
"235034","911-UM","2018/04/13 14:19:51","新北市中和區中山路二段228號","121.498898333333","25.00281","6500300","中和區"
"235001","157-BY","2018/04/13 14:19:41","新北市中和區中興街132巷26號","121.498751666667","24.9916916666667","6500300","中和區"
"235001","AAC-213","2018/04/13 14:19:53","新北市中和區自立路15巷8號","121.522826666667","24.9959633333333","6500300","中和區"
"235023","AAC-215","2018/04/13 14:19:39","新北市中和區圓通路286巷10號","121.491611666667","24.9912266666667","6500300","中和區"
"220016","013-TV","2018/04/13 14:19:57","新北市板橋區萬安街146號","121.48325","25.0263466666667","6500100","板橋區"
"220013","072-UY","2018/04/13 14:19:56","新北市板橋區國泰街75巷7號","121.467613333333","25.0062016666667","6500100","板橋區"
"220034","073-UY","2018/04/13 14:19:54","新北市板橋區中正路216巷12號","121.456463333333","25.0183683333333","6500100","板橋區"
"220105","075-UY","2018/04/13 14:19:54","新北市板橋區雙十路三段10巷29號","121.472545","25.0314833333333","6500100","板橋區"
"220017","AAD-861","2018/04/13 14:19:40","新北市板橋區貴興路49號","121.45731","25.0032466666667","6500100","板橋區"
"247023","893-R6","2018/04/13 14:19:36","新北市蘆洲區長榮路703號","121.460981666667","25.0929316666667","6501400","蘆洲區"
"247013","546-UM","2018/04/13 14:19:53","新北市蘆洲區中山二路137巷33號","121.472596666667","25.080605","6501400","蘆洲區"
"247021","500-BY","2018/04/13 14:19:49","新北市蘆洲區仁愛街230巷16號","121.464228333333","25.0944733333333","6501400","蘆洲區"
"247009","341-TH","2018/04/13 14:19:43","新北市蘆洲區鷺江街69號","121.47724","25.0828","6501400","蘆洲區"
"247011","339-TH","2018/04/13 14:19:39","新北市蘆洲區民族路86-2號","121.474821666667","25.0846166666667","6501400","蘆洲區"
"247003","337-TH","2018/04/13 14:19:46","新北市蘆洲區長安街172巷35弄15號","121.46025","25.0846066666667","6501400","蘆洲區"
"247005","336-TH","2018/04/13 14:19:53","新北市蘆洲區長安街23巷10號","121.463666666667","25.0787783333333","6501400","蘆洲區"
"247017","057-VK","2018/04/13 14:19:52","新北市蘆洲區民權路140號","121.472951666667","25.0890733333333","6501400","蘆洲區"
"247007","056-VK","2018/04/13 14:19:44","新北市蘆洲區信義路37巷22號","121.474205","25.0801066666667","6501400","蘆洲區"
"247015","007-UY","2018/04/13 14:19:24","新北市蘆洲區中正路185巷31弄1號","121.466425","25.0842683333333","6501400","蘆洲區"
"247001","002-UY","2018/04/13 14:19:49","新北市蘆洲區永樂街52號","121.457565","25.0885283333333","6501400","蘆洲區"
"247019","001-UY","2018/04/13 14:19:39","新北市蘆洲區仁愛街37號","121.472175","25.0928783333333","6501400","蘆洲區"
"235005","251-BX","2018/04/13 14:19:44","新北市中和區宜安路96號","121.51063","24.9977116666667","6500300","中和區"
"207002","749-BX","2018/04/13 14:19:47","新北市萬里區溪底里溪底路6-2號","121.61639","25.1508666666667","6502800","萬里區"
"207001","662-BX","2018/04/13 14:19:46","新北市萬里區磺潭里清水18號","121.63773","25.197835","6502800","萬里區"
"236067","105-UM","2018/04/13 14:19:41","新北市土城區明德路一段128巷1號","121.463528333333","24.9791916666667","6501300","土城區"
"236040","107-UM","2018/04/13 14:19:50","新北市土城區裕生路21巷2弄29號","121.448175","24.986135","6501300","土城區"
"236077","166-UM","2018/04/13 14:19:47","新北市土城區永平街2巷10號","121.426898333333","24.96317","6501300","土城區"
"236029","253-BX","2018/04/13 14:19:44","新北市土城區順風路66號","121.440353333333","24.9776266666667","6501300","土城區"
"236024","269-VK","2018/04/13 14:19:44","新北市土城區承天路67號","121.439551666667","24.96347","6501300","土城區"
"236013","270-VK","2018/04/13 14:19:46","新北市土城區青雲路39巷7號","121.46031","24.9875466666667","6501300","土城區"
"236032","271-VK","2018/04/13 14:19:45","新北市土城區青雲路451巷8弄9號","121.459591666667","24.9744316666667","6501300","土城區"
"236016","401-BY","2018/04/13 14:19:40","新北市土城區明德路一段137-4號","121.465485","24.981255","6501300","土城區"
"236006","498-BY","2018/04/13 14:19:44","新北市土城區中華路一段50號","121.446128333333","24.989105","6501300","土城區"
"236057","912-UM","2018/04/13 14:19:52","新北市土城區中央路四段448號","121.410595","24.95131","6501300","土城區"
"236045","913-UM","2018/04/13 14:19:47","新北市土城區明德路一段375-2號","121.45456","24.978295","6501300","土城區"
"236060","915-UM","2018/04/13 14:19:40","新北市土城區延壽路44巷15號","121.471523333333","24.99306","6501300","土城區"
"236054","AAC-216","2018/04/13 14:19:51","新北市土城區中華路二段195號","121.438276666667","24.9742033333333","6501300","土城區"
"220027","145-BY","2018/04/13 14:19:42","新北市板橋區民權路202巷17號","121.460586666667","25.0166266666667","6500100","板橋區"
"220028","200-UY","2018/04/13 14:19:52","新北市板橋區大觀路二段7巷109-4號","121.450625","25.0028933333333","6500100","板橋區"
"220030","610-BX","2018/04/13 14:19:36","新北市板橋區溪城路93號","121.427131666667","24.9829283333333","6500100","板橋區"
"220050","245-BX","2018/04/13 14:19:49","新北市板橋區莊敬路61號","121.473868333333","25.026905","6500100","板橋區"
"220040","267-BY","2018/04/13 14:19:50","新北市板橋區文聖街144號","121.478555","25.02787","6500100","板橋區"
"220020","277-BY","2018/04/13 14:19:45","新北市板橋區金門街317巷10號","121.430218333333","24.985675","6500100","板橋區"
"220018","282-UM","2018/04/13 14:19:53","新北市板橋區四川路一段89號","121.45965","25.0056833333333","6500100","板橋區"
"220019","283-VK","2018/04/13 14:19:50","新北市板橋區忠孝路48巷4弄11號","121.46048","25.0005983333333","6500100","板橋區"
"220043","285-UM","2018/04/13 14:19:37","新北市板橋區吳鳳路19巷18號","121.466873333333","25.0307333333333","6500100","板橋區"
"220001","285-VK","2018/04/13 14:19:36","新北市板橋區富山街18巷28號","121.478441666667","25.0229133333333","6500100","板橋區"
"220031","286-VK","2018/04/13 14:19:51","新北市板橋區龍興街71巷52號","121.441638333333","25.0028766666667","6500100","板橋區"
"220029","287-VK","2018/04/13 14:19:46","新北市板橋區南雅西路一段10巷7弄17號","121.45404","25.0043483333333","6500100","板橋區"
"220039","288-VK","2018/04/13 14:19:53","新北市板橋區長江路一段113號","121.459873333333","25.029765","6500100","板橋區"
"220009","293-UM","2018/04/13 14:19:44","新北市板橋區中山路二段320號","121.480968333333","25.01945","6500100","板橋區"
"220023","303-R5","2018/04/13 14:19:41","新北市板橋區南雅南路一段73號","121.455678333333","25.0057366666667","6500100","板橋區"
"220010","305-R5","2018/04/13 14:19:48","新北市板橋區三民路二段153巷36弄1號","121.481245","25.0140166666667","6500100","板橋區"
"220041","307-R5","2018/04/13 14:19:47","新北市板橋區光武街48巷25號","121.467765","25.0268433333333","6500100","板橋區"
"220047","317-R6","2018/04/13 14:19:48","新北市板橋區四維路266巷2弄25-1號","121.464088333333","25.0280933333333","6500100","板橋區"
"220012","486-VK","2018/04/13 14:19:54","新北市板橋區中山路一段104號","121.462823333333","25.0104583333333","6500100","板橋區"
"220037","491-VK","2018/04/13 14:19:40","新北市板橋區雙十路二段85號","121.47573","25.0274716666667","6500100","板橋區"
"220104","560-BX","2018/04/13 14:19:53","新北市板橋區中正路399巷30-1號","121.453021666667","25.0227233333333","6500100","板橋區"
"220052","561-BX","2018/04/13 14:19:40","新北市板橋區文化路一段190號","121.466045","25.0197066666667","6500100","板橋區"
"220032","568-UM","2018/04/13 14:19:48","新北市板橋區金門街324巷14號","121.428076666667","24.98538","6500100","板橋區"
"220011","609-BX","2018/04/13 14:19:46","新北市板橋區三民路二段251號","121.478988333333","25.0121366666667","6500100","板橋區"
"220005","686-BX","2018/04/13 14:19:49","新北市板橋區國慶路192號","121.463255","24.9964","6500100","板橋區"
"220042","689-BX","2018/04/13 14:19:54","新北市板橋區漢生西路26號","121.463561666667","25.01818","6500100","板橋區"
"220002","741-BX","2018/04/13 14:19:45","新北市板橋區光明街86號","121.461835","25.0027583333333","6500100","板橋區"
"220051","KEA-2699","2018/04/13 14:19:39","新北市板橋區文聖街101號","121.477738333333","25.0294566666667","6500100","板橋區"
"220003","827-TW","2018/04/13 14:19:41","新北市板橋區館前東路156巷44號","121.464491666667","25.0065483333333","6500100","板橋區"
"220014","830-TW","2018/04/13 14:19:54","新北市板橋區長安街138巷1弄178號","121.474453333333","25.0105916666667","6500100","板橋區"
"220045","831-TW","2018/04/13 14:19:47","新北市板橋區大同街35巷42號","121.477015","25.0278416666667","6500100","板橋區"
"220038","833-TW","2018/04/13 14:19:34","新北市板橋區文化路一段280-1號","121.467003333333","25.0211533333333","6500100","板橋區"
"220022","895-R6","2018/04/13 14:19:51","新北市板橋區大東街1號","121.456663333333","25.009505","6500100","板橋區"
"220021","985-R7","2018/04/13 14:19:47","新北市板橋區中正路372巷6號","121.454796666667","25.0242183333333","6500100","板橋區"
"220046","AAC-210","2018/04/13 14:19:51","新北市板橋區幸福路60巷54號","121.459806666667","25.022195","6500100","板橋區"
"220025","AAC-253","2018/04/13 14:19:39","新北市板橋區大觀路一段31號","121.449905","25.00849","6500100","板橋區"
