"lineid","car","time","location","longitude","latitude","cityid","cityname"
"234028","746-BX","2018/04/13 15:09:13","新北市永和區中正路581-3號","121.516725","25.0090366666667","6500400","永和區"
"248019","225-UY","2018/04/13 15:09:12","新北市五股區凌雲路三段22號","121.435971666667","25.1041033333333","6501500","五股區"
"244004","248-BX","2018/04/13 15:09:13","新北市林口區竹林路266號","121.389665","25.08078","6501700","林口區"
"231002","002-UM","2018/04/13 15:09:09","新北市新店區中正路543-4號","121.533743333333","24.9875116666667","6500600","新店區"
"231028","046-UY","2018/04/13 15:09:13","新北市新店區僑信路52號","121.499321666667","24.9501766666667","6500600","新店區"
"231001","047-UY","2018/04/13 15:09:25","新北市新店區中正路278號","121.53885","24.973805","6500600","新店區"
"231005","106-UY","2018/04/13 15:09:22","新北市新店區北新路三段152號","121.541701666667","24.9825516666667","6500600","新店區"
"231022","110-UY","2018/04/13 15:09:21","新北市新店區永福路54-2號","121.558243333333","24.92868","6500600","新店區"
"231012","187-VK","2018/04/13 15:09:27","新北市新店區寶元路一段65號","121.54223","24.985835","6500600","新店區"
"231023","KEA-2219","2018/04/13 15:09:23","新北市新店區檳榔路109號","121.544481666667","24.9616233333333","6500600","新店區"
"231026","256-BX","2018/04/13 15:09:07","新北市新店區明德路35號","121.541376666667","24.9759133333333","6500600","新店區"
"231035","260-TV","2018/04/13 15:09:11","新北市新店區安和路三段175號","121.515676666667","24.9863533333333","6500600","新店區"
"231018","278-BY","2018/04/13 15:09:21","新北市新店區中央七街121號","121.525203333333","24.978065","6500600","新店區"
"231016","AAD-862","2018/04/13 15:09:01","新北市新店區明山路2巷1號","121.562951666667","24.9538516666667","6500600","新店區"
"231038","3713-VJ","2018/04/13 15:09:08","新北市新店區安華路28-1號","121.51976","24.9609583333333","6500600","新店區"
"231025","4715-K9","2018/04/13 15:09:21","新北市新店區民權路107-3號","121.536318333333","24.9821216666667","6500600","新店區"
"231036","512-UM","2018/04/13 15:09:04","新北市新店區安祥路104巷6弄46號","121.483365","24.963745","6500600","新店區"
"231006","617-UM","2018/04/13 15:09:08","新北市新店區新坡一街18巷2弄19號","121.548166666667","24.960345","6500600","新店區"
"231030","618-UM","2018/04/13 15:09:23","新北市新店區安民街341-1號","121.516703333333","24.9749083333333","6500600","新店區"
"231034","641-BX","2018/04/13 15:09:13","新北市新店區玫瑰路4-1號","121.493676666667","24.9513966666667","6500600","新店區"
"231003","645-TV","2018/04/13 15:09:15","新北市新店區寶橋路156-2號","121.548643333333","24.9769683333333","6500600","新店區"
"231039","718-UY","2018/04/13 15:09:22","新北市新店區民權路21號","121.541968333333","24.9827366666667","6500600","新店區"
"231032","720-UM","2018/04/13 15:09:26","新北市新店區安泰路70號","121.485246666667","24.947295","6500600","新店區"
"231029","897-TW","2018/04/13 15:09:10","新北市新店區安康路三段738號","121.473765","24.942065","6500600","新店區"
"231004","899-TW","2018/04/13 15:09:23","新北市新店區中正路244號","121.539631666667","24.9733633333333","6500600","新店區"
"231024","AKT-0513","2018/04/13 15:09:14","新北市新店區北新路一段297巷8號","121.541146666667","24.9677366666667","6500600","新店區"
"235030","003-UY","2018/04/13 15:09:14","新北市中和區水源路111號","121.507808333333","25.00324","6500300","中和區"
"235003","097-UM","2018/04/13 15:09:11","新北市中和區安樂路217巷56號","121.513043333333","24.997595","6500300","中和區"
"235004","150-BY","2018/04/13 15:09:06","新北市中和區保健路12號","121.508056666667","24.9980716666667","6500300","中和區"
"235043","352-BY","2018/04/13 15:09:05","新北市中和區興南路二段159巷10號","121.505128333333","24.9832466666667","6500300","中和區"
"235032","377-QA","2018/04/13 15:08:49","新北市中和區錦和路142巷3號","121.489071666667","24.9974716666667","6500300","中和區"
"235014","4979-A6","2018/04/13 15:09:15","新北市中和區景新街323-1號","121.511266666667","24.992155","6500300","中和區"
"235033","4980-A6","2018/04/13 15:09:22","新北市中和區景新街132巷8-3號","121.504755","24.9980016666667","6500300","中和區"
"235006","551-UM","2018/04/13 15:09:11","新北市三峽區大義路398號","121.376451666667","24.9497433333333","6500300","中和區"
"235010","733-UM","2018/04/13 15:09:25","新北市中和區和平街50號","121.508726666667","24.9906283333333","6500300","中和區"
"235035","783-BX","2018/04/13 15:09:25","新北市中和區建一路122號","121.488065","25.0000766666667","6500300","中和區"
"235012","896-TW","2018/04/13 15:09:04","新北市中和區興南路一段156號","121.508331666667","24.9868916666667","6500300","中和區"
"235034","911-UM","2018/04/13 15:09:12","新北市中和區中正路440號","121.491096666667","24.9943216666667","6500300","中和區"
"235001","157-BY","2018/04/13 15:09:21","新北市三峽區大義路398號","121.3765","24.9498333333333","6500300","中和區"
"235001","AAC-213","2018/04/13 15:09:13","新北市中和區自立路163號","121.522926666667","24.99252","6500300","中和區"
"235023","AAC-215","2018/04/13 15:09:19","新北市中和區圓通路335巷33弄17號","121.493015","24.988975","6500300","中和區"
"220016","013-TV","2018/04/13 15:09:17","新北市板橋區中山路二段408號","121.482791666667","25.02078","6500100","板橋區"
"220017","AAD-861","2018/04/13 15:09:20","新北市板橋區南雅南路二段37號","121.451361666667","24.9949283333333","6500100","板橋區"
"247006","336-TH","2018/04/13 14:47:44","新北市五股區中興路三段2巷10號","121.449275","25.081005","6501400","蘆洲區"
"207002","749-BX","2018/04/13 15:09:18","新北市萬里區崁腳里內中福路87號","121.655506666667","25.1661316666667","6502800","萬里區"
"207001","662-BX","2018/04/13 15:09:06","新北市萬里區大鵬里萬里加投9號","121.652246666667","25.2086733333333","6502800","萬里區"
"236067","105-UM","2018/04/13 15:09:21","新北市土城區中央路一段80號","121.447265","24.9889266666667","6501300","土城區"
"236040","107-UM","2018/04/13 15:09:20","新北市土城區裕民路285號","121.456101666667","24.9817383333333","6501300","土城區"
"236077","166-UM","2018/04/13 15:09:27","新北市土城區中央路四段347號","121.409191666667","24.950515","6501300","土城區"
"236029","253-BX","2018/04/13 15:09:24","新北市土城區福祥街40號","121.441301666667","24.9808966666667","6501300","土城區"
"236024","269-VK","2018/04/13 15:09:24","新北市土城區中央路二段190號","121.442005","24.9760866666667","6501300","土城區"
"236013","270-VK","2018/04/13 15:09:26","新北市土城區學府路一段23巷34號","121.457358333333","24.98701","6501300","土城區"
"236032","271-VK","2018/04/13 15:09:20","新北市土城區國際路54號","121.466608333333","24.9778266666667","6501300","土城區"
"236016","401-BY","2018/04/13 15:09:19","新北市土城區延峰街21號","121.468985","24.986035","6501300","土城區"
"236057","912-UM","2018/04/13 15:09:12","新北市土城區金城路二段151-1號","121.453401666667","24.9809166666667","6501300","土城區"
"236045","913-UM","2018/04/13 15:09:28","新北市土城區清水路260號","121.461513333333","24.9832266666667","6501300","土城區"
"236060","915-UM","2018/04/13 15:09:20","新北市土城區延平街6號","121.468368333333","24.9906766666667","6501300","土城區"
"236054","AAC-216","2018/04/13 15:09:11","新北市土城區學府路一段276號","121.449988333333","24.983105","6501300","土城區"
"220050","245-BX","2018/04/13 15:09:09","新北市板橋區雙十路二段47巷8弄2號","121.474775","25.025655","6500100","板橋區"
"220018","282-UM","2018/04/13 15:09:20","新北市板橋區南雅南路二段45號","121.451278333333","24.994765","6500100","板橋區"
"220031","286-VK","2018/04/13 15:09:23","新北市板橋區僑中二街104巷1號","121.446013333333","25.0077516666667","6500100","板橋區"
"220029","287-VK","2018/04/13 15:09:25","新北市板橋區僑中一街100號","121.446731666667","25.01165","6500100","板橋區"
"220039","288-VK","2018/04/13 15:09:13","新北市板橋區龍泉街90巷1號","121.456335","25.0250016666667","6500100","板橋區"
"220009","293-UM","2018/04/13 15:09:24","新北市板橋區中山路一段30號","121.460486666667","25.0084866666667","6500100","板橋區"
"220010","305-R5","2018/04/13 15:09:08","新北市板橋區民生路二段36-1號","121.472475","25.0167983333333","6500100","板橋區"
"220041","307-R5","2018/04/13 15:09:07","新北市板橋區幸福路60巷51號","121.460135","25.0212733333333","6500100","板橋區"
"220037","491-VK","2018/04/13 15:09:16","新北市板橋區民治街92號","121.479233333333","25.0317716666667","6500100","板橋區"
"220052","561-BX","2018/04/13 15:09:20","新北市板橋區陽明街279巷23號","121.461176666667","25.0256383333333","6500100","板橋區"
"220011","609-BX","2018/04/13 15:09:26","新北市板橋區中山路二段92號","121.475306666667","25.0163883333333","6500100","板橋區"
"220042","689-BX","2018/04/13 15:09:11","新北市板橋區吳鳳路91-1號","121.46669","25.0320083333333","6500100","板橋區"
"220051","KEA-2699","2018/04/13 15:09:19","新北市板橋區縣民大道三段189號","121.479571666667","25.0247366666667","6500100","板橋區"
"220003","827-TW","2018/04/13 15:09:21","新北市板橋區四川路二段130巷63號","121.449386666667","24.9951583333333","6500100","板橋區"
"220014","830-TW","2018/04/13 15:09:14","新北市板橋區中山路一段206巷89號","121.471951666667","25.013355","6500100","板橋區"
"220038","833-TW","2018/04/13 15:09:13","新北市板橋區互助街82號","121.460571666667","25.0263783333333","6500100","板橋區"
"220046","AAC-210","2018/04/13 15:09:12","新北市板橋區光正街45巷32號","121.461438333333","25.016035","6500100","板橋區"
"220025","AAC-253","2018/04/13 15:09:22","新北市板橋區板城路399號","121.451261666667","24.9997166666667","6500100","板橋區"
