"lineid","car","time","location","longitude","latitude","cityid","cityname"
"231046","188-VK","2018/04/13 16:29:28","新北市新店區灣潭路3-2號","121.53828","24.9508183333333","6500600","新店區"
"231018","278-BY","2018/04/13 16:29:21","新北市新店區安民街251巷1號","121.51613","24.9729133333333","6500600","新店區"
"241011","013-R5","2018/04/13 16:29:20","新北市三重區秀江街57號","121.500908333333","25.0725666666667","6500200","三重區"
"241028","022-UY","2018/04/13 16:29:10","新北市三重區泉州街47號","121.494671666667","25.05532","6500200","三重區"
"241008","059-VK","2018/04/13 16:29:12","新北市三重區力行路二段136巷45弄14號","121.479111666667","25.0755016666667","6500200","三重區"
"241009","060-VK","2018/04/13 16:29:17","新北市三重區三和路四段191巷76號","121.484321666667","25.0798816666667","6500200","三重區"
"241031","061-VK","2018/04/13 16:29:12","新北市三重區重陽路一段45號","121.486738333333","25.0581733333333","6500200","三重區"
"241015","062-VK","2018/04/13 16:29:22","新北市三重區福德北路55號","121.502118333333","25.0652583333333","6500200","三重區"
"241017","063-VK","2018/04/13 16:29:10","新北市三重區大同北路79號","121.49501","25.0637166666667","6500200","三重區"
"241024","065-VK","2018/04/13 16:29:21","新北市三重區中正北路315巷16弄28號","121.476251666667","25.0718566666667","6500200","三重區"
"241026","066-VK","2018/04/13 16:29:14","新北市三重區文化南路42號","121.500376666667","25.06039","6500200","三重區"
"241002","090-VK","2018/04/13 16:29:14","新北市三重區仁義街166號","121.496963333333","25.0809783333333","6500200","三重區"
"241003","091-VK","2018/04/13 16:29:23","新北市三重區五華街71巷114號","121.494918333333","25.0842783333333","6500200","三重區"
"241005","262-UM","2018/04/13 16:29:27","新北市三重區溪尾街248號","121.487481666667","25.082525","6500200","三重區"
"241016","265-UM","2018/04/13 16:29:12","新北市三重區大智街21號","121.494291666667","25.065825","6500200","三重區"
"241018","268-UM","2018/04/13 16:29:13","新北市三重區重陽路三段154號","121.489543333333","25.067505","6500200","三重區"
"241032","269-UM","2018/04/13 16:29:13","新北市三重區三陽路100巷3弄13號","121.482958333333","25.0581216666667","6500200","三重區"
"241013","270-UM","2018/04/13 16:29:20","新北市三重區仁愛街58號","121.495946666667","25.072915","6500200","三重區"
"241025","271-UM","2018/04/13 16:29:16","新北市三重區中正北路560巷100弄2號","121.472576666667","25.068265","6500200","三重區"
"241007","398-BY","2018/04/13 16:29:28","新北市三重區三和路四段167巷176號","121.487908333333","25.0803266666667","6500200","三重區"
"241004","475-VK","2018/04/13 16:28:52","新北市三重區自強路五段11-1號","121.492626666667","25.08051","6500200","三重區"
"241020","478-VK","2018/04/13 16:29:21","新北市三重區車路頭街37巷34號","121.484771666667","25.0719066666667","6500200","三重區"
"241030","480-VK","2018/04/13 16:29:22","新北市三重區成功路98號","121.48777","25.0514083333333","6500200","三重區"
"241014","543-UM","2018/04/13 16:29:07","新北市三重區河邊北街72-6號","121.50437","25.0685966666667","6500200","三重區"
"241023","545-UM","2018/04/13 16:29:22","新北市三重區忠孝路三段50巷47號","121.482901666667","25.0644216666667","6500200","三重區"
"241001","547-UM","2018/04/13 16:29:20","新北市三重區福隆路52號","121.492596666667","25.0784933333333","6500200","三重區"
"241019","KEA-2593","2018/04/13 16:29:15","新北市三重區重陽路三段97號","121.490238333333","25.0679616666667","6500200","三重區"
"241006","AAD-863","2018/04/13 16:29:13","新北市三重區力行路二段136巷11弄24號","121.481738333333","25.0765033333333","6500200","三重區"
"241022","887-TS","2018/04/13 16:29:06","新北市三重區新北大道一段80號","121.486211666667","25.0615816666667","6500200","三重區"
"241012","941-UM","2018/04/13 16:29:09","新北市三重區河邊北街371號","121.50187","25.0762433333333","6500200","三重區"
"241029","942-UM","2018/04/13 16:29:20","新北市三重區集美街128號","121.489121666667","25.053585","6500200","三重區"
"241033","AAC-255","2018/04/13 16:29:15","新北市三重區重新路五段283號","121.479006666667","25.049015","6500200","三重區"
"235064","005-UY","2018/04/13 16:25:43","新北市中和區員山路36巷16-3號","121.485156666667","24.991395","6500300","中和區"
"235026","800-TS","2018/04/13 16:29:17","新北市中和區連城路222巷8弄2號","121.490738333333","24.9981733333333","6500300","中和區"
"247006","336-TH","2018/04/13 16:29:00","新北市五股區中興路三段2巷10號","121.449546666667","25.08106","6501400","蘆洲區"
"224008","285-BY","2018/04/13 16:29:10","新北市瑞芳區大寮路356-1號","121.784886666667","25.1032633333333","6501200","瑞芳區"
"224007","275-VK","2018/04/13 16:29:20","新北市瑞芳區瑞竹路36巷4號","121.764241666667","25.10425","6501200","瑞芳區"
"224009","273-VK","2018/04/13 16:29:10","新北市瑞芳區大寮路356-1號","121.784643333333","25.1033116666667","6501200","瑞芳區"
"224005","271-BY","2018/04/13 16:29:29","新北市瑞芳區阿美家園54號","121.821038333333","25.1175233333333","6501200","瑞芳區"
"227003","642-TC","2018/04/13 16:29:22","新北市雙溪區上林里內平林120-10號","121.822981666667","25.0256316666667","6502500","雙溪區"
"227011","400-TW","2018/04/13 16:29:20","新北市雙溪區三港里雙澳路37-5號","121.872771666667","25.0501983333333","6502500","雙溪區"
"251008","181-VK","2018/04/13 16:29:26","新北市淡水區中正路二段31號","121.419263333333","25.181795","6501000","淡水區"
"220018","282-UM","2018/04/13 16:02:10","新北市板橋區華東街1-10號","121.448258333333","24.9949616666667","6500100","板橋區"
