"lineid","car","time","location","longitude","latitude","cityid","cityname"
"249005","172-UM","2018/04/13 16:49:13","新北市八里區大堀湖1-9號","121.422808333333","25.1550366666667","6502300","八里區"
"249004","303-UY","2018/04/13 16:49:21","新北市八里區中山路二段210巷179號","121.403743333333","25.15818","6502300","八里區"
"249003","593-UM","2018/04/13 16:49:11","新北市八里區文昌路101號","121.408336666667","25.1588866666667","6502300","八里區"
"231046","188-VK","2018/04/13 16:49:08","新北市新店區灣潭路15-11號","121.541946666667","24.9408283333333","6500600","新店區"
"231058","3713-VJ","2018/04/13 16:45:55","新北市新店區安華路28-1號","121.519301666667","24.9607033333333","6500600","新店區"
"241011","013-R5","2018/04/13 16:49:16","新北市三重區仁愛街53巷198號","121.500736666667","25.073055","6500200","三重區"
"241028","022-UY","2018/04/13 16:49:09","新北市三重區光興街91號","121.497383333333","25.0599633333333","6500200","三重區"
"241008","059-VK","2018/04/13 16:49:12","新北市三重區永福街179巷25號","121.478041666667","25.07492","6500200","三重區"
"241009","060-VK","2018/04/13 16:49:17","新北市三重區溪尾街206號","121.488126666667","25.081255","6500200","三重區"
"241031","061-VK","2018/04/13 16:49:12","新北市三重區新北大道一段15巷2號","121.487931666667","25.06051","6500200","三重區"
"241015","062-VK","2018/04/13 16:49:22","新北市三重區長元西街1號","121.4988","25.0656333333333","6500200","三重區"
"241017","063-VK","2018/04/13 16:49:10","新北市三重區大同北路108號","121.493278333333","25.0638216666667","6500200","三重區"
"241024","065-VK","2018/04/13 16:49:21","新北市三重區力行路二段30巷46弄2號","121.479673333333","25.0729416666667","6500200","三重區"
"241026","066-VK","2018/04/13 16:49:14","新北市三重區文化南路12號","121.500301666667","25.0620633333333","6500200","三重區"
"241002","090-VK","2018/04/13 16:49:14","新北市三重區仁義街209號","121.496876666667","25.08174","6500200","三重區"
"241003","091-VK","2018/04/13 16:49:23","新北市三重區集賢路87-1號","121.493613333333","25.08684","6500200","三重區"
"241005","262-UM","2018/04/13 16:49:07","新北市三重區仁華街62巷11號","121.483855","25.0832533333333","6500200","三重區"
"241016","265-UM","2018/04/13 16:49:12","新北市三重區大同北路167巷26號","121.493676666667","25.0652066666667","6500200","三重區"
"241018","268-UM","2018/04/13 16:49:13","新北市三重區安樂街65號","121.495043333333","25.0694833333333","6500200","三重區"
"241032","269-UM","2018/04/13 16:49:13","新北市三重區重陽路一段122號","121.486696666667","25.0601066666667","6500200","三重區"
"241013","270-UM","2018/04/13 16:49:20","新北市三重區仁壽街2號","121.496131666667","25.0733083333333","6500200","三重區"
"241025","271-UM","2018/04/13 16:49:16","新北市三重區中正北路530巷19號","121.47205","25.0705216666667","6500200","三重區"
"241007","398-BY","2018/04/13 16:49:08","新北市三重區三和路四段181巷118號","121.485116666667","25.0797666666667","6500200","三重區"
"241004","475-VK","2018/04/13 16:49:12","新北市三重區仁愛街397巷3號","121.491518333333","25.08116","6500200","三重區"
"241020","478-VK","2018/04/13 16:49:21","新北市三重區忠孝路二段35號","121.485961666667","25.0710916666667","6500200","三重區"
"241030","480-VK","2018/04/13 16:49:22","新北市三重區新興路3號","121.492816666667","25.052995","6500200","三重區"
"241014","543-UM","2018/04/13 16:49:26","新北市三重區三和路二段83號","121.500026666667","25.0684433333333","6500200","三重區"
"241023","545-UM","2018/04/13 16:49:25","新北市三重區新北大道一段206巷32號","121.482506666667","25.0624383333333","6500200","三重區"
"241001","547-UM","2018/04/13 16:49:11","新北市三重區仁政街54巷23號","121.4923","25.0768166666667","6500200","三重區"
"241019","KEA-2593","2018/04/13 16:49:15","新北市三重區力行路一段179巷17弄2號","121.48537","25.0699983333333","6500200","三重區"
"241006","AAD-863","2018/04/13 16:49:14","新北市三重區車路頭街125號","121.484253333333","25.0754366666667","6500200","三重區"
"241022","887-TS","2018/04/13 16:49:26","新北市三重區貴陽街75號","121.484385","25.0634516666667","6500200","三重區"
"241012","941-UM","2018/04/13 16:49:09","新北市三重區仁興街11巷18號","121.500278333333","25.0742816666667","6500200","三重區"
"241029","942-UM","2018/04/13 16:49:20","新北市三重區新興路49號","121.491563333333","25.053705","6500200","三重區"
"241033","AAC-255","2018/04/13 16:49:15","新北市三重區新北大道二段105號","121.467068333333","25.06144","6500200","三重區"
"235064","005-UY","2018/04/13 16:25:43","新北市中和區員山路36巷16-3號","121.485156666667","24.991395","6500300","中和區"
"235062","800-TS","2018/04/13 16:45:25","新北市中和區員山路36巷16-3號","121.48485","24.9914983333333","6500300","中和區"
"247012","339-TH","2018/04/13 16:49:07","新北市五股區凌雲路一段22巷11號","121.452811666667","25.1008183333333","6501400","蘆洲區"
"247004","337-TH","2018/04/13 16:49:22","新北市蘆洲區長榮路151號","121.461791666667","25.0839833333333","6501400","蘆洲區"
"247006","336-TH","2018/04/13 16:49:12","新北市蘆洲區永安南路二段132-1號","121.462426666667","25.0784966666667","6501400","蘆洲區"
"247008","056-VK","2018/04/13 16:49:21","新北市蘆洲區中山一路203號","121.474238333333","25.08109","6501400","蘆洲區"
"247020","001-UY","2018/04/13 16:49:14","新北市蘆洲區民族路406號","121.474626666667","25.0915733333333","6501400","蘆洲區"
"228002","663-BX","2018/04/13 16:49:16","新北市貢寮區貢寮里長泰路28號","121.901443333333","25.024135","6502600","貢寮區"
"228003","828-UM","2018/04/13 16:49:14","新北市貢寮區貢寮里朝陽街1-2號","121.9123","25.02126","6502600","貢寮區"
"224006","676-BX","2018/04/13 16:49:11","新北市瑞芳區大寮路356-1號","121.78486","25.10328","6501200","瑞芳區"
"224008","285-BY","2018/04/13 16:49:10","新北市瑞芳區三爪子坑路32巷94號","121.809238333333","25.1067866666667","6501200","瑞芳區"
"224007","275-VK","2018/04/13 16:49:20","新北市瑞芳區中央路48巷56-1號","121.76071","25.1034316666667","6501200","瑞芳區"
"224009","273-VK","2018/04/13 16:49:30","新北市瑞芳區中正路2號","121.809376666667","25.107065","6501200","瑞芳區"
"224005","271-BY","2018/04/13 16:49:29","新北市瑞芳區洞頂路8-1號","121.86227","25.1216433333333","6501200","瑞芳區"
"227003","642-TC","2018/04/13 16:49:22","新北市雙溪區外柑里外柑腳71號","121.807125","25.0176216666667","6502500","雙溪區"
"227011","400-TW","2018/04/13 16:49:20","新北市雙溪區牡丹里石1號","121.864898333333","25.05285","6502500","雙溪區"
"251008","181-VK","2018/04/13 16:49:20","新北市淡水區中正東路二段101號","121.459348333333","25.1519466666667","6501000","淡水區"
"251010","413-VK","2018/04/13 16:49:24","新北市淡水區中正路二段31號","121.419495","25.181505","6501000","淡水區"
"251012","441-VK","2018/04/13 16:49:13","新北市淡水區中正路二段31號","121.419665","25.1815166666667","6501000","淡水區"
"251009","575-R6","2018/04/13 16:49:12","新北市淡水區中正路二段31號","121.419448333333","25.18152","6501000","淡水區"
"251011","650-BX","2018/04/13 16:49:21","新北市淡水區中正路二段31號","121.41948","25.1818566666667","6501000","淡水區"
"252002","178-VK","2018/04/13 16:49:20","新北市三芝區忠孝街68號","121.50586","25.2570033333333","6502100","三芝區"
"252001","292-VK","2018/04/13 16:49:22","新北市三芝區淡金路二段89號","121.503896666667","25.2608183333333","6502100","三芝區"
"242034","AAC-296","2018/04/13 16:49:20","新北市新莊區新泰路357巷3弄57號","121.442293333333","25.0394666666667","6500500","新莊區"
"242054","751-BX","2018/04/13 16:49:24","新北市新莊區新泰路357巷3弄57號","121.442136666667","25.03924","6500500","新莊區"
"242037","442-UM","2018/04/13 16:49:27","新北市新莊區新泰路357巷3弄57號","121.442296666667","25.0392483333333","6500500","新莊區"
"242023","362-BY","2018/04/13 16:49:21","新北市新莊區三和路12-21號","121.442171666667","25.0386716666667","6500500","新莊區"
"239002","359-BY","2018/04/13 16:49:30","新北市鶯歌區環河路177-3號","121.346125","24.9351933333333","6500800","鶯歌區"
