"lineid","car","time","location","longitude","latitude","cityid","cityname"
"249005","172-UM","2018/04/13 17:19:13","新北市五股區中直路崩山巷9-2號","121.417433333333","25.1249966666667","6502300","八里區"
"249001","173-UM","2018/04/13 17:19:18","新北市八里區中華路二段165巷3號","121.40767","25.150855","6502300","八里區"
"249004","303-UY","2018/04/13 17:19:21","新北市八里區大崁二街30號","121.41792","25.15806","6502300","八里區"
"249003","593-UM","2018/04/13 17:19:11","新北市八里區中山路二段470號","121.398796666667","25.14713","6502300","八里區"
"244013","069-UM","2018/04/13 17:19:26","新北市林口區粉寮69號","121.405053333333","25.09085","6501700","林口區"
"244007","080-UY","2018/04/13 17:19:16","新北市林口區湖子17-2號","121.384948333333","25.0910316666667","6501700","林口區"
"244023","483-VK","2018/04/13 17:19:28","新北市林口區隆林街34號","121.388151666667","25.0754833333333","6501700","林口區"
"244019","657-BX","2018/04/13 17:19:24","新北市林口區公園路223巷16號","121.373628333333","25.0749216666667","6501700","林口區"
"244025","837-TS","2018/04/13 17:19:24","新北市林口區中山路490號","121.380125","25.08243","6501700","林口區"
"244021","838-TS","2018/04/13 17:19:15","新北市林口區粉寮路二段457-9號","121.404713333333","25.0980583333333","6501700","林口區"
"231046","188-VK","2018/04/13 17:19:28","新北市新店區直潭路92號","121.530926666667","24.9375866666667","6500600","新店區"
"241011","013-R5","2018/04/13 17:19:26","新北市三重區介壽路39巷252號","121.503671666667","25.07124","6500200","三重區"
"241028","022-UY","2018/04/13 17:19:10","新北市三重區仁化街42號","121.49371","25.05928","6500200","三重區"
"241008","059-VK","2018/04/13 17:19:12","新北市三重區永福街72巷37號","121.4802","25.07633","6500200","三重區"
"241009","060-VK","2018/04/13 17:19:17","新北市三重區仁美街101號","121.485788333333","25.08057","6500200","三重區"
"241015","062-VK","2018/04/13 17:19:22","新北市三重區長元街82-1號","121.50187","25.0663183333333","6500200","三重區"
"241017","063-VK","2018/04/13 17:19:29","新北市三重區大同北路44巷1號","121.495021666667","25.06305","6500200","三重區"
"241024","065-VK","2018/04/13 17:19:21","新北市三重區大勇街82巷15弄1號","121.479733333333","25.0717666666667","6500200","三重區"
"241026","066-VK","2018/04/13 17:19:14","新北市三重區文化南路31-1號","121.500206666667","25.0616316666667","6500200","三重區"
"241002","090-VK","2018/04/13 17:19:14","新北市三重區自強路五段51號","121.494388333333","25.081725","6500200","三重區"
"241003","091-VK","2018/04/13 17:19:23","新北市三重區富福街42號","121.491008333333","25.083855","6500200","三重區"
"241005","262-UM","2018/04/13 17:19:27","新北市三重區永安北路二段33號","121.482456666667","25.08225","6500200","三重區"
"241016","265-UM","2018/04/13 17:19:12","新北市三重區大同北路54巷2號","121.494091666667","25.0636366666667","6500200","三重區"
"241018","268-UM","2018/04/13 17:19:26","新北市三重區安慶街197號","121.493046666667","25.0683833333333","6500200","三重區"
"241032","269-UM","2018/04/13 17:19:13","新北市三重區中華路2巷31弄10號","121.482153333333","25.0608433333333","6500200","三重區"
"241013","270-UM","2018/04/13 17:19:20","新北市三重區仁愛街82巷1號","121.49535","25.0736016666667","6500200","三重區"
"241025","271-UM","2018/04/13 17:19:16","新北市三重區中正北路253號","121.47538","25.070675","6500200","三重區"
"241007","398-BY","2018/04/13 17:19:28","新北市三重區三和路四段155巷33號","121.484798333333","25.0787683333333","6500200","三重區"
"241004","475-VK","2018/04/13 17:19:12","新北市三重區碧華街436號","121.49284","25.0856566666667","6500200","三重區"
"241020","478-VK","2018/04/13 17:19:21","新北市三重區自強路三段72號","121.486846666667","25.0735916666667","6500200","三重區"
"241030","480-VK","2018/04/13 17:19:22","新北市三重區成功路73巷21號","121.489698333333","25.0522516666667","6500200","三重區"
"241014","543-UM","2018/04/13 17:19:26","新北市三重區長榮路6號","121.500128333333","25.0685433333333","6500200","三重區"
"241023","545-UM","2018/04/13 17:19:22","新北市三重區三民街176號","121.482015","25.0656533333333","6500200","三重區"
"241019","KEA-2593","2018/04/13 17:19:15","新北市三重區自強路二段74巷6號","121.488291666667","25.0697683333333","6500200","三重區"
"241006","AAD-863","2018/04/13 17:19:13","新北市三重區車路頭街139巷12號","121.484233333333","25.076235","6500200","三重區"
"241022","887-TS","2018/04/13 17:19:26","新北市三重區中正北路64巷9號","121.48632","25.064145","6500200","三重區"
"241012","941-UM","2018/04/13 17:19:29","新北市三重區河邊北街256巷5號","121.501436666667","25.07619","6500200","三重區"
"241033","AAC-255","2018/04/13 17:19:15","新北市三重區中興北街191號","121.469098333333","25.05651","6500200","三重區"
"247024","893-R6","2018/04/13 17:19:19","新北市蘆洲區光榮路2號","121.460356666667","25.08614","6501400","蘆洲區"
"247014","546-UM","2018/04/13 17:19:20","新北市蘆洲區中正路79-3號","121.470275","25.0833933333333","6501400","蘆洲區"
"247022","500-BY","2018/04/13 17:19:20","新北市蘆洲區三民路128巷46號","121.470505","25.0886483333333","6501400","蘆洲區"
"247010","341-TH","2018/04/13 17:19:21","新北市蘆洲區中山一路120巷7弄32號","121.4772","25.08219","6501400","蘆洲區"
"247012","339-TH","2018/04/13 17:19:07","新北市蘆洲區信義路319巷10弄17號","121.477473333333","25.0864666666667","6501400","蘆洲區"
"247004","337-TH","2018/04/13 17:19:22","新北市蘆洲區中原路3號","121.46133","25.083455","6501400","蘆洲區"
"247006","336-TH","2018/04/13 17:19:30","新北市蘆洲區長安街49巷7號","121.463026666667","25.07924","6501400","蘆洲區"
"247018","057-VK","2018/04/13 17:19:24","新北市蘆洲區民權路92號","121.47419","25.0878483333333","6501400","蘆洲區"
"247008","056-VK","2018/04/13 17:19:21","新北市蘆洲區永安北路一段72巷3號","121.476793333333","25.0768683333333","6501400","蘆洲區"
"247016","007-UY","2018/04/13 17:19:18","新北市蘆洲區正和街96巷38號","121.467528333333","25.0815116666667","6501400","蘆洲區"
"247002","002-UY","2018/04/13 17:19:20","新北市蘆洲區永樂街38巷33弄19號","121.457386666667","25.089665","6501400","蘆洲區"
"247020","001-UY","2018/04/13 17:19:14","新北市蘆洲區仁愛街20號","121.472258333333","25.0929233333333","6501400","蘆洲區"
"228001","212-TW","2018/04/13 17:19:09","新北市貢寮區仁理村尖山腳街18-3號","121.925508333333","25.04833","6502600","貢寮區"
"228002","663-BX","2018/04/13 17:19:16","新北市貢寮區雙玉里下雙溪街28號","121.924793333333","25.0115416666667","6502600","貢寮區"
"228003","828-UM","2018/04/13 17:19:14","新北市貢寮區福隆里興隆街100巷7號","121.937166666667","25.0183366666667","6502600","貢寮區"
"224006","676-BX","2018/04/13 17:19:11","新北市瑞芳區傑魚坑路322號","121.786348333333","25.1046316666667","6501200","瑞芳區"
"224008","285-BY","2018/04/13 17:19:10","新北市瑞芳區侯硐路172號","121.828571666667","25.0860133333333","6501200","瑞芳區"
"224009","273-VK","2018/04/13 17:19:17","新北市瑞芳區汽車路106-2號","121.8406","25.109115","6501200","瑞芳區"
"224005","271-BY","2018/04/13 17:19:08","新北市瑞芳區鼻頭路247號","121.912585","25.123885","6501200","瑞芳區"
"227003","642-TC","2018/04/13 17:19:22","新北市雙溪區上林里內平林90號","121.827563333333","25.0275133333333","6502500","雙溪區"
"227011","400-TW","2018/04/13 17:19:20","新北市雙溪區牡丹里牡丹140號","121.84999","25.0587716666667","6502500","雙溪區"
"251004","009-UM","2018/04/13 17:14:44","新北市淡水區中正東路36號","121.44894","25.1654883333333","6501000","淡水區"
"251001","011-UM","2018/04/13 17:19:13","新北市淡水區民權路92巷35-1號","121.46219","25.126685","6501000","淡水區"
"251002","012-UM","2018/04/13 17:19:13","新北市淡水區中正路二段31號","121.419465","25.1815133333333","6501000","淡水區"
"251008","181-VK","2018/04/13 17:19:20","新北市淡水區民生路169號","121.469716666667","25.14219","6501000","淡水區"
"251010","413-VK","2018/04/13 17:19:24","新北市淡水區中正路二段305巷44號","121.424598333333","25.1924216666667","6501000","淡水區"
"251012","441-VK","2018/04/13 17:19:13","新北市淡水區中山北路一段158號","121.444261666667","25.1778716666667","6501000","淡水區"
"251005","443-VK","2018/04/13 17:19:14","新北市淡水區鄧公路19-1號","121.450315","25.1699683333333","6501000","淡水區"
"251006","561-UM","2018/04/13 17:19:17","新北市淡水區大智街39號","121.442615","25.1742933333333","6501000","淡水區"
"251009","575-R6","2018/04/13 17:19:12","新北市淡水區三民街19號","121.43899","25.1718616666667","6501000","淡水區"
"251007","577-R6","2018/04/13 17:19:16","新北市淡水區民生路60號","121.462133333333","25.137945","6501000","淡水區"
"251011","650-BX","2018/04/13 17:19:21","新北市淡水區坪頂路150號","121.468051666667","25.16222","6501000","淡水區"
"207003","550-UM","2018/04/13 17:19:17","新北市萬里區萬里里瑪鋉路314號","121.688221666667","25.18211","6502800","萬里區"
"252002","178-VK","2018/04/13 17:19:20","新北市三芝區忠孝街1-14號","121.505546666667","25.253995","6502100","三芝區"
"252001","292-VK","2018/04/13 17:19:22","新北市三芝區長安街119號","121.49808","25.2596733333333","6502100","三芝區"
"242034","AAC-296","2018/04/13 17:19:20","新北市新莊區中正路473-1號","121.442038333333","25.0329566666667","6500500","新莊區"
"242058","986-R7","2018/04/13 17:19:19","新北市泰山區磚雅厝3號","121.442158333333","25.041635","6500500","新莊區"
"242054","751-BX","2018/04/13 17:19:24","新北市新莊區瓊林路59-66號","121.441358333333","25.0226416666667","6500500","新莊區"
"242029","705-TV","2018/04/13 17:19:30","新北市新莊區幸福路796號","121.446448333333","25.0491533333333","6500500","新莊區"
"242027","615-BX","2018/04/13 17:19:12","新北市新莊區中港路317號","121.452645","25.0448033333333","6500500","新莊區"
"242025","613-BX","2018/04/13 17:19:18","新北市新莊區中平路82巷29號","121.446186666667","25.0449583333333","6500500","新莊區"
"242041","566-BX","2018/04/13 17:19:12","新北市新莊區中正路471號","121.441846666667","25.03389","6500500","新莊區"
"242046","497-BY","2018/04/13 17:19:21","新北市新莊區新樹路16-1號","121.439261666667","25.030685","6500500","新莊區"
"242037","442-UM","2018/04/13 17:19:26","新北市新莊區建國一路173號","121.43494","25.024305","6500500","新莊區"
"242050","441-UM","2018/04/13 17:19:29","新北市新莊區瓊林路59-88號","121.439656666667","25.0212833333333","6500500","新莊區"
"242056","440-UM","2018/04/13 17:19:28","新北市新莊區中正路471號","121.441923333333","25.0333716666667","6500500","新莊區"
"242044","400-BY","2018/04/13 17:19:28","新北市新莊區福營路371號","121.423603333333","25.0276466666667","6500500","新莊區"
"242023","362-BY","2018/04/13 17:19:21","新北市新莊區新泰路488號","121.442601666667","25.04583","6500500","新莊區"
"242060","353-BY","2018/04/13 17:19:22","新北市新莊區新泰路369巷24號","121.442078333333","25.0434566666667","6500500","新莊區"
"242039","133-UY","2018/04/13 17:19:13","新北市新莊區民安路304號","121.428306666667","25.0219","6500500","新莊區"
"242048","172-VK","2018/04/13 17:19:26","新北市新莊區龍安路249巷1號","121.418971666667","25.0205083333333","6500500","新莊區"
"242017","175-VK","2018/04/13 17:19:28","新北市新莊區新泰路486號","121.442505","25.0457","6500500","新莊區"
"242005","176-VK","2018/04/13 17:19:26","新北市新莊區新泰路488號","121.44254","25.045875","6500500","新莊區"
"242015","346-TH","2018/04/13 17:19:14","新北市新莊區新泰路322號","121.445055","25.0416616666667","6500500","新莊區"
"242019","347-TH","2018/04/13 17:19:23","新北市新莊區中平路82巷24號","121.445821666667","25.0447033333333","6500500","新莊區"
"242021","348-TH","2018/04/13 17:19:21","新北市新莊區中正路473-1號","121.442086666667","25.0330983333333","6500500","新莊區"
"242002","349-TH","2018/04/13 17:19:15","新北市新莊區新泰路320號","121.445063333333","25.0416","6500500","新莊區"
"242013","351-TH","2018/04/13 17:19:14","新北市新莊區三和路12-12號","121.442108333333","25.0370683333333","6500500","新莊區"
"238019","599-UM","2018/04/13 17:19:18","新北市樹林區八德街251巷9號","121.422201666667","24.978625","6500700","樹林區"
"238018","571-TV","2018/04/13 17:19:27","新北市樹林區樹中街3號","121.420661666667","24.9861133333333","6500700","樹林區"
"238024","5061-A6","2018/04/13 17:19:30","新北市樹林區保安街一段48巷36號","121.426695","24.9956383333333","6500700","樹林區"
"238022","KEA-2213","2018/04/13 17:19:27","新北市樹林區中華路37巷11號","121.424121666667","24.98308","6500700","樹林區"
"238021","KEA-2539","2018/04/13 17:19:20","新北市樹林區西圳街一段165巷2-1號","121.395898333333","24.9611916666667","6500700","樹林區"
"238017","283-BY","2018/04/13 17:19:11","新北市樹林區啟智街124巷9號","121.41543","24.9879233333333","6500700","樹林區"
"238014","282-BY","2018/04/13 17:19:20","新北市樹林區長壽街21號","121.421418333333","24.9942866666667","6500700","樹林區"
"238026","172-UY","2018/04/13 17:19:18","新北市樹林區味王街46巷30號","121.403251666667","24.9737466666667","6500700","樹林區"
"238016","169-UY","2018/04/13 17:19:15","新北市樹林區中山路二段34號","121.417455","24.98499","6500700","樹林區"
"239007","AAC-297","2018/04/13 17:19:17","新北市鶯歌區行政路3號","121.351016666667","24.9553733333333","6500800","鶯歌區"
"239006","891-R6","2018/04/13 17:19:12","新北市鶯歌區德昌街11號","121.333553333333","24.960265","6500800","鶯歌區"
"239008","527-UM","2018/04/13 17:19:10","新北市鶯歌區西湖街243巷19號","121.339071666667","24.9652383333333","6500800","鶯歌區"
"239005","526-UM","2018/04/13 17:19:27","新北市鶯歌區福德五街2號","121.329681666667","24.9683166666667","6500800","鶯歌區"
"239001","417-VK","2018/04/13 17:19:09","新北市鶯歌區黃厝街31巷39-1號","121.342663333333","24.9454633333333","6500800","鶯歌區"
"239003","360-BY","2018/04/13 17:19:24","新北市鶯歌區德昌二街3巷1-1號","121.333205","24.9591966666667","6500800","鶯歌區"
"239002","359-BY","2018/04/13 17:19:30","新北市鶯歌區南雅路14號","121.349465","24.954085","6500800","鶯歌區"
"239004","193-VK","2018/04/13 17:19:19","新北市鶯歌區文化路501-17號","121.353741666667","24.9485216666667","6500800","鶯歌區"
"221008","489-VK","2018/04/13 17:19:26","新北市汐止區康寧街901號","121.65142","25.0750566666667","6501100","汐止區"
"220018","282-UM","2018/04/13 17:19:30","新北市板橋區華東街1-9號","121.448238333333","24.99491","6500100","板橋區"
"242009","281-VK","2018/04/13 17:19:23","新北市新莊區中和街61號","121.447546666667","25.0469283333333","6500500","新莊區"
"242032","280-VK","2018/04/13 17:19:15","新北市新莊區公園一路67號","121.44237","25.036905","6500500","新莊區"
