"lineid","car","time","location","longitude","latitude","cityid","cityname"
"234007","207-UY","2018/04/13 18:19:13","新北市永和區仁愛路306巷11號","121.502865","25.00838","6500400","永和區"
"234086","338-UY","2018/04/13 18:19:15","新北市永和區福和路1號","121.526366666667","25.0097766666667","6500400","永和區"
"234013","KEA-2591","2018/04/13 18:19:16","新北市永和區福和路1號","121.526323333333","25.0093916666667","6500400","永和區"
"234042","862-TW","2018/04/13 18:19:30","新北市永和區福和路1號","121.526395","25.00972","6500400","永和區"
"234026","9371-KE","2018/04/13 18:19:30","新北市永和區豫溪街28巷18號","121.515103333333","25.0092216666667","6500400","永和區"
"234011","9373-KE","2018/04/13 18:19:18","新北市永和區環河東路二段54號","121.523386666667","25.0117233333333","6500400","永和區"
"249005","172-UM","2018/04/13 18:19:13","新北市八里區荖阡坑路15-28號","121.400396666667","25.1403616666667","6502300","八里區"
"249001","173-UM","2018/04/13 18:19:18","新北市八里區龍米路一段131號","121.452156666667","25.1267416666667","6502300","八里區"
"249004","303-UY","2018/04/13 18:19:21","新北市八里區忠孝路56號","121.426421666667","25.1603716666667","6502300","八里區"
"248016","026-BX","2018/04/13 18:19:15","新北市五股區成泰路三段477巷18號","121.449901666667","25.0988966666667","6501500","五股區"
"248006","077-UY","2018/04/13 18:19:23","新北市五股區中興路一段158號","121.464428333333","25.0739283333333","6501500","五股區"
"248008","095-VK","2018/04/13 18:19:20","新北市五股區更洲路32巷8弄14號","121.459243333333","25.07964","6501500","五股區"
"248018","225-UY","2018/04/13 18:18:44","新北市五股區御史路205號","121.431545","25.1001566666667","6501500","五股區"
"248012","247-BX","2018/04/13 18:19:20","新北市五股區御成路33號","121.441031666667","25.091245","6501500","五股區"
"248014","261-SL","2018/04/13 18:19:27","新北市五股區成泰路一段189巷18-2號","121.433563333333","25.0764333333333","6501500","五股區"
"248010","272-BY","2018/04/13 18:19:26","新北市五股區成泰路一段189巷24-1號","121.433716666667","25.0774466666667","6501500","五股區"
"248004","677-BX","2018/04/13 18:19:13","新北市五股區成泰路二段87號","121.43829","25.0841683333333","6501500","五股區"
"248002","678-BX","2018/04/13 18:19:24","新北市五股區西雲路89號","121.443646666667","25.0920016666667","6501500","五股區"
"234077","969-R7","2018/04/13 18:19:28","新北市永和區福和路1號","121.52647","25.0097533333333","6500400","永和區"
"244013","069-UM","2018/04/13 18:19:26","新北市林口區中山路160巷7號","121.391113333333","25.0794333333333","6501700","林口區"
"244007","080-UY","2018/04/13 18:18:56","新北市林口區林口路113巷6弄1號","121.388691666667","25.0806266666667","6501700","林口區"
"244009","410-SL","2018/04/13 18:19:25","新北市林口區福林路101號","121.378048333333","25.089135","6501700","林口區"
"244023","483-VK","2018/04/13 18:19:28","新北市林口區仁愛路二段8號","121.385845","25.0763066666667","6501700","林口區"
"244017","485-VK","2018/04/13 18:19:12","新北市林口區八德路45號","121.366725","25.066095","6501700","林口區"
"244019","657-BX","2018/04/13 18:19:24","新北市林口區麗園路52巷1號","121.373645","25.0698683333333","6501700","林口區"
"244011","701-TV","2018/04/13 18:19:26","新北市林口區新生街11號","121.394216666667","25.0767533333333","6501700","林口區"
"244025","837-TS","2018/04/13 18:19:24","新北市林口區南勢七街11號","121.355196666667","25.0692216666667","6501700","林口區"
"244021","838-TS","2018/04/13 18:19:15","新北市林口區自強一街2號","121.397563333333","25.0787766666667","6501700","林口區"
"222003","436-BY","2018/04/13 18:19:10","新北市深坑區旺耽路67號","121.626235","25.00302","6501800","深坑區"
"222002","659-BX","2018/04/13 18:19:24","新北市深坑區文化街1號","121.620781666667","25.0013416666667","6501800","深坑區"
"231041","002-UM","2018/04/13 18:19:14","新北市新店區安華路28-1號","121.519875","24.960765","6500600","新店區"
"231059","046-UY","2018/04/13 18:19:20","新北市新店區安華路28-1號","121.519561666667","24.960715","6500600","新店區"
"231040","047-UY","2018/04/13 18:19:22","新北市新店區安華路28-1號","121.519118333333","24.9609383333333","6500600","新店區"
"231044","106-UY","2018/04/13 18:19:17","新北市新店區安華路28-1號","121.519608333333","24.960745","6500600","新店區"
"231053","110-UY","2018/04/13 18:19:19","新北市新店區安康路一段70號","121.528423333333","24.961775","6500600","新店區"
"231048","187-VK","2018/04/13 18:19:22","新北市新店區安華路28-1號","121.51958","24.9610933333333","6500600","新店區"
"231046","188-VK","2018/04/13 18:19:28","新北市新店區直潭七街60號","121.532238333333","24.939925","6500600","新店區"
"231054","KEA-2219","2018/04/13 18:19:27","新北市新店區安華路28-1號","121.519828333333","24.9612633333333","6500600","新店區"
"231057","256-BX","2018/04/13 18:19:13","新北市新店區安華路28-1號","121.519665","24.9611166666667","6500600","新店區"
"231064","260-TV","2018/04/13 18:19:14","新北市新店區安華路28-1號","121.519201666667","24.9611916666667","6500600","新店區"
"231051","278-BY","2018/04/13 18:19:29","新北市新店區安華路28-1號","121.519883333333","24.9611283333333","6500600","新店區"
"231050","AAD-862","2018/04/13 18:19:20","新北市新店區安華路28-1號","121.520148333333","24.96099","6500600","新店區"
"231058","3713-VJ","2018/04/13 18:19:12","新北市新店區秀山路70號","121.531138333333","24.9609433333333","6500600","新店區"
"231066","4716-K9","2018/04/13 18:19:18","新北市新店區安華路28-1號","121.519123333333","24.9612616666667","6500600","新店區"
"231056","4715-K9","2018/04/13 18:19:23","新北市新店區中央路57號","121.5328","24.9773583333333","6500600","新店區"
"231067","4772-VM","2018/04/13 18:19:29","新北市新店區安華路28-1號","121.519151666667","24.96061","6500600","新店區"
"231049","513-UM","2018/04/13 18:19:21","新北市新店區安華路28-1號","121.519628333333","24.9610816666667","6500600","新店區"
"231045","617-UM","2018/04/13 18:11:17","新北市新店區安華路28-1號","121.519441666667","24.960965","6500600","新店區"
"231063","641-BX","2018/04/13 18:19:20","新北市新店區安華路1-1號","121.519518333333","24.9603633333333","6500600","新店區"
"231042","645-TV","2018/04/13 18:19:15","新北市新店區安華路28-1號","121.519345","24.960645","6500600","新店區"
"231062","720-UM","2018/04/13 18:19:30","新北市新店區安華路28-1號","121.519183333333","24.9611","6500600","新店區"
"231060","897-TW","2018/04/13 18:19:12","新北市新店區安華路28-1號","121.519633333333","24.9606133333333","6500600","新店區"
"231043","899-TW","2018/04/13 18:19:16","新北市新店區安華路28-1號","121.518926666667","24.9609983333333","6500600","新店區"
"231055","AKT-0513","2018/04/13 18:19:20","新北市新店區環河路29巷1號","121.536736666667","24.9612733333333","6500600","新店區"
"241006","AAD-863","2018/04/13 18:19:13","新北市三重區車路頭街139巷14號","121.484285","25.076245","6500200","三重區"
"241033","AAC-255","2018/04/13 18:19:15","新北市三重區中興北街42巷56號","121.467706666667","25.0492683333333","6500200","三重區"
"235064","005-UY","2018/04/13 18:19:23","新北市中和區圓通路162-3號","121.497528333333","24.9952033333333","6500300","中和區"
"235063","006-UY","2018/04/13 18:19:19","新北市中和區中正路565號","121.486781666667","24.9942283333333","6500300","中和區"
"235056","096-UM","2018/04/13 18:19:30","新北市中和區員山路526號","121.478896666667","25.0097166666667","6500300","中和區"
"235039","097-UM","2018/04/13 18:19:25","新北市中和區景平路365號","121.504453333333","24.9933533333333","6500300","中和區"
"235065","098-UM","2018/04/13 18:19:18","新北市中和區莊敬路49巷18號","121.501621666667","25.006115","6500300","中和區"
"235040","150-BY","2018/04/13 18:19:29","新北市中和區中正路273-1號","121.495641666667","24.9936183333333","6500300","中和區"
"235058","151-BY","2018/04/13 18:19:23","新北市中和區圓通路367巷17號","121.492361666667","24.986945","6500300","中和區"
"235055","183-VK","2018/04/13 18:19:21","新北市中和區中正路637巷52弄1號","121.485426666667","24.99337","6500300","中和區"
"235038","185-VK","2018/04/13 18:19:15","新北市中和區秀朗路三段128巷17弄6號","121.524236666667","24.9935066666667","6500300","中和區"
"235049","186-VK","2018/04/13 18:19:25","新北市中和區中正路637巷60弄61號","121.48547","24.993315","6500300","中和區"
"235072","301-VK","2018/04/13 18:19:18","新北市中和區錦和路166號","121.489875","24.9958766666667","6500300","中和區"
"235043","352-BY","2018/04/13 18:19:09","新北市中和區景平路379號","121.504041666667","24.9932933333333","6500300","中和區"
"235068","377-QA","2018/04/13 18:19:21","新北市中和區員山路36巷16-3號","121.485048333333","24.99126","6500300","中和區"
"235061","378-QA","2018/04/13 18:19:18","新北市中和區國光街215巷24弄6號","121.466566666667","25.0002166666667","6500300","中和區"
"235060","269-TV","2018/04/13 18:19:22","新北市中和區員山路163號","121.481116666667","24.996715","6500300","中和區"
"235050","4979-A6","2018/04/13 18:19:29","新北市中和區捷運路61巷9號","121.50912","24.989365","6500300","中和區"
"235069","4980-A6","2018/04/13 18:19:11","新北市中和區圓通路84號","121.499855","24.9969866666667","6500300","中和區"
"235042","551-UM","2018/04/13 18:19:23","新北市中和區大勇街8號","121.517113333333","24.9926566666667","6500300","中和區"
"235045","565-BX","2018/04/13 18:19:25","新北市中和區景安路200巷3弄1號","121.503663333333","24.9914883333333","6500300","中和區"
"235054","640-BX","2018/04/13 18:19:26","新北市中和區莒光路163號","121.472756666667","25.0002283333333","6500300","中和區"
"235047","732-UM","2018/04/13 18:19:18","新北市中和區南山路325號","121.505031666667","24.99127","6500300","中和區"
"235046","733-UM","2018/04/13 18:19:29","新北市中和區員山路36巷13號","121.484161666667","24.990885","6500300","中和區"
"235062","800-TS","2018/04/13 18:19:13","新北市中和區景平路989巷6-2號","121.495226666667","25.0053883333333","6500300","中和區"
"235057","801-TS","2018/04/13 18:19:31","新北市中和區民享街97巷19號","121.475376666667","24.99956","6500300","中和區"
"235052","805-TS","2018/04/13 18:19:21","新北市中和區興南路二段96號","121.50498","24.9840983333333","6500300","中和區"
"235048","896-TW","2018/04/13 18:19:10","新北市中和區中正路501號","121.488953333333","24.993535","6500300","中和區"
"235053","900-TW","2018/04/13 18:19:17","新北市中和區員山路36巷16-2號","121.485258333333","24.9915233333333","6500300","中和區"
"235070","911-UM","2018/04/13 18:19:12","新北市中和區圓通路207號","121.497213333333","24.99448","6500300","中和區"
"235051","157-BY","2018/04/13 18:19:15","新北市中和區興南路二段154號","121.503846666667","24.98292","6500300","中和區"
"235037","AAC-213","2018/04/13 18:19:18","新北市中和區景德街67號","121.516971666667","24.9913816666667","6500300","中和區"
"235059","AAC-215","2018/04/13 17:51:56","新北市中和區員山路36巷16-3號","121.484913333333","24.9912116666667","6500300","中和區"
"226004","205-ST","2018/04/13 18:19:12","新北市平溪區靜安路二段60號","121.715306666667","25.020625","6502400","平溪區"
"235041","251-BX","2018/04/13 18:19:13","新北市中和區中正路521號","121.488363333333","24.99353","6500300","中和區"
"228001","212-TW","2018/04/13 18:19:29","新北市貢寮區真理里新港街26巷55弄2-1號","121.927375","25.0528766666667","6502600","貢寮區"
"228002","663-BX","2018/04/13 18:19:16","新北市貢寮區福連里馬崗街1號","121.995371666667","25.0154566666667","6502600","貢寮區"
"228003","828-UM","2018/04/13 18:19:14","新北市貢寮區真理里美艷山街63號","121.920835","25.0720816666667","6502600","貢寮區"
"224006","676-BX","2018/04/13 18:19:31","新北市瑞芳區民權街3-2號","121.808085","25.1074566666667","6501200","瑞芳區"
"224002","639-TC","2018/04/13 18:19:22","新北市瑞芳區三爪子坑路149巷23號","121.811248333333","25.1066116666667","6501200","瑞芳區"
"224008","285-BY","2018/04/13 18:19:30","新北市瑞芳區逢甲路38號","121.811353333333","25.1084116666667","6501200","瑞芳區"
"224007","275-VK","2018/04/13 18:19:26","新北市瑞芳區大埔路67巷5-1號","121.76429","25.1016716666667","6501200","瑞芳區"
"224009","273-VK","2018/04/13 18:19:30","新北市瑞芳區金光路93號","121.854593333333","25.1063483333333","6501200","瑞芳區"
"224005","271-BY","2018/04/13 18:19:28","新北市瑞芳區建基新村20-14號","121.811225","25.1312583333333","6501200","瑞芳區"
"227003","642-TC","2018/04/13 18:19:19","新北市雙溪區共和里中山路2號","121.86378","25.0338083333333","6502500","雙溪區"
"227011","400-TW","2018/04/13 18:19:20","新北市雙溪區牡丹里牡丹73號","121.851695","25.0593533333333","6502500","雙溪區"
"253005","032-BX","2018/04/13 18:19:29","新北市石門區中央路1-13號","121.561551666667","25.2910283333333","6502200","石門區"
"253006","295-VK","2018/04/13 18:19:31","新北市石門區老梅路67號","121.545875","25.2892633333333","6502200","石門區"
"222001","KEA-2212","2018/04/13 18:19:29","新北市深坑區北深路二段51號","121.619006666667","25.00405","6501800","深坑區"
"208002","KEA-2872","2018/04/13 18:19:28","新北市金山區清泉里清水路16巷12號","121.633733333333","25.2311616666667","6502700","金山區"
"208003","665-BX","2018/04/13 18:19:22","新北市金山區中山路116號","121.639328333333","25.2199","6502700","金山區"
"251004","009-UM","2018/04/13 18:19:24","新北市淡水區民族路31巷1號","121.462231666667","25.1359883333333","6501000","淡水區"
"251008","010-UM","2018/04/13 18:19:16","新北市淡水區淡金路10-1號","121.457611666667","25.1601516666667","6501000","淡水區"
"251001","011-UM","2018/04/13 18:19:13","新北市淡水區自強路110-8號","121.461648333333","25.1313616666667","6501000","淡水區"
"251002","012-UM","2018/04/13 18:19:20","新北市淡水區中正東路一段38號","121.452635","25.1622833333333","6501000","淡水區"
"251008","181-VK","2018/04/13 18:10:48","新北市淡水區中正路二段31號","121.419403333333","25.1817333333333","6501000","淡水區"
"251010","413-VK","2018/04/13 18:19:24","新北市淡水區淡海路180巷12-3號","121.420423333333","25.18469","6501000","淡水區"
"251012","441-VK","2018/04/13 18:19:12","新北市淡水區北新路二段77-5號","121.480518333333","25.1855766666667","6501000","淡水區"
"251005","443-VK","2018/04/13 18:19:16","新北市淡水區水源街一段122巷37號","121.447111666667","25.1704133333333","6501000","淡水區"
"251006","561-UM","2018/04/13 18:19:17","新北市淡水區新民街76巷6號","121.438951666667","25.1765266666667","6501000","淡水區"
"251009","575-R6","2018/04/13 18:19:12","新北市淡水區崁頂75-2號","121.435055","25.20384","6501000","淡水區"
"251011","650-BX","2018/04/13 18:19:21","新北市淡水區坪頂路41號","121.45724","25.16227","6501000","淡水區"
"251003","673-BX","2018/04/13 18:19:24","新北市淡水區北新路137號","121.449516666667","25.1788083333333","6501000","淡水區"
"207003","550-UM","2018/04/13 18:19:17","新北市萬里區野柳里港東路23號","121.687328333333","25.2036983333333","6502800","萬里區"
"207004","225-TW","2018/04/13 18:19:22","新北市萬里區中幅里中福路39-1號","121.677795","25.1662416666667","6502800","萬里區"
"252003","249-BX","2018/04/13 18:19:30","新北市三芝區錫板里海尾11-7號","121.478445","25.2607983333333","6502100","三芝區"
"252001","292-VK","2018/04/13 18:19:22","新北市三芝區中興街二段2號","121.498368333333","25.2566666666667","6502100","三芝區"
"237007","153-BY","2018/04/13 18:19:20","新北市三峽區中正路三段70巷14號","121.355861666667","24.9045383333333","6500900","三峽區"
"237011","572-TV","2018/04/13 18:19:22","新北市三峽區溪東路345號","121.41116","24.9297483333333","6500900","三峽區"
"237009","210-TH","2018/04/13 18:19:24","新北市三峽區中山路121號","121.365503333333","24.935925","6500900","三峽區"
"237013","252-BX","2018/04/13 18:18:53","新北市三峽區永安街46-2號","121.376745","24.9304966666667","6500900","三峽區"
"237012","275-BY","2018/04/13 18:19:15","新北市三峽區民生街19巷7弄47號","121.377478333333","24.935495","6500900","三峽區"
"237008","302-VK","2018/04/13 18:19:26","新北市三峽區白雞68-317號","121.391615","24.909925","6500900","三峽區"
"237014","433-BY","2018/04/13 18:19:14","新北市三峽區復興路110巷1弄15號","121.372375","24.9382983333333","6500900","三峽區"
"237006","5529-G3","2018/04/13 18:19:21","新北市三峽區溪東路473巷59號","121.415313333333","24.9286316666667","6500900","三峽區"
"237010","706-TV","2018/04/13 18:19:27","新北市三峽區中山路130號","121.365341666667","24.9360583333333","6500900","三峽區"
"237005","AKY-6261","2018/04/13 18:19:30","新北市三峽區秀川街68號","121.371008333333","24.9338983333333","6500900","三峽區"
"236069","105-UM","2018/04/13 18:19:16","新北市土城區永豐路151巷1號","121.467373333333","24.9827816666667","6501300","土城區"
"236042","107-UM","2018/04/13 18:19:28","新北市土城區裕生路21巷6弄23號","121.448716666667","24.98682","6501300","土城區"
"236079","166-UM","2018/04/13 18:19:20","新北市土城區中央路三段281巷11弄3號","121.426461666667","24.9628566666667","6501300","土城區"
"236030","253-BX","2018/04/13 18:19:29","新北市土城區順風路31號","121.440736666667","24.9767316666667","6501300","土城區"
"236026","269-VK","2018/04/13 18:19:18","新北市土城區承天路67號","121.439428333333","24.9637","6501300","土城區"
"236014","270-VK","2018/04/13 18:19:20","新北市土城區青雲路38號","121.459808333333","24.98842","6501300","土城區"
"236039","271-VK","2018/04/13 18:19:31","新北市土城區青雲路451巷8弄9號","121.459563333333","24.9743916666667","6501300","土城區"
"236020","401-BY","2018/04/13 18:19:20","新北市土城區明德路一段385-1號","121.452663333333","24.9800366666667","6501300","土城區"
"236059","912-UM","2018/04/13 18:19:28","新北市土城區中央路四段436號","121.41077","24.9515416666667","6501300","土城區"
"236048","913-UM","2018/04/13 18:19:27","新北市土城區明德路一段365-1號","121.453598333333","24.979015","6501300","土城區"
"236063","915-UM","2018/04/13 18:19:19","新北市土城區金城路三段193-1號","121.470006666667","24.988965","6501300","土城區"
"236055","AAC-216","2018/04/13 18:19:22","新北市土城區中華路二段100號","121.438076666667","24.97438","6501300","土城區"
"242058","986-R7","2018/04/13 18:19:19","新北市新莊區新北大道七段780號","121.412906666667","25.0248566666667","6500500","新莊區"
"242054","751-BX","2018/04/13 18:19:24","新北市新莊區光華街60巷1號","121.428293333333","25.0118333333333","6500500","新莊區"
"242029","705-TV","2018/04/13 18:19:30","新北市新莊區幸福路860號","121.44379","25.0489716666667","6500500","新莊區"
"242025","613-BX","2018/04/13 18:19:30","新北市新莊區五權一路12巷9弄17號","121.45788","25.0652583333333","6500500","新莊區"
"242041","566-BX","2018/04/13 18:19:27","新北市新莊區雙鳳路116巷15弄1號","121.413476666667","25.0289816666667","6500500","新莊區"
"242046","497-BY","2018/04/13 18:19:21","新北市新莊區福營路364號","121.4211","25.0265266666667","6500500","新莊區"
"242037","442-UM","2018/04/13 18:19:26","新北市新莊區後港一路49巷3弄11號","121.425113333333","25.0267233333333","6500500","新莊區"
"242050","441-UM","2018/04/13 18:19:29","新北市新莊區新樹路206巷3號","121.433531666667","25.0204633333333","6500500","新莊區"
"242056","440-UM","2018/04/13 18:19:27","新北市新莊區瓊林路13-3號","121.448871666667","25.0309666666667","6500500","新莊區"
"242007","413-TV","2018/04/13 18:19:15","新北市新莊區中華路二段36-1號","121.453905","25.0454266666667","6500500","新莊區"
"242044","400-BY","2018/04/13 18:19:28","新北市新莊區雙鳳路135號","121.413003333333","25.02752","6500500","新莊區"
"242060","353-BY","2018/04/13 18:19:24","新北市新莊區新樹路107號","121.437473333333","25.02683","6500500","新莊區"
"242048","172-VK","2018/04/13 18:19:26","新北市樹林區俊興街263號","121.418246666667","25.016935","6500500","新莊區"
"242011","173-VK","2018/04/13 18:19:22","新北市新莊區中榮街58號","121.449246666667","25.0526116666667","6500500","新莊區"
"242015","346-TH","2018/04/13 18:19:14","新北市新莊區中和街114號","121.447543333333","25.0474233333333","6500500","新莊區"
"242021","348-TH","2018/04/13 18:19:21","新北市新莊區中正路170號","121.450735","25.0358866666667","6500500","新莊區"
"242002","349-TH","2018/04/13 18:19:30","新北市新莊區碧江街39號","121.451863333333","25.032945","6500500","新莊區"
"238015","755-BX","2018/04/13 18:19:31","新北市樹林區文化街116巷24號","121.416838333333","24.989905","6500700","樹林區"
"238023","601-UM","2018/04/13 18:19:29","新北市樹林區三福街85巷8號","121.407011666667","25.0154666666667","6500700","樹林區"
"238019","599-UM","2018/04/13 18:19:18","新北市樹林區國凱街136巷25號","121.42369","24.9795916666667","6500700","樹林區"
"238018","571-TV","2018/04/13 18:19:27","新北市樹林區保安街一段22號","121.427506666667","24.99356","6500700","樹林區"
"238024","5061-A6","2018/04/13 18:19:30","新北市樹林區中山路一段276號","121.420668333333","24.9869066666667","6500700","樹林區"
"238021","KEA-2539","2018/04/13 18:19:01","新北市樹林區柑園街二段88-1號","121.38635","24.955055","6500700","樹林區"
"238025","303-VK","2018/04/13 18:19:17","新北市樹林區保安街一段227號","121.420255","24.9964133333333","6500700","樹林區"
"238017","283-BY","2018/04/13 18:19:31","新北市樹林區保安街三段71-3號","121.412656666667","25.0123783333333","6500700","樹林區"
"238014","282-BY","2018/04/13 18:19:15","新北市樹林區大安路111巷25號","121.42312","24.9975466666667","6500700","樹林區"
"238026","172-UY","2018/04/13 18:19:18","新北市樹林區佳園路一段75巷84號","121.396121666667","24.9701833333333","6500700","樹林區"
"238016","169-UY","2018/04/13 18:19:15","新北市樹林區文化街23號","121.419273333333","24.98764","6500700","樹林區"
"239007","AAC-297","2018/04/13 18:19:17","新北市鶯歌區重慶街53號","121.350216666667","24.9513366666667","6500800","鶯歌區"
"239006","891-R6","2018/04/13 18:19:12","新北市鶯歌區德昌街140巷3號","121.332056666667","24.9606533333333","6500800","鶯歌區"
"239008","527-UM","2018/04/13 18:19:30","新北市鶯歌區國際一路179號","121.33624","24.9764883333333","6500800","鶯歌區"
"239005","526-UM","2018/04/13 18:19:27","新北市鶯歌區鶯桃路668巷23號","121.329028333333","24.9702483333333","6500800","鶯歌區"
"239001","417-VK","2018/04/13 18:19:29","新北市鶯歌區二甲路光照巷8號","121.338206666667","24.940245","6500800","鶯歌區"
"239003","360-BY","2018/04/13 18:19:23","新北市鶯歌區福安街58號","121.335586666667","24.9652","6500800","鶯歌區"
"239002","359-BY","2018/04/13 18:19:30","新北市鶯歌區中正一路159號","121.35267","24.9564033333333","6500800","鶯歌區"
"239004","193-VK","2018/04/13 18:19:19","新北市鶯歌區尖山路240巷19號","121.342323333333","24.9474366666667","6500800","鶯歌區"
"221008","489-VK","2018/04/13 18:19:26","新北市汐止區汐萬路一段312號","121.650396666667","25.0754183333333","6501100","汐止區"
"221036","130-UY","2018/04/13 18:19:20","新北市汐止區長興街一段24號","121.669841666667","25.0789633333333","6501100","汐止區"
"221015","131-UY","2018/04/13 18:19:26","新北市汐止區鄉長路二段23巷16號","121.667675","25.083065","6501100","汐止區"
"221010","269-BY","2018/04/13 18:19:28","新北市汐止區汐萬路35號","121.644223333333","25.0915883333333","6501100","汐止區"
"221012","278-VK","2018/04/13 18:19:27","新北市汐止區保長路33號","121.672636666667","25.0794983333333","6501100","汐止區"
"221023","279-VK","2018/04/13 18:19:19","新北市汐止區康寧街474巷18-1號","121.63135","25.0675783333333","6501100","汐止區"
"221032","280-BY","2018/04/13 18:19:12","新北市汐止區橫科路2巷15號","121.616446666667","25.0506916666667","6501100","汐止區"
"221027","281-BY","2018/04/13 18:19:15","新北市汐止區和平街8號","121.663415","25.0709716666667","6501100","汐止區"
"221029","298-VK","2018/04/13 18:19:28","新北市汐止區樟樹二路330巷72-1號","121.642923333333","25.0699166666667","6501100","汐止區"
"221021","299-VK","2018/04/13 18:19:29","新北市汐止區新台五路一段125號","121.651745","25.06161","6501100","汐止區"
"221031","353-TW","2018/04/13 18:19:11","新北市汐止區光復街8巷50-1號","121.637671666667","25.0568366666667","6501100","汐止區"
"221035","622-UM","2018/04/13 18:19:11","新北市汐止區大同路二段179號","121.651978333333","25.0642216666667","6501100","汐止區"
"221025","623-UM","2018/04/13 18:19:16","新北市汐止區勤進路12巷49號","121.658996666667","25.06288","6501100","汐止區"
"221038","646-BX","2018/04/13 18:19:27","新北市汐止區忠孝東路254號","121.662973333333","25.0674616666667","6501100","汐止區"
"221033","647-BX","2018/04/13 18:19:15","新北市汐止區宜興街75號","121.622921666667","25.0431833333333","6501100","汐止區"
"221002","707-TV","2018/04/13 18:19:25","新北市汐止區福德一路201巷27號","121.635865","25.0647516666667","6501100","汐止區"
"221018","753-BX","2018/04/13 18:19:17","新北市汐止區茄苳路88巷19號","121.667546666667","25.0700133333333","6501100","汐止區"
"220018","282-UM","2018/04/13 18:07:00","新北市板橋區華東街1-9號","121.448246666667","24.9949183333333","6500100","板橋區"
"242009","281-VK","2018/04/13 18:19:23","新北市新莊區昌盛街2巷1弄2號","121.453108333333","25.0495166666667","6500500","新莊區"
"242032","280-VK","2018/04/13 18:19:15","新北市新莊區新泰路255巷50號","121.444058333333","25.0395283333333","6500500","新莊區"
