"lineid","car","time","location","longitude","latitude","cityid","cityname"
"234070","149-BY","2018/04/13 19:09:42","新北市永和區豫溪街137巷1弄22號","121.518525","25.0104583333333","6500400","永和區"
"234007","207-UY","2018/04/13 19:09:33","新北市永和區中山路一段211-1號","121.508736666667","25.0083183333333","6500400","永和區"
"234081","298-R6","2018/04/13 19:09:36","新北市永和區永貞路39巷9弄4號","121.522155","25.0067366666667","6500400","永和區"
"234038","336-UY","2018/04/13 19:09:24","新北市永和區民樂街71巷1號","121.527385","24.99757","6500400","永和區"
"234064","337-UY","2018/04/13 19:09:26","新北市永和區秀朗路二段49號","121.521658333333","25.0022616666667","6500400","永和區"
"234086","338-UY","2018/04/13 19:09:35","新北市永和區永利路4巷25號","121.517605","25.00487","6500400","永和區"
"234067","553-UM","2018/04/13 19:09:28","新北市永和區永和路一段63號","121.513043333333","25.0069566666667","6500400","永和區"
"234017","745-BX","2018/04/13 19:09:44","新北市永和區文化路90巷9弄1號","121.513798333333","25.015685","6500400","永和區"
"234030","746-BX","2018/04/13 19:09:39","新北市永和區民生路23號","121.52286","24.9987966666667","6500400","永和區"
"234054","KEA-2590","2018/04/13 19:09:31","新北市永和區竹林路78號","121.51935","25.0127516666667","6500400","永和區"
"234050","839-RS","2018/04/13 19:09:31","新北市永和區文化路135巷9號","121.510703333333","25.0145316666667","6500400","永和區"
"234013","KEA-2591","2018/04/13 19:09:35","新北市永和區保福路二段6號","121.510996666667","25.0109983333333","6500400","永和區"
"234061","AAD-866","2018/04/13 19:09:36","新北市永和區安樂路338號","121.514406666667","25.00611","6500400","永和區"
"234046","847-RS","2018/04/13 19:09:28","新北市永和區永元路18巷37號","121.524101666667","25.0003116666667","6500400","永和區"
"234042","862-TW","2018/04/13 19:09:30","新北市永和區保平路203巷6弄1號","121.509401666667","25.0044066666667","6500400","永和區"
"234026","9371-KE","2018/04/13 19:09:30","新北市永和區安樂路208-1號","121.515015","25.0019316666667","6500400","永和區"
"234023","9381-KE","2018/04/13 19:09:38","新北市永和區環河東路一段158號","121.521083333333","25.0145516666667","6500400","永和區"
"234011","9373-KE","2018/04/13 19:09:38","新北市永和區仁愛路141巷15號","121.512048333333","25.01154","6500400","永和區"
"249005","172-UM","2018/04/13 19:09:33","新北市八里區中華路三段99巷1號","121.393766666667","25.1384116666667","6502300","八里區"
"249001","173-UM","2018/04/13 19:09:38","新北市八里區龍米路三段2號","121.429626666667","25.15895","6502300","八里區"
"249003","593-UM","2018/04/13 19:09:38","新北市八里區博物館路15號","121.415405","25.1637266666667","6502300","八里區"
"248016","026-BX","2018/04/13 19:09:35","新北市五股區成泰路三段543巷30號","121.450713333333","25.102655","6501500","五股區"
"248006","077-UY","2018/04/13 19:09:23","新北市五股區四維路128號","121.46803","25.0749633333333","6501500","五股區"
"248008","095-VK","2018/04/13 19:09:40","新北市五股區中興路一段118巷12號","121.465966666667","25.07404","6501500","五股區"
"248018","225-UY","2018/04/13 19:09:24","新北市五股區民義路一段255-6號","121.426093333333","25.09142","6501500","五股區"
"248012","247-BX","2018/04/13 19:09:40","新北市五股區中興路四段48巷16號","121.438631666667","25.0834433333333","6501500","五股區"
"248010","272-BY","2018/04/13 19:09:32","新北市五股區水碓七路18號","121.428636666667","25.071475","6501500","五股區"
"248004","677-BX","2018/04/13 19:09:33","新北市五股區六合街3號","121.431916666667","25.08853","6501500","五股區"
"248002","678-BX","2018/04/13 19:09:31","新北市五股區凌雲路一段158巷14-1號","121.447831666667","25.1034366666667","6501500","五股區"
"234077","969-R7","2018/04/13 19:09:32","新北市永和區民族街45號","121.518628333333","24.998415","6500400","永和區"
"234074","AAC-211","2018/04/13 19:09:30","新北市永和區竹林路211號","121.520611666667","25.0088333333333","6500400","永和區"
"234003","AAC-295","2018/04/13 19:09:22","新北市永和區保福路一段43號","121.512598333333","25.009265","6500400","永和區"
"244013","069-UM","2018/04/13 19:09:26","新北市林口區麗園二街1巷3號","121.377015","25.0701366666667","6501700","林口區"
"244009","410-SL","2018/04/13 19:09:35","新北市林口區林口路72號","121.389966666667","25.0796983333333","6501700","林口區"
"244023","483-VK","2018/04/13 19:09:27","新北市林口區文化三路一段617巷88號","121.370638333333","25.0784216666667","6501700","林口區"
"244017","485-VK","2018/04/13 19:09:32","新北市林口區忠孝路308巷23號","121.368306666667","25.0724516666667","6501700","林口區"
"244019","657-BX","2018/04/13 19:09:24","新北市林口區麗園二街87號","121.382688333333","25.0667633333333","6501700","林口區"
"244011","701-TV","2018/04/13 19:09:31","新北市林口區中山路123巷6號","121.388745","25.0783066666667","6501700","林口區"
"243012","AAD-798","2018/04/13 19:09:32","新北市泰山區辭修路36巷8弄5號","121.427851666667","25.0586166666667","6501600","泰山區"
"243011","297-R6","2018/04/13 19:09:26","新北市泰山區明志路二段372巷2號","121.425421666667","25.0449683333333","6501600","泰山區"
"243015","380-SR","2018/04/13 19:09:33","新北市泰山區明志路一段386號","121.430778333333","25.0572716666667","6501600","泰山區"
"243014","421-VK","2018/04/13 19:09:33","新北市泰山區泰林路二段480號","121.425081666667","25.064","6501600","泰山區"
"243009","KEA-2216","2018/04/13 19:09:40","新北市泰山區明志路一段117巷16號","121.434136666667","25.0632833333333","6501600","泰山區"
"243013","646-TV","2018/04/13 19:09:36","新北市泰山區台麗街6巷11號","121.424135","25.0377116666667","6501600","泰山區"
"243016","680-BX","2018/04/13 19:09:27","新北市泰山區明志路二段379號","121.425151666667","25.0438516666667","6501600","泰山區"
"222003","436-BY","2018/04/13 19:09:30","新北市深坑區深南路162號","121.626105","25.01498","6501800","深坑區"
"222002","659-BX","2018/04/13 19:09:39","新北市深坑區紅葉街22號","121.632675","25.0134716666667","6501800","深坑區"
"231041","002-UM","2018/04/13 19:09:34","新北市新店區溪園路413號","121.52436","24.9785866666667","6500600","新店區"
"231059","046-UY","2018/04/13 19:09:40","新北市新店區安和路一段47號","121.517465","24.9657683333333","6500600","新店區"
"231040","047-UY","2018/04/13 19:09:42","新北市新店區三民路98-3號","121.533981666667","24.9734083333333","6500600","新店區"
"231044","106-UY","2018/04/13 19:09:37","新北市新店區中興路三段198號","121.543863333333","24.9817733333333","6500600","新店區"
"231053","110-UY","2018/04/13 19:09:40","新北市新店區自強路106巷5號","121.545588333333","24.9229783333333","6500600","新店區"
"231048","187-VK","2018/04/13 19:09:42","新北市新店區德正街27巷29弄15號","121.545073333333","24.9718766666667","6500600","新店區"
"231046","188-VK","2018/04/13 19:09:28","新北市新店區華潭街24號","121.529235","24.9532916666667","6500600","新店區"
"231054","KEA-2219","2018/04/13 19:09:27","新北市新店區新店路104號","121.537178333333","24.95459","6500600","新店區"
"231064","260-TV","2018/04/13 19:09:34","新北市新店區安忠路56巷6號","121.512961666667","24.9594","6500600","新店區"
"231051","278-BY","2018/04/13 19:09:29","新北市新店區中正路400巷5號","121.53485","24.9778116666667","6500600","新店區"
"231050","AAD-862","2018/04/13 19:09:40","新北市新店區竹林路30巷21號","121.552003333333","24.950235","6500600","新店區"
"231058","3713-VJ","2018/04/13 19:09:33","新北市新店區光明街168巷5弄1號","121.540371666667","24.9617433333333","6500600","新店區"
"231066","4716-K9","2018/04/13 19:09:38","新北市新店區安康路三段359巷16號","121.484626666667","24.9495766666667","6500600","新店區"
"231056","4715-K9","2018/04/13 19:09:43","新北市新店區中正路468號","121.533911666667","24.979665","6500600","新店區"
"231067","4772-VM","2018/04/13 19:09:29","新北市新店區柴埕路59號","121.51366","24.9646933333333","6500600","新店區"
"231065","512-UM","2018/04/13 19:09:33","新北市新店區安祥路145巷42號","121.475733333333","24.956935","6500600","新店區"
"231049","513-UM","2018/04/13 19:09:41","新北市新店區二十張路25巷20號","121.539278333333","24.981955","6500600","新店區"
"231045","617-UM","2018/04/13 19:09:40","新北市新店區北宜路一段123-2號","121.540608333333","24.953365","6500600","新店區"
"231061","618-UM","2018/04/13 19:09:40","新北市新店區安康路一段323-3號","121.521111666667","24.9637466666667","6500600","新店區"
"231063","641-BX","2018/04/13 19:09:40","新北市新店區車子路134號","121.504806666667","24.9485416666667","6500600","新店區"
"231042","645-TV","2018/04/13 19:09:35","新北市新店區中興路一段167號","121.542686666667","24.96436","6500600","新店區"
"231062","720-UM","2018/04/13 19:09:30","新北市新店區安和路二段32號","121.518086666667","24.9676733333333","6500600","新店區"
"231060","897-TW","2018/04/13 19:09:32","新北市新店區車子路1-1號","121.505003333333","24.9579883333333","6500600","新店區"
"231043","899-TW","2018/04/13 19:09:36","新北市新店區寶橋路132號","121.547365","24.9761083333333","6500600","新店區"
"231055","AKT-0513","2018/04/13 19:09:39","新北市新店區中華路83巷67號","121.538321666667","24.9672583333333","6500600","新店區"
"241026","066-VK","2018/04/13 19:09:39","新北市三重區泉州街61巷1號","121.494696666667","25.05452","6500200","三重區"
"241035","KEA-2210","2018/04/13 19:09:35","新北市三重區捷運路32號","121.484461666667","25.0557616666667","6500200","三重區"
"241006","AAD-863","2018/04/13 19:09:33","新北市三重區車路頭街139巷12號","121.484253333333","25.07619","6500200","三重區"
"241029","942-UM","2018/04/13 19:09:30","新北市三重區集美街257號","121.492468333333","25.05567","6500200","三重區"
"235066","003-UY","2018/04/13 19:09:41","新北市中和區廣福路12-5號","121.505316666667","25.0027066666667","6500300","中和區"
"235064","005-UY","2018/04/13 19:09:39","新北市中和區泰和街38巷23號","121.498676666667","25.0008816666667","6500300","中和區"
"235063","006-UY","2018/04/13 19:09:39","新北市中和區中正路588號","121.485918333333","24.994915","6500300","中和區"
"235056","096-UM","2018/04/13 19:09:34","新北市中和區員山路534號","121.478773333333","25.009845","6500300","中和區"
"235039","097-UM","2018/04/13 19:09:24","新北市永和區民有街24巷1弄7號","121.517071666667","24.99619","6500300","中和區"
"235065","098-UM","2018/04/13 19:09:38","新北市中和區中山路二段136巷23號","121.501416666667","25.0041633333333","6500300","中和區"
"235040","150-BY","2018/04/13 19:09:29","新北市中和區宜安路13號","121.513186666667","24.99563","6500300","中和區"
"235058","151-BY","2018/04/13 19:09:23","新北市中和區員山路105號","121.480833333333","24.9944283333333","6500300","中和區"
"235055","183-VK","2018/04/13 19:09:41","新北市中和區德光路26號","121.470798333333","25.0043266666667","6500300","中和區"
"235038","185-VK","2018/04/13 19:09:35","新北市中和區大仁街10巷27弄4號","121.519228333333","24.99275","6500300","中和區"
"235049","186-VK","2018/04/13 19:09:25","新北市中和區景安路85號","121.506033333333","24.9967233333333","6500300","中和區"
"235067","255-BX","2018/04/13 18:57:50","新北市中和區新生街179號","121.4837","25.00063","6500300","中和區"
"235044","293-VK","2018/04/13 19:09:28","新北市中和區中興街235巷1號","121.50076","24.9895733333333","6500300","中和區"
"235072","301-VK","2018/04/13 19:09:37","新北市中和區景平路668號","121.497328333333","25.0009783333333","6500300","中和區"
"235043","352-BY","2018/04/13 19:09:29","新北市中和區景平路116號","121.519326666667","24.99159","6500300","中和區"
"235068","377-QA","2018/04/13 19:09:21","新北市中和區圓通路185號","121.49756","24.99467","6500300","中和區"
"235061","378-QA","2018/04/13 19:09:38","新北市中和區中山路三段63巷13弄65號","121.476571666667","25.0032083333333","6500300","中和區"
"235060","269-TV","2018/04/13 19:09:42","新北市中和區民享街50號","121.474031666667","25.0025783333333","6500300","中和區"
"235050","4979-A6","2018/04/13 19:09:29","新北市中和區復興路249巷11弄3-1號","121.503626666667","24.9896766666667","6500300","中和區"
"235069","4980-A6","2018/04/13 19:09:31","新北市中和區中和路217巷18弄1號","121.504708333333","25.0002983333333","6500300","中和區"
"235042","551-UM","2018/04/13 19:09:43","新北市中和區自立路117巷3號","121.522366666667","24.9945416666667","6500300","中和區"
"235045","565-BX","2018/04/13 19:09:25","新北市中和區景新街467巷35弄17號","121.514055","24.9888266666667","6500300","中和區"
"235054","640-BX","2018/04/13 19:09:26","新北市中和區民德路132號","121.468808333333","25.0007383333333","6500300","中和區"
"235047","732-UM","2018/04/13 19:09:18","新北市中和區和平街50號","121.508716666667","24.990695","6500300","中和區"
"235046","733-UM","2018/04/13 19:09:29","新北市中和區忠孝街1巷42號","121.508528333333","24.9841266666667","6500300","中和區"
"235071","783-BX","2018/04/13 19:09:30","新北市中和區連城路314號","121.483576666667","24.9962","6500300","中和區"
"235057","801-TS","2018/04/13 19:09:31","新北市中和區民利街87號","121.478175","24.99811","6500300","中和區"
"235052","805-TS","2018/04/13 19:09:41","新北市中和區興南路二段242巷18號","121.502375","24.983195","6500300","中和區"
"235048","896-TW","2018/04/13 19:09:30","新北市中和區忠孝街3號","121.509493333333","24.9829716666667","6500300","中和區"
"235053","900-TW","2018/04/13 19:09:37","新北市中和區民德路258號","121.467778333333","24.99697","6500300","中和區"
"235070","911-UM","2018/04/13 19:09:32","新北市中和區中和路139號","121.501963333333","24.99985","6500300","中和區"
"235051","157-BY","2018/04/13 19:09:35","新北市中和區忠孝街31巷56號","121.509698333333","24.98554","6500300","中和區"
"235037","AAC-213","2018/04/13 19:09:38","新北市中和區秀朗路三段60巷9號","121.525778333333","24.9950566666667","6500300","中和區"
"235059","AAC-215","2018/04/13 19:09:36","新北市中和區圓通路294巷17-5號","121.48872","24.9904233333333","6500300","中和區"
"220068","013-TV","2018/04/13 19:09:27","新北市板橋區三民路一段31巷1號","121.479345","25.02309","6500100","板橋區"
"220056","015-TV","2018/04/13 18:43:04","新北市板橋區四川路二段121號","121.451316666667","24.9941583333333","6500100","板橋區"
"220065","072-UY","2018/04/13 19:09:40","新北市板橋區民族路219巷26號","121.46942","25.0084566666667","6500100","板橋區"
"220086","073-UY","2018/04/13 19:09:33","新北市板橋區中正路216巷133號","121.460441666667","25.0195483333333","6500100","板橋區"
"220106","075-UY","2018/04/13 19:09:37","新北市板橋區文化路二段124巷24號","121.471133333333","25.025685","6500100","板橋區"
"220069","AAD-861","2018/04/13 19:09:43","新北市板橋區四川路一段147號","121.459948333333","25.0042016666667","6500100","板橋區"
"226004","205-ST","2018/04/13 19:09:32","新北市平溪區十分里十分街210號","121.779225","25.0444516666667","6502400","平溪區"
"235041","251-BX","2018/04/13 19:09:33","新北市中和區安和路216號","121.506283333333","24.9992383333333","6500300","中和區"
"228001","212-TW","2018/04/13 19:09:28","新北市貢寮區真理里新港街26巷6-3號","121.925573333333","25.0545333333333","6502600","貢寮區"
"228002","663-BX","2018/04/13 19:09:36","新北市貢寮區福隆里福隆街32-1號","121.945116666667","25.01739","6502600","貢寮區"
"228003","828-UM","2018/04/13 19:09:34","新北市貢寮區和美里和美街24-1號","121.9133","25.0827816666667","6502600","貢寮區"
"224006","676-BX","2018/04/13 19:09:38","新北市瑞芳區中山路157號","121.802148333333","25.1065233333333","6501200","瑞芳區"
"224008","285-BY","2018/04/13 19:09:30","新北市瑞芳區明燈路三段180號","121.803196666667","25.1099033333333","6501200","瑞芳區"
"224007","275-VK","2018/04/13 19:09:36","新北市瑞芳區瑞竹路46號","121.7635","25.1033683333333","6501200","瑞芳區"
"224009","273-VK","2018/04/13 19:09:30","新北市瑞芳區洞頂路101巷22號","121.86057","25.1215666666667","6501200","瑞芳區"
"224005","271-BY","2018/04/13 19:09:28","新北市瑞芳區三爪子坑路63號","121.81267","25.107385","6501200","瑞芳區"
"227003","642-TC","2018/04/13 19:09:39","新北市雙溪區平林里梅竹蹊56-4號","121.860723333333","25.0366533333333","6502500","雙溪區"
"227011","400-TW","2018/04/13 19:09:40","新北市雙溪區牡丹里自強路18號","121.865168333333","25.039325","6502500","雙溪區"
"253005","032-BX","2018/04/13 19:09:29","新北市石門區阿里荖41-1號","121.605646666667","25.280595","6502200","石門區"
"253006","295-VK","2018/04/13 19:09:41","新北市石門區崁子腳58-1號","121.52932","25.285745","6502200","石門區"
"222001","KEA-2212","2018/04/13 19:09:29","新北市深坑區北深路一段300號","121.624216666667","25.0056716666667","6501800","深坑區"
"208002","KEA-2872","2018/04/13 19:09:28","新北市金山區中正路69巷21號","121.633988333333","25.2208983333333","6502700","金山區"
"208003","665-BX","2018/04/13 19:09:42","新北市金山區中正路33號","121.63511","25.2221016666667","6502700","金山區"
"251001","011-UM","2018/04/13 19:09:33","新北市淡水區自強路201巷43號","121.462073333333","25.12685","6501000","淡水區"
"251002","012-UM","2018/04/13 19:09:33","新北市淡水區中山路93-1號","121.442285","25.1704116666667","6501000","淡水區"
"251010","413-VK","2018/04/13 19:09:44","新北市淡水區中正路一段156巷3號","121.421155","25.180335","6501000","淡水區"
"251005","443-VK","2018/04/13 19:09:34","新北市淡水區中山路108巷16號","121.442135","25.171105","6501000","淡水區"
"251006","561-UM","2018/04/13 19:09:37","新北市淡水區中山北路三段116號","121.443836666667","25.1939083333333","6501000","淡水區"
"251009","575-R6","2018/04/13 19:09:32","新北市淡水區中正路38-1號","121.443755","25.1693066666667","6501000","淡水區"
"251007","577-R6","2018/04/13 19:09:36","新北市淡水區民生路145巷36-16號","121.467276666667","25.1388983333333","6501000","淡水區"
"251003","673-BX","2018/04/13 19:09:25","新北市淡水區中山北路一段94號","121.442421666667","25.1763733333333","6501000","淡水區"
"207003","550-UM","2018/04/13 19:09:37","新北市萬里區大鵬里萬里加投24-2號","121.649115","25.2073133333333","6502800","萬里區"
"207004","225-TW","2018/04/13 19:09:22","新北市萬里區萬里里瑪鋉下街46-1號","121.691533333333","25.1792883333333","6502800","萬里區"
"252002","178-VK","2018/04/13 19:09:40","新北市三芝區埔坪里埔頭坑84號","121.508085","25.25426","6502100","三芝區"
"252003","249-BX","2018/04/13 19:09:30","新北市三芝區錫板里南勢崗6號","121.479585","25.261985","6502100","三芝區"
"252001","292-VK","2018/04/13 19:09:42","新北市三芝區長勤街80號","121.500295","25.25513","6502100","三芝區"
"237004","KEA-2597","2018/04/13 19:09:38","新北市三峽區有木206號","121.439115","24.8514966666667","6500900","三峽區"
"237007","153-BY","2018/04/13 19:09:40","新北市三峽區中正路二段42巷84號","121.364356666667","24.92055","6500900","三峽區"
"237011","572-TV","2018/04/13 19:09:41","新北市三峽區民權街207號","121.367675","24.92861","6500900","三峽區"
"237009","210-TH","2018/04/13 19:09:24","新北市三峽區文化路131號","121.369676666667","24.9360583333333","6500900","三峽區"
"237013","252-BX","2018/04/13 19:09:33","新北市三峽區光明路69巷25號","121.376696666667","24.9291566666667","6500900","三峽區"
"237012","275-BY","2018/04/13 19:09:36","新北市三峽區三樹路222巷236弄23號","121.391451666667","24.9430666666667","6500900","三峽區"
"237008","302-VK","2018/04/13 19:09:44","新北市三峽區大同路77號","121.375041666667","24.927285","6500900","三峽區"
"237014","433-BY","2018/04/13 19:09:34","新北市三峽區中山路257巷39號","121.362141666667","24.9363483333333","6500900","三峽區"
"237006","5529-G3","2018/04/13 19:09:41","新北市三峽區介壽路一段496號","121.385605","24.9323116666667","6500900","三峽區"
"237010","706-TV","2018/04/13 19:09:27","新北市三峽區復興路113號","121.371768333333","24.9379166666667","6500900","三峽區"
"237005","AKY-6261","2018/04/13 19:09:25","新北市三峽區中山路459巷163-3號","121.348668333333","24.9329133333333","6500900","三峽區"
"236069","105-UM","2018/04/13 19:09:36","新北市土城區裕生路84巷2號","121.447226666667","24.985435","6501300","土城區"
"236079","166-UM","2018/04/13 19:09:40","新北市土城區龍泉路18號","121.410091666667","24.94845","6501300","土城區"
"236026","269-VK","2018/04/13 19:09:38","新北市土城區中央路二段187號","121.44209","24.97564","6501300","土城區"
"236014","270-VK","2018/04/13 19:09:42","新北市土城區學府路一段37巷16號","121.457763333333","24.9877966666667","6501300","土城區"
"236020","401-BY","2018/04/13 19:09:40","新北市土城區延峰街34巷2號","121.469526666667","24.98494","6501300","土城區"
"236059","912-UM","2018/04/13 19:09:37","新北市土城區金城路二段218-1號","121.455963333333","24.9826633333333","6501300","土城區"
"236048","913-UM","2018/04/13 19:09:27","新北市土城區明德路一段398-1號","121.453715","24.9790266666667","6501300","土城區"
"236055","AAC-216","2018/04/13 19:09:41","新北市土城區學府路一段276號","121.45004","24.9829716666667","6501300","土城區"
"242002","349-TH","2018/04/13 19:09:35","新北市新莊區瓊林南路77-41號","121.437626666667","25.0123266666667","6500500","新莊區"
"238015","755-BX","2018/04/13 19:09:25","新北市樹林區備內街148號","121.408058333333","24.98918","6500700","樹林區"
"238023","601-UM","2018/04/13 19:09:29","新北市樹林區大慶街64號","121.396546666667","25.01397","6500700","樹林區"
"238019","599-UM","2018/04/13 19:09:17","新北市樹林區東華街73號","121.41565","24.980865","6500700","樹林區"
"238018","571-TV","2018/04/13 19:09:44","新北市樹林區中華路213號","121.419545","24.98125","6500700","樹林區"
"238024","5061-A6","2018/04/13 19:09:30","新北市樹林區味王街20號","121.403185","24.97553","6500700","樹林區"
"238022","KEA-2213","2018/04/13 19:09:27","新北市樹林區中山路二段151巷8弄13號","121.406315","24.9777883333333","6500700","樹林區"
"238021","KEA-2539","2018/04/13 19:09:40","新北市樹林區柑園街二段334號","121.37198","24.9513183333333","6500700","樹林區"
"238025","303-VK","2018/04/13 19:09:37","新北市樹林區中山路三段26號","121.395461666667","24.9727866666667","6500700","樹林區"
"238017","283-BY","2018/04/13 19:09:31","新北市樹林區光興街310號","121.407598333333","25.0054883333333","6500700","樹林區"
"238014","282-BY","2018/04/13 19:09:35","新北市樹林區中正路22-1號","121.427753333333","24.999425","6500700","樹林區"
"238026","172-UY","2018/04/13 19:09:37","新北市樹林區佳園路二段29-1號","121.391678333333","24.96306","6500700","樹林區"
"238016","169-UY","2018/04/13 19:09:35","新北市樹林區中山路一段306巷51弄22號","121.417748333333","24.985975","6500700","樹林區"
"239007","AAC-297","2018/04/13 19:09:36","新北市鶯歌區中正一路211巷2號","121.353686666667","24.9572566666667","6500800","鶯歌區"
"239006","891-R6","2018/04/13 19:09:32","新北市鶯歌區建國路512巷54號","121.339046666667","24.9514666666667","6500800","鶯歌區"
"239008","527-UM","2018/04/13 19:09:44","新北市鶯歌區國際二路4巷12號","121.339021666667","24.973425","6500800","鶯歌區"
"239005","526-UM","2018/04/13 19:09:27","新北市鶯歌區東湖路30號","121.355665","24.9719416666667","6500800","鶯歌區"
"239001","417-VK","2018/04/13 19:09:29","新北市鶯歌區鶯桃路67巷14號","121.3403","24.95261","6500800","鶯歌區"
"239003","360-BY","2018/04/13 19:09:23","新北市鶯歌區八德路29號","121.335421666667","24.952","6500800","鶯歌區"
"239002","359-BY","2018/04/13 19:09:32","新北市鶯歌區湖山路2號","121.341668333333","24.9727816666667","6500800","鶯歌區"
"239004","193-VK","2018/04/13 19:09:39","新北市鶯歌區中正三路238號","121.330135","24.936715","6500800","鶯歌區"
"221008","489-VK","2018/04/13 19:09:37","新北市汐止區康寧街426號","121.63075","25.0681783333333","6501100","汐止區"
"221015","131-UY","2018/04/13 19:09:26","新北市汐止區康寧街901號","121.651696666667","25.07494","6501100","汐止區"
"221010","269-BY","2018/04/13 19:09:28","新北市汐止區康寧街901號","121.651413333333","25.0750266666667","6501100","汐止區"
"221012","278-VK","2018/04/13 19:09:27","新北市汐止區康寧街901號","121.650798333333","25.0752833333333","6501100","汐止區"
"221023","279-VK","2018/04/13 19:09:39","新北市汐止區康寧街901號","121.650988333333","25.07517","6501100","汐止區"
"221027","281-BY","2018/04/13 19:09:35","新北市汐止區康寧街901號","121.651426666667","25.0749316666667","6501100","汐止區"
"221029","298-VK","2018/04/13 19:09:27","新北市汐止區汐萬路一段256巷3號","121.652463333333","25.074575","6501100","汐止區"
"221031","353-TW","2018/04/13 19:09:31","新北市汐止區汐萬路一段333巷19號","121.649068333333","25.0759633333333","6501100","汐止區"
"221035","622-UM","2018/04/13 19:09:31","新北市汐止區康寧街901號","121.65157","25.0749516666667","6501100","汐止區"
"221025","623-UM","2018/04/13 19:09:36","新北市汐止區康寧街901號","121.651666666667","25.0749583333333","6501100","汐止區"
"221038","646-BX","2018/04/13 19:09:27","新北市汐止區汐萬路一段312號","121.6507","25.0752916666667","6501100","汐止區"
"221033","647-BX","2018/04/13 19:09:35","新北市汐止區南勢街1巷1號","121.627065","25.037465","6501100","汐止區"
"221002","707-TV","2018/04/13 19:09:25","台北市南港區南港路一段28號","121.618855","25.0547016666667","6501100","汐止區"
"220079","145-BY","2018/04/13 19:09:36","新北市板橋區民權路260巷35號","121.459175","25.0153","6500100","板橋區"
"220080","200-UY","2018/04/13 19:09:39","新北市板橋區大觀路二段5-5號","121.447126666667","25.00357","6500100","板橋區"
"220082","610-BX","2018/04/13 19:09:38","新北市板橋區溪北路49號","121.427718333333","24.9900033333333","6500100","板橋區"
"220101","245-BX","2018/04/13 19:09:40","新北市板橋區莊敬路208巷8弄9號","121.470766666667","25.020655","6500100","板橋區"
"220091","267-BY","2018/04/13 19:09:26","新北市板橋區縣民大道247巷80號","121.482161666667","25.0269616666667","6500100","板橋區"
"220072","277-BY","2018/04/13 19:09:42","新北市板橋區金門街260巷2號","121.429791666667","24.98696","6500100","板橋區"
"220070","282-UM","2018/04/13 19:09:37","新北市板橋區忠孝路33-1號","121.460873333333","25.0020666666667","6500100","板橋區"
"220071","283-VK","2018/04/13 19:09:29","新北市板橋區重慶路269巷63-2號","121.465138333333","24.9988366666667","6500100","板橋區"
"220094","285-UM","2018/04/13 19:09:26","新北市板橋區光武街133號","121.465663333333","25.0291483333333","6500100","板橋區"
"220053","285-VK","2018/04/13 19:09:40","新北市板橋區懷仁街35巷4弄1號","121.477165","25.0198466666667","6500100","板橋區"
"220083","286-VK","2018/04/13 19:09:37","新北市板橋區大觀路二段174巷165弄2-1號","121.441541666667","25.003455","6500100","板橋區"
"220081","287-VK","2018/04/13 19:09:41","新北市板橋區南雅西路二段156巷43號","121.452373333333","25.0129083333333","6500100","板橋區"
"220090","288-VK","2018/04/13 19:09:37","新北市板橋區裕民街42號","121.461798333333","25.028835","6500100","板橋區"
"220061","293-UM","2018/04/13 19:09:45","新北市板橋區懷仁街93號","121.477578333333","25.01812","6500100","板橋區"
"220075","303-R5","2018/04/13 19:09:41","新北市板橋區南雅南路一段4巷3號","121.455053333333","25.0052966666667","6500100","板橋區"
"220062","305-R5","2018/04/13 19:09:30","新北市板橋區三民路二段居仁巷1弄31號","121.480133333333","25.0136416666667","6500100","板橋區"
"220092","307-R5","2018/04/13 19:09:33","新北市板橋區文化路二段227號","121.470806666667","25.0284333333333","6500100","板橋區"
"220098","317-R6","2018/04/13 19:09:21","新北市板橋區四維路103巷9號","121.465065","25.02424","6500100","板橋區"
"220064","486-VK","2018/04/13 19:09:33","新北市板橋區板新路125號","121.471121666667","25.0150783333333","6500100","板橋區"
"220088","491-VK","2018/04/13 19:09:38","新北市板橋區文化路二段182巷1弄23號","121.471518333333","25.0280583333333","6500100","板橋區"
"220035","560-BX","2018/04/13 19:09:43","新北市板橋區中正路360巷57號","121.456448333333","25.0227983333333","6500100","板橋區"
"220103","561-BX","2018/04/13 19:09:29","新北市板橋區文化路一段188巷7弄42號","121.468213333333","25.0193783333333","6500100","板橋區"
"220084","568-UM","2018/04/13 19:09:35","新北市板橋區溪崑二街56巷36號","121.428238333333","24.9914483333333","6500100","板橋區"
"220063","609-BX","2018/04/13 19:09:37","新北市板橋區三民路二段204-4號","121.478945","25.01251","6500100","板橋區"
"220057","686-BX","2018/04/13 19:09:41","新北市板橋區重慶路293號","121.463436666667","24.9992883333333","6500100","板橋區"
"220093","689-BX","2018/04/13 19:09:31","新北市板橋區民生路三段189號","121.465428333333","25.02754","6500100","板橋區"
"220054","741-BX","2018/04/13 19:09:23","新北市板橋區實踐路32巷17-3號","121.463046666667","25.007105","6500100","板橋區"
"220102","KEA-2699","2018/04/13 19:09:23","新北市板橋區田單街2巷38號","121.482278333333","25.027605","6500100","板橋區"
"220055","827-TW","2018/04/13 19:09:36","新北市板橋區新民街7巷14號","121.463625","25.0104366666667","6500100","板橋區"
"220067","830-TW","2018/04/13 19:09:36","新北市板橋區民享街116巷2號","121.47791","25.0157033333333","6500100","板橋區"
"220096","831-TW","2018/04/13 19:09:37","新北市板橋區雙十路二段49號","121.47639","25.0261433333333","6500100","板橋區"
"220089","833-TW","2018/04/13 19:09:26","新北市板橋區文化路二段389號","121.473535","25.03146","6500100","板橋區"
"220074","895-R6","2018/04/13 19:09:29","新北市板橋區中正路自強新村91-3號","121.454843333333","25.0134733333333","6500100","板橋區"
"220073","985-R7","2018/04/13 19:09:27","新北市板橋區中正路307號","121.455195","25.01967","6500100","板橋區"
"220097","AAC-210","2018/04/13 19:09:30","新北市板橋區幸福路60巷57號","121.460055","25.021375","6500100","板橋區"
"220077","AAC-253","2018/04/13 19:09:39","新北市板橋區大觀路一段61號","121.447273333333","25.00507","6500100","板橋區"
