"lineid","car","time","location","longitude","latitude","cityid","cityname"
"234070","149-BY","2018/04/13 19:39:23","新北市永和區永和路二段233號","121.515438333333","25.014145","6500400","永和區"
"234007","207-UY","2018/04/13 19:39:35","新北市中和區中和路430號","121.511815","25.0034116666667","6500400","永和區"
"234081","298-R6","2018/04/13 19:39:42","新北市永和區林森路24號","121.525858333333","25.0052733333333","6500400","永和區"
"234038","336-UY","2018/04/13 19:39:28","新北市永和區民樂街27號","121.527626666667","25.0017466666667","6500400","永和區"
"234064","337-UY","2018/04/13 19:39:26","新北市永和區秀朗路一段192巷6弄12號","121.519101666667","25.0023183333333","6500400","永和區"
"234086","338-UY","2018/04/13 19:39:38","新北市永和區永亨路127號","121.524571666667","25.0040666666667","6500400","永和區"
"234067","553-UM","2018/04/13 19:39:28","新北市永和區中山路一段191巷9弄2號","121.509703333333","25.0079733333333","6500400","永和區"
"234017","745-BX","2018/04/13 19:39:24","新北市永和區永和路二段425巷70號","121.513471666667","25.017225","6500400","永和區"
"234030","746-BX","2018/04/13 19:39:39","新北市永和區四維街101號","121.523968333333","24.9980316666667","6500400","永和區"
"234054","KEA-2590","2018/04/13 19:39:35","新北市永和區竹林路39巷14號","121.518446666667","25.01461","6500400","永和區"
"234050","839-RS","2018/04/13 19:39:31","新北市永和區保安路116號","121.509301666667","25.01577","6500400","永和區"
"234013","KEA-2591","2018/04/13 19:39:35","新北市永和區仁愛路242號","121.508023333333","25.0115133333333","6500400","永和區"
"234061","AAD-866","2018/04/13 19:39:36","新北市永和區中正路446號","121.517448333333","25.00281","6500400","永和區"
"234046","847-RS","2018/04/13 19:39:28","新北市永和區永元路68號","121.5225","25.0016416666667","6500400","永和區"
"234042","862-TW","2018/04/13 19:39:30","新北市永和區中和路305巷4號","121.50666","25.0003833333333","6500400","永和區"
"234026","9371-KE","2018/04/13 19:39:30","新北市中和區中和路382號","121.510655","25.0022233333333","6500400","永和區"
"234011","9373-KE","2018/04/13 19:39:38","新北市永和區仁愛路295號","121.504815","25.0092083333333","6500400","永和區"
"249004","303-UY","2018/04/13 19:39:35","新北市八里區中山路一段268巷5弄1號","121.414521666667","25.1606183333333","6502300","八里區"
"249002","305-UY","2018/04/13 19:39:35","新北市八里區頂寮二街49號","121.449955","25.125415","6502300","八里區"
"249003","593-UM","2018/04/13 19:39:38","新北市八里區中華路二段516號","121.399283333333","25.1451733333333","6502300","八里區"
"248016","026-BX","2018/04/13 19:39:26","新北市五股區成泰路三段621號","121.452918333333","25.1038433333333","6501500","五股區"
"248008","095-VK","2018/04/13 19:39:40","新北市五股區四維路118巷10弄1號","121.468978333333","25.07429","6501500","五股區"
"248018","225-UY","2018/04/13 19:23:44","新北市五股區外寮路9-25號","121.415918333333","25.0790933333333","6501500","五股區"
"248012","247-BX","2018/04/13 19:39:40","新北市五股區成泰路一段241巷3號","121.436296666667","25.08091","6501500","五股區"
"248014","261-SL","2018/04/13 19:39:25","新北市五股區五福路52巷3弄12號","121.433355","25.0904233333333","6501500","五股區"
"248010","272-BY","2018/04/13 19:39:46","新北市五股區明德路32號","121.432566666667","25.071595","6501500","五股區"
"248004","677-BX","2018/04/13 19:39:33","新北市五股區成泰路二段116號","121.437991666667","25.0833983333333","6501500","五股區"
"248002","678-BX","2018/04/13 19:39:31","新北市五股區成泰路三段577巷56號","121.450523333333","25.1032833333333","6501500","五股區"
"234077","969-R7","2018/04/13 19:39:28","新北市永和區民權路45號","121.519956666667","24.9972683333333","6500400","永和區"
"234074","AAC-211","2018/04/13 19:39:30","新北市永和區竹林路222-1號","121.52083","25.007815","6500400","永和區"
"234003","AAC-295","2018/04/13 19:39:22","新北市永和區永和路一段17號","121.512908333333","25.005615","6500400","永和區"
"244013","069-UM","2018/04/13 19:39:26","新北市林口區中正路350號","121.38655","25.0780666666667","6501700","林口區"
"243012","AAD-798","2018/04/13 19:39:32","新北市泰山區仁愛路100巷58號","121.43383","25.05442","6501600","泰山區"
"243011","297-R6","2018/04/13 19:39:26","新北市泰山區明志路三段196巷21弄5號","121.423275","25.0383183333333","6501600","泰山區"
"243015","380-SR","2018/04/13 19:39:32","新北市泰山區民權街53號","121.429066666667","25.05037","6501600","泰山區"
"243014","421-VK","2018/04/13 19:39:33","新北市泰山區泰林路二段33-8號","121.435106666667","25.0563966666667","6501600","泰山區"
"243010","KEA-2215","2018/04/13 19:39:42","新北市泰山區民生路30號","121.430983333333","25.05202","6501600","泰山區"
"243009","KEA-2216","2018/04/13 19:39:39","新北市泰山區美寧街60號","121.43093","25.0646916666667","6501600","泰山區"
"243013","646-TV","2018/04/13 19:39:36","新北市泰山區明志路三段6巷16號","121.423921666667","25.043635","6501600","泰山區"
"243016","680-BX","2018/04/13 19:39:27","新北市泰山區新北大道七段97號","121.417915","25.0319816666667","6501600","泰山區"
"222003","436-BY","2018/04/13 19:34:31","新北市深坑區深南路51-1號","121.621086666667","25.009965","6501800","深坑區"
"222002","659-BX","2018/04/13 19:39:44","新北市深坑區北深路一段177號","121.632556666667","25.010905","6501800","深坑區"
"231041","002-UM","2018/04/13 19:39:14","新北市新店區中正路500號","121.534105","24.982305","6500600","新店區"
"231059","046-UY","2018/04/13 19:39:21","新北市新店區安和路三段77號","121.517891666667","24.9835583333333","6500600","新店區"
"231040","047-UY","2018/04/13 19:39:42","新北市新店區北新路一段96巷23號","121.54301","24.9686683333333","6500600","新店區"
"231044","106-UY","2018/04/13 19:39:37","新北市新店區民權路25號","121.541035","24.98265","6500600","新店區"
"231053","110-UY","2018/04/13 19:39:40","新北市新店區廣興路5巷19號","121.545573333333","24.91425","6500600","新店區"
"231048","187-VK","2018/04/13 19:39:22","新北市新店區五峰路61巷1號","121.548518333333","24.96967","6500600","新店區"
"231046","188-VK","2018/04/13 19:39:28","新北市新店區中正路329巷11-1號","121.534938333333","24.9736933333333","6500600","新店區"
"231054","KEA-2219","2018/04/13 19:39:27","新北市新店區文中路31號","121.538841666667","24.95704","6500600","新店區"
"231057","256-BX","2018/04/13 19:39:43","新北市新店區橘園一路11號","121.547946666667","24.93413","6500600","新店區"
"231064","260-TV","2018/04/13 19:39:34","新北市新店區安和路一段52巷2-1號","121.517716666667","24.96638","6500600","新店區"
"231051","278-BY","2018/04/13 19:39:29","新北市新店區中央四街7號","121.52976","24.9738266666667","6500600","新店區"
"231050","AAD-862","2018/04/13 19:39:40","新北市新店區郵政路4巷25號","121.556423333333","24.95169","6500600","新店區"
"231058","3713-VJ","2018/04/13 19:39:33","新北市新店區中華路60巷1弄7號","121.539488333333","24.9693516666667","6500600","新店區"
"231056","4715-K9","2018/04/13 19:39:43","新北市新店區安興路108號","121.515266666667","24.9771366666667","6500600","新店區"
"231067","4772-VM","2018/04/13 19:39:29","新北市新店區精忠路10-1號","121.532655","24.9590683333333","6500600","新店區"
"231065","512-UM","2018/04/13 19:39:33","新北市新店區安祥路109巷89號","121.47787","24.96001","6500600","新店區"
"231049","513-UM","2018/04/13 19:39:41","新北市新店區建國路128巷1號","121.539051666667","24.9794166666667","6500600","新店區"
"231045","617-UM","2018/04/13 19:39:34","新北市新店區北宜路二段270號","121.560785","24.95422","6500600","新店區"
"231061","618-UM","2018/04/13 19:39:40","新北市新店區安民街126號","121.516448333333","24.9690883333333","6500600","新店區"
"231063","641-BX","2018/04/13 19:39:40","新北市新店區達觀路16號","121.503161666667","24.9408733333333","6500600","新店區"
"231042","645-TV","2018/04/13 19:39:35","新北市新店區中興路一段208號","121.543816666667","24.9654816666667","6500600","新店區"
"231062","720-UM","2018/04/13 19:39:30","新北市新店區秀山路11巷8號","121.532001666667","24.95934","6500600","新店區"
"231060","897-TW","2018/04/13 19:39:32","新北市新店區安康路二段159巷2號","121.510288333333","24.9593216666667","6500600","新店區"
"231043","899-TW","2018/04/13 19:39:36","新北市新店區中正路136號","121.54194","24.9713933333333","6500600","新店區"
"231055","AKT-0513","2018/04/13 19:39:39","新北市新店區力行路14巷16弄2號","121.539101666667","24.9654566666667","6500600","新店區"
"241028","022-UY","2018/04/13 19:39:24","新北市三重區中正南路157號","121.493718333333","25.05613","6500200","三重區"
"241009","060-VK","2018/04/13 19:39:37","新北市三重區三和路四段396巷25號","121.480315","25.079025","6500200","三重區"
"241031","061-VK","2018/04/13 19:39:32","新北市三重區重新路四段240號","121.486053333333","25.0535916666667","6500200","三重區"
"241015","062-VK","2018/04/13 19:39:38","新北市三重區福德北路46號","121.501926666667","25.0655416666667","6500200","三重區"
"241017","063-VK","2018/04/13 19:39:29","新北市三重區大同北路182號","121.4915","25.0657266666667","6500200","三重區"
"241026","066-VK","2018/04/13 19:39:39","新北市三重區文化南路67號","121.500288333333","25.0607966666667","6500200","三重區"
"241003","091-VK","2018/04/13 19:39:29","新北市三重區仁義街238號","121.494326666667","25.0855566666667","6500200","三重區"
"241032","269-UM","2018/04/13 19:39:37","新北市三重區重陽路一段60巷74號","121.48432","25.0581833333333","6500200","三重區"
"241013","270-UM","2018/04/13 19:39:33","新北市三重區仁愛街119號","121.495463333333","25.074645","6500200","三重區"
"241025","271-UM","2018/04/13 19:39:37","新北市三重區忠孝路三段99巷11號","121.48008","25.0645533333333","6500200","三重區"
"241007","398-BY","2018/04/13 19:39:08","新北市三重區仁美街61號","121.486811666667","25.0784","6500200","三重區"
"241035","KEA-2210","2018/04/13 19:39:35","新北市三重區信義西街23號","121.497643333333","25.06463","6500200","三重區"
"241020","478-VK","2018/04/13 19:39:37","新北市三重區三和路四段20巷89號","121.48864","25.0732766666667","6500200","三重區"
"241030","480-VK","2018/04/13 19:39:42","新北市三重區中正南路263號","121.492843333333","25.0529783333333","6500200","三重區"
"241014","543-UM","2018/04/13 19:39:26","新北市三重區長壽街196號","121.504235","25.0691283333333","6500200","三重區"
"241023","545-UM","2018/04/13 19:39:22","新北市三重區忠孝路三段99巷8號","121.479791666667","25.0641833333333","6500200","三重區"
"241001","547-UM","2018/04/13 19:39:39","新北市三重區仁愛街315巷6號","121.492816666667","25.0794616666667","6500200","三重區"
"241019","KEA-2593","2018/04/13 19:39:35","新北市三重區六張街194巷1弄7號","121.488266666667","25.0682016666667","6500200","三重區"
"241006","AAD-863","2018/04/13 19:39:33","新北市三重區永福街295號","121.483738333333","25.07446","6500200","三重區"
"241022","887-TS","2018/04/13 19:39:42","新北市三重區中正北路162號","121.484591666667","25.0659816666667","6500200","三重區"
"241012","941-UM","2018/04/13 19:39:29","新北市三重區河邊北街256巷33號","121.500548333333","25.0759","6500200","三重區"
"241029","942-UM","2018/04/13 19:39:33","新北市三重區重安街102號","121.492983333333","25.055815","6500200","三重區"
"235066","003-UY","2018/04/13 19:39:41","新北市中和區南華路89號","121.505586666667","24.997445","6500300","中和區"
"235064","005-UY","2018/04/13 19:39:39","新北市中和區南山路127巷12號","121.503075","24.99731","6500300","中和區"
"235063","006-UY","2018/04/13 19:39:39","新北市中和區連城路221號","121.49426","24.9976416666667","6500300","中和區"
"235056","096-UM","2018/04/13 19:39:34","新北市中和區中山路三段114巷59號","121.475618333333","25.0080666666667","6500300","中和區"
"235039","097-UM","2018/04/13 19:39:24","新北市中和區秀峰街119巷8弄7號","121.519118333333","24.98983","6500300","中和區"
"235065","098-UM","2018/04/13 19:39:38","新北市中和區中山路二段178巷17-1號","121.500516666667","25.0033666666667","6500300","中和區"
"235040","150-BY","2018/04/13 19:39:29","新北市中和區安平路109號","121.511175","24.997795","6500300","中和區"
"235058","151-BY","2018/04/13 19:39:23","新北市中和區中正路637巷52弄1號","121.485436666667","24.99335","6500300","中和區"
"235055","183-VK","2018/04/13 19:39:41","新北市中和區中山路三段181巷2號","121.472825","25.006","6500300","中和區"
"235038","185-VK","2018/04/13 19:39:35","新北市中和區大智街55巷28號","121.520886666667","24.9928683333333","6500300","中和區"
"235049","186-VK","2018/04/13 19:39:25","新北市中和區景安路145號","121.505586666667","24.9954016666667","6500300","中和區"
"235067","255-BX","2018/04/13 19:39:30","新北市中和區新生街186巷6號","121.483296666667","24.9996616666667","6500300","中和區"
"235044","293-VK","2018/04/13 19:39:28","新北市中和區興南路一段164號","121.508161666667","24.9866516666667","6500300","中和區"
"235072","301-VK","2018/04/13 19:39:37","新北市中和區錦和路93巷2弄1號","121.490343333333","24.9956383333333","6500300","中和區"
"235043","352-BY","2018/04/13 19:39:38","新北市中和區興南路一段59號","121.510648333333","24.9897133333333","6500300","中和區"
"235068","377-QA","2018/04/13 19:39:41","新北市中和區廟美街22號","121.50087","25.0019783333333","6500300","中和區"
"235061","378-QA","2018/04/13 19:39:38","新北市中和區民安街4號","121.48085","25.001075","6500300","中和區"
"235060","269-TV","2018/04/13 19:39:42","新北市中和區中山路二段523巷18號","121.481623333333","25.004245","6500300","中和區"
"235050","4979-A6","2018/04/13 19:39:29","新北市中和區錦和路350-1號","121.490495","24.9935283333333","6500300","中和區"
"235042","551-UM","2018/04/13 19:39:29","新北市中和區宜安路119巷12號","121.509191666667","24.99837","6500300","中和區"
"235045","565-BX","2018/04/13 19:39:25","新北市中和區景新街487號","121.513636666667","24.9873533333333","6500300","中和區"
"235054","640-BX","2018/04/13 19:39:26","新北市中和區國光街107巷2弄32號","121.469226666667","24.9989866666667","6500300","中和區"
"235047","732-UM","2018/04/13 19:39:38","新北市中和區和平街12號","121.510066666667","24.9900366666667","6500300","中和區"
"235046","733-UM","2018/04/13 19:39:29","新北市中和區景新街496巷11號","121.513476666667","24.9867316666667","6500300","中和區"
"235071","783-BX","2018/04/13 19:39:30","新北市中和區中正路839巷29號","121.483653333333","25.0024083333333","6500300","中和區"
"235057","801-TS","2018/04/13 19:39:31","新北市中和區員山路162號","121.481335","24.9997316666667","6500300","中和區"
"235052","805-TS","2018/04/13 19:39:41","新北市中和區華新街206巷5號","121.506428333333","24.982225","6500300","中和區"
"235048","896-TW","2018/04/13 19:39:30","新北市中和區華新街34號","121.507746666667","24.9843733333333","6500300","中和區"
"235053","900-TW","2018/04/13 19:39:37","新北市中和區國光街215巷6弄2號","121.466436666667","25.0015833333333","6500300","中和區"
"235070","911-UM","2018/04/13 19:39:32","新北市中和區景平路634-19號","121.497986666667","25.0000816666667","6500300","中和區"
"235051","157-BY","2018/04/13 19:39:35","新北市中和區板南路132號","121.50248","24.9925883333333","6500300","中和區"
"235037","AAC-213","2018/04/13 19:39:38","新北市中和區秀朗路三段50巷7-1號","121.52572","24.9953866666667","6500300","中和區"
"235059","AAC-215","2018/04/13 19:39:36","新北市中和區圓通路343號","121.49145","24.9904433333333","6500300","中和區"
"220068","013-TV","2018/04/13 19:39:27","新北市板橋區中山路二段531巷17弄14號","121.482398333333","25.02211","6500100","板橋區"
"220056","015-TV","2018/04/13 19:22:04","新北市板橋區信義路113號","121.457866666667","24.993725","6500100","板橋區"
"220065","072-UY","2018/04/13 19:39:38","新北市板橋區國泰街39巷3弄1號","121.46846","25.006405","6500100","板橋區"
"220086","073-UY","2018/04/13 19:39:43","新北市板橋區林園街7-1號","121.453938333333","25.00922","6500100","板橋區"
"220106","075-UY","2018/04/13 19:39:37","新北市板橋區江寧路三段56號","121.471836666667","25.032055","6500100","板橋區"
"220069","AAD-861","2018/04/13 19:39:43","新北市板橋區南雅南路二段4巷2號","121.454531666667","25.0036983333333","6500100","板橋區"
"247004","337-TH","2018/04/13 19:39:26","新北市蘆洲區長安街98巷11號","121.4626","25.08165","6501400","蘆洲區"
"247008","056-VK","2018/04/13 19:39:26","新北市蘆洲區中山二路45巷30號","121.47427","25.0812","6501400","蘆洲區"
"247020","053-VK","2018/04/13 19:39:27","新北市五股區凌雲路一段21號","121.454751666667","25.0985","6501400","蘆洲區"
"226004","205-ST","2018/04/13 19:39:38","新北市平溪區石底里公園街17號","121.736921666667","25.0248833333333","6502400","平溪區"
"235041","251-BX","2018/04/13 19:39:41","新北市中和區中和路464號","121.51233","25.00384","6500300","中和區"
"228001","212-TW","2018/04/13 19:39:28","新北市貢寮區真理里延平街49號","121.924595","25.0556566666667","6502600","貢寮區"
"228003","828-UM","2018/04/13 19:39:34","新北市貢寮區真理里美艷山街15-3號","121.923666666667","25.068035","6502600","貢寮區"
"224002","639-TC","2018/04/13 19:39:42","新北市瑞芳區三爪子坑路13巷73號","121.814603333333","25.1065033333333","6501200","瑞芳區"
"227003","642-TC","2018/04/13 19:39:43","新北市雙溪區雙溪里大同街17號","121.864503333333","25.035145","6502500","雙溪區"
"227011","400-TW","2018/04/13 19:39:40","新北市雙溪區新基里新基北街22號","121.867218333333","25.03894","6502500","雙溪區"
"222001","KEA-2212","2018/04/13 19:39:28","新北市深坑區深坑街142號","121.613166666667","25.0014033333333","6501800","深坑區"
"208002","KEA-2872","2018/04/13 19:39:28","新北市金山區四維路2號","121.635505","25.2225183333333","6502700","金山區"
"208003","665-BX","2018/04/13 19:39:22","新北市金山區仁愛路6號","121.638611666667","25.2201266666667","6502700","金山區"
"251004","009-UM","2018/04/13 19:39:39","新北市淡水區民權路39號","121.459701666667","25.1408","6501000","淡水區"
"251008","010-UM","2018/04/13 19:39:36","新北市淡水區中正路一段8巷1弄11號","121.428176666667","25.175745","6501000","淡水區"
"251001","011-UM","2018/04/13 19:39:33","新北市淡水區民權路49號","121.459665","25.13929","6501000","淡水區"
"251010","413-VK","2018/04/13 19:39:44","新北市淡水區崁頂92號","121.429483333333","25.2022366666667","6501000","淡水區"
"251012","441-VK","2018/04/13 19:39:32","新北市淡水區中山北路三段160號","121.445696666667","25.1963666666667","6501000","淡水區"
"251005","443-VK","2018/04/13 19:39:34","新北市淡水區原德路92號","121.443103333333","25.1731783333333","6501000","淡水區"
"251006","561-UM","2018/04/13 19:39:37","新北市淡水區中山北路一段207巷32號","121.443275","25.179245","6501000","淡水區"
"251009","575-R6","2018/04/13 19:39:42","新北市淡水區中山北路一段217號","121.444388333333","25.1792316666667","6501000","淡水區"
"251007","577-R6","2018/04/13 19:39:36","新北市淡水區中正東路一段111巷17號","121.454905","25.1611","6501000","淡水區"
"251011","650-BX","2018/04/13 19:39:27","新北市淡水區八勢一街7-19號","121.46051","25.157365","6501000","淡水區"
"207003","550-UM","2018/04/13 19:39:37","新北市萬里區大鵬里下社2號","121.647776666667","25.2162466666667","6502800","萬里區"
"207004","225-TW","2018/04/13 19:39:22","新北市萬里區萬里里瑪鋉路21號","121.687351666667","25.1752616666667","6502800","萬里區"
"252002","178-VK","2018/04/13 19:39:40","新北市三芝區中正路一段18巷56號","121.504273333333","25.2587133333333","6502100","三芝區"
"252001","292-VK","2018/04/13 19:39:42","新北市三芝區公正街66號","121.499801666667","25.25747","6502100","三芝區"
"237004","KEA-2597","2018/04/13 19:39:38","新北市三峽區插角123號","121.410086666667","24.8706583333333","6500900","三峽區"
"237007","153-BY","2018/04/13 19:39:40","新北市三峽區二鬮路136巷24弄39號","121.35676","24.9104233333333","6500900","三峽區"
"237009","210-TH","2018/04/13 19:39:24","新北市三峽區中園街53號","121.368145","24.9260066666667","6500900","三峽區"
"237013","252-BX","2018/04/13 19:39:33","新北市三峽區介壽路一段400號","121.383781666667","24.93094","6500900","三峽區"
"237012","275-BY","2018/04/13 19:39:35","新北市三峽區光明路35號","121.373648333333","24.9307616666667","6500900","三峽區"
"237008","302-VK","2018/04/13 19:39:35","新北市三峽區中正路一段292巷12弄4號","121.371026666667","24.9261366666667","6500900","三峽區"
"237014","433-BY","2018/04/13 19:39:34","新北市三峽區嘉添65號","121.368658333333","24.9104416666667","6500900","三峽區"
"237006","5529-G3","2018/04/13 19:39:40","新北市三峽區中正路一段336巷15弄2號","121.36995","24.9249616666667","6500900","三峽區"
"237005","AKY-6261","2018/04/13 19:39:25","新北市三峽區中山路219巷17弄2號","121.363258333333","24.93618","6500900","三峽區"
"236069","105-UM","2018/04/13 19:39:35","新北市土城區金城路一段118號","121.445931666667","24.9747733333333","6501300","土城區"
"236079","166-UM","2018/04/13 19:39:39","新北市土城區溪頭路65號","121.411581666667","24.9546316666667","6501300","土城區"
"236030","253-BX","2018/04/13 19:39:29","新北市土城區福祥街40號","121.441293333333","24.9808866666667","6501300","土城區"
"236026","269-VK","2018/04/13 19:39:38","新北市土城區中央路二段57巷13號","121.443285","24.979","6501300","土城區"
"236020","401-BY","2018/04/13 19:39:40","新北市土城區峰廷街3號","121.469066666667","24.9873066666667","6501300","土城區"
"236048","913-UM","2018/04/13 19:39:30","新北市土城區明德路一段137-4號","121.465353333333","24.9808766666667","6501300","土城區"
"236063","915-UM","2018/04/13 19:39:39","新北市土城區延平街67號","121.467755","24.992835","6501300","土城區"
"236055","AAC-216","2018/04/13 19:39:41","新北市土城區學府路一段83號","121.456595","24.9881683333333","6501300","土城區"
"242029","705-TV","2018/04/13 19:39:25","新北市新莊區新泰路255巷83號","121.442133333333","25.0389383333333","6500500","新莊區"
"242046","497-BY","2018/04/13 19:39:24","新北市樹林區中正路288-4號","121.416583333333","25.0107266666667","6500500","新莊區"
"242037","442-UM","2018/04/13 19:39:26","新北市新莊區民安路207巷19號","121.42687","25.0231133333333","6500500","新莊區"
"242023","362-BY","2018/04/13 19:39:41","新北市新莊區中港路268號","121.453315","25.0439783333333","6500500","新莊區"
"242048","172-VK","2018/04/13 19:39:26","新北市新莊區民安路37巷4號","121.423835","25.0267866666667","6500500","新莊區"
"242011","173-VK","2018/04/13 19:39:22","新北市新莊區三和路12-21號","121.442011666667","25.038825","6500500","新莊區"
"242005","176-VK","2018/04/13 19:39:43","新北市新莊區化成路25-21號","121.463436666667","25.0437933333333","6500500","新莊區"
"242013","351-TH","2018/04/13 19:39:28","新北市新莊區中誠街119號","121.449406666667","25.0475533333333","6500500","新莊區"
"238015","755-BX","2018/04/13 19:39:25","新北市樹林區日新街58號","121.421965","24.9911416666667","6500700","樹林區"
"238023","601-UM","2018/04/13 19:39:29","新北市樹林區三福街38號","121.408103333333","25.0164566666667","6500700","樹林區"
"238019","599-UM","2018/04/13 19:39:38","新北市樹林區中山路二段121-6號","121.407953333333","24.97983","6500700","樹林區"
"238024","5061-A6","2018/04/13 19:39:30","新北市樹林區育德街40號","121.390081666667","24.96896","6500700","樹林區"
"238022","KEA-2213","2018/04/13 19:39:27","新北市樹林區名園街51巷6弄23號","121.420833333333","24.978145","6500700","樹林區"
"238021","KEA-2539","2018/04/13 19:39:40","新北市樹林區佳園路三段217號","121.38511","24.94629","6500700","樹林區"
"238025","303-VK","2018/04/13 19:39:37","新北市樹林區中山路二段42號","121.417121666667","24.9847983333333","6500700","樹林區"
"238017","283-BY","2018/04/13 19:39:42","新北市樹林區保安街二段45巷29-6號","121.41362","25.00023","6500700","樹林區"
"238014","282-BY","2018/04/13 19:39:35","新北市樹林區千歲街46巷19號","121.4267","24.99658","6500700","樹林區"
"239007","AAC-297","2018/04/13 19:39:36","新北市鶯歌區大湖路326巷5號","121.345511666667","24.9702633333333","6500800","鶯歌區"
"239006","891-R6","2018/04/13 19:39:32","新北市鶯歌區文化路57號","121.35873","24.956105","6500800","鶯歌區"
"239001","417-VK","2018/04/13 19:39:29","新北市鶯歌區文化路393巷2弄7號","121.354098333333","24.9505233333333","6500800","鶯歌區"
"221008","489-VK","2018/04/13 19:39:37","新北市汐止區康寧街61巷24號","121.619275","25.0672216666667","6501100","汐止區"
"221015","131-UY","2018/04/13 19:39:26","新北市汐止區康寧街901號","121.651595","25.0749716666667","6501100","汐止區"
"221010","269-BY","2018/04/13 19:39:28","新北市汐止區汐萬路一段357號","121.64997","25.0775733333333","6501100","汐止區"
"221012","278-VK","2018/04/13 19:39:34","新北市汐止區汐平路一段9號","121.680968333333","25.0712533333333","6501100","汐止區"
"221023","279-VK","2018/04/13 19:39:43","新北市汐止區中興路284號","121.628346666667","25.0694416666667","6501100","汐止區"
"221032","280-BY","2018/04/13 19:39:31","新北市汐止區汐萬路一段312號","121.650571666667","25.075395","6501100","汐止區"
"221027","281-BY","2018/04/13 19:39:35","新北市汐止區忠孝東路9號","121.658331666667","25.065945","6501100","汐止區"
"221029","298-VK","2018/04/13 19:39:27","新北市汐止區康寧街901號","121.651466666667","25.0749366666667","6501100","汐止區"
"221021","299-VK","2018/04/13 19:39:36","新北市汐止區新台五路一段129號","121.65228","25.0618083333333","6501100","汐止區"
"221031","353-TW","2018/04/13 19:39:31","新北市汐止區康寧街901號","121.650868333333","25.0752616666667","6501100","汐止區"
"221035","622-UM","2018/04/13 19:39:31","新北市汐止區康寧街901號","121.651598333333","25.0749366666667","6501100","汐止區"
"221025","623-UM","2018/04/13 19:39:36","新北市汐止區福安街20巷4號","121.662456666667","25.0649433333333","6501100","汐止區"
"221038","646-BX","2018/04/13 19:39:27","新北市汐止區忠孝東路250號","121.662906666667","25.06742","6501100","汐止區"
"221033","647-BX","2018/04/13 19:39:35","新北市汐止區南勢街1巷2號","121.626943333333","25.0374516666667","6501100","汐止區"
"220079","145-BY","2018/04/13 19:39:23","新北市板橋區復興街128號","121.46095","25.0180133333333","6500100","板橋區"
"220080","200-UY","2018/04/13 19:39:31","新北市板橋區大觀路二段37巷276號","121.449818333333","25.0011483333333","6500100","板橋區"
"220082","610-BX","2018/04/13 19:39:38","新北市板橋區大觀路三段175號","121.432053333333","24.993825","6500100","板橋區"
"220101","245-BX","2018/04/13 19:39:40","新北市板橋區縣民大道三段33巷6弄2號","121.474021666667","25.02098","6500100","板橋區"
"220091","267-BY","2018/04/13 19:39:43","新北市板橋區懷德街125號","121.47885","25.031","6500100","板橋區"
"220072","277-BY","2018/04/13 19:39:31","新北市板橋區金門街255號","121.43186","24.9889483333333","6500100","板橋區"
"220070","282-UM","2018/04/13 19:39:37","新北市板橋區民族路275號","121.470873333333","25.0067566666667","6500100","板橋區"
"220071","283-VK","2018/04/13 19:39:28","新北市板橋區信義路85號","121.457356666667","24.994","6500100","板橋區"
"220094","285-UM","2018/04/13 19:39:26","新北市板橋區銘傳街98號","121.46969","25.0316333333333","6500100","板橋區"
"220053","285-VK","2018/04/13 19:39:40","新北市板橋區民享街91號","121.477011666667","25.0159116666667","6500100","板橋區"
"220083","286-VK","2018/04/13 19:39:44","新北市板橋區龍興街63巷12號","121.442803333333","25.0014283333333","6500100","板橋區"
"220081","287-VK","2018/04/13 19:39:41","新北市板橋區大觀路一段29巷133弄2號","121.450326666667","25.0054283333333","6500100","板橋區"
"220090","288-VK","2018/04/13 19:39:37","新北市板橋區新海路404號","121.458645","25.026985","6500100","板橋區"
"220061","293-UM","2018/04/13 19:39:25","新北市板橋區中山路一段275號","121.469101666667","25.0136116666667","6500100","板橋區"
"220075","303-R5","2018/04/13 19:39:41","新北市板橋區大勇街2巷1號","121.455113333333","25.0175266666667","6500100","板橋區"
"220062","305-R5","2018/04/13 19:39:29","新北市板橋區三民路二段29巷31弄1號","121.48138","25.0176983333333","6500100","板橋區"
"220092","307-R5","2018/04/13 19:39:33","新北市板橋區自由路3號","121.465413333333","25.0223983333333","6500100","板橋區"
"220098","317-R6","2018/04/13 19:39:40","新北市板橋區四維路269巷39-3號","121.46158","25.0275416666667","6500100","板橋區"
"220064","486-VK","2018/04/13 19:39:29","新北市板橋區中山路一段135號","121.462446666667","25.010525","6500100","板橋區"
"242032","280-VK","2018/04/13 19:39:27","新北市新莊區公園一路140號","121.446388333333","25.0381916666667","6500500","新莊區"
"220088","491-VK","2018/04/13 19:39:29","新北市板橋區仁化街189號","121.478453333333","25.0340033333333","6500100","板橋區"
"220035","560-BX","2018/04/13 19:39:23","新北市板橋區金華街118號","121.459075","25.0207316666667","6500100","板橋區"
"220103","561-BX","2018/04/13 19:39:36","新北市板橋區文化路一段270巷3弄14號","121.46796","25.0208083333333","6500100","板橋區"
"220084","568-UM","2018/04/13 19:39:35","新北市板橋區滿平街84巷80號","121.426091666667","24.9872216666667","6500100","板橋區"
"220063","609-BX","2018/04/13 19:39:35","新北市板橋區中山路二段553巷4弄6號","121.483523333333","25.022625","6500100","板橋區"
"220057","686-BX","2018/04/13 19:39:40","新北市板橋區和平路安樂巷21號","121.46159","24.9937716666667","6500100","板橋區"
"220093","689-BX","2018/04/13 19:39:36","新北市板橋區長江路一段110號","121.459725","25.0296683333333","6500100","板橋區"
"220054","741-BX","2018/04/13 19:39:23","新北市板橋區忠孝路241號","121.466243333333","25.00295","6500100","板橋區"
"220102","KEA-2699","2018/04/13 19:39:23","新北市板橋區雙十路二段46巷45號","121.475726666667","25.0292283333333","6500100","板橋區"
"220055","827-TW","2018/04/13 19:39:36","新北市板橋區國慶路149巷18-4號","121.461158333333","24.9972833333333","6500100","板橋區"
"220067","830-TW","2018/04/13 19:39:40","新北市板橋區漢生東路279巷8號","121.47193","25.0090033333333","6500100","板橋區"
"220096","831-TW","2018/04/13 19:39:37","新北市板橋區民生路二段234巷77號","121.470186666667","25.0226066666667","6500100","板橋區"
"220089","833-TW","2018/04/13 19:39:31","新北市板橋區英士路17號","121.461693333333","25.0250816666667","6500100","板橋區"
"220074","895-R6","2018/04/13 19:39:29","新北市板橋區館前西路121號","121.456698333333","25.0075933333333","6500100","板橋區"
"220073","985-R7","2018/04/13 19:39:27","新北市板橋區國光路67巷14號","121.458986666667","25.01865","6500100","板橋區"
"220097","AAC-210","2018/04/13 19:39:09","新北市板橋區漢生西路89巷2弄4號","121.4619","25.0194033333333","6500100","板橋區"
"220077","AAC-253","2018/04/13 19:39:39","新北市板橋區僑中一街94號","121.446951666667","25.0116233333333","6500100","板橋區"
