"lineid","car","time","location","longitude","latitude","cityid","cityname"
"234070","149-BY","2018/04/13 19:59:23","新北市永和區國光路39號","121.519171666667","25.0082366666667","6500400","永和區"
"234007","207-UY","2018/04/13 19:59:33","新北市永和區保生路22巷10號","121.507383333333","25.0080333333333","6500400","永和區"
"234081","298-R6","2018/04/13 19:59:44","新北市永和區國中路30號","121.524681666667","25.0054383333333","6500400","永和區"
"234038","336-UY","2018/04/13 19:59:24","新北市永和區成功路二段152-2號","121.526455","24.9965916666667","6500400","永和區"
"234064","337-UY","2018/04/13 19:59:26","新北市永和區中正路412巷2弄11號","121.518476666667","25.0019733333333","6500400","永和區"
"234086","338-UY","2018/04/13 19:59:35","新北市永和區福和路46號","121.523641666667","25.008205","6500400","永和區"
"234067","553-UM","2018/04/13 19:59:28","新北市永和區中山路一段238號","121.507326666667","25.0075683333333","6500400","永和區"
"234017","745-BX","2018/04/13 19:59:24","新北市永和區文化路87號","121.513468333333","25.0150733333333","6500400","永和區"
"234030","746-BX","2018/04/13 19:59:39","新北市永和區民權路53-1號","121.520516666667","24.9968283333333","6500400","永和區"
"234054","KEA-2590","2018/04/13 19:59:31","新北市永和區環河東路一段122號","121.520623333333","25.0154483333333","6500400","永和區"
"234050","839-RS","2018/04/13 19:59:28","新北市永和區保安路151號","121.50697","25.01312","6500400","永和區"
"234013","KEA-2591","2018/04/13 19:59:35","新北市永和區保生路55號","121.504673333333","25.0105983333333","6500400","永和區"
"234061","AAD-866","2018/04/13 19:59:36","新北市永和區得和路76號","121.516381666667","25.00004","6500400","永和區"
"234046","847-RS","2018/04/13 19:59:41","新北市永和區成功路一段2號","121.526951666667","25.0055916666667","6500400","永和區"
"234042","862-TW","2018/04/13 19:59:30","新北市永和區雙和街13號","121.50955","25.00181","6500400","永和區"
"234026","9371-KE","2018/04/13 19:59:30","新北市永和區水源街21巷14弄4號","121.51135","25.0038883333333","6500400","永和區"
"234011","9373-KE","2018/04/13 19:59:38","新北市永和區仁愛路352巷122弄13號","121.500686666667","25.00893","6500400","永和區"
"249005","172-UM","2018/04/13 19:59:33","新北市八里區楓林路3-4號","121.381955","25.1293166666667","6502300","八里區"
"249001","173-UM","2018/04/13 19:59:27","新北市八里區中華路二段312號","121.403751666667","25.1484083333333","6502300","八里區"
"249004","303-UY","2018/04/13 19:59:35","新北市八里區中山路一段418-2號","121.411081666667","25.157815","6502300","八里區"
"249002","305-UY","2018/04/13 19:59:35","新北市八里區頂寮一街20-1號","121.451861666667","25.12426","6502300","八里區"
"249003","593-UM","2018/04/13 19:59:38","新北市八里區中華路二段560巷1號","121.398741666667","25.145","6502300","八里區"
"248016","026-BX","2018/04/13 19:59:26","新北市五股區成泰路三段577巷80弄39號","121.449698333333","25.1047716666667","6501500","五股區"
"248008","095-VK","2018/04/13 19:59:40","新北市五股區四維路30巷12號","121.467891666667","25.0714766666667","6501500","五股區"
"248018","225-UY","2018/04/13 19:59:24","新北市五股區登林路97號","121.416621666667","25.0752316666667","6501500","五股區"
"248012","247-BX","2018/04/13 19:59:40","新北市五股區民義路一段140號","121.434048333333","25.086595","6501500","五股區"
"248014","261-SL","2018/04/13 19:59:25","新北市五股區五福路14巷20號","121.435255","25.0888283333333","6501500","五股區"
"248010","272-BY","2018/04/13 19:59:43","新北市五股區登林路98號","121.42828","25.070155","6501500","五股區"
"248004","677-BX","2018/04/13 19:59:33","新北市五股區成泰路一段8巷2-3號","121.434893333333","25.0668516666667","6501500","五股區"
"248002","678-BX","2018/04/13 19:59:31","新北市五股區成泰路三段487號","121.450808333333","25.0992966666667","6501500","五股區"
"234077","969-R7","2018/04/13 19:59:28","新北市永和區民有街23巷1號","121.516818333333","24.9964333333333","6500400","永和區"
"234074","AAC-211","2018/04/13 19:59:10","新北市永和區豫溪街191巷1弄2號","121.523235","25.0103466666667","6500400","永和區"
"234003","AAC-295","2018/04/13 19:59:43","新北市永和區中正路696號","121.516548333333","25.0096816666667","6500400","永和區"
"243012","AAD-798","2018/04/13 19:59:32","新北市泰山區全興路87號","121.433286666667","25.0575483333333","6501600","泰山區"
"243011","297-R6","2018/04/13 19:59:26","新北市泰山區明志路三段182巷35號","121.42318","25.0394583333333","6501600","泰山區"
"243015","380-SR","2018/04/13 19:59:31","新北市泰山區明志路二段214巷9號","121.4268","25.0488216666667","6501600","泰山區"
"243014","421-VK","2018/04/13 19:59:33","新北市泰山區泰林路二段109-1號","121.4345","25.059285","6501600","泰山區"
"243010","KEA-2215","2018/04/13 19:59:22","新北市泰山區中華街10巷4號","121.428145","25.0524783333333","6501600","泰山區"
"243009","KEA-2216","2018/04/13 19:59:39","新北市泰山區泰林路二段164巷27號","121.434388333333","25.0611183333333","6501600","泰山區"
"243013","646-TV","2018/04/13 19:59:36","新北市泰山區應化街7號","121.42391","25.043685","6501600","泰山區"
"243016","680-BX","2018/04/13 19:58:27","新北市泰山區明志路三段521衖519號","121.42145","25.0317166666667","6501600","泰山區"
"222003","436-BY","2018/04/13 19:59:37","新北市深坑區埔新街14號","121.620741666667","25.003955","6501800","深坑區"
"222002","659-BX","2018/04/13 19:59:24","新北市深坑區北深路二段55巷12弄23號","121.61843","25.0031083333333","6501800","深坑區"
"231041","002-UM","2018/04/13 19:59:34","新北市新店區自由街2-1號","121.535541666667","24.975545","6500600","新店區"
"231059","046-UY","2018/04/13 19:59:40","新北市新店區安康路二段3-7號","121.515526666667","24.963625","6500600","新店區"
"231040","047-UY","2018/04/13 19:59:42","新北市新店區中正路75巷71號","121.543095","24.96866","6500600","新店區"
"231044","106-UY","2018/04/13 19:59:37","新北市新店區寶元路一段15巷20號","121.542008333333","24.9870033333333","6500600","新店區"
"231053","110-UY","2018/04/13 19:59:39","新北市新店區新烏路三段237號","121.546925","24.89637","6500600","新店區"
"231048","187-VK","2018/04/13 19:59:42","新北市新店區寶宏路28號","121.549401666667","24.9758333333333","6500600","新店區"
"231054","KEA-2219","2018/04/13 19:59:31","新北市新店區光明街149號","121.53949","24.9622516666667","6500600","新店區"
"231057","256-BX","2018/04/13 19:59:23","新北市新店區花園二路一段11號","121.55554","24.9324766666667","6500600","新店區"
"231064","260-TV","2018/04/13 19:59:34","新北市新店區光華街22號","121.517006666667","24.9692916666667","6500600","新店區"
"231051","278-BY","2018/04/13 19:59:29","新北市新店區中央二街22號","121.528535","24.9733666666667","6500600","新店區"
"231050","AAD-862","2018/04/13 19:59:40","新北市新店區北新路一段337號","121.541823333333","24.96869","6500600","新店區"
"231056","4715-K9","2018/04/13 19:59:43","新北市新店區明德路42號","121.541433333333","24.9780866666667","6500600","新店區"
"231067","4772-VM","2018/04/13 19:59:29","新北市新店區秀山路43號","121.531375","24.960645","6500600","新店區"
"231065","512-UM","2018/04/13 19:59:32","新北市新店區安祥路106巷20號","121.478073333333","24.96228","6500600","新店區"
"231049","513-UM","2018/04/13 19:59:41","新北市新店區明德路50號","121.541725","24.9785116666667","6500600","新店區"
"231045","617-UM","2018/04/13 19:59:34","新北市新店區北宜路二段149號","121.551795","24.9530783333333","6500600","新店區"
"231061","618-UM","2018/04/13 19:59:40","新北市新店區安民街298號","121.51763","24.9736583333333","6500600","新店區"
"231063","641-BX","2018/04/13 19:59:40","新北市新店區黎明路13號","121.502278333333","24.95008","6500600","新店區"
"231042","645-TV","2018/04/13 19:59:35","新北市新店區中正路5號","121.545718333333","24.969125","6500600","新店區"
"231068","718-UY","2018/04/13 19:59:26","新北市新店區安華路28-1號","121.5193","24.96092","6500600","新店區"
"231062","720-UM","2018/04/13 19:59:30","新北市新店區華潭街26巷3弄1號","121.530111666667","24.9531933333333","6500600","新店區"
"231060","897-TW","2018/04/13 19:59:32","新北市新店區安康路二段393號","121.494395","24.954155","6500600","新店區"
"231043","899-TW","2018/04/13 19:59:36","新北市新店區中正路263-5號","121.538208333333","24.9739133333333","6500600","新店區"
"231055","AKT-0513","2018/04/13 19:59:39","新北市新店區中華路83巷67號","121.538351666667","24.9672783333333","6500600","新店區"
"241011","013-R5","2018/04/13 19:59:34","新北市三重區三和路二段222號","121.497853333333","25.0696116666667","6500200","三重區"
"241028","022-UY","2018/04/13 19:59:44","新北市三重區中正南路41巷1號","121.493798333333","25.0599966666667","6500200","三重區"
"241009","060-VK","2018/04/13 19:59:37","新北市三重區三和路四段388-2號","121.482033333333","25.0790683333333","6500200","三重區"
"241031","061-VK","2018/04/13 19:59:32","新北市三重區重新路四段144巷27號","121.487026666667","25.0550916666667","6500200","三重區"
"241015","062-VK","2018/04/13 19:59:38","新北市三重區三和路二段31號","121.500985","25.067075","6500200","三重區"
"241017","063-VK","2018/04/13 19:59:43","新北市三重區自強路一段288號","121.491685","25.0681983333333","6500200","三重區"
"241024","065-VK","2018/04/13 19:59:41","新北市三重區力行路一段178巷11號","121.481515","25.0714133333333","6500200","三重區"
"241026","066-VK","2018/04/13 19:59:39","新北市三重區仁慈街18號","121.501916666667","25.0631983333333","6500200","三重區"
"241002","090-VK","2018/04/13 19:59:33","新北市三重區自強路五段80號","121.496258333333","25.0830966666667","6500200","三重區"
"241003","091-VK","2018/04/13 19:59:29","新北市三重區仁愛街433號","121.490276666667","25.08192","6500200","三重區"
"241005","262-UM","2018/04/13 19:59:27","新北市三重區溪尾街358號","121.488606666667","25.0854833333333","6500200","三重區"
"241016","265-UM","2018/04/13 19:59:43","新北市三重區正義北路36巷23號","121.496555","25.06337","6500200","三重區"
"241018","268-UM","2018/04/13 19:59:37","新北市三重區雙園街57巷9號","121.49502","25.0679116666667","6500200","三重區"
"241032","269-UM","2018/04/13 19:59:37","新北市三重區朝陽街4巷2號","121.48369","25.0561583333333","6500200","三重區"
"241013","270-UM","2018/04/13 19:59:33","新北市三重區三和路三段125巷30號","121.493751666667","25.073675","6500200","三重區"
"241025","271-UM","2018/04/13 19:59:37","新北市三重區頂崁街210巷16號","121.476601666667","25.0676683333333","6500200","三重區"
"241007","398-BY","2018/04/13 19:59:28","新北市三重區慈愛街131號","121.488658333333","25.079905","6500200","三重區"
"241035","KEA-2210","2018/04/13 19:59:35","新北市三重區大榮街11號","121.498271666667","25.0632883333333","6500200","三重區"
"241004","475-VK","2018/04/13 19:59:31","新北市三重區五華街74號","121.493375","25.0820716666667","6500200","三重區"
"241020","478-VK","2018/04/13 19:59:37","新北市三重區忠孝路一段107號","121.489146666667","25.0720766666667","6500200","三重區"
"241030","480-VK","2018/04/13 19:59:41","新北市三重區重新路四段244巷10號","121.486311666667","25.0535116666667","6500200","三重區"
"241014","543-UM","2018/04/13 19:59:38","新北市三重區萬壽街1號","121.499201666667","25.0692166666667","6500200","三重區"
"241023","545-UM","2018/04/13 19:59:42","新北市三重區大有街1-1號","121.477698333333","25.0656833333333","6500200","三重區"
"241001","547-UM","2018/04/13 19:59:39","新北市三重區福隆路44號","121.492401666667","25.078445","6500200","三重區"
"241019","KEA-2593","2018/04/13 19:59:41","新北市三重區重陽路四段40號","121.491365","25.069915","6500200","三重區"
"241006","AAD-863","2018/04/13 19:59:33","新北市三重區力行路二段119號","121.483083333333","25.0763816666667","6500200","三重區"
"241022","887-TS","2018/04/13 19:59:42","新北市三重區過圳街31巷2號","121.488895","25.06063","6500200","三重區"
"241012","941-UM","2018/04/13 19:59:29","新北市三重區仁厚街44號","121.500176666667","25.0765183333333","6500200","三重區"
"241029","942-UM","2018/04/13 19:59:30","新北市三重區重安街6號","121.49017","25.058305","6500200","三重區"
"241033","AAC-255","2018/04/13 19:59:37","新北市三重區中興北街14-1號","121.469355","25.04739","6500200","三重區"
"235066","003-UY","2018/04/13 19:59:41","新北市中和區中山路二段56號","121.504175","25.0047966666667","6500300","中和區"
"235063","006-UY","2018/04/13 19:59:39","新北市中和區連城路263巷27弄2號","121.492781666667","24.99456","6500300","中和區"
"235056","096-UM","2018/04/13 19:59:34","新北市中和區中山路三段170巷8弄17號","121.472973333333","25.0076983333333","6500300","中和區"
"235039","097-UM","2018/04/13 19:59:25","新北市中和區大勇街25巷40號","121.515446666667","24.9940033333333","6500300","中和區"
"235065","098-UM","2018/04/13 19:59:38","新北市中和區莊敬路1-6號","121.499448333333","25.0043116666667","6500300","中和區"
"235040","150-BY","2018/04/13 19:58:29","新北市中和區保健路19巷4弄4號","121.508598333333","24.9985","6500300","中和區"
"235058","151-BY","2018/04/13 19:59:43","新北市中和區員山路146巷10號","121.481845","24.9967766666667","6500300","中和區"
"235055","183-VK","2018/04/13 19:59:41","新北市中和區民生街23巷1弄1號","121.470835","25.0054316666667","6500300","中和區"
"235049","186-VK","2018/04/13 19:59:45","新北市中和區景平路510號","121.503496666667","24.993655","6500300","中和區"
"235067","255-BX","2018/04/13 19:59:30","新北市中和區員山路148巷23弄7號","121.482213333333","24.99765","6500300","中和區"
"235044","293-VK","2018/04/13 19:59:37","新北市中和區中正路69號","121.501136666667","24.9934216666667","6500300","中和區"
"235043","352-BY","2018/04/13 19:59:29","新北市中和區興南路二段159巷3號","121.505431666667","24.98342","6500300","中和區"
"235068","377-QA","2018/04/13 19:59:41","新北市中和區中山路二段250巷7號","121.497375","25.00307","6500300","中和區"
"235050","4979-A6","2018/04/13 19:59:29","新北市中和區景平路155巷4號","121.513368333333","24.9917233333333","6500300","中和區"
"235069","4980-A6","2018/04/13 19:59:31","新北市中和區圓通路85號","121.49984","24.9967916666667","6500300","中和區"
"235046","733-UM","2018/04/13 19:59:29","新北市中和區興南路一段105巷20弄1號","121.510205","24.98581","6500300","中和區"
"235052","805-TS","2018/04/13 19:59:41","新北市中和區華新街64號","121.508083333333","24.9838283333333","6500300","中和區"
"235048","896-TW","2018/04/13 19:59:30","新北市中和區景新街568-1號","121.514618333333","24.9866416666667","6500300","中和區"
"235070","911-UM","2018/04/13 19:59:32","新北市中和區圓通路144號","121.498223333333","24.9956866666667","6500300","中和區"
"235051","157-BY","2018/04/13 19:59:35","新北市中和區景安路247巷7號","121.504381666667","24.9905583333333","6500300","中和區"
"235037","AAC-213","2018/04/13 19:59:38","新北市中和區自立路16-2號","121.522118333333","24.9936716666667","6500300","中和區"
"235059","AAC-215","2018/04/13 19:59:36","新北市中和區圓通路335巷1弄1號","121.49209","24.99044","6500300","中和區"
"220068","013-TV","2018/04/13 19:59:27","新北市板橋區光復街172巷2弄1號","121.485286666667","25.019335","6500100","板橋區"
"220065","072-UY","2018/04/13 19:59:38","新北市板橋區中山路一段154巷3弄2號","121.465401666667","25.0103866666667","6500100","板橋區"
"220106","075-UY","2018/04/13 19:59:36","新北市板橋區民治街96巷26號","121.47846","25.0322666666667","6500100","板橋區"
"220069","AAD-861","2018/04/13 19:59:43","新北市板橋區大明街18-5號","121.458731666667","25.00293","6500100","板橋區"
"247024","893-R6","2018/04/13 19:59:36","新北市蘆洲區光明路112巷31號","121.463835","25.0872866666667","6501400","蘆洲區"
"247014","546-UM","2018/04/13 19:59:42","新北市蘆洲區得勝街145號","121.471786666667","25.0831016666667","6501400","蘆洲區"
"247010","341-TH","2018/04/13 19:59:38","新北市三重區集賢路188號","121.48391","25.0880583333333","6501400","蘆洲區"
"247004","337-TH","2018/04/13 19:59:40","新北市蘆洲區永康街75號","121.455861666667","25.0852083333333","6501400","蘆洲區"
"247006","336-TH","2018/04/13 19:59:31","新北市蘆洲區九芎街97號","121.466048333333","25.07946","6501400","蘆洲區"
"247018","057-VK","2018/04/13 19:59:28","新北市蘆洲區民族路213號","121.478076666667","25.089565","6501400","蘆洲區"
"247008","056-VK","2018/04/13 19:59:26","新北市蘆洲區信義路95號","121.477868333333","25.0798383333333","6501400","蘆洲區"
"247020","053-VK","2018/04/13 19:59:27","新北市蘆洲區民義街66號","121.47293","25.0896833333333","6501400","蘆洲區"
"247016","007-UY","2018/04/13 19:59:27","新北市蘆洲區中正路87號","121.469996666667","25.0838333333333","6501400","蘆洲區"
"247002","002-UY","2018/04/13 19:59:40","新北市蘆洲區長安街270號","121.457306666667","25.08685","6501400","蘆洲區"
"235041","251-BX","2018/04/13 19:59:33","新北市中和區中和路350巷12號","121.51095","25.0001733333333","6500300","中和區"
"228003","828-UM","2018/04/13 19:59:37","新北市貢寮區仁理村仁和路104號","121.922798333333","25.0508016666667","6502600","貢寮區"
"224002","639-TC","2018/04/13 19:59:22","新北市瑞芳區三爪子坑路89號","121.812048333333","25.1073633333333","6501200","瑞芳區"
"227003","642-TC","2018/04/13 19:59:39","新北市雙溪區雙溪里長安街16號","121.865025","25.0347433333333","6502500","雙溪區"
"227011","400-TW","2018/04/13 19:59:40","新北市雙溪區新基里新基南街25號","121.866245","25.03816","6502500","雙溪區"
"222001","KEA-2212","2018/04/13 19:59:40","新北市深坑區北深路三段155巷3號","121.602348333333","25.0031933333333","6501800","深坑區"
"208002","KEA-2872","2018/04/13 19:59:36","新北市金山區環金路87號","121.636956666667","25.2172983333333","6502700","金山區"
"208003","665-BX","2018/04/13 19:59:42","新北市金山區永興里忠義路29-1號","121.630711666667","25.2634733333333","6502700","金山區"
"251004","009-UM","2018/04/13 19:59:39","新北市淡水區民族路50巷42號","121.460808333333","25.1357216666667","6501000","淡水區"
"251008","010-UM","2018/04/13 19:59:36","新北市淡水區淡海路72巷20號","121.424035","25.1810433333333","6501000","淡水區"
"251002","012-UM","2018/04/13 19:59:33","新北市淡水區沙崙路50號","121.422423333333","25.1821216666667","6501000","淡水區"
"251010","413-VK","2018/04/13 19:59:24","新北市淡水區崁頂76-1號","121.430943333333","25.20356","6501000","淡水區"
"251012","441-VK","2018/04/13 19:59:32","新北市淡水區下圭柔山70-10號","121.447086666667","25.2065633333333","6501000","淡水區"
"251005","443-VK","2018/04/13 19:59:34","新北市淡水區學府路136巷43號","121.452133333333","25.17269","6501000","淡水區"
"251006","561-UM","2018/04/13 19:59:37","新北市淡水區水碓街79號","121.44497","25.1775016666667","6501000","淡水區"
"251009","575-R6","2018/04/13 19:59:31","新北市淡水區中山路8號","121.445025","25.1687216666667","6501000","淡水區"
"251007","577-R6","2018/04/13 19:59:36","新北市淡水區水源街二段177巷2弄8號","121.456148333333","25.17703","6501000","淡水區"
"251011","650-BX","2018/04/13 19:59:27","新北市淡水區崁頂57-7號","121.442426666667","25.1973233333333","6501000","淡水區"
"207003","550-UM","2018/04/13 19:59:37","新北市萬里區磺潭里公館崙5號","121.641906666667","25.2142733333333","6502800","萬里區"
"207004","225-TW","2018/04/13 19:59:42","新北市萬里區北基里忠二街35號","121.685628333333","25.1757066666667","6502800","萬里區"
"252002","178-VK","2018/04/13 19:59:40","新北市三芝區三民街39巷36號","121.505386666667","25.257555","6502100","三芝區"
"252001","292-VK","2018/04/13 19:59:42","新北市三芝區公正街9號","121.499796666667","25.2575183333333","6502100","三芝區"
"237004","KEA-2597","2018/04/13 19:59:38","新北市三峽區添福9-34號","121.3716","24.9068916666667","6500900","三峽區"
"237007","153-BY","2018/04/13 19:59:40","新北市三峽區麻園46號","121.363795","24.9212833333333","6500900","三峽區"
"237013","252-BX","2018/04/13 19:59:33","新北市三峽區介壽路二段165號","121.394118333333","24.9359533333333","6500900","三峽區"
"237012","275-BY","2018/04/13 19:59:35","新北市三峽區中華路96號","121.371166666667","24.9280833333333","6500900","三峽區"
"237014","433-BY","2018/04/13 19:59:34","新北市三峽區正義街76號","121.368973333333","24.9179466666667","6500900","三峽區"
"237006","5529-G3","2018/04/13 19:59:41","新北市三峽區中正路二段220號","121.364538333333","24.9138583333333","6500900","三峽區"
"237005","AKY-6261","2018/04/13 19:59:25","新北市三峽區民生街1巷5-96號","121.37964","24.9353666666667","6500900","三峽區"
"236069","105-UM","2018/04/13 19:59:35","新北市土城區忠義路77號","121.443255","24.964755","6501300","土城區"
"236079","166-UM","2018/04/13 19:59:39","新北市土城區福安街55巷10號","121.418898333333","24.9639916666667","6501300","土城區"
"236030","253-BX","2018/04/13 19:59:28","新北市土城區中央路一段252-1號","121.444306666667","24.9845983333333","6501300","土城區"
"236026","269-VK","2018/04/13 19:59:38","新北市土城區中央路二段98號","121.44229","24.97846","6501300","土城區"
"236014","270-VK","2018/04/13 19:59:40","新北市土城區廣福街123號","121.456218333333","24.9929616666667","6501300","土城區"
"236039","271-VK","2018/04/13 19:59:31","新北市土城區國際路70號","121.466511666667","24.9781433333333","6501300","土城區"
"236020","401-BY","2018/04/13 19:59:40","新北市土城區延吉街97巷11號","121.472156666667","24.9865483333333","6501300","土城區"
"236059","912-UM","2018/04/13 19:59:28","新北市土城區中央路一段269-3號","121.444931666667","24.9850666666667","6501300","土城區"
"236048","913-UM","2018/04/13 19:59:27","新北市中和區連城路631-2號","121.475553333333","24.99137","6501300","土城區"
"236063","915-UM","2018/04/13 19:59:39","新北市土城區金城路三段73巷9弄1號","121.466233333333","24.9876616666667","6501300","土城區"
"236055","AAC-216","2018/04/13 19:59:41","新北市土城區延和路15號","121.464071666667","24.9880966666667","6501300","土城區"
"242034","AAC-296","2018/04/13 19:59:35","新北市新莊區建中街100號","121.44649","25.03668","6500500","新莊區"
"242058","986-R7","2018/04/13 19:59:26","新北市新莊區八德街31號","121.424955","25.0223566666667","6500500","新莊區"
"242029","705-TV","2018/04/13 19:59:46","新北市新莊區中榮街89號","121.445201666667","25.0528116666667","6500500","新莊區"
"242025","613-BX","2018/04/13 19:59:27","新北市新莊區五工一路88號","121.461148333333","25.0674","6500500","新莊區"
"242046","497-BY","2018/04/13 19:59:24","新北市新莊區裕民街19巷4號","121.419743333333","25.0251483333333","6500500","新莊區"
"242037","442-UM","2018/04/13 19:59:26","新北市新莊區建安街27號","121.42912","25.0260283333333","6500500","新莊區"
"242050","441-UM","2018/04/13 19:59:29","新北市新莊區民本街25巷2號","121.428223333333","25.0194216666667","6500500","新莊區"
"242056","440-UM","2018/04/13 19:59:27","新北市新莊區中正路347巷23號","121.44729","25.03412","6500500","新莊區"
"242023","362-BY","2018/04/13 19:59:41","新北市新莊區化成路428號","121.466026666667","25.0511216666667","6500500","新莊區"
"242060","353-BY","2018/04/13 19:59:27","新北市新莊區瓊泰路3號","121.44485","25.02856","6500500","新莊區"
"242039","133-UY","2018/04/13 19:59:33","新北市新莊區民安路308號","121.428431666667","25.0217983333333","6500500","新莊區"
"242048","172-VK","2018/04/13 19:59:26","新北市新莊區富國路109巷2號","121.423813333333","25.0251083333333","6500500","新莊區"
"242011","173-VK","2018/04/13 19:58:22","新北市新莊區中港路531巷46號","121.450576666667","25.0518483333333","6500500","新莊區"
"242017","175-VK","2018/04/13 19:59:43","新北市新莊區中安街5巷27號","121.452385","25.046085","6500500","新莊區"
"242005","176-VK","2018/04/13 19:59:43","新北市新莊區化成路231號","121.465836666667","25.05253","6500500","新莊區"
"242015","346-TH","2018/04/13 19:59:42","新北市新莊區泰順街42號","121.446981666667","25.0427666666667","6500500","新莊區"
"242019","347-TH","2018/04/13 19:59:45","新北市新莊區民生街26號","121.456155","25.0422316666667","6500500","新莊區"
"242021","348-TH","2018/04/13 19:59:40","新北市新莊區建中街28號","121.449001666667","25.0376316666667","6500500","新莊區"
"242002","349-TH","2018/04/13 19:59:35","新北市新莊區中正路217號","121.45102","25.0358016666667","6500500","新莊區"
"242013","351-TH","2018/04/13 19:59:28","新北市新莊區幸福路670巷2弄1號","121.450961666667","25.0495583333333","6500500","新莊區"
"238015","755-BX","2018/04/13 19:57:45","新北市樹林區中山路三段214號","121.380408333333","24.9680316666667","6500700","樹林區"
"238023","601-UM","2018/04/13 19:59:29","新北市樹林區中正路263號","121.421911666667","25.0045966666667","6500700","樹林區"
"238021","KEA-2539","2018/04/13 19:59:40","新北市樹林區佳園路三段99巷29-1號","121.390271666667","24.9521933333333","6500700","樹林區"
"221008","489-VK","2018/04/13 19:59:37","新北市汐止區忠一街9巷7號","121.620446666667","25.0732216666667","6501100","汐止區"
"221036","130-UY","2018/04/13 19:59:40","新北市汐止區忠孝東路258巷16弄2號","121.663545","25.0672616666667","6501100","汐止區"
"221015","131-UY","2018/04/13 19:59:26","新北市汐止區大同路二段701號","121.665098333333","25.0727116666667","6501100","汐止區"
"221010","269-BY","2018/04/13 19:59:28","新北市汐止區八連路一段86巷1號","121.644388333333","25.08028","6501100","汐止區"
"221012","278-VK","2018/04/13 19:59:27","新北市汐止區大同路三段262-1號","121.676506666667","25.07176","6501100","汐止區"
"221023","279-VK","2018/04/13 19:59:39","新北市汐止區明峰街192號","121.628006666667","25.069725","6501100","汐止區"
"221032","280-BY","2018/04/13 19:59:31","新北市汐止區橫科路18巷8號","121.617806666667","25.0506133333333","6501100","汐止區"
"221027","281-BY","2018/04/13 19:59:35","新北市汐止區中正路101號","121.660948333333","25.0692533333333","6501100","汐止區"
"221029","298-VK","2018/04/13 19:59:27","新北市汐止區樟樹一路137巷26號","121.640985","25.0660183333333","6501100","汐止區"
"221021","299-VK","2018/04/13 19:59:28","新北市汐止區復興路48巷9號","121.656193333333","25.0624583333333","6501100","汐止區"
"221031","353-TW","2018/04/13 19:59:31","新北市汐止區福德一路251號","121.633596666667","25.0646433333333","6501100","汐止區"
"221035","622-UM","2018/04/13 19:59:40","新北市汐止區長江街47號","121.655966666667","25.0713916666667","6501100","汐止區"
"221025","623-UM","2018/04/13 19:59:36","新北市汐止區秀峰路107號","121.660233333333","25.0634266666667","6501100","汐止區"
"221038","646-BX","2018/04/13 19:59:27","新北市汐止區忠孝東路510號","121.666833333333","25.07539","6501100","汐止區"
"221033","647-BX","2018/04/13 19:59:35","新北市汐止區東勢街201巷88號","121.634005","25.0433916666667","6501100","汐止區"
"220079","145-BY","2018/04/13 19:59:43","新北市板橋區南雅西路二段104號","121.452223333333","25.0118233333333","6500100","板橋區"
"220080","200-UY","2018/04/13 19:59:31","新北市板橋區大觀路二段153巷8號","121.446046666667","25.00063","6500100","板橋區"
"220082","610-BX","2018/04/13 19:59:38","新北市板橋區大觀路三段133巷19號","121.432733333333","24.9945716666667","6500100","板橋區"
"220101","245-BX","2018/04/13 19:59:40","新北市板橋區縣民大道三段57號","121.47463","25.0211766666667","6500100","板橋區"
"220091","267-BY","2018/04/13 19:59:43","新北市板橋區懷德街158巷5號","121.478603333333","25.0305433333333","6500100","板橋區"
"220072","277-BY","2018/04/13 19:59:31","新北市板橋區金門街121巷13號","121.433695","24.9914583333333","6500100","板橋區"
"220070","282-UM","2018/04/13 19:59:37","新北市板橋區四川路一段126號","121.459828333333","25.004125","6500100","板橋區"
"220071","283-VK","2018/04/13 19:59:28","新北市板橋區國慶路182巷28-1號","121.46326","24.9955416666667","6500100","板橋區"
"220094","285-UM","2018/04/13 19:59:26","新北市板橋區雨農路27巷2號","121.46123","25.0240233333333","6500100","板橋區"
"220053","285-VK","2018/04/13 19:59:40","新北市板橋區永豐街68號","121.475105","25.0199983333333","6500100","板橋區"
"220083","286-VK","2018/04/13 19:59:36","新北市板橋區僑中二街88巷5號","121.446083333333","25.0094383333333","6500100","板橋區"
"220081","287-VK","2018/04/13 19:59:30","新北市板橋區僑中一街80巷12弄1號","121.448033333333","25.013165","6500100","板橋區"
"220090","288-VK","2018/04/13 19:59:37","新北市板橋區幸福路32巷2弄23號","121.460993333333","25.0216383333333","6500100","板橋區"
"220061","293-UM","2018/04/13 19:59:25","新北市板橋區觀光街1巷2號","121.472035","25.0154833333333","6500100","板橋區"
"220075","303-R5","2018/04/13 19:59:41","新北市板橋區金華街10巷80號","121.457881666667","25.0203366666667","6500100","板橋區"
"220062","305-R5","2018/04/13 19:59:38","新北市板橋區中山路二段613號","121.485626666667","25.0225533333333","6500100","板橋區"
"220092","307-R5","2018/04/13 19:59:33","新北市板橋區四維路259巷57號","121.46124","25.02692","6500100","板橋區"
"220098","317-R6","2018/04/13 19:59:40","新北市板橋區漢生西路165巷1號","121.462843333333","25.02336","6500100","板橋區"
"220064","486-VK","2018/04/13 19:59:41","新北市板橋區實踐路90號","121.463975","25.0051166666667","6500100","板橋區"
"242032","280-VK","2018/04/13 19:59:27","新北市新莊區忠孝街29巷43號","121.443598333333","25.037215","6500500","新莊區"
"220088","491-VK","2018/04/13 19:59:29","新北市板橋區懷德街181巷5號","121.479475","25.0300366666667","6500100","板橋區"
"220103","561-BX","2018/04/13 19:59:29","新北市板橋區陽明街29巷5號","121.465085","25.0216233333333","6500100","板橋區"
"220084","568-UM","2018/04/13 19:59:35","新北市板橋區溪崑二街112巷2號","121.426283333333","24.9887133333333","6500100","板橋區"
"220063","609-BX","2018/04/13 19:59:35","新北市板橋區中山路二段95號","121.474431666667","25.0160783333333","6500100","板橋區"
"220093","689-BX","2018/04/13 19:59:26","新北市板橋區長江路三段118號","121.475113333333","25.03441","6500100","板橋區"
"220054","741-BX","2018/04/13 19:59:43","新北市板橋區忠孝路忠義巷3弄24號","121.465331666667","25.0041166666667","6500100","板橋區"
"220102","KEA-2699","2018/04/13 19:59:23","新北市板橋區仁化街56號","121.475676666667","25.0315816666667","6500100","板橋區"
"220055","827-TW","2018/04/13 19:59:36","新北市板橋區仁愛路76巷8號","121.460595","24.9990983333333","6500100","板橋區"
"220067","830-TW","2018/04/13 19:59:40","新北市板橋區漢生東路193巷71號","121.47248","25.01197","6500100","板橋區"
"220096","831-TW","2018/04/13 19:59:37","新北市板橋區莒光路16巷5號","121.469678333333","25.02436","6500100","板橋區"
"220089","833-TW","2018/04/13 19:59:26","新北市板橋區新海路403巷1號","121.458465","25.0267083333333","6500100","板橋區"
"220074","895-R6","2018/04/13 19:59:29","新北市板橋區府後街1巷8號","121.459421666667","25.0109733333333","6500100","板橋區"
"220073","985-R7","2018/04/13 19:59:27","新北市板橋區南雅西路二段86號","121.452495","25.011025","6500100","板橋區"
"220097","AAC-210","2018/04/13 19:59:17","新北市板橋區光正街16巷6號","121.4631","25.017235","6500100","板橋區"
