"lineid","car","time","location","longitude","latitude","cityid","cityname"
"234070","149-BY","2018/04/13 20:09:32","新北市永和區福和路183巷1號","121.519973333333","25.00742","6500400","永和區"
"234007","207-UY","2018/04/13 20:09:33","新北市永和區保順路37巷7號","121.503181666667","25.0103383333333","6500400","永和區"
"234081","298-R6","2018/04/13 20:09:36","新北市永和區永亨路90號","121.522438333333","25.005305","6500400","永和區"
"234038","336-UY","2018/04/13 20:09:44","新北市永和區成功路一段66號","121.526798333333","25.0037116666667","6500400","永和區"
"234064","337-UY","2018/04/13 20:09:26","新北市永和區秀朗路二段47號","121.521691666667","25.0024016666667","6500400","永和區"
"234086","338-UY","2018/04/13 20:09:39","新北市永和區中正路529號","121.516885","25.007735","6500400","永和區"
"234067","553-UM","2018/04/13 20:09:28","新北市永和區保平路214巷10弄2號","121.509295","25.0064866666667","6500400","永和區"
"234017","745-BX","2018/04/13 20:09:44","新北市永和區文化路29號","121.514936666667","25.01504","6500400","永和區"
"234030","746-BX","2018/04/13 20:09:39","新北市永和區民權路49巷16號","121.520921666667","24.997295","6500400","永和區"
"234054","KEA-2590","2018/04/13 20:09:36","新北市永和區博愛街18巷1號","121.517515","25.0157466666667","6500400","永和區"
"234050","839-RS","2018/04/13 20:09:41","新北市永和區環河西路二段151號","121.505561666667","25.0140533333333","6500400","永和區"
"234013","KEA-2591","2018/04/13 20:09:35","新北市永和區永貞路387號","121.507981666667","25.00862","6500400","永和區"
"234061","AAD-866","2018/04/13 20:09:36","新北市永和區中正路129巷5號","121.515586666667","24.998155","6500400","永和區"
"234046","847-RS","2018/04/13 20:09:39","新北市永和區得和路396號","121.525393333333","24.999115","6500400","永和區"
"234042","862-TW","2018/04/13 20:09:30","新北市永和區雙和街4號","121.509816666667","25.0017083333333","6500400","永和區"
"234026","9371-KE","2018/04/13 20:09:30","新北市永和區仁愛路301號","121.503955","25.0081316666667","6500400","永和區"
"234023","9381-KE","2018/04/13 20:09:35","新北市永和區國光路89號","121.518345","25.0088583333333","6500400","永和區"
"234011","9373-KE","2018/04/13 20:09:38","新北市永和區仁愛路352巷122弄15號","121.500771666667","25.0089583333333","6500400","永和區"
"249005","172-UM","2018/04/13 20:09:33","新北市八里區下罟子59號","121.387251666667","25.1366166666667","6502300","八里區"
"249001","173-UM","2018/04/13 20:09:27","新北市八里區中華路二段326號","121.403255","25.147965","6502300","八里區"
"249004","303-UY","2018/04/13 20:09:35","新北市八里區中山路一段418-5號","121.410903333333","25.1581583333333","6502300","八里區"
"249002","305-UY","2018/04/13 20:09:35","新北市八里區龍米路一段3-6號","121.457145","25.117555","6502300","八里區"
"249003","593-UM","2018/04/13 20:09:38","新北市八里區中山路二段540巷9弄13號","121.39676","25.1465583333333","6502300","八里區"
"248016","026-BX","2018/04/13 20:09:26","新北市五股區凌雲路一段158巷50弄19號","121.447803333333","25.1043933333333","6501500","五股區"
"248008","095-VK","2018/04/13 20:09:40","新北市五股區中興路一段1巷12弄7號","121.469308333333","25.0711516666667","6501500","五股區"
"248018","225-UY","2018/04/13 20:09:44","新北市五股區自強路161號","121.43125","25.0692566666667","6501500","五股區"
"248012","247-BX","2018/04/13 20:09:40","新北市五股區六合街118號","121.430263333333","25.090805","6501500","五股區"
"248014","261-SL","2018/04/13 20:09:25","新北市五股區成泰路三段83號","121.443833333333","25.0900166666667","6501500","五股區"
"248010","272-BY","2018/04/13 20:09:32","新北市五股區成泰路一段7巷58號","121.432385","25.0675716666667","6501500","五股區"
"248004","677-BX","2018/04/13 20:09:33","新北市五股區成泰路一段149號","121.435431666667","25.0732366666667","6501500","五股區"
"248002","678-BX","2018/04/13 20:09:31","新北市五股區新城三路1號","121.447388333333","25.0939866666667","6501500","五股區"
"234077","969-R7","2018/04/13 20:09:28","新北市永和區民享街23巷5弄8號","121.516101666667","24.9957016666667","6500400","永和區"
"234074","AAC-211","2018/04/13 20:09:30","新北市永和區豫溪街150巷2號","121.521865","25.0104033333333","6500400","永和區"
"234003","AAC-295","2018/04/13 20:09:43","新北市永和區自強街32巷10號","121.516035","25.0076283333333","6500400","永和區"
"243012","AAD-798","2018/04/13 20:09:32","新北市泰山區楓江路48號","121.43542","25.062525","6501600","泰山區"
"243011","297-R6","2018/04/13 20:09:26","新北市新莊區明志路19號","121.419968333333","25.0291583333333","6501600","泰山區"
"243015","380-SR","2018/04/13 20:09:31","新北市泰山區明志路一段418號","121.43064","25.056555","6501600","泰山區"
"243014","421-VK","2018/04/13 20:09:33","新北市泰山區明志路一段24-1號","121.433606666667","25.0655933333333","6501600","泰山區"
"243010","KEA-2215","2018/04/13 20:09:42","新北市泰山區明志路二段136巷10號","121.426873333333","25.0507183333333","6501600","泰山區"
"243009","KEA-2216","2018/04/13 20:09:40","新北市泰山區泰林路二段116巷4弄2號","121.435071666667","25.0594366666667","6501600","泰山區"
"243013","646-TV","2018/04/13 20:09:44","新北市泰山區民國街12號","121.42545","25.0434733333333","6501600","泰山區"
"243016","680-BX","2018/04/13 20:09:43","新北市泰山區貴陽街4-1號","121.421655","25.0330766666667","6501600","泰山區"
"222003","436-BY","2018/04/13 20:09:37","新北市深坑區埔新街65號","121.620168333333","25.0023616666667","6501800","深坑區"
"222002","659-BX","2018/04/13 20:09:28","新北市深坑區北深路三段160號","121.60266","25.00332","6501800","深坑區"
"231041","002-UM","2018/04/13 20:09:34","新北市新店區中正路460號","121.534013333333","24.9793983333333","6500600","新店區"
"231059","046-UY","2018/04/13 20:09:43","新北市新店區安德街75號","121.510086666667","24.961455","6500600","新店區"
"231040","047-UY","2018/04/13 20:09:42","新北市新店區中正路106號","121.543093333333","24.970555","6500600","新店區"
"231044","106-UY","2018/04/13 20:09:17","新北市新店區寶慶街66號","121.542008333333","24.9868016666667","6500600","新店區"
"231053","110-UY","2018/04/13 20:09:40","新北市新店區新烏路三段寶島巷2弄3號","121.552031666667","24.8986683333333","6500600","新店區"
"231048","187-VK","2018/04/13 20:09:22","新北市新店區寶橋路82號","121.546333333333","24.975685","6500600","新店區"
"231054","KEA-2219","2018/04/13 20:09:27","新北市新店區檳榔路38號","121.541531666667","24.9638016666667","6500600","新店區"
"231057","256-BX","2018/04/13 20:09:43","新北市新店區花園一路一段2號","121.553208333333","24.9324316666667","6500600","新店區"
"231064","260-TV","2018/04/13 20:09:34","新北市新店區安康路二段58巷9號","121.513051666667","24.9639933333333","6500600","新店區"
"231051","278-BY","2018/04/13 20:09:29","新北市新店區中央七街6號","121.530445","24.9746683333333","6500600","新店區"
"231050","AAD-862","2018/04/13 20:09:40","新北市新店區北新路一段96巷23號","121.542905","24.9688133333333","6500600","新店區"
"231058","3713-VJ","2018/04/13 20:09:32","新北市新店區安民街121巷12號","121.5154","24.9692766666667","6500600","新店區"
"231056","4715-K9","2018/04/13 20:09:43","新北市新店區中正路265-1號","121.538001666667","24.974085","6500600","新店區"
"231067","4772-VM","2018/04/13 20:09:29","新北市新店區溪洲路8巷13-1號","121.533428333333","24.9619466666667","6500600","新店區"
"231065","512-UM","2018/04/13 20:09:33","新北市新店區安祥路106巷68號","121.47495","24.96027","6500600","新店區"
"231049","513-UM","2018/04/13 20:09:41","新北市新店區北新路二段121巷4號","121.542196666667","24.9750383333333","6500600","新店區"
"231045","617-UM","2018/04/13 20:09:34","新北市新店區北宜路一段28號","121.538156666667","24.956915","6500600","新店區"
"231061","618-UM","2018/04/13 20:09:40","新北市新店區安興路32號","121.515798333333","24.9703316666667","6500600","新店區"
"231063","641-BX","2018/04/13 20:09:40","新北市新店區黎明路51巷1號","121.501978333333","24.9493333333333","6500600","新店區"
"231042","645-TV","2018/04/13 20:09:35","新北市新店區中興路一段304號","121.546446666667","24.969725","6500600","新店區"
"231068","718-UY","2018/04/13 20:09:26","新北市新店區中興路二段99巷1號","121.547203333333","24.9719433333333","6500600","新店區"
"231062","720-UM","2018/04/13 20:09:30","新北市新店區安康路一段227號","121.525696666667","24.963105","6500600","新店區"
"231060","897-TW","2018/04/13 20:09:36","新北市新店區安康路三段440-5號","121.484593333333","24.9513233333333","6500600","新店區"
"231043","899-TW","2018/04/13 20:09:36","新北市新店區民族路207號","121.536955","24.9760633333333","6500600","新店區"
"231055","AKT-0513","2018/04/13 20:09:39","新北市新店區中華路42巷10號","121.540371666667","24.968455","6500600","新店區"
"241011","013-R5","2018/04/13 20:09:34","新北市三重區仁愛街51號","121.496501666667","25.0718383333333","6500200","三重區"
"241028","022-UY","2018/04/13 20:09:24","新北市三重區仁化街157號","121.49472","25.057095","6500200","三重區"
"241009","060-VK","2018/04/13 20:09:37","新北市三重區三和路四段382巷96弄1號","121.479051666667","25.0780366666667","6500200","三重區"
"241031","061-VK","2018/04/13 20:09:32","新北市三重區過圳街9-1號","121.488758333333","25.0601466666667","6500200","三重區"
"241015","062-VK","2018/04/13 20:09:38","新北市三重區福德北路24號","121.502265","25.064815","6500200","三重區"
"241017","063-VK","2018/04/13 20:09:29","新北市三重區長壽西街193號","121.492143333333","25.0664333333333","6500200","三重區"
"241024","065-VK","2018/04/13 20:09:41","新北市三重區中正北路280號","121.480751666667","25.0686066666667","6500200","三重區"
"241026","066-VK","2018/04/13 20:09:39","新北市三重區福德南路65巷2號","121.502413333333","25.0604783333333","6500200","三重區"
"241002","090-VK","2018/04/13 20:09:33","新北市三重區仁忠街31號","121.495905","25.082035","6500200","三重區"
"241003","091-VK","2018/04/13 20:09:29","新北市三重區仁愛街472號","121.489683333333","25.0824533333333","6500200","三重區"
"241005","262-UM","2018/04/13 20:09:27","新北市三重區碧華街294巷6號","121.489235","25.0837633333333","6500200","三重區"
"241016","265-UM","2018/04/13 20:09:43","新北市三重區中正北路25巷2號","121.493258333333","25.06269","6500200","三重區"
"241018","268-UM","2018/04/13 20:09:37","新北市三重區正義北路256巷112號","121.493646666667","25.0677933333333","6500200","三重區"
"241032","269-UM","2018/04/13 20:09:37","新北市三重區捷運路65號","121.483451666667","25.0556616666667","6500200","三重區"
"241013","270-UM","2018/04/13 20:09:39","新北市三重區三和路三段139巷36號","121.493908333333","25.074115","6500200","三重區"
"241025","271-UM","2018/04/13 20:09:42","新北市三重區中正北路416號","121.475096666667","25.0708783333333","6500200","三重區"
"241007","398-BY","2018/04/13 20:09:28","新北市三重區三和路四段111-33號","121.486375","25.0774266666667","6500200","三重區"
"241035","KEA-2210","2018/04/13 20:09:35","新北市三重區平安街57號","121.497761666667","25.0642316666667","6500200","三重區"
"241004","475-VK","2018/04/13 20:09:36","新北市三重區自強路四段100號","121.491206666667","25.0797566666667","6500200","三重區"
"241020","478-VK","2018/04/13 20:09:37","新北市三重區後竹圍街2巷1弄15號","121.49148","25.0734","6500200","三重區"
"241030","480-VK","2018/04/13 20:09:42","新北市三重區成功路145巷35號","121.48778","25.05316","6500200","三重區"
"241014","543-UM","2018/04/13 20:09:26","新北市三重區長壽街120巷28號","121.501976666667","25.0696666666667","6500200","三重區"
"241023","545-UM","2018/04/13 20:09:42","新北市三重區頂崁街229號","121.47704","25.068355","6500200","三重區"
"241001","547-UM","2018/04/13 20:09:39","新北市三重區三和路四段89巷20號","121.489926666667","25.0760216666667","6500200","三重區"
"241019","KEA-2593","2018/04/13 20:09:35","新北市三重區自強路二段35-1號","121.489536666667","25.069475","6500200","三重區"
"241006","AAD-863","2018/04/13 20:09:33","新北市三重區車路頭街139巷14號","121.484303333333","25.07619","6500200","三重區"
"241022","887-TS","2018/04/13 20:09:42","新北市三重區重陽路二段8號","121.486745","25.0618233333333","6500200","三重區"
"241012","941-UM","2018/04/13 20:09:29","新北市三重區仁福街64巷32號","121.49753","25.0757116666667","6500200","三重區"
"241029","942-UM","2018/04/13 20:09:30","新北市三重區光明路32巷28號","121.492015","25.058725","6500200","三重區"
"241033","AAC-255","2018/04/13 20:09:37","新北市三重區光復路一段68巷2號","121.471826666667","25.0491833333333","6500200","三重區"
"235066","003-UY","2018/04/13 20:09:41","新北市中和區水源路127巷2弄2號","121.508066666667","25.0040766666667","6500300","中和區"
"235039","097-UM","2018/04/13 20:09:25","新北市中和區大勇街25巷54號","121.515183333333","24.9944766666667","6500300","中和區"
"235065","098-UM","2018/04/13 20:09:38","新北市中和區福美路298-1號","121.497281666667","25.0050316666667","6500300","中和區"
"235040","150-BY","2018/04/13 20:09:29","新北市中和區保健路44巷1號","121.509538333333","24.9972116666667","6500300","中和區"
"235058","151-BY","2018/04/13 20:09:43","新北市中和區員山路150巷2弄47號","121.482096666667","24.9974866666667","6500300","中和區"
"235068","377-QA","2018/04/13 20:09:21","新北市中和區福祥路90巷7弄11號","121.499458333333","25.0063816666667","6500300","中和區"
"235050","4979-A6","2018/04/13 20:09:29","新北市中和區景新街323-1號","121.511281666667","24.9921433333333","6500300","中和區"
"235069","4980-A6","2018/04/13 20:09:31","新北市中和區景新街102號","121.504863333333","24.998425","6500300","中和區"
"235070","911-UM","2018/04/13 20:09:32","新北市中和區中正路446號","121.490996666667","24.9941183333333","6500300","中和區"
"235051","157-BY","2018/04/13 20:09:35","新北市中和區中興街126號","121.499753333333","24.9928416666667","6500300","中和區"
"235037","AAC-213","2018/04/13 20:09:38","新北市中和區立人街21號","121.521323333333","24.9940916666667","6500300","中和區"
"235059","AAC-215","2018/04/13 20:09:36","新北市中和區圓通路367巷13弄29-7號","121.493178333333","24.9882733333333","6500300","中和區"
"220068","013-TV","2018/04/13 20:09:27","新北市板橋區中山路二段352號","121.481521666667","25.0199983333333","6500100","板橋區"
"220065","072-UY","2018/04/13 20:09:38","新北市板橋區文化路二段656號","121.481375","25.0393066666667","6500100","板橋區"
"220106","075-UY","2018/04/13 20:09:37","新北市板橋區文聖街13號","121.475566666667","25.0323616666667","6500100","板橋區"
"220069","AAD-861","2018/04/13 20:09:43","新北市板橋區四川路二段140巷12號","121.449558333333","24.9933566666667","6500100","板橋區"
"247024","893-R6","2018/04/13 20:09:36","新北市蘆洲區光榮路118-2號","121.464998333333","25.0888766666667","6501400","蘆洲區"
"247014","546-UM","2018/04/13 20:09:42","新北市蘆洲區中山二路245號","121.470375","25.079545","6501400","蘆洲區"
"247022","500-BY","2018/04/13 20:09:40","新北市蘆洲區三民路173號","121.47104","25.08731","6501400","蘆洲區"
"247010","341-TH","2018/04/13 20:09:38","新北市蘆洲區中山一路74巷55號","121.479863333333","25.0816516666667","6501400","蘆洲區"
"247012","339-TH","2018/04/13 20:09:37","新北市蘆洲區民族路181號","121.478831666667","25.0887983333333","6501400","蘆洲區"
"247004","337-TH","2018/04/13 20:09:26","新北市蘆洲區永安南路二段328巷17弄6號","121.456351666667","25.084005","6501400","蘆洲區"
"247006","336-TH","2018/04/13 20:09:31","新北市蘆洲區永安南路二段16巷7號","121.467736666667","25.077355","6501400","蘆洲區"
"247018","057-VK","2018/04/13 20:09:28","新北市蘆洲區民族路314巷11號","121.477815","25.09056","6501400","蘆洲區"
"247020","053-VK","2018/04/13 20:09:27","新北市蘆洲區民義街68巷30號","121.474205","25.089245","6501400","蘆洲區"
"247016","007-UY","2018/04/13 20:09:27","新北市蘆洲區光華路167號","121.46506","25.0820516666667","6501400","蘆洲區"
"247002","002-UY","2018/04/13 20:09:40","新北市蘆洲區永康街2巷6號","121.459413333333","25.0861683333333","6501400","蘆洲區"
"222001","KEA-2212","2018/04/13 20:09:28","新北市深坑區北深路三段191號","121.601211666667","25.0036716666667","6501800","深坑區"
"208002","KEA-2872","2018/04/13 20:09:28","新北市金山區環金路462號","121.630136666667","25.2248083333333","6502700","金山區"
"208003","665-BX","2018/04/13 20:09:42","新北市金山區香園15號","121.634191666667","25.25267","6502700","金山區"
"251004","009-UM","2018/04/13 20:02:59","新北市淡水區民族路36號","121.46142","25.136305","6501000","淡水區"
"251008","010-UM","2018/04/13 20:09:36","新北市淡水區淡海路72巷28弄4號","121.424626666667","25.18224","6501000","淡水區"
"251002","012-UM","2018/04/13 20:09:33","新北市淡水區中正路292號","121.437633333333","25.1719866666667","6501000","淡水區"
"251010","413-VK","2018/04/13 20:09:44","新北市淡水區新市二路二段8號","121.424951666667","25.196435","6501000","淡水區"
"251012","441-VK","2018/04/13 20:09:32","新北市淡水區淡金路三段185號","121.448695","25.20452","6501000","淡水區"
"251006","561-UM","2018/04/13 20:09:37","新北市淡水區北新路141巷29號","121.448078333333","25.1795783333333","6501000","淡水區"
"251009","575-R6","2018/04/13 20:09:32","新北市淡水區英專路2巷27號","121.446371666667","25.1694516666667","6501000","淡水區"
"251003","673-BX","2018/04/13 20:09:44","新北市淡水區新市一路二段257號","121.44398","25.1829866666667","6501000","淡水區"
"207003","550-UM","2018/04/13 20:09:37","新北市萬里區大鵬里萬里加投180號","121.643041666667","25.215825","6502800","萬里區"
"207004","225-TW","2018/04/13 20:09:42","新北市萬里區北基里愛三街13號","121.681885","25.1766716666667","6502800","萬里區"
"252002","178-VK","2018/04/13 20:09:40","新北市三芝區三民街6號","121.503973333333","25.2579966666667","6502100","三芝區"
"252001","292-VK","2018/04/13 20:09:42","新北市三芝區公正街66號","121.499808333333","25.25747","6502100","三芝區"
"237006","5529-G3","2018/04/13 20:09:40","新北市三峽區嘉添227-30號","121.370773333333","24.9114866666667","6500900","三峽區"
"237005","AKY-6261","2018/04/13 20:09:25","新北市三峽區三樹路44巷20號","121.378546666667","24.9375216666667","6500900","三峽區"
"236069","105-UM","2018/04/13 20:09:35","新北市土城區中央路三段185-5號","121.431443333333","24.964855","6501300","土城區"
"236079","166-UM","2018/04/13 20:09:43","新北市土城區福安街2號","121.420378333333","24.965355","6501300","土城區"
"236030","253-BX","2018/04/13 20:09:38","新北市土城區中央路一段141號","121.446728333333","24.9879783333333","6501300","土城區"
"236026","269-VK","2018/04/13 20:09:38","新北市土城區中央路一段265號","121.445021666667","24.9853266666667","6501300","土城區"
"236014","270-VK","2018/04/13 20:09:40","新北市土城區廣明街1號","121.455875","24.9917366666667","6501300","土城區"
"236039","271-VK","2018/04/13 20:09:33","新北市土城區明德路一段48巷12號","121.464653333333","24.9837416666667","6501300","土城區"
"236020","401-BY","2018/04/13 20:09:45","新北市土城區延吉街17號","121.472283333333","24.988695","6501300","土城區"
"236059","912-UM","2018/04/13 20:09:28","新北市土城區中央路二段246號","121.441935","24.974775","6501300","土城區"
"236048","913-UM","2018/04/13 20:09:43","新北市土城區清水路97號","121.456581666667","24.9817783333333","6501300","土城區"
"236055","AAC-216","2018/04/13 20:09:41","新北市土城區中央路一段45巷22弄1號","121.449106666667","24.9899466666667","6501300","土城區"
"242034","AAC-296","2018/04/13 20:09:32","新北市新莊區中正路318巷18號","121.446386666667","25.0360133333333","6500500","新莊區"
"242058","986-R7","2018/04/13 20:09:26","新北市新莊區八德街137號","121.423786666667","25.020205","6500500","新莊區"
"242029","705-TV","2018/04/13 20:09:46","新北市新莊區中原路303號","121.447311666667","25.0542883333333","6500500","新莊區"
"242027","615-BX","2018/04/13 20:09:11","新北市新莊區中平路285號","121.444616666667","25.050385","6500500","新莊區"
"242025","613-BX","2018/04/13 20:09:27","新北市新莊區五工路66號","121.45864","25.0638716666667","6500500","新莊區"
"242041","566-BX","2018/04/13 20:09:32","新北市新莊區天祥街120巷3弄18號","121.414043333333","25.030455","6500500","新莊區"
"242046","497-BY","2018/04/13 20:09:44","新北市新莊區裕民街85巷20號","121.419548333333","25.0231933333333","6500500","新莊區"
"242037","442-UM","2018/04/13 20:09:26","新北市新莊區建安街59號","121.428288333333","25.0252766666667","6500500","新莊區"
"242050","441-UM","2018/04/13 20:09:29","新北市新莊區民安西路154號","121.426131666667","25.01638","6500500","新莊區"
"242056","440-UM","2018/04/13 20:09:27","新北市新莊區新莊路649巷15弄13號","121.445565","25.0315916666667","6500500","新莊區"
"242007","413-TV","2018/04/13 20:09:35","新北市新莊區福壽街142巷38號","121.459251666667","25.05191","6500500","新莊區"
"242044","400-BY","2018/04/13 20:09:24","新北市新莊區中正路897-6號","121.4121","25.0213166666667","6500500","新莊區"
"242023","362-BY","2018/04/13 20:09:41","新北市新莊區化成路652-1號","121.46597","25.05576","6500500","新莊區"
"242060","353-BY","2018/04/13 20:09:27","新北市新莊區瓊林路96-4號","121.443955","25.02721","6500500","新莊區"
"242039","133-UY","2018/04/13 20:09:33","新北市新莊區西盛街204巷11號","121.427473333333","25.0179666666667","6500500","新莊區"
"242048","172-VK","2018/04/13 20:09:26","新北市新莊區四維路152巷33號","121.422063333333","25.0223583333333","6500500","新莊區"
"242011","173-VK","2018/04/13 20:09:42","新北市新莊區中和街204巷7弄2號","121.448411666667","25.05041","6500500","新莊區"
"242017","175-VK","2018/04/13 20:09:44","新北市新莊區中港路365號","121.451958333333","25.0461833333333","6500500","新莊區"
"242005","176-VK","2018/04/13 20:09:43","新北市新莊區頭興街13巷1號","121.461511666667","25.0535266666667","6500500","新莊區"
"242015","346-TH","2018/04/13 20:09:22","新北市新莊區中平路26巷3號","121.44509","25.0433733333333","6500500","新莊區"
"242019","347-TH","2018/04/13 20:09:45","新北市新莊區長青街15號","121.458621666667","25.04214","6500500","新莊區"
"242021","348-TH","2018/04/13 20:09:40","新北市新莊區中興街5號","121.449176666667","25.0359633333333","6500500","新莊區"
"242002","349-TH","2018/04/13 20:09:44","新北市新莊區中正路55-1號","121.462098333333","25.03984","6500500","新莊區"
"242013","351-TH","2018/04/13 20:09:36","新北市新莊區幸福路710巷1弄6號","121.449376666667","25.0495083333333","6500500","新莊區"
"238015","755-BX","2018/04/13 20:09:25","新北市樹林區育德街78-1號","121.387358333333","24.9683033333333","6500700","樹林區"
"221008","489-VK","2018/04/13 20:09:37","台北市內湖區康樂街125號","121.619223333333","25.0711766666667","6501100","汐止區"
"221036","130-UY","2018/04/13 20:09:40","新北市汐止區福安街51號","121.663265","25.0644","6501100","汐止區"
"221015","131-UY","2018/04/13 20:09:26","新北市汐止區建成路27號","121.66407","25.0725933333333","6501100","汐止區"
"221010","269-BY","2018/04/13 20:09:28","新北市汐止區八連路二段228巷1-1號","121.632763333333","25.0973216666667","6501100","汐止區"
"221012","278-VK","2018/04/13 20:09:27","新北市汐止區汐平路二段66號","121.698673333333","25.0609533333333","6501100","汐止區"
"221023","279-VK","2018/04/13 20:09:39","新北市汐止區明峰街298巷7弄2號","121.624951666667","25.06896","6501100","汐止區"
"221032","280-BY","2018/04/13 20:09:31","新北市汐止區弘道街10號","121.61695","25.0485716666667","6501100","汐止區"
"221027","281-BY","2018/04/13 20:09:37","新北市汐止區民生街4巷2號","121.660165","25.06879","6501100","汐止區"
"221029","298-VK","2018/04/13 20:09:27","新北市汐止區樟樹一路123巷19號","121.641291666667","25.0645166666667","6501100","汐止區"
"221021","299-VK","2018/04/13 20:09:29","新北市汐止區連興街124號","121.653805","25.0619533333333","6501100","汐止區"
"221031","353-TW","2018/04/13 20:09:31","新北市汐止區福德二路91巷2號","121.632683333333","25.066145","6501100","汐止區"
"221035","622-UM","2018/04/13 20:09:31","新北市汐止區長江街79巷14號","121.657763333333","25.07286","6501100","汐止區"
"221025","623-UM","2018/04/13 20:09:36","新北市汐止區水源路一段242號","121.654128333333","25.060195","6501100","汐止區"
"221038","646-BX","2018/04/13 20:09:27","新北市汐止區大同路三段66-1號","121.668115","25.076965","6501100","汐止區"
"221033","647-BX","2018/04/13 20:09:35","新北市汐止區東勢街201巷104號","121.633561666667","25.0430183333333","6501100","汐止區"
"221002","707-TV","2018/04/13 20:09:25","新北市汐止區工建路332號","121.633461666667","25.0596783333333","6501100","汐止區"
"221018","753-BX","2018/04/13 20:09:37","新北市汐止區茄興街12號","121.673491666667","25.0672016666667","6501100","汐止區"
"220080","200-UY","2018/04/13 20:09:31","新北市板橋區大觀路二段179巷4號","121.445125","24.99994","6500100","板橋區"
"220101","245-BX","2018/04/13 20:09:40","新北市板橋區莒光路171巷1弄16號","121.47448","25.0246333333333","6500100","板橋區"
"220070","282-UM","2018/04/13 20:09:37","新北市板橋區四川路二段245巷53-7號","121.45269","24.99304","6500100","板橋區"
"220071","283-VK","2018/04/13 20:09:30","新北市板橋區廣權路99號","121.464463333333","24.99274","6500100","板橋區"
"220083","286-VK","2018/04/13 20:09:36","新北市板橋區僑中二街92巷29號","121.444801666667","25.0090766666667","6500100","板橋區"
"220081","287-VK","2018/04/13 20:09:30","新北市板橋區僑中一街124巷18弄45號","121.44797","25.0136583333333","6500100","板橋區"
"220061","293-UM","2018/04/13 20:09:45","新北市板橋區縣民大道二段200巷26號","121.470121666667","25.0173583333333","6500100","板橋區"
"242009","281-VK","2018/04/13 20:09:29","新北市新莊區昌盛街35巷3弄1號","121.454066666667","25.0504533333333","6500500","新莊區"
"220092","307-R5","2018/04/13 20:09:33","新北市板橋區文化路一段139號","121.461898333333","25.015645","6500100","板橋區"
"220098","317-R6","2018/04/13 20:09:40","新北市板橋區新海路72巷5弄36號","121.461528333333","25.0231133333333","6500100","板橋區"
"220064","486-VK","2018/04/13 20:09:29","新北市板橋區漢生東路193巷2號","121.471218333333","25.0120333333333","6500100","板橋區"
"242032","280-VK","2018/04/13 20:09:27","新北市新莊區中正路471號","121.441913333333","25.0338666666667","6500500","新莊區"
"220088","491-VK","2018/04/13 20:09:40","新北市板橋區民治街78-4號","121.479551666667","25.0323283333333","6500100","板橋區"
"220103","561-BX","2018/04/13 20:09:29","新北市板橋區自由路26巷19號","121.466455","25.0225233333333","6500100","板橋區"
"220093","689-BX","2018/04/13 20:09:39","新北市板橋區長江路一段142號","121.460743333333","25.030175","6500100","板橋區"
"220102","KEA-2699","2018/04/13 20:09:31","新北市板橋區民治街124號","121.477935","25.03101","6500100","板橋區"
"220055","827-TW","2018/04/13 20:09:36","新北市板橋區重慶路290巷11號","121.461075","24.99866","6500100","板橋區"
"220067","830-TW","2018/04/13 20:09:40","新北市板橋區中山路一段206巷85號","121.47181","25.0134566666667","6500100","板橋區"
"220089","833-TW","2018/04/13 20:09:26","新北市板橋區四維路189號","121.464158333333","25.0268116666667","6500100","板橋區"
"220097","AAC-210","2018/04/13 20:09:29","新北市板橋區光正街45巷6弄10號","121.46133","25.0171266666667","6500100","板橋區"
