"lineid","car","time","location","longitude","latitude","cityid","cityname"
"249004","303-UY","2018/04/13 20:59:35","新北市八里區中山路三段409號","121.368666666667","25.1348","6502300","八里區"
"234077","969-R7","2018/04/13 20:59:28","新北市永和區福和路1號","121.52641","25.0097083333333","6500400","永和區"
"231059","046-UY","2018/04/13 20:59:47","新北市新店區僑信路128號","121.50063","24.9461016666667","6500600","新店區"
"231040","047-UY","2018/04/13 20:59:42","新北市新店區中正路118號","121.542316666667","24.9710983333333","6500600","新店區"
"231053","110-UY","2018/04/13 20:59:40","新北市新店區北宜路一段224號","121.544321666667","24.9532316666667","6500600","新店區"
"231048","187-VK","2018/04/13 20:59:42","新北市新店區文化路73巷1號","121.544891666667","24.9825466666667","6500600","新店區"
"231054","KEA-2219","2018/04/13 20:59:27","新北市新店區北新路一段96巷21號","121.54269","24.9689133333333","6500600","新店區"
"231057","256-BX","2018/04/13 20:59:43","新北市新店區北宜路一段206號","121.543546666667","24.953125","6500600","新店區"
"231064","260-TV","2018/04/13 20:59:34","新北市新店區安民街251巷6號","121.51686","24.9725016666667","6500600","新店區"
"231051","278-BY","2018/04/13 20:59:46","新北市新店區中正路676號","121.534086666667","24.98981","6500600","新店區"
"231050","AAD-862","2018/04/13 20:59:40","新北市新店區三民路75巷3弄2號","121.535653333333","24.9708983333333","6500600","新店區"
"231067","4772-VM","2018/04/13 20:59:29","新北市新店區安德街130巷10號","121.508215","24.96076","6500600","新店區"
"231065","512-UM","2018/04/13 20:59:33","新北市新店區安祥路67巷50弄1號","121.484846666667","24.9590183333333","6500600","新店區"
"231061","618-UM","2018/04/13 20:59:40","新北市新店區永安街62巷2號","121.519131666667","24.9868783333333","6500600","新店區"
"231063","641-BX","2018/04/13 20:59:40","新北市新店區玫瑰路58巷2號","121.49542","24.9468","6500600","新店區"
"231042","645-TV","2018/04/13 20:59:35","新北市新店區中興路二段231號","121.547848333333","24.974815","6500600","新店區"
"231062","720-UM","2018/04/13 20:59:30","新北市新店區雙城路31號","121.492723333333","24.9495833333333","6500600","新店區"
"231060","897-TW","2018/04/13 20:59:32","新北市新店區安康路三段391號","121.48341","24.9500783333333","6500600","新店區"
"231043","899-TW","2018/04/13 20:59:36","新北市新店區中正路444號","121.534088333333","24.9785216666667","6500600","新店區"
"241011","013-R5","2018/04/13 20:59:34","新北市三重區秀江街119-1號","121.499648333333","25.0721883333333","6500200","三重區"
"241028","022-UY","2018/04/13 20:59:24","新北市三重區重新路三段94號","121.492783333333","25.0608483333333","6500200","三重區"
"241009","060-VK","2018/04/13 20:59:37","新北市三重區力行路二段151號","121.483605","25.0776733333333","6500200","三重區"
"241031","061-VK","2018/04/13 20:59:32","新北市三重區重陽路一段113巷3號","121.487503333333","25.0598116666667","6500200","三重區"
"241015","062-VK","2018/04/13 20:59:38","新北市三重區福德北路46號","121.50197","25.06552","6500200","三重區"
"241017","063-VK","2018/04/13 20:59:29","新北市三重區大同北路132巷8號","121.492193333333","25.06462","6500200","三重區"
"241024","065-VK","2018/04/13 20:59:41","新北市三重區國道路一段58巷20號","121.481306666667","25.0720233333333","6500200","三重區"
"241026","066-VK","2018/04/13 20:59:39","新北市三重區文化南路45號","121.500233333333","25.0614166666667","6500200","三重區"
"241002","090-VK","2018/04/13 20:59:34","新北市三重區五華街7巷1號","121.495353333333","25.079895","6500200","三重區"
"241003","091-VK","2018/04/13 20:59:29","新北市三重區仁義街252號","121.493798333333","25.0859733333333","6500200","三重區"
"241005","262-UM","2018/04/13 20:59:47","新北市三重區三信路182號","121.487975","25.0861333333333","6500200","三重區"
"241016","265-UM","2018/04/13 20:59:43","新北市三重區自強路一段79號","121.49619","25.0664166666667","6500200","三重區"
"241018","268-UM","2018/04/13 20:59:17","新北市三重區雙園街128號","121.494136666667","25.067325","6500200","三重區"
"241032","269-UM","2018/04/13 20:59:17","新北市三重區三陽路118號","121.483023333333","25.0587833333333","6500200","三重區"
"241013","270-UM","2018/04/13 20:59:33","新北市三重區仁愛街129巷2號","121.495643333333","25.0749416666667","6500200","三重區"
"241025","271-UM","2018/04/13 20:59:37","新北市三重區貴陽街18-1號","121.4842","25.06191","6500200","三重區"
"241007","398-BY","2018/04/13 20:59:28","新北市三重區慈愛街1號","121.484658333333","25.0784483333333","6500200","三重區"
"241004","475-VK","2018/04/13 20:59:31","新北市三重區仁愛街420號","121.490343333333","25.0814383333333","6500200","三重區"
"241020","478-VK","2018/04/13 20:59:37","新北市三重區忠孝路二段31號","121.485981666667","25.0711133333333","6500200","三重區"
"241030","480-VK","2018/04/13 20:59:41","新北市三重區環河南路220-8號","121.493311666667","25.05268","6500200","三重區"
"241014","543-UM","2018/04/13 20:59:26","新北市三重區長榮路75號","121.50256","25.0691466666667","6500200","三重區"
"241023","545-UM","2018/04/13 20:59:42","新北市三重區忠孝路三段50巷41弄64號","121.482373333333","25.0637416666667","6500200","三重區"
"241001","547-UM","2018/04/13 20:59:39","新北市三重區自強路三段87巷16號","121.488236666667","25.075","6500200","三重區"
"241019","KEA-2593","2018/04/13 20:59:35","新北市三重區自強路二段74巷19號","121.487948333333","25.06991","6500200","三重區"
"241006","AAD-863","2018/04/13 20:59:38","新北市三重區永福街50號","121.481768333333","25.078085","6500200","三重區"
"241022","887-TS","2018/04/13 20:59:42","新北市三重區過圳街27-5號","121.487955","25.0624283333333","6500200","三重區"
"241012","941-UM","2018/04/13 20:59:29","新北市三重區仁信街27號","121.501258333333","25.0755266666667","6500200","三重區"
"241029","942-UM","2018/04/13 20:59:30","新北市三重區正義南路107號","121.498225","25.0585516666667","6500200","三重區"
"241033","AAC-255","2018/04/13 20:59:37","新北市三重區光復路二段56號","121.472046666667","25.0557583333333","6500200","三重區"
"235069","4980-A6","2018/04/13 20:59:30","新北市中和區中正路637巷32號","121.48495","24.9945816666667","6500300","中和區"
"247024","893-R6","2018/04/13 20:59:36","新北市蘆洲區長興路213號","121.461163333333","25.08633","6501400","蘆洲區"
"247014","546-UM","2018/04/13 20:59:42","新北市蘆洲區中山二路36巷35號","121.474071666667","25.083345","6501400","蘆洲區"
"247022","500-BY","2018/04/13 20:59:40","新北市蘆洲區中正路198號","121.466768333333","25.0882566666667","6501400","蘆洲區"
"247010","341-TH","2018/04/13 20:59:38","新北市蘆洲區鷺江街93號","121.476851666667","25.08391","6501400","蘆洲區"
"247012","339-TH","2018/04/13 20:59:37","新北市蘆洲區民權路6-1號","121.476818333333","25.0856466666667","6501400","蘆洲區"
"247004","337-TH","2018/04/13 20:59:26","新北市蘆洲區永安南路二段268號","121.458655","25.0807366666667","6501400","蘆洲區"
"247006","336-TH","2018/04/13 20:59:30","新北市蘆洲區永安南路二段16巷8號","121.467778333333","25.0772383333333","6501400","蘆洲區"
"247018","057-VK","2018/04/13 20:59:28","新北市蘆洲區民權路93號","121.472918333333","25.0889583333333","6501400","蘆洲區"
"247020","053-VK","2018/04/13 20:59:27","新北市蘆洲區民族路375號","121.470686666667","25.09104","6501400","蘆洲區"
"247016","007-UY","2018/04/13 20:59:27","新北市蘆洲區正和街76號","121.468596666667","25.0810933333333","6501400","蘆洲區"
"251001","011-UM","2018/04/13 20:59:33","新北市淡水區北投子14-5號","121.448946666667","25.1832883333333","6501000","淡水區"
"251002","012-UM","2018/04/13 20:59:33","新北市淡水區原德路11號","121.442141666667","25.1712333333333","6501000","淡水區"
"251010","413-VK","2018/04/13 20:59:44","新北市淡水區中正路一段118-3號","121.423903333333","25.1787666666667","6501000","淡水區"
"251012","441-VK","2018/04/13 20:59:32","新北市淡水區淡金路五段60號","121.454345","25.2332966666667","6501000","淡水區"
"251005","443-VK","2018/04/13 20:59:34","新北市淡水區學府路51巷2弄16號","121.447968333333","25.1699916666667","6501000","淡水區"
"251009","575-R6","2018/04/13 20:59:31","新北市淡水區民權路187巷66弄15號","121.461935","25.1339683333333","6501000","淡水區"
"251007","577-R6","2018/04/13 20:59:36","新北市淡水區仁愛街2巷41號","121.44681","25.1718466666667","6501000","淡水區"
"251011","650-BX","2018/04/13 20:59:47","新北市淡水區新民街226巷2號","121.436195","25.1805933333333","6501000","淡水區"
"251003","673-BX","2018/04/13 20:59:24","新北市淡水區新春街146-9號","121.442453333333","25.1812116666667","6501000","淡水區"
"236014","270-VK","2018/04/13 20:59:40","新北市土城區福安街12巷8號","121.41945","24.9659116666667","6501300","土城區"
"221027","281-BY","2018/04/13 20:59:35","新北市汐止區汐萬路一段256巷1號","121.651733333333","25.0748416666667","6501100","汐止區"
"221029","298-VK","2018/04/13 20:59:27","新北市汐止區康寧街901號","121.651528333333","25.0748533333333","6501100","汐止區"
"220070","282-UM","2018/04/13 20:59:37","新北市林口區太平里180號","121.368181666667","25.1346516666667","6500100","板橋區"
"242009","281-VK","2018/04/13 20:59:29","新北市新莊區思源路1號","121.460048333333","25.03746","6500500","新莊區"
