"lineid","car","time","location","longitude","latitude","cityid","cityname"
"234066","553-UM","2018/04/13 21:53:28","新北市永和區福和路1號","121.526345","25.00968","6500400","永和區"
"235010","733-UM","2018/04/13 21:40:08","新北市中和區員山路36巷13號","121.484198333333","24.9908266666667","6500300","中和區"
"247010","341-TH","2018/04/13 22:09:38","新北市八里區荖阡坑路18號","121.398478333333","25.138425","6501400","蘆洲區"
"251004","009-UM","2018/04/13 22:09:39","新北市淡水區民族路33巷16-19號","121.462418333333","25.1359266666667","6501000","淡水區"
"251008","010-UM","2018/04/13 22:09:28","新北市淡水區學府路104號","121.449953333333","25.1719433333333","6501000","淡水區"
"251010","413-VK","2018/04/13 22:09:24","新北市淡水區沙崙路200號","121.42467","25.1839183333333","6501000","淡水區"
"251006","561-UM","2018/04/13 22:09:37","新北市淡水區中山北路二段375號","121.444238333333","25.1870416666667","6501000","淡水區"
"251007","577-R6","2018/04/13 22:09:36","新北市淡水區北投子14-3號","121.449386666667","25.18305","6501000","淡水區"
"251011","650-BX","2018/04/13 22:09:27","新北市淡水區水碓街7號","121.443188333333","25.1771833333333","6501000","淡水區"
