"lineid","car","time","location","longitude","latitude","cityid","cityname"
"234066","553-UM","2018/04/13 21:53:28","新北市永和區福和路1號","121.526345","25.00968","6500400","永和區"
"247010","341-TH","2018/04/13 22:19:38","新北市五股區中興路二段182巷3號","121.456836666667","25.0783983333333","6501400","蘆洲區"
"247005","336-TH","2018/04/13 22:19:30","新北市五股區中興路三段163號","121.449165","25.081","6501400","蘆洲區"
"251004","009-UM","2018/04/13 22:19:39","新北市淡水區民族路33號","121.462303333333","25.13585","6501000","淡水區"
"251008","010-UM","2018/04/13 22:19:28","新北市淡水區學府路104號","121.449943333333","25.1718866666667","6501000","淡水區"
"251010","413-VK","2018/04/13 22:19:44","新北市淡水區沙崙路200號","121.424658333333","25.1839466666667","6501000","淡水區"
"251007","577-R6","2018/04/13 22:19:36","新北市淡水區下圭柔山91-4號","121.42923","25.2084866666667","6501000","淡水區"
"251011","650-BX","2018/04/13 22:19:46","新北市淡水區水碓街7號","121.443181666667","25.17718","6501000","淡水區"
