"lineid","car","time","location","longitude","latitude","cityid","cityname"
"248005","653-BX","2018/04/14 07:49:25","新北市五股區明德路12巷6號","121.433431666667","25.0719133333333","6501500","五股區"
"232010","375-UM","2018/04/14 07:49:22","新北市坪林區厚德岡坑2-1號","121.727555","24.94018","6502000","坪林區"
"244005","248-BX","2018/04/14 07:49:15","新北市林口區下福里6號","121.315526666667","25.109445","6501700","林口區"
"231007","189-VK","2018/04/14 07:49:25","新北市新店區安華路28-1號","121.519683333333","24.9614783333333","6500600","新店區"
"226005","5620-A6","2018/04/14 07:49:20","新北市平溪區嶺腳里中華街31號","121.739435","25.0251133333333","6502400","平溪區"
"226002","7418-A5","2018/04/14 07:49:20","新北市平溪區平湖里大厝1號","121.77919","25.036915","6502400","平溪區"
"226003","AGD-0702","2018/04/14 07:35:53","新北市平溪區嶺腳里嶺腳寮83-2號","121.751091666667","25.035405","6502400","平溪區"
"223006","022-BY","2018/04/14 07:49:08","新北市石碇區北宜路五段1號","121.625375","24.9541516666667","6501900","石碇區"
"223002","KEA-2673","2018/04/14 07:49:21","新北市石碇區碇坪路一段101號","121.66288","24.9895766666667","6501900","石碇區"
"223001","205-TH","2018/04/14 07:49:06","新北市石碇區蛇舌子6-3號","121.664881666667","24.96821","6501900","石碇區"
"223008","406-TH","2018/04/14 07:38:56","新北市石碇區靜安路一段337號","121.698753333333","25.0144633333333","6501900","石碇區"
"223001","592-UM","2018/04/14 07:49:13","新北市石碇區蛇舌子3號","121.665126666667","24.96762","6501900","石碇區"
"223004","660-BX","2018/04/14 07:49:13","新北市石碇區楓子林36-1號","121.642301666667","25.0094716666667","6501900","石碇區"
"223005","677-TV","2018/04/14 07:49:17","新北市石碇區楓子林30號","121.64227","25.009605","6501900","石碇區"
"227006","030-BX","2018/04/14 07:49:21","新北市雙溪區雙溪里太平路54號","121.864755","25.0354783333333","6502500","雙溪區"
"252004","249-BX","2018/04/14 07:49:26","新北市三芝區店子里菜公坑78號","121.509121666667","25.204095","6502100","三芝區"
"252007","AAC-283","2018/04/14 07:49:26","新北市三芝區古庄里四棧橋41號","121.482128333333","25.2639283333333","6502100","三芝區"
"237001","159-UY","2018/04/14 07:49:25","新北市三峽區大學路85號","121.376143333333","24.9416733333333","6500900","三峽區"
"236011","165-UM","2018/04/14 07:49:27","新北市土城區永豐路171號","121.469403333333","24.9790666666667","6501300","土城區"
"236002","339-SR","2018/04/14 07:49:10","新北市土城區龍泉路79-1號","121.430046666667","24.9424933333333","6501300","土城區"
"220004","461-BY","2018/04/14 07:49:23","新北市板橋區南雅西路一段116號","121.452581666667","25.0064583333333","6500100","板橋區"
