"lineid","car","time","location","longitude","latitude","cityid","cityname"
"248005","653-BX","2018/04/12 09:29:21","新北市五股區水碓五路81號","121.430051666667","25.0717633333333","6501500","五股區"
"244012","069-UM","2018/04/12 09:29:22","新北市林口區文化一路一段133號","121.373791666667","25.0718566666667","6501700","林口區"
"244008","410-SL","2018/04/12 09:29:23","新北市林口區竹林路358巷6號","121.392135","25.0841533333333","6501700","林口區"
"244022","483-VK","2018/04/12 09:29:38","新北市林口區信義路152號","121.37982","25.0797233333333","6501700","林口區"
"244016","485-VK","2018/04/12 09:29:24","新北市林口區忠孝路468號","121.369833333333","25.0708166666667","6501700","林口區"
"244018","657-BX","2018/04/12 09:29:37","新北市林口區忠孝路622巷3弄1號","121.377766666667","25.0675633333333","6501700","林口區"
"244010","701-TV","2018/04/12 09:29:28","新北市林口區竹林路72號","121.387818333333","25.078395","6501700","林口區"
"222006","289-BY","2018/04/12 09:29:28","新北市深坑區北深路一段266號","121.629128333333","25.0090416666667","6501800","深坑區"
"231069","189-VK","2018/04/12 09:29:39","新北市新店區新潭路三段215巷25號","121.508191666667","24.9040583333333","6500600","新店區"
"231008","192-VK","2018/04/12 09:29:34","新北市新店區平廣路一段59號","121.532821666667","24.899785","6500600","新店區"
"223001","205-TH","2018/04/12 09:29:26","新北市石碇區北宜路四段26號","121.623156666667","24.9579016666667","6501900","石碇區"
"223008","406-TH","2018/04/12 09:29:33","新北市石碇區西勢坑5號","121.695928333333","24.991395","6501900","石碇區"
"223001","592-UM","2018/04/12 09:29:30","新北市石碇區北宜路四段25號","121.62312","24.957845","6501900","石碇區"
"223004","660-BX","2018/04/12 09:29:25","新北市石碇區碇坪路二段19號","121.682656666667","24.9759566666667","6501900","石碇區"
"223007","661-BX","2018/04/12 09:29:25","新北市石碇區西勢坑5號","121.694698333333","24.9913216666667","6501900","石碇區"
"223005","677-TV","2018/04/12 09:29:36","新北市石碇區磨石坑24號","121.689893333333","24.972865","6501900","石碇區"
"252004","249-BX","2018/04/12 09:29:36","新北市三芝區福德里大水堀32-1號","121.510891666667","25.217725","6502100","三芝區"
"252007","AAC-283","2018/04/12 09:29:28","新北市三芝區埔坪里埔頭坑107號","121.504498333333","25.2615016666667","6502100","三芝區"
"236009","165-UM","2018/04/12 09:29:29","新北市土城區金城路二段48號","121.451668333333","24.978975","6501300","土城區"
"236003","339-SR","2018/04/12 09:29:37","新北市土城區中正路82-1號","121.445378333333","24.975845","6501300","土城區"
"236005","498-BY","2018/04/12 09:29:29","新北市土城區承天路62巷5-1號","121.439896666667","24.9608266666667","6501300","土城區"
"242033","AAC-296","2018/04/12 09:29:28","新北市新莊區建中街131號","121.445363333333","25.03642","6500500","新莊區"
"242057","986-R7","2018/04/12 09:29:28","新北市新莊區四維路157號","121.422531666667","25.02187","6500500","新莊區"
"242052","751-BX","2018/04/12 09:29:37","新北市新莊區西盛街324巷10號","121.427601666667","25.014795","6500500","新莊區"
"242026","615-BX","2018/04/12 09:29:36","新北市新莊區瓊林路59-66號","121.441795","25.0223266666667","6500500","新莊區"
"242024","613-BX","2018/04/12 09:29:29","新北市新莊區中原東路40號","121.464471666667","25.054585","6500500","新莊區"
"242040","566-BX","2018/04/12 09:29:36","新北市新莊區天祥街19巷5號","121.416963333333","25.0278466666667","6500500","新莊區"
"242045","497-BY","2018/04/12 09:29:25","新北市新莊區富國路22巷17號","121.418495","25.0258933333333","6500500","新莊區"
"242055","440-UM","2018/04/12 09:29:32","新北市新莊區瓊泰路181號","121.443098333333","25.0315933333333","6500500","新莊區"
"242035","415-TV","2018/04/12 09:29:25","新北市新莊區後港一路147號","121.431085","25.02784","6500500","新莊區"
"242043","400-BY","2018/04/12 09:29:22","新北市新莊區龍安路92號","121.417661666667","25.0207716666667","6500500","新莊區"
"242059","353-BY","2018/04/12 09:29:27","新北市新莊區新樹路230號","121.433476666667","25.0196083333333","6500500","新莊區"
"242038","133-UY","2018/04/12 09:29:31","新北市新莊區民安路393號","121.43228","25.0230033333333","6500500","新莊區"
"242047","172-VK","2018/04/12 09:29:33","新北市新莊區中正路719號","121.423986666667","25.0293116666667","6500500","新莊區"
"242003","176-VK","2018/04/12 09:29:32","新北市新莊區化成路728號","121.465648333333","25.0570916666667","6500500","新莊區"
"242001","349-TH","2018/04/12 09:29:29","新北市新莊區中港路五守新村35巷2號","121.454525","25.0386566666667","6500500","新莊區"
"242030","280-VK","2018/04/12 09:29:21","新北市新莊區中正路414-1號","121.440961666667","25.03392","6500500","新莊區"
