"lineid","car","time","location","longitude","latitude","cityid","cityname"
"244017","485-VK","2018/04/12 10:49:24","新北市林口區粉寮69號","121.404988333333","25.090885","6501700","林口區"
"243008","680-BX","2018/04/12 10:49:24","新北市泰山區犁頭窠3-1號","121.42185","25.060365","6501600","泰山區"
"222006","289-BY","2018/04/12 10:49:28","新北市深坑區阿柔洋64號","121.607055","24.9986833333333","6501800","深坑區"
"231069","189-VK","2018/04/12 10:49:39","新北市新店區新潭路二段80號","121.51834","24.9251883333333","6500600","新店區"
"231008","192-VK","2018/04/12 10:49:14","新北市新店區成功路43號","121.541956666667","24.9003716666667","6500600","新店區"
