"lineid","car","time","location","longitude","latitude","cityid","cityname"
"234040","862-TW","2018/04/12 12:19:37","新北市永和區福和路1號","121.526185","25.0097633333333","6500400","永和區"
"243003","297-R6","2018/04/12 12:19:30","新北市泰山區黎明路25號","121.421976666667","25.0610666666667","6501600","泰山區"
"231008","192-VK","2018/04/12 12:19:42","新北市新店區北宜路一段123號","121.540403333333","24.9535966666667","6500600","新店區"
"228005","097-TW","2018/04/12 12:19:32","新北市貢寮區福連里福興街37-1號","121.991915","25.0112483333333","6502600","貢寮區"
"228004","212-TW","2018/04/12 12:19:40","新北市貢寮區貢寮里長泰路15號","121.895813333333","25.0206916666667","6502600","貢寮區"
