"lineid","car","time","location","longitude","latitude","cityid","cityname"
"234044","148-BY","2018/04/12 12:49:43","新北市永和區秀朗路二段148巷12弄15號","121.524736666667","25.0010083333333","6500400","永和區"
"234068","149-BY","2018/04/12 12:49:29","新北市永和區豫溪街215巷27號","121.523416666667","25.0103333333333","6500400","永和區"
"234005","207-UY","2018/04/12 12:49:24","新北市永和區文化路36號","121.514945","25.0150966666667","6500400","永和區"
"234078","298-R6","2018/04/12 12:49:36","新北市永和區永利路130號","121.521778333333","25.0030216666667","6500400","永和區"
"234036","336-UY","2018/04/12 12:49:38","新北市永和區福和路8巷1號","121.525031666667","25.0090666666667","6500400","永和區"
"234062","337-UY","2018/04/12 12:49:31","新北市永和區豫溪街217巷7號","121.525143333333","25.0099216666667","6500400","永和區"
"234084","338-UY","2018/04/12 12:49:39","新北市永和區中正路45號","121.514478333333","24.99617","6500400","永和區"
"234015","745-BX","2018/04/12 12:49:44","新北市永和區永和路二段297號","121.516045","25.016035","6500400","永和區"
"234028","746-BX","2018/04/12 12:49:40","新北市永和區得和路327號","121.523498333333","24.9996716666667","6500400","永和區"
"234012","KEA-2591","2018/04/12 12:49:33","新北市永和區保福路二段133巷32號","121.508978333333","25.0134016666667","6500400","永和區"
"234040","862-TW","2018/04/12 12:49:37","新北市永和區福和路318號","121.515813333333","25.0072683333333","6500400","永和區"
"234048","863-TW","2018/04/12 12:49:35","新北市永和區福和路1號","121.52599","25.009725","6500400","永和區"
"234025","9371-KE","2018/04/12 12:49:23","新北市永和區中正路748號","121.514916666667","25.010345","6500400","永和區"
"234010","9373-KE","2018/04/12 12:49:24","新北市永和區保福路二段165號","121.509056666667","25.0149516666667","6500400","永和區"
"248015","026-BX","2018/04/12 12:49:34","新北市五股區中興路二段83巷26-3號","121.460098333333","25.0753116666667","6501500","五股區"
"248005","077-UY","2018/04/12 12:49:36","新北市五股區中興路二段83巷26-6號","121.460061666667","25.0749816666667","6501500","五股區"
"248007","095-VK","2018/04/12 12:49:26","新北市五股區中興路二段37巷28號","121.460188333333","25.07507","6501500","五股區"
"248017","225-UY","2018/04/12 12:49:39","新北市五股區中興路二段83巷26-6號","121.460106666667","25.0752666666667","6501500","五股區"
"234022","9380-KE","2018/04/12 12:49:38","新北市永和區豫溪街191巷3弄2號","121.523501666667","25.0104083333333","6500400","永和區"
"234076","969-R7","2018/04/12 12:49:44","新北市中和區安樂路85號","121.512965","24.9944383333333","6500400","永和區"
"234001","AAC-295","2018/04/12 12:49:34","新北市永和區中正路541號","121.516911666667","25.0079516666667","6500400","永和區"
"243003","297-R6","2018/04/12 12:21:50","新北市泰山區黎明路25號","121.421895","25.0610416666667","6501600","泰山區"
"231028","046-UY","2018/04/12 12:49:24","新北市新店區安華路28-1號","121.519558333333","24.96094","6500600","新店區"
"231001","047-UY","2018/04/12 12:49:33","新北市新店區安華路28-1號","121.519253333333","24.9609316666667","6500600","新店區"
"231005","106-UY","2018/04/12 12:49:43","新北市新店區安華路28-1號","121.519595","24.9607266666667","6500600","新店區"
"231010","188-VK","2018/04/12 12:49:41","新北市新店區安華路28-1號","121.51941","24.9613833333333","6500600","新店區"
"231026","256-BX","2018/04/12 12:49:33","新北市新店區安華路28-1號","121.519668333333","24.961145","6500600","新店區"
"231017","AAD-862","2018/04/12 12:49:31","新北市新店區安華路28-1號","121.519626666667","24.9611883333333","6500600","新店區"
"231038","3713-VJ","2018/04/12 12:49:38","新北市新店區安華路28-1號","121.519201666667","24.9606733333333","6500600","新店區"
"231025","4715-K9","2018/04/12 12:49:25","新北市新店區安華路28-1號","121.519425","24.9606316666667","6500600","新店區"
"231036","512-UM","2018/04/12 12:49:26","新北市新店區安華路28-1號","121.51952","24.9613883333333","6500600","新店區"
"231013","513-UM","2018/04/12 12:49:29","新北市新店區安華路28-1號","121.519743333333","24.9612683333333","6500600","新店區"
"231006","898-TW","2018/04/12 12:49:44","新北市新店區安華路28-1號","121.51937","24.9609","6500600","新店區"
"231024","AKT-0513","2018/04/12 12:49:31","新北市新店區安華路28-1號","121.519486666667","24.96058","6500600","新店區"
"235028","005-UY","2018/04/12 12:49:40","新北市中和區員山路36巷16-3號","121.485076666667","24.9913783333333","6500300","中和區"
"235027","006-UY","2018/04/12 12:49:25","新北市中和區員山路36巷16-3號","121.485015","24.9912633333333","6500300","中和區"
"235002","185-VK","2018/04/12 12:49:39","新北市中和區中正路2-1號","121.503135","24.993715","6500300","中和區"
"235031","255-BX","2018/04/12 12:49:36","新北市中和區中山路二段568巷14號","121.482755","25.006075","6500300","中和區"
"235001","611-BX","2018/04/12 12:49:38","新北市中和區中山路三段118-8號","121.47484","25.0088616666667","6500300","中和區"
"235016","805-TS","2018/04/12 12:49:30","新北市中和區中正路273-1號","121.495645","24.9935816666667","6500300","中和區"
"228005","097-TW","2018/04/12 12:49:32","新北市貢寮區福連里福連街34-1號","121.988658333333","25.0111483333333","6502600","貢寮區"
"228004","212-TW","2018/04/12 12:49:40","新北市貢寮區吉林里內寮街20-1號","121.889815","24.9947366666667","6502600","貢寮區"
"207002","749-BX","2018/04/12 12:49:29","新北市萬里區雙興里二坪路31號","121.645263333333","25.1686033333333","6502800","萬里區"
"207001","662-BX","2018/04/12 12:49:30","新北市萬里區萬里里瑪鋉頂街32號","121.6898","25.179435","6502800","萬里區"
"236005","498-BY","2018/04/12 12:49:35","新北市土城區永寧路25號","121.430475","24.96341","6501300","土城區"
"221032","280-BY","2018/04/12 12:49:37","新北市汐止區大同路二段683號","121.665038333333","25.072095","6501100","汐止區"
