"lineid","car","time","location","longitude","latitude","cityid","cityname"
"234044","148-BY","2018/04/12 12:59:39","新北市永和區得和路373巷29號","121.525071666667","25.000365","6500400","永和區"
"234068","149-BY","2018/04/12 12:59:29","新北市永和區竹林路96巷21號","121.518603333333","25.0116916666667","6500400","永和區"
"234005","207-UY","2018/04/12 12:59:44","新北市永和區永和路二段50號","121.514751666667","25.01082","6500400","永和區"
"234078","298-R6","2018/04/12 12:59:38","新北市永和區永亨路59號","121.5209","25.0061866666667","6500400","永和區"
"234036","336-UY","2018/04/12 12:59:38","新北市永和區成功路二段207號","121.526525","24.9959033333333","6500400","永和區"
"234062","337-UY","2018/04/12 12:59:31","新北市永和區秀朗路一段172號","121.518758333333","25.003345","6500400","永和區"
"234084","338-UY","2018/04/12 12:59:39","新北市永和區中正路562號","121.517158333333","25.0059866666667","6500400","永和區"
"234066","553-UM","2018/04/12 12:59:39","新北市永和區永和路一段7號","121.51292","25.0052766666667","6500400","永和區"
"234015","745-BX","2018/04/12 12:59:24","新北市永和區永和路二段297號","121.516048333333","25.0160233333333","6500400","永和區"
"234028","746-BX","2018/04/12 12:59:20","新北市永和區秀朗路二段274號","121.525998333333","24.9979633333333","6500400","永和區"
"234052","KEA-2590","2018/04/12 12:59:37","新北市永和區竹林路64號","121.518335","25.01345","6500400","永和區"
"234012","KEA-2591","2018/04/12 12:59:33","新北市永和區信義路17巷20號","121.513323333333","25.0112216666667","6500400","永和區"
"234060","AAD-866","2018/04/12 12:59:44","新北市永和區福和路305號","121.516348333333","25.007115","6500400","永和區"
"234040","862-TW","2018/04/12 12:59:45","新北市永和區永貞路320號","121.511656666667","25.00501","6500400","永和區"
"234048","863-TW","2018/04/12 12:59:35","新北市永和區文化路147號","121.510756666667","25.016105","6500400","永和區"
"234025","9371-KE","2018/04/12 12:59:43","新北市永和區水源街2巷24號","121.512111666667","25.0057333333333","6500400","永和區"
"234010","9373-KE","2018/04/12 12:59:44","新北市永和區文化路113巷19號","121.513198333333","25.0140433333333","6500400","永和區"
"248015","026-BX","2018/04/12 12:59:34","新北市五股區中興路二段83巷26-6號","121.459965","25.07528","6501500","五股區"
"248005","077-UY","2018/04/12 12:59:36","新北市五股區中興路二段37巷28號","121.46016","25.0749216666667","6501500","五股區"
"248007","095-VK","2018/04/12 12:59:26","新北市五股區更洲路6號","121.458478333333","25.078695","6501500","五股區"
"248017","225-UY","2018/04/12 12:59:39","新北市五股區中興路二段83巷26-6號","121.460038333333","25.075325","6501500","五股區"
"248011","247-BX","2018/04/12 12:59:25","新北市五股區中興路二段37巷28號","121.46028","25.0749383333333","6501500","五股區"
"248013","261-SL","2018/04/12 12:59:26","新北市五股區更洲路47號","121.455221666667","25.078165","6501500","五股區"
"248003","677-BX","2018/04/12 12:59:29","新北市五股區更洲路47號","121.455228333333","25.07822","6501500","五股區"
"248001","678-BX","2018/04/12 12:56:38","新北市五股區中興路二段83巷26-6號","121.459728333333","25.0752583333333","6501500","五股區"
"234022","9380-KE","2018/04/12 12:59:38","新北市永和區竹林路91巷60弄70號","121.522841666667","25.01219","6500400","永和區"
"234076","969-R7","2018/04/12 12:59:33","新北市永和區民享街3號","121.515076666667","24.9956","6500400","永和區"
"234072","AAC-211","2018/04/12 12:59:30","新北市永和區環河東路二段102號","121.524163333333","25.01028","6500400","永和區"
"234001","AAC-295","2018/04/12 12:59:34","新北市永和區永平路6號","121.513766666667","25.0087483333333","6500400","永和區"
"244003","248-BX","2018/04/12 12:59:33","新北市林口區中山路73號","121.392726666667","25.0786283333333","6501700","林口區"
"231002","002-UM","2018/04/12 12:59:38","新北市新店區安華路28-1號","121.519675","24.9608483333333","6500600","新店區"
"231027","0293-UT","2018/04/12 12:59:41","新北市新店區安華路28-1號","121.519733333333","24.960535","6500600","新店區"
"231028","046-UY","2018/04/12 12:59:25","新北市新店區安華路28-1號","121.519555","24.9609133333333","6500600","新店區"
"231001","047-UY","2018/04/12 12:59:33","新北市新店區安華路28-1號","121.51925","24.9609116666667","6500600","新店區"
"231005","106-UY","2018/04/12 12:59:43","新北市新店區安華路28-1號","121.519766666667","24.9607483333333","6500600","新店區"
"231011","187-VK","2018/04/12 12:59:37","新北市新店區安華路28-1號","121.519636666667","24.9612666666667","6500600","新店區"
"231010","188-VK","2018/04/12 12:59:41","新北市新店區安康路一段355-3號","121.519511666667","24.9617533333333","6500600","新店區"
"231026","256-BX","2018/04/12 12:59:33","新北市新店區安華路28-1號","121.519715","24.96112","6500600","新店區"
"231017","AAD-862","2018/04/12 12:59:31","新北市新店區安華路28-1號","121.519675","24.961185","6500600","新店區"
"231038","3713-VJ","2018/04/12 12:59:38","新北市新店區安華路28-1號","121.519206666667","24.9607083333333","6500600","新店區"
"231037","4716-K9","2018/04/12 12:59:31","新北市新店區安華路28-1號","121.51958","24.961085","6500600","新店區"
"231025","4715-K9","2018/04/12 12:59:24","新北市新店區安華路28-1號","121.519458333333","24.9605833333333","6500600","新店區"
"231036","512-UM","2018/04/12 12:59:26","新北市新店區安康路一段355-3號","121.519413333333","24.9614983333333","6500600","新店區"
"231013","513-UM","2018/04/12 12:59:29","新北市新店區安華路28-1號","121.519633333333","24.9613266666667","6500600","新店區"
"231034","641-BX","2018/04/12 12:59:31","新北市新店區安華路28-1號","121.519533333333","24.960535","6500600","新店區"
"231003","645-TV","2018/04/12 12:59:35","新北市新店區安華路28-1號","121.519435","24.9607666666667","6500600","新店區"
"231031","720-UM","2018/04/12 12:59:44","新北市新店區安華路28-1號","121.519345","24.9612766666667","6500600","新店區"
"231005","897-TW","2018/04/12 12:59:25","新北市新店區安華路28-1號","121.519713333333","24.9609916666667","6500600","新店區"
"231006","898-TW","2018/04/12 12:59:24","新北市新店區安華路28-1號","121.519386666667","24.9609316666667","6500600","新店區"
"231024","AKT-0513","2018/04/12 12:59:31","新北市新店區安華路28-1號","121.519598333333","24.960625","6500600","新店區"
"235028","005-UY","2018/04/12 12:59:40","新北市中和區中正路590號","121.485825","24.995005","6500300","中和區"
"235027","006-UY","2018/04/12 12:59:25","新北市中和區員山路36巷16-3號","121.484983333333","24.9912666666667","6500300","中和區"
"235020","096-UM","2018/04/12 12:59:28","新北市中和區員山路36巷16號","121.484325","24.9916333333333","6500300","中和區"
"235029","098-UM","2018/04/12 12:59:33","新北市中和區連城路301號","121.489833333333","24.99614","6500300","中和區"
"235004","150-BY","2018/04/12 12:59:38","新北市中和區和城路一段271巷1號","121.4856","24.9917983333333","6500300","中和區"
"235022","151-BY","2018/04/12 12:59:26","新北市中和區錦和路350-1號","121.490566666667","24.993525","6500300","中和區"
"235002","185-VK","2018/04/12 12:59:39","新北市永和區成功路二段199-2號","121.526536666667","24.99602","6500300","中和區"
"235031","255-BX","2018/04/12 12:59:36","新北市中和區中正路875號","121.484268333333","25.0039833333333","6500300","中和區"
"235006","551-UM","2018/04/12 12:59:24","新北市中和區中正路273號","121.495693333333","24.9938166666667","6500300","中和區"
"235001","611-BX","2018/04/12 12:59:38","新北市中和區中山路三段136巷10弄21號","121.473806666667","25.0077966666667","6500300","中和區"
"235018","640-BX","2018/04/12 12:59:39","新北市中和區員山路36巷16-2號","121.485065","24.9919116666667","6500300","中和區"
"235035","783-BX","2018/04/12 12:59:27","新北市中和區連城路308號","121.483668333333","24.9963916666667","6500300","中和區"
"235026","800-TS","2018/04/12 12:59:33","新北市中和區連城路301號","121.489753333333","24.9962116666667","6500300","中和區"
"235021","801-TS","2018/04/12 12:59:40","新北市中和區員山路36巷16-3號","121.484961666667","24.99153","6500300","中和區"
"235016","805-TS","2018/04/12 12:59:30","新北市中和區華新街98號","121.508638333333","24.982875","6500300","中和區"
"235001","157-BY","2018/04/12 12:59:35","新北市中和區員山路36巷13號","121.48413","24.9909016666667","6500300","中和區"
"235001","AAC-213","2018/04/12 12:59:37","新北市中和區中正路246號","121.495825","24.9939516666667","6500300","中和區"
"228005","097-TW","2018/04/12 12:59:32","新北市貢寮區福隆里東興街11號","121.95042","25.018425","6502600","貢寮區"
"228004","212-TW","2018/04/12 12:59:40","新北市貢寮區吉林里內寮街57號","121.886965","24.9874266666667","6502600","貢寮區"
"253003","6232-TK","2018/04/12 12:59:41","新北市石門區中山路34-1號","121.566263333333","25.2901083333333","6502200","石門區"
"207002","749-BX","2018/04/12 12:59:29","新北市萬里區雙興里大坪路38號","121.626691666667","25.1714533333333","6502800","萬里區"
"252005","073-UM","2018/04/12 12:59:44","新北市三芝區埔坪里埔頭坑44號","121.504633333333","25.2618616666667","6502100","三芝區"
"207001","662-BX","2018/04/12 12:59:30","新北市萬里區萬里里瑪鋉頂街29-1號","121.689898333333","25.1793916666667","6502800","萬里區"
"252005","702-TV","2018/04/12 12:59:28","新北市三芝區埔坪里埔頭坑43號","121.504611666667","25.26178","6502100","三芝區"
"236005","498-BY","2018/04/12 12:59:35","新北市土城區亞洲路34號","121.435993333333","24.9741383333333","6501300","土城區"
"242047","172-VK","2018/04/12 12:59:23","新北市新莊區復興路一段35號","121.446498333333","25.0419516666667","6500500","新莊區"
"221032","280-BY","2018/04/12 12:59:37","新北市汐止區龍安路202巷16號","121.653018333333","25.0633083333333","6501100","汐止區"
