"lineid","car","time","location","longitude","latitude","cityid","cityname"
"234044","148-BY","2018/04/12 13:19:19","新北市永和區得和路373巷3-1號","121.524703333333","24.999635","6500400","永和區"
"234068","149-BY","2018/04/12 13:19:29","新北市永和區豫溪街86號","121.518221666667","25.0099716666667","6500400","永和區"
"234005","207-UY","2018/04/12 13:19:24","新北市永和區保生路1號","121.506595","25.0071833333333","6500400","永和區"
"234078","298-R6","2018/04/12 13:19:16","新北市永和區福和路7巷12弄1-1號","121.525455","25.007485","6500400","永和區"
"234036","336-UY","2018/04/12 13:19:18","新北市永和區民樂街59巷4號","121.527543333333","24.9982916666667","6500400","永和區"
"234062","337-UY","2018/04/12 13:19:31","新北市永和區永元路17巷15號","121.5213","25.00075","6500400","永和區"
"234084","338-UY","2018/04/12 13:19:19","新北市永和區永利路37號","121.518803333333","25.0055216666667","6500400","永和區"
"234066","553-UM","2018/04/12 13:19:18","新北市永和區保平路50巷8弄14號","121.511528333333","25.007785","6500400","永和區"
"234015","745-BX","2018/04/12 13:19:24","新北市永和區環河西路一段85巷4弄20號","121.512033333333","25.0169766666667","6500400","永和區"
"234028","746-BX","2018/04/12 13:19:20","新北市永和區厚德街60號","121.524376666667","24.9988166666667","6500400","永和區"
"234052","KEA-2590","2018/04/12 13:19:36","新北市永和區中興街43號","121.516406666667","25.0117883333333","6500400","永和區"
"234012","KEA-2591","2018/04/12 13:19:33","新北市永和區信義路79號","121.512373333333","25.0133816666667","6500400","永和區"
"234060","AAD-866","2018/04/12 13:19:24","新北市永和區秀朗路一段175號","121.517083333333","25.003705","6500400","永和區"
"234040","862-TW","2018/04/12 13:19:37","新北市永和區保平路151巷2弄7-2號","121.509621666667","25.0051733333333","6500400","永和區"
"234048","863-TW","2018/04/12 13:19:35","新北市永和區仁愛路144號","121.510931666667","25.0134216666667","6500400","永和區"
"234025","9371-KE","2018/04/12 13:19:23","新北市永和區豫溪街42巷18號","121.51534","25.009025","6500400","永和區"
"234010","9373-KE","2018/04/12 13:19:24","新北市永和區永和路二段425巷62號","121.513748333333","25.0174183333333","6500400","永和區"
"248015","026-BX","2018/04/12 13:19:36","新北市五股區凌雲路一段133巷29號","121.449036666667","25.1003983333333","6501500","五股區"
"248005","077-UY","2018/04/12 13:19:36","新北市五股區中興路一段161號","121.464815","25.0737666666667","6501500","五股區"
"248007","095-VK","2018/04/12 13:19:06","新北市五股區更洲路32巷8弄14號","121.459251666667","25.0796583333333","6501500","五股區"
"248017","225-UY","2018/04/12 13:19:19","新北市五股區御史路160號","121.43117","25.1031083333333","6501500","五股區"
"248011","247-BX","2018/04/12 13:19:24","新北市五股區御成路33號","121.441058333333","25.0912166666667","6501500","五股區"
"248013","261-SL","2018/04/12 13:19:26","新北市五股區自強路45號","121.43343","25.07376","6501500","五股區"
"248009","272-BY","2018/04/12 13:19:33","新北市五股區成泰路一段139巷1弄1號","121.435158333333","25.0728683333333","6501500","五股區"
"248003","677-BX","2018/04/12 13:19:29","新北市五股區成泰路二段131號","121.438785","25.0849533333333","6501500","五股區"
"248001","678-BX","2018/04/12 13:19:19","新北市五股區西雲路68號","121.443661666667","25.0916666666667","6501500","五股區"
"234022","9380-KE","2018/04/12 13:19:18","新北市永和區竹林路124巷34號","121.518231666667","25.0112383333333","6500400","永和區"
"234076","969-R7","2018/04/12 13:19:33","新北市永和區民有街69號","121.517858333333","24.9956816666667","6500400","永和區"
"234072","AAC-211","2018/04/12 13:19:30","新北市永和區竹林路30號","121.517125","25.0147566666667","6500400","永和區"
"234001","AAC-295","2018/04/12 13:19:34","新北市永和區中山路一段102-1號","121.5111","25.0105083333333","6500400","永和區"
"244003","248-BX","2018/04/12 13:19:13","新北市林口區嘉寶里89-1號","121.333465","25.1207866666667","6501700","林口區"
"243005","646-TV","2018/04/12 13:19:34","新北市泰山區錢厝坑13號","121.416021666667","25.038405","6501600","泰山區"
"231002","002-UM","2018/04/12 13:19:18","新北市新店區安華路28-1號","121.519713333333","24.9608483333333","6500600","新店區"
"231027","0293-UT","2018/04/12 13:19:20","新北市新店區安康路一段33-1號","121.532195","24.9605166666667","6500600","新店區"
"231028","046-UY","2018/04/12 13:19:25","新北市新店區安華路28-1號","121.519573333333","24.9608583333333","6500600","新店區"
"231001","047-UY","2018/04/12 13:19:33","新北市新店區安華路28-1號","121.519223333333","24.9609366666667","6500600","新店區"
"231005","106-UY","2018/04/12 13:19:23","新北市新店區安康路一段323-3號","121.521448333333","24.9638483333333","6500600","新店區"
"231021","110-UY","2018/04/12 13:19:27","新北市新店區安康路一段11號","121.533355","24.9604416666667","6500600","新店區"
"231011","187-VK","2018/04/12 13:19:17","新北市新店區安康路一段222-1號","121.522808333333","24.963705","6500600","新店區"
"231010","188-VK","2018/04/12 13:19:21","新北市新店區安康路一段226號","121.523583333333","24.9635833333333","6500600","新店區"
"231023","KEA-2219","2018/04/12 13:19:27","新北市新店區安康路一段355-3號","121.519768333333","24.9625866666667","6500600","新店區"
"231026","256-BX","2018/04/12 13:19:33","新北市新店區安華路28-1號","121.519685","24.9611166666667","6500600","新店區"
"231035","260-TV","2018/04/12 13:19:22","新北市新店區安華路28-1號","121.519141666667","24.9612683333333","6500600","新店區"
"231018","278-BY","2018/04/12 13:19:29","新北市新店區中央路175-1號","121.534603333333","24.9698083333333","6500600","新店區"
"231017","AAD-862","2018/04/12 13:19:31","新北市新店區安康路一段150號","121.526375","24.9630033333333","6500600","新店區"
"231038","3713-VJ","2018/04/12 13:19:18","新北市新店區安華路28-1號","121.519128333333","24.9606633333333","6500600","新店區"
"231037","4716-K9","2018/04/12 13:19:11","新北市新店區安忠路57巷15號","121.512906666667","24.9572933333333","6500600","新店區"
"231025","4715-K9","2018/04/12 13:19:24","新北市新店區中央路206號","121.530318333333","24.9739666666667","6500600","新店區"
"231036","512-UM","2018/04/12 13:19:26","新北市新店區安康路二段393號","121.494281666667","24.9539533333333","6500600","新店區"
"231013","513-UM","2018/04/12 13:19:29","新北市新店區安華路28-1號","121.519645","24.9611416666667","6500600","新店區"
"231034","641-BX","2018/04/12 13:19:31","新北市新店區安華路1-1號","121.519486666667","24.9605233333333","6500600","新店區"
"231003","645-TV","2018/04/12 13:19:15","新北市新店區安華路28-1號","121.51939","24.96075","6500600","新店區"
"231031","720-UM","2018/04/12 13:19:24","新北市新店區安華路28-1號","121.519251666667","24.9611716666667","6500600","新店區"
"231029","897-TW","2018/04/12 13:19:20","新北市新店區安華路28-1號","121.519668333333","24.96088","6500600","新店區"
"231006","898-TW","2018/04/12 13:19:24","新北市新店區安華路28-1號","121.519408333333","24.96099","6500600","新店區"
"231004","899-TW","2018/04/12 13:19:25","新北市新店區安華路28-1號","121.519325","24.9609266666667","6500600","新店區"
"231024","AKT-0513","2018/04/12 13:19:31","新北市新店區秀山路68-1號","121.531026666667","24.9609766666667","6500600","新店區"
"235030","003-UY","2018/04/12 13:19:31","新北市中和區保平路358號","121.506498333333","25.003865","6500300","中和區"
"235028","005-UY","2018/04/12 13:19:20","新北市中和區中正路150號","121.4989","24.9939233333333","6500300","中和區"
"235027","006-UY","2018/04/12 13:19:25","新北市中和區中正路589巷1號","121.485931666667","24.9942916666667","6500300","中和區"
"235020","096-UM","2018/04/12 13:19:29","新北市中和區中正路637巷60弄61號","121.485486666667","24.9932533333333","6500300","中和區"
"235003","097-UM","2018/04/12 13:19:15","新北市中和區景安路100號","121.505536666667","24.9956133333333","6500300","中和區"
"235029","098-UM","2018/04/12 13:19:33","新北市中和區莊敬路49巷20弄20號","121.502671666667","25.0058166666667","6500300","中和區"
"235004","150-BY","2018/04/12 13:19:19","新北市中和區景新街170號","121.506078333333","24.996605","6500300","中和區"
"235022","151-BY","2018/04/12 13:19:26","新北市中和區圓通路371號","121.490801666667","24.9895","6500300","中和區"
"235019","183-VK","2018/04/12 13:19:25","新北市中和區中正路637巷52弄1號","121.48545","24.99334","6500300","中和區"
"235002","185-VK","2018/04/12 13:19:19","新北市中和區大智街111號","121.523426666667","24.9925716666667","6500300","中和區"
"235013","186-VK","2018/04/12 13:19:31","新北市中和區中正路501號","121.489043333333","24.9935866666667","6500300","中和區"
"235031","255-BX","2018/04/12 13:19:16","新北市中和區民樂路81號","121.484605","25.00126","6500300","中和區"
"235036","301-VK","2018/04/12 13:19:27","新北市中和區連城路301號","121.489821666667","24.9960983333333","6500300","中和區"
"235007","352-BY","2018/04/12 13:19:27","新北市中和區景平路377號","121.504146666667","24.9934216666667","6500300","中和區"
"235032","377-QA","2018/04/12 13:19:21","新北市中和區員山路36巷16-3號","121.48506","24.9913116666667","6500300","中和區"
"235025","378-QA","2018/04/12 13:19:30","新北市中和區莒光路175號","121.472683333333","24.99968","6500300","中和區"
"235014","4979-A6","2018/04/12 13:19:31","新北市中和區捷運路61巷9號","121.509053333333","24.9893733333333","6500300","中和區"
"235033","4980-A6","2018/04/12 13:19:28","新北市中和區連城路184號","121.492785","24.9968083333333","6500300","中和區"
"235006","551-UM","2018/04/12 13:19:18","新北市中和區景平路159巷1號","121.51273","24.9922766666667","6500300","中和區"
"235034","558-UM","2018/04/12 13:19:37","新北市中和區圓通路160號","121.497706666667","24.995555","6500300","中和區"
"235009","565-BX","2018/04/12 13:19:18","新北市中和區復興路299號","121.50151","24.99013","6500300","中和區"
"235018","640-BX","2018/04/12 13:19:20","新北市中和區民享街86巷26號","121.473368333333","25.000645","6500300","中和區"
"235011","732-UM","2018/04/12 13:19:17","新北市中和區南山路300號","121.507901666667","24.987145","6500300","中和區"
"235035","783-BX","2018/04/12 13:19:28","新北市中和區永和路460號","121.48378","25.0119616666667","6500300","中和區"
"235026","800-TS","2018/04/12 13:19:33","新北市中和區景平路999巷1號","121.495576666667","25.0059816666667","6500300","中和區"
"235021","801-TS","2018/04/12 13:19:20","新北市中和區民安街83號","121.477881666667","24.9997516666667","6500300","中和區"
"235016","805-TS","2018/04/12 13:19:30","新北市中和區興南路二段94號","121.505465","24.9843016666667","6500300","中和區"
"235012","896-TW","2018/04/12 13:19:33","新北市中和區員山路36巷16-2號","121.485035","24.9918483333333","6500300","中和區"
"235017","900-TW","2018/04/12 13:19:27","新北市中和區中正路637巷52弄1號","121.485438333333","24.9934983333333","6500300","中和區"
"235001","157-BY","2018/04/12 13:19:15","新北市中和區忠孝街106巷2號","121.51217","24.9845866666667","6500300","中和區"
"235001","AAC-213","2018/04/12 13:19:17","新北市中和區景德街67號","121.516831666667","24.9914516666667","6500300","中和區"
"220017","AAD-861","2018/04/12 13:19:26","新北市板橋區華東街1-10號","121.448705","24.9950133333333","6500100","板橋區"
"247015","053-VK","2018/04/12 13:19:22","新北市五股區中興路三段163號","121.449323333333","25.0807716666667","6501400","蘆洲區"
"235005","251-BX","2018/04/12 13:19:18","新北市中和區景安路45號","121.507483333333","24.99839","6500300","中和區"
"228005","097-TW","2018/04/12 13:19:32","新北市貢寮區美豐里丹裡街36-1號","121.910413333333","25.059815","6502600","貢寮區"
"228004","212-TW","2018/04/12 13:19:20","新北市貢寮區吉林里內寮街23號","121.901918333333","24.9847516666667","6502600","貢寮區"
"253003","6232-TK","2018/04/12 13:19:21","新北市石門區內石門50-2號","121.572663333333","25.2624166666667","6502200","石門區"
"253001","6251-TK","2018/04/12 13:19:27","新北市石門區楓林11號","121.536771666667","25.2947166666667","6502200","石門區"
"253002","637-UY","2018/04/12 13:19:22","新北市石門區豬槽潭2-1號","121.555358333333","25.2666683333333","6502200","石門區"
"253004","8270-PC","2018/04/12 13:19:18","新北市石門區阿里荖54號","121.609463333333","25.2736516666667","6502200","石門區"
"207002","749-BX","2018/04/12 13:19:08","新北市萬里區崁腳里崁腳路166號","121.645131666667","25.1558116666667","6502800","萬里區"
"252005","073-UM","2018/04/12 13:19:24","新北市三芝區八賢里八連溪87號","121.520286666667","25.2293266666667","6502100","三芝區"
"207001","662-BX","2018/04/12 13:19:30","新北市萬里區龜吼里玉田路29號","121.681101666667","25.1955416666667","6502800","萬里區"
"252005","702-TV","2018/04/12 13:15:58","新北市三芝區圓山里木屐寮40號","121.532885","25.2232433333333","6502100","三芝區"
"236005","498-BY","2018/04/12 13:19:35","新北市土城區大安路138巷10號","121.433843333333","24.9710533333333","6501300","土城區"
"242047","172-VK","2018/04/12 13:19:23","新北市新莊區中平路183號","121.44473","25.04926","6500500","新莊區"
"221032","280-BY","2018/04/12 13:19:17","新北市汐止區龍安路28巷10號","121.654816666667","25.0643416666667","6501100","汐止區"
"220030","610-BX","2018/04/12 13:19:29","新北市板橋區華東街1-10號","121.448246666667","24.9949883333333","6500100","板橋區"
"220005","686-BX","2018/04/12 13:19:28","新北市板橋區華東街1-10號","121.448258333333","24.994925","6500100","板橋區"
"220002","741-BX","2018/04/12 13:19:24","新北市板橋區華東街1-9號","121.448105","24.9949216666667","6500100","板橋區"
