"lineid","car","time","location","longitude","latitude","cityid","cityname"
"234052","847-RS","2018/04/12 14:49:33","新北市永和區環河西路一段1號","121.515351666667","25.0180733333333","6500400","永和區"
"234025","9371-KE","2018/04/12 14:49:31","新北市永和區雙和街52巷1號","121.508893333333","25.0032066666667","6500400","永和區"
"248015","026-BX","2018/04/12 14:49:34","新北市五股區成泰路三段577巷80弄72號","121.449","25.1047616666667","6501500","五股區"
"248007","095-VK","2018/04/12 14:49:26","新北市五股區四維路140號","121.468146666667","25.07538","6501500","五股區"
"248017","225-UY","2018/04/12 14:21:39","新北市五股區外寮路9-25號","121.415908333333","25.0791416666667","6501500","五股區"
"248011","247-BX","2018/04/12 14:49:24","新北市五股區民義路一段208號","121.430538333333","25.0892833333333","6501500","五股區"
"248013","261-SL","2018/04/12 14:49:23","新北市五股區五福路14巷4號","121.434651666667","25.088665","6501500","五股區"
"248009","272-BY","2018/04/12 14:49:32","新北市五股區登林路46巷2號","121.432073333333","25.0686816666667","6501500","五股區"
"248003","677-BX","2018/04/12 14:49:29","新北市五股區成泰路一段106-1號","121.435721666667","25.071775","6501500","五股區"
"248001","678-BX","2018/04/12 14:49:19","新北市五股區成泰路三段149號","121.444871666667","25.0914083333333","6501500","五股區"
"244003","248-BX","2018/04/12 14:49:33","新北市林口區竹林路267號","121.389576666667","25.0808416666667","6501700","林口區"
"243004","AAD-798","2018/04/12 14:49:30","新北市泰山區楓江路95號","121.437758333333","25.0637383333333","6501600","泰山區"
"243003","297-R6","2018/04/12 14:49:17","新北市泰山區明志路三段385號","121.421446666667","25.0344733333333","6501600","泰山區"
"243007","380-SR","2018/04/12 14:49:30","新北市泰山區明志路二段188號","121.42718","25.0500283333333","6501600","泰山區"
"243006","421-VK","2018/04/12 14:49:25","新北市泰山區明志路一段50號","121.433561666667","25.0649716666667","6501600","泰山區"
"243002","KEA-2215","2018/04/12 14:49:25","新北市泰山區明志路二段254巷2號","121.42669","25.0477116666667","6501600","泰山區"
"243001","KEA-2216","2018/04/12 14:49:19","新北市泰山區泰林路二段116巷3弄4號","121.435203333333","25.05967","6501600","泰山區"
"243005","646-TV","2018/04/12 14:49:28","新北市泰山區新民路12號","121.426393333333","25.04483","6501600","泰山區"
"243008","680-BX","2018/04/12 14:49:36","新北市泰山區明志路三段423號","121.421268333333","25.0333533333333","6501600","泰山區"
"231002","002-UM","2018/04/12 14:49:38","新北市新店區民權路178號","121.534761666667","24.9828","6500600","新店區"
"231027","0293-UT","2018/04/12 14:49:20","新北市新店區中央三街127號","121.523883333333","24.976805","6500600","新店區"
"231028","046-UY","2018/04/12 14:49:25","新北市新店區安德街116巷36號","121.508555","24.9612766666667","6500600","新店區"
"231001","047-UY","2018/04/12 14:49:33","新北市新店區三民路40號","121.536198333333","24.97154","6500600","新店區"
"231005","106-UY","2018/04/12 14:49:23","新北市新店區復興路107號","121.534496666667","24.9879716666667","6500600","新店區"
"231021","110-UY","2018/04/12 14:49:27","新北市新店區永福路38-1號","121.553443333333","24.9293133333333","6500600","新店區"
"231011","187-VK","2018/04/12 14:49:17","新北市新店區寶橋路80號","121.546138333333","24.9754583333333","6500600","新店區"
"231023","KEA-2219","2018/04/12 14:49:27","新北市新店區檳榔路109號","121.544405","24.9616783333333","6500600","新店區"
"231035","260-TV","2018/04/12 14:49:22","新北市新店區安樂街12號","121.52081","24.9733866666667","6500600","新店區"
"231018","278-BY","2018/04/12 14:49:29","新北市新店區中央七街16號","121.529963333333","24.974925","6500600","新店區"
"231017","AAD-862","2018/04/12 14:49:31","新北市新店區北宜路三段132號","121.582721666667","24.9502483333333","6500600","新店區"
"231038","3713-VJ","2018/04/12 14:49:38","新北市新店區安華路28-1號","121.519786666667","24.96089","6500600","新店區"
"231037","4716-K9","2018/04/12 14:49:31","新北市新店區薏仁坑路自強巷1號","121.497171666667","24.95784","6500600","新店區"
"231025","4715-K9","2018/04/12 14:49:24","新北市新店區民族路162號","121.537543333333","24.9768066666667","6500600","新店區"
"231036","512-UM","2018/04/12 14:49:25","新北市新店區安祥路104巷6弄36號","121.48308","24.9629883333333","6500600","新店區"
"231013","513-UM","2018/04/12 14:49:29","新北市新店區北新路二段59巷11號","121.542383333333","24.973485","6500600","新店區"
"231030","618-UM","2018/04/12 14:49:35","新北市新店區安民街337號","121.517186666667","24.9748683333333","6500600","新店區"
"231034","641-BX","2018/04/12 14:49:31","新北市新店區安康路二段454號","121.494488333333","24.9543583333333","6500600","新店區"
"231003","645-TV","2018/04/12 14:49:35","新北市新店區中興路二段121巷1號","121.547516666667","24.9720066666667","6500600","新店區"
"231039","718-UY","2018/04/12 14:49:23","新北市新店區安康路一段355號","121.51979","24.962795","6500600","新店區"
"231031","720-UM","2018/04/12 14:49:24","新北市新店區安康路二段335號","121.498408333333","24.9561016666667","6500600","新店區"
"231029","897-TW","2018/04/12 14:49:20","新北市新店區錦秀路11巷79號","121.480373333333","24.9446666666667","6500600","新店區"
"231006","898-TW","2018/04/12 14:49:24","新北市新店區北宜路一段121-3號","121.540338333333","24.95383","6500600","新店區"
"231004","899-TW","2018/04/12 14:49:37","新北市新店區民族路106號","121.53904","24.9780416666667","6500600","新店區"
"235030","003-UY","2018/04/12 14:49:31","新北市中和區南工路22巷2號","121.50552","25.00059","6500300","中和區"
"235028","005-UY","2018/04/12 14:49:20","新北市中和區圓通路33號","121.500963333333","24.9976933333333","6500300","中和區"
"235020","096-UM","2018/04/12 14:49:29","新北市中和區中山路三段116號","121.476141666667","25.0062833333333","6500300","中和區"
"235003","097-UM","2018/04/12 14:49:15","新北市中和區安樂路243巷9-3號","121.513941666667","24.999625","6500300","中和區"
"235029","098-UM","2018/04/12 14:49:33","新北市中和區福美路232號","121.499006666667","25.0052566666667","6500300","中和區"
"235004","150-BY","2018/04/12 14:49:19","新北市中和區安平路38號","121.509675","24.99493","6500300","中和區"
"235022","151-BY","2018/04/12 14:49:26","新北市中和區員山路229號","121.48125","24.99814","6500300","中和區"
"235019","183-VK","2018/04/12 14:49:27","新北市中和區民德路11號","121.468865","25.00302","6500300","中和區"
"235002","185-VK","2018/04/12 14:49:39","新北市中和區立人街69巷3號","121.519955","24.9938833333333","6500300","中和區"
"235013","186-VK","2018/04/12 14:49:33","新北市中和區中正路2號","121.503226666667","24.9939066666667","6500300","中和區"
"235031","255-BX","2018/04/12 14:49:16","新北市中和區員山路148巷23弄34號","121.482396666667","24.998","6500300","中和區"
"235008","293-VK","2018/04/12 14:49:22","新北市中和區南山路259號","121.503776666667","24.9927","6500300","中和區"
"235036","301-VK","2018/04/12 14:49:27","新北市中和區連城路160-1號","121.4942","24.9980233333333","6500300","中和區"
"235007","352-BY","2018/04/12 14:49:27","新北市中和區安樂路37號","121.511905","24.993015","6500300","中和區"
"235032","377-QA","2018/04/12 14:49:21","新北市中和區福美路298-1號","121.497446666667","25.0049883333333","6500300","中和區"
"235024","269-TV","2018/04/12 14:49:26","新北市中和區新生街16巷21弄2號","121.48226","25.0043966666667","6500300","中和區"
"235014","4979-A6","2018/04/12 14:49:31","新北市中和區景平路241巷82弄31號","121.506586666667","24.99238","6500300","中和區"
"235006","551-UM","2018/04/12 14:49:19","新北市中和區保健路7巷2號","121.508083333333","24.9985316666667","6500300","中和區"
"235034","558-UM","2018/04/12 14:49:17","新北市中和區連勝街45號","121.498145","24.99757","6500300","中和區"
"235018","640-BX","2018/04/12 14:49:20","新北市中和區莒光路220號","121.4702","24.996205","6500300","中和區"
"235011","732-UM","2018/04/12 14:49:37","新北市中和區和平街33號","121.506761666667","24.9915683333333","6500300","中和區"
"235010","733-UM","2018/04/12 14:49:18","新北市中和區仁愛街19號","121.51075","24.9890116666667","6500300","中和區"
"235035","783-BX","2018/04/12 14:49:28","新北市中和區建一路126號","121.48806","24.9999383333333","6500300","中和區"
"235021","801-TS","2018/04/12 14:49:20","新北市中和區民樂路81號","121.484905","25.001395","6500300","中和區"
"235016","805-TS","2018/04/12 14:49:30","新北市中和區興南路二段119巷6號","121.50574","24.9839916666667","6500300","中和區"
"235012","896-TW","2018/04/12 14:49:33","新北市中和區忠孝街106巷2號","121.512235","24.9844783333333","6500300","中和區"
"235017","900-TW","2018/04/12 14:49:27","新北市中和區國光街140巷2號","121.46838","25.0013916666667","6500300","中和區"
"235001","157-BY","2018/04/12 14:49:34","新北市中和區景安路220巷4弄1號","121.503326666667","24.9909583333333","6500300","中和區"
"235001","AAC-213","2018/04/12 14:49:17","新北市中和區秀朗路三段173-2號","121.524493333333","24.991305","6500300","中和區"
"235023","AAC-215","2018/04/12 14:49:24","新北市中和區圓通路305巷5弄25號","121.494316666667","24.9904933333333","6500300","中和區"
"220016","013-TV","2018/04/12 14:49:31","新北市板橋區中山路二段416巷47弄30號","121.483676666667","25.0194583333333","6500100","板橋區"
"220004","015-TV","2018/04/12 14:49:37","新北市板橋區四川路二段47巷6弄3號","121.454178333333","24.9943233333333","6500100","板橋區"
"220013","072-UY","2018/04/12 14:49:33","新北市板橋區國泰街39巷7弄1號","121.46858","25.0057433333333","6500100","板橋區"
"220034","073-UY","2018/04/12 14:49:29","新北市板橋區林園街56號","121.453961666667","25.010815","6500100","板橋區"
"220014","075-UY","2018/04/12 14:49:38","新北市板橋區長安街259巷2號","121.473201666667","25.01055","6500100","板橋區"
"220017","AAD-861","2018/04/12 14:49:30","新北市板橋區南雅南路二段11-29號","121.453765","25.0012183333333","6500100","板橋區"
"247013","546-UM","2018/04/12 14:49:28","新北市蘆洲區得勝街50-1號","121.473068333333","25.083665","6501400","蘆洲區"
"247021","500-BY","2018/04/12 14:49:38","新北市蘆洲區中正路436號","121.4626","25.0946683333333","6501400","蘆洲區"
"247015","053-VK","2018/04/12 14:49:22","新北市蘆洲區和平路202號","121.46585","25.0818583333333","6501400","蘆洲區"
"247001","002-UY","2018/04/12 14:49:23","新北市蘆洲區長安街246巷20號","121.4584","25.0863083333333","6501400","蘆洲區"
"247019","001-UY","2018/04/12 14:49:20","新北市蘆洲區民義街71巷6號","121.473025","25.0903316666667","6501400","蘆洲區"
"228005","097-TW","2018/04/12 14:49:32","新北市貢寮區美豐里丹裡街69號","121.906555","25.0578683333333","6502600","貢寮區"
"228004","212-TW","2018/04/12 14:49:20","新北市貢寮區福隆里裕隆街5號","121.946145","25.0159516666667","6502600","貢寮區"
"253003","6232-TK","2018/04/12 14:49:01","新北市石門區尖子鹿101-1號","121.580061666667","25.2924516666667","6502200","石門區"
"253001","6251-TK","2018/04/12 14:49:27","新北市石門區小坑9號","121.593948333333","25.288715","6502200","石門區"
"253002","637-UY","2018/04/12 14:49:02","新北市石門區楓林46號","121.54297","25.27866","6502200","石門區"
"253004","8270-PC","2018/04/12 14:49:18","新北市石門區內阿里磅31-2號","121.587156666667","25.2410883333333","6502200","石門區"
"207002","749-BX","2018/04/12 14:49:28","新北市萬里區崁腳里崁腳路73號","121.647585","25.1596333333333","6502800","萬里區"
"252005","073-UM","2018/04/12 14:49:24","新北市三芝區埔坪里埔頭坑107-1號","121.514418333333","25.2470733333333","6502100","三芝區"
"207001","662-BX","2018/04/12 14:49:30","新北市萬里區雙興里豐稟路33號","121.64745","25.178485","6502800","萬里區"
"236068","105-UM","2018/04/12 14:49:32","新北市土城區金城路二段241號","121.455878333333","24.9826066666667","6501300","土城區"
"236040","107-UM","2018/04/12 14:49:33","新北市土城區裕民路116-7號","121.450998333333","24.9863033333333","6501300","土城區"
"236074","166-UM","2018/04/12 14:49:28","新北市土城區中央路四段71-3號","121.417448333333","24.9580233333333","6501300","土城區"
"236029","253-BX","2018/04/12 14:49:21","新北市土城區忠義路26巷10號","121.439801666667","24.9699133333333","6501300","土城區"
"236024","269-VK","2018/04/12 14:49:18","新北市土城區中央路二段237號","121.440223333333","24.9721433333333","6501300","土城區"
"236012","270-VK","2018/04/12 14:49:27","新北市土城區金城路二段354巷4號","121.46086","24.9847016666667","6501300","土城區"
"236032","271-VK","2018/04/12 14:49:39","新北市土城區仁愛路25號","121.462648333333","24.9784233333333","6501300","土城區"
"236017","401-BY","2018/04/12 14:49:25","新北市土城區延安街27號","121.467645","24.9852033333333","6501300","土城區"
"236057","912-UM","2018/04/12 14:49:25","新北市土城區中央路三段153號","121.432123333333","24.9654983333333","6501300","土城區"
"236045","913-UM","2018/04/12 14:49:27","新北市土城區青雲路35號","121.460015","24.9885366666667","6501300","土城區"
"236060","915-UM","2018/04/12 14:49:37","新北市土城區金城路三段207巷6弄14號","121.470761666667","24.9902166666667","6501300","土城區"
"236054","AAC-216","2018/04/12 14:49:31","新北市土城區裕民路235號","121.454216666667","24.9834","6501300","土城區"
"238012","303-VK","2018/04/12 14:49:36","新北市樹林區育德街78號","121.387525","24.9684233333333","6500700","樹林區"
"238001","282-BY","2018/04/12 14:49:20","新北市樹林區中山路三段204號","121.38671","24.9682683333333","6500700","樹林區"
"220027","145-BY","2018/04/12 14:49:24","新北市板橋區建國街85號","121.459505","25.0174366666667","6500100","板橋區"
"220028","200-UY","2018/04/12 14:49:34","新北市板橋區大觀路二段69巷27號","121.447426666667","25.0021116666667","6500100","板橋區"
"220105","KEA-2550","2018/04/12 14:49:30","新北市板橋區仁化街221號","121.478993333333","25.034645","6500100","板橋區"
"220030","610-BX","2018/04/12 14:49:29","新北市板橋區篤行路一段37號","121.432081666667","24.9939283333333","6500100","板橋區"
"220050","245-BX","2018/04/12 14:49:32","新北市板橋區莊敬路263巷13號","121.473253333333","25.0217733333333","6500100","板橋區"
"220040","267-BY","2018/04/12 14:49:25","新北市板橋區懷德街127巷23弄31號","121.48022","25.03232","6500100","板橋區"
"220020","277-BY","2018/04/12 14:49:23","新北市板橋區金門街215巷79號","121.434088333333","24.98933","6500100","板橋區"
"220018","282-UM","2018/04/12 14:49:35","新北市板橋區民族路77號","121.465488333333","25.0085833333333","6500100","板橋區"
"220019","283-VK","2018/04/12 14:47:58","新北市板橋區廣權路93號","121.46435","24.992645","6500100","板橋區"
"220043","285-UM","2018/04/12 14:49:17","新北市板橋區長江路一段351號","121.461235","25.0304183333333","6500100","板橋區"
"220001","285-VK","2018/04/12 14:49:19","新北市板橋區民享街6號","121.475771666667","25.0148733333333","6500100","板橋區"
"220031","286-VK","2018/04/12 14:49:34","新北市板橋區僑中二街12巷18號","121.446055","25.0107583333333","6500100","板橋區"
"220029","287-VK","2018/04/12 14:49:18","新北市板橋區大觀路一段29巷33號","121.450248333333","25.007565","6500100","板橋區"
"220039","288-VK","2018/04/12 14:49:37","新北市板橋區龍泉街54巷10號","121.456878333333","25.02665","6500100","板橋區"
"220009","293-UM","2018/04/12 14:49:22","新北市板橋區中山路一段283巷2弄26號","121.470696666667","25.0151033333333","6500100","板橋區"
"220023","303-R5","2018/04/12 14:49:21","新北市板橋區金華街3號","121.45559","25.0200833333333","6500100","板橋區"
"220010","305-R5","2018/04/12 14:49:35","新北市板橋區三民路二段29巷31弄5-3號","121.481563333333","25.0177516666667","6500100","板橋區"
"220041","307-R5","2018/04/12 14:49:22","新北市板橋區四維路175號","121.464575","25.02614","6500100","板橋區"
"220047","317-R6","2018/04/12 14:49:32","新北市板橋區四維路269巷94弄18號","121.459381666667","25.0268916666667","6500100","板橋區"
"220012","486-VK","2018/04/12 14:49:20","新北市板橋區中山路一段88號","121.461983333333","25.0101416666667","6500100","板橋區"
"220037","491-VK","2018/04/12 14:49:29","新北市板橋區文化路二段498號","121.475453333333","25.0332766666667","6500100","板橋區"
"220104","560-BX","2018/04/12 14:49:28","新北市板橋區新生街87巷20號","121.457178333333","25.0220966666667","6500100","板橋區"
"220052","561-BX","2018/04/12 14:49:35","新北市板橋區陽明街29巷10號","121.464846666667","25.02194","6500100","板橋區"
"220032","568-UM","2018/04/12 14:49:29","新北市樹林區水源街213號","121.424083333333","24.98735","6500100","板橋區"
"220011","609-BX","2018/04/12 14:49:27","新北市板橋區三民路一段31巷13號","121.479828333333","25.0231566666667","6500100","板橋區"
"220003","630-UY","2018/04/12 14:49:27","新北市板橋區國慶路149巷23-2號","121.46101","24.99749","6500100","板橋區"
"220005","686-BX","2018/04/12 14:49:28","新北市板橋區廣和街58-1號","121.461966666667","24.9940566666667","6500100","板橋區"
"220042","689-BX","2018/04/12 14:49:34","新北市板橋區長江路一段125號","121.460223333333","25.03","6500100","板橋區"
"220002","741-BX","2018/04/12 14:49:04","新北市板橋區國泰街75巷28弄66號","121.467178333333","25.0045233333333","6500100","板橋區"
"220051","KEA-2699","2018/04/12 14:49:21","新北市板橋區文化路二段410巷23號","121.47479","25.0308033333333","6500100","板橋區"
"220045","831-TW","2018/04/12 14:49:31","新北市板橋區莊敬路167號","121.47108","25.0239883333333","6500100","板橋區"
"220038","833-TW","2018/04/12 14:49:28","新北市板橋區英士路55號","121.460725","25.0244316666667","6500100","板橋區"
"220022","895-R6","2018/04/12 14:49:38","新北市板橋區文化路一段46巷21號","121.460375","25.011615","6500100","板橋區"
"220021","985-R7","2018/04/12 14:49:28","新北市板橋區南雅西路二段142號","121.451953333333","25.0130216666667","6500100","板橋區"
"220046","AAC-210","2018/04/12 14:49:30","新北市板橋區國光路205號","121.461885","25.018555","6500100","板橋區"
"220025","AAC-253","2018/04/12 14:49:36","新北市板橋區僑中二街114巷1號","121.445705","25.0065933333333","6500100","板橋區"
