"lineid","car","time","location","longitude","latitude","cityid","cityname"
"243011","297-R6","2018/04/12 16:01:07","新北市泰山區黎明路25號","121.421911666667","25.0609666666667","6501600","泰山區"
"243016","680-BX","2018/04/12 15:56:21","新北市泰山區犁頭窠3-1號","121.42222","25.0605683333333","6501600","泰山區"
"231011","187-VK","2018/04/12 16:09:37","新北市新店區薏仁坑路23號","121.49778","24.9589333333333","6500600","新店區"
"231046","188-VK","2018/04/12 16:09:47","新北市新店區灣潭路2-4號","121.536561666667","24.95017","6500600","新店區"
"231035","260-TV","2018/04/12 16:09:41","新北市新店區薏仁坑路自強巷6號","121.496671666667","24.9585083333333","6500600","新店區"
"231018","278-BY","2018/04/12 16:09:49","新北市新店區中正路700巷40號","121.535523333333","24.99176","6500600","新店區"
"241011","013-R5","2018/04/12 16:09:46","新北市三重區正義北路378號","121.493366666667","25.0715766666667","6500200","三重區"
"241028","022-UY","2018/04/12 16:09:32","新北市三重區正義南路107號","121.498261666667","25.058595","6500200","三重區"
"241008","059-VK","2018/04/12 16:09:36","新北市三重區自強路四段32-2號","121.489045","25.07715","6500200","三重區"
"241015","062-VK","2018/04/12 16:09:47","新北市三重區福德南路53號","121.50321","25.0612133333333","6500200","三重區"
"241017","063-VK","2018/04/12 16:09:47","新北市三重區大同北路148巷76號","121.490185","25.0646016666667","6500200","三重區"
"241024","065-VK","2018/04/12 16:09:39","新北市三重區中正北路145巷30號","121.485041666667","25.0680733333333","6500200","三重區"
"241026","066-VK","2018/04/12 16:09:38","新北市三重區正義南路38號","121.498173333333","25.0609283333333","6500200","三重區"
"241002","090-VK","2018/04/12 16:09:44","新北市三重區仁義街91號","121.499688333333","25.079795","6500200","三重區"
"241003","091-VK","2018/04/12 16:09:40","新北市三重區自強路五段114號","121.496878333333","25.0836716666667","6500200","三重區"
"241005","262-UM","2018/04/12 16:09:32","新北市三重區溪尾街300-2號","121.487443333333","25.0837383333333","6500200","三重區"
"241018","268-UM","2018/04/12 16:09:29","新北市三重區明志街67號","121.491141666667","25.0638316666667","6500200","三重區"
"241013","270-UM","2018/04/12 16:09:42","新北市三重區安樂街13號","121.49674","25.06982","6500200","三重區"
"241025","271-UM","2018/04/12 16:09:45","新北市三重區忠孝路三段40巷16弄1號","121.482308333333","25.0665033333333","6500200","三重區"
"241007","398-BY","2018/04/12 16:09:39","新北市三重區三和路四段143-1號","121.484355","25.0783033333333","6500200","三重區"
"241022","413-TH","2018/04/12 16:09:46","新北市三重區中正北路176巷6號","121.483155","25.06632","6500200","三重區"
"241004","475-VK","2018/04/12 16:09:49","新北市三重區五華街74號","121.493495","25.0819783333333","6500200","三重區"
"241020","478-VK","2018/04/12 16:09:43","新北市三重區後竹圍街294號","121.482935","25.0710216666667","6500200","三重區"
"241014","543-UM","2018/04/12 16:09:40","新北市三重區長元街105號","121.504623333333","25.06712","6500200","三重區"
"241023","545-UM","2018/04/12 16:09:47","新北市三重區力行路一段60號","121.484746666667","25.0690483333333","6500200","三重區"
"241001","547-UM","2018/04/12 16:09:36","新北市三重區忠孝路三段56-1號","121.48049","25.065305","6500200","三重區"
"241006","AAD-863","2018/04/12 16:09:43","新北市三重區永福街58巷3弄20號","121.480663333333","25.0773516666667","6500200","三重區"
"241012","941-UM","2018/04/12 16:09:32","新北市三重區正義北路115號","121.497065","25.0658833333333","6500200","三重區"
"241029","942-UM","2018/04/12 16:09:40","新北市三重區同安街26號","121.496206666667","25.0567883333333","6500200","三重區"
"241033","AAC-255","2018/04/12 16:09:40","新北市三重區五谷王南街50-1號","121.473753333333","25.044575","6500200","三重區"
"235064","005-UY","2018/04/12 16:05:15","新北市中和區員山路36巷16-3號","121.485126666667","24.9912983333333","6500300","中和區"
"235026","800-TS","2018/04/12 16:09:33","新北市中和區永和路191巷3-1號","121.491461666667","25.0070316666667","6500300","中和區"
"220013","072-UY","2018/04/12 16:09:33","新北市板橋區大觀路二段265巷7-7號","121.443543333333","24.9940033333333","6500100","板橋區"
"224007","275-VK","2018/04/12 16:09:48","新北市瑞芳區粗坑口路3-1號","121.761885","25.0986366666667","6501200","瑞芳區"
"227004","642-TC","2018/04/12 16:09:44","新北市雙溪區上林里內平林47號","121.833326666667","25.0304433333333","6502500","雙溪區"
"227010","400-TW","2018/04/12 16:09:37","新北市雙溪區三港里雙澳路75號","121.88356","25.053985","6502500","雙溪區"
"251013","179-VK","2018/04/12 16:09:33","新北市淡水區中正路二段31號","121.419673333333","25.1812016666667","6501000","淡水區"
"251008","181-VK","2018/04/12 16:09:33","新北市淡水區建設街1巷1號","121.438835","25.1728716666667","6501000","淡水區"
"237011","572-TV","2018/04/12 16:09:44","新北市三峽區中山路459巷163-3號","121.34872","24.9330583333333","6500900","三峽區"
"236074","166-UM","2018/04/12 16:09:48","新北市土城區福安街118號","121.41557","24.9644116666667","6501300","土城區"
"236057","912-UM","2018/04/12 16:09:45","新北市土城區中央路三段67號","121.438736666667","24.9693","6501300","土城區"
"238002","755-BX","2018/04/12 16:09:47","新北市樹林區大安路323巷10弄20號","121.417106666667","24.99086","6500700","樹林區"
"238010","601-UM","2018/04/12 16:09:49","新北市樹林區三福街121巷11號","121.406106666667","25.015715","6500700","樹林區"
"238006","599-UM","2018/04/12 16:09:41","新北市樹林區中華路190-16號","121.411825","24.98066","6500700","樹林區"
"238005","571-TV","2018/04/12 16:09:36","新北市樹林區中華路6-3號","121.424563333333","24.9842616666667","6500700","樹林區"
"238011","5061-A6","2018/04/12 16:09:47","新北市樹林區育德街78-1號","121.387508333333","24.9681716666667","6500700","樹林區"
"238009","KEA-2213","2018/04/12 16:09:39","新北市樹林區八德街170號","121.421716666667","24.978065","6500700","樹林區"
"238001","283-BY","2018/04/12 16:09:48","新北市樹林區中正路433-2號","121.41491","25.0082283333333","6500700","樹林區"
"238001","282-BY","2018/04/12 16:09:40","新北市樹林區千歲街92巷7弄29號","121.42746","24.9981733333333","6500700","樹林區"
"238013","172-UY","2018/04/12 16:09:30","新北市樹林區佳園路一段75巷10-1號","121.395765","24.970675","6500700","樹林區"
"238003","169-UY","2018/04/12 16:09:35","新北市樹林區文化街28號","121.419368333333","24.9876733333333","6500700","樹林區"
"220029","287-VK","2018/04/12 16:09:38","新北市土城區福安街80-3號","121.417321666667","24.9651416666667","6500100","板橋區"
