"lineid","car","time","location","longitude","latitude","cityid","cityname"
"234026","9371-KE","2018/04/12 17:49:25","新北市永和區中山路一段17巷4弄16號","121.513123333333","25.010185","6500400","永和區"
"249005","172-UM","2018/04/12 17:49:29","新北市八里區荖阡坑路34-2號","121.402526666667","25.1306333333333","6502300","八里區"
"249001","173-UM","2018/04/12 17:47:52","新北市八里區龍米路二段147巷7號","121.442528333333","25.1509366666667","6502300","八里區"
"249004","303-UY","2018/04/12 17:49:27","新北市八里區中華路一段79巷9號","121.421001666667","25.1564416666667","6502300","八里區"
"249003","593-UM","2018/04/12 17:49:27","新北市八里區中山路二段119號","121.405496666667","25.1519783333333","6502300","八里區"
"248016","026-BX","2018/04/12 17:49:33","新北市五股區中興路二段83巷26-6號","121.459956666667","25.0752116666667","6501500","五股區"
"232011","375-UM","2018/04/12 17:49:18","新北市坪林區北宜路八段298號","121.710121666667","24.9352133333333","6502000","坪林區"
"244013","069-UM","2018/04/12 17:49:18","新北市林口區中正路505巷5號","121.38334","25.077255","6501700","林口區"
"244007","080-UY","2018/04/12 17:49:24","新北市林口區林口路143號","121.388463333333","25.0814316666667","6501700","林口區"
"244009","410-SL","2018/04/12 17:49:27","新北市林口區林口路297巷11號","121.38558","25.08455","6501700","林口區"
"244023","483-VK","2018/04/12 17:49:22","新北市林口區東湖路62號","121.387416666667","25.073615","6501700","林口區"
"244019","657-BX","2018/04/12 17:49:16","新北市林口區忠孝路535號","121.371928333333","25.06905","6501700","林口區"
"244011","701-TV","2018/04/12 17:49:16","新北市林口區佳林路253號","121.382906666667","25.07613","6501700","林口區"
"244025","837-TS","2018/04/12 17:49:33","新北市林口區忠孝三路42號","121.360166666667","25.0699866666667","6501700","林口區"
"244021","838-TS","2018/04/12 17:49:16","新北市林口區仁愛路一段139巷15號","121.397765","25.071685","6501700","林口區"
"243013","646-TV","2018/04/12 17:49:15","新北市泰山區大科路45-17號","121.40445","25.05522","6501600","泰山區"
"222003","436-BY","2018/04/12 17:49:31","新北市深坑區阿柔洋60-1號","121.608576666667","24.9985466666667","6501800","深坑區"
"222002","659-BX","2018/04/12 17:49:17","新北市深坑區平埔街22巷17弄1號","121.614855","25.0009066666667","6501800","深坑區"
"231046","188-VK","2018/04/12 17:49:15","新北市新店區下石厝路21號","121.53251","24.927525","6500600","新店區"
"241016","265-UM","2018/04/12 17:49:16","新北市三重區重新路二段132號","121.496115","25.0616833333333","6500200","三重區"
"241024","KEA-2210","2018/04/12 17:49:23","新北市三重區力行路二段9巷2號","121.482398333333","25.0721866666667","6500200","三重區"
"241012","941-UM","2018/04/12 17:49:11","新北市三重區龍濱路283巷8號","121.501158333333","25.073805","6500200","三重區"
"241033","AAC-255","2018/04/12 17:49:19","新北市三重區光復路一段24號","121.471995","25.04718","6500200","三重區"
"235064","005-UY","2018/04/12 17:49:25","新北市中和區員山路36巷16-3號","121.485076666667","24.9913566666667","6500300","中和區"
"235065","098-UM","2018/04/12 17:49:33","新北市中和區員山路36巷16-3號","121.485105","24.9910983333333","6500300","中和區"
"235061","378-QA","2018/04/12 17:21:54","新北市中和區員山路36巷16-2號","121.485198333333","24.9917566666667","6500300","中和區"
"235051","157-BY","2018/04/12 17:49:13","新北市中和區員山路36巷16-3號","121.484816666667","24.9913033333333","6500300","中和區"
"247024","893-R6","2018/04/12 17:49:34","新北市蘆洲區光榮路61巷11號","121.461065","25.08891","6501400","蘆洲區"
"247014","546-UM","2018/04/12 17:49:18","新北市蘆洲區保和街69巷2弄1號","121.469486666667","25.0857383333333","6501400","蘆洲區"
"247022","500-BY","2018/04/12 17:49:20","新北市蘆洲區中正路278號","121.465253333333","25.08999","6501400","蘆洲區"
"247010","341-TH","2018/04/12 17:49:19","新北市蘆洲區民族路31-2號","121.477655","25.084925","6501400","蘆洲區"
"247012","339-TH","2018/04/12 17:49:12","新北市蘆洲區復興路101號","121.476595","25.0875916666667","6501400","蘆洲區"
"247004","337-TH","2018/04/12 17:49:23","新北市蘆洲區長榮路128號","121.461626666667","25.084325","6501400","蘆洲區"
"247006","336-TH","2018/04/12 17:49:11","新北市蘆洲區九芎街156號","121.464203333333","25.0781383333333","6501400","蘆洲區"
"247018","057-VK","2018/04/12 17:49:25","新北市蘆洲區復興路233號","121.480173333333","25.0899216666667","6501400","蘆洲區"
"247008","056-VK","2018/04/12 17:49:28","新北市蘆洲區中山一路287號","121.471833333333","25.0793133333333","6501400","蘆洲區"
"247016","053-VK","2018/04/12 17:49:31","新北市蘆洲區中正路185巷25弄23號","121.467208333333","25.0838483333333","6501400","蘆洲區"
"247002","002-UY","2018/04/12 17:49:22","新北市蘆洲區永平街32巷21弄10-2號","121.458728333333","25.0919333333333","6501400","蘆洲區"
"247020","001-UY","2018/04/12 17:49:29","新北市蘆洲區民義街72號","121.473231666667","25.0900666666667","6501400","蘆洲區"
"226004","312-R5","2018/04/12 17:49:24","新北市平溪區石底里公園街18-3號","121.733298333333","25.0258366666667","6502400","平溪區"
"228003","097-TW","2018/04/12 17:49:24","新北市貢寮區真理里美艷山街3-1號","121.92622","25.059605","6502600","貢寮區"
"228001","212-TW","2018/04/12 17:49:13","新北市貢寮區仁理村仁愛路95-1號","121.927655","25.055465","6502600","貢寮區"
"228002","585-TW","2018/04/12 17:49:10","新北市貢寮區福隆里外隆林街16-4號","121.958018333333","25.0050766666667","6502600","貢寮區"
"224010","AGQ-8101","2018/04/12 17:49:06","新北市瑞芳區岳王路144號","121.809096666667","25.1113366666667","6501200","瑞芳區"
"224006","676-BX","2018/04/12 17:49:16","新北市瑞芳區傑魚坑路183號","121.78845","25.108255","6501200","瑞芳區"
"224008","285-BY","2018/04/12 17:49:31","新北市瑞芳區明燈路一段184號","121.818455","25.1081583333333","6501200","瑞芳區"
"224009","273-VK","2018/04/12 17:49:17","新北市瑞芳區山尖路209號","121.849401666667","25.112225","6501200","瑞芳區"
"224005","271-BY","2018/04/12 17:49:13","新北市瑞芳區海濱路29號","121.830931666667","25.124195","6501200","瑞芳區"
"227004","642-TC","2018/04/12 17:39:35","新北市雙溪區三貂里定福路1-2號","121.850746666667","25.063435","6502500","雙溪區"
"253006","295-VK","2018/04/12 17:49:23","新北市石門區中山路33號","121.567076666667","25.291005","6502200","石門區"
"222001","KEA-2212","2018/04/12 17:49:14","新北市深坑區北深路三段25巷15-2號","121.608665","24.9995433333333","6501800","深坑區"
"208002","KEA-2872","2018/04/12 17:49:31","新北市金山區磺清路121號","121.639793333333","25.228195","6502700","金山區"
"251009","008-UM","2018/04/12 17:49:29","新北市淡水區長興街29號","121.44398","25.1711433333333","6501000","淡水區"
"251004","009-UM","2018/04/12 17:49:28","新北市淡水區民權一街17巷15號","121.459335","25.1366383333333","6501000","淡水區"
"251005","010-UM","2018/04/12 17:49:29","新北市淡水區學府路102巷2號","121.450465","25.17197","6501000","淡水區"
"251002","012-UM","2018/04/12 17:49:33","新北市淡水區中山路44號","121.4442","25.1700416666667","6501000","淡水區"
"251013","179-VK","2018/04/12 17:49:13","新北市淡水區泉洲厝31號","121.479573333333","25.19108","6501000","淡水區"
"251014","180-VK","2018/04/12 17:49:25","新北市淡水區公埔子16-6號","121.480995","25.2245916666667","6501000","淡水區"
"251008","181-VK","2018/04/12 17:49:33","新北市淡水區八勢路一段156號","121.468118333333","25.15645","6501000","淡水區"
"251015","182-VK","2018/04/12 17:49:20","新北市淡水區興福寮18-2號","121.494951666667","25.16465","6501000","淡水區"
"251010","413-VK","2018/04/12 17:49:13","新北市淡水區中正路二段53號","121.418086666667","25.1849783333333","6501000","淡水區"
"251012","441-VK","2018/04/12 17:49:30","新北市淡水區北新路二段40號","121.47729","25.1857733333333","6501000","淡水區"
"251016","442-VK","2018/04/12 17:49:19","新北市淡水區埤島39-15號","121.45276","25.1959","6501000","淡水區"
"251006","561-UM","2018/04/12 17:49:19","新北市淡水區中山北路一段45巷10號","121.441208333333","25.17572","6501000","淡水區"
"251007","577-R6","2018/04/12 17:49:15","新北市淡水區民生路27號","121.461305","25.1379533333333","6501000","淡水區"
"251011","650-BX","2018/04/12 17:48:40","新北市淡水區吳(仔)厝34號","121.47943","25.1492883333333","6501000","淡水區"
"251003","766-UM","2018/04/12 17:49:27","新北市淡水區大忠街5巷1號","121.44313","25.1764183333333","6501000","淡水區"
"207003","550-UM","2018/04/12 17:49:14","新北市萬里區野柳里東澳路66號","121.692605","25.2009033333333","6502800","萬里區"
"207004","225-TW","2018/04/12 17:49:16","新北市萬里區萬里里瑪鋉頂街61號","121.688351666667","25.180495","6502800","萬里區"
"252002","178-VK","2018/04/12 17:49:29","新北市三芝區智成街16號","121.503333333333","25.2566916666667","6502100","三芝區"
"252001","292-VK","2018/04/12 17:49:30","新北市三芝區中興街一段8號","121.497423333333","25.259485","6502100","三芝區"
"237004","KEA-2597","2018/04/12 17:49:30","新北市三峽區中山路240號","121.362431666667","24.9374083333333","6500900","三峽區"
"237011","572-TV","2018/04/12 17:49:24","新北市三峽區大同路64號","121.376523333333","24.92836","6500900","三峽區"
"237009","210-TH","2018/04/12 17:49:22","新北市三峽區大勇路68號","121.367146666667","24.9364133333333","6500900","三峽區"
"237013","252-BX","2018/04/12 17:49:32","新北市三峽區愛國路33-9號","121.374568333333","24.93303","6500900","三峽區"
"237012","275-BY","2018/04/12 17:49:23","新北市三峽區文化路114號","121.371248333333","24.93624","6500900","三峽區"
"237014","433-BY","2018/04/12 17:49:31","新北市三峽區文化路120巷7號","121.37093","24.9365533333333","6500900","三峽區"
"237006","5529-G3","2018/04/12 17:49:22","新北市三峽區介壽路二段136巷83-5號","121.39323","24.9313083333333","6500900","三峽區"
"237010","706-TV","2018/04/12 17:49:20","新北市三峽區和平街24-5號","121.3702","24.9365183333333","6500900","三峽區"
"237005","AKY-6261","2018/04/12 17:49:31","新北市三峽區中山路459巷90-1號","121.35497","24.936215","6500900","三峽區"
"236070","105-UM","2018/04/12 17:49:23","新北市土城區青雲路322巷18號","121.457635","24.9761766666667","6501300","土城區"
"236042","107-UM","2018/04/12 17:49:21","新北市土城區城林路6巷80號","121.438513333333","24.9796","6501300","土城區"
"236078","166-UM","2018/04/12 17:49:25","新北市土城區中央路三段188號","121.430563333333","24.9649533333333","6501300","土城區"
"236030","253-BX","2018/04/12 17:49:17","新北市土城區城林路6巷80號","121.438493333333","24.9795933333333","6501300","土城區"
"236026","269-VK","2018/04/12 17:49:12","新北市土城區城林路6巷80號","121.438445","24.9796533333333","6501300","土城區"
"236014","270-VK","2018/04/12 17:49:28","新北市土城區城林路6巷80號","121.438485","24.9796316666667","6501300","土城區"
"236038","271-VK","2018/04/12 17:49:27","新北市土城區城林路6巷80號","121.438403333333","24.9798216666667","6501300","土城區"
"236021","401-BY","2018/04/12 17:49:27","新北市土城區城林路6巷80號","121.438675","24.97971","6501300","土城區"
"236059","912-UM","2018/04/12 17:49:20","新北市土城區中華路二段128號","121.437696666667","24.973495","6501300","土城區"
"236049","913-UM","2018/04/12 17:49:15","新北市土城區城林路6巷80號","121.43864","24.9797616666667","6501300","土城區"
"236063","915-UM","2018/04/12 17:49:17","新北市土城區城林路6巷80號","121.438311666667","24.9796383333333","6501300","土城區"
"236055","AAC-216","2018/04/12 17:49:22","新北市土城區城林路6巷80號","121.43862","24.979575","6501300","土城區"
"242034","AAC-296","2018/04/12 17:49:22","新北市新莊區新莊路682號","121.441176666667","25.032745","6500500","新莊區"
"242058","986-R7","2018/04/12 17:49:32","新北市新莊區中正路730-5號","121.414751666667","25.023625","6500500","新莊區"
"242053","751-BX","2018/04/12 17:49:30","新北市新莊區民安西路468-1號","121.431678333333","25.00789","6500500","新莊區"
"242029","705-TV","2018/04/12 17:49:20","新北市新莊區復興路一段61號","121.447588333333","25.0423483333333","6500500","新莊區"
"242027","615-BX","2018/04/12 17:49:12","新北市新莊區福壽街167號","121.45801","25.05364","6500500","新莊區"
"242025","613-BX","2018/04/12 17:49:18","新北市新莊區新北大道二段145號","121.4656","25.0613766666667","6500500","新莊區"
"242042","566-BX","2018/04/12 17:49:30","新北市新莊區中正路612-1號","121.426086666667","25.0303233333333","6500500","新莊區"
"242046","497-BY","2018/04/12 17:49:28","新北市新莊區福營路127號","121.43304","25.03168","6500500","新莊區"
"242051","441-UM","2018/04/12 17:49:26","新北市新莊區西盛街231巷13號","121.428673333333","25.0163516666667","6500500","新莊區"
"242056","440-UM","2018/04/12 17:49:25","新北市新莊區瓊林路40巷29號","121.446603333333","25.030165","6500500","新莊區"
"242036","415-TV","2018/04/12 17:49:13","新北市新莊區建福路66號","121.426765","25.0269483333333","6500500","新莊區"
"242007","413-TV","2018/04/12 17:49:30","新北市新莊區福樂街156巷12弄20號","121.456843333333","25.0486983333333","6500500","新莊區"
"242044","400-BY","2018/04/12 17:49:32","新北市新莊區中正路857號","121.419646666667","25.0279766666667","6500500","新莊區"
"242023","362-BY","2018/04/12 17:49:19","新北市新莊區福壽街7號","121.457763333333","25.04777","6500500","新莊區"
"242061","353-BY","2018/04/12 17:49:17","新北市新莊區瓊林南路171-4號","121.433796666667","25.0110366666667","6500500","新莊區"
"242039","133-UY","2018/04/12 17:49:26","新北市新莊區民安路166號","121.42497","25.0242216666667","6500500","新莊區"
"242048","172-VK","2018/04/12 17:49:22","新北市新莊區萬安街58號","121.420993333333","25.023565","6500500","新莊區"
"242011","173-VK","2018/04/12 17:49:24","新北市新莊區中港路684號","121.450765","25.05677","6500500","新莊區"
"242017","175-VK","2018/04/12 17:49:24","新北市新莊區永安街78號","121.450838333333","25.0446466666667","6500500","新莊區"
"242004","176-VK","2018/04/12 17:49:13","新北市新莊區自立街245號","121.458595","25.0455933333333","6500500","新莊區"
"242015","346-TH","2018/04/12 17:49:23","新北市新莊區新泰路502巷1號","121.443073333333","25.04651","6500500","新莊區"
"242019","347-TH","2018/04/12 17:49:26","新北市新莊區中港路279號","121.453373333333","25.0437483333333","6500500","新莊區"
"242021","348-TH","2018/04/12 17:49:23","新北市新莊區永寧街32巷2號","121.452885","25.039305","6500500","新莊區"
"242002","349-TH","2018/04/12 17:49:19","新北市新莊區景德路174號","121.45023","25.0341716666667","6500500","新莊區"
"242013","351-TH","2018/04/12 17:49:23","新北市新莊區中和街106號","121.448225","25.04687","6500500","新莊區"
"238015","755-BX","2018/04/12 17:49:13","新北市樹林區樹德街136巷10號","121.419411666667","24.9936733333333","6500700","樹林區"
"238023","601-UM","2018/04/12 17:49:29","新北市樹林區龍興街14巷29號","121.401671666667","25.0156583333333","6500700","樹林區"
"238019","599-UM","2018/04/12 17:49:10","新北市樹林區太元街66號","121.418561666667","24.9790866666667","6500700","樹林區"
"238018","571-TV","2018/04/12 17:49:28","新北市樹林區鎮前街61號","121.425096666667","24.99115","6500700","樹林區"
"238024","5061-A6","2018/04/12 17:46:07","新北市樹林區中山路三段210-2號","121.380711666667","24.9667433333333","6500700","樹林區"
"238022","KEA-2213","2018/04/12 17:49:19","新北市樹林區太順街62巷3弄31號","121.416608333333","24.9791666666667","6500700","樹林區"
"238021","KEA-2539","2018/04/12 17:49:25","新北市樹林區柑園街一段171號","121.399768333333","24.9572716666667","6500700","樹林區"
"238025","303-VK","2018/04/12 17:49:28","新北市樹林區三俊街81巷2號","121.415666666667","25.01547","6500700","樹林區"
"238017","283-BY","2018/04/12 17:49:28","新北市樹林區三俊街142號","121.416425","25.0151616666667","6500700","樹林區"
"238014","282-BY","2018/04/12 17:49:19","新北市樹林區保安街一段289巷28號","121.417861666667","24.997185","6500700","樹林區"
"238026","172-UY","2018/04/12 17:49:19","新北市樹林區中洲街30巷6弄2號","121.397306666667","24.9715116666667","6500700","樹林區"
"238016","169-UY","2018/04/12 17:48:53","新北市樹林區復興路383號","121.416663333333","24.9867783333333","6500700","樹林區"
"239007","AAC-297","2018/04/12 17:49:29","新北市鶯歌區鶯桃路100號","121.33912","24.9541433333333","6500800","鶯歌區"
"239006","891-R6","2018/04/12 17:49:18","新北市鶯歌區鳳鳴路103號","121.334266666667","24.9662133333333","6500800","鶯歌區"
"239008","527-UM","2018/04/12 17:49:30","新北市鶯歌區香賓街7巷3號","121.336491666667","24.9789766666667","6500800","鶯歌區"
"239005","526-UM","2018/04/12 17:49:23","新北市鶯歌區鳳吉五街27號","121.327231666667","24.9727016666667","6500800","鶯歌區"
"239001","417-VK","2018/04/12 17:49:10","新北市鶯歌區中正三路307號","121.329013333333","24.935995","6500800","鶯歌區"
"239003","360-BY","2018/04/12 17:49:20","新北市鶯歌區鶯桃路285巷6號","121.334448333333","24.959325","6500800","鶯歌區"
"239002","359-BY","2018/04/12 17:49:23","新北市鶯歌區光明街202號","121.343108333333","24.9558033333333","6500800","鶯歌區"
"239004","193-VK","2018/04/12 17:49:31","新北市鶯歌區文化路146號","121.351895","24.9505116666667","6500800","鶯歌區"
"221008","489-VK","2018/04/12 17:49:18","新北市汐止區康寧街901號","121.65142","25.0750683333333","6501100","汐止區"
"221036","130-UY","2018/04/12 17:49:28","新北市汐止區汐萬路一段160號","121.652573333333","25.0715466666667","6501100","汐止區"
"221015","131-UY","2018/04/12 17:49:29","新北市汐止區長江街213號","121.660975","25.0773016666667","6501100","汐止區"
"221010","269-BY","2018/04/12 17:49:24","新北市汐止區汐萬路二段62巷1號","121.6493","25.0823383333333","6501100","汐止區"
"221012","278-VK","2018/04/12 17:49:26","新北市汐止區長江街83號","121.657485","25.072375","6501100","汐止區"
"221023","279-VK","2018/04/12 17:49:24","新北市汐止區民族一街20號","121.634916666667","25.0709483333333","6501100","汐止區"
"221032","280-BY","2018/04/12 17:49:16","新北市汐止區大同路一段123號","121.63056","25.0547083333333","6501100","汐止區"
"221027","281-BY","2018/04/12 17:49:23","新北市汐止區汐萬路一段312號","121.650538333333","25.0754016666667","6501100","汐止區"
"221029","298-VK","2018/04/12 17:49:29","新北市汐止區康寧街901號","121.651573333333","25.0748483333333","6501100","汐止區"
"221021","299-VK","2018/04/12 17:49:14","新北市汐止區汐萬路一段5號","121.656051666667","25.0673983333333","6501100","汐止區"
"221035","622-UM","2018/04/12 17:49:24","新北市汐止區汐萬路一段211巷15號","121.651448333333","25.0717366666667","6501100","汐止區"
"221025","623-UM","2018/04/12 17:49:14","新北市汐止區汐萬路一段182號","121.65232","25.07188","6501100","汐止區"
"221038","646-BX","2018/04/12 17:49:12","新北市汐止區汐萬路一段204號","121.652083333333","25.0722666666667","6501100","汐止區"
"221033","647-BX","2018/04/12 17:39:01","新北市汐止區林森街124號","121.624513333333","25.0408483333333","6501100","汐止區"
"221002","707-TV","2018/04/12 17:49:16","新北市汐止區康寧街901號","121.651496666667","25.0749916666667","6501100","汐止區"
"221018","753-BX","2018/04/12 17:49:29","新北市汐止區茄苳路9號","121.664851666667","25.0708716666667","6501100","汐止區"
"242009","281-VK","2018/04/12 17:49:20","新北市新莊區昌明街42號","121.456301666667","25.0522933333333","6500500","新莊區"
"242031","280-VK","2018/04/12 17:49:25","新北市新莊區新泰路357巷3弄51號","121.442255","25.0400333333333","6500500","新莊區"
