"lineid","car","time","location","longitude","latitude","cityid","cityname"
"234044","148-BY","2018/04/12 18:59:44","新北市永和區得和路373巷16弄1號","121.5251","25.0003466666667","6500400","永和區"
"234070","149-BY","2018/04/12 18:59:38","新北市永和區竹林路124巷30號","121.51829","25.01148","6500400","永和區"
"234007","207-UY","2018/04/12 18:59:41","新北市永和區中山路一段27號","121.513531666667","25.0105066666667","6500400","永和區"
"234081","298-R6","2018/04/12 18:59:41","新北市永和區永亨路67-1號","121.521268333333","25.0060216666667","6500400","永和區"
"234038","336-UY","2018/04/12 18:59:40","新北市永和區成功路二段207號","121.526581666667","24.9959183333333","6500400","永和區"
"234064","337-UY","2018/04/12 18:59:34","新北市永和區秀朗路一段180號","121.518911666667","25.0032633333333","6500400","永和區"
"234086","338-UY","2018/04/12 18:59:40","新北市永和區永利路20號","121.518063333333","25.0057433333333","6500400","永和區"
"234067","553-UM","2018/04/12 18:59:44","新北市永和區中和路625號","121.513035","25.0050033333333","6500400","永和區"
"234017","745-BX","2018/04/12 18:59:32","新北市永和區永和路二段310號","121.516176666667","25.0160883333333","6500400","永和區"
"234030","746-BX","2018/04/12 18:59:39","新北市永和區四維街77號","121.525106666667","24.998075","6500400","永和區"
"234054","KEA-2590","2018/04/12 18:59:27","新北市永和區竹林路66巷15-7號","121.518341666667","25.0132733333333","6500400","永和區"
"234013","KEA-2591","2018/04/12 18:59:40","新北市永和區信義路17巷22號","121.513191666667","25.0111116666667","6500400","永和區"
"234061","AAD-866","2018/04/12 18:59:43","新北市永和區福和路301號","121.516428333333","25.0071666666667","6500400","永和區"
"234042","862-TW","2018/04/12 18:59:37","新北市永和區永貞路310號","121.511865","25.0049333333333","6500400","永和區"
"234050","863-TW","2018/04/12 18:59:35","新北市永和區文化路194號","121.5108","25.0162216666667","6500400","永和區"
"234026","9371-KE","2018/04/12 18:59:25","新北市永和區安樂路453號","121.514336666667","25.0049983333333","6500400","永和區"
"234011","9373-KE","2018/04/12 18:59:26","新北市永和區文化路128號","121.512998333333","25.0152633333333","6500400","永和區"
"249005","172-UM","2018/04/12 18:59:29","新北市八里區長道坑11號","121.395153333333","25.12182","6502300","八里區"
"249001","173-UM","2018/04/12 18:59:32","新北市八里區龍米路二段228-1號","121.432748333333","25.1584866666667","6502300","八里區"
"248016","026-BX","2018/04/12 18:59:33","新北市五股區成泰路三段543巷5號","121.450873333333","25.1021566666667","6501500","五股區"
"248006","077-UY","2018/04/12 18:59:36","新北市五股區中興路一段56號","121.46788","25.0727666666667","6501500","五股區"
"248008","095-VK","2018/04/12 18:59:32","新北市五股區中興路一段118巷6弄9號","121.466285","25.0746783333333","6501500","五股區"
"248020","225-UY","2018/04/12 18:59:27","新北市五股區凌雲路三段57號","121.425321666667","25.1250183333333","6501500","五股區"
"248012","247-BX","2018/04/12 18:59:36","新北市五股區工商路38號","121.439373333333","25.08375","6501500","五股區"
"248010","272-BY","2018/04/12 18:59:37","新北市五股區水碓一路23號","121.43064","25.0712833333333","6501500","五股區"
"248004","655-BX","2018/04/12 18:59:33","新北市五股區民義路一段312-22號","121.422421666667","25.0954733333333","6501500","五股區"
"248002","678-BX","2018/04/12 18:59:36","新北市五股區凌雲路一段144號","121.449403333333","25.102255","6501500","五股區"
"234023","9380-KE","2018/04/12 18:59:43","新北市永和區竹林路91巷60弄5號","121.521921666667","25.0128516666667","6500400","永和區"
"234077","969-R7","2018/04/12 18:59:44","新北市永和區中正路74號","121.513605","24.9950916666667","6500400","永和區"
"234074","AAC-211","2018/04/12 18:59:37","新北市永和區環河東路二段98號","121.524098333333","25.0103483333333","6500400","永和區"
"234003","AAC-295","2018/04/12 18:59:37","新北市永和區和平街19號","121.513508333333","25.0099033333333","6500400","永和區"
"232011","375-UM","2018/04/12 18:59:41","新北市坪林區水聳淒坑27號","121.711371666667","24.9341216666667","6502000","坪林區"
"244013","069-UM","2018/04/12 18:59:37","新北市林口區麗園一街6巷7-2號","121.375263333333","25.0708066666667","6501700","林口區"
"244009","410-SL","2018/04/12 18:59:27","新北市林口區台電新村18號","121.386765","25.086265","6501700","林口區"
"244023","483-VK","2018/04/12 18:59:42","新北市林口區文林六街60號","121.370716666667","25.08193","6501700","林口區"
"244017","485-VK","2018/04/12 18:59:39","新北市林口區公園路89號","121.368635","25.0696866666667","6501700","林口區"
"244019","657-BX","2018/04/12 18:59:36","新北市林口區麗園二街76-5號","121.38166","25.067745","6501700","林口區"
"244011","701-TV","2018/04/12 18:59:35","新北市林口區中正路321號","121.388616666667","25.0777083333333","6501700","林口區"
"244025","837-TS","2018/04/12 18:59:33","新北市林口區民族路157號","121.366838333333","25.0762333333333","6501700","林口區"
"243012","AAD-798","2018/04/12 18:59:36","新北市泰山區福興三街170號","121.432403333333","25.0569383333333","6501600","泰山區"
"243015","380-SR","2018/04/12 18:59:28","新北市泰山區美寧街2號","121.43012","25.0633266666667","6501600","泰山區"
"243014","421-VK","2018/04/12 18:59:29","新北市泰山區泰林路二段595號","121.421686666667","25.06351","6501600","泰山區"
"243010","KEA-2215","2018/04/12 18:59:37","新北市泰山區辭修路24號","121.428986666667","25.0581216666667","6501600","泰山區"
"243009","KEA-2216","2018/04/12 18:59:40","新北市泰山區泰林路二段362號","121.428871666667","25.0635666666667","6501600","泰山區"
"243013","646-TV","2018/04/12 18:59:35","新北市泰山區明志路三段353號","121.422145","25.0350816666667","6501600","泰山區"
"243016","680-BX","2018/04/12 18:59:37","新北市泰山區明志路二段198號","121.427485","25.0494566666667","6501600","泰山區"
"222003","436-BY","2018/04/12 18:59:31","新北市深坑區深南路51-1號","121.621398333333","25.0101483333333","6501800","深坑區"
"222002","659-BX","2018/04/12 18:59:37","新北市深坑區文山路一段33號","121.629533333333","25.0038366666667","6501800","深坑區"
"231041","002-UM","2018/04/12 18:59:41","新北市新店區環河路74號","121.536923333333","24.9631266666667","6500600","新店區"
"231059","046-UY","2018/04/12 18:59:36","新北市新店區安華路28-1號","121.519565","24.9607983333333","6500600","新店區"
"231040","047-UY","2018/04/12 18:59:44","新北市新店區中正路394號","121.534631666667","24.977335","6500600","新店區"
"231044","106-UY","2018/04/12 18:59:38","新北市新店區寶中路94-2號","121.549046666667","24.979885","6500600","新店區"
"231052","110-UY","2018/04/12 18:59:25","新北市新店區屈尺路2號","121.549245","24.9226333333333","6500600","新店區"
"231047","187-VK","2018/04/12 18:59:39","新北市新店區德正街27巷1號","121.544485","24.9713783333333","6500600","新店區"
"231046","188-VK","2018/04/12 18:59:35","新北市新店區直潭二街59號","121.53504","24.9405316666667","6500600","新店區"
"231054","KEA-2219","2018/04/12 18:59:40","新北市新店區新店路13號","121.540305","24.9528616666667","6500600","新店區"
"231064","260-TV","2018/04/12 18:59:37","新北市新店區安華路28-1號","121.519685","24.9612566666667","6500600","新店區"
"231051","278-BY","2018/04/12 18:59:28","新北市新店區百忍街38號","121.533705","24.9758716666667","6500600","新店區"
"231050","AAD-862","2018/04/12 18:59:26","新北市新店區北宜路二段30巷5弄12號","121.54844","24.9507333333333","6500600","新店區"
"231058","3713-VJ","2018/04/12 18:59:25","新北市新店區中正路1巷2號","121.545671666667","24.9689583333333","6500600","新店區"
"231066","4716-K9","2018/04/12 18:59:25","新北市新店區安康路二段458號","121.49408","24.9540716666667","6500600","新店區"
"231056","4715-K9","2018/04/12 18:59:32","新北市新店區建國路212-1號","121.538236666667","24.9810083333333","6500600","新店區"
"231067","4772-VM","2018/04/12 18:59:41","新北市新店區安康路一段146號","121.526406666667","24.9629083333333","6500600","新店區"
"231065","512-UM","2018/04/12 18:59:27","新北市新店區安祥路147巷4號","121.475273333333","24.9555883333333","6500600","新店區"
"231049","513-UM","2018/04/12 18:59:39","新北市新店區中正路450號","121.534405","24.9790233333333","6500600","新店區"
"231061","618-UM","2018/04/12 18:59:37","新北市新店區安康路二段1-5號","121.51721","24.9636166666667","6500600","新店區"
"231063","641-BX","2018/04/12 18:59:35","新北市新店區車子路110號","121.505223333333","24.9520716666667","6500600","新店區"
"231042","645-TV","2018/04/12 18:59:37","新北市新店區中正路30號","121.545173333333","24.9697016666667","6500600","新店區"
"231062","720-UM","2018/04/12 18:59:36","新北市新店區安豐路48號","121.500455","24.95418","6500600","新店區"
"231060","897-TW","2018/04/12 18:59:26","新北市新店區安忠路205巷8號","121.509095","24.9548216666667","6500600","新店區"
"231045","898-TW","2018/04/12 18:59:39","新北市新店區光明街9號","121.538168333333","24.9592733333333","6500600","新店區"
"231043","899-TW","2018/04/12 18:59:38","新北市新店區北新路二段1號","121.54266","24.971245","6500600","新店區"
"231055","AKT-0513","2018/04/12 18:59:40","新北市新店區新生街13巷26號","121.538971666667","24.9665383333333","6500600","新店區"
"241026","066-VK","2018/04/12 18:59:34","新北市三重區泉州街106號","121.494915","25.053725","6500200","三重區"
"241029","942-UM","2018/04/12 18:59:31","新北市三重區重安街14號","121.49024","25.05817","6500200","三重區"
"235066","003-UY","2018/04/12 18:59:32","新北市中和區中山路二段131巷5弄3號","121.502858333333","25.00288","6500300","中和區"
"235064","005-UY","2018/04/12 18:59:25","新北市中和區泰和街26號","121.499493333333","25.0004116666667","6500300","中和區"
"235063","006-UY","2018/04/12 18:59:41","新北市中和區連城路319巷7號","121.489215","24.995285","6500300","中和區"
"235060","031-BX","2018/04/12 18:59:38","新北市中和區民治街11巷2號","121.475205","25.0042316666667","6500300","中和區"
"235056","096-UM","2018/04/12 18:59:40","新北市中和區員山路466巷15號","121.480656666667","25.0068333333333","6500300","中和區"
"235039","097-UM","2018/04/12 18:59:31","新北市中和區安樂路217巷40弄2號","121.513475","24.9981083333333","6500300","中和區"
"235065","098-UM","2018/04/12 18:59:33","新北市中和區勝利路35巷3弄19號","121.499768333333","25.0074283333333","6500300","中和區"
"235040","150-BY","2018/04/12 18:59:25","新北市中和區宜安路20號","121.513265","24.9958283333333","6500300","中和區"
"235058","151-BY","2018/04/12 18:59:28","新北市中和區連城路569巷9弄12號","121.479786666667","24.9940783333333","6500300","中和區"
"235055","183-VK","2018/04/12 18:59:39","新北市中和區民德路25巷1號","121.469116666667","25.00273","6500300","中和區"
"235038","185-VK","2018/04/12 18:59:28","新北市中和區立人街32號","121.51846","24.99404","6500300","中和區"
"235049","186-VK","2018/04/12 18:59:30","新北市中和區景新街210巷2弄4號","121.506983333333","24.9942483333333","6500300","中和區"
"235067","255-BX","2018/04/12 18:59:44","新北市中和區民樂路81號","121.484596666667","25.001235","6500300","中和區"
"235044","293-VK","2018/04/12 18:59:36","新北市中和區復興路280巷33弄5號","121.501476666667","24.99137","6500300","中和區"
"235072","301-VK","2018/04/12 18:59:33","新北市中和區中山路二段248號","121.497706666667","25.0025366666667","6500300","中和區"
"235043","352-BY","2018/04/12 18:59:31","新北市中和區成功路3號","121.526383333333","24.9942916666667","6500300","中和區"
"235068","377-QA","2018/04/12 18:59:06","新北市中和區圓通路234號","121.494833333333","24.9927183333333","6500300","中和區"
"235061","378-QA","2018/04/12 18:59:32","新北市中和區民治街130巷11號","121.474671666667","25.0025","6500300","中和區"
"235050","4979-A6","2018/04/12 18:59:25","新北市中和區華新街50巷2號","121.50774","24.9840916666667","6500300","中和區"
"235069","4980-A6","2018/04/12 18:59:39","新北市中和區圓通路109巷11號","121.500093333333","24.99628","6500300","中和區"
"235042","551-UM","2018/04/12 18:59:30","新北市中和區秀朗路三段78巷1弄3號","121.525646666667","24.9939133333333","6500300","中和區"
"235045","565-BX","2018/04/12 18:59:40","新北市中和區景新街467巷22號","121.514228333333","24.9882916666667","6500300","中和區"
"235054","640-BX","2018/04/12 18:59:43","新北市中和區民享街2號","121.473905","25.0055316666667","6500300","中和區"
"235047","732-UM","2018/04/12 18:59:43","新北市中和區興南路二段101號","121.50601","24.9846866666667","6500300","中和區"
"235046","733-UM","2018/04/12 18:59:34","新北市中和區興南路一段85巷8號","121.50993","24.9885666666667","6500300","中和區"
"235071","783-BX","2018/04/12 18:59:44","新北市中和區員山路36巷16-3號","121.485163333333","24.9912066666667","6500300","中和區"
"235062","800-TS","2018/04/12 18:59:35","新北市中和區中山路二段530號","121.485833333333","25.005175","6500300","中和區"
"235057","801-TS","2018/04/12 18:59:23","新北市中和區民利街72號","121.478578333333","24.9982883333333","6500300","中和區"
"235052","805-TS","2018/04/12 18:59:35","新北市中和區興南路二段120號","121.504578333333","24.9838","6500300","中和區"
"235048","896-TW","2018/04/12 18:59:38","新北市中和區華新街109巷16號","121.508783333333","24.980985","6500300","中和區"
"235053","900-TW","2018/04/12 18:59:29","新北市中和區壽德街26號","121.466671666667","24.99413","6500300","中和區"
"235070","911-UM","2018/04/12 18:59:25","新北市中和區安和路163號","121.506271666667","24.9974866666667","6500300","中和區"
"235051","157-BY","2018/04/12 18:59:33","新北市中和區忠孝街19巷22號","121.51002","24.983395","6500300","中和區"
"235037","AAC-213","2018/04/12 18:59:39","新北市中和區秀朗路三段10巷14弄54號","121.524113333333","24.9964916666667","6500300","中和區"
"235059","AAC-215","2018/04/12 18:59:23","新北市中和區圓通路367巷20弄7號","121.491956666667","24.9884866666667","6500300","中和區"
"220068","013-TV","2018/04/12 18:59:37","新北市板橋區中山路二段465巷78號","121.481241666667","25.022265","6500100","板橋區"
"220056","015-TV","2018/04/12 18:59:33","新北市板橋區信義路147號","121.45815","24.9930166666667","6500100","板橋區"
"220065","072-UY","2018/04/12 18:59:40","新北市板橋區漢生東路340巷10號","121.471468333333","25.0073816666667","6500100","板橋區"
"220086","073-UY","2018/04/12 18:59:40","新北市板橋區中正路74號","121.456888333333","25.0146166666667","6500100","板橋區"
"220067","075-UY","2018/04/12 18:59:33","新北市板橋區三民路二段正隆巷12弄1號","121.478075","25.0130516666667","6500100","板橋區"
"220069","AAD-861","2018/04/12 18:59:42","新北市板橋區東興街45號","121.458641666667","25.0055483333333","6500100","板橋區"
"226004","312-R5","2018/04/12 18:59:44","新北市平溪區靜安路二段561號","121.748706666667","25.0246716666667","6502400","平溪區"
"235041","251-BX","2018/04/12 18:59:25","新北市中和區安平路147號","121.512001666667","24.9980216666667","6500300","中和區"
"228003","097-TW","2018/04/12 18:59:24","新北市貢寮區和美里龍洞街56-2號","121.912155","25.1138866666667","6502600","貢寮區"
"228001","212-TW","2018/04/12 18:59:32","新北市貢寮區仁理村研海街12-1號","121.923796666667","25.05164","6502600","貢寮區"
"228002","585-TW","2018/04/12 18:59:30","新北市貢寮區福隆里興隆街2巷4號","121.945918333333","25.017465","6502600","貢寮區"
"224010","AGQ-8101","2018/04/12 18:54:46","新北市瑞芳區烏勢巷145號","121.847951666667","25.10928","6501200","瑞芳區"
"224006","676-BX","2018/04/12 18:59:44","新北市瑞芳區三爪子坑路106巷112號","121.808473333333","25.104345","6501200","瑞芳區"
"224008","285-BY","2018/04/12 18:59:41","新北市瑞芳區逢甲路274號","121.80481","25.1108783333333","6501200","瑞芳區"
"224007","275-VK","2018/04/12 18:59:28","新北市瑞芳區大埔路242號","121.759883333333","25.1012016666667","6501200","瑞芳區"
"224009","273-VK","2018/04/12 18:59:40","新北市瑞芳區五號路253-1號","121.856216666667","25.1132016666667","6501200","瑞芳區"
"224005","271-BY","2018/04/12 18:59:33","新北市瑞芳區海濱路38-1號","121.831175","25.1234316666667","6501200","瑞芳區"
"227004","642-TC","2018/04/12 18:59:26","新北市雙溪區平林里康福家園10號","121.858766666667","25.03734","6502500","雙溪區"
"227010","400-TW","2018/04/12 18:59:37","新北市雙溪區牡丹里中正路58巷23號","121.866436666667","25.0416333333333","6502500","雙溪區"
"253005","032-BX","2018/04/12 18:59:30","新北市石門區中央路37-1號","121.568453333333","25.2943383333333","6502200","石門區"
"253006","295-VK","2018/04/12 18:59:23","新北市石門區下員坑30-7號","121.51923","25.2812366666667","6502200","石門區"
"222001","KEA-2212","2018/04/12 18:59:36","新北市深坑區北深路一段164號","121.634126666667","25.0107466666667","6501800","深坑區"
"208002","KEA-2872","2018/04/12 18:59:31","新北市金山區信義路64巷17號","121.635165","25.2194216666667","6502700","金山區"
"208003","665-BX","2018/04/12 18:59:34","新北市金山區中正路37號","121.635025","25.2220016666667","6502700","金山區"
"251009","008-UM","2018/04/12 18:59:29","新北市淡水區重建街38號","121.439901666667","25.1713416666667","6501000","淡水區"
"251002","012-UM","2018/04/12 18:59:25","新北市淡水區中正東路55-8號","121.446915","25.167895","6501000","淡水區"
"251013","179-VK","2018/04/12 18:59:33","新北市淡水區安子內12號","121.481531666667","25.2190933333333","6501000","淡水區"
"251014","180-VK","2018/04/12 18:59:25","新北市淡水區小中寮32-1號","121.491293333333","25.226165","6501000","淡水區"
"251015","182-VK","2018/04/12 18:59:40","新北市淡水區糞箕湖60號","121.485193333333","25.1723116666667","6501000","淡水區"
"251010","413-VK","2018/04/12 18:59:33","新北市淡水區淡海路88-2號","121.422973333333","25.181775","6501000","淡水區"
"251016","442-VK","2018/04/12 18:59:39","新北市淡水區埤島23-3號","121.447038333333","25.1994516666667","6501000","淡水區"
"251001","559-UM","2018/04/12 18:59:30","新北市淡水區自強路58號","121.463103333333","25.1274933333333","6501000","淡水區"
"251007","577-R6","2018/04/12 18:59:34","新北市淡水區民生路113巷1弄51號","121.462455","25.1385333333333","6501000","淡水區"
"251003","766-UM","2018/04/12 18:59:27","新北市淡水區中山北路一段149巷24號","121.442925","25.1779766666667","6501000","淡水區"
"207003","550-UM","2018/04/12 18:59:34","新北市萬里區大鵬里頂社24-2號","121.657468333333","25.2103316666667","6502800","萬里區"
"207004","225-TW","2018/04/12 18:59:37","新北市萬里區萬里里獅頭路23號","121.693213333333","25.1782933333333","6502800","萬里區"
"252002","178-VK","2018/04/12 18:59:38","新北市三芝區中正路一段74號","121.503955","25.25747","6502100","三芝區"
"252003","249-BX","2018/04/12 18:59:44","新北市三芝區後厝里北勢子17號","121.474326666667","25.2546033333333","6502100","三芝區"
"252001","292-VK","2018/04/12 18:59:28","新北市三芝區中興街二段260號","121.501725","25.2530366666667","6502100","三芝區"
"237004","KEA-2597","2018/04/12 18:59:30","新北市三峽區有木183號","121.445128333333","24.8367533333333","6500900","三峽區"
"237007","153-BY","2018/04/12 18:59:38","新北市三峽區中正路二段87-1號","121.366588333333","24.9177883333333","6500900","三峽區"
"237011","572-TV","2018/04/12 18:59:24","新北市三峽區介壽路二段157號","121.393683333333","24.9358316666667","6500900","三峽區"
"237013","252-BX","2018/04/12 18:59:38","新北市三峽區光明路69巷25號","121.376598333333","24.9292583333333","6500900","三峽區"
"237012","275-BY","2018/04/12 18:59:43","新北市三峽區三樹路222巷196-40號","121.390266666667","24.9426383333333","6500900","三峽區"
"237008","302-VK","2018/04/12 18:59:39","新北市三峽區白雞33-60號","121.37091","24.913125","6500900","三峽區"
"237014","433-BY","2018/04/12 18:59:31","新北市三峽區隆恩街202-1號","121.359996666667","24.9420116666667","6500900","三峽區"
"237006","5529-G3","2018/04/12 18:59:42","新北市三峽區溪東路233巷47弄2號","121.41063","24.9346166666667","6500900","三峽區"
"237010","706-TV","2018/04/12 18:59:40","新北市三峽區國光街364巷11號","121.371021666667","24.94012","6500900","三峽區"
"237005","AKY-6261","2018/04/12 18:59:31","新北市三峽區中山路459巷163-3號","121.349101666667","24.9333933333333","6500900","三峽區"
"236070","105-UM","2018/04/12 18:59:23","新北市土城區裕民路280號","121.455376666667","24.9821866666667","6501300","土城區"
"236042","107-UM","2018/04/12 18:59:41","新北市土城區學府路一段229巷13號","121.451708333333","24.9837016666667","6501300","土城區"
"236078","166-UM","2018/04/12 18:59:25","新北市土城區中央路四段466號","121.409925","24.9506233333333","6501300","土城區"
"236030","253-BX","2018/04/12 18:59:36","新北市土城區慶利街18號","121.439578333333","24.973685","6501300","土城區"
"236026","269-VK","2018/04/12 18:59:32","新北市土城區中央路二段246號","121.441931666667","24.9748433333333","6501300","土城區"
"236014","270-VK","2018/04/12 18:59:30","新北市土城區延和路13巷1號","121.46355","24.9885416666667","6501300","土城區"
"236038","271-VK","2018/04/12 18:59:26","新北市土城區青仁路39號","121.461085","24.9791366666667","6501300","土城區"
"236021","401-BY","2018/04/12 18:59:27","新北市土城區明峰街50號","121.467736666667","24.98649","6501300","土城區"
"236059","912-UM","2018/04/12 18:59:40","新北市土城區金城路二段182號","121.453883333333","24.9810983333333","6501300","土城區"
"236049","913-UM","2018/04/12 18:59:43","新北市土城區明德路一段280號","121.45745","24.9775033333333","6501300","土城區"
"236063","915-UM","2018/04/12 18:59:17","新北市土城區延和路41巷2弄15號","121.466695","24.990225","6501300","土城區"
"236055","AAC-216","2018/04/12 18:59:42","新北市土城區學成路147號","121.448746666667","24.9895533333333","6501300","土城區"
"242002","349-TH","2018/04/12 18:59:39","新北市新莊區三和路12-18號","121.441975","25.037675","6500500","新莊區"
"238023","601-UM","2018/04/12 18:59:28","新北市樹林區大慶街156號","121.396861666667","25.0132733333333","6500700","樹林區"
"238019","599-UM","2018/04/12 18:59:30","新北市樹林區東榮街91巷2弄17號","121.415475","24.982","6500700","樹林區"
"238018","571-TV","2018/04/12 18:59:28","新北市樹林區八德街1號","121.417766666667","24.9846566666667","6500700","樹林區"
"238022","KEA-2213","2018/04/12 18:59:39","新北市樹林區東興街16巷1號","121.41006","24.97828","6500700","樹林區"
"238021","KEA-2539","2018/04/12 18:59:37","新北市樹林區西圳街二段123巷6弄2號","121.38438","24.9573083333333","6500700","樹林區"
"238025","303-VK","2018/04/12 18:59:27","新北市樹林區民和街77號","121.380618333333","24.9716083333333","6500700","樹林區"
"238017","283-BY","2018/04/12 18:59:28","新北市樹林區中山路二段121-2號","121.40816","24.9798933333333","6500700","樹林區"
"238014","282-BY","2018/04/12 18:59:39","新北市樹林區潭興街34號","121.4253","24.99922","6500700","樹林區"
"238026","172-UY","2018/04/12 18:59:39","新北市樹林區佳園路一段41巷18號","121.393886666667","24.9710933333333","6500700","樹林區"
"238016","169-UY","2018/04/12 18:59:33","新北市樹林區復興路373巷3弄1號","121.417353333333","24.9867533333333","6500700","樹林區"
"239007","AAC-297","2018/04/12 18:59:29","新北市鶯歌區中正一路333-2號","121.356603333333","24.9577933333333","6500800","鶯歌區"
"239006","891-R6","2018/04/12 18:59:38","新北市鶯歌區鶯桃路296巷84弄24號","121.337258333333","24.9614333333333","6500800","鶯歌區"
"239008","527-UM","2018/04/12 18:59:30","新北市鶯歌區國際二路20巷52號","121.338065","24.97607","6500800","鶯歌區"
"239005","526-UM","2018/04/12 18:59:23","新北市鶯歌區鳳吉一街170號","121.329028333333","24.97563","6500800","鶯歌區"
"239001","417-VK","2018/04/12 18:59:31","新北市鶯歌區永明街58號","121.340096666667","24.9561616666667","6500800","鶯歌區"
"239003","360-BY","2018/04/12 18:59:36","新北市鶯歌區鶯桃路660號","121.329095","24.9692016666667","6500800","鶯歌區"
"239004","193-VK","2018/04/12 18:59:31","新北市鶯歌區中正三路194巷2-3號","121.332626666667","24.9385383333333","6500800","鶯歌區"
"221008","489-VK","2018/04/12 18:59:38","新北市汐止區翠峰街21巷3弄12號","121.643871666667","25.0757283333333","6501100","汐止區"
"221015","131-UY","2018/04/12 18:59:38","新北市汐止區鄉長路一段39號","121.665278333333","25.0749883333333","6501100","汐止區"
"221010","269-BY","2018/04/12 18:59:24","新北市汐止區康寧街901號","121.651418333333","25.0750683333333","6501100","汐止區"
"221018","277-VK","2018/04/12 18:59:25","新北市汐止區福德二路158號","121.630088333333","25.0652","6501100","汐止區"
"221012","278-VK","2018/04/12 18:59:26","新北市汐止區康寧街901號","121.650776666667","25.0752733333333","6501100","汐止區"
"221023","279-VK","2018/04/12 18:59:24","新北市汐止區康寧街901號","121.650943333333","25.07523","6501100","汐止區"
"221032","280-BY","2018/04/12 18:59:35","新北市汐止區橫科路385巷11號","121.624531666667","25.0477033333333","6501100","汐止區"
"221027","281-BY","2018/04/12 18:59:40","新北市汐止區康寧街901號","121.651458333333","25.0749866666667","6501100","汐止區"
"221029","298-VK","2018/04/12 18:59:29","新北市汐止區樟樹一路254號","121.64234","25.0672283333333","6501100","汐止區"
"221035","622-UM","2018/04/12 18:59:24","新北市汐止區汐萬路一段142號","121.653176666667","25.0711183333333","6501100","汐止區"
"221025","623-UM","2018/04/12 18:59:34","新北市汐止區汐萬路一段118號","121.653815","25.0712333333333","6501100","汐止區"
"221038","646-BX","2018/04/12 18:59:32","新北市汐止區汐萬路一段312號","121.650701666667","25.0752733333333","6501100","汐止區"
"221033","647-BX","2018/04/12 18:59:41","新北市汐止區南勢街1巷1號","121.62704","25.03742","6501100","汐止區"
"221002","707-TV","2018/04/12 18:59:36","新北市汐止區大同路一段4號","121.621106666667","25.0550566666667","6501100","汐止區"
"220079","145-BY","2018/04/12 18:59:43","新北市板橋區民權路202巷9弄9號","121.460105","25.0154366666667","6500100","板橋區"
"220080","200-UY","2018/04/12 18:59:40","新北市板橋區大觀路二段文和巷66號","121.443461666667","24.9986333333333","6500100","板橋區"
"220106","KEA-2550","2018/04/12 18:59:42","新北市板橋區文化路二段124巷3號","121.47051","25.0259816666667","6500100","板橋區"
"220082","610-BX","2018/04/12 18:59:36","新北市板橋區滿平街111號","121.428466666667","24.9885316666667","6500100","板橋區"
"220101","245-BX","2018/04/12 18:59:40","新北市板橋區文化路二段182巷7弄1號","121.471791666667","25.0269783333333","6500100","板橋區"
"220091","267-BY","2018/04/12 18:59:23","新北市板橋區莒光路165巷10號","121.474076666667","25.024195","6500100","板橋區"
"220072","277-BY","2018/04/12 18:59:30","新北市板橋區溪北路154號","121.430456666667","24.9882466666667","6500100","板橋區"
"220070","282-UM","2018/04/12 18:59:38","新北市板橋區四川路一段387號","121.457943333333","24.9992116666667","6500100","板橋區"
"220071","283-VK","2018/04/12 18:59:38","新北市板橋區重慶路258號","121.462861666667","25.0006816666667","6500100","板橋區"
"220094","285-UM","2018/04/12 18:59:33","新北市板橋區文化路二段76號","121.469453333333","25.025015","6500100","板橋區"
"220053","285-VK","2018/04/12 18:59:29","新北市板橋區中山路二段89巷29號","121.47373","25.0168516666667","6500100","板橋區"
"220083","286-VK","2018/04/12 18:59:42","新北市板橋區大觀路一段38巷172號","121.441778333333","25.0046083333333","6500100","板橋區"
"220081","287-VK","2018/04/12 18:59:42","新北市板橋區光華街22號","121.453995","25.0121366666667","6500100","板橋區"
"220090","288-VK","2018/04/12 18:59:31","新北市板橋區民生路三段64號","121.467015","25.025525","6500100","板橋區"
"220061","293-UM","2018/04/12 18:59:34","新北市板橋區縣民大道三段138號","121.475146666667","25.02116","6500100","板橋區"
"220075","303-R5","2018/04/12 18:59:27","新北市板橋區福德街6號","121.456106666667","25.0090066666667","6500100","板橋區"
"220062","305-R5","2018/04/12 18:59:32","新北市板橋區民享街115-2號","121.477736666667","25.0161533333333","6500100","板橋區"
"220092","307-R5","2018/04/12 18:59:41","新北市板橋區漢生東路15號","121.464716666667","25.0172666666667","6500100","板橋區"
"220098","317-R6","2018/04/12 18:59:28","新北市板橋區民生路三段20號","121.467581666667","25.02437","6500100","板橋區"
"220064","486-VK","2018/04/12 18:59:45","新北市板橋區中山路一段272巷18-1號","121.469495","25.0136733333333","6500100","板橋區"
"220088","491-VK","2018/04/12 18:59:40","新北市板橋區民生路二段216號","121.469253333333","25.0215633333333","6500100","板橋區"
"220035","560-BX","2018/04/12 18:59:41","新北市板橋區中正路343號","121.454775","25.0204133333333","6500100","板橋區"
"220103","561-BX","2018/04/12 18:59:43","新北市板橋區民生路二段123號","121.470613333333","25.01867","6500100","板橋區"
"220084","568-UM","2018/04/12 18:59:44","新北市板橋區龍興街2號","121.442728333333","24.9994133333333","6500100","板橋區"
"220063","609-BX","2018/04/12 18:59:40","新北市板橋區中山路二段108號","121.475868333333","25.0166683333333","6500100","板橋區"
"220055","630-UY","2018/04/12 18:59:40","新北市板橋區中山路1段158巷22-1號","121.4664","25.0109966666667","6500100","板橋區"
"220057","686-BX","2018/04/12 18:59:27","新北市板橋區重慶路95號","121.462073333333","25.0056783333333","6500100","板橋區"
"220093","689-BX","2018/04/12 18:59:42","新北市板橋區民生路二段236號","121.468385","25.0230483333333","6500100","板橋區"
"220054","741-BX","2018/04/12 18:59:38","新北市板橋區重慶路141號","121.462415","25.0046266666667","6500100","板橋區"
"220102","KEA-2699","2018/04/12 18:59:27","新北市板橋區雙十路一段44巷36號","121.477368333333","25.02481","6500100","板橋區"
"220096","831-TW","2018/04/12 18:59:41","新北市板橋區莒光路108號","121.472226666667","25.0239583333333","6500100","板橋區"
"220089","833-TW","2018/04/12 18:59:38","新北市板橋區文化路二段248號","121.471063333333","25.0282366666667","6500100","板橋區"
"220074","895-R6","2018/04/12 18:59:38","新北市板橋區後菜園街45號","121.456143333333","25.0098333333333","6500100","板橋區"
"220073","985-R7","2018/04/12 18:59:28","新北市板橋區中正路185-1號","121.456456666667","25.016795","6500100","板橋區"
"220097","AAC-210","2018/04/12 18:59:40","新北市板橋區漢生東路21號","121.464718333333","25.0170666666667","6500100","板橋區"
"220077","AAC-253","2018/04/12 18:59:39","新北市板橋區大觀路二段146號","121.442111666667","24.9988983333333","6500100","板橋區"
