"lineid","car","time","location","longitude","latitude","cityid","cityname"
"234044","148-BY","2018/04/12 19:27:44","新北市永和區秀朗路二段140號","121.525228333333","25.0015033333333","6500400","永和區"
"234070","149-BY","2018/04/12 19:27:46","新北市永和區警光街23號","121.519155","25.0093","6500400","永和區"
"234007","207-UY","2018/04/12 19:27:41","新北市永和區中山路一段31號","121.513221666667","25.0105566666667","6500400","永和區"
"234081","298-R6","2018/04/12 19:27:40","新北市永和區林森路10巷8號","121.526171666667","25.00608","6500400","永和區"
"234038","336-UY","2018/04/12 19:27:40","新北市永和區成功路二段67號","121.527455","25.0000183333333","6500400","永和區"
"234064","337-UY","2018/04/12 19:27:35","新北市永和區得和路243巷41號","121.520918333333","25.001755","6500400","永和區"
"234086","338-UY","2018/04/12 19:27:40","新北市永和區林森路65號","121.524141666667","25.0041683333333","6500400","永和區"
"234067","553-UM","2018/04/12 19:27:44","新北市永和區永貞路360巷1號","121.51039","25.0069016666667","6500400","永和區"
"234017","745-BX","2018/04/12 19:27:32","新北市永和區環河西路一段91-1號","121.51223","25.0177183333333","6500400","永和區"
"234030","746-BX","2018/04/12 19:27:46","新北市永和區民生路35號","121.52273","24.9981783333333","6500400","永和區"
"234054","KEA-2590","2018/04/12 19:27:47","新北市永和區復興街19巷2號","121.516166666667","25.0131466666667","6500400","永和區"
"234013","KEA-2591","2018/04/12 19:27:40","新北市永和區永和路二段105號","121.514915","25.0118233333333","6500400","永和區"
"234061","AAD-866","2018/04/12 19:27:43","新北市永和區中正路588-1號","121.517101666667","25.0069933333333","6500400","永和區"
"234042","862-TW","2018/04/12 19:27:51","新北市永和區中和路519巷16號","121.510753333333","25.0032766666667","6500400","永和區"
"234050","863-TW","2018/04/12 19:27:45","新北市永和區信義路114號","121.512358333333","25.0143633333333","6500400","永和區"
"234026","9371-KE","2018/04/12 19:27:45","新北市中和區安樂路161-1號","121.514741666667","24.9973533333333","6500400","永和區"
"234011","9373-KE","2018/04/12 19:27:46","新北市永和區保福路二段9巷9號","121.510546666667","25.0108966666667","6500400","永和區"
"249003","593-UM","2018/04/12 19:27:31","新北市八里區中山路二段500巷58號","121.395353333333","25.1488466666667","6502300","八里區"
"248006","077-UY","2018/04/12 19:19:24","新北市五股區中興路二段37巷28號","121.460121666667","25.07492","6501500","五股區"
"248008","095-VK","2018/04/12 19:27:32","新北市五股區中興路二段37巷2號","121.461768333333","25.0748766666667","6501500","五股區"
"248020","225-UY","2018/04/12 19:27:47","新北市五股區凌雲路三段100號","121.42692","25.12262","6501500","五股區"
"248012","247-BX","2018/04/12 19:27:36","新北市五股區中興路四段48巷16號","121.438565","25.0834933333333","6501500","五股區"
"248014","261-SL","2018/04/12 19:27:39","新北市五股區民義路一段183巷6-1號","121.430831666667","25.08716","6501500","五股區"
"248010","272-BY","2018/04/12 19:27:37","新北市五股區水碓一路23號","121.430601666667","25.07136","6501500","五股區"
"248004","655-BX","2018/04/12 19:27:32","新北市五股區五福路45號","121.433185","25.089625","6501500","五股區"
"248002","678-BX","2018/04/12 19:27:36","新北市五股區凌雲路一段158巷11號","121.447711666667","25.1033933333333","6501500","五股區"
"234023","9380-KE","2018/04/12 19:27:43","新北市永和區竹林路91巷21弄11號","121.520888333333","25.0124583333333","6500400","永和區"
"234077","969-R7","2018/04/12 19:27:44","新北市永和區民權路80號","121.519741666667","24.9976733333333","6500400","永和區"
"234074","AAC-211","2018/04/12 19:27:37","新北市永和區環河東路一段162號","121.521383333333","25.01453","6500400","永和區"
"234003","AAC-295","2018/04/12 19:27:33","新北市永和區永和路一段188號","121.514333333333","25.00915","6500400","永和區"
"244013","069-UM","2018/04/12 19:27:37","新北市林口區文化一路一段126號","121.375598333333","25.0725616666667","6501700","林口區"
"244023","483-VK","2018/04/12 19:27:42","新北市林口區文化三路二段1-1號","121.372911666667","25.0784616666667","6501700","林口區"
"244019","657-BX","2018/04/12 19:27:36","新北市林口區文化二路一段577號","121.37585","25.0783683333333","6501700","林口區"
"243012","AAD-798","2018/04/12 19:27:52","新北市泰山區仁愛路18號","121.431243333333","25.05441","6501600","泰山區"
"243011","297-R6","2018/04/12 19:27:38","新北市泰山區貴子路19-1號","121.427961666667","25.0409016666667","6501600","泰山區"
"243015","380-SR","2018/04/12 19:27:48","新北市泰山區民族街1號","121.428923333333","25.0520716666667","6501600","泰山區"
"243014","421-VK","2018/04/12 19:27:29","新北市泰山區仁愛路58號","121.431898333333","25.0547983333333","6501600","泰山區"
"243010","KEA-2215","2018/04/12 19:27:37","新北市泰山區民族街10巷1號","121.429175","25.05171","6501600","泰山區"
"243009","KEA-2216","2018/04/12 19:27:40","新北市泰山區半山雅3號","121.431288333333","25.0674033333333","6501600","泰山區"
"243013","646-TV","2018/04/12 19:27:35","新北市泰山區明志路三段123巷1弄6號","121.425758333333","25.0407733333333","6501600","泰山區"
"243016","680-BX","2018/04/12 19:27:50","新北市泰山區明志路三段337號","121.422193333333","25.0354733333333","6501600","泰山區"
"222003","436-BY","2018/04/12 19:27:51","新北市深坑區深南路88巷1號","121.62098","25.0117033333333","6501800","深坑區"
"222002","659-BX","2018/04/12 19:27:37","新北市深坑區北深路一段177號","121.632558333333","25.0108866666667","6501800","深坑區"
"231041","002-UM","2018/04/12 19:27:41","新北市新店區中正路616號","121.533973333333","24.9886933333333","6500600","新店區"
"231059","046-UY","2018/04/12 19:27:36","新北市新店區安和路三段12號","121.518021666667","24.9810333333333","6500600","新店區"
"231040","047-UY","2018/04/12 19:27:44","新北市新店區北新路一段229號","121.540621666667","24.9654533333333","6500600","新店區"
"231044","106-UY","2018/04/12 19:27:38","新北市新店區中興路三段136號","121.54466","24.9799566666667","6500600","新店區"
"231052","110-UY","2018/04/12 19:27:45","新北市新店區屈尺路60號","121.547241666667","24.92263","6500600","新店區"
"231047","187-VK","2018/04/12 19:27:39","新北市新店區五峰路149號","121.544963333333","24.9656633333333","6500600","新店區"
"231046","188-VK","2018/04/12 19:27:35","新北市新店區光明街284號","121.540338333333","24.9645583333333","6500600","新店區"
"231054","KEA-2219","2018/04/12 19:27:40","新北市新店區文中路45號","121.539615","24.9566966666667","6500600","新店區"
"231057","256-BX","2018/04/12 19:27:50","新北市新店區花園一路二段25號","121.551245","24.9324833333333","6500600","新店區"
"231064","260-TV","2018/04/12 19:27:37","新北市新店區安忠路57巷26弄3號","121.513078333333","24.9587533333333","6500600","新店區"
"231051","278-BY","2018/04/12 19:27:48","新北市新店區中央路95巷8號","121.531676666667","24.9748416666667","6500600","新店區"
"231050","AAD-862","2018/04/12 19:27:46","新北市新店區竹林路71-7號","121.553571666667","24.9512966666667","6500600","新店區"
"231058","3713-VJ","2018/04/12 19:27:45","新北市新店區北新路二段252號","121.543373333333","24.97777","6500600","新店區"
"231066","4716-K9","2018/04/12 19:27:45","新北市新店區安康路三段165巷2弄1號","121.489425","24.9512533333333","6500600","新店區"
"231067","4772-VM","2018/04/12 19:27:40","新北市新店區安康路二段1-5號","121.517146666667","24.9639733333333","6500600","新店區"
"231065","512-UM","2018/04/12 19:27:47","新北市新店區安祥路109巷3弄6號","121.475345","24.959485","6500600","新店區"
"231049","513-UM","2018/04/12 19:27:39","新北市新店區北新路三段65巷12弄24號","121.540756666667","24.9816716666667","6500600","新店區"
"231061","618-UM","2018/04/12 19:27:37","新北市新店區安康路一段355-4號","121.517375","24.96393","6500600","新店區"
"231063","641-BX","2018/04/12 19:27:35","新北市新店區達觀路16號","121.503121666667","24.9406933333333","6500600","新店區"
"231042","645-TV","2018/04/12 19:27:37","新北市新店區北宜路一段3號","121.538581666667","24.9584666666667","6500600","新店區"
"231062","720-UM","2018/04/12 19:27:36","新北市新店區莒光路99號","121.522193333333","24.953585","6500600","新店區"
"231060","897-TW","2018/04/12 19:27:46","新北市新店區安和路一段9號","121.516828333333","24.964015","6500600","新店區"
"231045","898-TW","2018/04/12 19:27:39","新北市新店區北宜路二段213號","121.55323","24.9533483333333","6500600","新店區"
"231043","899-TW","2018/04/12 19:27:38","新北市新店區北新路二段256號","121.542856666667","24.97795","6500600","新店區"
"231055","AKT-0513","2018/04/12 19:27:40","新北市新店區溪園路365-6號","121.522718333333","24.9803616666667","6500600","新店區"
"241028","022-UY","2018/04/12 19:27:46","新北市三重區中寮街31號","121.492648333333","25.058815","6500200","三重區"
"241008","059-VK","2018/04/12 19:27:45","新北市三重區永福街135巷32弄2號","121.4771","25.0769333333333","6500200","三重區"
"241009","060-VK","2018/04/12 19:27:38","新北市三重區溪尾街242巷48號","121.486611666667","25.081515","6500200","三重區"
"241031","061-VK","2018/04/12 19:27:32","新北市三重區集美街20號","121.48834","25.0551183333333","6500200","三重區"
"241017","063-VK","2018/04/12 19:27:47","新北市三重區國隆路30-1號","121.49218","25.0644683333333","6500200","三重區"
"241026","066-VK","2018/04/12 19:27:34","新北市三重區文化南路47巷40號","121.498753333333","25.0609266666667","6500200","三重區"
"241032","269-UM","2018/04/12 19:27:36","新北市三重區三陽路26號","121.485563333333","25.0587416666667","6500200","三重區"
"241013","270-UM","2018/04/12 19:27:38","新北市三重區仁賢街12-1號","121.495645","25.074895","6500200","三重區"
"241025","271-UM","2018/04/12 19:27:42","新北市三重區頂崁街210巷23弄1號","121.475825","25.0680666666667","6500200","三重區"
"241007","398-BY","2018/04/12 19:27:39","新北市三重區慈愛街133號","121.488773333333","25.0797783333333","6500200","三重區"
"241035","KEA-2210","2018/04/12 19:27:45","新北市三重區信義西街110號","121.495915","25.06424","6500200","三重區"
"241022","413-TH","2018/04/12 19:27:49","新北市三重區三民街141-1號","121.484608333333","25.0640016666667","6500200","三重區"
"241030","480-VK","2018/04/12 19:27:28","新北市三重區成功路41巷21號","121.490533333333","25.051825","6500200","三重區"
"241029","942-UM","2018/04/12 19:27:31","新北市三重區環河南路220-8號","121.493356666667","25.05268","6500200","三重區"
"235066","003-UY","2018/04/12 19:27:32","新北市中和區中和路102號","121.502725","24.9997683333333","6500300","中和區"
"235064","005-UY","2018/04/12 19:27:45","新北市中和區南山路81巷6號","121.502331666667","24.9980116666667","6500300","中和區"
"235063","006-UY","2018/04/12 19:27:41","新北市中和區中正路260號","121.495228333333","24.99441","6500300","中和區"
"235060","031-BX","2018/04/12 19:27:38","新北市中和區民樂路15號","121.482081666667","25.0016966666667","6500300","中和區"
"235056","096-UM","2018/04/12 19:27:44","新北市中和區員山路504號","121.479361666667","25.00817","6500300","中和區"
"235039","097-UM","2018/04/12 19:27:51","新北市中和區秀峰街79巷2號","121.52185","24.9901716666667","6500300","中和區"
"235065","098-UM","2018/04/12 19:27:33","新北市中和區中山路二段64巷12弄4號","121.503895","25.005235","6500300","中和區"
"235040","150-BY","2018/04/12 19:27:45","新北市中和區景安路79巷55號","121.508001666667","24.9957683333333","6500300","中和區"
"235058","151-BY","2018/04/12 19:27:48","新北市中和區員山路36巷16-2號","121.48539","24.99144","6500300","中和區"
"235055","183-VK","2018/04/12 19:27:33","新北市中和區莒光路120巷11號","121.471595","25.0017133333333","6500300","中和區"
"235038","185-VK","2018/04/12 19:27:48","新北市中和區自立路115號","121.521841666667","24.9944733333333","6500300","中和區"
"235049","186-VK","2018/04/12 19:27:30","新北市中和區安和路9號","121.511491666667","24.9935966666667","6500300","中和區"
"235067","255-BX","2018/04/12 19:27:44","新北市中和區連城路471號","121.48344","24.995955","6500300","中和區"
"235044","293-VK","2018/04/12 19:27:36","新北市中和區景安路206號","121.504021666667","24.9908716666667","6500300","中和區"
"235072","301-VK","2018/04/12 19:27:33","新北市中和區連城路263巷4弄12號","121.491776666667","24.99529","6500300","中和區"
"235043","352-BY","2018/04/12 19:27:31","新北市中和區景平路426號","121.507466666667","24.9932933333333","6500300","中和區"
"235068","377-QA","2018/04/12 19:27:46","新北市中和區景平路545巷1弄15號","121.498836666667","24.9988283333333","6500300","中和區"
"235061","378-QA","2018/04/12 19:27:32","新北市中和區員山路146-3號","121.481248333333","24.9969066666667","6500300","中和區"
"235050","4979-A6","2018/04/12 19:27:44","新北市中和區連城路263巷26號","121.49264","24.9942033333333","6500300","中和區"
"235042","551-UM","2018/04/12 19:27:50","新北市中和區安樂路143巷2弄5號","121.514123333333","24.99775","6500300","中和區"
"235045","565-BX","2018/04/12 19:27:40","新北市中和區景新街399巷9號","121.512913333333","24.989915","6500300","中和區"
"235054","640-BX","2018/04/12 19:27:43","新北市中和區國光街112巷13弄1號","121.469653333333","25.0019383333333","6500300","中和區"
"235047","732-UM","2018/04/12 19:27:42","新北市中和區景平路241巷64弄8號","121.507695","24.9926666666667","6500300","中和區"
"235046","733-UM","2018/04/12 19:27:34","新北市中和區忠孝街37巷47號","121.510745","24.9842683333333","6500300","中和區"
"235071","783-BX","2018/04/12 19:27:44","新北市中和區中正路637巷3號","121.484915","24.99545","6500300","中和區"
"235057","801-TS","2018/04/12 19:27:45","新北市中和區員山路451號","121.480576666667","25.0042033333333","6500300","中和區"
"235052","805-TS","2018/04/12 19:27:47","新北市中和區華新街143巷100號","121.506688333333","24.9787433333333","6500300","中和區"
"235048","896-TW","2018/04/12 19:27:38","新北市中和區忠孝街146-1號","121.512553333333","24.9873916666667","6500300","中和區"
"235053","900-TW","2018/04/12 19:27:29","新北市中和區華順街49號","121.46667","24.9984916666667","6500300","中和區"
"235070","911-UM","2018/04/12 19:27:45","新北市中和區中和路35號","121.50007","25.0015583333333","6500300","中和區"
"235051","157-BY","2018/04/12 19:27:33","新北市中和區景新街117號","121.505651666667","24.997615","6500300","中和區"
"235037","AAC-213","2018/04/12 19:27:39","新北市中和區秀朗路三段10巷14弄25號","121.524478333333","24.9964033333333","6500300","中和區"
"235059","AAC-215","2018/04/12 19:27:43","新北市中和區圓通路252巷34號","121.492376666667","24.9926783333333","6500300","中和區"
"220068","013-TV","2018/04/12 19:27:48","新北市板橋區林森街1巷30號","121.482791666667","25.0243433333333","6500100","板橋區"
"220056","015-TV","2018/04/12 19:26:33","新北市板橋區干城路159號","121.460616666667","24.99216","6500100","板橋區"
"220065","072-UY","2018/04/12 19:27:40","新北市板橋區國泰街75巷28弄60號","121.467565","25.0044983333333","6500100","板橋區"
"220086","073-UY","2018/04/12 19:27:36","新北市板橋區中正路216巷22號","121.456665","25.0185166666667","6500100","板橋區"
"220067","075-UY","2018/04/12 19:27:46","新北市板橋區長安街138巷7弄44號","121.473943333333","25.0090433333333","6500100","板橋區"
"220069","AAD-861","2018/04/12 19:27:38","新北市板橋區稚暉街31號","121.456975","25.0042416666667","6500100","板橋區"
"226004","312-R5","2018/04/12 19:27:44","新北市平溪區十分里十分街298-1號","121.777206666667","25.04397","6502400","平溪區"
"235041","251-BX","2018/04/12 19:27:46","新北市中和區中和路324巷3弄7號","121.510188333333","25.001065","6500300","中和區"
"228003","097-TW","2018/04/12 19:27:44","新北市貢寮區和美里和美街22-1號","121.912811666667","25.0826116666667","6502600","貢寮區"
"228001","212-TW","2018/04/12 19:27:32","新北市貢寮區真理里延平街68號","121.925381666667","25.0574033333333","6502600","貢寮區"
"228002","585-TW","2018/04/12 19:27:50","新北市貢寮區龍門里龍門街2-1號","121.932588333333","25.0253983333333","6502600","貢寮區"
"224010","AGQ-8101","2018/04/12 19:26:06","新北市瑞芳區山尖路213號","121.848965","25.112315","6501200","瑞芳區"
"224006","676-BX","2018/04/12 19:27:41","新北市瑞芳區三爪子坑路230號","121.8057","25.1056966666667","6501200","瑞芳區"
"224009","273-VK","2018/04/12 19:27:37","新北市瑞芳區瑞濱路185號","121.816706666667","25.1136416666667","6501200","瑞芳區"
"227004","642-TC","2018/04/12 19:27:46","新北市雙溪區雙溪里大同街15號","121.864538333333","25.035145","6502500","雙溪區"
"227010","400-TW","2018/04/12 19:27:37","新北市雙溪區新基里新基北街43號","121.86817","25.0396966666667","6502500","雙溪區"
"253005","032-BX","2018/04/12 19:27:30","新北市石門區小坑9號","121.594368333333","25.2886083333333","6502200","石門區"
"253006","295-VK","2018/04/12 19:27:43","新北市石門區老崩山2-1號","121.5552","25.2916583333333","6502200","石門區"
"222001","KEA-2212","2018/04/12 19:27:34","新北市深坑區北深路二段123巷17號","121.616521666667","25.0030183333333","6501800","深坑區"
"208002","KEA-2872","2018/04/12 19:27:33","新北市金山區中華路108號","121.633835","25.2202016666667","6502700","金山區"
"208003","665-BX","2018/04/12 19:27:34","新北市金山區中山路263巷10號","121.63633","25.2216383333333","6502700","金山區"
"251009","008-UM","2018/04/12 19:27:49","新北市淡水區北新路28號","121.445216666667","25.1776583333333","6501000","淡水區"
"251005","010-UM","2018/04/12 19:27:49","新北市淡水區水源街一段47巷20號","121.44401","25.1730033333333","6501000","淡水區"
"251013","179-VK","2018/04/12 19:27:47","新北市淡水區大牛稠5號","121.469771666667","25.2197566666667","6501000","淡水區"
"251014","180-VK","2018/04/12 19:27:45","新北市淡水區小中寮19-7號","121.484741666667","25.2296733333333","6501000","淡水區"
"251015","182-VK","2018/04/12 19:27:40","新北市淡水區山子邊5-2號","121.483316666667","25.1843383333333","6501000","淡水區"
"251010","413-VK","2018/04/12 19:27:43","新北市淡水區淡海路242號","121.420153333333","25.1867266666667","6501000","淡水區"
"251012","441-VK","2018/04/12 19:27:33","新北市淡水區中山北路三段164號","121.445693333333","25.1965716666667","6501000","淡水區"
"251016","442-VK","2018/04/12 19:27:39","新北市淡水區淡金路三段350巷18號","121.450773333333","25.208375","6501000","淡水區"
"251001","559-UM","2018/04/12 19:27:30","新北市淡水區民權路167號","121.45992","25.1359133333333","6501000","淡水區"
"251006","561-UM","2018/04/12 19:27:39","新北市淡水區大義街40號","121.442043333333","25.178365","6501000","淡水區"
"251007","577-R6","2018/04/12 19:27:34","新北市淡水區淡金路25號","121.458875","25.1618916666667","6501000","淡水區"
"251011","650-BX","2018/04/12 19:27:41","新北市淡水區中正東路二段143巷2弄1號","121.460693333333","25.1473483333333","6501000","淡水區"
"251003","766-UM","2018/04/12 19:27:47","新北市淡水區中山北路二段1號","121.444383333333","25.183145","6501000","淡水區"
"207003","550-UM","2018/04/12 19:27:34","新北市萬里區大鵬里萬里加投191-2號","121.644871666667","25.21413","6502800","萬里區"
"207004","225-TW","2018/04/12 19:27:40","新北市萬里區萬里里瑪鋉路85-2號","121.688668333333","25.177205","6502800","萬里區"
"252002","178-VK","2018/04/12 19:27:49","新北市三芝區淡金路二段18-1號","121.502698333333","25.259515","6502100","三芝區"
"252001","292-VK","2018/04/12 19:27:48","新北市三芝區長勤街37巷12號","121.50107","25.25525","6502100","三芝區"
"237004","KEA-2597","2018/04/12 19:27:30","新北市三峽區有木206號","121.439096666667","24.8515233333333","6500900","三峽區"
"237007","153-BY","2018/04/12 19:27:47","新北市三峽區二鬮路136巷20弄101號","121.358378333333","24.908635","6500900","三峽區"
"237009","210-TH","2018/04/12 19:27:42","新北市三峽區中山路23號","121.368825","24.93431","6500900","三峽區"
"237013","252-BX","2018/04/12 19:27:38","新北市三峽區介壽路一段276巷88弄19號","121.3791","24.9285833333333","6500900","三峽區"
"237012","275-BY","2018/04/12 19:27:43","新北市三峽區三樹路110號","121.378326666667","24.9392016666667","6500900","三峽區"
"237008","302-VK","2018/04/12 19:27:39","新北市三峽區光明路106巷59號","121.37521","24.9267266666667","6500900","三峽區"
"237014","433-BY","2018/04/12 19:27:31","新北市三峽區中山路138號","121.365293333333","24.9361583333333","6500900","三峽區"
"237006","5529-G3","2018/04/12 19:27:41","新北市三峽區中正路一段336巷15弄2號","121.369968333333","24.9249416666667","6500900","三峽區"
"237010","706-TV","2018/04/12 19:27:40","新北市三峽區復興路77號","121.372591666667","24.93748","6500900","三峽區"
"237005","AKY-6261","2018/04/12 19:27:31","新北市三峽區中山路188號","121.363846666667","24.9368583333333","6500900","三峽區"
"236070","105-UM","2018/04/12 19:27:43","新北市土城區學府路一段194號","121.453148333333","24.9859633333333","6501300","土城區"
"236078","166-UM","2018/04/12 19:27:45","新北市土城區中央路四段187號","121.414848333333","24.956645","6501300","土城區"
"236026","269-VK","2018/04/12 19:27:32","新北市土城區中央路二段61巷22號","121.443216666667","24.9787233333333","6501300","土城區"
"236014","270-VK","2018/04/12 19:27:48","新北市土城區廣福街121號","121.45623","24.992805","6501300","土城區"
"236021","401-BY","2018/04/12 19:27:47","新北市土城區峰廷街3號","121.46906","24.9873066666667","6501300","土城區"
"236059","912-UM","2018/04/12 19:27:40","新北市土城區中央路二段202號","121.441905","24.9758183333333","6501300","土城區"
"236049","913-UM","2018/04/12 19:27:41","新北市土城區清水路173號","121.459385","24.9815166666667","6501300","土城區"
"242002","349-TH","2018/04/12 19:27:39","新北市新莊區三和路12-17號","121.441926666667","25.03756","6500500","新莊區"
"242013","351-TH","2018/04/12 19:27:29","新北市新莊區新泰路357巷3弄53號","121.442478333333","25.0399366666667","6500500","新莊區"
"238015","755-BX","2018/04/12 19:27:31","新北市樹林區文化街59號","121.41718","24.9889816666667","6500700","樹林區"
"238023","601-UM","2018/04/12 19:27:49","新北市樹林區中正路865號","121.408788333333","25.01819","6500700","樹林區"
"238019","599-UM","2018/04/12 19:27:50","新北市樹林區大同街24巷15弄2號","121.417873333333","24.98289","6500700","樹林區"
"238018","571-TV","2018/04/12 19:27:48","新北市樹林區八德街365-5號","121.41802","24.97233","6500700","樹林區"
"238024","5061-A6","2018/04/12 19:27:47","新北市樹林區中山路三段171號","121.394801666667","24.9725233333333","6500700","樹林區"
"238022","KEA-2213","2018/04/12 19:27:43","新北市樹林區名園街39號","121.419603333333","24.9789016666667","6500700","樹林區"
"238021","KEA-2539","2018/04/12 19:27:37","新北市樹林區柑園街二段203巷21號","121.377225","24.951065","6500700","樹林區"
"238025","303-VK","2018/04/12 19:27:47","新北市樹林區中山路一段2巷5號","121.424598333333","24.9935266666667","6500700","樹林區"
"238017","283-BY","2018/04/12 19:27:48","新北市樹林區光興街63巷8號","121.410661666667","25.0020666666667","6500700","樹林區"
"238014","282-BY","2018/04/12 19:27:39","新北市樹林區保安二街64巷5弄1號","121.424458333333","24.9959516666667","6500700","樹林區"
"238026","172-UY","2018/04/12 19:27:39","新北市樹林區佳園路二段138號","121.389295","24.9560716666667","6500700","樹林區"
"238016","169-UY","2018/04/12 19:27:33","新北市樹林區復興路404號","121.41461","24.9850366666667","6500700","樹林區"
"239007","AAC-297","2018/04/12 19:27:49","新北市鶯歌區大湖路109巷9號","121.341418333333","24.9635083333333","6500800","鶯歌區"
"239006","891-R6","2018/04/12 19:27:38","新北市鶯歌區建國路512巷3號","121.340443333333","24.951085","6500800","鶯歌區"
"239005","526-UM","2018/04/12 19:27:42","新北市鶯歌區中湖街315巷15號","121.345873333333","24.9778366666667","6500800","鶯歌區"
"239001","417-VK","2018/04/12 19:27:30","新北市鶯歌區建國路473號","121.339648333333","24.95236","6500800","鶯歌區"
"239003","360-BY","2018/04/12 19:27:36","新北市鶯歌區建國路282-2號","121.345455","24.952875","6500800","鶯歌區"
"239004","193-VK","2018/04/12 19:27:31","新北市鶯歌區中正三路291巷20弄2號","121.329775","24.93558","6500800","鶯歌區"
"221008","489-VK","2018/04/12 19:27:38","新北市汐止區康寧街273號","121.625646666667","25.066975","6501100","汐止區"
"221015","131-UY","2018/04/12 19:27:38","新北市汐止區汐萬路一段256巷1號","121.651711666667","25.0748833333333","6501100","汐止區"
"221010","269-BY","2018/04/12 19:27:44","新北市汐止區連峰街5巷1號","121.646565","25.0767366666667","6501100","汐止區"
"221018","277-VK","2018/04/12 19:27:45","新北市汐止區汐萬路一段256巷3號","121.653373333333","25.0745433333333","6501100","汐止區"
"221012","278-VK","2018/04/12 19:27:46","新北市汐止區保一街69號","121.6743","25.0797633333333","6501100","汐止區"
"221023","279-VK","2018/04/12 19:27:44","新北市汐止區康寧街753巷2弄22號","121.640093333333","25.0745166666667","6501100","汐止區"
"221027","281-BY","2018/04/12 19:27:40","新北市汐止區忠孝東路9號","121.658298333333","25.065935","6501100","汐止區"
"221029","298-VK","2018/04/12 19:27:29","新北市汐止區康寧街901號","121.651548333333","25.0750083333333","6501100","汐止區"
"221035","622-UM","2018/04/12 19:27:44","新北市汐止區康寧街901號","121.651655","25.0748733333333","6501100","汐止區"
"221025","623-UM","2018/04/12 19:27:34","新北市汐止區大同路二段424號","121.658906666667","25.0671183333333","6501100","汐止區"
"221038","646-BX","2018/04/12 19:27:52","新北市汐止區汐萬路一段155號","121.653176666667","25.07103","6501100","汐止區"
"221033","647-BX","2018/04/12 19:27:41","新北市汐止區南勢街1巷3號","121.627083333333","25.0377416666667","6501100","汐止區"
"221002","707-TV","2018/04/12 19:27:36","新北市汐止區大同路一段325號","121.63813","25.059165","6501100","汐止區"
"220079","145-BY","2018/04/12 19:27:43","新北市板橋區民權路302巷1弄3號","121.457398333333","25.0163133333333","6500100","板橋區"
"220080","200-UY","2018/04/12 19:27:43","新北市板橋區大觀路二段3巷56號","121.448986666667","25.0034","6500100","板橋區"
"220106","KEA-2550","2018/04/12 19:27:42","新北市板橋區長江路三段51號","121.473585","25.0341033333333","6500100","板橋區"
"220082","610-BX","2018/04/12 19:27:41","新北市板橋區金門街141號","121.432848333333","24.9910116666667","6500100","板橋區"
"220101","245-BX","2018/04/12 19:27:43","新北市板橋區縣民大道三段133巷8號","121.477653333333","25.023535","6500100","板橋區"
"220091","267-BY","2018/04/12 19:27:44","新北市板橋區文聖街149巷23弄16號","121.4792","25.0289366666667","6500100","板橋區"
"220072","277-BY","2018/04/12 19:27:30","新北市板橋區篤行路二段136號","121.42984","24.9884316666667","6500100","板橋區"
"220070","282-UM","2018/04/12 19:27:37","新北市板橋區館前東路98號","121.462431666667","25.00765","6500100","板橋區"
"220071","283-VK","2018/04/12 19:27:38","新北市板橋區仁愛路73巷12號","121.460955","25.00043","6500100","板橋區"
"220094","285-UM","2018/04/12 19:27:33","新北市板橋區吳鳳路17巷24號","121.467715","25.0297116666667","6500100","板橋區"
"220053","285-VK","2018/04/12 19:27:29","新北市板橋區永豐街102號","121.475913333333","25.0205783333333","6500100","板橋區"
"220083","286-VK","2018/04/12 19:27:39","新北市板橋區大觀路一段38巷184號","121.441353333333","25.004435","6500100","板橋區"
"220081","287-VK","2018/04/12 19:27:42","新北市板橋區大觀路一段29巷179弄32號","121.449956666667","25.0040683333333","6500100","板橋區"
"220090","288-VK","2018/04/12 19:27:31","新北市板橋區長江路一段106巷13弄4號","121.46024","25.0291166666667","6500100","板橋區"
"220061","293-UM","2018/04/12 19:27:49","新北市板橋區中山路二段309巷10號","121.478665","25.0189866666667","6500100","板橋區"
"220075","303-R5","2018/04/12 19:27:47","新北市板橋區中正路253巷74號","121.452636666667","25.0172033333333","6500100","板橋區"
"220062","305-R5","2018/04/12 19:27:32","新北市板橋區三民路二段153巷4號","121.479633333333","25.014965","6500100","板橋區"
"220092","307-R5","2018/04/12 19:27:48","新北市板橋區文化路二段125巷54號","121.469905","25.027575","6500100","板橋區"
"220098","317-R6","2018/04/12 19:27:48","新北市板橋區民有街131號","121.464178333333","25.02876","6500100","板橋區"
"220064","486-VK","2018/04/12 19:27:37","新北市板橋區中山路一段48號","121.460813333333","25.00892","6500100","板橋區"
"242031","280-VK","2018/04/12 19:27:43","新北市新莊區新泰路225巷24號","121.44525","25.0390883333333","6500500","新莊區"
"220088","491-VK","2018/04/12 19:27:40","新北市板橋區文化路二段331號","121.472465","25.0302633333333","6500100","板橋區"
"220035","560-BX","2018/04/12 19:27:47","新北市板橋區中正路397號","121.454236666667","25.0220733333333","6500100","板橋區"
"220103","561-BX","2018/04/12 19:27:43","新北市板橋區文化路一段188巷9號","121.466455","25.019505","6500100","板橋區"
"220084","568-UM","2018/04/12 19:27:44","新北市板橋區滿平街135號","121.428955","24.9882866666667","6500100","板橋區"
"220063","609-BX","2018/04/12 19:27:44","新北市板橋區三民路一段3巷30號","121.480103333333","25.023715","6500100","板橋區"
"220055","630-UY","2018/04/12 19:27:40","新北市板橋區重慶路290巷22弄14號","121.462288333333","24.99947","6500100","板橋區"
"220057","686-BX","2018/04/12 19:27:47","新北市板橋區和平路178號","121.463585","24.995655","6500100","板橋區"
"220093","689-BX","2018/04/12 19:27:42","新北市板橋區新海路119號","121.461011666667","25.0228783333333","6500100","板橋區"
"220054","741-BX","2018/04/12 19:27:33","新北市板橋區光明街52號","121.460816666667","25.00252","6500100","板橋區"
"220102","KEA-2699","2018/04/12 19:27:47","新北市板橋區松柏街1巷1號","121.473773333333","25.02947","6500100","板橋區"
"220096","831-TW","2018/04/12 19:27:41","新北市板橋區大同街4號","121.476898333333","25.0267833333333","6500100","板橋區"
"220089","833-TW","2018/04/12 19:27:38","新北市板橋區文化路一段165號","121.462805","25.015985","6500100","板橋區"
"220074","895-R6","2018/04/12 19:27:36","新北市板橋區民權路97號","121.459738333333","25.012755","6500100","板橋區"
"220073","985-R7","2018/04/12 19:27:48","新北市板橋區中正路186號","121.456173333333","25.017755","6500100","板橋區"
"220097","AAC-210","2018/04/12 19:27:40","新北市板橋區漢生西路153巷3號","121.463018333333","25.0227366666667","6500100","板橋區"
"220077","AAC-253","2018/04/12 19:27:38","新北市板橋區僑中二街114巷1號","121.445703333333","25.0066933333333","6500100","板橋區"
