"lineid","car","time","location","longitude","latitude","cityid","cityname"
"234044","148-BY","2018/04/12 19:59:24","新北市永和區成功路一段77號","121.526951666667","25.0032216666667","6500400","永和區"
"234070","149-BY","2018/04/12 19:59:26","新北市永和區國光路39-1號","121.519115","25.0082316666667","6500400","永和區"
"234007","207-UY","2018/04/12 19:59:21","新北市永和區保生路22巷23號","121.507391666667","25.0083516666667","6500400","永和區"
"234081","298-R6","2018/04/12 19:59:20","新北市永和區永亨路108號","121.523621666667","25.0045383333333","6500400","永和區"
"234038","336-UY","2018/04/12 19:59:28","新北市永和區成功路二段98號","121.526575","24.9984","6500400","永和區"
"234064","337-UY","2018/04/12 19:59:15","新北市永和區中正路412巷20弄9號","121.518666666667","25.0017916666667","6500400","永和區"
"234086","338-UY","2018/04/12 19:59:21","新北市永和區福和路127號","121.521596666667","25.0077566666667","6500400","永和區"
"234067","553-UM","2018/04/12 19:59:23","新北市永和區永貞路345號","121.509346666667","25.0072666666667","6500400","永和區"
"234017","745-BX","2018/04/12 19:59:12","新北市永和區文化路61號","121.514066666667","25.0149066666667","6500400","永和區"
"234030","746-BX","2018/04/12 19:59:19","新北市永和區民生路22巷13號","121.521753333333","24.9970033333333","6500400","永和區"
"234054","KEA-2590","2018/04/12 19:59:26","新北市永和區環河東路一段122號","121.520625","25.0154916666667","6500400","永和區"
"234013","KEA-2591","2018/04/12 19:59:20","新北市永和區保生路55號","121.504695","25.0106116666667","6500400","永和區"
"234061","AAD-866","2018/04/12 19:59:23","新北市永和區中正路283巷2號","121.517293333333","25.0010766666667","6500400","永和區"
"234042","862-TW","2018/04/12 19:59:11","新北市永和區中和路421巷12號","121.508806666667","25.0010466666667","6500400","永和區"
"234050","863-TW","2018/04/12 19:59:15","新北市永和區保安路250號","121.506291666667","25.0126083333333","6500400","永和區"
"234026","9371-KE","2018/04/12 19:59:25","新北市永和區水源街27巷11號","121.511351666667","25.003915","6500400","永和區"
"234011","9373-KE","2018/04/12 19:59:26","新北市永和區仁愛路352巷94號","121.501113333333","25.0080083333333","6500400","永和區"
"249005","172-UM","2018/04/12 19:59:08","新北市八里區楓林路1-15號","121.385278333333","25.131195","6502300","八里區"
"249001","173-UM","2018/04/12 19:59:22","新北市八里區中華路二段312號","121.403678333333","25.148395","6502300","八里區"
"249004","303-UY","2018/04/12 19:59:28","新北市八里區中華路一段333-1號","121.413236666667","25.153925","6502300","八里區"
"249002","305-UY","2018/04/12 19:59:15","新北市八里區頂寮一街35-1號","121.45053","25.1236466666667","6502300","八里區"
"249003","593-UM","2018/04/12 19:59:11","新北市八里區中華路二段560巷3號","121.398526666667","25.1451466666667","6502300","八里區"
"248016","026-BX","2018/04/12 19:59:10","新北市五股區成泰路三段577巷80弄39號","121.44969","25.1047816666667","6501500","五股區"
"248008","095-VK","2018/04/12 19:59:12","新北市五股區四維路30巷12號","121.467893333333","25.0714866666667","6501500","五股區"
"248020","225-UY","2018/04/12 19:59:07","新北市五股區凌雲路三段24巷21-3號","121.434","25.1067916666667","6501500","五股區"
"248012","247-BX","2018/04/12 19:59:16","新北市五股區民義路一段128號","121.43462","25.08602","6501500","五股區"
"248014","261-SL","2018/04/12 19:59:14","新北市五股區五福路6巷21號","121.435505","25.0886416666667","6501500","五股區"
"248010","272-BY","2018/04/12 19:59:17","新北市五股區成泰路一段7巷48弄39號","121.43361","25.0688216666667","6501500","五股區"
"248004","655-BX","2018/04/12 19:59:13","新北市五股區成泰路一段8巷2-3號","121.434845","25.0668216666667","6501500","五股區"
"248002","678-BX","2018/04/12 19:59:16","新北市五股區成泰路三段487號","121.450833333333","25.09935","6501500","五股區"
"234023","9380-KE","2018/04/12 19:59:23","新北市永和區豫溪街57巷4弄1號","121.517381666667","25.01024","6500400","永和區"
"234077","969-R7","2018/04/12 19:59:24","新北市永和區智光街94號","121.516126666667","24.99694","6500400","永和區"
"234074","AAC-211","2018/04/12 19:59:18","新北市永和區豫溪街207巷5號","121.52342","25.00999","6500400","永和區"
"234003","AAC-295","2018/04/12 19:59:12","新北市永和區和平街2號","121.514246666667","25.010085","6500400","永和區"
"243012","AAD-798","2018/04/12 19:59:16","新北市泰山區全興路180號","121.433181666667","25.057525","6501600","泰山區"
"243011","297-R6","2018/04/12 19:59:17","新北市泰山區明志路三段182巷34號","121.423288333333","25.03944","6501600","泰山區"
"243015","380-SR","2018/04/12 19:59:26","新北市泰山區明志路二段188-1號","121.4269","25.0498766666667","6501600","泰山區"
"243014","421-VK","2018/04/12 19:59:28","新北市泰山區泰林路二段109-1號","121.4345","25.0592216666667","6501600","泰山區"
"243010","KEA-2215","2018/04/12 19:59:17","新北市泰山區中華街10巷1號","121.42791","25.0525066666667","6501600","泰山區"
"243009","KEA-2216","2018/04/12 19:59:30","新北市泰山區泰林路二段164巷11號","121.434523333333","25.0607083333333","6501600","泰山區"
"243013","646-TV","2018/04/12 19:59:15","新北市泰山區明志路三段6巷16號","121.423923333333","25.04363","6501600","泰山區"
"243016","680-BX","2018/04/12 19:59:17","新北市泰山區明志路三段513號","121.421391666667","25.0321466666667","6501600","泰山區"
"222003","436-BY","2018/04/12 19:59:23","新北市深坑區埔新街14號","121.620736666667","25.0039466666667","6501800","深坑區"
"222002","659-BX","2018/04/12 19:59:17","新北市深坑區北深路二段81巷8弄2號","121.618341666667","25.0031133333333","6501800","深坑區"
"231041","002-UM","2018/04/12 19:59:21","新北市新店區民族路192號","121.535943333333","24.975455","6500600","新店區"
"231059","046-UY","2018/04/12 19:59:16","新北市新店區安康路二段190號","121.511318333333","24.96006","6500600","新店區"
"231040","047-UY","2018/04/12 19:59:23","新北市新店區中正路96號","121.543473333333","24.9704266666667","6500600","新店區"
"231044","106-UY","2018/04/12 19:59:27","新北市新店區復興路38號","121.538836666667","24.98675","6500600","新店區"
"231052","110-UY","2018/04/12 19:59:25","新北市新店區新烏路三段227號","121.547223333333","24.8965683333333","6500600","新店區"
"231047","187-VK","2018/04/12 19:59:19","新北市新店區寶宏路38號","121.549601666667","24.975595","6500600","新店區"
"231054","KEA-2219","2018/04/12 19:59:20","新北市新店區光明街133號","121.53945","24.9619166666667","6500600","新店區"
"231057","256-BX","2018/04/12 19:59:10","新北市新店區百齡一路9號","121.555538333333","24.932405","6500600","新店區"
"231064","260-TV","2018/04/12 19:59:17","新北市新店區安民街141號","121.516483333333","24.9694116666667","6500600","新店區"
"231051","278-BY","2018/04/12 19:59:08","新北市新店區中央五街6號","121.52995","24.9739183333333","6500600","新店區"
"231050","AAD-862","2018/04/12 19:59:26","新北市新店區北宜路一段190-8號","121.542321666667","24.9529316666667","6500600","新店區"
"231066","4716-K9","2018/04/12 19:59:25","新北市新店區柴埕路59號","121.513596666667","24.9650833333333","6500600","新店區"
"231056","4715-K9","2018/04/12 19:59:12","新北市新店區民族路6-1號","121.541896666667","24.9788666666667","6500600","新店區"
"231067","4772-VM","2018/04/12 19:59:20","新北市新店區秀山路45巷23號","121.530896666667","24.9598333333333","6500600","新店區"
"231065","512-UM","2018/04/12 19:59:27","新北市新店區安祥路106巷2號","121.478885","24.96203","6500600","新店區"
"231049","513-UM","2018/04/12 19:59:19","新北市新店區民族路11號","121.541525","24.9787533333333","6500600","新店區"
"231061","618-UM","2018/04/12 19:59:17","新北市新店區安興路80號","121.515085","24.9759066666667","6500600","新店區"
"231063","641-BX","2018/04/12 19:59:15","新北市新店區車子路11號","121.502873333333","24.9514333333333","6500600","新店區"
"231042","645-TV","2018/04/12 19:59:17","新北市新店區中正路5號","121.545803333333","24.969135","6500600","新店區"
"231068","718-UY","2018/04/12 19:59:14","新北市新店區安華路28-1號","121.519435","24.9610433333333","6500600","新店區"
"231062","720-UM","2018/04/12 19:59:22","新北市新店區華城路36巷1-1號","121.52816","24.9554866666667","6500600","新店區"
"231060","897-TW","2018/04/12 19:59:26","新北市新店區安康路三段19號","121.493445","24.9534066666667","6500600","新店區"
"231045","898-TW","2018/04/12 19:59:19","新北市新店區北宜路二段82-12號","121.554641666667","24.9534766666667","6500600","新店區"
"231043","899-TW","2018/04/12 19:59:18","新北市新店區中正路282-2號","121.538203333333","24.9740283333333","6500600","新店區"
"231055","AKT-0513","2018/04/12 19:59:20","新北市新店區中華路83巷61號","121.538468333333","24.9674266666667","6500600","新店區"
"241011","013-R5","2018/04/12 19:59:21","新北市三重區三和路二段224號","121.497818333333","25.0696383333333","6500200","三重區"
"241028","022-UY","2018/04/12 19:59:27","新北市三重區中正南路50號","121.493945","25.0599416666667","6500200","三重區"
"241008","059-VK","2018/04/12 19:59:16","新北市三重區永福街179巷17號","121.478266666667","25.07495","6500200","三重區"
"241009","060-VK","2018/04/12 19:59:18","新北市三重區三和路四段392-1號","121.481601666667","25.0789783333333","6500200","三重區"
"241031","061-VK","2018/04/12 19:59:12","新北市三重區重新路四段144巷23號","121.486928333333","25.055185","6500200","三重區"
"241015","062-VK","2018/04/12 19:59:31","新北市三重區三和路二段29號","121.500991666667","25.0670616666667","6500200","三重區"
"241017","063-VK","2018/04/12 19:59:27","新北市三重區自強路一段298號","121.491398333333","25.0683333333333","6500200","三重區"
"241024","065-VK","2018/04/12 19:59:23","新北市三重區力行路一段178巷13號","121.48147","25.0713866666667","6500200","三重區"
"241026","066-VK","2018/04/12 19:59:14","新北市三重區仁慈街16號","121.501881666667","25.063275","6500200","三重區"
"241003","091-VK","2018/04/12 19:59:26","新北市三重區仁愛街445巷10號","121.49038","25.08268","6500200","三重區"
"241016","265-UM","2018/04/12 19:59:15","新北市三重區正義北路46號","121.49728","25.0638033333333","6500200","三重區"
"241018","268-UM","2018/04/12 19:59:09","新北市三重區正義北路244巷88號","121.493621666667","25.0675766666667","6500200","三重區"
"241032","269-UM","2018/04/12 19:59:16","新北市三重區朝陽街28號","121.483493333333","25.056635","6500200","三重區"
"241013","270-UM","2018/04/12 19:59:18","新北市三重區三和路三段125巷25號","121.493655","25.0736283333333","6500200","三重區"
"241025","271-UM","2018/04/12 19:59:22","新北市三重區頂崁街210巷16號","121.476565","25.0676416666667","6500200","三重區"
"241007","398-BY","2018/04/12 19:59:19","新北市三重區三和路四段145巷188號","121.488848333333","25.0797866666667","6500200","三重區"
"241035","KEA-2210","2018/04/12 19:59:25","新北市三重區大榮街11號","121.498148333333","25.0632783333333","6500200","三重區"
"241022","413-TH","2018/04/12 19:59:14","新北市三重區重新路四段121號","121.484723333333","25.0522116666667","6500200","三重區"
"241004","475-VK","2018/04/12 19:59:27","新北市三重區五華街59號","121.492746666667","25.0825466666667","6500200","三重區"
"241030","480-VK","2018/04/12 19:59:08","新北市三重區重新路四段246-2號","121.485998333333","25.053535","6500200","三重區"
"241014","543-UM","2018/04/12 19:59:20","新北市三重區三和路二段119號","121.498893333333","25.069025","6500200","三重區"
"241023","545-UM","2018/04/12 19:59:26","新北市三重區頂崁街172號","121.477541666667","25.0659333333333","6500200","三重區"
"241001","547-UM","2018/04/12 19:59:12","新北市三重區五華街11號","121.494963333333","25.0802716666667","6500200","三重區"
"241019","KEA-2593","2018/04/12 19:59:24","新北市三重區重陽路四段2號","121.490415","25.06888","6500200","三重區"
"241006","AAD-863","2018/04/12 19:59:22","新北市三重區力行路二段93號","121.482673333333","25.0758083333333","6500200","三重區"
"241012","941-UM","2018/04/12 19:59:10","新北市三重區仁厚街65號","121.500773333333","25.0767083333333","6500200","三重區"
"241029","942-UM","2018/04/12 19:59:11","新北市三重區重新路三段204號","121.490111666667","25.0585183333333","6500200","三重區"
"241033","AAC-255","2018/04/12 19:59:18","新北市三重區中興北街16號","121.469506666667","25.0483483333333","6500200","三重區"
"235066","003-UY","2018/04/12 19:59:27","新北市中和區中山路二段69號","121.504011666667","25.0043183333333","6500300","中和區"
"235056","096-UM","2018/04/12 19:59:20","新北市中和區中山路三段136巷10弄3號","121.474005","25.00706","6500300","中和區"
"235039","097-UM","2018/04/12 19:59:11","新北市中和區大勇街25巷15弄21-3號","121.515125","24.9934883333333","6500300","中和區"
"235065","098-UM","2018/04/12 19:59:13","新北市中和區福祥路90巷5號","121.499635","25.0057433333333","6500300","中和區"
"235040","150-BY","2018/04/12 19:59:25","新北市中和區保健路19巷2弄2號","121.508305","24.9983466666667","6500300","中和區"
"235058","151-BY","2018/04/12 19:59:28","新北市中和區員山路150巷2弄35號","121.481858333333","24.9975516666667","6500300","中和區"
"235055","183-VK","2018/04/12 19:59:13","新北市中和區德光路38號","121.470348333333","25.0049133333333","6500300","中和區"
"235049","186-VK","2018/04/12 19:59:10","新北市中和區中正路2-1號","121.503296666667","24.9936566666667","6500300","中和區"
"235067","255-BX","2018/04/12 19:59:24","新北市中和區員山路148巷23弄60號","121.48233","24.9980916666667","6500300","中和區"
"235044","293-VK","2018/04/12 19:59:16","新北市中和區中正路91號","121.500315","24.99337","6500300","中和區"
"235043","352-BY","2018/04/12 19:58:51","新北市中和區興南路二段159巷1-1號","121.505168333333","24.98352","6500300","中和區"
"235068","377-QA","2018/04/12 19:59:25","新北市中和區福美路303號","121.497085","25.0048333333333","6500300","中和區"
"235050","4979-A6","2018/04/12 19:59:24","新北市中和區景平路155巷4號","121.513388333333","24.9917383333333","6500300","中和區"
"235069","4980-A6","2018/04/12 19:59:10","新北市中和區圓通路89號","121.499805","24.9967466666667","6500300","中和區"
"235054","640-BX","2018/04/12 19:59:23","新北市中和區莒光路11號","121.471925","25.0058216666667","6500300","中和區"
"235046","733-UM","2018/04/12 19:59:14","新北市中和區興南路一段93巷77號","121.510538333333","24.9865266666667","6500300","中和區"
"235052","805-TS","2018/04/12 19:59:15","新北市中和區華新街192巷22弄17號","121.506746666667","24.98329","6500300","中和區"
"235048","896-TW","2018/04/12 19:59:18","新北市中和區景新街566-1號","121.51453","24.98663","6500300","中和區"
"235053","900-TW","2018/04/12 19:59:09","新北市中和區民德路262號","121.467976666667","24.99674","6500300","中和區"
"235070","911-UM","2018/04/12 19:59:25","新北市中和區圓通路151號","121.498225","24.99566","6500300","中和區"
"235051","157-BY","2018/04/12 19:59:13","新北市中和區景安路198號","121.504263333333","24.9913983333333","6500300","中和區"
"235037","AAC-213","2018/04/12 19:59:19","新北市中和區立人街1號","121.521918333333","24.99393","6500300","中和區"
"235059","AAC-215","2018/04/12 19:59:23","新北市中和區圓通路365號","121.491216666667","24.9897783333333","6500300","中和區"
"220068","013-TV","2018/04/12 19:59:28","新北市板橋區光復街172巷2弄2號","121.485225","25.0195083333333","6500100","板橋區"
"220065","072-UY","2018/04/12 19:59:21","新北市板橋區民族路69巷16弄2號","121.465701666667","25.009605","6500100","板橋區"
"220067","075-UY","2018/04/12 19:59:26","新北市板橋區長安街331巷19弄9號","121.47351","25.0122566666667","6500100","板橋區"
"220069","AAD-861","2018/04/12 19:59:24","新北市板橋區大明街28號","121.458381666667","25.0026016666667","6500100","板橋區"
"247024","893-R6","2018/04/12 19:59:18","新北市蘆洲區光榮路120巷12號","121.46522","25.0883616666667","6501400","蘆洲區"
"247014","546-UM","2018/04/12 19:59:25","新北市蘆洲區成功路132號","121.472065","25.0827966666667","6501400","蘆洲區"
"247010","341-TH","2018/04/12 19:59:20","新北市三重區集賢路188號","121.483905","25.0881366666667","6501400","蘆洲區"
"247004","337-TH","2018/04/12 19:59:11","新北市蘆洲區永安南路二段356號","121.45617","25.0828583333333","6501400","蘆洲區"
"247006","336-TH","2018/04/12 19:59:15","新北市蘆洲區九芎街115號","121.465506666667","25.0795883333333","6501400","蘆洲區"
"247008","056-VK","2018/04/12 19:59:08","新北市蘆洲區信義路115號","121.478473333333","25.080265","6501400","蘆洲區"
"247016","053-VK","2018/04/12 19:59:22","新北市蘆洲區中正路100號","121.469945","25.0841916666667","6501400","蘆洲區"
"247002","002-UY","2018/04/12 19:59:23","新北市蘆洲區長安街270號","121.457405","25.0868733333333","6501400","蘆洲區"
"247020","001-UY","2018/04/12 19:59:25","新北市蘆洲區民義街70號","121.473235","25.0898833333333","6501400","蘆洲區"
"235041","251-BX","2018/04/12 19:59:25","新北市中和區中和路350巷12號","121.510935","25.000175","6500300","中和區"
"228003","097-TW","2018/04/12 19:59:23","新北市貢寮區仁理村仁和路47號","121.924015","25.0541366666667","6502600","貢寮區"
"224010","AGQ-8101","2018/04/12 19:52:46","新北市瑞芳區基山街3號","121.845283333333","25.1097266666667","6501200","瑞芳區"
"224009","273-VK","2018/04/12 19:59:17","新北市瑞芳區靜安路四段6號","121.795315","25.083395","6501200","瑞芳區"
"227004","642-TC","2018/04/12 19:59:06","新北市雙溪區雙溪里長安街16號","121.864991666667","25.0347283333333","6502500","雙溪區"
"227010","400-TW","2018/04/12 19:59:17","新北市雙溪區新基里新基南街25號","121.866265","25.0381283333333","6502500","雙溪區"
"222001","KEA-2212","2018/04/12 19:59:14","新北市深坑區北深路三段143號","121.603491666667","25.00279","6501800","深坑區"
"208002","KEA-2872","2018/04/12 19:59:12","新北市金山區環金路91號","121.636543333333","25.2171816666667","6502700","金山區"
"208003","665-BX","2018/04/12 19:59:14","新北市金山區永興里跳石4號","121.633413333333","25.257305","6502700","金山區"
"251009","008-UM","2018/04/12 19:59:29","新北市淡水區英專路8-3號","121.445411666667","25.1692316666667","6501000","淡水區"
"251004","009-UM","2018/04/12 19:58:18","新北市淡水區民權路177巷23號","121.460848333333","25.1349366666667","6501000","淡水區"
"251005","010-UM","2018/04/12 19:59:29","新北市淡水區學府路136巷24號","121.451421666667","25.1726933333333","6501000","淡水區"
"251002","012-UM","2018/04/12 19:59:25","新北市淡水區沙崙路129號","121.4227","25.182435","6501000","淡水區"
"251013","179-VK","2018/04/12 19:59:13","新北市淡水區奎柔山路63號","121.451696666667","25.2061833333333","6501000","淡水區"
"251014","180-VK","2018/04/12 19:59:25","新北市淡水區石頭厝1號","121.458941666667","25.23534","6501000","淡水區"
"251008","181-VK","2018/04/12 19:59:12","新北市淡水區淡海路72巷2號","121.423313333333","25.18095","6501000","淡水區"
"251015","182-VK","2018/04/12 19:59:20","新北市淡水區商工路386號","121.469945","25.185125","6501000","淡水區"
"251010","413-VK","2018/04/12 19:59:13","新北市淡水區崁頂115號","121.432748333333","25.2045766666667","6501000","淡水區"
"251012","441-VK","2018/04/12 19:59:13","新北市淡水區下圭柔山109-5號","121.44253","25.2112116666667","6501000","淡水區"
"251016","442-VK","2018/04/12 19:59:19","新北市淡水區淡金路四段496號","121.45209","25.2253833333333","6501000","淡水區"
"251001","559-UM","2018/04/12 19:59:10","新北市淡水區淡金路二段599號","121.446061666667","25.1924716666667","6501000","淡水區"
"251006","561-UM","2018/04/12 19:59:19","新北市淡水區北新路8號","121.444463333333","25.1773633333333","6501000","淡水區"
"251011","650-BX","2018/04/12 19:59:21","新北市淡水區崁頂57-7號","121.442493333333","25.1973333333333","6501000","淡水區"
"207003","550-UM","2018/04/12 19:59:14","新北市萬里區磺潭里公館崙5號","121.641893333333","25.2142466666667","6502800","萬里區"
"207004","225-TW","2018/04/12 19:59:16","新北市萬里區北基里忠二街35號","121.68565","25.1757016666667","6502800","萬里區"
"252002","178-VK","2018/04/12 19:59:29","新北市三芝區三民街39巷36號","121.505391666667","25.25754","6502100","三芝區"
"252001","292-VK","2018/04/12 19:59:28","新北市三芝區公正街9號","121.499771666667","25.2575016666667","6502100","三芝區"
"237004","KEA-2597","2018/04/12 19:59:10","新北市三峽區添福14-1號","121.373638333333","24.902285","6500900","三峽區"
"237007","153-BY","2018/04/12 19:59:27","新北市三峽區麻園43號","121.363738333333","24.92122","6500900","三峽區"
"237009","210-TH","2018/04/12 19:59:22","新北市三峽區民權街173號","121.36799","24.9300316666667","6500900","三峽區"
"237012","275-BY","2018/04/12 19:59:23","新北市三峽區中華路31號","121.373053333333","24.9313116666667","6500900","三峽區"
"237008","302-VK","2018/04/12 19:59:19","新北市三峽區中正路一段292巷35號","121.370131666667","24.925985","6500900","三峽區"
"237014","433-BY","2018/04/12 19:59:11","新北市三峽區添福13-1號","121.374526666667","24.9076833333333","6500900","三峽區"
"237006","5529-G3","2018/04/12 19:59:22","新北市三峽區中正路二段168號","121.365988333333","24.9156966666667","6500900","三峽區"
"237005","AKY-6261","2018/04/12 19:59:11","新北市三峽區民生街1巷20號","121.379538333333","24.9348383333333","6500900","三峽區"
"236070","105-UM","2018/04/12 19:59:23","新北市土城區忠義路99號","121.443855","24.9634566666667","6501300","土城區"
"236078","166-UM","2018/04/12 19:59:25","新北市土城區中州路52巷2弄2號","121.413141666667","24.95829","6501300","土城區"
"236030","253-BX","2018/04/12 19:59:16","新北市土城區中央路一段250巷1號","121.444143333333","24.9846366666667","6501300","土城區"
"236026","269-VK","2018/04/12 19:59:30","新北市土城區中央路二段91號","121.442286666667","24.9781066666667","6501300","土城區"
"236014","270-VK","2018/04/12 19:59:08","新北市土城區廣福街123號","121.456255","24.9929133333333","6501300","土城區"
"236038","271-VK","2018/04/12 19:59:26","新北市土城區國際路52號","121.466513333333","24.9784116666667","6501300","土城區"
"236021","401-BY","2018/04/12 19:59:27","新北市土城區延吉街111巷12弄15-3號","121.471646666667","24.9849966666667","6501300","土城區"
"236059","912-UM","2018/04/12 19:59:20","新北市土城區中央路一段269-5號","121.44491","24.9849816666667","6501300","土城區"
"236049","913-UM","2018/04/12 19:59:26","新北市土城區金城路三段260號","121.47392","24.9907683333333","6501300","土城區"
"236063","915-UM","2018/04/12 19:59:17","新北市土城區延和路120號","121.467563333333","24.99001","6501300","土城區"
"236055","AAC-216","2018/04/12 19:59:22","新北市土城區延和路19號","121.464218333333","24.9882883333333","6501300","土城區"
"242034","AAC-296","2018/04/12 19:59:17","新北市新莊區建中街109號","121.446243333333","25.0365333333333","6500500","新莊區"
"242058","986-R7","2018/04/12 19:59:15","新北市新莊區八德街137號","121.423773333333","25.0201766666667","6500500","新莊區"
"242053","751-BX","2018/04/12 19:59:29","新北市新莊區西盛街416巷2號","121.427273333333","25.0122433333333","6500500","新莊區"
"242029","705-TV","2018/04/12 19:59:16","新北市新莊區中榮街152巷45號","121.445456666667","25.05371","6500500","新莊區"
"242025","613-BX","2018/04/12 19:59:12","新北市新莊區五工一路90號","121.461185","25.0677633333333","6500500","新莊區"
"242051","441-UM","2018/04/12 19:59:14","新北市新莊區西盛街139號","121.428293333333","25.0184133333333","6500500","新莊區"
"242056","440-UM","2018/04/12 19:59:24","新北市新莊區新豐街42號","121.447651666667","25.03407","6500500","新莊區"
"242036","415-TV","2018/04/12 19:59:28","新北市新莊區建安街41巷7弄3號","121.429365","25.025315","6500500","新莊區"
"242007","413-TV","2018/04/12 19:59:30","新北市新莊區福壽街204號","121.458111666667","25.0537283333333","6500500","新莊區"
"242023","362-BY","2018/04/12 19:59:16","新北市新莊區化成路378號","121.465905","25.0498916666667","6500500","新莊區"
"242061","353-BY","2018/04/12 19:59:19","新北市新莊區瓊林路72號","121.445125","25.0286183333333","6500500","新莊區"
"242039","133-UY","2018/04/12 19:59:17","新北市新莊區民安路299巷25弄5號","121.428826666667","25.023185","6500500","新莊區"
"242048","172-VK","2018/04/12 19:59:28","新北市新莊區富國路160號","121.423413333333","25.0248016666667","6500500","新莊區"
"242011","173-VK","2018/04/12 19:56:04","新北市新莊區中港路531巷5號","121.451418333333","25.051385","6500500","新莊區"
"242017","175-VK","2018/04/12 19:59:20","新北市新莊區中華路二段3巷27號","121.453088333333","25.0463233333333","6500500","新莊區"
"242004","176-VK","2018/04/12 19:59:13","新北市新莊區化成路474號","121.466005","25.0514383333333","6500500","新莊區"
"242015","346-TH","2018/04/12 19:59:16","新北市新莊區泰順街33巷4號","121.446201666667","25.0425983333333","6500500","新莊區"
"242019","347-TH","2018/04/12 19:59:25","新北市新莊區民生街15巷3號","121.455546666667","25.0424583333333","6500500","新莊區"
"242021","348-TH","2018/04/12 19:59:03","新北市新莊區建中街32巷21號","121.448671666667","25.0382233333333","6500500","新莊區"
"242002","349-TH","2018/04/12 19:59:19","新北市新莊區中正路170號","121.450986666667","25.0359116666667","6500500","新莊區"
"242013","351-TH","2018/04/12 19:59:09","新北市新莊區幸福路670巷2弄1號","121.450951666667","25.0495383333333","6500500","新莊區"
"238015","755-BX","2018/04/12 19:59:11","新北市樹林區中山路三段210-2號","121.382346666667","24.9660616666667","6500700","樹林區"
"238021","KEA-2539","2018/04/12 19:59:17","新北市樹林區佳園路三段101巷101號","121.395981666667","24.9497816666667","6500700","樹林區"
"239006","891-R6","2018/04/12 19:59:18","新北市鶯歌區文化路117巷50號","121.357893333333","24.9550683333333","6500800","鶯歌區"
"239004","193-VK","2018/04/12 19:59:11","新北市樹林區中山路三段210-2號","121.380801666667","24.96696","6500800","鶯歌區"
"221008","489-VK","2018/04/12 19:59:18","新北市汐止區康寧街19號","121.61804","25.0671883333333","6501100","汐止區"
"221036","130-UY","2018/04/12 19:59:27","新北市汐止區新台五路二段85巷8號","121.664475","25.0671933333333","6501100","汐止區"
"221015","131-UY","2018/04/12 19:59:17","新北市汐止區大同路二段705號","121.665108333333","25.072765","6501100","汐止區"
"221010","269-BY","2018/04/12 19:59:24","新北市汐止區八連路一段86巷10號","121.644593333333","25.0803733333333","6501100","汐止區"
"221018","277-VK","2018/04/12 19:59:25","新北市汐止區福德一路176巷1弄1號","121.635573333333","25.06636","6501100","汐止區"
"221012","278-VK","2018/04/12 19:59:26","新北市汐止區大同路三段216號","121.675115","25.0732816666667","6501100","汐止區"
"221023","279-VK","2018/04/12 19:59:24","新北市汐止區明峰街206號","121.627581666667","25.069215","6501100","汐止區"
"221032","280-BY","2018/04/12 19:59:15","新北市汐止區橫科路18巷2號","121.61796","25.0509333333333","6501100","汐止區"
"221027","281-BY","2018/04/12 19:59:20","新北市汐止區中正路77號","121.661486666667","25.06949","6501100","汐止區"
"221029","298-VK","2018/04/12 19:59:09","新北市汐止區樟樹一路137巷26號","121.640923333333","25.0660783333333","6501100","汐止區"
"221021","299-VK","2018/04/12 19:59:14","新北市汐止區水源路一段131號","121.656206666667","25.0625383333333","6501100","汐止區"
"221035","622-UM","2018/04/12 19:59:24","新北市汐止區長江街43號","121.655686666667","25.07132","6501100","汐止區"
"221025","623-UM","2018/04/12 19:59:14","新北市汐止區秀峰路109巷26弄8號","121.661008333333","25.063445","6501100","汐止區"
"221038","646-BX","2018/04/12 19:59:12","新北市汐止區忠孝東路486號","121.666271666667","25.0739866666667","6501100","汐止區"
"221033","647-BX","2018/04/12 19:59:21","新北市汐止區東勢街201巷104號","121.63347","25.0430283333333","6501100","汐止區"
"221018","753-BX","2018/04/12 19:59:24","新北市汐止區茄苳路223號","121.6709","25.0687483333333","6501100","汐止區"
"220079","145-BY","2018/04/12 19:59:23","新北市板橋區南雅西路二段175巷2號","121.451546666667","25.0124933333333","6500100","板橋區"
"220080","200-UY","2018/04/12 19:59:20","新北市板橋區大觀路二段163巷22號","121.446205","25.0001616666667","6500100","板橋區"
"220106","KEA-2550","2018/04/12 19:59:22","新北市板橋區民治街96巷27號","121.478395","25.0322183333333","6500100","板橋區"
"220082","610-BX","2018/04/12 19:59:20","新北市板橋區篤行路二段128-3號","121.43111","24.9906233333333","6500100","板橋區"
"220101","245-BX","2018/04/12 19:59:20","新北市板橋區萬板路112巷2號","121.474541666667","25.0234316666667","6500100","板橋區"
"220091","267-BY","2018/04/12 19:59:23","新北市板橋區民治街119巷5號","121.478503333333","25.0307383333333","6500100","板橋區"
"220072","277-BY","2018/04/12 19:59:11","新北市板橋區金門街92號","121.432946666667","24.9925883333333","6500100","板橋區"
"220070","282-UM","2018/04/12 19:59:22","新北市板橋區德興街5號","121.453421666667","24.9947266666667","6500100","板橋區"
"220071","283-VK","2018/04/12 19:59:27","新北市板橋區和平路178號","121.463443333333","24.9954533333333","6500100","板橋區"
"220094","285-UM","2018/04/12 19:59:27","新北市板橋區文德路19號","121.462286666667","25.02411","6500100","板橋區"
"220053","285-VK","2018/04/12 19:59:28","新北市板橋區永豐街45號","121.47432","25.017555","6500100","板橋區"
"220083","286-VK","2018/04/12 19:59:19","新北市板橋區僑中二街82號","121.446526666667","25.0096416666667","6500100","板橋區"
"220081","287-VK","2018/04/12 19:59:22","新北市板橋區僑中一街124巷20弄32號","121.447456666667","25.01381","6500100","板橋區"
"220090","288-VK","2018/04/12 19:59:26","新北市板橋區新海路111號","121.460996666667","25.022595","6500100","板橋區"
"220061","293-UM","2018/04/12 19:59:29","新北市板橋區板新路128號","121.470908333333","25.01566","6500100","板橋區"
"220062","305-R5","2018/04/12 19:59:12","新北市板橋區光復街172巷31弄5-2號","121.486226666667","25.0189466666667","6500100","板橋區"
"220092","307-R5","2018/04/12 19:59:21","新北市板橋區互助街40號","121.461898333333","25.0271783333333","6500100","板橋區"
"220098","317-R6","2018/04/12 19:59:28","新北市板橋區新海路72巷61號","121.461643333333","25.0237033333333","6500100","板橋區"
"220064","486-VK","2018/04/12 19:59:29","新北市板橋區光明街97號","121.46452","25.002875","6500100","板橋區"
"242031","280-VK","2018/04/12 19:59:23","新北市新莊區公園一路96號","121.44347","25.0373533333333","6500500","新莊區"
"220088","491-VK","2018/04/12 19:59:20","新北市板橋區懷德街125號","121.478818333333","25.03102","6500100","板橋區"
"220035","560-BX","2018/04/12 19:59:28","新北市板橋區新生街53巷8號","121.457501666667","25.0213183333333","6500100","板橋區"
"220103","561-BX","2018/04/12 19:59:23","新北市板橋區陽明街48號","121.465405","25.0222166666667","6500100","板橋區"
"220084","568-UM","2018/04/12 19:59:24","新北市樹林區水源街213號","121.424053333333","24.9872","6500100","板橋區"
"220063","609-BX","2018/04/12 19:59:22","新北市板橋區中山路二段84-7號","121.475058333333","25.01609","6500100","板橋區"
"220055","630-UY","2018/04/12 19:59:20","新北市板橋區仁愛路64號","121.45996","24.999465","6500100","板橋區"
"220093","689-BX","2018/04/12 19:59:22","新北市板橋區長江路三段116號","121.475136666667","25.0342683333333","6500100","板橋區"
"220054","741-BX","2018/04/12 19:59:14","新北市板橋區忠孝路201巷34號","121.465051666667","25.0035316666667","6500100","板橋區"
"220102","KEA-2699","2018/04/12 19:59:27","新北市板橋區仁化街42巷3號","121.475466666667","25.0314083333333","6500100","板橋區"
"220096","831-TW","2018/04/12 19:59:21","新北市板橋區莊敬路171號","121.470971666667","25.02383","6500100","板橋區"
"220089","833-TW","2018/04/12 19:59:26","新北市板橋區新海路385巷34弄2號","121.457395","25.0255416666667","6500100","板橋區"
"220074","895-R6","2018/04/12 19:59:22","新北市板橋區縣民大道一段297號","121.460933333333","25.010725","6500100","板橋區"
"220073","985-R7","2018/04/12 19:59:08","新北市板橋區南雅西路二段11號","121.45297","25.0093383333333","6500100","板橋區"
"220097","AAC-210","2018/04/12 19:59:26","新北市板橋區光正街18巷14號","121.462923333333","25.017735","6500100","板橋區"
