"lineid","car","time","location","longitude","latitude","cityid","cityname"
"234070","149-BY","2018/04/12 20:26:55","新北市永和區永寧街2號","121.520403333333","25.00651","6500400","永和區"
"234007","207-UY","2018/04/12 20:27:01","新北市永和區環河西路二段229巷3號","121.501486666667","25.0099733333333","6500400","永和區"
"234081","298-R6","2018/04/12 20:27:04","新北市永和區永亨路70號","121.520973333333","25.0059983333333","6500400","永和區"
"234038","336-UY","2018/04/12 20:26:59","新北市永和區民樂街31巷17弄2號","121.52881","25.002015","6500400","永和區"
"234064","337-UY","2018/04/12 20:26:55","新北市永和區中正路387號","121.517253333333","25.003965","6500400","永和區"
"234086","338-UY","2018/04/12 20:27:00","新北市永和區永和路二段344號","121.516363333333","25.01715","6500400","永和區"
"234067","553-UM","2018/04/12 20:27:04","新北市永和區保平路292巷13弄12號","121.506868333333","25.0055366666667","6500400","永和區"
"234030","746-BX","2018/04/12 20:26:59","新北市永和區民族街81巷58號","121.520045","24.9965316666667","6500400","永和區"
"234054","KEA-2590","2018/04/12 20:27:06","新北市永和區環河東路一段42號","121.518798333333","25.0169533333333","6500400","永和區"
"234061","AAD-866","2018/04/12 20:27:03","新北市永和區得和路50號","121.51585","25.0000766666667","6500400","永和區"
"234042","862-TW","2018/04/12 20:26:50","新北市永和區安樂路240號","121.51483","25.0026583333333","6500400","永和區"
"234050","863-TW","2018/04/12 20:26:55","新北市永和區新生路44號","121.507931666667","25.0155066666667","6500400","永和區"
"249005","172-UM","2018/04/12 20:27:02","新北市八里區中山路三段275號","121.378983333333","25.1384816666667","6502300","八里區"
"249001","173-UM","2018/04/12 20:27:02","新北市八里區商港路32號","121.396618333333","25.1448866666667","6502300","八里區"
"249004","303-UY","2018/04/12 20:26:48","新北市八里區中山路一段129巷27號","121.414048333333","25.1586166666667","6502300","八里區"
"249002","305-UY","2018/04/12 20:26:54","新北市八里區龍米路二段58-1號","121.44825","25.1409483333333","6502300","八里區"
"249003","593-UM","2018/04/12 20:26:31","新北市八里區華峰一街27號","121.399201666667","25.146425","6502300","八里區"
"248002","678-BX","2018/04/12 20:26:56","新北市五股區成泰路三段75-1號","121.443581666667","25.0897416666667","6501500","五股區"
"234023","9380-KE","2018/04/12 20:27:03","新北市永和區光復街2巷16弄17號","121.517783333333","25.0163416666667","6500400","永和區"
"234074","AAC-211","2018/04/12 20:26:58","新北市永和區福和路1號","121.525086666667","25.0089766666667","6500400","永和區"
"234003","AAC-295","2018/04/12 20:26:53","新北市永和區大新街50號","121.515953333333","25.0083083333333","6500400","永和區"
"243012","AAD-798","2018/04/12 20:26:56","新北市泰山區楓江路6號","121.433448333333","25.0624066666667","6501600","泰山區"
"243011","297-R6","2018/04/12 20:26:57","新北市泰山區明志路三段94號","121.424966666667","25.0412983333333","6501600","泰山區"
"243015","380-SR","2018/04/12 20:26:48","新北市泰山區仁德路103號","121.433165","25.0561433333333","6501600","泰山區"
"243014","421-VK","2018/04/12 20:26:48","新北市泰山區泰林路二段593號","121.421771666667","25.0633916666667","6501600","泰山區"
"243010","KEA-2215","2018/04/12 20:26:57","新北市泰山區新生路31巷5號","121.427575","25.0457616666667","6501600","泰山區"
"243009","KEA-2216","2018/04/12 20:27:00","新北市泰山區忠孝街14-1號","121.427725","25.065025","6501600","泰山區"
"243016","680-BX","2018/04/12 20:27:04","新北市泰山區明志路二段187號","121.427528333333","25.0495366666667","6501600","泰山區"
"222003","436-BY","2018/04/12 20:27:03","新北市深坑區深坑街25號","121.616135","25.0022716666667","6501800","深坑區"
"222002","659-BX","2018/04/12 20:26:56","新北市深坑區萬福路16巷35號","121.608601666667","25.0088416666667","6501800","深坑區"
"231041","002-UM","2018/04/12 20:27:01","新北市新店區民權路105號","121.536421666667","24.9827566666667","6500600","新店區"
"231059","046-UY","2018/04/12 20:26:56","新北市新店區安康路二段278號","121.508331666667","24.958685","6500600","新店區"
"231040","047-UY","2018/04/12 20:27:03","新北市新店區中正路352號","121.535958333333","24.975545","6500600","新店區"
"231044","106-UY","2018/04/12 20:26:58","新北市新店區民族路59號","121.53994","24.9784316666667","6500600","新店區"
"231052","110-UY","2018/04/12 20:26:45","新北市新店區松林路36號","121.546003333333","24.910625","6500600","新店區"
"231047","187-VK","2018/04/12 20:26:59","新北市新店區寶慶街58巷21-1號","121.54198","24.9872733333333","6500600","新店區"
"231054","KEA-2219","2018/04/12 20:26:59","新北市新店區檳榔路109號","121.544421666667","24.9616916666667","6500600","新店區"
"231057","256-BX","2018/04/12 20:26:50","新北市新店區花園五路二段1號","121.553461666667","24.934145","6500600","新店區"
"231064","260-TV","2018/04/12 20:26:57","新北市新店區安和路三段99號","121.517796666667","24.984325","6500600","新店區"
"231051","278-BY","2018/04/12 20:26:48","新北市新店區中央七街84號","121.526801666667","24.97682","6500600","新店區"
"231050","AAD-862","2018/04/12 20:27:05","新北市新店區明德路61巷4號","121.541125","24.976095","6500600","新店區"
"231058","3713-VJ","2018/04/12 20:27:05","新北市新店區自由街43-1號","121.534546666667","24.9737333333333","6500600","新店區"
"231066","4716-K9","2018/04/12 20:27:05","新北市新店區安民街365巷1弄8號","121.516291666667","24.9751616666667","6500600","新店區"
"231056","4715-K9","2018/04/12 20:26:52","新北市新店區中正路328巷1號","121.536855","24.9752983333333","6500600","新店區"
"231067","4772-VM","2018/04/12 20:27:00","新北市新店區安華路28-1號","121.51954","24.960835","6500600","新店區"
"231065","512-UM","2018/04/12 20:26:47","新北市新店區安祥路102巷30弄23號","121.484786666667","24.9632633333333","6500600","新店區"
"231049","513-UM","2018/04/12 20:26:59","新北市新店區秀山路72號","121.53139","24.9609366666667","6500600","新店區"
"231061","618-UM","2018/04/12 20:26:57","新北市新店區安興路33-1號","121.515853333333","24.9704333333333","6500600","新店區"
"231063","641-BX","2018/04/12 20:26:55","新北市新店區安康路二段317-1號","121.499263333333","24.9565516666667","6500600","新店區"
"231042","645-TV","2018/04/12 20:26:57","新北市新店區中興路二段235號","121.54738","24.9751733333333","6500600","新店區"
"231068","718-UY","2018/04/12 20:26:54","新北市新店區寶安街2巷1號","121.5423","24.9807683333333","6500600","新店區"
"231062","720-UM","2018/04/12 20:26:56","新北市新店區安泰路7巷16號","121.48566","24.95105","6500600","新店區"
"231060","897-TW","2018/04/12 20:27:06","新北市新店區錦秀路66號","121.478945","24.94283","6500600","新店區"
"231045","898-TW","2018/04/12 20:27:00","新北市新店區新坡一街12號","121.548786666667","24.9616733333333","6500600","新店區"
"231043","899-TW","2018/04/12 20:26:58","新北市新店區民族路29號","121.540935","24.9787083333333","6500600","新店區"
"241011","013-R5","2018/04/12 20:27:01","新北市三重區龍門路48號","121.496413333333","25.0724816666667","6500200","三重區"
"241028","022-UY","2018/04/12 20:27:02","新北市三重區光興街97號","121.497215","25.0599916666667","6500200","三重區"
"241008","059-VK","2018/04/12 20:26:56","新北市三重區車路頭街118號","121.484258333333","25.07527","6500200","三重區"
"241009","060-VK","2018/04/12 20:26:58","新北市三重區永福街46-1號","121.482051666667","25.07817","6500200","三重區"
"241031","061-VK","2018/04/12 20:26:52","新北市三重區三寧街22號","121.48948","25.0599333333333","6500200","三重區"
"241015","062-VK","2018/04/12 20:26:50","新北市三重區信義街1號","121.49913","25.0647216666667","6500200","三重區"
"241017","063-VK","2018/04/12 20:26:47","新北市三重區自強路一段207號","121.491481666667","25.068375","6500200","三重區"
"241024","065-VK","2018/04/12 20:27:03","新北市三重區三民街256號","121.479776666667","25.0674183333333","6500200","三重區"
"241026","066-VK","2018/04/12 20:26:54","新北市三重區福德南路8巷13號","121.503425","25.0635533333333","6500200","三重區"
"241002","090-VK","2018/04/12 20:27:04","新北市三重區仁義街211巷7號","121.497161666667","25.0820466666667","6500200","三重區"
"241003","091-VK","2018/04/12 20:26:46","新北市三重區富華街159號","121.49323","25.0849433333333","6500200","三重區"
"241005","262-UM","2018/04/12 20:26:52","新北市三重區碧華街374號","121.490856666667","25.084255","6500200","三重區"
"241016","265-UM","2018/04/12 20:26:55","新北市三重區正義北路92號","121.497118333333","25.0647816666667","6500200","三重區"
"241018","268-UM","2018/04/12 20:26:49","新北市三重區雙園街124號","121.494286666667","25.0673666666667","6500200","三重區"
"241032","269-UM","2018/04/12 20:27:03","新北市三重區重陽路一段120巷48號","121.485005","25.06016","6500200","三重區"
"241013","270-UM","2018/04/12 20:26:57","新北市三重區三和路三段167巷55號","121.493913333333","25.074805","6500200","三重區"
"241025","271-UM","2018/04/12 20:27:02","新北市三重區頂崁街210巷29號","121.47568","25.0682216666667","6500200","三重區"
"241007","398-BY","2018/04/12 20:26:59","新北市三重區自強路四段53號","121.489853333333","25.0781166666667","6500200","三重區"
"241035","KEA-2210","2018/04/12 20:27:05","新北市三重區重新路一段135號","121.499973333333","25.0631416666667","6500200","三重區"
"241004","475-VK","2018/04/12 20:27:02","新北市三重區溪尾街197號","121.488671666667","25.0806316666667","6500200","三重區"
"241030","480-VK","2018/04/12 20:26:52","新北市三重區集成路3號","121.488423333333","25.0516816666667","6500200","三重區"
"241014","543-UM","2018/04/12 20:26:59","新北市三重區長壽街120巷23號","121.502346666667","25.0692933333333","6500200","三重區"
"241023","545-UM","2018/04/12 20:26:46","新北市三重區自由街16號","121.479806666667","25.066535","6500200","三重區"
"241001","547-UM","2018/04/12 20:26:52","新北市三重區自強路四段33號","121.488913333333","25.0766016666667","6500200","三重區"
"241019","KEA-2593","2018/04/12 20:27:04","新北市三重區重陽路四段83號","121.492561666667","25.071105","6500200","三重區"
"241022","887-TS","2018/04/12 20:26:57","新北市三重區民生街61巷1號","121.489226666667","25.0626716666667","6500200","三重區"
"241012","941-UM","2018/04/12 20:26:50","新北市三重區龍門路256號","121.501091666667","25.0738333333333","6500200","三重區"
"241029","942-UM","2018/04/12 20:26:51","新北市三重區集美街225號","121.492058333333","25.0552083333333","6500200","三重區"
"241033","AAC-255","2018/04/12 20:26:38","新北市三重區五谷王北街58巷12號","121.47573","25.0518366666667","6500200","三重區"
"235066","003-UY","2018/04/12 20:26:51","新北市中和區光華街31巷47弄2號","121.505773333333","25.005045","6500300","中和區"
"235039","097-UM","2018/04/12 20:26:50","新北市中和區大勇街27巷24號","121.516323333333","24.994095","6500300","中和區"
"235065","098-UM","2018/04/12 20:26:58","新北市中和區橋和路292號","121.496768333333","25.0069066666667","6500300","中和區"
"235050","4979-A6","2018/04/12 20:27:04","新北市中和區景新街162號","121.505766666667","24.9971666666667","6500300","中和區"
"235069","4980-A6","2018/04/12 20:26:50","新北市中和區中正路450號","121.490886666667","24.994235","6500300","中和區"
"235026","800-TS","2018/04/12 20:26:55","新北市中和區員山路36巷16-3號","121.484895","24.991705","6500300","中和區"
"235051","157-BY","2018/04/12 20:26:53","新北市鶯歌區中正一路113-1號","121.370403333333","24.95857","6500300","中和區"
"235037","AAC-213","2018/04/12 20:26:59","新北市五股區成泰路一段98巷1-18號","121.45322","25.0742783333333","6500300","中和區"
"235059","AAC-215","2018/04/12 20:27:03","新北市中和區員山路32號","121.481143333333","24.9876933333333","6500300","中和區"
"247024","893-R6","2018/04/12 20:26:57","新北市蘆洲區長興路50巷35號","121.464751666667","25.0844933333333","6501400","蘆洲區"
"247014","546-UM","2018/04/12 20:27:05","新北市蘆洲區中山一路276號","121.471546666667","25.079235","6501400","蘆洲區"
"247022","500-BY","2018/04/12 20:26:50","新北市蘆洲區中正路240號","121.465923333333","25.0891666666667","6501400","蘆洲區"
"247010","341-TH","2018/04/12 20:27:00","新北市蘆洲區信義路222巷45號","121.480423333333","25.085515","6501400","蘆洲區"
"247012","339-TH","2018/04/12 20:27:02","新北市蘆洲區復興路216號","121.478943333333","25.0892716666667","6501400","蘆洲區"
"247004","337-TH","2018/04/12 20:26:51","新北市蘆洲區永康街63巷16號","121.456515","25.0844916666667","6501400","蘆洲區"
"247006","336-TH","2018/04/12 20:26:54","新北市蘆洲區九芎街156號","121.464218333333","25.0781683333333","6501400","蘆洲區"
"247018","057-VK","2018/04/12 20:25:58","新北市蘆洲區民族路327巷132-2號","121.475033333333","25.0893333333333","6501400","蘆洲區"
"247008","056-VK","2018/04/12 20:26:48","新北市三重區仁安街33號","121.484081666667","25.084745","6501400","蘆洲區"
"247016","053-VK","2018/04/12 20:27:02","新北市蘆洲區光華路164號","121.465423333333","25.0823433333333","6501400","蘆洲區"
"247002","002-UY","2018/04/12 20:27:02","新北市蘆洲區長安街347巷22號","121.456138333333","25.0869883333333","6501400","蘆洲區"
"222001","KEA-2212","2018/04/12 20:26:54","新北市深坑區北深路三段329號","121.59733","25.00501","6501800","深坑區"
"208002","KEA-2872","2018/04/12 20:26:50","新北市金山區磺清路121號","121.639641666667","25.227935","6502700","金山區"
"251002","012-UM","2018/04/12 20:26:45","新北市淡水區中正路21號","121.442648333333","25.169535","6501000","淡水區"
"251013","179-VK","2018/04/12 20:26:53","新北市淡水區後坑子7號","121.464016666667","25.2062233333333","6501000","淡水區"
"251014","180-VK","2018/04/12 20:27:05","新北市淡水區石頭厝9-2號","121.458825","25.2370316666667","6501000","淡水區"
"251008","181-VK","2018/04/12 20:26:52","新北市淡水區淡海路208巷25號","121.421636666667","25.18601","6501000","淡水區"
"251010","413-VK","2018/04/12 20:26:56","新北市淡水區沙崙路181巷2號","121.424478333333","25.1839566666667","6501000","淡水區"
"251012","441-VK","2018/04/12 20:26:53","新北市淡水區頂田寮路109號","121.45825","25.21613","6501000","淡水區"
"251016","442-VK","2018/04/12 20:26:59","新北市淡水區新埔子15-1號","121.449068333333","25.2281983333333","6501000","淡水區"
"251001","559-UM","2018/04/12 20:27:07","新北市淡水區淡金路二段81號","121.451823333333","25.1812966666667","6501000","淡水區"
"251006","561-UM","2018/04/12 20:26:59","新北市淡水區商工路350號","121.468381666667","25.18543","6501000","淡水區"
"251011","650-BX","2018/04/12 20:27:01","新北市淡水區崁頂二路250號","121.436673333333","25.1979066666667","6501000","淡水區"
"251003","766-UM","2018/04/12 20:26:47","新北市淡水區新生街108巷2號","121.440163333333","25.174745","6501000","淡水區"
"252002","178-VK","2018/04/12 20:26:49","新北市三芝區淡金路二段18-1號","121.502666666667","25.2595183333333","6502100","三芝區"
"252001","292-VK","2018/04/12 20:26:48","新北市三芝區中山路一段35號","121.50066","25.2579566666667","6502100","三芝區"
"242034","AAC-296","2018/04/12 20:26:57","新北市新莊區新泰路207號","121.4468","25.0384816666667","6500500","新莊區"
"242058","986-R7","2018/04/12 20:27:04","新北市新莊區四維路138號","121.423156666667","25.0235916666667","6500500","新莊區"
"242053","751-BX","2018/04/12 20:26:49","新北市新莊區西盛街364號","121.42794","25.0136416666667","6500500","新莊區"
"242029","705-TV","2018/04/12 20:26:56","新北市新莊區中華路二段151號","121.452681666667","25.0514266666667","6500500","新莊區"
"242027","615-BX","2018/04/12 20:26:59","新北市新莊區幸福路68號","121.456993333333","25.0494183333333","6500500","新莊區"
"242025","613-BX","2018/04/12 20:27:01","新北市新莊區五工三路13號","121.459611666667","25.0642716666667","6500500","新莊區"
"242046","497-BY","2018/04/12 20:26:48","新北市新莊區裕民街54巷27號","121.417576666667","25.02454","6500500","新莊區"
"242051","441-UM","2018/04/12 20:26:54","新北市新莊區民安西路252巷31號","121.425116666667","25.0136166666667","6500500","新莊區"
"242056","440-UM","2018/04/12 20:27:04","新北市新莊區新莊路715號","121.443671666667","25.03278","6500500","新莊區"
"242036","415-TV","2018/04/12 20:26:54","新北市新莊區後港一路76巷3弄1號","121.427338333333","25.02598","6500500","新莊區"
"242007","413-TV","2018/04/12 20:26:50","新北市新莊區福壽街124巷16號","121.458716666667","25.0512416666667","6500500","新莊區"
"242044","400-BY","2018/04/12 20:26:52","新北市新莊區中正路新建巷15弄42號","121.41484","25.02143","6500500","新莊區"
"242023","362-BY","2018/04/12 20:26:56","新北市新莊區化成路463-1號","121.464731666667","25.0623883333333","6500500","新莊區"
"242061","353-BY","2018/04/12 20:26:59","新北市新莊區民安路343號","121.43077","25.0229466666667","6500500","新莊區"
"242039","133-UY","2018/04/12 20:27:02","新北市新莊區成功街65號","121.424906666667","25.0203016666667","6500500","新莊區"
"242048","172-VK","2018/04/12 20:26:48","新北市新莊區裕民街19巷28號","121.41971","25.0240716666667","6500500","新莊區"
"242011","173-VK","2018/04/12 20:26:44","新北市新莊區中義街2號","121.451585","25.051335","6500500","新莊區"
"242017","175-VK","2018/04/12 20:27:00","新北市新莊區中港二街99號","121.449208333333","25.0457266666667","6500500","新莊區"
"242004","176-VK","2018/04/12 20:26:52","新北市新莊區化成路403巷31號","121.463588333333","25.058665","6500500","新莊區"
"242015","346-TH","2018/04/12 20:26:56","新北市新莊區中平路46巷14號","121.44537","25.0438416666667","6500500","新莊區"
"242019","347-TH","2018/04/12 20:27:04","新北市新莊區銘德街29號","121.45852","25.0436666666667","6500500","新莊區"
"242021","348-TH","2018/04/12 20:27:02","新北市新莊區公園路10巷1號","121.447836666667","25.0388033333333","6500500","新莊區"
"242002","349-TH","2018/04/12 20:26:59","新北市新莊區中正路51號","121.463023333333","25.04061","6500500","新莊區"
"242013","351-TH","2018/04/12 20:26:49","新北市新莊區中平路270巷7弄22號","121.44604","25.0508983333333","6500500","新莊區"
"221008","489-VK","2018/04/12 20:26:58","新北市汐止區康寧街359號","121.628486666667","25.0676766666667","6501100","汐止區"
"221036","130-UY","2018/04/12 20:27:04","新北市汐止區仁愛路151巷48號","121.663643333333","25.0657466666667","6501100","汐止區"
"221015","131-UY","2018/04/12 20:26:57","新北市汐止區建成路142巷19弄17號","121.661846666667","25.073905","6501100","汐止區"
"221010","269-BY","2018/04/12 20:27:04","新北市汐止區八連路二段428號","121.628761666667","25.1026833333333","6501100","汐止區"
"221018","277-VK","2018/04/12 20:27:05","新北市汐止區中興路110巷3-1號","121.63318","25.063825","6501100","汐止區"
"221012","278-VK","2018/04/12 20:27:06","新北市汐止區大同路三段400號","121.681725","25.0717416666667","6501100","汐止區"
"221023","279-VK","2018/04/12 20:26:44","新北市汐止區湖東街5巷21號","121.634461666667","25.0732583333333","6501100","汐止區"
"221032","280-BY","2018/04/12 20:26:55","新北市汐止區民權街二段58號","121.619423333333","25.048725","6501100","汐止區"
"221027","281-BY","2018/04/12 20:27:00","新北市汐止區中正路250號","121.657351666667","25.0686466666667","6501100","汐止區"
"221029","298-VK","2018/04/12 20:26:49","新北市汐止區樟樹一路129巷32號","121.640528333333","25.0651166666667","6501100","汐止區"
"221021","299-VK","2018/04/12 20:26:54","新北市汐止區水源路一段282巷2號","121.654051666667","25.05834","6501100","汐止區"
"221035","622-UM","2018/04/12 20:27:04","新北市汐止區長江街101-5號","121.658788333333","25.0731416666667","6501100","汐止區"
"221025","623-UM","2018/04/12 20:26:54","新北市汐止區水源路二段84號","121.656406666667","25.0563416666667","6501100","汐止區"
"221038","646-BX","2018/04/12 20:26:52","新北市汐止區忠孝東路200-5號","121.661653333333","25.0661866666667","6501100","汐止區"
"221033","647-BX","2018/04/12 20:26:21","新北市汐止區林森街124號","121.62457","25.0406733333333","6501100","汐止區"
"221002","707-TV","2018/04/12 20:26:56","新北市汐止區福德一路86巷25號","121.63763","25.068895","6501100","汐止區"
"221018","753-BX","2018/04/12 20:26:49","新北市汐止區茄苳路225巷9弄1號","121.671343333333","25.0691566666667","6501100","汐止區"
"220080","200-UY","2018/04/12 20:27:00","新北市五股區新五路三段13號","121.445085","25.0885766666667","6500100","板橋區"
"220070","282-UM","2018/04/12 20:26:57","新北市五股區成泰路一段8巷9-9號","121.437755","25.06769","6500100","板橋區"
"220083","286-VK","2018/04/12 20:26:58","新北市板橋區僑中二街108巷21-2號","121.444916666667","25.00744","6500100","板橋區"
"220061","293-UM","2018/04/12 20:26:49","新北市板橋區四川路一段168號","121.459961666667","25.00317","6500100","板橋區"
"242009","281-VK","2018/04/12 20:27:04","新北市新莊區昌盛街67號","121.454915","25.0499316666667","6500500","新莊區"
"220064","486-VK","2018/04/12 20:26:56","新北市三重區後埔街80-1號","121.47874","25.0456466666667","6500100","板橋區"
"242031","280-VK","2018/04/12 20:27:03","新北市新莊區三和路18-1號","121.440101666667","25.0370966666667","6500500","新莊區"
"220103","561-BX","2018/04/12 20:27:03","新北市板橋區漢生東路23巷56弄2號","121.466096666667","25.0181266666667","6500100","板橋區"
"220089","833-TW","2018/04/12 20:26:58","新北市板橋區互助街27號","121.461641666667","25.026875","6500100","板橋區"
