"lineid","car","time","location","longitude","latitude","cityid","cityname"
"248005","653-BX","2018/03/12 08:29:37","新北市五股區明德路12巷6號","121.433428333333","25.0718166666667","6501500","五股區"
"232001","290-BY","2018/03/12 08:29:24","新北市坪林區虎寮潭1-2號","121.744145","24.95525","6502000","坪林區"
"232017","705-BZ","2018/03/12 08:25:23","新北市坪林區柑腳坑15號","121.772471666667","24.9467566666667","6502000","坪林區"
"232005","758-BX","2018/03/12 08:29:22","新北市坪林區石9號","121.708861666667","24.9084466666667","6502000","坪林區"
"244012","069-UM","2018/03/12 08:29:33","新北市林口區中正路529號","121.38246","25.0773483333333","6501700","林口區"
"244006","080-UY","2018/03/12 08:29:27","新北市林口區湖子17-5號","121.385666666667","25.090885","6501700","林口區"
"244001","248-BX","2018/03/12 08:29:23","新北市林口區頂福里76號","121.329663333333","25.102865","6501700","林口區"
"244018","402-UM","2018/03/12 08:29:33","新北市林口區公園路155號","121.370368333333","25.0712966666667","6501700","林口區"
"244024","742-UY","2018/03/12 08:29:20","新北市林口區忠孝三路1-1號","121.361461666667","25.0690633333333","6501700","林口區"
"244022","483-VK","2018/03/12 08:29:17","新北市林口區東明一街1巷8號","121.393143333333","25.0726916666667","6501700","林口區"
"244016","485-VK","2018/03/12 08:29:30","新北市林口區文化二路一段230巷22弄1號","121.370336666667","25.0719666666667","6501700","林口區"
"244008","656-BX","2018/03/12 08:29:23","新北市林口區民享路153號","121.381946666667","25.0831133333333","6501700","林口區"
"244010","701-TV","2018/03/12 08:29:29","新北市林口區中正路192號","121.391496666667","25.0775933333333","6501700","林口區"
"244020","838-TS","2018/03/12 08:29:31","新北市林口區中山路2-2號","121.396813333333","25.0786933333333","6501700","林口區"
"222005","289-BY","2018/03/12 08:29:32","新北市深坑區深南路88巷13-2號","121.621845","25.0119766666667","6501800","深坑區"
"231007","189-VK","2018/03/12 08:29:17","新北市新店區新潭路一段73號","121.525041666667","24.9399216666667","6500600","新店區"
"231008","192-VK","2018/03/12 08:29:23","新北市新店區永興路73-1號","121.544855","24.9367266666667","6500600","新店區"
"235001","611-BX","2018/03/12 08:29:21","新北市中和區員山路314巷7弄6號","121.482081666667","25.003165","6500300","中和區"
"247024","335-TH","2018/03/12 08:29:30","新北市蘆洲區中原路12巷2號","121.461223333333","25.0835","6501400","蘆洲區"
"226005","5620-A6","2018/03/12 08:29:23","新北市平溪區南山里六分10號","121.797345","25.0499083333333","6502400","平溪區"
"226001","7418-A5","2018/03/12 08:29:32","新北市平溪區東勢里芊蓁林47-2號","121.750788333333","25.01224","6502400","平溪區"
"226003","AGD-0702","2018/03/12 08:29:21","新北市平溪區新寮里新寮路1-2號","121.790366666667","25.0582833333333","6502400","平溪區"
"223006","022-BY","2018/03/12 08:29:31","新北市深坑區昇高坑路51-1號","121.63046","24.9939383333333","6501900","石碇區"
"223001","205-TH","2018/03/12 08:29:26","新北市石碇區北宜路六段塗潭巷53號","121.652376666667","24.9350416666667","6501900","石碇區"
"223008","406-TH","2018/03/12 08:29:31","新北市石碇區十八重溪47號","121.67479","25.0128466666667","6501900","石碇區"
"223001","592-UM","2018/03/12 08:29:17","新北市石碇區北宜路六段小金瓜寮巷5號","121.657661666667","24.9350383333333","6501900","石碇區"
"223004","660-BX","2018/03/12 08:29:32","新北市石碇區外按9-2號","121.650771666667","24.9973716666667","6501900","石碇區"
"223007","661-BX","2018/03/12 08:29:00","新北市石碇區十八重溪47號","121.675283333333","25.0128466666667","6501900","石碇區"
"223005","677-TV","2018/03/12 08:29:17","新北市石碇區外按8號","121.651293333333","24.9962016666667","6501900","石碇區"
"227005","282-VK","2018/03/12 08:29:20","新北市雙溪區外柑里三叉坑11-3號","121.827906666667","25.0048933333333","6502500","雙溪區"
"252006","073-UM","2018/03/12 08:29:35","新北市三芝區蘭陽街13-1號","121.47353","25.2424466666667","6502100","三芝區"
"252004","249-BX","2018/03/12 08:29:23","新北市三芝區興華里楓子林45-2號","121.501571666667","25.20457","6502100","三芝區"
"237001","159-UY","2018/03/12 08:29:36","新北市三峽區三樹路199號","121.37808","24.942195","6500900","三峽區"
"236007","165-UM","2018/03/12 08:29:16","新北市土城區石門路95號","121.469138333333","24.9589816666667","6501300","土城區"
"236001","339-SR","2018/03/12 08:29:19","新北市土城區龍泉路54號","121.413723333333","24.9440916666667","6501300","土城區"
"236005","498-BY","2018/03/12 08:29:35","新北市土城區大暖路17號","121.422751666667","24.9611266666667","6501300","土城區"
"242033","AAC-296","2018/03/12 08:29:30","新北市新莊區福海街24巷11號","121.446036666667","25.0341783333333","6500500","新莊區"
"242057","986-R7","2018/03/12 08:29:30","新北市新莊區新北大道七段496號","121.412871666667","25.0297516666667","6500500","新莊區"
"242052","751-BX","2018/03/12 08:29:34","新北市新莊區民安西路468-1號","121.431628333333","25.0079333333333","6500500","新莊區"
"242059","705-TV","2018/03/12 08:29:22","新北市新莊區新樹路207-7號","121.435885","25.023925","6500500","新莊區"
"242026","615-BX","2018/03/12 08:29:28","新北市新莊區思源路373號","121.459823333333","25.0510683333333","6500500","新莊區"
"242024","613-BX","2018/03/12 08:29:27","新北市新莊區五權一路3-9號","121.45762","25.0657033333333","6500500","新莊區"
"242028","612-BX","2018/03/12 08:29:32","新北市新莊區中平路202-1號","121.444683333333","25.04884","6500500","新莊區"
"242040","566-BX","2018/03/12 08:29:31","新北市新莊區天祥街53號","121.41484","25.030445","6500500","新莊區"
"242018","497-BY","2018/03/12 08:29:31","新北市新莊區明中街45-2號","121.457531666667","25.03924","6500500","新莊區"
"242035","442-UM","2018/03/12 08:29:16","新北市新莊區後港一路65巷3號","121.426435","25.02672","6500500","新莊區"
"242049","441-UM","2018/03/12 08:29:27","新北市新莊區民本街23巷17號","121.429088333333","25.0197383333333","6500500","新莊區"
"242055","440-UM","2018/03/12 08:29:22","新北市新莊區豐年街124巷18號","121.445496666667","25.029855","6500500","新莊區"
"242006","413-TV","2018/03/12 08:29:33","新北市新莊區中華路二段185號","121.452573333333","25.0523566666667","6500500","新莊區"
"242043","400-BY","2018/03/12 08:29:36","新北市新莊區雙鳳路137號","121.412856666667","25.0272383333333","6500500","新莊區"
"242022","362-BY","2018/03/12 08:29:34","新北市新莊區化成路350號","121.46582","25.0491016666667","6500500","新莊區"
"242008","132-UY","2018/03/12 08:29:31","新北市新莊區昌平街59巷14號","121.45424","25.0532266666667","6500500","新莊區"
"242038","133-UY","2018/03/12 08:29:20","新北市新莊區民安西路24巷15號","121.426361666667","25.020825","6500500","新莊區"
"242030","135-UY","2018/03/12 08:29:37","新北市新莊區新泰路277巷65號","121.443195","25.0400516666667","6500500","新莊區"
"242047","172-VK","2018/03/12 08:29:21","新北市新莊區富國路106號","121.421786666667","25.025145","6500500","新莊區"
"242016","175-VK","2018/03/12 08:29:31","新北市新莊區中港路310號","121.452511666667","25.045165","6500500","新莊區"
"242003","176-VK","2018/03/12 08:29:30","新北市新莊區自由街22號","121.455778333333","25.04705","6500500","新莊區"
"242014","346-TH","2018/03/12 08:29:37","新北市新莊區中和街59巷8號","121.446908333333","25.0469333333333","6500500","新莊區"
"242020","348-TH","2018/03/12 08:29:23","新北市新莊區建興街89巷2號","121.449898333333","25.03902","6500500","新莊區"
"242001","349-TH","2018/03/12 08:29:33","新北市新莊區新莊路126號","121.455803333333","25.035835","6500500","新莊區"
"242012","351-TH","2018/03/12 08:29:33","新北市新莊區中泰街114號","121.448498333333","25.046505","6500500","新莊區"
"239006","661-UM","2018/03/12 08:29:23","桃園市龜山區宏德司法新村1號","121.331646666667","24.97948","6500800","鶯歌區"
"242010","281-VK","2018/03/12 08:29:29","新北市新莊區中榮街56巷10號","121.44924","25.053485","6500500","新莊區"
"220027","461-BY","2018/03/12 08:29:30","新北市板橋區南雅南路一段47號","121.455915","25.0061883333333","6500100","板橋區"
"242045","280-VK","2018/03/12 08:29:30","新北市新莊區福營路184號","121.431305","25.0307933333333","6500500","新莊區"
