"lineid","car","time","location","longitude","latitude","cityid","cityname"
"248005","653-BX","2018/03/12 09:09:23","新北市五股區水碓路24號","121.433378333333","25.072765","6501500","五股區"
"232005","758-BX","2018/03/12 09:09:22","新北市坪林區北宜路八段558號","121.716846666667","24.908755","6502000","坪林區"
"244012","069-UM","2018/03/12 09:09:33","新北市林口區中山路299號","121.383926666667","25.07999","6501700","林口區"
"244006","080-UY","2018/03/12 09:09:18","新北市林口區林口路113巷57號","121.38774","25.0796083333333","6501700","林口區"
"244001","248-BX","2018/03/12 09:09:23","新北市林口區嘉寶里32-1號","121.358663333333","25.0983766666667","6501700","林口區"
"244018","402-UM","2018/03/12 09:09:34","新北市林口區麗園路82號","121.372758333333","25.0690483333333","6501700","林口區"
"244024","742-UY","2018/03/12 09:09:20","新北市林口區文化三路一段447巷29號","121.367768333333","25.075115","6501700","林口區"
"244022","483-VK","2018/03/12 09:09:17","新北市林口區東湖路153巷135號","121.382236666667","25.073555","6501700","林口區"
"244016","485-VK","2018/03/12 09:09:30","新北市林口區文化二路一段20巷25弄4號","121.365941666667","25.0677883333333","6501700","林口區"
"244008","656-BX","2018/03/12 09:09:22","新北市林口區文林一街85號","121.377506666667","25.0869116666667","6501700","林口區"
"244010","701-TV","2018/03/12 09:09:29","新北市林口區中正路22號","121.396026666667","25.0775333333333","6501700","林口區"
"222005","289-BY","2018/03/12 09:06:12","新北市深坑區土庫尖路75-1號","121.631316666667","25.0181716666667","6501800","深坑區"
"231007","189-VK","2018/03/12 09:05:37","新北市新店區新潭路三段275-1號","121.501988333333","24.9025583333333","6500600","新店區"
"231008","192-VK","2018/03/12 09:09:23","新北市新店區廣興路60巷35號","121.542521666667","24.9164233333333","6500600","新店區"
"235001","611-BX","2018/03/12 09:09:21","新北市中和區民享街245號","121.471741666667","24.9961733333333","6500300","中和區"
"247024","335-TH","2018/03/12 09:09:30","新北市蘆洲區長榮路317號","121.45923","25.0863733333333","6501400","蘆洲區"
"226005","5620-A6","2018/03/12 09:09:24","新北市平溪區靜安路二段441號","121.740055","25.0250683333333","6502400","平溪區"
"226003","AGD-0702","2018/03/12 09:09:21","新北市平溪區望古里望古坑26號","121.763391666667","25.0343816666667","6502400","平溪區"
"223001","205-TH","2018/03/12 09:09:26","新北市石碇區北宜路五段74號","121.644113333333","24.9529333333333","6501900","石碇區"
"223008","406-TH","2018/03/12 09:09:32","新北市石碇區光明路13號","121.680036666667","25.0336766666667","6501900","石碇區"
"223004","660-BX","2018/03/12 09:09:32","新北市石碇區崩山24-5號","121.679271666667","24.969495","6501900","石碇區"
"223007","661-BX","2018/03/12 09:08:21","新北市石碇區光明路17-2號","121.684911666667","25.0319","6501900","石碇區"
"223005","677-TV","2018/03/12 09:09:32","新北市石碇區崩山24-2號","121.67861","24.9678516666667","6501900","石碇區"
"227005","282-VK","2018/03/12 09:08:00","新北市雙溪區泰平里料角坑19號","121.81199","24.9726766666667","6502500","雙溪區"
"252006","073-UM","2018/03/12 09:09:15","新北市三芝區古庄里山豬堀14-2號","121.492223333333","25.26003","6502100","三芝區"
"252004","249-BX","2018/03/12 09:09:21","新北市三芝區興華里田心子23號","121.493825","25.1978","6502100","三芝區"
"237001","159-UY","2018/03/12 09:06:56","新北市樹林區中山路三段214號","121.379913333333","24.9677616666667","6500900","三峽區"
"236007","165-UM","2018/03/12 09:09:36","新北市土城區中山路32號","121.424693333333","24.96358","6501300","土城區"
"236001","339-SR","2018/03/12 09:09:19","新北市土城區千歲路21號","121.441911666667","24.96923","6501300","土城區"
"236005","498-BY","2018/03/12 09:09:35","新北市土城區中央路三段76巷50弄1號","121.435656666667","24.96924","6501300","土城區"
"242033","AAC-296","2018/03/12 09:09:30","新北市新莊區仁愛街54巷12號","121.445016666667","25.037045","6500500","新莊區"
"242057","986-R7","2018/03/12 09:09:30","新北市新莊區八德街62號","121.424893333333","25.022315","6500500","新莊區"
"242052","751-BX","2018/03/12 09:09:34","新北市新莊區西盛街426號","121.42707","25.0120133333333","6500500","新莊區"
"242059","705-TV","2018/03/12 09:09:18","新北市新莊區瓊林路瓊英巷11弄2號","121.44314","25.0276766666667","6500500","新莊區"
"242026","615-BX","2018/03/12 09:09:29","新北市新莊區幸福路602號","121.452068333333","25.0493583333333","6500500","新莊區"
"242024","613-BX","2018/03/12 09:09:37","新北市新莊區五工一路80巷2號","121.46177","25.0674683333333","6500500","新莊區"
"242028","612-BX","2018/03/12 09:09:32","新北市新莊區昌平街31巷9號","121.454273333333","25.0514883333333","6500500","新莊區"
"242040","566-BX","2018/03/12 09:09:30","新北市新莊區壽山路45號","121.414863333333","25.0310366666667","6500500","新莊區"
"242018","497-BY","2018/03/12 09:09:31","新北市新莊區博愛路7巷2號","121.456063333333","25.0438583333333","6500500","新莊區"
"242035","442-UM","2018/03/12 09:09:36","新北市新莊區建安街91號","121.427041666667","25.0244433333333","6500500","新莊區"
"242049","441-UM","2018/03/12 09:09:26","新北市新莊區民安西路189巷5號","121.426391666667","25.0154566666667","6500500","新莊區"
"242055","440-UM","2018/03/12 09:09:21","新北市新莊區中正路347巷17弄8號","121.447441666667","25.0343516666667","6500500","新莊區"
"242006","413-TV","2018/03/12 09:09:33","新北市新莊區思源路211號","121.459846666667","25.0459566666667","6500500","新莊區"
"242043","400-BY","2018/03/12 09:09:36","新北市新莊區新北大道七段776巷10號","121.412108333333","25.0253033333333","6500500","新莊區"
"242022","362-BY","2018/03/12 09:09:27","新北市新莊區化成路762號","121.465328333333","25.0586816666667","6500500","新莊區"
"242008","132-UY","2018/03/12 09:09:31","新北市新莊區昌隆街76號","121.455606666667","25.0509266666667","6500500","新莊區"
"242038","133-UY","2018/03/12 09:09:25","新北市新莊區龍安路459號","121.424761666667","25.0185416666667","6500500","新莊區"
"242030","135-UY","2018/03/12 09:09:17","新北市新莊區忠孝街43號","121.443901666667","25.03588","6500500","新莊區"
"242047","172-VK","2018/03/12 09:09:21","新北市新莊區四維路212巷4弄12號","121.421366666667","25.02069","6500500","新莊區"
"242016","175-VK","2018/03/12 09:09:30","新北市新莊區中港一街153號","121.447598333333","25.0451266666667","6500500","新莊區"
"242003","176-VK","2018/03/12 09:09:30","新北市新莊區化成路231號","121.46586","25.0525233333333","6500500","新莊區"
"242014","346-TH","2018/03/12 09:09:17","新北市新莊區中平路36巷29號","121.446095","25.0436383333333","6500500","新莊區"
"242020","348-TH","2018/03/12 09:09:19","新北市新莊區和興街15號","121.447348333333","25.0391866666667","6500500","新莊區"
"242001","349-TH","2018/03/12 09:09:33","新北市新莊區中正路87號","121.460668333333","25.0391516666667","6500500","新莊區"
"242012","351-TH","2018/03/12 09:09:27","新北市新莊區中榮街81巷6號","121.445386666667","25.0524866666667","6500500","新莊區"
"239006","661-UM","2018/03/12 09:09:23","桃園市龜山區明興街275-1號","121.332811666667","24.981375","6500800","鶯歌區"
"242010","281-VK","2018/03/12 09:09:29","新北市新莊區幸福路678巷3弄11號","121.450261666667","25.0501883333333","6500500","新莊區"
"242045","280-VK","2018/03/12 09:09:30","新北市新莊區裕民街103巷11號","121.419038333333","25.0228883333333","6500500","新莊區"
