"lineid","car","time","location","longitude","latitude","cityid","cityname"
"248005","653-BX","2018/03/12 09:59:21","新北市五股區成泰路一段241巷11號","121.435865","25.081005","6501500","五股區"
"244012","069-UM","2018/03/12 09:59:33","新北市林口區麗園一街1號","121.375778333333","25.072525","6501700","林口區"
"244018","402-UM","2018/03/12 09:59:33","新北市林口區麗園二街1巷1號","121.377385","25.0697783333333","6501700","林口區"
"244022","483-VK","2018/03/12 09:59:17","新北市林口區文化三路一段617巷90號","121.370226666667","25.0781483333333","6501700","林口區"
"231007","189-VK","2018/03/12 09:59:37","新北市新店區新潭路三段215巷25號","121.50814","24.9040766666667","6500600","新店區"
"231008","192-VK","2018/03/12 09:59:03","新北市新店區小坑一路41號","121.527605","24.9100716666667","6500600","新店區"
"247024","335-TH","2018/03/12 09:59:30","新北市蘆洲區長安街23巷9號","121.46368","25.0787116666667","6501400","蘆洲區"
"223004","660-BX","2018/03/12 09:59:32","新北市石碇區碇坪路二段35號","121.684806666667","24.9767533333333","6501900","石碇區"
"223005","677-TV","2018/03/12 09:58:44","新北市石碇區碇坪路二段35號","121.684836666667","24.9767466666667","6501900","石碇區"
"227005","282-VK","2018/03/12 09:59:20","新北市雙溪區泰平里灣潭路36號","121.811433333333","24.9287983333333","6502500","雙溪區"
"252004","249-BX","2018/03/12 09:59:21","新北市三芝區福德里土地公埔42號","121.511073333333","25.2332383333333","6502100","三芝區"
"252006","AAC-283","2018/03/12 09:59:38","新北市三芝區新庄里新庄子56號","121.505791666667","25.2758683333333","6502100","三芝區"
"237001","159-UY","2018/03/12 09:59:16","新北市三峽區國際二街77號","121.37071","24.942195","6500900","三峽區"
"236005","498-BY","2018/03/12 09:59:35","新北市土城區中央路二段191-3號","121.442041666667","24.9753","6501300","土城區"
"242030","135-UY","2018/03/12 09:59:22","新北市新莊區中正路506號","121.435746666667","25.032935","6500500","新莊區"
"242001","349-TH","2018/03/12 09:59:33","新北市八里區中山路三段386號","121.368443333333","25.1359","6500500","新莊區"
