"lineid","car","time","location","longitude","latitude","cityid","cityname"
"248005","653-BX","2018/03/12 10:19:20","新北市五股區中興路二段63巷17號","121.460196666667","25.0753783333333","6501500","五股區"
"244022","483-VK","2018/03/12 10:19:37","新北市林口區仁愛路二段700號","121.369198333333","25.0810366666667","6501700","林口區"
"231007","189-VK","2018/03/12 10:19:37","新北市新店區新潭路三段215巷25號","121.508168333333","24.90406","6500600","新店區"
"231008","192-VK","2018/03/12 10:19:23","新北市新店區松林路16巷41號","121.546295","24.9074166666667","6500600","新店區"
"235057","801-TS","2018/03/12 09:59:57","新北市中和區員山路36巷16-3號","121.48498","24.991635","6500300","中和區"
"247024","335-TH","2018/03/12 10:19:30","新北市蘆洲區永安南路二段132-1號","121.462455","25.0786283333333","6501400","蘆洲區"
"223005","677-TV","2018/03/12 10:19:26","新北市石碇區小粗坑(潭邊里)9-2號","121.678645","24.9857066666667","6501900","石碇區"
"227005","282-VK","2018/03/12 10:07:20","新北市雙溪區泰平里灣潭路36號","121.812955","24.929145","6502500","雙溪區"
"252006","AAC-283","2018/03/12 10:19:18","新北市三芝區新庄里番社后13號","121.496145","25.2678283333333","6502100","三芝區"
"237001","159-UY","2018/03/12 10:19:36","新北市三峽區國際一街39號","121.372983333333","24.9419166666667","6500900","三峽區"
