"lineid","car","time","location","longitude","latitude","cityid","cityname"
"248005","653-BX","2018/03/12 10:29:20","新北市五股區中興路二段83巷26-6號","121.45988","25.07505","6501500","五股區"
"244022","483-VK","2018/03/12 10:29:17","新北市林口區文化北路二段388號","121.375335","25.088895","6501700","林口區"
"231007","189-VK","2018/03/12 10:29:37","新北市新店區小坑三路51-1號","121.516088333333","24.9089266666667","6500600","新店區"
"231008","192-VK","2018/03/12 10:28:43","新北市新店區成功路45-1號","121.539606666667","24.899135","6500600","新店區"
"247024","335-TH","2018/03/12 10:29:30","新北市蘆洲區中原路1-2號","121.461695","25.0837166666667","6501400","蘆洲區"
"223005","677-TV","2018/03/12 10:29:26","新北市石碇區小粗坑(潭邊里)9-2號","121.678655","24.9859","6501900","石碇區"
"227005","282-VK","2018/03/12 10:07:20","新北市雙溪區泰平里灣潭路36號","121.812955","24.929145","6502500","雙溪區"
"252006","AAC-283","2018/03/12 10:29:18","新北市三芝區新庄里番社后8-4號","121.502056666667","25.2676783333333","6502100","三芝區"
"237001","159-UY","2018/03/12 10:29:36","新北市三峽區大義路261號","121.377428333333","24.9465983333333","6500900","三峽區"
