"lineid","car","time","location","longitude","latitude","cityid","cityname"
"231007","189-VK","2018/03/12 10:49:33","新北市新店區新潭路二段86號","121.51721","24.9251116666667","6500600","新店區"
"231008","192-VK","2018/03/12 10:47:43","新北市新店區成功路91-1號","121.537748333333","24.895175","6500600","新店區"
"247024","335-TH","2018/03/12 10:49:30","新北市蘆洲區九芎街57號","121.467248333333","25.0787216666667","6501400","蘆洲區"
"227005","282-VK","2018/03/12 10:49:38","新北市雙溪區泰平里泰平63號","121.824533333333","24.9694366666667","6502500","雙溪區"
"237001","159-UY","2018/03/12 10:49:36","新北市三峽區中山路188號","121.363828333333","24.936865","6500900","三峽區"
