"lineid","car","time","location","longitude","latitude","cityid","cityname"
"234005","207-UY","2018/03/12 14:29:23","新北市永和區中正路638號","121.516955","25.0082616666667","6500400","永和區"
"234078","298-R6","2018/03/12 14:29:31","新北市永和區永貞路80號","121.520256666667","25.0050183333333","6500400","永和區"
"234036","336-UY","2018/03/12 14:29:33","新北市永和區環河東路四段38號","121.528746666667","24.9989483333333","6500400","永和區"
"234062","337-UY","2018/03/12 14:29:36","新北市永和區中正路417-1號","121.517116666667","25.0049666666667","6500400","永和區"
"234084","338-UY","2018/03/12 14:29:36","新北市永和區光復街13號","121.516398333333","25.017125","6500400","永和區"
"234028","746-BX","2018/03/12 14:29:24","新北市永和區民權路84號","121.519915","24.9970666666667","6500400","永和區"
"234052","KEA-2590","2018/03/12 14:29:32","新北市永和區環河東路一段42號","121.518698333333","25.0171866666667","6500400","永和區"
"234060","AAD-866","2018/03/12 14:29:27","新北市永和區中正路381號","121.517131666667","25.0036816666667","6500400","永和區"
"234040","862-TW","2018/03/12 14:29:38","新北市永和區自由街39-1號","121.514348333333","25.005975","6500400","永和區"
"234048","863-TW","2018/03/12 14:29:28","新北市永和區環河西路二段103號","121.506436666667","25.0147016666667","6500400","永和區"
"234025","9371-KE","2018/03/12 14:29:30","新北市永和區安樂路50巷1弄1號","121.514778333333","24.9973366666667","6500400","永和區"
"248013","025-BX","2018/03/12 14:29:32","新北市五股區民義路一段161-10號","121.43222","25.08736","6501500","五股區"
"248007","095-VK","2018/03/12 14:29:23","新北市五股區中興路一段95巷9號","121.466605","25.0724583333333","6501500","五股區"
"248019","225-UY","2018/03/12 14:03:01","新北市五股區凌雲路三段57號","121.42532","25.1250166666667","6501500","五股區"
"248011","247-BX","2018/03/12 14:29:33","新北市五股區蓬萊路24號","121.433881666667","25.0799316666667","6501500","五股區"
"248015","261-SL","2018/03/12 14:29:27","新北市五股區凌雲路一段36號","121.451955","25.1007616666667","6501500","五股區"
"248003","677-BX","2018/03/12 14:29:18","新北市五股區五福路45號","121.4332","25.089665","6501500","五股區"
"248001","678-BX","2018/03/12 14:29:26","新北市五股區成泰路三段436號","121.451065","25.099685","6501500","五股區"
"248009","682-TV","2018/03/12 14:29:38","新北市五股區水碓一路23號","121.43061","25.0713033333333","6501500","五股區"
"234072","AAC-211","2018/03/12 14:29:29","新北市永和區竹林路39巷30號","121.51946","25.0149883333333","6500400","永和區"
"234001","AAC-295","2018/03/12 14:29:37","新北市永和區福和路326號","121.515533333333","25.007285","6500400","永和區"
"243004","AAD-798","2018/03/12 14:29:35","新北市泰山區明志路一段517號","121.430563333333","25.0539966666667","6501600","泰山區"
"243003","297-R6","2018/03/12 14:29:28","新北市泰山區貴子路65號","121.430468333333","25.0397166666667","6501600","泰山區"
"243006","421-VK","2018/03/12 14:29:29","新北市泰山區泰林路二段28號","121.436483333333","25.0560333333333","6501600","泰山區"
"243007","539-UM","2018/03/12 14:29:34","新北市泰山區明志路二段129號","121.427753333333","25.0511566666667","6501600","泰山區"
"243002","KEA-2215","2018/03/12 14:29:36","新北市泰山區民生路17巷6號","121.429803333333","25.0522516666667","6501600","泰山區"
"243001","KEA-2216","2018/03/12 14:29:31","新北市泰山區半山雅32號","121.430953333333","25.0675616666667","6501600","泰山區"
"243005","646-TV","2018/03/12 14:29:28","新北市泰山區明志路二段383號","121.425075","25.04377","6501600","泰山區"
"243008","680-BX","2018/03/12 14:29:21","新北市泰山區中山路三段6號","121.42084","25.03224","6501600","泰山區"
"231002","002-UM","2018/03/12 14:29:24","新北市新店區中央路192號","121.53083","24.9748133333333","6500600","新店區"
"231025","0293-UT","2018/03/12 14:29:25","新北市新店區民族路161號","121.537823333333","24.9767516666667","6500600","新店區"
"231028","046-UY","2018/03/12 14:29:23","新北市新店區安康路二段145號","121.5115","24.9600433333333","6500600","新店區"
"231030","047-UY","2018/03/12 14:29:31","新北市新店區安民街65巷15-3號","121.516066666667","24.9667416666667","6500600","新店區"
"231029","106-UY","2018/03/12 14:29:35","新北市新店區安康路二段373號","121.495216666667","24.954665","6500600","新店區"
"231018","107-UY","2018/03/12 14:29:25","新北市新店區中央三街84號","121.525936666667","24.975465","6500600","新店區"
"231011","108-UY","2018/03/12 14:29:35","新北市新店區寶興路60巷1號","121.550166666667","24.9720216666667","6500600","新店區"
"231019","187-VK","2018/03/12 14:29:32","新北市新店區永福路30-1號","121.548818333333","24.9294183333333","6500600","新店區"
"231014","KEA-2219","2018/03/12 14:29:12","新北市新店區北宜路三段251號","121.596051666667","24.9527116666667","6500600","新店區"
"231023","AAD-862","2018/03/12 14:29:26","新北市新店區光明街135號","121.539486666667","24.96196","6500600","新店區"
"231027","3712-VJ","2018/03/12 14:29:30","新北市新店區寶橋路85巷35號","121.545246666667","24.9762333333333","6500600","新店區"
"231024","4716-K9","2018/03/12 14:29:26","新北市新店區新生街43號","121.539216666667","24.9669583333333","6500600","新店區"
"231038","4715-K9","2018/03/12 14:29:29","新北市新店區溪洲路91號","121.533121666667","24.9610816666667","6500600","新店區"
"231036","512-UM","2018/03/12 14:29:30","新北市新店區安祥路109巷85弄24號","121.478198333333","24.9596633333333","6500600","新店區"
"231035","515-UM","2018/03/12 14:29:32","新北市新店區安光路13-1號","121.513375","24.96383","6500600","新店區"
"231001","619-UM","2018/03/12 14:29:32","新北市新店區北新路一段96巷23號","121.543023333333","24.9688","6500600","新店區"
"231003","641-BX","2018/03/12 14:29:26","新北市新店區中興路一段279號","121.5451","24.9683533333333","6500600","新店區"
"231034","645-TV","2018/03/12 14:29:34","新北市新店區黎明路52巷9號","121.502038333333","24.94876","6500600","新店區"
"231013","719-UM","2018/03/12 14:29:29","新北市新店區民權路108-2號","121.536113333333","24.98344","6500600","新店區"
"231031","720-UM","2018/03/12 14:29:26","新北市新店區安業街8巷1號","121.515728333333","24.977415","6500600","新店區"
"231005","897-TW","2018/03/12 14:29:31","新北市新店區中興路三段133號","121.544438333333","24.979385","6500600","新店區"
"231006","898-TW","2018/03/12 14:29:30","新北市新店區北宜路二段419-2號","121.560315","24.954445","6500600","新店區"
"231004","899-TW","2018/03/12 14:29:33","新北市新店區中正路282-11號","121.538461666667","24.97387","6500600","新店區"
"231037","AKT-0513","2018/03/12 14:29:38","新北市新店區安德街60巷5號","121.509898333333","24.962675","6500600","新店區"
"241003","091-VK","2018/03/12 14:29:22","新北市八里區商港路105巷15號","121.389295","25.1476733333333","6500200","三重區"
"235030","003-UY","2018/03/12 14:29:28","新北市中和區景新街69號","121.504825","24.9987733333333","6500300","中和區"
"235028","005-UY","2018/03/12 14:29:35","新北市中和區南華路17-2號","121.502711666667","24.995705","6500300","中和區"
"235027","006-UY","2018/03/12 14:29:35","新北市中和區連城路205號","121.494778333333","24.997765","6500300","中和區"
"235016","031-BX","2018/03/12 14:29:34","新北市中和區華新街143巷19號","121.506638333333","24.9809516666667","6500300","中和區"
"235020","096-UM","2018/03/12 14:29:35","新北市中和區民富街86號","121.476525","25.00818","6500300","中和區"
"235003","097-UM","2018/03/12 14:29:18","新北市中和區秀峰街103巷3弄2號","121.520458333333","24.9899033333333","6500300","中和區"
"235029","098-UM","2018/03/12 14:29:20","新北市中和區永和路52號","121.499221666667","25.0040416666667","6500300","中和區"
"235004","150-BY","2018/03/12 14:29:30","新北市中和區安樂路85號","121.512896666667","24.99443","6500300","中和區"
"235022","151-BY","2018/03/12 14:29:37","新北市中和區連城路318號","121.483408333333","24.9960616666667","6500300","中和區"
"235019","183-VK","2018/03/12 14:29:30","新北市中和區德光路27巷11號","121.471003333333","25.0035716666667","6500300","中和區"
"235002","185-VK","2018/03/12 14:29:38","新北市中和區自立路35號","121.52213","24.9954516666667","6500300","中和區"
"235013","186-VK","2018/03/12 14:29:42","新北市中和區景新街285號","121.509846666667","24.9934983333333","6500300","中和區"
"235031","255-BX","2018/03/12 14:29:32","新北市中和區連城路332號","121.483161666667","24.995895","6500300","中和區"
"235008","293-VK","2018/03/12 14:29:33","新北市中和區景安路194號","121.504355","24.9915916666667","6500300","中和區"
"235036","301-VK","2018/03/12 14:29:33","新北市中和區連城路87號","121.496716666667","25.0003666666667","6500300","中和區"
"235007","352-BY","2018/03/12 14:29:21","新北市中和區景平路322號","121.512216666667","24.9927016666667","6500300","中和區"
"235032","377-QA","2018/03/12 14:29:29","新北市中和區中山路二段136巷3弄4號","121.501463333333","25.0036633333333","6500300","中和區"
"235025","378-QA","2018/03/12 14:29:34","新北市中和區員山路325-5號","121.481045","25.0010566666667","6500300","中和區"
"235035","269-TV","2018/03/12 14:29:22","新北市中和區中正路762號","121.485641666667","24.9994133333333","6500300","中和區"
"235014","4979-A6","2018/03/12 14:29:27","新北市中和區中正路571巷1弄4號","121.486956666667","24.99379","6500300","中和區"
"235006","551-UM","2018/03/12 14:29:22","新北市中和區中和路378巷14弄1號","121.511368333333","25.0016666666667","6500300","中和區"
"235034","558-UM","2018/03/12 14:29:37","新北市中和區南山路59號","121.502091666667","24.9983166666667","6500300","中和區"
"235009","565-BX","2018/03/12 14:29:39","新北市中和區景新街475號","121.513475","24.9877483333333","6500300","中和區"
"235018","640-BX","2018/03/12 14:29:34","新北市中和區國光街112巷16弄2號","121.469865","25.0013633333333","6500300","中和區"
"235024","647-TV","2018/03/12 14:29:39","新北市中和區新生街114巷12號","121.482923333333","25.0023766666667","6500300","中和區"
"235011","732-UM","2018/03/12 14:29:35","新北市中和區景平路259巷18號","121.50784","24.992755","6500300","中和區"
"235010","733-UM","2018/03/12 14:29:29","新北市中和區忠孝街37巷52號","121.511156666667","24.984925","6500300","中和區"
"235026","800-TS","2018/03/12 14:29:36","新北市中和區中山路二段488-1號","121.487481666667","25.004855","6500300","中和區"
"235021","801-TS","2018/03/12 14:29:38","新北市中和區員山路469巷1號","121.480395","25.0046383333333","6500300","中和區"
"235005","802-TS","2018/03/12 14:29:34","新北市中和區宜安路157號","121.508951666667","24.9988","6500300","中和區"
"235012","896-TW","2018/03/12 14:29:40","新北市中和區忠孝街54號","121.511381666667","24.9836233333333","6500300","中和區"
"235017","900-TW","2018/03/12 14:29:36","新北市中和區華順街30巷3號","121.467043333333","24.9989883333333","6500300","中和區"
"235015","157-BY","2018/03/12 14:29:32","新北市中和區南山路146巷5號","121.5035","24.992415","6500300","中和區"
"235023","AAC-215","2018/03/12 14:29:21","新北市中和區圓通路252巷6號","121.493016666667","24.991695","6500300","中和區"
"220016","013-TV","2018/03/12 14:29:34","新北市板橋區中山路二段591-3號","121.484763333333","25.0221333333333","6500100","板橋區"
"220013","072-UY","2018/03/12 14:29:36","新北市板橋區國泰街39巷6弄30號","121.467846666667","25.0055733333333","6500100","板橋區"
"220034","073-UY","2018/03/12 14:29:36","新北市板橋區中正路216巷133號","121.460465","25.0195633333333","6500100","板橋區"
"220017","AAD-861","2018/03/12 14:29:39","新北市板橋區貴興路37號","121.45753","25.0038616666667","6500100","板橋區"
"247023","893-R6","2018/03/12 14:29:39","新北市蘆洲區中正路261號","121.467391666667","25.0873366666667","6501400","蘆洲區"
"247013","546-UM","2018/03/12 14:29:39","新北市蘆洲區中山二路170號","121.47076","25.0807566666667","6501400","蘆洲區"
"247021","500-BY","2018/03/12 14:29:25","新北市蘆洲區水湳街38號","121.470815","25.08964","6501400","蘆洲區"
"247009","341-TH","2018/03/12 14:29:32","新北市蘆洲區鷺江街20號","121.478358333333","25.0824966666667","6501400","蘆洲區"
"247011","339-TH","2018/03/12 14:29:30","新北市蘆洲區復興路167號","121.478365","25.08908","6501400","蘆洲區"
"247003","337-TH","2018/03/12 14:29:31","新北市蘆洲區長安街194巷17號","121.459776666667","25.0845733333333","6501400","蘆洲區"
"247005","336-TH","2018/03/12 14:29:32","新北市蘆洲區中華街56號","121.461673333333","25.0801033333333","6501400","蘆洲區"
"247017","057-VK","2018/03/12 14:29:31","新北市蘆洲區民族路300號","121.477625","25.0898716666667","6501400","蘆洲區"
"247007","056-VK","2018/03/12 14:29:34","新北市蘆洲區信義路74號","121.47624","25.0793333333333","6501400","蘆洲區"
"247019","053-VK","2018/03/12 14:29:25","新北市蘆洲區仁愛街101巷10號","121.470661666667","25.0940616666667","6501400","蘆洲區"
"247015","007-UY","2018/03/12 14:29:35","新北市蘆洲區中正路185巷62號","121.466585","25.084805","6501400","蘆洲區"
"247001","002-UY","2018/03/12 14:29:21","新北市蘆洲區永樂街38巷33弄60號","121.456381666667","25.09006","6501400","蘆洲區"
"253003","6232-TK","2018/03/12 14:29:26","新北市石門區內石門70號","121.581563333333","25.2572133333333","6502200","石門區"
"253001","6251-TK","2018/03/12 14:29:37","新北市石門區八甲13-2號","121.52256","25.2804566666667","6502200","石門區"
"253002","637-UY","2018/03/12 14:29:33","新北市石門區七股4-2號","121.547015","25.27398","6502200","石門區"
"253004","8270-PC","2018/03/12 14:29:26","新北市石門區內阿里磅1號","121.59191","25.254295","6502200","石門區"
"207002","749-BX","2018/03/12 14:29:18","新北市萬里區溪底里溪底路13號","121.614858333333","25.14923","6502800","萬里區"
"207003","550-UM","2018/03/12 14:29:39","新北市萬里區萬里里景美路11號","121.684996666667","25.17294","6502800","萬里區"
"207001","662-BX","2018/03/12 14:29:21","新北市萬里區磺潭里清水5-1號","121.641028333333","25.200415","6502800","萬里區"
"252005","AAC-283","2018/03/12 14:29:35","新北市三芝區茂長里陳厝坑17-5號","121.52038","25.2567683333333","6502100","三芝區"
"236064","105-UM","2018/03/12 14:26:50","新北市土城區永豐路171號","121.469358333333","24.9792383333333","6501300","土城區"
"236040","107-UM","2018/03/12 14:29:34","新北市土城區學成路97巷18號","121.449958333333","24.98808","6501300","土城區"
"236074","166-UM","2018/03/12 14:29:35","新北市土城區中央路四段45-1號","121.42241","24.96188","6501300","土城區"
"236028","253-BX","2018/03/12 14:29:25","新北市土城區水源街81巷4號","121.439515","24.97633","6501300","土城區"
"236024","269-VK","2018/03/12 14:29:34","新北市土城區承天路65號","121.439473333333","24.9636966666667","6501300","土城區"
"236012","270-VK","2018/03/12 14:29:25","新北市土城區青雲路39巷7號","121.46036","24.9875616666667","6501300","土城區"
"236032","271-VK","2018/03/12 14:29:31","新北市土城區青雲路449-1號","121.458853333333","24.9746633333333","6501300","土城區"
"236016","401-BY","2018/03/12 14:29:37","新北市土城區永豐路135巷1號","121.466661666667","24.9834266666667","6501300","土城區"
"236005","498-BY","2018/03/12 14:29:24","新北市土城區日新街45號","121.442766666667","24.98862","6501300","土城區"
"236056","912-UM","2018/03/12 14:29:27","新北市土城區中央路四段207號","121.413986666667","24.955975","6501300","土城區"
"236044","913-UM","2018/03/12 14:29:39","新北市土城區青雲路457號","121.45872","24.9744483333333","6501300","土城區"
"236060","915-UM","2018/03/12 14:29:28","新北市土城區延壽路109巷2號","121.46917","24.99349","6501300","土城區"
"236052","AAC-216","2018/03/12 14:29:24","新北市土城區中華路二段1號","121.439731666667","24.97924","6501300","土城區"
"221032","280-BY","2018/03/12 14:29:27","新北市新店區寶高路120巷7弄16號","121.555768333333","24.9746816666667","6501100","汐止區"
"220027","145-BY","2018/03/12 14:29:39","新北市板橋區民權路202巷15弄26號","121.459673333333","25.0161833333333","6500100","板橋區"
"220028","200-UY","2018/03/12 14:29:37","新北市板橋區大觀路二段37巷300號","121.450146666667","25.0021016666667","6500100","板橋區"
"220105","KEA-2550","2018/03/12 14:29:28","新北市板橋區文化路二段441巷6-1號","121.474455","25.0337","6500100","板橋區"
"220030","610-BX","2018/03/12 14:29:22","新北市板橋區金門街262號","121.429998333333","24.9865966666667","6500100","板橋區"
"220050","245-BX","2018/03/12 14:29:28","新北市板橋區縣民大道三段127巷22號","121.476911666667","25.0235883333333","6500100","板橋區"
"220045","267-BY","2018/03/12 14:09:22","新北市板橋區溪城路90-2號","121.429061666667","24.980315","6500100","板橋區"
"220004","276-BY","2018/03/12 14:29:41","新北市板橋區國慶路27號","121.458791666667","24.9957166666667","6500100","板橋區"
"220020","277-BY","2018/03/12 14:29:40","新北市板橋區篤行路二段161巷22-2號","121.429966666667","24.9873016666667","6500100","板橋區"
"220043","280-UM","2018/03/12 14:29:28","新北市板橋區雙十路三段22-1號","121.471276666667","25.03064","6500100","板橋區"
"220019","283-VK","2018/03/12 14:29:37","新北市板橋區四川路一段325巷16號","121.45907","25.0002916666667","6500100","板橋區"
"220001","285-VK","2018/03/12 14:29:32","新北市板橋區富山街71巷8-3號","121.4767","25.0215716666667","6500100","板橋區"
"220031","286-VK","2018/03/12 14:29:26","新北市板橋區龍興街71巷8號","121.443435","25.002055","6500100","板橋區"
"220029","287-VK","2018/03/12 14:29:37","新北市板橋區大觀路一段75巷37號","121.44889","25.004235","6500100","板橋區"
"220039","288-VK","2018/03/12 14:29:38","新北市板橋區長江路一段106巷12弄2號","121.459878333333","25.0290166666667","6500100","板橋區"
"220009","293-UM","2018/03/12 14:29:22","新北市板橋區中山路一段275號","121.469085","25.0135616666667","6500100","板橋區"
"220010","295-UM","2018/03/12 14:29:37","新北市板橋區三民路二段181巷9號","121.47998","25.0144116666667","6500100","板橋區"
"220032","296-UM","2018/03/12 14:29:33","新北市板橋區滿平街84巷100弄5號","121.426253333333","24.9863933333333","6500100","板橋區"
"220023","303-R5","2018/03/12 14:29:25","新北市板橋區南雅西路一段122號","121.452498333333","25.0064716666667","6500100","板橋區"
"220041","307-R5","2018/03/12 14:29:38","新北市板橋區光武街2巷43號","121.46833","25.0259416666667","6500100","板橋區"
"220047","317-R6","2018/03/12 14:29:36","新北市板橋區民生路三段263巷4弄2號","121.463793333333","25.029685","6500100","板橋區"
"220012","486-VK","2018/03/12 14:29:30","新北市板橋區重慶路13巷3號","121.460865","25.0083466666667","6500100","板橋區"
"220038","487-VK","2018/03/12 14:29:37","新北市板橋區文化路一段61號","121.460833333333","25.0135633333333","6500100","板橋區"
"220037","491-VK","2018/03/12 14:29:28","新北市板橋區雙十路二段110號","121.474438333333","25.0286366666667","6500100","板橋區"
"220104","560-BX","2018/03/12 14:29:36","新北市板橋區中正路413巷10號","121.453605","25.02272","6500100","板橋區"
"220052","561-BX","2018/03/12 14:29:23","新北市板橋區文化路一段270巷2號","121.467431666667","25.020575","6500100","板橋區"
"220011","609-BX","2018/03/12 14:29:38","新北市板橋區三民路二段241號","121.478981666667","25.012545","6500100","板橋區"
"220040","637-BX","2018/03/12 14:29:20","新北市板橋區文聖街149巷18號","121.479251666667","25.0284116666667","6500100","板橋區"
"220005","686-BX","2018/03/12 14:29:16","新北市板橋區五權街16-3號","121.464353333333","24.9939616666667","6500100","板橋區"
"220025","687-BX","2018/03/12 14:29:35","新北市板橋區大觀路一段28巷28號","121.449958333333","25.0094566666667","6500100","板橋區"
"220042","689-BX","2018/03/12 14:29:28","新北市板橋區雨農路32號","121.461121666667","25.0244516666667","6500100","板橋區"
"220002","741-BX","2018/03/12 14:29:34","新北市板橋區光明街142號","121.463978333333","25.0031383333333","6500100","板橋區"
"220051","KEA-2699","2018/03/12 14:29:38","新北市板橋區松柏街22巷36號","121.475053333333","25.0289283333333","6500100","板橋區"
"220003","827-TW","2018/03/12 14:29:36","新北市板橋區重慶路278巷2-3號","121.462746666667","24.9997083333333","6500100","板橋區"
"220014","830-TW","2018/03/12 14:29:39","新北市板橋區漢生東路313巷2弄38號","121.472451666667","25.0077616666667","6500100","板橋區"
"220045","831-TW","2018/03/12 14:29:23","新北市板橋區大同街35巷28號","121.477405","25.027845","6500100","板橋區"
"220022","895-R6","2018/03/12 14:29:34","新北市板橋區大東街34號","121.456545","25.0087833333333","6500100","板橋區"
"220021","985-R7","2018/03/12 14:29:29","新北市板橋區新生街16號","121.4556","25.021125","6500100","板橋區"
"220046","AAC-210","2018/03/12 14:29:36","新北市板橋區陽明街29巷45號","121.463178333333","25.022695","6500100","板橋區"
"220018","AAC-253","2018/03/12 14:29:37","新北市板橋區四川路一段107號","121.459751666667","25.0052633333333","6500100","板橋區"
