"lineid","car","time","location","longitude","latitude","cityid","cityname"
"243016","680-BX","2018/03/12 16:00:35","新北市泰山區犁頭窠3-1號","121.422248333333","25.0603183333333","6501600","泰山區"
"231018","107-UY","2018/03/12 16:09:25","新北市新店區中正路694巷15號","121.535331666667","24.9909033333333","6500600","新店區"
"231046","278-BY","2018/03/12 16:09:28","新北市新店區灣潭路2-22號","121.534966666667","24.9472583333333","6500600","新店區"
"231034","645-TV","2018/03/12 16:09:31","新北市新店區如意街39號","121.493686666667","24.9483033333333","6500600","新店區"
"241011","013-R5","2018/03/12 16:09:28","新北市三重區正義北路378號","121.493483333333","25.071555","6500200","三重區"
"241028","022-UY","2018/03/12 16:09:38","新北市三重區正義南路107號","121.498183333333","25.0585666666667","6500200","三重區"
"241008","059-VK","2018/03/12 16:09:20","新北市三重區力行路二段2號","121.481963333333","25.07197","6500200","三重區"
"241015","062-VK","2018/03/12 16:09:21","新北市三重區福德南路65巷2號","121.502558333333","25.0604183333333","6500200","三重區"
"241017","063-VK","2018/03/12 16:09:31","新北市三重區大同北路148巷47號","121.490863333333","25.0648566666667","6500200","三重區"
"241024","065-VK","2018/03/12 16:09:23","新北市三重區力行路一段38巷4號","121.486113333333","25.0677333333333","6500200","三重區"
"241026","066-VK","2018/03/12 16:09:38","新北市三重區正義南路17號","121.497685","25.0614983333333","6500200","三重區"
"241003","091-VK","2018/03/12 16:09:22","新北市三重區仁義街241巷10號","121.496491666667","25.0829783333333","6500200","三重區"
"241031","156-TC","2018/03/12 16:09:32","新北市三重區重新路四段121號","121.484795","25.052005","6500200","三重區"
"241005","262-UM","2018/03/12 16:09:31","新北市三重區溪尾街300-2號","121.487425","25.0837533333333","6500200","三重區"
"241016","265-UM","2018/03/12 16:09:28","新北市三重區重新路三段45-1號","121.493088333333","25.0612666666667","6500200","三重區"
"241022","267-UM","2018/03/12 16:09:36","新北市三重區中正北路174-2號","121.48368","25.066645","6500200","三重區"
"241018","268-UM","2018/03/12 16:09:31","新北市三重區明志街89號","121.490676666667","25.0636966666667","6500200","三重區"
"241013","270-UM","2018/03/12 16:09:28","新北市三重區安樂街6號","121.49699","25.0697616666667","6500200","三重區"
"241025","271-UM","2018/03/12 16:09:22","新北市三重區忠孝路三段40巷10號","121.48202","25.0663316666667","6500200","三重區"
"241007","398-BY","2018/03/12 16:09:37","新北市三重區慈愛街8號","121.484471666667","25.0784366666667","6500200","三重區"
"241020","413-TH","2018/03/12 16:09:31","新北市三重區大勇街2號","121.48357","25.0712633333333","6500200","三重區"
"241001","478-VK","2018/03/12 16:09:18","新北市三重區自強路三段15號","121.487086666667","25.072075","6500200","三重區"
"241030","480-VK","2018/03/12 16:09:40","新北市三重區重新路四段121號","121.484563333333","25.0522883333333","6500200","三重區"
"241014","543-UM","2018/03/12 16:09:18","新北市三重區福德南路65巷2號","121.502666666667","25.0604483333333","6500200","三重區"
"241023","545-UM","2018/03/12 16:09:24","新北市三重區力行路一段155-1號","121.484826666667","25.06902","6500200","三重區"
"241019","KEA-2593","2018/03/12 16:09:29","新北市三重區重陽路三段182號","121.490098333333","25.0681616666667","6500200","三重區"
"241006","AAD-863","2018/03/12 16:09:31","新北市三重區永福街58巷3弄20號","121.480628333333","25.0773666666667","6500200","三重區"
"241002","887-TS","2018/03/12 16:09:18","新北市三重區仁義街101巷2號","121.497743333333","25.0800366666667","6500200","三重區"
"241012","941-UM","2018/03/12 16:09:24","新北市三重區文化北路132巷27號","121.497835","25.066645","6500200","三重區"
"241029","942-UM","2018/03/12 16:09:30","新北市三重區同安街49號","121.495508333333","25.0566916666667","6500200","三重區"
"241033","AAC-255","2018/03/12 16:09:36","新北市三重區五谷王南街50-1號","121.473698333333","25.0445816666667","6500200","三重區"
"235046","733-UM","2018/03/12 15:41:34","新北市中和區員山路36巷13號","121.484188333333","24.990865","6500300","中和區"
"235026","800-TS","2018/03/12 16:09:36","新北市中和區永和路171巷1弄12號","121.493063333333","25.0068033333333","6500300","中和區"
"247004","337-TH","2018/03/12 16:09:30","新北市五股區中興路三段2巷10號","121.449428333333","25.0811383333333","6501400","蘆洲區"
"247006","336-TH","2018/03/12 15:47:29","新北市五股區中興路三段2巷10號","121.449216666667","25.081095","6501400","蘆洲區"
"224007","275-VK","2018/03/12 16:09:30","新北市瑞芳區粗坑口路66號","121.761255","25.0989883333333","6501200","瑞芳區"
"227008","642-TC","2018/03/12 16:09:30","新北市雙溪區三港里雙澳路75號","121.883101666667","25.0542333333333","6502500","雙溪區"
"227001","400-TW","2018/03/12 16:09:38","新北市雙溪區上林里內平林47號","121.83329","25.03044","6502500","雙溪區"
"251013","179-VK","2018/03/12 16:09:19","新北市淡水區中山北路三段138號","121.444713333333","25.195175","6501000","淡水區"
"251008","181-VK","2018/03/12 16:09:38","新北市淡水區真理街1號","121.438233333333","25.1729666666667","6501000","淡水區"
"236024","752-BX","2018/03/12 16:09:19","新北市土城區裕生路67巷8弄7號","121.448126666667","24.9840966666667","6501300","土城區"
"236056","912-UM","2018/03/12 16:09:27","新北市土城區中央路三段62號","121.436703333333","24.9673666666667","6501300","土城區"
"238002","755-BX","2018/03/12 16:09:35","新北市樹林區大安路323巷10弄16號","121.417196666667","24.9910266666667","6500700","樹林區"
"238010","601-UM","2018/03/12 16:09:38","新北市樹林區福興街17號","121.404423333333","25.0162333333333","6500700","樹林區"
"238006","599-UM","2018/03/12 16:09:20","新北市樹林區中山路二段111號","121.410676666667","24.9811316666667","6500700","樹林區"
"238005","571-TV","2018/03/12 16:09:25","新北市樹林區博愛街107號","121.426543333333","24.9912433333333","6500700","樹林區"
"238011","5061-A6","2018/03/12 16:09:38","新北市樹林區育德街76巷1號","121.388703333333","24.9682316666667","6500700","樹林區"
"238008","KEA-2217","2018/03/12 16:09:23","新北市樹林區佳園路二段30-1號","121.391118333333","24.9627933333333","6500700","樹林區"
"238009","KEA-2213","2018/03/12 16:09:33","新北市樹林區八德街321-1號","121.419555","24.97376","6500700","樹林區"
"238004","283-BY","2018/03/12 16:09:37","新北市樹林區中正路433-2號","121.414791666667","25.0082766666667","6500700","樹林區"
"238001","282-BY","2018/03/12 16:09:29","新北市樹林區千歲街134巷7號","121.42769","24.99855","6500700","樹林區"
"238007","268-VK","2018/03/12 16:07:19","新北市樹林區俊興街298號","121.418536666667","25.017995","6500700","樹林區"
"238013","172-UY","2018/03/12 16:09:40","新北市樹林區佳園路一段41巷38-11號","121.395535","24.9706283333333","6500700","樹林區"
"238003","169-UY","2018/03/12 16:09:23","新北市樹林區中山路一段264號","121.420613333333","24.9873166666667","6500700","樹林區"
