"lineid","car","time","location","longitude","latitude","cityid","cityname"
"234026","9371-KE","2018/03/12 17:39:26","新北市永和區中正路730號","121.515576666667","25.01011","6500400","永和區"
"249005","172-UM","2018/03/12 17:39:47","新北市八里區荖阡坑路34號","121.402736666667","25.12978","6502300","八里區"
"249001","173-UM","2018/03/12 17:39:43","新北市八里區龍米路二段168號","121.434698333333","25.1580433333333","6502300","八里區"
"249004","303-UY","2018/03/12 17:39:40","新北市八里區賢二街37號","121.41896","25.1578216666667","6502300","八里區"
"249002","305-UY","2018/03/12 17:39:31","新北市八里區頂寮二街121巷16號","121.446411666667","25.1282583333333","6502300","八里區"
"232011","375-UM","2018/03/12 17:39:36","新北市坪林區北宜路八段301號","121.710906666667","24.9345333333333","6502000","坪林區"
"244013","069-UM","2018/03/12 17:39:26","新北市林口區中正路555號","121.381131666667","25.0768966666667","6501700","林口區"
"244007","080-UY","2018/03/12 17:39:35","新北市林口區林口路272巷13號","121.386483333333","25.08474","6501700","林口區"
"244019","402-UM","2018/03/12 17:39:29","新北市林口區忠孝路533號","121.371885","25.06925","6501700","林口區"
"244025","742-UY","2018/03/12 17:39:44","新北市林口區文化二路一段289-5號","121.367466666667","25.071885","6501700","林口區"
"244023","483-VK","2018/03/12 17:39:32","新北市林口區東明一街95巷20號","121.391306666667","25.0705216666667","6501700","林口區"
"244009","656-BX","2018/03/12 17:39:38","新北市林口區中北三街350號","121.383315","25.08447","6501700","林口區"
"244011","701-TV","2018/03/12 17:39:30","新北市林口區佳林路148號","121.384205","25.0771283333333","6501700","林口區"
"244021","838-TS","2018/03/12 17:39:28","新北市林口區仁愛路一段18號","121.397691666667","25.0752933333333","6501700","林口區"
"221015","KEA-2785","2018/03/12 17:39:34","新北市汐止區康寧街901號","121.65104","25.0751816666667","6501100","汐止區"
"231046","278-BY","2018/03/12 17:39:28","新北市新店區直潭路92號","121.530938333333","24.9376683333333","6500600","新店區"
"231056","3713-VJ","2018/03/12 17:36:50","新北市新店區安華路28-1號","121.519358333333","24.960665","6500600","新店區"
"241011","013-R5","2018/03/12 17:39:28","新北市三重區龍濱路285號","121.501045","25.0734033333333","6500200","三重區"
"241024","065-VK","2018/03/12 17:39:23","新北市三重區車路頭街36號","121.483883333333","25.0716783333333","6500200","三重區"
"241005","262-UM","2018/03/12 17:39:31","新北市三重區碧華街378號","121.490993333333","25.0843266666667","6500200","三重區"
"241016","265-UM","2018/03/12 17:39:40","新北市三重區正義北路3號","121.497866666667","25.0627483333333","6500200","三重區"
"241007","398-BY","2018/03/12 17:39:37","新北市三重區國道路一段68號","121.480686666667","25.072965","6500200","三重區"
"241014","543-UM","2018/03/12 17:39:40","新北市三重區龍濱路19號","121.503015","25.067855","6500200","三重區"
"241023","545-UM","2018/03/12 17:39:44","新北市三重區中華路121號","121.483643333333","25.063755","6500200","三重區"
"241002","887-TS","2018/03/12 17:39:38","新北市三重區自強路五段66-1號","121.496025","25.0826866666667","6500200","三重區"
"241012","941-UM","2018/03/12 17:39:44","新北市三重區河邊北街307號","121.502461666667","25.0747233333333","6500200","三重區"
"241033","AAC-255","2018/03/12 17:39:36","新北市三重區光復路一段138-1號","121.472096666667","25.0529983333333","6500200","三重區"
"235061","378-QA","2018/03/12 17:30:52","新北市中和區員山路36巷13號","121.484436666667","24.991185","6500300","中和區"
"235062","800-TS","2018/03/12 17:39:18","新北市中和區員山路36巷16-2號","121.485396666667","24.9909933333333","6500300","中和區"
"247024","893-R6","2018/03/12 17:39:33","新北市蘆洲區長樂路159號","121.462083333333","25.0881016666667","6501400","蘆洲區"
"247014","546-UM","2018/03/12 17:39:39","新北市蘆洲區中山二路130號","121.47168","25.08177","6501400","蘆洲區"
"247022","500-BY","2018/03/12 17:39:40","新北市蘆洲區三民路279號","121.467303333333","25.0896816666667","6501400","蘆洲區"
"247010","341-TH","2018/03/12 17:39:32","新北市蘆洲區中山一路72號","121.478851666667","25.0812583333333","6501400","蘆洲區"
"247012","339-TH","2018/03/12 17:39:44","新北市蘆洲區民權路3巷2號","121.476331666667","25.085595","6501400","蘆洲區"
"247004","337-TH","2018/03/12 17:14:42","新北市五股區中興路三段2巷10號","121.449308333333","25.0809866666667","6501400","蘆洲區"
"247006","336-TH","2018/03/12 17:39:34","新北市蘆洲區長安街23巷15號","121.463631666667","25.0785416666667","6501400","蘆洲區"
"247018","057-VK","2018/03/12 17:39:11","新北市蘆洲區民權路61巷4弄2號","121.473598333333","25.08792","6501400","蘆洲區"
"247008","056-VK","2018/03/12 17:39:29","新北市蘆洲區民生街123號","121.472801666667","25.0789466666667","6501400","蘆洲區"
"247020","053-VK","2018/03/12 17:39:30","新北市蘆洲區民族路349號","121.472346666667","25.091805","6501400","蘆洲區"
"247016","007-UY","2018/03/12 17:39:29","新北市蘆洲區光華路46巷4號","121.468686666667","25.0833366666667","6501400","蘆洲區"
"247002","002-UY","2018/03/12 17:39:42","新北市蘆洲區環堤大道212號","121.457506666667","25.0919333333333","6501400","蘆洲區"
"228003","097-TW","2018/03/12 17:39:35","新北市貢寮區仁理村仁和路23號","121.923851666667","25.0536116666667","6502600","貢寮區"
"228002","585-TW","2018/03/12 17:39:23","新北市貢寮區福隆里龜壽谷街26號","121.952593333333","25.00883","6502600","貢寮區"
"228001","670-TC","2018/03/12 17:39:38","新北市貢寮區仁理村仁愛路95-1號","121.927673333333","25.0554416666667","6502600","貢寮區"
"224010","AGQ-8101","2018/03/12 17:39:11","新北市瑞芳區岳王路68號","121.809468333333","25.11124","6501200","瑞芳區"
"224006","676-BX","2018/03/12 17:39:34","新北市瑞芳區傑魚坑路52號","121.793666666667","25.1105983333333","6501200","瑞芳區"
"224008","285-BY","2018/03/12 17:39:32","新北市瑞芳區瑞柑新村60號","121.827891666667","25.1069166666667","6501200","瑞芳區"
"224009","273-VK","2018/03/12 17:39:42","新北市瑞芳區崙頂路3號","121.846558333333","25.1068283333333","6501200","瑞芳區"
"224005","271-BY","2018/03/12 17:39:36","新北市瑞芳區海濱路67號","121.831435","25.1244766666667","6501200","瑞芳區"
"227001","400-TW","2018/03/12 17:39:38","新北市雙溪區三貂里政光路3-1號","121.851116666667","25.0632783333333","6502500","雙溪區"
"251009","008-UM","2018/03/12 17:39:35","新北市淡水區中正路39號","121.442146666667","25.1695733333333","6501000","淡水區"
"251004","009-UM","2018/03/12 17:39:24","新北市淡水區中正東路二段88巷37-23號","121.459396666667","25.1436366666667","6501000","淡水區"
"251005","010-UM","2018/03/12 17:39:30","新北市淡水區鄧公路33巷7號","121.451753333333","25.1710433333333","6501000","淡水區"
"251001","011-UM","2018/03/12 17:39:27","新北市淡水區民權路92巷35-1號","121.462218333333","25.1266566666667","6501000","淡水區"
"251002","012-UM","2018/03/12 17:39:45","新北市淡水區中山路151號","121.440643333333","25.1723733333333","6501000","淡水區"
"251013","179-VK","2018/03/12 17:39:39","新北市淡水區演戲埔腳2號","121.475186666667","25.192645","6501000","淡水區"
"251014","180-VK","2018/03/12 17:39:29","新北市淡水區公埔子16-6號","121.481023333333","25.2246016666667","6501000","淡水區"
"251008","181-VK","2018/03/12 17:39:38","新北市淡水區八勢路6號","121.462483333333","25.15035","6501000","淡水區"
"251015","182-VK","2018/03/12 17:39:33","新北市淡水區樹林口7-1號","121.479406666667","25.1671366666667","6501000","淡水區"
"251010","413-VK","2018/03/12 17:39:41","新北市淡水區淡海路276號","121.419803333333","25.188435","6501000","淡水區"
"251012","441-VK","2018/03/12 17:39:42","新北市淡水區北新路200巷8號","121.451726666667","25.1797766666667","6501000","淡水區"
"251016","442-VK","2018/03/12 17:39:44","新北市淡水區埤島75號","121.454168333333","25.19453","6501000","淡水區"
"251006","561-UM","2018/03/12 17:39:37","新北市淡水區大信街1號","121.441445","25.1764433333333","6501000","淡水區"
"251007","577-R6","2018/03/12 17:39:26","新北市淡水區民生路124巷4弄4號","121.463641666667","25.1380483333333","6501000","淡水區"
"251011","650-BX","2018/03/12 17:39:36","新北市淡水區小坪頂13-3號","121.486625","25.1561933333333","6501000","淡水區"
"251003","766-UM","2018/03/12 17:39:31","新北市淡水區中山北路一段64號","121.442026666667","25.1757983333333","6501000","淡水區"
"207003","550-UM","2018/03/12 17:39:31","新北市萬里區龜吼里漁澳路25-1號","121.686228333333","25.194735","6502800","萬里區"
"207004","225-TW","2018/03/12 17:39:27","新北市萬里區中幅里中福路8-1號","121.685826666667","25.1648983333333","6502800","萬里區"
"252002","178-VK","2018/03/12 17:39:42","新北市三芝區中正路二段22號","121.504383333333","25.2552516666667","6502100","三芝區"
"252001","292-VK","2018/03/12 17:39:30","新北市三芝區淡金路一段83號","121.50207","25.2588366666667","6502100","三芝區"
"237004","KEA-2597","2018/03/12 17:39:22","新北市三峽區中山路459巷163-3號","121.349101666667","24.9333","6500900","三峽區"
"237013","252-BX","2018/03/12 17:39:26","新北市三峽區中華路8-1號","121.37497","24.9329883333333","6500900","三峽區"
"237014","433-BY","2018/03/12 17:39:32","新北市三峽區中山路242號","121.362375","24.9374933333333","6500900","三峽區"
"237006","5529-G3","2018/03/12 17:39:39","新北市三峽區介壽路一段552巷17號","121.387681666667","24.9323983333333","6500900","三峽區"
"237011","KEA-2596","2018/03/12 17:39:30","新北市三峽區中山路98號","121.36646","24.935445","6500900","三峽區"
"237010","706-TV","2018/03/12 17:39:41","新北市三峽區中山路128號","121.365513333333","24.9361","6500900","三峽區"
"236042","107-UM","2018/03/12 17:39:23","新北市土城區城林路6巷80號","121.43848","24.979625","6501300","土城區"
"236078","166-UM","2018/03/12 17:39:35","新北市土城區城林路6巷80號","121.438346666667","24.9799866666667","6501300","土城區"
"236014","270-VK","2018/03/12 17:39:41","新北市土城區城林路6巷80號","121.438786666667","24.9796933333333","6501300","土城區"
"242034","AAC-296","2018/03/12 17:39:43","新北市新莊區豐年街20巷14號","121.4457","25.0326533333333","6500500","新莊區"
"242058","986-R7","2018/03/12 17:39:23","新北市新莊區中正路713號","121.425006666667","25.0297583333333","6500500","新莊區"
"242053","751-BX","2018/03/12 17:39:37","新北市新莊區新樹路699巷1-2號","121.432511666667","25.002045","6500500","新莊區"
"242060","705-TV","2018/03/12 17:39:30","新北市新莊區瓊林南路153號","121.434085","25.011785","6500500","新莊區"
"242027","615-BX","2018/03/12 17:39:35","新北市新莊區福壽街108號","121.458043333333","25.05052","6500500","新莊區"
"242025","613-BX","2018/03/12 17:39:41","新北市新莊區思源路98號","121.460246666667","25.0459983333333","6500500","新莊區"
"242029","612-BX","2018/03/12 17:39:41","新北市新莊區復興路一段131號","121.449928333333","25.0431666666667","6500500","新莊區"
"242042","566-BX","2018/03/12 17:39:43","新北市新莊區中正路514巷43號","121.432396666667","25.03344","6500500","新莊區"
"242019","497-BY","2018/03/12 17:39:30","新北市新莊區中港路151號","121.455048333333","25.04096","6500500","新莊區"
"242036","442-UM","2018/03/12 17:39:30","新北市新莊區建福路59巷42號","121.428575","25.027795","6500500","新莊區"
"242050","441-UM","2018/03/12 17:39:45","新北市新莊區西盛街187-15號","121.42907","25.0173766666667","6500500","新莊區"
"242056","440-UM","2018/03/12 17:39:39","新北市新莊區泰豐街30巷12號","121.448775","25.03201","6500500","新莊區"
"242007","413-TV","2018/03/12 17:39:38","新北市新莊區福樂街118巷3號","121.457198333333","25.0480433333333","6500500","新莊區"
"242044","400-BY","2018/03/12 17:39:35","新北市新莊區中正路871巷9弄43號","121.41987","25.0267566666667","6500500","新莊區"
"242023","362-BY","2018/03/12 17:39:36","新北市新莊區公園路129-5號","121.457416666667","25.0408833333333","6500500","新莊區"
"242009","132-UY","2018/03/12 17:39:37","新北市新莊區昌明街14巷10號","121.457411666667","25.0532466666667","6500500","新莊區"
"242039","133-UY","2018/03/12 17:39:35","新北市新莊區民安東路41號","121.429088333333","25.0210133333333","6500500","新莊區"
"242031","135-UY","2018/03/12 17:39:32","新北市新莊區新泰路361巷15號","121.443003333333","25.0429433333333","6500500","新莊區"
"242048","172-VK","2018/03/12 17:39:33","新北市新莊區萬安街124號","121.42037","25.0217433333333","6500500","新莊區"
"242017","175-VK","2018/03/12 17:39:28","新北市新莊區復興路一段149巷21弄14號","121.449581666667","25.04418","6500500","新莊區"
"242004","176-VK","2018/03/12 17:39:27","新北市新莊區自立街216號","121.457151666667","25.0454333333333","6500500","新莊區"
"242015","346-TH","2018/03/12 17:39:37","新北市新莊區新泰路295號","121.445358333333","25.04092","6500500","新莊區"
"242021","348-TH","2018/03/12 17:39:25","新北市新莊區中華路一段168號","121.452798333333","25.0418183333333","6500500","新莊區"
"242002","349-TH","2018/03/12 17:39:32","新北市新莊區新莊路262號","121.451891666667","25.033985","6500500","新莊區"
"242013","351-TH","2018/03/12 17:39:29","新北市新莊區中誠街119號","121.44941","25.04763","6500500","新莊區"
"238015","755-BX","2018/03/12 17:39:26","新北市樹林區啟智街36號","121.420651666667","24.9931833333333","6500700","樹林區"
"238023","601-UM","2018/03/12 17:39:38","新北市樹林區三福街114號","121.406441666667","25.016355","6500700","樹林區"
"238019","599-UM","2018/03/12 17:39:40","新北市樹林區太平路127巷6弄7號","121.419885","24.9803016666667","6500700","樹林區"
"238018","571-TV","2018/03/12 17:39:26","新北市樹林區鎮前街63號","121.42502","24.9909583333333","6500700","樹林區"
"238024","5061-A6","2018/03/12 17:39:37","新北市樹林區八德街67號","121.399353333333","24.9693333333333","6500700","樹林區"
"238021","KEA-2217","2018/03/12 17:39:41","新北市樹林區柑園街一段260號","121.391085","24.9564533333333","6500700","樹林區"
"238022","KEA-2213","2018/03/12 17:39:32","新北市樹林區太元街38號","121.418163333333","24.97999","6500700","樹林區"
"238025","303-VK","2018/03/12 17:39:33","新北市樹林區保安街三段71-3號","121.41264","25.0123333333333","6500700","樹林區"
"238017","283-BY","2018/03/12 17:39:37","新北市樹林區三德街1號","121.412636666667","25.0128883333333","6500700","樹林區"
"238014","282-BY","2018/03/12 17:39:28","新北市樹林區保安街一段364號","121.417645","24.99851","6500700","樹林區"
"238026","172-UY","2018/03/12 17:39:25","新北市樹林區新興街19巷36弄2號","121.40229","24.9734533333333","6500700","樹林區"
"238016","169-UY","2018/03/12 17:38:43","新北市樹林區復興路264號","121.418256666667","24.988745","6500700","樹林區"
"239007","AAC-297","2018/03/12 17:39:33","新北市鶯歌區鶯桃路182巷96弄13號","121.340471666667","24.95778","6500800","鶯歌區"
"239006","891-R6","2018/03/12 17:39:27","新北市鶯歌區永和街34巷10弄2號","121.333396666667","24.9673066666667","6500800","鶯歌區"
"239008","527-UM","2018/03/12 17:39:26","桃園市龜山區宏德司法新村4號","121.33115","24.9793633333333","6500800","鶯歌區"
"239005","526-UM","2018/03/12 17:39:25","新北市鶯歌區福隆二街20號","121.325216666667","24.9718916666667","6500800","鶯歌區"
"239001","417-VK","2018/03/12 17:39:37","新北市鶯歌區中正三路228號","121.331426666667","24.937505","6500800","鶯歌區"
"239003","360-BY","2018/03/12 17:39:40","新北市鶯歌區鶯桃路188-1號","121.337985","24.9585533333333","6500800","鶯歌區"
"239002","359-BY","2018/03/12 17:39:26","新北市鶯歌區南雅路465號","121.346246666667","24.9540133333333","6500800","鶯歌區"
"239004","193-VK","2018/03/12 17:39:23","新北市鶯歌區三鶯路54號","121.357005","24.9422383333333","6500800","鶯歌區"
"221008","489-VK","2018/03/12 17:39:40","新北市汐止區康寧街901號","121.651346666667","25.07512","6501100","汐止區"
"221010","269-BY","2018/03/12 17:39:26","新北市汐止區汐萬路一段418巷48號","121.65106","25.0791833333333","6501100","汐止區"
"221023","279-VK","2018/03/12 17:39:24","新北市汐止區康寧街901號","121.651755","25.0749566666667","6501100","汐止區"
"221032","280-BY","2018/03/12 17:39:41","新北市汐止區汐萬路一段312號","121.6501","25.07562","6501100","汐止區"
"221033","297-VK","2018/03/12 17:39:38","新北市汐止區橫科路407巷25弄17-5號","121.627555","25.05028","6501100","汐止區"
"221029","298-VK","2018/03/12 17:39:31","新北市汐止區康寧街901號","121.651443333333","25.0749766666667","6501100","汐止區"
"221021","299-VK","2018/03/12 17:39:29","新北市汐止區康寧街901號","121.651","25.0751083333333","6501100","汐止區"
"221031","353-TW","2018/03/12 17:39:24","新北市汐止區康寧街901號","121.651758333333","25.07501","6501100","汐止區"
"221018","753-BX","2018/03/12 17:39:37","新北市汐止區汐萬路一段312號","121.650678333333","25.0753583333333","6501100","汐止區"
"242011","281-VK","2018/03/12 17:39:35","新北市新莊區中港路570號","121.451481666667","25.0532883333333","6500500","新莊區"
"242046","280-VK","2018/03/12 17:39:33","新北市新莊區建國一路15號","121.433868333333","25.03167","6500500","新莊區"
