"lineid","car","time","location","longitude","latitude","cityid","cityname"
"234046","148-BY","2018/03/12 18:39:50","新北市永和區永元路68號","121.52261","25.0015066666667","6500400","永和區"
"234007","207-UY","2018/03/12 18:39:52","新北市永和區環河西路二段7-9號","121.509045","25.016785","6500400","永和區"
"234081","298-R6","2018/03/12 18:39:46","新北市永和區林森路85號","121.523805","25.00381","6500400","永和區"
"234038","336-UY","2018/03/12 18:39:53","新北市永和區福和路1號","121.526568333333","25.0101333333333","6500400","永和區"
"234086","338-UY","2018/03/12 18:39:40","新北市永和區安樂路218號","121.514956666667","25.0022066666667","6500400","永和區"
"234017","745-BX","2018/03/12 18:39:33","新北市永和區福和路1號","121.526326666667","25.0095883333333","6500400","永和區"
"234030","746-BX","2018/03/12 18:39:33","新北市永和區林森路10巷18弄16號","121.526361666667","25.00713","6500400","永和區"
"234013","KEA-2591","2018/03/12 18:39:48","新北市永和區保福路二段92號","121.510406666667","25.0134983333333","6500400","永和區"
"234061","AAD-866","2018/03/12 18:39:36","新北市永和區福和路1號","121.526051666667","25.0095616666667","6500400","永和區"
"234042","862-TW","2018/03/12 18:39:35","新北市永和區永貞路308號","121.511886666667","25.0048966666667","6500400","永和區"
"234026","9371-KE","2018/03/12 18:39:46","新北市永和區永貞路415號","121.507331666667","25.0094333333333","6500400","永和區"
"234011","9373-KE","2018/03/12 18:39:44","新北市永和區文化路9巷22弄20號","121.514798333333","25.0145766666667","6500400","永和區"
"249005","172-UM","2018/03/12 18:39:46","新北市八里區中華路三段208號","121.388455","25.1259516666667","6502300","八里區"
"249001","173-UM","2018/03/12 18:39:43","新北市八里區龍米路一段178號","121.452165","25.1273733333333","6502300","八里區"
"249004","303-UY","2018/03/12 18:39:40","新北市八里區中山路一段6號","121.423388333333","25.159015","6502300","八里區"
"249002","305-UY","2018/03/12 18:39:51","新北市八里區龍形一街12巷1號","121.449763333333","25.1307333333333","6502300","八里區"
"248014","025-BX","2018/03/12 18:39:40","新北市五股區成泰路二段51號","121.437596666667","25.0832883333333","6501500","五股區"
"248008","095-VK","2018/03/12 18:39:48","新北市五股區中興路一段146號","121.464755","25.0739233333333","6501500","五股區"
"248018","225-UY","2018/03/12 18:38:24","新北市五股區民義路二段122號","121.404743333333","25.1157883333333","6501500","五股區"
"248012","247-BX","2018/03/12 18:39:50","新北市五股區成泰路三段2巷1-20號","121.441238333333","25.086715","6501500","五股區"
"248016","261-SL","2018/03/12 18:39:52","新北市五股區凌雲路一段83巷21號","121.448768333333","25.100935","6501500","五股區"
"248004","677-BX","2018/03/12 18:39:53","新北市五股區民義路一段240號","121.42691","25.0917166666667","6501500","五股區"
"248002","678-BX","2018/03/12 18:39:52","新北市五股區西雲路207號","121.448598333333","25.0965566666667","6501500","五股區"
"248010","682-TV","2018/03/12 18:39:54","新北市五股區水碓一路92號","121.431788333333","25.0736416666667","6501500","五股區"
"234023","9380-KE","2018/03/12 18:39:39","新北市永和區福和路76巷5弄14號","121.522351666667","25.0084066666667","6500400","永和區"
"234077","969-R7","2018/03/12 18:39:54","新北市永和區中正路132號","121.51462","24.996035","6500400","永和區"
"234067","AAC-212","2018/03/12 18:39:38","新北市永和區福和路30號","121.523871666667","25.00837","6500400","永和區"
"232011","375-UM","2018/03/12 18:35:59","新北市坪林區坪雙路一段43號","121.711708333333","24.942465","6502000","坪林區"
"244013","069-UM","2018/03/12 18:39:46","新北市林口區中正路478號","121.38271","25.0775066666667","6501700","林口區"
"244007","080-UY","2018/03/12 18:39:35","新北市林口區後湖2-16號","121.389011666667","25.096605","6501700","林口區"
"244019","402-UM","2018/03/12 18:39:49","新北市林口區忠孝路646巷12號","121.379068333333","25.0679766666667","6501700","林口區"
"244025","742-UY","2018/03/12 18:39:44","新北市林口區南勢六街242號","121.355778333333","25.0748116666667","6501700","林口區"
"244023","483-VK","2018/03/12 18:39:52","新北市林口區信義路128號","121.3805","25.0795566666667","6501700","林口區"
"244017","485-VK","2018/03/12 18:39:50","新北市林口區文化二路一段116號","121.36758","25.0706366666667","6501700","林口區"
"244009","656-BX","2018/03/12 18:39:37","新北市林口區竹林路320巷6-1號","121.391201666667","25.0819933333333","6501700","林口區"
"244011","701-TV","2018/03/12 18:39:50","新北市林口區仁愛路一段330-1號","121.391368333333","25.0767583333333","6501700","林口區"
"244021","838-TS","2018/03/12 18:39:41","新北市林口區粉寮路一段84號","121.397263333333","25.0794066666667","6501700","林口區"
"243012","AAD-798","2018/03/12 18:39:36","新北市泰山區泰林路二段73巷29號","121.434433333333","25.057835","6501600","泰山區"
"243015","539-UM","2018/03/12 18:39:52","新北市泰山區犁頭窠3-1號","121.422215","25.0605416666667","6501600","泰山區"
"243013","646-TV","2018/03/12 18:39:54","新北市泰山區明志路三段206巷3號","121.423261666667","25.0379566666667","6501600","泰山區"
"243016","680-BX","2018/03/12 18:39:54","新北市泰山區泰林路二段282號","121.431363333333","25.0625133333333","6501600","泰山區"
"222003","436-BY","2018/03/12 18:39:47","新北市深坑區翠谷街14號","121.627058333333","25.0086066666667","6501800","深坑區"
"222002","659-BX","2018/03/12 18:39:36","新北市深坑區雲鄉路11號","121.621503333333","24.99979","6501800","深坑區"
"231041","002-UM","2018/03/12 18:39:51","新北市新店區安華路28-1號","121.519593333333","24.9609366666667","6500600","新店區"
"231059","046-UY","2018/03/12 18:39:57","新北市新店區安華路28-1號","121.519588333333","24.960865","6500600","新店區"
"231061","047-UY","2018/03/12 18:39:42","新北市新店區安華路28-1號","121.519216666667","24.9609833333333","6500600","新店區"
"231060","106-UY","2018/03/12 18:39:46","新北市新店區安華路28-1號","121.519618333333","24.9608766666667","6500600","新店區"
"231051","107-UY","2018/03/12 18:39:50","新北市新店區中央路67號","121.532496666667","24.9769033333333","6500600","新店區"
"231047","108-UY","2018/03/12 18:39:47","新北市新店區北新路一段133-2號","121.5396","24.9629833333333","6500600","新店區"
"231052","187-VK","2018/03/12 18:39:48","新北市新店區永興路38號","121.54338","24.9386216666667","6500600","新店區"
"231050","KEA-2219","2018/03/12 18:39:54","新北市新店區安華路28-1號","121.519938333333","24.9612733333333","6500600","新店區"
"221015","KEA-2785","2018/03/12 18:39:54","新北市汐止區鄉長路二段8號","121.668783333333","25.08074","6501100","汐止區"
"231057","256-BX","2018/03/12 18:39:36","新北市新店區金興路35號","121.553015","24.93121","6500600","新店區"
"231046","278-BY","2018/03/12 18:39:48","新北市新店區直潭二街1號","121.535596666667","24.943215","6500600","新店區"
"231054","AAD-862","2018/03/12 18:39:47","新北市新店區安華路28-1號","121.519951666667","24.96121","6500600","新店區"
"231058","3712-VJ","2018/03/12 18:39:51","新北市新店區北宜路一段168號","121.540425","24.953025","6500600","新店區"
"231056","3713-VJ","2018/03/12 18:39:51","新北市新店區民族路102號","121.539216666667","24.9780716666667","6500600","新店區"
"231055","4716-K9","2018/03/12 18:39:54","新北市新店區中正路152號","121.541646666667","24.9717733333333","6500600","新店區"
"231067","4772-VM","2018/03/12 18:39:33","新北市新店區安康路一段94-2號","121.527806666667","24.96209","6500600","新店區"
"231040","619-UM","2018/03/12 18:39:53","新北市新店區安華路28-1號","121.519586666667","24.961005","6500600","新店區"
"231042","641-BX","2018/03/12 18:39:51","新北市新店區安康路一段164-1號","121.525946666667","24.963075","6500600","新店區"
"231063","645-TV","2018/03/12 18:39:52","新北市新店區安華路28-1號","121.519423333333","24.9606633333333","6500600","新店區"
"231049","719-UM","2018/03/12 18:39:45","新北市新店區安康路一段105號","121.529003333333","24.9615633333333","6500600","新店區"
"231062","720-UM","2018/03/12 18:39:48","新北市新店區安康路一段355-3號","121.51944","24.961525","6500600","新店區"
"231044","897-TW","2018/03/12 18:39:52","新北市新店區北新路二段2號","121.542578333333","24.9706566666667","6500600","新店區"
"231045","898-TW","2018/03/12 18:39:49","新北市新店區安華路28-1號","121.51939","24.9609666666667","6500600","新店區"
"231043","899-TW","2018/03/12 18:39:54","新北市新店區安華路28-1號","121.519291666667","24.9609033333333","6500600","新店區"
"231066","AKT-0513","2018/03/12 18:39:40","新北市新店區安華路28-1號","121.519491666667","24.9606433333333","6500600","新店區"
"235066","003-UY","2018/03/12 18:39:44","新北市中和區水源路35號","121.504371666667","25.0035666666667","6500300","中和區"
"235064","005-UY","2018/03/12 18:39:38","新北市中和區連城路89巷36號","121.497478333333","24.9987733333333","6500300","中和區"
"235063","006-UY","2018/03/12 18:39:46","新北市中和區連城路347巷1弄2號","121.488288333333","24.99567","6500300","中和區"
"235052","031-BX","2018/03/12 18:39:40","新北市中和區興南路三段73巷8號","121.492296666667","24.9743316666667","6500300","中和區"
"235056","096-UM","2018/03/12 18:39:49","新北市中和區員山路611巷1號","121.477815","25.011265","6500300","中和區"
"235039","097-UM","2018/03/12 18:39:39","新北市永和區安樂路44號","121.514723333333","24.9969683333333","6500300","中和區"
"235065","098-UM","2018/03/12 18:39:35","新北市中和區莊敬路33巷36弄8號","121.500336666667","25.006415","6500300","中和區"
"235040","150-BY","2018/03/12 18:24:20","新北市中和區安和路39號","121.509791666667","24.9947366666667","6500300","中和區"
"235058","151-BY","2018/03/12 18:39:43","新北市中和區員山路28-29號","121.480878333333","24.9869683333333","6500300","中和區"
"235055","183-VK","2018/03/12 18:39:52","新北市板橋區民族路276巷48號","121.469148333333","25.00543","6500300","中和區"
"235038","185-VK","2018/03/12 18:39:49","新北市中和區自強路60號","121.519935","24.9944783333333","6500300","中和區"
"235049","186-VK","2018/03/12 18:39:53","新北市中和區景平路502-2號","121.504018333333","24.9938666666667","6500300","中和區"
"235067","255-BX","2018/03/12 18:29:04","新北市中和區中正路637巷52弄11號","121.484926666667","24.9938383333333","6500300","中和區"
"235044","293-VK","2018/03/12 18:39:51","新北市中和區復興路280巷6號","121.502378333333","24.991345","6500300","中和區"
"235072","301-VK","2018/03/12 18:39:39","新北市中和區永和路6號","121.499938333333","25.002875","6500300","中和區"
"235043","352-BY","2018/03/12 18:39:38","新北市中和區景平路149號","121.513805","24.992175","6500300","中和區"
"235068","377-QA","2018/03/12 18:39:03","新北市中和區中興街124-1號","121.499695","24.9929366666667","6500300","中和區"
"235061","378-QA","2018/03/12 18:39:43","新北市中和區民享街90巷1號","121.47473","25.0002266666667","6500300","中和區"
"235050","4979-A6","2018/03/12 18:39:44","新北市中和區景新街496巷26號","121.513291666667","24.9859016666667","6500300","中和區"
"235042","551-UM","2018/03/12 18:39:39","新北市中和區成功路97巷7號","121.526513333333","24.991875","6500300","中和區"
"235070","558-UM","2018/03/12 18:39:52","新北市中和區景新街131號","121.505875","24.99733","6500300","中和區"
"235045","565-BX","2018/03/12 18:39:42","新北市中和區南山路236巷57號","121.504546666667","24.9881333333333","6500300","中和區"
"235054","640-BX","2018/03/12 18:39:45","新北市中和區莒光路129巷2弄24號","121.47306","25.0012066666667","6500300","中和區"
"235060","647-TV","2018/03/12 18:39:49","新北市中和區中山路二段519號","121.481911666667","25.0051183333333","6500300","中和區"
"235047","732-UM","2018/03/12 18:39:51","新北市中和區南山路320巷13號","121.50745","24.9863583333333","6500300","中和區"
"235046","733-UM","2018/03/12 18:39:37","新北市中和區仁愛街55號","121.511308333333","24.9879316666667","6500300","中和區"
"235062","800-TS","2018/03/12 18:39:38","新北市中和區中山路二段312巷33弄19號","121.494705","25.0038866666667","6500300","中和區"
"235057","801-TS","2018/03/12 18:39:41","新北市中和區員山路327巷62號","121.479935","25.001995","6500300","中和區"
"235041","802-TS","2018/03/12 18:39:42","新北市中和區宜安路166號","121.50901","24.9990066666667","6500300","中和區"
"235048","896-TW","2018/03/12 18:39:44","新北市中和區南山路309號","121.504923333333","24.9915666666667","6500300","中和區"
"235053","900-TW","2018/03/12 18:39:45","新北市中和區華安街106號","121.468866666667","24.99513","6500300","中和區"
"235051","157-BY","2018/03/12 18:39:43","新北市中和區華新街137號","121.506555","24.9818016666667","6500300","中和區"
"235037","AAC-213","2018/03/12 18:39:38","新北市中和區景德街62號","121.51718","24.9915266666667","6500300","中和區"
"235059","AAC-215","2018/03/12 18:39:44","新北市中和區員山路36巷16-3號","121.485065","24.9913383333333","6500300","中和區"
"220065","072-UY","2018/03/12 18:39:41","新北市板橋區館前東路29號","121.460648333333","25.0072683333333","6500100","板橋區"
"220086","073-UY","2018/03/12 18:39:52","新北市板橋區大智街71巷28弄22號","121.452393333333","25.0149233333333","6500100","板橋區"
"220069","AAD-861","2018/03/12 18:39:45","新北市板橋區華東街1-10號","121.4484","24.99517","6500100","板橋區"
"226004","205-ST","2018/03/12 18:39:50","新北市平溪區平溪里三坑路51號","121.734765","25.0286416666667","6502400","平溪區"
"228003","097-TW","2018/03/12 18:39:54","新北市貢寮區和美里龍洞街12-2號","121.918303333333","25.111785","6502600","貢寮區"
"228002","585-TW","2018/03/12 18:39:43","新北市貢寮區福隆里東興街31-1號","121.953878333333","25.021095","6502600","貢寮區"
"228001","670-TC","2018/03/12 18:39:38","新北市貢寮區仁理村研海街12-1號","121.923755","25.0517483333333","6502600","貢寮區"
"224010","AGQ-8101","2018/03/12 18:37:50","新北市瑞芳區烏勢巷145號","121.847228333333","25.10819","6501200","瑞芳區"
"224006","676-BX","2018/03/12 18:39:50","新北市瑞芳區明燈路三段84號","121.805738333333","25.1084166666667","6501200","瑞芳區"
"224002","639-TC","2018/03/12 18:39:38","新北市瑞芳區三爪子坑路29巷22號","121.813588333333","25.1070466666667","6501200","瑞芳區"
"224008","285-BY","2018/03/12 18:39:51","新北市瑞芳區岳王路37號","121.807941666667","25.1113216666667","6501200","瑞芳區"
"224007","275-VK","2018/03/12 18:39:50","新北市瑞芳區大埔路79號","121.763803333333","25.1016566666667","6501200","瑞芳區"
"224009","273-VK","2018/03/12 18:39:02","新北市瑞芳區五號路308號","121.856776666667","25.1114483333333","6501200","瑞芳區"
"224005","271-BY","2018/03/12 18:39:36","新北市瑞芳區建基路一段30號","121.81952","25.1211583333333","6501200","瑞芳區"
"227008","642-TC","2018/03/12 18:39:50","新北市雙溪區牡丹里下坑11號","121.85102","25.0561833333333","6502500","雙溪區"
"227001","400-TW","2018/03/12 18:39:50","新北市雙溪區魚行里坤溪15-1號","121.873238333333","25.0243433333333","6502500","雙溪區"
"253005","032-BX","2018/03/12 18:39:44","新北市石門區中山路64號","121.567286666667","25.29099","6502200","石門區"
"253006","295-VK","2018/03/12 18:39:41","新北市石門區崁子腳1-1號","121.53182","25.2880566666667","6502200","石門區"
"222001","KEA-2212","2018/03/12 18:39:54","新北市深坑區北深路一段80號","121.636441666667","25.0107783333333","6501800","深坑區"
"208002","KEA-2872","2018/03/12 18:39:50","新北市金山區忠孝一路19巷6-1號","121.638031666667","25.2181216666667","6502700","金山區"
"208003","665-BX","2018/03/12 18:39:47","新北市金山區中山路377號","121.634276666667","25.2247","6502700","金山區"
"208001","761-BX","2018/03/12 18:39:52","新北市金山區文化三路26號","121.635718333333","25.2245983333333","6502700","金山區"
"251004","009-UM","2018/03/12 18:39:44","新北市淡水區中正東路二段143巷6弄5號","121.461348333333","25.1468683333333","6501000","淡水區"
"251001","011-UM","2018/03/12 18:39:47","新北市淡水區自強路419號","121.465538333333","25.1343033333333","6501000","淡水區"
"251002","012-UM","2018/03/12 18:39:45","新北市淡水區中正東路一段3巷14弄3號","121.451001666667","25.164325","6501000","淡水區"
"251013","179-VK","2018/03/12 18:39:39","新北市淡水區雲廣坑10號","121.476011666667","25.214095","6501000","淡水區"
"251014","180-VK","2018/03/12 18:39:49","新北市淡水區南平20號","121.494613333333","25.21768","6501000","淡水區"
"251008","181-VK","2018/03/12 18:39:38","新北市淡水區北投子17-1號","121.453798333333","25.18338","6501000","淡水區"
"251015","182-VK","2018/03/12 18:39:53","新北市淡水區興福寮77巷113號","121.485575","25.16268","6501000","淡水區"
"251010","413-VK","2018/03/12 18:39:41","新北市淡水區沙崙路137號","121.423095","25.1827583333333","6501000","淡水區"
"251012","441-VK","2018/03/12 18:39:42","新北市淡水區北新路121號","121.44897","25.17871","6501000","淡水區"
"251016","442-VK","2018/03/12 18:39:44","新北市淡水區下圭柔山73號","121.443703333333","25.2069933333333","6501000","淡水區"
"251006","561-UM","2018/03/12 18:39:37","新北市淡水區中山北路三段51號","121.444188333333","25.1909283333333","6501000","淡水區"
"251011","650-BX","2018/03/12 18:39:57","新北市淡水區鄧公路48號","121.459406666667","25.168765","6501000","淡水區"
"251003","766-UM","2018/03/12 18:39:51","新北市淡水區北新路69巷52號","121.44681","25.1801883333333","6501000","淡水區"
"207003","550-UM","2018/03/12 18:39:51","新北市萬里區野柳里八斗60-1號","121.675791666667","25.2009783333333","6502800","萬里區"
"207004","225-TW","2018/03/12 18:39:47","新北市萬里區萬里里獅頭路10-1號","121.692103333333","25.1787533333333","6502800","萬里區"
"252002","178-VK","2018/03/12 18:39:41","新北市三芝區民生街38號","121.50378","25.2560683333333","6502100","三芝區"
"252003","249-BX","2018/03/12 18:39:54","新北市三芝區後厝里土地公坑999號","121.464713333333","25.2491616666667","6502100","三芝區"
"252001","292-VK","2018/03/12 18:39:50","新北市三芝區埔頭里埔頭14號","121.500571666667","25.2541233333333","6502100","三芝區"
"237004","KEA-2597","2018/03/12 18:39:42","新北市三峽區插角82號","121.40619","24.8709383333333","6500900","三峽區"
"237007","153-BY","2018/03/12 18:39:43","新北市三峽區柑樹路2巷3號","121.362181666667","24.9055666666667","6500900","三峽區"
"237009","210-TH","2018/03/12 18:39:49","新北市三峽區弘園街93號","121.365713333333","24.926255","6500900","三峽區"
"237013","252-BX","2018/03/12 18:39:46","新北市三峽區光明路69巷25號","121.376751666667","24.9292816666667","6500900","三峽區"
"237012","275-BY","2018/03/12 18:39:53","新北市樹林區佳園路三段496號","121.382038333333","24.9441333333333","6500900","三峽區"
"237008","302-VK","2018/03/12 18:39:38","新北市三峽區白雞63-5號","121.399401666667","24.9113216666667","6500900","三峽區"
"237014","433-BY","2018/03/12 18:39:52","新北市三峽區和平街32號","121.370225","24.937095","6500900","三峽區"
"237006","5529-G3","2018/03/12 18:39:39","新北市三峽區溪東路315巷37號","121.41183","24.9309383333333","6500900","三峽區"
"237011","KEA-2596","2018/03/12 18:39:44","新北市三峽區溪東路129號","121.402323333333","24.934375","6500900","三峽區"
"237010","706-TV","2018/03/12 18:39:41","新北市三峽區復興路289號","121.36598","24.9389166666667","6500900","三峽區"
"237005","AKY-6261","2018/03/12 18:39:52","新北市三峽區新興街7號","121.372648333333","24.935825","6500900","三峽區"
"236069","105-UM","2018/03/12 18:39:56","新北市土城區永豐路157巷29弄6-1號","121.468481666667","24.98154","6501300","土城區"
"236042","107-UM","2018/03/12 18:39:42","新北市土城區學成路122號","121.449448333333","24.98965","6501300","土城區"
"236078","166-UM","2018/03/12 18:39:55","新北市土城區中央路四段46巷28號","121.421938333333","24.9616866666667","6501300","土城區"
"236030","253-BX","2018/03/12 18:39:46","新北市土城區中華路二段185號","121.438595","24.974645","6501300","土城區"
"236026","269-VK","2018/03/12 18:39:49","新北市土城區忠義路49號","121.440538333333","24.9691933333333","6501300","土城區"
"236014","270-VK","2018/03/12 18:39:43","新北市土城區清水路207巷8號","121.460058333333","24.9822283333333","6501300","土城區"
"236036","271-VK","2018/03/12 18:39:45","新北市土城區明德路一段291巷11弄1號","121.460411666667","24.976665","6501300","土城區"
"236020","401-BY","2018/03/12 18:39:45","新北市土城區延吉街253巷1號","121.467566666667","24.984715","6501300","土城區"
"236058","912-UM","2018/03/12 18:39:44","新北市土城區中央路四段25-8號","121.424611666667","24.96246","6501300","土城區"
"236048","913-UM","2018/03/12 18:39:40","新北市土城區金城路三段8號","121.464608333333","24.9858983333333","6501300","土城區"
"236062","915-UM","2018/03/12 18:39:48","新北市土城區延和路125巷65號","121.469328333333","24.99136","6501300","土城區"
"236053","AAC-216","2018/03/12 18:39:47","新北市土城區中華路一段23號","121.446951666667","24.9891433333333","6501300","土城區"
"242058","986-R7","2018/03/12 18:39:52","新北市新莊區中正路881-8號","121.417343333333","25.0253683333333","6500500","新莊區"
"242060","705-TV","2018/03/12 18:39:45","新北市新莊區新樹路271號","121.434256666667","25.02078","6500500","新莊區"
"242025","613-BX","2018/03/12 18:39:33","新北市新莊區中山路一段462號","121.442046666667","25.0564566666667","6500500","新莊區"
"238023","601-UM","2018/03/12 18:39:38","新北市樹林區三福街114號","121.406398333333","25.01636","6500700","樹林區"
"238019","599-UM","2018/03/12 18:39:47","新北市樹林區東陽街15號","121.413048333333","24.9818533333333","6500700","樹林區"
"238018","571-TV","2018/03/12 18:39:46","新北市樹林區鎮前街72號","121.425585","24.9922116666667","6500700","樹林區"
"238024","5061-A6","2018/03/12 18:39:37","新北市樹林區太平路148號","121.418533333333","24.9781883333333","6500700","樹林區"
"238009","KEA-2213","2018/03/12 18:39:52","新北市樹林區中華路190-1號","121.41139","24.9805333333333","6500700","樹林區"
"238025","303-VK","2018/03/12 18:39:33","新北市樹林區中山路三段214號","121.379808333333","24.9677316666667","6500700","樹林區"
"238014","282-BY","2018/03/12 18:39:48","新北市樹林區中山路三段109號","121.399598333333","24.974585","6500700","樹林區"
"238020","268-VK","2018/03/12 18:39:19","新北市樹林區俊安街31巷5號","121.420428333333","25.013375","6500700","樹林區"
"238026","172-UY","2018/03/12 18:37:45","新北市樹林區信和街86號","121.390103333333","24.9730733333333","6500700","樹林區"
"238016","169-UY","2018/03/12 18:39:43","新北市樹林區文化街28號","121.41932","24.9877183333333","6500700","樹林區"
"239007","AAC-297","2018/03/12 18:39:53","新北市鶯歌區中正一路461-5號","121.363555","24.9564066666667","6500800","鶯歌區"
"239008","527-UM","2018/03/12 18:39:46","新北市鶯歌區國際一路14號","121.336208333333","24.9765666666667","6500800","鶯歌區"
"239005","526-UM","2018/03/12 18:39:45","新北市鶯歌區鳳吉二街106號","121.327545","24.9742483333333","6500800","鶯歌區"
"239001","417-VK","2018/03/12 18:39:37","新北市鶯歌區二橋街49號","121.336871666667","24.9387633333333","6500800","鶯歌區"
"239003","360-BY","2018/03/12 18:39:39","新北市鶯歌區永和二街2號","121.336141666667","24.9705116666667","6500800","鶯歌區"
"239004","193-VK","2018/03/12 18:39:43","新北市鶯歌區尖山路302巷15號","121.341441666667","24.9434016666667","6500800","鶯歌區"
"221008","489-VK","2018/03/12 18:39:40","新北市汐止區康寧街901號","121.651418333333","25.0750583333333","6501100","汐止區"
"221036","130-UY","2018/03/12 18:39:37","新北市汐止區南昌街27號","121.66321","25.06923","6501100","汐止區"
"221010","269-BY","2018/03/12 18:39:46","新北市汐止區瑞松街26號","121.645773333333","25.1054116666667","6501100","汐止區"
"221012","278-VK","2018/03/12 18:39:47","新北市汐止區保長路147巷2號","121.676696666667","25.0767533333333","6501100","汐止區"
"221023","279-VK","2018/03/12 18:39:44","新北市汐止區民族二街84巷9-2號","121.633091666667","25.07046","6501100","汐止區"
"221032","280-BY","2018/03/12 18:39:40","新北市汐止區福山街56巷19號","121.618046666667","25.0456933333333","6501100","汐止區"
"221027","281-BY","2018/03/12 18:39:45","新北市汐止區中正路7號","121.663018333333","25.069935","6501100","汐止區"
"221033","297-VK","2018/03/12 18:39:38","新北市汐止區南勢街1巷1號","121.627103333333","25.0374766666667","6501100","汐止區"
"221029","298-VK","2018/03/12 18:39:51","新北市汐止區樟樹一路133巷1號","121.642203333333","25.0650616666667","6501100","汐止區"
"221021","299-VK","2018/03/12 18:39:49","新北市汐止區復興路70號","121.65707","25.0622266666667","6501100","汐止區"
"221031","353-TW","2018/03/12 18:39:44","新北市汐止區福德一路274號","121.632098333333","25.0640066666667","6501100","汐止區"
"221035","622-UM","2018/03/12 18:39:51","新北市汐止區大同路二段207號","121.652693333333","25.0645316666667","6501100","汐止區"
"221025","623-UM","2018/03/12 18:39:36","新北市汐止區仁愛路119巷18號","121.662181666667","25.0642916666667","6501100","汐止區"
"221038","646-BX","2018/03/12 18:39:43","新北市汐止區汐萬路一段144-2號","121.653046666667","25.071085","6501100","汐止區"
"221002","707-TV","2018/03/12 18:39:46","新北市汐止區中興路25號","121.63693","25.0596083333333","6501100","汐止區"
"221018","753-BX","2018/03/12 18:39:37","新北市汐止區茄苳路250巷18號","121.671568333333","25.067785","6501100","汐止區"
"220079","145-BY","2018/03/12 18:39:40","新北市板橋區館前西路162號","121.452898333333","25.0086366666667","6500100","板橋區"
"220080","200-UY","2018/03/12 18:39:52","新北市板橋區大觀路二段265巷76弄26號","121.441488333333","24.9967283333333","6500100","板橋區"
"220082","610-BX","2018/03/12 18:39:37","新北市板橋區篤行路二段95號","121.431638333333","24.99152","6500100","板橋區"
"220056","276-BY","2018/03/12 18:39:48","新北市板橋區四川路二段113號","121.451523333333","24.994325","6500100","板橋區"
"220072","277-BY","2018/03/12 18:39:39","新北市板橋區大觀路三段52號","121.432521666667","24.9959316666667","6500100","板橋區"
"220071","283-VK","2018/03/12 18:39:52","新北市板橋區四川路二段37號","121.454168333333","24.9954483333333","6500100","板橋區"
"220053","285-VK","2018/03/12 18:39:51","新北市板橋區民生路二段184號","121.471063333333","25.0200616666667","6500100","板橋區"
"220083","286-VK","2018/03/12 18:39:54","新北市板橋區大觀路二段101巷2號","121.44666","25.001495","6500100","板橋區"
"220081","287-VK","2018/03/12 18:39:39","新北市板橋區大觀路二段101巷27號","121.447238333333","25.0013283333333","6500100","板橋區"
"220061","293-UM","2018/03/12 18:39:53","新北市板橋區民生路二段120號","121.47048","25.0198066666667","6500100","板橋區"
"220084","296-UM","2018/03/12 18:39:36","新北市板橋區大觀路二段力行1巷3弄2號","121.44541","24.9991616666667","6500100","板橋區"
"220075","303-R5","2018/03/12 18:39:39","新北市板橋區華東街308號","121.452756666667","25.00307","6500100","板橋區"
"220064","486-VK","2018/03/12 18:39:55","新北市板橋區縣民大道二段82號","121.465418333333","25.014445","6500100","板橋區"
"220035","560-BX","2018/03/12 18:39:54","新北市板橋區南雅西路二段145巷6號","121.451618333333","25.0118683333333","6500100","板橋區"
"220063","609-BX","2018/03/12 18:39:44","新北市板橋區民生路二段175號","121.469755","25.02019","6500100","板橋區"
"220057","686-BX","2018/03/12 18:39:37","新北市板橋區華東街1-9號","121.448198333333","24.99487","6500100","板橋區"
"220077","687-BX","2018/03/12 18:39:46","新北市板橋區大觀路二段174巷114弄4號","121.441038333333","25.0016316666667","6500100","板橋區"
"220054","741-BX","2018/03/12 18:39:44","新北市板橋區板城路421號","121.448058333333","24.9956633333333","6500100","板橋區"
"220055","827-TW","2018/03/12 18:39:56","新北市板橋區南雅南路二段116號","121.452516666667","25.00066","6500100","板橋區"
"220074","895-R6","2018/03/12 18:39:52","新北市板橋區南雅南路一段121號","121.455151666667","25.0046483333333","6500100","板橋區"
"220073","985-R7","2018/03/12 18:39:42","新北市板橋區貴興路35號","121.457701666667","25.003775","6500100","板橋區"
"220070","AAC-253","2018/03/12 18:39:42","新北市板橋區南雅南路二段122-2號","121.451526666667","24.9985983333333","6500100","板橋區"
