"lineid","car","time","location","longitude","latitude","cityid","cityname"
"234046","148-BY","2018/03/12 18:59:10","新北市永和區得和路373巷14號","121.525143333333","25.000185","6500400","永和區"
"234007","207-UY","2018/03/12 18:58:52","新北市永和區中山路一段36號","121.513366666667","25.0106466666667","6500400","永和區"
"234081","298-R6","2018/03/12 18:59:06","新北市永和區永亨路67號","121.521358333333","25.0059883333333","6500400","永和區"
"234038","336-UY","2018/03/12 18:58:53","新北市永和區成功路二段207號","121.526558333333","24.9959016666667","6500400","永和區"
"234064","337-UY","2018/03/12 18:59:07","新北市永和區秀朗路一段138號","121.517923333333","25.0033883333333","6500400","永和區"
"234086","338-UY","2018/03/12 18:59:00","新北市永和區中正路498號","121.517365","25.0041616666667","6500400","永和區"
"234070","552-UM","2018/03/12 18:59:08","新北市永和區中興街92號","121.518753333333","25.012","6500400","永和區"
"234017","745-BX","2018/03/12 18:58:53","新北市永和區永和路二段310號","121.516216666667","25.01614","6500400","永和區"
"234030","746-BX","2018/03/12 18:59:14","新北市永和區四維街34號","121.525583333333","24.9980233333333","6500400","永和區"
"234054","KEA-2590","2018/03/12 18:59:04","新北市永和區竹林路66巷2號","121.518228333333","25.0134166666667","6500400","永和區"
"234013","KEA-2591","2018/03/12 18:59:08","新北市永和區信義路17巷9弄1號","121.513973333333","25.0117283333333","6500400","永和區"
"234061","AAD-866","2018/03/12 18:58:56","新北市永和區福和路307號","121.51624","25.0070916666667","6500400","永和區"
"234042","862-TW","2018/03/12 18:59:10","新北市永和區永貞路273號","121.511508333333","25.0049","6500400","永和區"
"234050","863-TW","2018/03/12 18:59:08","新北市永和區文化路147號","121.510745","25.0161866666667","6500400","永和區"
"234026","9371-KE","2018/03/12 18:59:09","新北市永和區安樂路453號","121.514301666667","25.0050433333333","6500400","永和區"
"234011","9373-KE","2018/03/12 18:59:04","新北市永和區仁愛路111號","121.512291666667","25.0131133333333","6500400","永和區"
"249005","172-UM","2018/03/12 18:59:06","新北市八里區長道坑6號","121.39747","25.1236283333333","6502300","八里區"
"249001","173-UM","2018/03/12 18:59:03","新北市八里區龍米路二段58號","121.448165","25.1408466666667","6502300","八里區"
"248006","077-UY","2018/03/12 18:58:58","新北市五股區中興路一段71號","121.467621666667","25.072685","6501500","五股區"
"248008","095-VK","2018/03/12 18:59:08","新北市五股區中興路一段128巷38號","121.465873333333","25.0754833333333","6501500","五股區"
"248018","225-UY","2018/03/12 18:59:04","新北市五股區民義路二段22巷2號","121.420128333333","25.096885","6501500","五股區"
"248012","247-BX","2018/03/12 18:59:10","新北市五股區成泰路二段156號","121.438351666667","25.0842266666667","6501500","五股區"
"248016","261-SL","2018/03/12 18:59:12","新北市五股區成泰路三段543巷60號","121.449508333333","25.1031966666667","6501500","五股區"
"248004","677-BX","2018/03/12 18:59:12","新北市五股區民義路二段22巷2號","121.42011","25.0968916666667","6501500","五股區"
"248002","678-BX","2018/03/12 18:59:14","新北市五股區凌雲路一段139號","121.449356666667","25.1022016666667","6501500","五股區"
"248010","682-TV","2018/03/12 18:59:14","新北市五股區水碓七路81號","121.429618333333","25.0721916666667","6501500","五股區"
"234023","9380-KE","2018/03/12 18:58:59","新北市永和區竹林路91巷60弄70號","121.52292","25.012315","6500400","永和區"
"234077","969-R7","2018/03/12 18:58:54","新北市永和區中正路286巷7號","121.51773","24.998665","6500400","永和區"
"234074","AAC-211","2018/03/12 18:59:03","新北市永和區環河東路二段98號","121.524105","25.0103616666667","6500400","永和區"
"234067","AAC-212","2018/03/12 18:58:58","新北市永和區永和路一段1號","121.512973333333","25.0051","6500400","永和區"
"234003","AAC-295","2018/03/12 18:59:04","新北市永和區和平街28號","121.513381666667","25.00997","6500400","永和區"
"232011","375-UM","2018/03/12 18:59:00","新北市坪林區坪林街24號","121.711981666667","24.9365383333333","6502000","坪林區"
"244013","069-UM","2018/03/12 18:59:06","新北市林口區麗園一街6巷3-3號","121.376143333333","25.0697866666667","6501700","林口區"
"244019","402-UM","2018/03/12 18:59:09","新北市林口區麗園二街87號","121.38269","25.06675","6501700","林口區"
"244025","742-UY","2018/03/12 18:59:04","新北市林口區忠孝路1號","121.364318333333","25.075635","6501700","林口區"
"244023","483-VK","2018/03/12 18:59:12","新北市林口區文化三路二段41巷8號","121.372596666667","25.0795983333333","6501700","林口區"
"244017","485-VK","2018/03/12 18:59:10","新北市林口區文化二路一段68巷20-4號","121.366763333333","25.0688416666667","6501700","林口區"
"244009","656-BX","2018/03/12 18:58:57","新北市林口區台電新村24號","121.387325","25.0861066666667","6501700","林口區"
"244011","701-TV","2018/03/12 18:59:10","新北市林口區中正路315號","121.38883","25.0776916666667","6501700","林口區"
"243012","AAD-798","2018/03/12 18:58:56","新北市泰山區福興三街160號","121.432906666667","25.0571133333333","6501600","泰山區"
"243011","297-R6","2018/03/12 18:59:13","新北市泰山區明志路二段298巷2號","121.425903333333","25.0467216666667","6501600","泰山區"
"243014","421-VK","2018/03/12 18:58:58","新北市泰山區黎明路3號","121.421071666667","25.06322","6501600","泰山區"
"243015","539-UM","2018/03/12 18:58:52","新北市泰山區泰林路二段240號","121.432196666667","25.0620666666667","6501600","泰山區"
"243010","KEA-2215","2018/03/12 18:59:00","新北市泰山區辭修路24號","121.42906","25.0582433333333","6501600","泰山區"
"243009","KEA-2216","2018/03/12 18:58:59","新北市泰山區泰林路二段362號","121.428873333333","25.0635983333333","6501600","泰山區"
"243013","646-TV","2018/03/12 18:59:08","新北市泰山區明志路三段341巷5弄5號","121.423128333333","25.0351666666667","6501600","泰山區"
"243016","680-BX","2018/03/12 18:58:54","新北市泰山區明志路二段152-3號","121.4274","25.050425","6501600","泰山區"
"222003","436-BY","2018/03/12 18:59:07","新北市深坑區深南路51-1號","121.621393333333","25.0101833333333","6501800","深坑區"
"222002","659-BX","2018/03/12 18:58:56","新北市深坑區文山路一段22號","121.628755","25.003325","6501800","深坑區"
"231041","002-UM","2018/03/12 18:59:11","新北市新店區環河路72號","121.537053333333","24.9630783333333","6500600","新店區"
"231059","046-UY","2018/03/12 18:58:57","新北市新店區安華路28-1號","121.519553333333","24.96083","6500600","新店區"
"231061","047-UY","2018/03/12 18:59:02","新北市新店區安康路一段300-2號","121.518798333333","24.9640033333333","6500600","新店區"
"231060","106-UY","2018/03/12 18:59:05","新北市新店區安豐路48號","121.500308333333","24.9541416666667","6500600","新店區"
"231051","107-UY","2018/03/12 18:59:10","新北市新店區自由街2-1號","121.535501666667","24.9755566666667","6500600","新店區"
"231047","108-UY","2018/03/12 18:59:07","新北市新店區德正街27巷29弄46-1號","121.54577","24.9726283333333","6500600","新店區"
"231052","187-VK","2018/03/12 18:59:08","新北市新店區屈尺路2號","121.549283333333","24.922655","6500600","新店區"
"231050","KEA-2219","2018/03/12 18:58:54","新北市新店區新烏路一段11巷1弄2號","121.547348333333","24.9513766666667","6500600","新店區"
"221015","KEA-2785","2018/03/12 18:59:14","新北市汐止區鄉長路一段43號","121.665475","25.0750283333333","6501100","汐止區"
"231046","278-BY","2018/03/12 18:59:08","新北市新店區直潭五街28號","121.534115","24.9416483333333","6500600","新店區"
"231054","AAD-862","2018/03/12 18:59:07","新北市新店區新店路13號","121.540275","24.9528666666667","6500600","新店區"
"231058","3712-VJ","2018/03/12 18:59:11","新北市新店區中興路一段139號","121.542116666667","24.9636433333333","6500600","新店區"
"231056","3713-VJ","2018/03/12 18:59:11","新北市新店區大同街8巷27號","121.538856666667","24.9810333333333","6500600","新店區"
"231055","4716-K9","2018/03/12 18:58:54","新北市新店區新生街55號","121.5388","24.966945","6500600","新店區"
"231067","4772-VM","2018/03/12 18:59:13","新北市新店區安康路一段247巷31號","121.5248","24.96198","6500600","新店區"
"231065","512-UM","2018/03/12 18:58:53","新北市新店區安祥路190巷47號","121.477171666667","24.9561066666667","6500600","新店區"
"231064","515-UM","2018/03/12 18:59:06","新北市新店區安康路一段355號","121.519901666667","24.9638033333333","6500600","新店區"
"231040","619-UM","2018/03/12 18:59:13","新北市新店區中正路397號","121.53444","24.9773866666667","6500600","新店區"
"231042","641-BX","2018/03/12 18:59:11","新北市新店區中興路一段268-2號","121.545173333333","24.9678316666667","6500600","新店區"
"231063","645-TV","2018/03/12 18:59:12","新北市新店區車子路109號","121.505226666667","24.9521133333333","6500600","新店區"
"231049","719-UM","2018/03/12 18:59:05","新北市新店區中正路454-5號","121.534436666667","24.9790816666667","6500600","新店區"
"231062","720-UM","2018/03/12 18:59:08","新北市新店區安和路一段43號","121.517143333333","24.965565","6500600","新店區"
"231044","897-TW","2018/03/12 18:59:12","新北市新店區寶中路72號","121.547881666667","24.9806216666667","6500600","新店區"
"231045","898-TW","2018/03/12 18:59:09","新北市新店區光明街9號","121.538251666667","24.9593733333333","6500600","新店區"
"231043","899-TW","2018/03/12 18:58:54","新北市新店區北新路二段1號","121.542711666667","24.9712716666667","6500600","新店區"
"231066","AKT-0513","2018/03/12 18:59:00","新北市新店區安祥路78號","121.489316666667","24.9587233333333","6500600","新店區"
"235066","003-UY","2018/03/12 18:59:04","新北市中和區中山路二段131巷8號","121.502746666667","25.00237","6500300","中和區"
"235064","005-UY","2018/03/12 18:58:57","新北市中和區泰和街26號","121.499553333333","25.0004966666667","6500300","中和區"
"235063","006-UY","2018/03/12 18:59:06","新北市中和區錦和路202號","121.490353333333","24.9948566666667","6500300","中和區"
"235052","031-BX","2018/03/12 18:59:00","新北市中和區興南路二段148號","121.50397","24.98299","6500300","中和區"
"235056","096-UM","2018/03/12 18:59:09","新北市中和區中山路二段568巷38號","121.482308333333","25.0067533333333","6500300","中和區"
"235039","097-UM","2018/03/12 18:58:59","新北市中和區安樂路217巷17號","121.513831666667","24.9983433333333","6500300","中和區"
"235065","098-UM","2018/03/12 18:58:55","新北市中和區勝利路35巷3弄21號","121.499835","25.0074916666667","6500300","中和區"
"235058","151-BY","2018/03/12 18:59:03","新北市中和區員山路105號","121.480836666667","24.9944216666667","6500300","中和區"
"235055","183-VK","2018/03/12 18:59:11","新北市中和區民德路23號","121.468986666667","25.0027216666667","6500300","中和區"
"235038","185-VK","2018/03/12 18:59:09","新北市中和區立人街24-4號","121.518856666667","24.9942333333333","6500300","中和區"
"235049","186-VK","2018/03/12 18:59:13","新北市中和區景安路167巷23號","121.506648333333","24.994945","6500300","中和區"
"235044","293-VK","2018/03/12 18:59:11","新北市中和區中興街161巷3弄1號","121.500431666667","24.9909266666667","6500300","中和區"
"235072","301-VK","2018/03/12 18:58:59","新北市中和區景平路705號","121.496428333333","25.0035566666667","6500300","中和區"
"235043","352-BY","2018/03/12 18:58:58","新北市永和區成功路二段217巷7號","121.526668333333","24.9954833333333","6500300","中和區"
"235068","377-QA","2018/03/12 18:59:03","新北市中和區圓通路232巷10號","121.494853333333","24.9932483333333","6500300","中和區"
"235061","378-QA","2018/03/12 18:58:57","新北市中和區民治街130巷8號","121.474925","25.0026333333333","6500300","中和區"
"235050","4979-A6","2018/03/12 18:59:06","新北市中和區華新街58號","121.508028333333","24.9839233333333","6500300","中和區"
"235042","551-UM","2018/03/12 18:58:59","新北市中和區秀朗路三段128巷34號","121.524665","24.9937783333333","6500300","中和區"
"235070","558-UM","2018/03/12 18:59:13","新北市中和區南工路1號","121.505261666667","24.999825","6500300","中和區"
"235045","565-BX","2018/03/12 18:59:02","新北市中和區景新街467巷3號","121.513645","24.9881883333333","6500300","中和區"
"235054","640-BX","2018/03/12 18:59:05","新北市中和區民享街27巷2號","121.474045","25.00465","6500300","中和區"
"235060","647-TV","2018/03/12 18:59:09","新北市中和區中山路三段152號","121.473486666667","25.006335","6500300","中和區"
"235047","732-UM","2018/03/12 18:58:51","新北市中和區興南路二段54巷11弄2號","121.505643333333","24.9856333333333","6500300","中和區"
"235046","733-UM","2018/03/12 18:58:57","新北市中和區興南路一段135巷22弄14號","121.508953333333","24.9866816666667","6500300","中和區"
"235062","800-TS","2018/03/12 18:58:58","新北市中和區中山路二段417號","121.485998333333","25.0047433333333","6500300","中和區"
"235057","801-TS","2018/03/12 18:59:01","新北市中和區民安街65巷2號","121.478661666667","24.9996133333333","6500300","中和區"
"235041","802-TS","2018/03/12 18:59:02","新北市中和區宜安路118巷26號","121.511096666667","24.9988483333333","6500300","中和區"
"235048","896-TW","2018/03/12 18:59:04","新北市中和區華新街84號","121.508355","24.9833033333333","6500300","中和區"
"235053","900-TW","2018/03/12 18:59:05","新北市中和區壽德街26號","121.466666666667","24.994415","6500300","中和區"
"235051","157-BY","2018/03/12 18:59:03","新北市中和區忠孝街11巷1號","121.509831666667","24.9831066666667","6500300","中和區"
"235037","AAC-213","2018/03/12 18:58:58","新北市中和區自立路17號","121.522231666667","24.9960133333333","6500300","中和區"
"235059","AAC-215","2018/03/12 18:59:04","新北市中和區圓通路393巷34號","121.490436666667","24.9883116666667","6500300","中和區"
"220068","013-TV","2018/03/12 18:58:58","新北市板橋區中山路二段465巷104號","121.481166666667","25.022805","6500100","板橋區"
"220065","072-UY","2018/03/12 18:59:01","新北市板橋區漢生東路340巷12號","121.471378333333","25.00732","6500100","板橋區"
"220086","073-UY","2018/03/12 18:59:11","新北市板橋區中正路80巷7號","121.457153333333","25.0145833333333","6500100","板橋區"
"220069","AAD-861","2018/03/12 18:59:05","新北市板橋區華興街73-1號","121.457025","25.0051083333333","6500100","板橋區"
"247004","337-TH","2018/03/12 18:59:14","新北市五股區中興路三段2巷10號","121.449833333333","25.0810966666667","6501400","蘆洲區"
"226004","205-ST","2018/03/12 18:59:10","新北市平溪區靜安路二段520號","121.74411","25.0270683333333","6502400","平溪區"
"228003","097-TW","2018/03/12 18:58:54","新北市貢寮區和美里龍洞街56-3號","121.912298333333","25.114105","6502600","貢寮區"
"228002","585-TW","2018/03/12 18:59:03","新北市貢寮區福隆里東興街104號","121.945911666667","25.0171266666667","6502600","貢寮區"
"228001","670-TC","2018/03/12 18:58:57","新北市貢寮區仁理村保健街73號","121.923681666667","25.0516683333333","6502600","貢寮區"
"224010","AGQ-8101","2018/03/12 18:57:50","新北市瑞芳區基山街80號","121.844533333333","25.1087133333333","6501200","瑞芳區"
"224006","676-BX","2018/03/12 18:59:09","新北市瑞芳區民權街6巷27號","121.806826666667","25.1068833333333","6501200","瑞芳區"
"224008","285-BY","2018/03/12 18:58:51","新北市瑞芳區逢甲路343-15號","121.799005","25.112445","6501200","瑞芳區"
"224007","275-VK","2018/03/12 18:59:10","新北市瑞芳區大埔路132-7號","121.761433333333","25.100425","6501200","瑞芳區"
"224009","273-VK","2018/03/12 18:59:02","新北市瑞芳區五號路253-1號","121.856181666667","25.1136133333333","6501200","瑞芳區"
"224005","271-BY","2018/03/12 18:58:56","新北市瑞芳區連福新城25號","121.820251666667","25.119","6501200","瑞芳區"
"227008","642-TC","2018/03/12 18:59:10","新北市雙溪區牡丹里中正路58巷25號","121.866505","25.0416416666667","6502500","雙溪區"
"227001","400-TW","2018/03/12 18:59:10","新北市雙溪區平林里康福家園10號","121.858753333333","25.0373033333333","6502500","雙溪區"
"253005","032-BX","2018/03/12 18:59:04","新北市石門區中央路37-2號","121.568536666667","25.29474","6502200","石門區"
"253006","295-VK","2018/03/12 18:59:01","新北市石門區八甲9-2號","121.521825","25.2817183333333","6502200","石門區"
"222001","KEA-2212","2018/03/12 18:58:54","新北市深坑區北深路一段100號","121.635678333333","25.01072","6501800","深坑區"
"208002","KEA-2872","2018/03/12 18:59:10","新北市金山區信義路39號","121.635226666667","25.2195766666667","6502700","金山區"
"208003","665-BX","2018/03/12 18:59:07","新北市金山區中正路26號","121.635888333333","25.2222966666667","6502700","金山區"
"208001","761-BX","2018/03/12 18:59:11","新北市金山區中山路69號","121.641176666667","25.217855","6502700","金山區"
"251009","008-UM","2018/03/12 18:58:55","新北市淡水區重建街83號","121.439883333333","25.1722483333333","6501000","淡水區"
"251001","011-UM","2018/03/12 18:59:07","新北市淡水區自強路58號","121.4632","25.1274516666667","6501000","淡水區"
"251002","012-UM","2018/03/12 18:59:07","新北市淡水區中正東路63號","121.447121666667","25.1677983333333","6501000","淡水區"
"251013","179-VK","2018/03/12 18:58:59","新北市淡水區安子內12號","121.481543333333","25.2191233333333","6501000","淡水區"
"251014","180-VK","2018/03/12 18:59:09","新北市淡水區小中寮22-1號","121.488873333333","25.228935","6501000","淡水區"
"251015","182-VK","2018/03/12 18:59:13","新北市淡水區糞箕湖60號","121.485183333333","25.17227","6501000","淡水區"
"251010","413-VK","2018/03/12 18:59:02","新北市淡水區中正路二段22巷45號","121.421453333333","25.1824883333333","6501000","淡水區"
"251016","442-VK","2018/03/12 18:59:05","新北市淡水區淡金路三段331巷3號","121.448543333333","25.2061616666667","6501000","淡水區"
"251007","577-R6","2018/03/12 18:59:06","新北市淡水區民生路113巷1弄45號","121.462783333333","25.1385766666667","6501000","淡水區"
"251003","766-UM","2018/03/12 18:59:11","新北市淡水區中山北路一段149巷28號","121.442953333333","25.17813","6501000","淡水區"
"207003","550-UM","2018/03/12 18:59:11","新北市萬里區大鵬里頂社29號","121.656545","25.2108516666667","6502800","萬里區"
"207004","225-TW","2018/03/12 18:59:07","新北市萬里區萬里里獅頭路23號","121.693208333333","25.1783933333333","6502800","萬里區"
"252002","178-VK","2018/03/12 18:59:01","新北市三芝區中正路一段67-1號","121.503915","25.2573933333333","6502100","三芝區"
"252003","249-BX","2018/03/12 18:59:14","新北市三芝區後厝里北勢子42-11號","121.471535","25.252085","6502100","三芝區"
"252001","292-VK","2018/03/12 18:59:10","新北市三芝區中興街二段260號","121.501738333333","25.2531116666667","6502100","三芝區"
"237004","KEA-2597","2018/03/12 18:59:02","新北市三峽區有木206號","121.439225","24.851465","6500900","三峽區"
"237007","153-BY","2018/03/12 18:59:02","新北市三峽區大埔路9-1號","121.365973333333","24.9098083333333","6500900","三峽區"
"237013","252-BX","2018/03/12 18:59:06","新北市三峽區光明路69巷27號","121.376773333333","24.9292733333333","6500900","三峽區"
"237012","275-BY","2018/03/12 18:58:53","新北市三峽區三樹路222巷35號","121.381145","24.9424533333333","6500900","三峽區"
"237008","302-VK","2018/03/12 18:58:58","新北市三峽區中正路一段325-8號","121.370951666667","24.9232016666667","6500900","三峽區"
"237014","433-BY","2018/03/12 18:59:12","新北市三峽區隆恩街174號","121.362466666667","24.9427833333333","6500900","三峽區"
"237006","5529-G3","2018/03/12 18:58:59","新北市三峽區溪東路233巷47弄2號","121.41061","24.9346833333333","6500900","三峽區"
"237011","KEA-2596","2018/03/12 18:59:03","新北市三峽區介壽路三段193號","121.401695","24.9437283333333","6500900","三峽區"
"237016","649-BX","2018/03/12 18:58:56","新北市三峽區建安161-7號","121.468566666667","24.9095166666667","6500900","三峽區"
"237010","706-TV","2018/03/12 18:59:01","新北市三峽區國光街54-1號","121.374476666667","24.9380916666667","6500900","三峽區"
"237005","AKY-6261","2018/03/12 18:58:52","新北市三峽區中山路459巷163-3號","121.348595","24.9328816666667","6500900","三峽區"
"236069","105-UM","2018/03/12 18:59:15","新北市土城區清水路99巷7號","121.4568","24.9819783333333","6501300","土城區"
"236042","107-UM","2018/03/12 18:59:02","新北市土城區學府路一段219巷10號","121.451755","24.9838316666667","6501300","土城區"
"236078","166-UM","2018/03/12 18:58:55","新北市土城區中央路四段125巷2弄28號","121.416286666667","24.956825","6501300","土城區"
"236030","253-BX","2018/03/12 18:59:00","新北市土城區中央路二段304號","121.440176666667","24.973475","6501300","土城區"
"236026","269-VK","2018/03/12 18:59:09","新北市土城區中央路二段246號","121.44193","24.974875","6501300","土城區"
"236014","270-VK","2018/03/12 18:59:11","新北市土城區延和路13巷1號","121.463521666667","24.9885266666667","6501300","土城區"
"236036","271-VK","2018/03/12 18:59:06","新北市土城區青仁路51號","121.461543333333","24.9794566666667","6501300","土城區"
"236020","401-BY","2018/03/12 18:59:05","新北市土城區延吉街170號","121.468303333333","24.98542","6501300","土城區"
"236058","912-UM","2018/03/12 18:59:04","新北市土城區金城路二段48號","121.451541666667","24.979065","6501300","土城區"
"236048","913-UM","2018/03/12 18:59:00","新北市土城區青雲路318-1號","121.4589","24.9777166666667","6501300","土城區"
"236062","915-UM","2018/03/12 18:59:08","新北市土城區延和路41巷2弄15號","121.466721666667","24.9902116666667","6501300","土城區"
"236053","AAC-216","2018/03/12 18:59:07","新北市土城區學成路162號","121.448081666667","24.9891466666667","6501300","土城區"
"238023","601-UM","2018/03/12 18:58:58","新北市樹林區工興街16號","121.398731666667","25.0131783333333","6500700","樹林區"
"238019","599-UM","2018/03/12 18:59:06","新北市樹林區東華街75號","121.415758333333","24.9809366666667","6500700","樹林區"
"238018","571-TV","2018/03/12 18:59:06","新北市樹林區太平路48號","121.419045","24.98255","6500700","樹林區"
"238021","KEA-2217","2018/03/12 18:59:05","新北市樹林區西圳街二段56號","121.387056666667","24.9597966666667","6500700","樹林區"
"238009","KEA-2213","2018/03/12 18:58:52","新北市樹林區東興街16巷4弄1號","121.40935","24.9782116666667","6500700","樹林區"
"238025","303-VK","2018/03/12 18:58:53","新北市樹林區民和街51號","121.382965","24.9698816666667","6500700","樹林區"
"238014","282-BY","2018/03/12 18:59:08","新北市樹林區潭興街92號","121.425533333333","24.9994916666667","6500700","樹林區"
"238020","268-VK","2018/03/12 18:58:19","新北市樹林區俊英街183號","121.424106666667","25.0123183333333","6500700","樹林區"
"238026","172-UY","2018/03/12 18:59:05","新北市樹林區佳園路一段50號","121.392938333333","24.9707516666667","6500700","樹林區"
"238016","169-UY","2018/03/12 18:59:08","新北市樹林區復興路373巷7弄2號","121.417505","24.9864916666667","6500700","樹林區"
"239007","AAC-297","2018/03/12 18:59:12","新北市鶯歌區中正一路405號","121.359408333333","24.957035","6500800","鶯歌區"
"239006","891-R6","2018/03/12 18:59:09","新北市鶯歌區鶯桃路296巷55弄4號","121.336021666667","24.96155","6500800","鶯歌區"
"239008","527-UM","2018/03/12 18:59:06","新北市鶯歌區朝陽路居易巷6號","121.33677","24.976425","6500800","鶯歌區"
"239005","526-UM","2018/03/12 18:59:05","新北市鶯歌區鳳吉一街138號","121.328161666667","24.9751133333333","6500800","鶯歌區"
"239001","417-VK","2018/03/12 18:58:57","新北市鶯歌區永明街60巷5號","121.340638333333","24.9555316666667","6500800","鶯歌區"
"239003","360-BY","2018/03/12 18:58:59","新北市鶯歌區鶯桃路658巷4號","121.329408333333","24.9693966666667","6500800","鶯歌區"
"239004","193-VK","2018/03/12 18:59:03","新北市鶯歌區中正三路282巷12弄1號","121.328206666667","24.9373966666667","6500800","鶯歌區"
"221008","489-VK","2018/03/12 18:59:00","新北市汐止區康寧街753巷2弄16號","121.639716666667","25.07426","6501100","汐止區"
"221036","130-UY","2018/03/12 18:58:57","新北市汐止區忠孝東路314巷13號","121.664601666667","25.0687633333333","6501100","汐止區"
"221010","269-BY","2018/03/12 18:59:06","新北市汐止區康寧街901號","121.651423333333","25.0750583333333","6501100","汐止區"
"221012","278-VK","2018/03/12 18:59:08","新北市汐止區康寧街901號","121.650796666667","25.075255","6501100","汐止區"
"221023","279-VK","2018/03/12 18:59:04","新北市汐止區康寧街901號","121.650926666667","25.0751983333333","6501100","汐止區"
"221032","280-BY","2018/03/12 18:59:00","新北市汐止區橫科路407巷81弄5號","121.628975","25.048","6501100","汐止區"
"221027","281-BY","2018/03/12 18:59:04","新北市汐止區康寧街901號","121.65142","25.0750183333333","6501100","汐止區"
"221033","297-VK","2018/03/12 18:58:58","新北市汐止區南勢街1巷1號","121.627088333333","25.037485","6501100","汐止區"
"221029","298-VK","2018/03/12 18:59:11","新北市汐止區樟樹一路236號","121.64231","25.0668083333333","6501100","汐止區"
"221031","353-TW","2018/03/12 18:59:04","新北市汐止區福德二路156巷27號","121.629958333333","25.0654866666667","6501100","汐止區"
"221035","622-UM","2018/03/12 18:59:11","新北市汐止區汐萬路一段256巷3號","121.652448333333","25.074675","6501100","汐止區"
"221025","623-UM","2018/03/12 18:58:36","新北市汐止區康寧街901號","121.651323333333","25.0750633333333","6501100","汐止區"
"221038","646-BX","2018/03/12 18:59:03","新北市汐止區汐萬路一段312號","121.650651666667","25.07536","6501100","汐止區"
"221002","707-TV","2018/03/12 18:59:06","新北市汐止區大同路一段3號","121.620985","25.0552016666667","6501100","汐止區"
"220079","145-BY","2018/03/12 18:59:00","新北市板橋區民權路202巷14弄1號","121.460676666667","25.0160016666667","6500100","板橋區"
"220080","200-UY","2018/03/12 18:59:00","新北市板橋區大觀路二段265巷20弄1號","121.442818333333","24.9982033333333","6500100","板橋區"
"220106","KEA-2550","2018/03/12 18:59:10","新北市板橋區文化路二段124巷12號","121.470723333333","25.0259783333333","6500100","板橋區"
"220082","610-BX","2018/03/12 18:58:57","新北市樹林區博愛街115號","121.426438333333","24.9906133333333","6500100","板橋區"
"220101","245-BX","2018/03/12 18:59:07","新北市板橋區文化路二段182巷5弄1號","121.471675","25.0270516666667","6500100","板橋區"
"220056","276-BY","2018/03/12 18:59:08","新北市板橋區信義路148號","121.458855","24.9917533333333","6500100","板橋區"
"220072","277-BY","2018/03/12 18:58:59","新北市板橋區篤行路一段10號","121.432155","24.9953616666667","6500100","板橋區"
"220094","280-UM","2018/03/12 18:59:09","新北市板橋區文化路二段76號","121.469485","25.0250933333333","6500100","板橋區"
"220071","283-VK","2018/03/12 18:59:12","新北市板橋區重慶路247-3號","121.463376666667","25.0003683333333","6500100","板橋區"
"220053","285-VK","2018/03/12 18:59:11","新北市板橋區中山路二段157號","121.47564","25.0166733333333","6500100","板橋區"
"220083","286-VK","2018/03/12 18:58:54","新北市板橋區大觀路一段38巷182號","121.4415","25.0046533333333","6500100","板橋區"
"220081","287-VK","2018/03/12 18:59:06","新北市板橋區南雅西路二段141號","121.452258333333","25.011635","6500100","板橋區"
"220090","288-VK","2018/03/12 18:59:02","新北市板橋區四維路112巷22號","121.465685","25.0253816666667","6500100","板橋區"
"220061","293-UM","2018/03/12 18:58:53","新北市板橋區富山街109巷112號","121.474823333333","25.0209416666667","6500100","板橋區"
"220062","295-UM","2018/03/12 18:59:03","新北市板橋區中山路二段163號","121.475851666667","25.0168266666667","6500100","板橋區"
"220084","296-UM","2018/03/12 18:58:56","新北市板橋區龍興街6號","121.442846666667","24.9995016666667","6500100","板橋區"
"220075","303-R5","2018/03/12 18:58:59","新北市板橋區後菜園街47號","121.456068333333","25.0099083333333","6500100","板橋區"
"220092","307-R5","2018/03/12 18:58:56","新北市板橋區漢生東路41-1號","121.465401666667","25.01668","6500100","板橋區"
"220098","317-R6","2018/03/12 18:59:06","新北市板橋區民有街13號","121.466333333333","25.0247233333333","6500100","板橋區"
"220064","486-VK","2018/03/12 18:59:14","新北市板橋區新站路28號","121.467191666667","25.014195","6500100","板橋區"
"220089","487-VK","2018/03/12 18:59:06","新北市板橋區文化路二段294號","121.472126666667","25.02964","6500100","板橋區"
"220088","491-VK","2018/03/12 18:58:53","新北市板橋區民生路二段148號","121.471243333333","25.0197216666667","6500100","板橋區"
"220035","560-BX","2018/03/12 18:58:54","新北市板橋區中正路341巷35號","121.454196666667","25.0197883333333","6500100","板橋區"
"220103","561-BX","2018/03/12 18:59:07","新北市板橋區民生路二段123號","121.470635","25.0185583333333","6500100","板橋區"
"220063","609-BX","2018/03/12 18:59:07","新北市板橋區中山路二段145號","121.475428333333","25.0165866666667","6500100","板橋區"
"220091","637-BX","2018/03/12 18:59:00","新北市板橋區莒光路167-3號","121.474108333333","25.02377","6500100","板橋區"
"220057","686-BX","2018/03/12 18:58:57","新北市板橋區館前東路33號","121.46078","25.0074116666667","6500100","板橋區"
"220077","687-BX","2018/03/12 18:59:06","新北市板橋區大觀路二段154號","121.441526666667","24.9986483333333","6500100","板橋區"
"220093","689-BX","2018/03/12 18:59:10","新北市板橋區民生路二段210-1號","121.46933","25.0214366666667","6500100","板橋區"
"220054","741-BX","2018/03/12 18:59:04","新北市板橋區重慶路139巷12號","121.462871666667","25.0045966666667","6500100","板橋區"
"220102","KEA-2699","2018/03/12 18:59:05","新北市板橋區田單街2巷2號","121.4817","25.0290483333333","6500100","板橋區"
"220055","827-TW","2018/03/12 18:58:56","新北市板橋區中山路一段158巷27-4號","121.466496666667","25.0111433333333","6500100","板橋區"
"220067","830-TW","2018/03/12 18:59:04","新北市板橋區三民路二段正隆巷12弄14號","121.477828333333","25.0133783333333","6500100","板橋區"
"220096","831-TW","2018/03/12 18:59:06","新北市板橋區莒光路83號","121.471911666667","25.0241333333333","6500100","板橋區"
"220074","895-R6","2018/03/12 18:58:54","新北市板橋區府中路104號","121.455856666667","25.0096216666667","6500100","板橋區"
"220073","985-R7","2018/03/12 18:59:02","新北市板橋區民權路258-1號","121.458103333333","25.0150416666667","6500100","板橋區"
"220097","AAC-210","2018/03/12 18:59:01","新北市板橋區民生路二段180號","121.470683333333","25.0202266666667","6500100","板橋區"
"220070","AAC-253","2018/03/12 18:59:02","新北市板橋區信義路13號","121.457035","24.9968716666667","6500100","板橋區"
