"lineid","car","time","location","longitude","latitude","cityid","cityname"
"234046","148-BY","2018/03/12 20:19:10","新北市永和區林森路65號","121.524153333333","25.0040466666667","6500400","永和區"
"234007","207-UY","2018/03/12 20:19:12","新北市永和區仁愛路306巷20號","121.502253333333","25.0086283333333","6500400","永和區"
"234081","298-R6","2018/03/12 20:19:13","新北市永和區國中路132巷6弄1號","121.523721666667","25.007195","6500400","永和區"
"234038","336-UY","2018/03/12 20:19:14","新北市永和區成功路一段93巷23弄1號","121.528715","25.0028933333333","6500400","永和區"
"234064","337-UY","2018/03/12 20:19:07","新北市永和區得和路120號","121.518526666667","25.00021","6500400","永和區"
"234086","338-UY","2018/03/12 20:19:20","新北市永和區中正路637號","121.515341666667","25.01011","6500400","永和區"
"234070","552-UM","2018/03/12 20:19:08","新北市永和區福和路263巷17號","121.518096666667","25.00636","6500400","永和區"
"234017","745-BX","2018/03/12 20:19:13","新北市永和區文化路7號","121.515411666667","25.014985","6500400","永和區"
"234030","746-BX","2018/03/12 20:19:13","新北市中和區立人街14巷40弄22號","121.519713333333","24.995985","6500400","永和區"
"234054","KEA-2590","2018/03/12 20:19:21","新北市永和區光復街2巷24號","121.517603333333","25.0165516666667","6500400","永和區"
"234013","KEA-2591","2018/03/12 20:19:08","新北市永和區保生路40巷1號","121.505968333333","25.0082633333333","6500400","永和區"
"234061","AAD-866","2018/03/12 20:19:16","新北市永和區得和路9號","121.515148333333","25.00064","6500400","永和區"
"234042","862-TW","2018/03/12 20:19:15","新北市中和區中安街178巷2號","121.511008333333","24.9996233333333","6500400","永和區"
"234050","863-TW","2018/03/12 20:19:08","新北市永和區新生路40巷20號","121.507671666667","25.0159233333333","6500400","永和區"
"249005","172-UM","2018/03/12 20:19:06","新北市八里區下罟子5號","121.387328333333","25.1415616666667","6502300","八里區"
"249001","173-UM","2018/03/12 20:19:23","新北市八里區中華路二段538-1號","121.399071666667","25.14501","6502300","八里區"
"249004","303-UY","2018/03/12 20:19:03","新北市八里區中山路一段129巷19-1號","121.413951666667","25.1586233333333","6502300","八里區"
"249002","305-UY","2018/03/12 20:19:11","新北市八里區龍米路一段116-3號","121.453283333333","25.125025","6502300","八里區"
"249003","593-UM","2018/03/12 20:19:05","新北市八里區中山路二段447巷15號","121.397125","25.1454883333333","6502300","八里區"
"248012","247-BX","2018/03/12 20:19:10","新北市五股區六合街107號","121.429785","25.0903666666667","6501500","五股區"
"248016","261-SL","2018/03/12 20:19:20","新北市五股區凌雲路一段158巷48弄1號","121.447078333333","25.1042433333333","6501500","五股區"
"248002","678-BX","2018/03/12 20:19:12","新北市五股區成泰路三段145號","121.444875","25.091365","6501500","五股區"
"234023","9380-KE","2018/03/12 20:19:19","新北市永和區永和路二段278號","121.516018333333","25.0153433333333","6500400","永和區"
"234077","969-R7","2018/03/12 20:19:14","新北市永和區民享街11號","121.515285","24.995345","6500400","永和區"
"234074","AAC-211","2018/03/12 20:19:03","新北市永和區竹林路201巷22弄1號","121.522031666667","25.0092983333333","6500400","永和區"
"234067","AAC-212","2018/03/12 20:19:17","新北市永和區保平路179號","121.509333333333","25.0054483333333","6500400","永和區"
"234003","AAC-295","2018/03/12 20:19:04","新北市永和區大新街12號","121.51482","25.0084416666667","6500400","永和區"
"243012","AAD-798","2018/03/12 20:19:16","新北市泰山區楓江路127-3號","121.43921","25.06464","6501600","泰山區"
"243011","297-R6","2018/03/12 20:19:24","新北市泰山區貴陽街16巷5弄10號","121.422605","25.0319833333333","6501600","泰山區"
"243014","421-VK","2018/03/12 20:19:18","新北市泰山區泰林路二段353號","121.428316666667","25.0638766666667","6501600","泰山區"
"243015","539-UM","2018/03/12 20:19:12","新北市泰山區明志路一段266號","121.432078333333","25.0603166666667","6501600","泰山區"
"243010","KEA-2215","2018/03/12 20:19:20","新北市泰山區明志路二段254巷5號","121.426338333333","25.04765","6501600","泰山區"
"243009","KEA-2216","2018/03/12 20:19:18","新北市泰山區泰林路二段306巷12號","121.431155","25.063565","6501600","泰山區"
"243013","646-TV","2018/03/12 20:19:11","新北市泰山區中央路5巷14號","121.427068333333","25.0434016666667","6501600","泰山區"
"243016","680-BX","2018/03/12 20:19:14","新北市泰山區明志路二段368號","121.425615","25.0449333333333","6501600","泰山區"
"222003","436-BY","2018/03/12 20:19:16","新北市深坑區文化街78號","121.618028333333","25.00196","6501800","深坑區"
"222002","659-BX","2018/03/12 20:19:15","新北市深坑區萬福路75巷21號","121.599266666667","25.00968","6501800","深坑區"
"231041","002-UM","2018/03/12 20:19:11","新北市新店區民權路46號","121.540166666667","24.98305","6500600","新店區"
"231059","046-UY","2018/03/12 20:19:17","新北市新店區安德街154號","121.508258333333","24.9596883333333","6500600","新店區"
"231061","047-UY","2018/03/12 20:19:02","新北市新店區安興路32號","121.515753333333","24.9703633333333","6500600","新店區"
"231060","106-UY","2018/03/12 20:19:05","新北市新店區錦秀路11巷64號","121.480678333333","24.9435483333333","6500600","新店區"
"231051","107-UY","2018/03/12 20:19:10","新北市新店區中央六街46號","121.528328333333","24.9755833333333","6500600","新店區"
"231047","108-UY","2018/03/12 20:19:07","新北市新店區寶橋路132號","121.547405","24.9760583333333","6500600","新店區"
"231052","187-VK","2018/03/12 20:19:08","新北市新店區松林路9號","121.547303333333","24.9108566666667","6500600","新店區"
"231050","KEA-2219","2018/03/12 20:19:14","新北市新店區北新路二段2號","121.542803333333","24.9707333333333","6500600","新店區"
"221015","KEA-2785","2018/03/12 20:19:14","新北市汐止區建成路142巷19弄13號","121.661926666667","25.07391","6501100","汐止區"
"231057","256-BX","2018/03/12 20:19:22","新北市新店區花園五路二段27號","121.554658333333","24.9345833333333","6500600","新店區"
"231054","AAD-862","2018/03/12 20:19:07","新北市新店區檳榔路111號","121.544571666667","24.96152","6500600","新店區"
"231058","3712-VJ","2018/03/12 20:19:11","新北市新店區中央路13號","121.533368333333","24.978385","6500600","新店區"
"231056","3713-VJ","2018/03/12 20:19:18","新北市新店區中正路324號","121.536961666667","24.9747833333333","6500600","新店區"
"231067","4772-VM","2018/03/12 20:19:13","新北市新店區溪洲路61-1號","121.533518333333","24.9610566666667","6500600","新店區"
"231065","512-UM","2018/03/12 20:19:13","新北市新店區安祥路104-10號","121.479155","24.962065","6500600","新店區"
"231064","515-UM","2018/03/12 20:19:06","新北市新店區安利街26號","121.519218333333","24.97458","6500600","新店區"
"231040","619-UM","2018/03/12 20:19:12","新北市新店區三民路12號","121.539635","24.9723066666667","6500600","新店區"
"231042","641-BX","2018/03/12 20:19:11","新北市新店區寶橋路236號","121.551611666667","24.9788533333333","6500600","新店區"
"231063","645-TV","2018/03/12 20:19:12","新北市新店區車子路10-4號","121.504738333333","24.954505","6500600","新店區"
"231068","718-UY","2018/03/12 20:19:10","新北市新店區民權路8號","121.54242","24.9829116666667","6500600","新店區"
"231049","719-UM","2018/03/12 20:19:05","新北市新店區溪洲路69號","121.53318","24.96048","6500600","新店區"
"231062","720-UM","2018/03/12 20:19:08","新北市新店區安泰路7巷16號","121.485676666667","24.9509733333333","6500600","新店區"
"231044","897-TW","2018/03/12 20:19:12","新北市新店區北新路三段198號","121.541358333333","24.9835066666667","6500600","新店區"
"231045","898-TW","2018/03/12 20:19:09","新北市新店區新坡一街85號","121.548973333333","24.9645066666667","6500600","新店區"
"231043","899-TW","2018/03/12 20:19:14","新北市新店區建國路133號","121.539335","24.9781416666667","6500600","新店區"
"241011","013-R5","2018/03/12 20:19:13","新北市三重區龍門路250號","121.500993333333","25.0738083333333","6500200","三重區"
"241028","022-UY","2018/03/12 20:19:19","新北市三重區大同南路172巷43號","121.497721666667","25.057425","6500200","三重區"
"241008","059-VK","2018/03/12 20:19:21","新北市三重區永福街211巷25號","121.479035","25.07403","6500200","三重區"
"241009","060-VK","2018/03/12 20:19:10","新北市三重區三和路四段382巷42號","121.481268333333","25.07849","6500200","三重區"
"241015","062-VK","2018/03/12 20:19:21","新北市三重區重新路一段128號","121.50025","25.0629133333333","6500200","三重區"
"241017","063-VK","2018/03/12 20:19:11","新北市三重區自強路一段157號","121.493478333333","25.0671566666667","6500200","三重區"
"241024","065-VK","2018/03/12 20:19:23","新北市三重區忠孝路三段23號","121.4813","25.0674216666667","6500200","三重區"
"241026","066-VK","2018/03/12 20:19:12","新北市三重區中央南路65號","121.501488333333","25.0610766666667","6500200","三重區"
"241003","091-VK","2018/03/12 20:19:19","新北市三重區富華街55號","121.490976666667","25.083395","6500200","三重區"
"241031","156-TC","2018/03/12 20:19:12","新北市三重區三寧街15號","121.489456666667","25.0597583333333","6500200","三重區"
"241005","262-UM","2018/03/12 20:19:11","新北市三重區分子尾街76號","121.489231666667","25.0819783333333","6500200","三重區"
"241016","265-UM","2018/03/12 20:19:07","新北市三重區大同北路54巷1號","121.494261666667","25.06355","6500200","三重區"
"241022","267-UM","2018/03/12 20:19:14","新北市三重區市前街14號","121.489138333333","25.0624516666667","6500200","三重區"
"241018","268-UM","2018/03/12 20:19:10","新北市三重區自強路一段155-1號","121.493475","25.06706","6500200","三重區"
"241032","269-UM","2018/03/12 20:19:14","新北市三重區捷運路19巷6弄20號","121.484311666667","25.0567733333333","6500200","三重區"
"241013","270-UM","2018/03/12 20:19:06","新北市三重區三和路三段167巷2號","121.49199","25.0741","6500200","三重區"
"241025","271-UM","2018/03/12 20:19:15","新北市三重區三民街222號","121.480156666667","25.067285","6500200","三重區"
"241007","398-BY","2018/03/12 20:19:16","新北市三重區溪尾街108巷67號","121.487283333333","25.0782183333333","6500200","三重區"
"241020","413-TH","2018/03/12 20:19:06","新北市三重區三和路三段172-1號","121.492331666667","25.0730766666667","6500200","三重區"
"241004","475-VK","2018/03/12 20:19:06","新北市三重區仁愛街366巷31號","121.49074","25.0801816666667","6500200","三重區"
"241001","478-VK","2018/03/12 20:19:20","新北市三重區自強路四段3巷46號","121.49029","25.0766783333333","6500200","三重區"
"241030","480-VK","2018/03/12 20:19:19","新北市三重區環河南路254巷53號","121.488035","25.05225","6500200","三重區"
"241014","543-UM","2018/03/12 20:19:17","新北市三重區龍濱路128號","121.501715","25.071715","6500200","三重區"
"241023","545-UM","2018/03/12 20:19:04","新北市三重區忠孝路三段93巷12號","121.478581666667","25.0649066666667","6500200","三重區"
"241019","KEA-2593","2018/03/12 20:19:17","新北市三重區大智街141號","121.490688333333","25.07103","6500200","三重區"
"241035","743-BX","2018/03/12 20:19:05","新北市三重區正義北路33巷12號","121.498025","25.0637616666667","6500200","三重區"
"241002","887-TS","2018/03/12 20:19:10","新北市三重區仁義街143巷114號","121.499373333333","25.0815633333333","6500200","三重區"
"241012","941-UM","2018/03/12 20:19:03","新北市三重區河邊北街262號","121.501678333333","25.07642","6500200","三重區"
"241029","942-UM","2018/03/12 20:19:16","新北市三重區光明路96巷4號","121.492703333333","25.0566533333333","6500200","三重區"
"241033","AAC-255","2018/03/12 20:19:18","新北市三重區五谷王北街77號","121.475721666667","25.0504883333333","6500200","三重區"
"235066","003-UY","2018/03/12 20:19:03","新北市中和區保平路326巷11號","121.506696666667","25.0044566666667","6500300","中和區"
"235039","097-UM","2018/03/12 20:19:19","新北市中和區立人街24-5號","121.518806666667","24.9941566666667","6500300","中和區"
"235065","098-UM","2018/03/12 20:19:15","新北市中和區橋和路320號","121.497446666667","25.0071433333333","6500300","中和區"
"235068","377-QA","2018/03/12 20:19:23","新北市中和區勝利路35巷1弄22號","121.499788333333","25.0076733333333","6500300","中和區"
"235050","4979-A6","2018/03/12 20:19:04","新北市中和區景平路466號","121.505701666667","24.99378","6500300","中和區"
"235026","800-TS","2018/03/12 20:19:18","新北市中和區員山路36巷16-3號","121.484903333333","24.9916316666667","6500300","中和區"
"235059","AAC-215","2018/03/12 20:19:04","新北市中和區圓通路320號","121.4867","24.987905","6500300","中和區"
"247024","893-R6","2018/03/12 20:19:05","新北市蘆洲區光榮路120巷8弄39號","121.464573333333","25.0879516666667","6501400","蘆洲區"
"247014","546-UM","2018/03/12 20:19:20","新北市蘆洲區中山二路137巷29號","121.472485","25.0807983333333","6501400","蘆洲區"
"247022","500-BY","2018/03/12 20:19:05","新北市蘆洲區民族路574號","121.467213333333","25.088655","6501400","蘆洲區"
"247010","341-TH","2018/03/12 20:19:22","新北市蘆洲區信義路188巷16號","121.480365","25.0845633333333","6501400","蘆洲區"
"247012","339-TH","2018/03/12 20:19:18","新北市蘆洲區中興街30號","121.480806666667","25.0869","6501400","蘆洲區"
"247004","337-TH","2018/03/12 20:19:14","新北市蘆洲區長安街297號","121.458046666667","25.0848966666667","6501400","蘆洲區"
"247006","336-TH","2018/03/12 20:19:19","新北市蘆洲區九芎街153巷5號","121.465425","25.078925","6501400","蘆洲區"
"247018","057-VK","2018/03/12 20:18:52","新北市蘆洲區民族路408巷18-1號","121.475035","25.0922266666667","6501400","蘆洲區"
"247008","056-VK","2018/03/12 20:19:16","新北市蘆洲區集賢路235號","121.481906666667","25.0855533333333","6501400","蘆洲區"
"247016","007-UY","2018/03/12 20:19:21","新北市蘆洲區中正路185巷86弄2號","121.465605","25.0840316666667","6501400","蘆洲區"
"247002","002-UY","2018/03/12 20:19:14","新北市蘆洲區環堤大道108號","121.455448333333","25.0865916666667","6501400","蘆洲區"
"224010","AGQ-8101","2018/03/12 20:19:11","新北市瑞芳區明燈路二段67號","121.810598333333","25.10818","6501200","瑞芳區"
"222001","KEA-2212","2018/03/12 20:19:13","新北市深坑區北深路三段260號","121.599553333333","25.0043683333333","6501800","深坑區"
"251002","012-UM","2018/03/12 20:19:05","新北市淡水區中正路63號","121.441436666667","25.1694983333333","6501000","淡水區"
"251013","179-VK","2018/03/12 20:19:19","新北市淡水區奎柔山路752巷79號","121.47486","25.20484","6501000","淡水區"
"251014","180-VK","2018/03/12 20:19:09","新北市淡水區石頭厝3號","121.458708333333","25.23556","6501000","淡水區"
"251008","181-VK","2018/03/12 20:19:17","新北市淡水區淡海路150巷19號","121.42222","25.184455","6501000","淡水區"
"251015","182-VK","2018/03/12 20:19:13","新北市淡水區淡金路三段446號","121.450818333333","25.2142166666667","6501000","淡水區"
"251010","413-VK","2018/03/12 20:19:21","新北市淡水區新民街一段134號","121.427516666667","25.1888466666667","6501000","淡水區"
"251012","441-VK","2018/03/12 20:19:02","新北市淡水區淡金路三段356號","121.449313333333","25.209115","6501000","淡水區"
"251016","442-VK","2018/03/12 20:19:04","新北市淡水區淡金路五段20號","121.453383333333","25.2324","6501000","淡水區"
"251006","561-UM","2018/03/12 20:19:17","新北市淡水區淡金路一段571號","121.452595","25.1804833333333","6501000","淡水區"
"251003","766-UM","2018/03/12 20:19:11","新北市淡水區中山北路一段229號","121.444486666667","25.179545","6501000","淡水區"
"207004","225-TW","2018/03/12 20:19:07","新北市萬里區北基里大仁路1號","121.681588333333","25.17506","6502800","萬里區"
"252002","178-VK","2018/03/12 20:19:01","新北市三芝區中正路一段23號","121.50294","25.2585966666667","6502100","三芝區"
"252001","292-VK","2018/03/12 20:19:10","新北市三芝區中山路一段31號","121.500628333333","25.25802","6502100","三芝區"
"237006","5529-G3","2018/03/12 20:19:19","新北市三峽區中正路二段269號","121.366126666667","24.9116083333333","6500900","三峽區"
"237005","AKY-6261","2018/03/12 20:19:12","新北市三峽區三樹路98巷171號","121.384625","24.939675","6500900","三峽區"
"236069","105-UM","2018/03/12 20:19:15","新北市土城區中山路49號","121.421115","24.9629216666667","6501300","土城區"
"236078","166-UM","2018/03/12 20:19:15","新北市土城區金安街46號","121.420463333333","24.9653266666667","6501300","土城區"
"236030","253-BX","2018/03/12 20:19:20","新北市土城區學成路128巷8弄1號","121.449571666667","24.990045","6501300","土城區"
"236026","269-VK","2018/03/12 20:19:12","新北市土城區中央路一段249巷12號","121.445886666667","24.98555","6501300","土城區"
"236014","270-VK","2018/03/12 20:19:21","新北市土城區廣明街90巷21號","121.45541","24.994565","6501300","土城區"
"236036","271-VK","2018/03/12 20:19:06","新北市土城區明德路一段71號","121.465656666667","24.9834433333333","6501300","土城區"
"236020","401-BY","2018/03/12 20:19:12","新北市土城區延吉街41號","121.472405","24.9880016666667","6501300","土城區"
"236058","912-UM","2018/03/12 20:19:04","新北市土城區中央路三段32號","121.438536666667","24.9689933333333","6501300","土城區"
"242034","AAC-296","2018/03/12 20:19:19","新北市新莊區建中街90巷3弄7號","121.44644","25.0370683333333","6500500","新莊區"
"242053","751-BX","2018/03/12 20:19:17","新北市新莊區西盛街400號","121.427165","25.01291","6500500","新莊區"
"242060","705-TV","2018/03/12 20:19:03","新北市新莊區新樹路172-13號","121.434631666667","25.0216866666667","6500500","新莊區"
"242027","615-BX","2018/03/12 20:19:05","新北市新莊區幸福路594號","121.45346","25.04928","6500500","新莊區"
"242025","613-BX","2018/03/12 20:19:01","新北市新莊區五工二路70巷5號","121.460466666667","25.0661283333333","6500500","新莊區"
"242029","612-BX","2018/03/12 20:19:18","新北市新莊區中港路635號","121.451028333333","25.0543533333333","6500500","新莊區"
"242042","566-BX","2018/03/12 20:19:20","新北市新莊區天祥街53號","121.414878333333","25.03037","6500500","新莊區"
"242019","497-BY","2018/03/12 20:19:05","新北市新莊區博愛路8巷2號","121.456133333333","25.0439083333333","6500500","新莊區"
"242036","442-UM","2018/03/12 20:19:11","新北市新莊區後港一路56巷24弄7號","121.426341666667","25.0252","6500500","新莊區"
"242050","441-UM","2018/03/12 20:19:03","新北市新莊區民安西路196巷21號","121.42502","25.015435","6500500","新莊區"
"242056","440-UM","2018/03/12 20:19:14","新北市新莊區豐年街28巷24號","121.445218333333","25.0323333333333","6500500","新莊區"
"242007","413-TV","2018/03/12 20:19:18","新北市新莊區福壽街124巷34弄2號","121.459246666667","25.0512816666667","6500500","新莊區"
"242044","400-BY","2018/03/12 20:19:16","新北市新莊區中正路新建巷28弄20號","121.413551666667","25.02141","6500500","新莊區"
"242023","362-BY","2018/03/12 20:19:02","新北市新莊區化成路385號","121.465378333333","25.0582966666667","6500500","新莊區"
"242058","353-BY","2018/03/12 20:19:16","新北市新莊區龍安路329號","121.42218","25.0192533333333","6500500","新莊區"
"242009","132-UY","2018/03/12 20:19:08","新北市新莊區昌平街20號","121.454875","25.0527933333333","6500500","新莊區"
"242039","133-UY","2018/03/12 20:19:15","新北市新莊區龍安路457號","121.424523333333","25.0185333333333","6500500","新莊區"
"242031","135-UY","2018/03/12 20:19:12","新北市新莊區三和路13-6號","121.439061666667","25.0360666666667","6500500","新莊區"
"242048","172-VK","2018/03/12 20:19:11","新北市新莊區龍安路281號","121.420531666667","25.0198516666667","6500500","新莊區"
"242017","175-VK","2018/03/12 20:19:04","新北市新莊區中港一街71號","121.449873333333","25.0453283333333","6500500","新莊區"
"242004","176-VK","2018/03/12 20:19:11","新北市新莊區頭前路15巷2號","121.467925","25.0522416666667","6500500","新莊區"
"242015","346-TH","2018/03/12 20:19:07","新北市新莊區永樂街237巷2號","121.446363333333","25.0443033333333","6500500","新莊區"
"242021","348-TH","2018/03/12 20:19:18","新北市新莊區和興街37號","121.446913333333","25.0401216666667","6500500","新莊區"
"242002","349-TH","2018/03/12 20:19:13","新北市新莊區化成路38號","121.465028333333","25.043075","6500500","新莊區"
"242013","351-TH","2018/03/12 20:19:19","新北市新莊區中和街186巷39號","121.448493333333","25.0499266666667","6500500","新莊區"
"221008","489-VK","2018/03/12 20:19:20","台北市內湖區康樂街12號","121.617756666667","25.0679383333333","6501100","汐止區"
"221036","130-UY","2018/03/12 20:19:17","新北市汐止區福安街57巷8號","121.664226666667","25.06394","6501100","汐止區"
"221010","269-BY","2018/03/12 20:19:15","新北市汐止區八連路二段439號","121.628456666667","25.1038866666667","6501100","汐止區"
"221012","278-VK","2018/03/12 20:19:08","新北市汐止區保新街283號","121.692703333333","25.0683133333333","6501100","汐止區"
"221023","279-VK","2018/03/12 20:19:04","新北市汐止區明峰街297巷2號","121.625353333333","25.06777","6501100","汐止區"
"221032","280-BY","2018/03/12 20:19:20","新北市汐止區弘道街53巷2號","121.618633333333","25.0484533333333","6501100","汐止區"
"221027","281-BY","2018/03/12 20:19:04","新北市汐止區大同路二段353號","121.657023333333","25.06725","6501100","汐止區"
"221033","297-VK","2018/03/12 20:19:18","新北市汐止區東勢街203號","121.63373","25.0419233333333","6501100","汐止區"
"221029","298-VK","2018/03/12 20:19:11","新北市汐止區工建路90號","121.639673333333","25.0634033333333","6501100","汐止區"
"221021","299-VK","2018/03/12 20:19:09","新北市汐止區水源路一段286號","121.654273333333","25.0582433333333","6501100","汐止區"
"221031","353-TW","2018/03/12 20:19:02","新北市汐止區中興路150巷8號","121.633055","25.0649683333333","6501100","汐止區"
"221035","622-UM","2018/03/12 20:19:09","新北市汐止區長江街101-5號","121.658723333333","25.0731566666667","6501100","汐止區"
"221025","623-UM","2018/03/12 20:19:16","新北市汐止區水源路二段72巷9弄3號","121.655695","25.0557133333333","6501100","汐止區"
"221038","646-BX","2018/03/12 20:19:23","新北市汐止區忠孝東路462巷26號","121.66649","25.0737866666667","6501100","汐止區"
"221002","707-TV","2018/03/12 20:19:06","新北市汐止區福德三路67號","121.636743333333","25.069365","6501100","汐止區"
"221018","753-BX","2018/03/12 20:18:17","新北市汐止區大同路三段264號","121.675458333333","25.0689266666667","6501100","汐止區"
"220101","245-BX","2018/03/12 20:19:07","新北市板橋區雙十路二段47巷8弄12號","121.474486666667","25.0258833333333","6500100","板橋區"
"220083","286-VK","2018/03/12 20:19:14","新北市板橋區僑中二街102巷10號","121.445678333333","25.008325","6500100","板橋區"
"220081","287-VK","2018/03/12 20:17:22","新北市板橋區僑中一街80巷7弄18號","121.44704","25.01287","6500100","板橋區"
"220061","293-UM","2018/03/12 20:19:13","新北市板橋區四川路一段107-3號","121.459745","25.005065","6500100","板橋區"
"242011","281-VK","2018/03/12 20:19:15","新北市新莊區中信街23巷1號","121.451021666667","25.050605","6500500","新莊區"
"220089","487-VK","2018/03/12 20:19:06","新北市板橋區四維路190號","121.464231666667","25.026915","6500100","板橋區"
"242046","280-VK","2018/03/12 20:19:13","新北市新莊區中正路新生巷4號","121.41706","25.0241433333333","6500500","新莊區"
"220088","491-VK","2018/03/12 20:19:13","新北市板橋區文化路二段652號","121.48019","25.04179","6500100","板橋區"
"220103","561-BX","2018/03/12 20:19:07","新北市板橋區新海路138號","121.460956666667","25.02344","6500100","板橋區"
"220102","KEA-2699","2018/03/12 20:19:05","新北市板橋區文聖街233號","121.480711666667","25.0254383333333","6500100","板橋區"
"220055","827-TW","2018/03/12 20:19:16","新北市板橋區仁愛路30號","121.458921666667","24.99942","6500100","板橋區"
"220073","985-R7","2018/03/12 20:19:22","新北市五股區新五路三段26號","121.444078333333","25.0873116666667","6500100","板橋區"
"220097","AAC-210","2018/03/12 20:19:01","新北市板橋區光正街45巷6弄12號","121.461245","25.01712","6500100","板橋區"
"220070","AAC-253","2018/03/12 20:19:08","新北市板橋區四川路二段245巷28號","121.451348333333","24.9928616666667","6500100","板橋區"
