"lineid","car","time","location","longitude","latitude","cityid","cityname"
"234081","298-R6","2018/03/12 20:29:52","新北市永和區永貞路62號","121.520665","25.00557","6500400","永和區"
"234038","336-UY","2018/03/12 20:29:49","新北市永和區民樂街31巷13號","121.52847","25.0018283333333","6500400","永和區"
"234064","337-UY","2018/03/12 20:29:47","新北市永和區中正路433號","121.517128333333","25.00506","6500400","永和區"
"234086","338-UY","2018/03/12 20:29:40","新北市永和區永和路二段310號","121.516141666667","25.016115","6500400","永和區"
"234070","552-UM","2018/03/12 20:29:48","新北市永和區永亨路7號","121.519368333333","25.0057","6500400","永和區"
"234017","745-BX","2018/03/12 20:29:53","新北市永和區仁愛路89號","121.513035","25.0131483333333","6500400","永和區"
"234030","746-BX","2018/03/12 20:29:33","新北市中和區自強路54號","121.520173333333","24.994715","6500400","永和區"
"234054","KEA-2590","2018/03/12 20:29:43","新北市永和區環河東路一段82號","121.519653333333","25.016465","6500400","永和區"
"234061","AAD-866","2018/03/12 20:29:36","新北市永和區安樂路194巷17弄9號","121.51606","25.0013516666667","6500400","永和區"
"234042","862-TW","2018/03/12 20:29:35","新北市永和區安樂路304巷7號","121.514371666667","25.0050816666667","6500400","永和區"
"234050","863-TW","2018/03/12 20:29:48","新北市永和區新生路34號","121.50831","25.015845","6500400","永和區"
"249005","172-UM","2018/03/12 20:29:46","新北市八里區中山路三段305號","121.379378333333","25.13877","6502300","八里區"
"249001","173-UM","2018/03/12 20:29:42","新北市八里區下罟子5-11號","121.38688","25.1422683333333","6502300","八里區"
"249004","303-UY","2018/03/12 20:29:43","新北市八里區中山路一段129巷19-1號","121.413958333333","25.15859","6502300","八里區"
"249002","305-UY","2018/03/12 20:29:51","新北市八里區龍米路二段125巷13號","121.445935","25.1455516666667","6502300","八里區"
"249003","593-UM","2018/03/12 20:29:45","新北市八里區華峰一街46號","121.398495","25.146395","6502300","八里區"
"248002","678-BX","2018/03/12 20:29:52","新北市五股區新五路二段367號","121.443981666667","25.0877816666667","6501500","五股區"
"234023","9380-KE","2018/03/12 20:29:39","新北市永和區博愛街32巷15-1號","121.518951666667","25.0152816666667","6500400","永和區"
"234074","AAC-211","2018/03/12 20:29:43","新北市永和區福和路1號","121.525155","25.0089616666667","6500400","永和區"
"234067","AAC-212","2018/03/12 20:29:38","新北市永和區保平路292巷42號","121.507471666667","25.005285","6500400","永和區"
"243012","AAD-798","2018/03/12 20:29:36","新北市泰山區泰林路二段362號","121.428678333333","25.06369","6501600","泰山區"
"243011","297-R6","2018/03/12 20:29:33","新北市泰山區明志路三段42巷18號","121.424148333333","25.042345","6501600","泰山區"
"243014","421-VK","2018/03/12 20:29:38","新北市泰山區泰林路二段2-8號","121.419813333333","25.06505","6501600","泰山區"
"243015","539-UM","2018/03/12 20:29:34","新北市泰山區仁愛路86號","121.432976666667","25.05524","6501600","泰山區"
"243010","KEA-2215","2018/03/12 20:29:40","新北市泰山區新生路33號","121.427541666667","25.0452566666667","6501600","泰山區"
"243009","KEA-2216","2018/03/12 20:29:39","新北市泰山區泰林路二段542巷3弄5號","121.423135","25.064285","6501600","泰山區"
"243013","646-TV","2018/03/12 20:29:34","新北市泰山區公園路80號","121.42463","25.0563233333333","6501600","泰山區"
"243016","680-BX","2018/03/12 20:29:35","新北市泰山區文程路17號","121.428171666667","25.0495","6501600","泰山區"
"222003","436-BY","2018/03/12 20:29:36","新北市深坑區北深路二段125號","121.615886666667","25.002365","6501800","深坑區"
"222002","659-BX","2018/03/12 20:29:48","新北市深坑區萬福路16巷16號","121.60713","25.0081783333333","6501800","深坑區"
"231041","002-UM","2018/03/12 20:29:31","新北市新店區中正路501-2號","121.533675","24.98376","6500600","新店區"
"231059","046-UY","2018/03/12 20:29:37","新北市新店區安豐路49號","121.500006666667","24.95487","6500600","新店區"
"231061","047-UY","2018/03/12 20:29:42","新北市新店區新和街34號","121.519173333333","24.9847683333333","6500600","新店區"
"231060","106-UY","2018/03/12 20:29:46","新北市新店區錦秀路62號","121.47901","24.9429016666667","6500600","新店區"
"231051","107-UY","2018/03/12 20:29:50","新北市新店區中央七街66號","121.52769","24.9764183333333","6500600","新店區"
"231047","108-UY","2018/03/12 20:29:47","新北市新店區寶元路一段15巷11號","121.542031666667","24.98713","6500600","新店區"
"231052","187-VK","2018/03/12 20:29:48","新北市新店區松林路38號","121.546218333333","24.910245","6500600","新店區"
"231050","KEA-2219","2018/03/12 20:29:34","新北市新店區明德路41號","121.54131","24.975645","6500600","新店區"
"221015","KEA-2785","2018/03/12 20:29:34","新北市汐止區建成路142巷19弄15號","121.661903333333","25.07389","6501100","汐止區"
"231057","256-BX","2018/03/12 20:29:41","新北市新店區花園五路二段3號","121.553616666667","24.93422","6500600","新店區"
"231054","AAD-862","2018/03/12 20:29:47","新北市新店區檳榔路107號","121.544648333333","24.9615566666667","6500600","新店區"
"231058","3712-VJ","2018/03/12 20:29:51","新北市新店區自由街43-1號","121.534536666667","24.9737116666667","6500600","新店區"
"231056","3713-VJ","2018/03/12 20:29:51","新北市新店區中正路328巷1號","121.53693","24.9753066666667","6500600","新店區"
"231055","4716-K9","2018/03/12 20:29:34","新北市新店區北新路一段135號","121.53962","24.96304","6500600","新店區"
"231065","512-UM","2018/03/12 20:29:33","新北市新店區安祥路102巷46弄63號","121.486635","24.9634466666667","6500600","新店區"
"231064","515-UM","2018/03/12 20:29:46","新北市新店區新和街59巷17號","121.519313333333","24.986055","6500600","新店區"
"231040","619-UM","2018/03/12 20:29:46","新北市新店區中正路265-2號","121.537951666667","24.9741366666667","6500600","新店區"
"231042","641-BX","2018/03/12 20:29:51","新北市新店區寶高路116號","121.554523333333","24.97606","6500600","新店區"
"231063","645-TV","2018/03/12 20:29:52","新北市新店區安康路二段317號","121.499633333333","24.95677","6500600","新店區"
"231068","718-UY","2018/03/12 20:29:50","新北市新店區民權路13號","121.542365","24.9828033333333","6500600","新店區"
"231049","719-UM","2018/03/12 20:29:45","新北市新店區永業路81巷12號","121.531401666667","24.9481833333333","6500600","新店區"
"231062","720-UM","2018/03/12 20:29:28","新北市新店區安泰路60巷79號","121.484093333333","24.9446783333333","6500600","新店區"
"231044","897-TW","2018/03/12 20:29:32","新北市新店區民族路65號","121.539691666667","24.97829","6500600","新店區"
"231045","898-TW","2018/03/12 20:29:49","新北市新店區新坡一街18巷6弄36號","121.548205","24.9598916666667","6500600","新店區"
"231043","899-TW","2018/03/12 20:29:38","新北市新店區建國路112號","121.539651666667","24.9780833333333","6500600","新店區"
"241011","013-R5","2018/03/12 20:29:33","新北市三重區三和路三段53號","121.495268333333","25.0716366666667","6500200","三重區"
"241028","022-UY","2018/03/12 20:29:39","新北市三重區光興街91號","121.497376666667","25.0599","6500200","三重區"
"241008","059-VK","2018/03/12 20:29:41","新北市三重區下竹圍街91號","121.481093333333","25.07487","6500200","三重區"
"241009","060-VK","2018/03/12 20:29:50","新北市三重區永福街62號","121.481003333333","25.0778316666667","6500200","三重區"
"241015","062-VK","2018/03/12 20:29:41","新北市三重區長元街2-2號","121.498735","25.0658633333333","6500200","三重區"
"241017","063-VK","2018/03/12 20:29:31","新北市三重區自強路一段290號","121.491438333333","25.0682616666667","6500200","三重區"
"241024","065-VK","2018/03/12 20:29:43","新北市三重區三民街270號","121.479021666667","25.0680866666667","6500200","三重區"
"241026","066-VK","2018/03/12 20:29:32","新北市三重區福德南路8巷11號","121.503326666667","25.0635583333333","6500200","三重區"
"241003","091-VK","2018/03/12 20:29:39","新北市三重區富華街190號","121.493048333333","25.0849183333333","6500200","三重區"
"241031","156-TC","2018/03/12 20:29:51","新北市三重區三寧街15號","121.489456666667","25.0597583333333","6500200","三重區"
"241005","262-UM","2018/03/12 20:29:50","新北市三重區碧華街378號","121.491003333333","25.0843666666667","6500200","三重區"
"241016","265-UM","2018/03/12 20:29:47","新北市三重區正義北路190巷18號","121.495908333333","25.0667433333333","6500200","三重區"
"241022","267-UM","2018/03/12 20:29:34","新北市三重區重陽路二段19巷6號","121.487526666667","25.062535","6500200","三重區"
"241018","268-UM","2018/03/12 20:29:50","新北市三重區正義北路218號","121.496023333333","25.067555","6500200","三重區"
"241032","269-UM","2018/03/12 20:29:34","新北市三重區重陽路一段120巷46號","121.485091666667","25.0601116666667","6500200","三重區"
"241013","270-UM","2018/03/12 20:29:46","新北市三重區溪尾街5巷21號","121.492561666667","25.0745283333333","6500200","三重區"
"241025","271-UM","2018/03/12 20:29:35","新北市三重區頂崁街210巷23弄1號","121.475911666667","25.0681416666667","6500200","三重區"
"241007","398-BY","2018/03/12 20:29:37","新北市三重區自強路四段32-2號","121.488971666667","25.0768966666667","6500200","三重區"
"241020","413-TH","2018/03/12 20:29:46","新北市三重區三和路三段142號","121.493465","25.0726733333333","6500200","三重區"
"241004","475-VK","2018/03/12 20:29:47","新北市三重區溪尾街174號","121.488608333333","25.080555","6500200","三重區"
"241001","478-VK","2018/03/12 20:29:40","新北市三重區福隆路12號","121.490273333333","25.0773933333333","6500200","三重區"
"241030","480-VK","2018/03/12 20:29:39","新北市三重區成功路60號","121.4887","25.0509166666667","6500200","三重區"
"241014","543-UM","2018/03/12 20:29:37","新北市三重區長興街89號","121.50162","25.0691183333333","6500200","三重區"
"241023","545-UM","2018/03/12 20:29:44","新北市三重區自由街16號","121.47982","25.066515","6500200","三重區"
"241019","KEA-2593","2018/03/12 20:29:37","新北市三重區重陽路四段79號","121.492588333333","25.0709566666667","6500200","三重區"
"241035","743-BX","2018/03/12 20:29:45","新北市三重區重新路一段137號","121.499921666667","25.0629583333333","6500200","三重區"
"241002","887-TS","2018/03/12 20:29:48","新北市三重區五華街21巷39號","121.496421666667","25.08154","6500200","三重區"
"241012","941-UM","2018/03/12 20:29:43","新北市三重區龍濱路261號","121.501491666667","25.072885","6500200","三重區"
"241029","942-UM","2018/03/12 20:29:36","新北市三重區集美街225號","121.491926666667","25.0551666666667","6500200","三重區"
"241033","AAC-255","2018/03/12 20:29:38","新北市三重區五谷王北街80巷26號","121.475505","25.0526866666667","6500200","三重區"
"235039","097-UM","2018/03/12 20:29:39","新北市中和區大勇街29巷12號","121.515978333333","24.99454","6500300","中和區"
"235065","098-UM","2018/03/12 20:29:45","新北市中和區永和路39巷20號","121.497258333333","25.0053433333333","6500300","中和區"
"235050","4979-A6","2018/03/12 20:29:44","新北市中和區景新街162號","121.50574","24.99721","6500300","中和區"
"235026","800-TS","2018/03/12 20:21:06","新北市中和區員山路36巷16-3號","121.484731666667","24.9917733333333","6500300","中和區"
"235059","AAC-215","2018/03/12 20:29:44","新北市中和區員山路36巷12號","121.483871666667","24.991255","6500300","中和區"
"247024","893-R6","2018/03/12 20:29:45","新北市蘆洲區光復路70巷19號","121.46474","25.08523","6501400","蘆洲區"
"247014","546-UM","2018/03/12 20:29:42","新北市蘆洲區中山二路89號","121.473023333333","25.081885","6501400","蘆洲區"
"247022","500-BY","2018/03/12 20:29:47","新北市蘆洲區中正路198-1號","121.466848333333","25.0884033333333","6501400","蘆洲區"
"247010","341-TH","2018/03/12 20:29:42","新北市蘆洲區信義路222巷61號","121.481208333333","25.0853433333333","6501400","蘆洲區"
"247012","339-TH","2018/03/12 20:29:39","新北市蘆洲區復興路197號","121.479363333333","25.08947","6501400","蘆洲區"
"247004","337-TH","2018/03/12 20:29:33","新北市蘆洲區長安街297號","121.458015","25.084845","6501400","蘆洲區"
"247006","336-TH","2018/03/12 20:29:39","新北市蘆洲區光華路175巷56號","121.465598333333","25.0809633333333","6501400","蘆洲區"
"247018","057-VK","2018/03/12 20:29:52","新北市蘆洲區民族路319號","121.474343333333","25.09132","6501400","蘆洲區"
"247008","056-VK","2018/03/12 20:29:36","新北市蘆洲區永安北路二段76巷22號","121.482771666667","25.085285","6501400","蘆洲區"
"247020","053-VK","2018/03/12 20:29:50","新北市蘆洲區仁愛街161巷33-1號","121.468621666667","25.09433","6501400","蘆洲區"
"247016","007-UY","2018/03/12 20:29:41","新北市蘆洲區光華路127號","121.466398333333","25.0823633333333","6501400","蘆洲區"
"247002","002-UY","2018/03/12 20:29:34","新北市蘆洲區長安街361巷39號","121.45553","25.0874583333333","6501400","蘆洲區"
"222001","KEA-2212","2018/03/12 20:29:33","新北市深坑區北深路三段329號","121.59724","25.0051216666667","6501800","深坑區"
"251001","011-UM","2018/03/12 20:29:46","新北市淡水區中山北路二段2號","121.444531666667","25.18313","6501000","淡水區"
"251002","012-UM","2018/03/12 20:29:45","新北市淡水區中正路11-6號","121.443225","25.1695383333333","6501000","淡水區"
"251013","179-VK","2018/03/12 20:29:39","新北市淡水區後坑子6號","121.463971666667","25.2063666666667","6501000","淡水區"
"251014","180-VK","2018/03/12 20:29:49","新北市淡水區石頭厝8-4號","121.460385","25.2377533333333","6501000","淡水區"
"251008","181-VK","2018/03/12 20:29:38","新北市淡水區淡海路206巷8號","121.420815","25.1855983333333","6501000","淡水區"
"251015","182-VK","2018/03/12 20:29:53","新北市淡水區興仁路162號","121.451605","25.220725","6501000","淡水區"
"251010","413-VK","2018/03/12 20:29:41","新北市淡水區沙崙路181巷15號","121.423986666667","25.1843166666667","6501000","淡水區"
"251012","441-VK","2018/03/12 20:29:42","新北市淡水區興仁路94號","121.451931666667","25.21787","6501000","淡水區"
"251016","442-VK","2018/03/12 20:29:44","新北市淡水區後洲子16-1號","121.449528333333","25.22404","6501000","淡水區"
"251006","561-UM","2018/03/12 20:29:38","新北市淡水區商工路296號","121.460883333333","25.1862183333333","6501000","淡水區"
"251003","766-UM","2018/03/12 20:29:51","新北市淡水區新生街108巷1號","121.440191666667","25.17471","6501000","淡水區"
"252002","178-VK","2018/03/12 20:29:41","新北市三芝區淡金路二段47-2號","121.503673333333","25.2604916666667","6502100","三芝區"
"252001","292-VK","2018/03/12 20:29:50","新北市三芝區育英街37號","121.501046666667","25.25715","6502100","三芝區"
"236014","270-VK","2018/03/12 20:29:41","新北市土城區廣明街41巷2弄22號","121.454721666667","24.993475","6501300","土城區"
"242034","AAC-296","2018/03/12 20:29:19","新北市新莊區中正路222號","121.448728333333","25.035635","6500500","新莊區"
"242053","751-BX","2018/03/12 20:29:48","新北市新莊區民安西路247號","121.426125","25.0136516666667","6500500","新莊區"
"242060","705-TV","2018/03/12 20:29:49","新北市新莊區新樹路244巷58號","121.43123","25.01954","6500500","新莊區"
"242027","615-BX","2018/03/12 20:29:45","新北市新莊區思源路309號","121.459816666667","25.0489616666667","6500500","新莊區"
"242025","613-BX","2018/03/12 20:29:50","新北市新莊區五工三路62巷18號","121.459968333333","25.0650416666667","6500500","新莊區"
"242029","612-BX","2018/03/12 20:29:38","新北市新莊區昌隆街56號","121.454826666667","25.05088","6500500","新莊區"
"242042","566-BX","2018/03/12 20:29:40","新北市新莊區中正路694巷46號","121.417968333333","25.0290983333333","6500500","新莊區"
"242019","497-BY","2018/03/12 20:29:45","新北市新莊區民樂街78號","121.457966666667","25.043615","6500500","新莊區"
"242036","442-UM","2018/03/12 20:29:50","新北市新莊區後港一路46巷4號","121.426106666667","25.0259533333333","6500500","新莊區"
"242050","441-UM","2018/03/12 20:29:43","新北市新莊區民安西路252巷31號","121.425128333333","25.0137933333333","6500500","新莊區"
"242056","440-UM","2018/03/12 20:29:54","新北市新莊區瓊泰路140號","121.443183333333","25.0320483333333","6500500","新莊區"
"242007","413-TV","2018/03/12 20:29:38","新北市新莊區思源路333號","121.459788333333","25.0497433333333","6500500","新莊區"
"242044","400-BY","2018/03/12 20:29:36","新北市新莊區中正路新建巷2號","121.413825","25.0227366666667","6500500","新莊區"
"242023","362-BY","2018/03/12 20:29:46","新北市新莊區化成路539-1號","121.465056666667","25.0644783333333","6500500","新莊區"
"242058","353-BY","2018/03/12 20:29:35","新北市新莊區四維路149號","121.422686666667","25.0220883333333","6500500","新莊區"
"242009","132-UY","2018/03/12 20:29:47","新北市新莊區昌盛街67號","121.454886666667","25.0499983333333","6500500","新莊區"
"242039","133-UY","2018/03/12 20:29:35","新北市新莊區成功街13號","121.425743333333","25.0216683333333","6500500","新莊區"
"242031","135-UY","2018/03/12 20:29:49","新北市新莊區三和路18-1號","121.439976666667","25.0371166666667","6500500","新莊區"
"242048","172-VK","2018/03/12 20:29:51","新北市新莊區裕民街85巷17號","121.419623333333","25.0235416666667","6500500","新莊區"
"242017","175-VK","2018/03/12 20:29:52","新北市新莊區中港二街61號","121.45012","25.0458583333333","6500500","新莊區"
"242004","176-VK","2018/03/12 20:27:33","新北市新莊區化成路746巷37號","121.466945","25.05793","6500500","新莊區"
"242015","346-TH","2018/03/12 20:29:47","新北市新莊區中平路55號","121.444775","25.0444116666667","6500500","新莊區"
"242021","348-TH","2018/03/12 20:29:38","新北市新莊區公園路80號","121.450181666667","25.0395833333333","6500500","新莊區"
"242002","349-TH","2018/03/12 20:29:34","新北市新莊區中正路147-2號","121.457671666667","25.03731","6500500","新莊區"
"242013","351-TH","2018/03/12 20:29:39","新北市新莊區中榮街81巷2號","121.445403333333","25.052535","6500500","新莊區"
"221008","489-VK","2018/03/12 20:29:40","新北市汐止區康寧街397號","121.629496666667","25.0678983333333","6501100","汐止區"
"221036","130-UY","2018/03/12 20:29:37","新北市汐止區新台五路二段138號","121.663883333333","25.0665433333333","6501100","汐止區"
"221010","269-BY","2018/03/12 20:29:46","新北市汐止區八連路一段330-1號","121.641091666667","25.0900733333333","6501100","汐止區"
"221012","278-VK","2018/03/12 20:29:47","新北市汐止區大同路三段211號","121.67258","25.0767333333333","6501100","汐止區"
"221023","279-VK","2018/03/12 20:29:44","新北市汐止區湖東街5巷21號","121.634431666667","25.0732133333333","6501100","汐止區"
"221032","280-BY","2018/03/12 20:29:40","新北市汐止區弘道街53巷12號","121.618758333333","25.04893","6501100","汐止區"
"221027","281-BY","2018/03/12 20:29:44","新北市汐止區中正路214號","121.65833","25.0689333333333","6501100","汐止區"
"221033","297-VK","2018/03/12 20:29:38","新北市汐止區林森街73巷15號","121.62376","25.0412583333333","6501100","汐止區"
"221029","298-VK","2018/03/12 20:29:51","新北市汐止區樟樹一路129巷32號","121.640603333333","25.0651966666667","6501100","汐止區"
"221021","299-VK","2018/03/12 20:29:49","新北市汐止區水源路一段286號","121.654288333333","25.05822","6501100","汐止區"
"221031","353-TW","2018/03/12 20:29:42","新北市汐止區中興路110巷36號","121.634341666667","25.0646566666667","6501100","汐止區"
"221035","622-UM","2018/03/12 20:29:49","新北市汐止區長江街101-5號","121.658716666667","25.0731733333333","6501100","汐止區"
"221025","623-UM","2018/03/12 20:29:36","新北市汐止區水源路2段108-1號","121.656686666667","25.0554366666667","6501100","汐止區"
"221038","646-BX","2018/03/12 20:29:43","新北市汐止區忠孝東路200-5號","121.661598333333","25.0661033333333","6501100","汐止區"
"221002","707-TV","2018/03/12 20:29:46","新北市汐止區福德三路75號","121.636545","25.0692433333333","6501100","汐止區"
"221018","753-BX","2018/03/12 20:29:37","新北市汐止區茄苳路225巷11弄7號","121.671176666667","25.069605","6501100","汐止區"
"220083","286-VK","2018/03/12 20:29:54","新北市板橋區僑中二街108巷16號","121.445096666667","25.0074483333333","6500100","板橋區"
"220061","293-UM","2018/03/12 20:29:53","新北市板橋區四川路一段326號","121.457815","25.0004316666667","6500100","板橋區"
"242011","281-VK","2018/03/12 20:29:35","新北市新莊區中信街65號","121.449086666667","25.0508466666667","6500500","新莊區"
"220089","487-VK","2018/03/12 20:29:46","新北市板橋區陽明街162號","121.46351","25.024465","6500100","板橋區"
"242046","280-VK","2018/03/12 20:29:53","新北市新莊區中正路新雅巷7號","121.417975","25.0253933333333","6500500","新莊區"
"220103","561-BX","2018/03/12 20:29:47","新北市板橋區漢生東路33巷42號","121.466083333333","25.01768","6500100","板橋區"
"220102","KEA-2699","2018/03/12 20:29:45","新北市板橋區文化路一段413號","121.46759","25.022225","6500100","板橋區"
"220070","AAC-253","2018/03/12 20:29:41","新北市板橋區大觀路一段29巷131弄124號","121.45219","25.0041616666667","6500100","板橋區"
