"lineid","car","time","location","longitude","latitude","cityid","cityname"
"234061","AAD-866","2018/03/12 20:49:36","新北市中和區中正路190-1號","121.498011666667","24.9938083333333","6500400","永和區"
"234074","AAC-211","2018/03/12 20:49:23","新北市永和區環河東路二段20號","121.522316666667","25.0131083333333","6500400","永和區"
"222003","436-BY","2018/03/12 20:49:36","新北市深坑區文山路三段48-1號","121.609906666667","24.9985016666667","6501800","深坑區"
"222002","659-BX","2018/03/12 20:49:36","新北市深坑區北深路三段93巷50號","121.603808333333","25.0009683333333","6501800","深坑區"
"231041","002-UM","2018/03/12 20:49:31","台北市文山區景文街146巷26號","121.533313333333","24.9918433333333","6500600","新店區"
"231059","046-UY","2018/03/12 20:49:17","新北市新店區僑信路114巷39號","121.499213333333","24.946095","6500600","新店區"
"231061","047-UY","2018/03/12 20:49:22","新北市新店區新和街89號","121.520801666667","24.9865583333333","6500600","新店區"
"231060","106-UY","2018/03/12 20:49:34","新北市新店區安康路三段750號","121.473636666667","24.9418","6500600","新店區"
"231051","107-UY","2018/03/12 20:49:10","新北市新店區民生路181號","121.528606666667","24.9786216666667","6500600","新店區"
"231047","108-UY","2018/03/12 20:49:27","新北市新店區寶元路二段1巷2號","121.550735","24.984065","6500600","新店區"
"231052","187-VK","2018/03/12 20:49:40","新北市新店區新烏路一段231號","121.549511666667","24.9307583333333","6500600","新店區"
"231050","KEA-2219","2018/03/12 20:49:34","新北市新店區三民路20巷36號","121.538186666667","24.9715433333333","6500600","新店區"
"221015","KEA-2785","2018/03/12 20:49:34","新北市汐止區大同路二段605號","121.664025","25.0706433333333","6501100","汐止區"
"231057","256-BX","2018/03/12 20:49:21","新北市新店區花園六路二段14號","121.554896666667","24.9334116666667","6500600","新店區"
"231054","AAD-862","2018/03/12 20:49:27","新北市新店區北新路一段126巷27號","121.543218333333","24.9694766666667","6500600","新店區"
"231058","3712-VJ","2018/03/12 20:49:31","新北市新店區中央路131號","121.530513333333","24.9737616666667","6500600","新店區"
"231056","3713-VJ","2018/03/12 20:49:31","新北市新店區溪園路403號","121.523943333333","24.9781466666667","6500600","新店區"
"231055","4716-K9","2018/03/12 20:49:34","新北市新店區薏仁坑路自強巷1號","121.496823333333","24.9580716666667","6500600","新店區"
"231065","512-UM","2018/03/12 20:49:33","新北市新店區安祥路69巷17號","121.481923333333","24.9613333333333","6500600","新店區"
"231064","515-UM","2018/03/12 20:49:26","新北市新店區安民街382號","121.516306666667","24.9771216666667","6500600","新店區"
"231040","619-UM","2018/03/12 20:49:32","新北市新店區中正路270號","121.539001666667","24.973585","6500600","新店區"
"231042","641-BX","2018/03/12 20:49:39","新北市新店區寶興路58巷1號","121.549883333333","24.9721866666667","6500600","新店區"
"231063","645-TV","2018/03/12 20:49:32","新北市新店區如意街7-2號","121.495215","24.94858","6500600","新店區"
"231068","718-UY","2018/03/12 20:49:30","新北市新店區中興路三段220巷19號","121.544988333333","24.98331","6500600","新店區"
"231049","719-UM","2018/03/12 20:49:25","新北市新店區安康路二段22號","121.515993333333","24.96377","6500600","新店區"
"231062","720-UM","2018/03/12 20:49:28","新北市新店區裕合街143號","121.489156666667","24.9490833333333","6500600","新店區"
"231044","897-TW","2018/03/12 20:49:32","新北市新店區建國路120號","121.539205","24.978655","6500600","新店區"
"231045","898-TW","2018/03/12 20:49:29","新北市新店區北新路一段6號","121.54089","24.96526","6500600","新店區"
"231043","899-TW","2018/03/12 20:49:34","新北市新店區建國路85號","121.5405","24.9764566666667","6500600","新店區"
"241011","013-R5","2018/03/12 20:49:33","新北市三重區龍濱路205巷14號","121.502746666667","25.0719166666667","6500200","三重區"
"241028","022-UY","2018/03/12 20:49:39","新北市三重區中正南路41巷1號","121.493851666667","25.0598933333333","6500200","三重區"
"241008","059-VK","2018/03/12 20:49:41","新北市三重區永福街72巷11號","121.479378333333","25.0768383333333","6500200","三重區"
"241009","060-VK","2018/03/12 20:49:30","新北市三重區三和路四段388-2號","121.482106666667","25.0791333333333","6500200","三重區"
"241015","062-VK","2018/03/12 20:49:41","新北市三重區自強路一段10-2號","121.498941666667","25.0681866666667","6500200","三重區"
"241017","063-VK","2018/03/12 20:49:31","新北市三重區民生街1號","121.49194","25.0674833333333","6500200","三重區"
"241024","065-VK","2018/03/12 20:49:43","新北市三重區國道路一段58巷20號","121.481296666667","25.072075","6500200","三重區"
"241026","066-VK","2018/03/12 20:49:32","新北市三重區文化南路7號","121.500038333333","25.0623233333333","6500200","三重區"
"241003","091-VK","2018/03/12 20:49:39","新北市三重區五華街141巷58號","121.493478333333","25.0866266666667","6500200","三重區"
"241031","156-TC","2018/03/12 20:49:31","新北市三重區重陽路一段113巷1弄1號","121.487465","25.0598016666667","6500200","三重區"
"241005","262-UM","2018/03/12 20:49:31","新北市三重區五華街141巷30號","121.492221666667","25.0856283333333","6500200","三重區"
"241016","265-UM","2018/03/12 20:49:27","新北市三重區自強路一段147-1號","121.494035","25.0667616666667","6500200","三重區"
"241022","267-UM","2018/03/12 20:49:34","新北市三重區過圳街27-5號","121.48799","25.0623933333333","6500200","三重區"
"241018","268-UM","2018/03/12 20:49:36","新北市三重區正義北路346號","121.494306666667","25.0709316666667","6500200","三重區"
"241032","269-UM","2018/03/12 20:49:34","新北市三重區重陽路一段120巷46號","121.485108333333","25.0601016666667","6500200","三重區"
"241013","270-UM","2018/03/12 20:49:26","新北市三重區仁賢街6號","121.495636666667","25.0748083333333","6500200","三重區"
"241025","271-UM","2018/03/12 20:49:35","新北市三重區新北大道一段148號","121.484258333333","25.0618433333333","6500200","三重區"
"241007","398-BY","2018/03/12 20:49:37","新北市三重區慈愛街10號","121.484541666667","25.0783766666667","6500200","三重區"
"241020","413-TH","2018/03/12 20:49:26","新北市三重區忠孝路一段101號","121.489608333333","25.0721333333333","6500200","三重區"
"241004","475-VK","2018/03/12 20:49:26","新北市三重區分子尾街19號","121.489566666667","25.081035","6500200","三重區"
"241001","478-VK","2018/03/12 20:49:40","新北市三重區自強路三段76巷7號","121.486573333333","25.074225","6500200","三重區"
"241030","480-VK","2018/03/12 20:49:39","新北市三重區環河南路221巷10號","121.49198","25.052185","6500200","三重區"
"241014","543-UM","2018/03/12 20:49:37","新北市三重區萬全街77號","121.50154","25.070285","6500200","三重區"
"241023","545-UM","2018/03/12 20:49:23","新北市三重區忠孝路三段84巷1號","121.480146666667","25.0645183333333","6500200","三重區"
"241019","KEA-2593","2018/03/12 20:49:37","新北市三重區重陽路四段130號","121.492423333333","25.0713433333333","6500200","三重區"
"241006","AAD-863","2018/03/12 20:49:30","新北市三重區車路頭街139巷14號","121.484303333333","25.0762483333333","6500200","三重區"
"241035","743-BX","2018/03/12 20:49:24","新北市三重區三和路三段68號","121.494883333333","25.0715666666667","6500200","三重區"
"241002","887-TS","2018/03/12 20:49:28","新北市三重區仁義街159巷18號","121.497753333333","25.0815033333333","6500200","三重區"
"241012","941-UM","2018/03/12 20:49:43","新北市三重區仁信街27號","121.501271666667","25.0755266666667","6500200","三重區"
"241029","942-UM","2018/03/12 20:49:36","新北市三重區重安街18號","121.490365","25.0581816666667","6500200","三重區"
"241033","AAC-255","2018/03/12 20:49:38","新北市三重區光復路二段1號","121.472291666667","25.0533066666667","6500200","三重區"
"235026","800-TS","2018/03/12 20:21:06","新北市中和區員山路36巷16-3號","121.484731666667","24.9917733333333","6500300","中和區"
"247024","893-R6","2018/03/12 20:49:25","新北市蘆洲區長樂路140號","121.462078333333","25.0902333333333","6501400","蘆洲區"
"247014","546-UM","2018/03/12 20:49:40","新北市蘆洲區三民路97號","121.473551666667","25.08523","6501400","蘆洲區"
"247022","500-BY","2018/03/12 20:49:42","新北市蘆洲區三民路120號","121.471356666667","25.0872416666667","6501400","蘆洲區"
"247010","341-TH","2018/03/12 20:49:22","新北市蘆洲區鷺江街76號","121.47699","25.0837933333333","6501400","蘆洲區"
"247012","339-TH","2018/03/12 20:49:38","新北市蘆洲區復興路340巷32-6號","121.483485","25.0889916666667","6501400","蘆洲區"
"247004","337-TH","2018/03/12 20:49:33","新北市蘆洲區長安街100號","121.461658333333","25.0808466666667","6501400","蘆洲區"
"247006","336-TH","2018/03/12 20:49:39","新北市蘆洲區永安南路二段56-1號","121.46547","25.077825","6501400","蘆洲區"
"247008","056-VK","2018/03/12 20:49:36","新北市蘆洲區集賢路269巷28號","121.482143333333","25.0832416666667","6501400","蘆洲區"
"247020","053-VK","2018/03/12 20:49:30","新北市蘆洲區仁愛街64號","121.47144","25.0938566666667","6501400","蘆洲區"
"247016","007-UY","2018/03/12 20:49:41","新北市蘆洲區中山二路278號","121.469011666667","25.0780966666667","6501400","蘆洲區"
"247002","002-UY","2018/03/12 20:49:34","新北市蘆洲區光明路1號","121.460035","25.0864983333333","6501400","蘆洲區"
"222001","KEA-2212","2018/03/12 20:49:33","新北市深坑區北深路三段154號","121.603155","25.0030133333333","6501800","深坑區"
"251005","010-UM","2018/03/12 20:49:39","新北市淡水區淡金路二段599號","121.446761666667","25.1918233333333","6501000","淡水區"
"251001","011-UM","2018/03/12 20:49:26","新北市淡水區淡金路218號","121.460473333333","25.16717","6501000","淡水區"
"251002","012-UM","2018/03/12 20:49:25","新北市淡水區英專路42號","121.445616666667","25.17024","6501000","淡水區"
"251013","179-VK","2018/03/12 20:49:39","新北市淡水區埤島41號","121.45203","25.1981516666667","6501000","淡水區"
"251014","180-VK","2018/03/12 20:49:29","新北市淡水區公埔子32-8號","121.461638333333","25.2323616666667","6501000","淡水區"
"251015","182-VK","2018/03/12 20:49:33","新北市淡水區興仁路162號","121.45162","25.2207433333333","6501000","淡水區"
"251010","413-VK","2018/03/12 20:49:41","新北市淡水區沙崙路141-1號","121.423383333333","25.182975","6501000","淡水區"
"251012","441-VK","2018/03/12 20:49:22","新北市淡水區興仁路162號","121.451585","25.2206966666667","6501000","淡水區"
"251016","442-VK","2018/03/12 20:49:44","新北市淡水區淡金路四段493號","121.451893333333","25.2249416666667","6501000","淡水區"
"251007","577-R6","2018/03/12 20:49:29","新北市淡水區鄧公路23巷2號","121.451071666667","25.1702883333333","6501000","淡水區"
"251011","650-BX","2018/03/12 20:49:37","新北市淡水區新民街一段13-1號","121.433041666667","25.1845666666667","6501000","淡水區"
"251003","766-UM","2018/03/12 20:49:44","新北市淡水區中山北路一段207巷74號","121.44137","25.1795116666667","6501000","淡水區"
"252002","178-VK","2018/03/12 20:49:41","新北市三芝區淡金路二段91號","121.504108333333","25.2608533333333","6502100","三芝區"
"242034","AAC-296","2018/03/12 20:49:39","新北市新莊區中正路244號","121.448118333333","25.0353033333333","6500500","新莊區"
"242053","751-BX","2018/03/12 20:49:28","新北市新莊區民安西路189巷10弄24-1號","121.426558333333","25.0150533333333","6500500","新莊區"
"242060","705-TV","2018/03/12 20:49:43","新北市新莊區新樹路107號","121.437545","25.0269683333333","6500500","新莊區"
"242029","612-BX","2018/03/12 20:49:38","新北市新莊區中港路376號","121.45243","25.0475733333333","6500500","新莊區"
"242042","566-BX","2018/03/12 20:49:40","新北市新莊區天祥街1巷1號","121.417205","25.027105","6500500","新莊區"
"242019","497-BY","2018/03/12 20:49:25","新北市新莊區中港路五守新村1巷7號","121.455301666667","25.0381433333333","6500500","新莊區"
"242036","442-UM","2018/03/12 20:49:30","新北市新莊區中正路455-1號","121.442666666667","25.033885","6500500","新莊區"
"242050","441-UM","2018/03/12 20:49:43","新北市新莊區民安西路171號","121.426146666667","25.0159716666667","6500500","新莊區"
"242023","362-BY","2018/03/12 20:49:42","新北市新莊區頭興街23-1號","121.46345","25.0524833333333","6500500","新莊區"
"242009","132-UY","2018/03/12 20:49:27","新北市新莊區幸福路64巷4弄5號","121.457395","25.0500083333333","6500500","新莊區"
"242039","133-UY","2018/03/12 20:49:34","新北市新莊區瓊林北路1號","121.439805","25.0227066666667","6500500","新莊區"
"242048","172-VK","2018/03/12 20:49:31","新北市新莊區中正路459號","121.442248333333","25.0336333333333","6500500","新莊區"
"242002","349-TH","2018/03/12 20:49:34","新北市新莊區中港路五守新村23巷2號","121.454948333333","25.0384133333333","6500500","新莊區"
"242013","351-TH","2018/03/12 20:49:39","新北市新莊區新北大道四段209號","121.444603333333","25.0561566666667","6500500","新莊區"
"221027","281-BY","2018/03/12 20:49:23","新北市汐止區大同路二段370號","121.657615","25.0671683333333","6501100","汐止區"
"221033","297-VK","2018/03/12 20:49:38","台北市南港區合順街8巷7弄38號","121.620273333333","25.0419166666667","6501100","汐止區"
"221029","298-VK","2018/03/12 20:49:31","新北市汐止區康寧街901號","121.650708333333","25.075345","6501100","汐止區"
"221021","299-VK","2018/03/12 20:49:29","新北市汐止區新台五路一段210-1號","121.655661666667","25.0631216666667","6501100","汐止區"
"221035","622-UM","2018/03/12 20:49:29","新北市汐止區康寧街901號","121.65125","25.075085","6501100","汐止區"
"221038","646-BX","2018/03/12 20:49:43","新北市汐止區汐萬路一段256巷3號","121.652115","25.0748233333333","6501100","汐止區"
"221002","707-TV","2018/03/12 20:49:26","新北市汐止區福德二路169號","121.630823333333","25.065075","6501100","汐止區"
"221018","753-BX","2018/03/12 20:49:37","新北市汐止區大同路二段364號","121.657475","25.067205","6501100","汐止區"
"220070","AAC-253","2018/03/12 20:49:41","新北市八里區下罟子17號","121.379716666667","25.1430733333333","6500100","板橋區"
