"lineid","car","time","location","longitude","latitude","cityid","cityname"
"235010","733-UM","2018/03/12 21:43:37","新北市中和區員山路36巷13號","121.484141666667","24.9908083333333","6500300","中和區"
"247010","341-TH","2018/03/12 21:59:22","新北市林口區汕頭32號","121.366321666667","25.134675","6501400","蘆洲區"
"251004","009-UM","2018/03/12 21:59:26","新北市淡水區民權路90號","121.459043333333","25.1299316666667","6501000","淡水區"
"251005","010-UM","2018/03/12 21:59:19","新北市淡水區鄧公路30巷1弄67號","121.454433333333","25.16957","6501000","淡水區"
"251008","181-VK","2018/03/12 21:59:17","新北市淡水區學府路104號","121.449845","25.171855","6501000","淡水區"
"251010","413-VK","2018/03/12 21:59:21","新北市淡水區沙崙路181巷1號","121.424023333333","25.1843116666667","6501000","淡水區"
"251006","561-UM","2018/03/12 21:59:17","新北市淡水區中正路11巷3號","121.43777","25.1707966666667","6501000","淡水區"
"251007","577-R6","2018/03/12 21:59:25","新北市淡水區北新路184巷55號","121.451018333333","25.1777383333333","6501000","淡水區"
"251011","650-BX","2018/03/12 21:59:17","新北市淡水區中山北路一段163號","121.443388333333","25.177595","6501000","淡水區"
