"lineid","car","time","location","longitude","latitude","cityid","cityname"
"248005","653-BX","2018/08/09 06:59:27","新北市五股區更洲路47號","121.456861666667","25.0790983333333","6501500","五股區"
"232001","290-BY","2018/08/09 06:59:26","新北市坪林區下坑子口15-1號","121.717341666667","24.9476966666667","6502000","坪林區"
"232014","291-BY","2018/08/09 06:59:25","新北市坪林區仁里10-2號","121.691925","24.931655","6502000","坪林區"
"232010","375-UM","2018/08/09 06:59:40","新北市坪林區水聳淒坑7-1號","121.724846666667","24.9272366666667","6502000","坪林區"
"232018","705-BZ","2018/08/09 06:59:21","新北市坪林區坪雙路一段100號","121.729221666667","24.948135","6502000","坪林區"
"232007","758-BX","2018/08/09 06:59:21","新北市坪林區九芎林36-6號","121.698383333333","24.920245","6502000","坪林區"
"244003","248-BX","2018/08/09 06:59:28","新北市林口區湖南里70-9號","121.375868333333","25.0898883333333","6501700","林口區"
"231050","AAD-862","2018/08/09 06:59:21","新北市新店區新和街33號","121.519053333333","24.9847366666667","6500600","新店區"
"226003","AGD-0702","2018/08/09 06:59:31","新北市平溪區石底里公園街18-3號","121.73422","25.0255666666667","6502400","平溪區"
"223006","022-BY","2018/08/09 06:59:31","新北市石碇區新興坑27號","121.65065","25.0163216666667","6501900","石碇區"
"223002","KEA-2673","2018/08/09 06:59:37","新北市石碇區員山子1號","121.651865","24.965265","6501900","石碇區"
"223003","205-TH","2018/08/09 06:59:26","新北市石碇區石碇東街141號","121.659026666667","24.989335","6501900","石碇區"
"223008","406-TH","2018/08/09 06:59:34","新北市石碇區十八重溪61號","121.674841666667","25.0139","6501900","石碇區"
"223001","592-UM","2018/08/09 06:59:22","新北市石碇區石碇西街9號","121.659025","24.99076","6501900","石碇區"
"223004","660-BX","2018/08/09 06:59:22","新北市石碇區碇坪路一段56號","121.657026666667","24.9915233333333","6501900","石碇區"
"223007","661-BX","2018/08/09 06:59:30","新北市石碇區十八重溪16-2號","121.677366666667","25.011255","6501900","石碇區"
"223005","677-TV","2018/08/09 06:59:37","新北市石碇區碇坪路一段60號","121.657088333333","24.9914583333333","6501900","石碇區"
"227007","282-VK","2018/08/09 06:59:26","新北市雙溪區新基里自強路5號","121.866351666667","25.0390083333333","6502500","雙溪區"
"252004","249-BX","2018/08/09 06:59:24","新北市三芝區埔坪里埔頭坑41號","121.504731666667","25.2644783333333","6502100","三芝區"
"252007","AAC-283","2018/08/09 06:59:36","新北市三芝區淡金路一段4-5號","121.498008333333","25.2599433333333","6502100","三芝區"
