"lineid","car","time","location","longitude","latitude","cityid","cityname"
"248004","653-BX","2018/11/19 08:29:23","新北市五股區明德路12巷3號","121.433235","25.071785","6501500","五股區"
"232001","290-BY","2018/11/19 08:29:12","新北市坪林區大粗坑6-1號","121.732255","24.948265","6502000","坪林區"
"232012","291-BY","2018/11/19 08:29:08","新北市坪林區金瓜寮34-1號","121.676456666667","24.905285","6502000","坪林區"
"232017","705-BZ","2018/11/19 08:27:57","新北市坪林區柑腳坑15號","121.772755","24.9468766666667","6502000","坪林區"
"232005","758-BX","2018/11/19 08:29:06","新北市坪林區鶯子瀨2號","121.707448333333","24.9157866666667","6502000","坪林區"
"244022","069-UM","2018/11/19 08:29:20","新北市林口區東明一街55巷23號","121.39271","25.0710733333333","6501700","林口區"
"244006","080-UY","2018/11/19 08:29:15","新北市林口區菁埔10-1號","121.37917","25.0966866666667","6501700","林口區"
"244018","403-UM","2018/11/19 08:29:04","新北市林口區公園路223巷15號","121.373251666667","25.0747966666667","6501700","林口區"
"244012","KEA-2802","2018/11/19 08:29:06","新北市林口區中正路451號","121.384526666667","25.077745","6501700","林口區"
"244001","410-SL","2018/11/19 08:29:06","新北市林口區頂福里64號","121.332171666667","25.102965","6501700","林口區"
"244016","485-VK","2018/11/19 08:29:19","新北市林口區文化一路一段78號","121.371721666667","25.0700583333333","6501700","林口區"
"244008","656-BX","2018/11/19 08:29:19","新北市林口區中北三街57號","121.38481","25.0856616666667","6501700","林口區"
"244010","701-TV","2018/11/19 08:29:17","新北市林口區中正路196號","121.391343333333","25.0776116666667","6501700","林口區"
"244024","837-TS","2018/11/19 08:29:06","新北市林口區文化三路一段165號","121.361496666667","25.0690866666667","6501700","林口區"
"244020","838-TS","2018/11/19 08:29:24","新北市林口區自強七街28號","121.399743333333","25.075955","6501700","林口區"
"222005","289-BY","2018/11/19 08:29:11","新北市深坑區萬福路70號","121.60879","25.017265","6501800","深坑區"
"231007","189-VK","2018/11/19 08:29:11","新北市新店區新潭路一段200號","121.529706666667","24.93115","6500600","新店區"
"231008","192-VK","2018/11/19 08:29:14","新北市新店區新烏路三段99巷8號","121.552815","24.9024966666667","6500600","新店區"
"235001","611-BX","2018/11/19 08:29:17","新北市中和區員山路314巷7弄8號","121.482075","25.0031916666667","6500300","中和區"
"226005","5620-A6","2018/11/19 08:29:14","新北市平溪區南山里六分9號","121.79686","25.049935","6502400","平溪區"
"226001","7418-A5","2018/11/19 08:29:11","新北市平溪區東勢里芊蓁林59-1號","121.752066666667","25.0076766666667","6502400","平溪區"
"226003","AGD-0702","2018/11/19 08:29:06","新北市平溪區靜安路三段442號","121.787685","25.0561233333333","6502400","平溪區"
"223006","022-BY","2018/11/19 08:29:09","新北市石碇區靜安路一段8號","121.64174","25.0111133333333","6501900","石碇區"
"223002","KEA-2673","2018/11/19 08:28:29","新北市石碇區樟空子10-3號","121.666235","24.963515","6501900","石碇區"
"223003","205-TH","2018/11/19 08:29:14","新北市石碇區北宜路六段塗潭巷27號","121.649518333333","24.93389","6501900","石碇區"
"223008","406-TH","2018/11/19 08:29:19","新北市石碇區蚯蚓坑1號","121.692973333333","25.006675","6501900","石碇區"
"223004","437-BY","2018/11/19 08:29:19","新北市石碇區碇坪路一段115號","121.664433333333","24.9880183333333","6501900","石碇區"
"223001","592-UM","2018/11/19 08:29:22","新北市石碇區北宜路六段塗潭巷55號","121.652453333333","24.9350766666667","6501900","石碇區"
"223005","677-TV","2018/11/19 08:29:10","新北市石碇區碇坪路一段101號","121.663111666667","24.9894183333333","6501900","石碇區"
"227005","282-VK","2018/11/19 08:28:04","新北市雙溪區外柑里三叉坑1-1號","121.825216666667","25.0198683333333","6502500","雙溪區"
"252006","073-UM","2018/11/19 08:29:19","新北市三芝區蘭陽街13-1號","121.473538333333","25.2424116666667","6502100","三芝區"
"252004","249-BX","2018/11/19 08:29:14","新北市三芝區興華里車埕2號","121.501175","25.20206","6502100","三芝區"
"237001","159-UY","2018/11/19 08:29:04","新北市三峽區三樹路281號","121.379136666667","24.94324","6500900","三峽區"
"242035","AAC-296","2018/11/19 08:29:21","新北市新莊區建福路15號","121.426151666667","25.0292983333333","6500500","新莊區"
"242057","986-R7","2018/11/19 08:29:11","新北市新莊區新北大道七段233號","121.413136666667","25.0298566666667","6500500","新莊區"
"242055","751-BX","2018/11/19 08:29:11","新北市新莊區豐年街55-8號","121.44648","25.0308333333333","6500500","新莊區"
"242028","705-TV","2018/11/19 08:29:16","新北市新莊區中平路156號","121.44478","25.0473583333333","6500500","新莊區"
"242026","615-BX","2018/11/19 08:29:24","新北市新莊區思源路448號","121.460045","25.053415","6500500","新莊區"
"242024","613-BX","2018/11/19 08:29:09","新北市新莊區新北大道二段215號","121.462846666667","25.06061","6500500","新莊區"
"242043","566-BX","2018/11/19 08:29:19","新北市新莊區雙鳳路23號","121.416673333333","25.0269133333333","6500500","新莊區"
"242047","497-BY","2018/11/19 08:29:04","新北市新莊區後港二路8號","121.422851666667","25.024175","6500500","新莊區"
"242040","442-UM","2018/11/19 08:29:19","新北市新莊區中正路857號","121.419811666667","25.0281516666667","6500500","新莊區"
"242052","441-UM","2018/11/19 08:29:24","新北市新莊區民安西路470-1號","121.431768333333","25.0078883333333","6500500","新莊區"
"242038","415-TV","2018/11/19 08:29:15","新北市新莊區民安西路24巷18弄1號","121.426118333333","25.020795","6500500","新莊區"
"242008","413-TV","2018/11/19 08:29:24","新北市新莊區中華路二段258巷3號","121.453265","25.0531633333333","6500500","新莊區"
"242022","362-BY","2018/11/19 08:29:25","新北市新莊區化成路344號","121.465831666667","25.0488683333333","6500500","新莊區"
"242059","353-BY","2018/11/19 08:29:21","新北市新莊區新樹路259號","121.434636666667","25.0215833333333","6500500","新莊區"
"242010","132-UY","2018/11/19 08:29:13","新北市新莊區中榮街56巷11號","121.44915","25.0533916666667","6500500","新莊區"
"242045","135-UY","2018/11/19 08:29:04","新北市新莊區福營路141號","121.432548333333","25.03167","6500500","新莊區"
"242049","172-VK","2018/11/19 08:29:21","新北市新莊區民本街23巷18號","121.429181666667","25.0195883333333","6500500","新莊區"
"242012","173-VK","2018/11/19 08:29:25","新北市新莊區中和街125巷8號","121.44708","25.0486466666667","6500500","新莊區"
"242018","175-VK","2018/11/19 08:29:15","新北市新莊區民樂街8號","121.45763","25.03977","6500500","新莊區"
"242006","176-VK","2018/11/19 08:29:18","新北市新莊區中華路二段97號","121.45278","25.049525","6500500","新莊區"
"242016","346-TH","2018/11/19 08:29:17","新北市新莊區中港路304號","121.452748333333","25.0450483333333","6500500","新莊區"
"242030","348-TH","2018/11/19 08:29:20","新北市新莊區新泰路289巷26號","121.444356666667","25.0405516666667","6500500","新莊區"
"242003","349-TH","2018/11/19 08:29:16","新北市新莊區自由街12號","121.455858333333","25.0475283333333","6500500","新莊區"
"242020","350-TH","2018/11/19 08:29:25","新北市新莊區建興街89巷2號","121.449838333333","25.0390533333333","6500500","新莊區"
"242014","351-TH","2018/11/19 08:29:16","新北市新莊區中和街59巷28號","121.446226666667","25.0466833333333","6500500","新莊區"
"242001","281-VK","2018/11/19 08:29:17","新北市新莊區新莊路80號","121.457266666667","25.03652","6500500","新莊區"
"242033","280-VK","2018/11/19 08:29:22","新北市新莊區景德路266號","121.448433333333","25.033675","6500500","新莊區"
