"lineid","car","time","location","longitude","latitude","cityid","cityname"
"248004","653-BX","2018/11/19 08:39:24","新北市五股區明德路12巷3號","121.433275","25.07179","6501500","五股區"
"232001","290-BY","2018/11/19 08:39:12","新北市坪林區粗石斛2號","121.74582","24.9549316666667","6502000","坪林區"
"232012","291-BY","2018/11/19 08:39:08","新北市坪林區金瓜寮24-2號","121.680226666667","24.9080466666667","6502000","坪林區"
"232017","705-BZ","2018/11/19 08:38:17","新北市坪林區中心崙9號","121.781223333333","24.9431133333333","6502000","坪林區"
"232005","758-BX","2018/11/19 08:39:06","新北市坪林區石10-3號","121.709228333333","24.9084616666667","6502000","坪林區"
"244022","069-UM","2018/11/19 08:39:08","新北市林口區興林路221巷27號","121.38974","25.0717433333333","6501700","林口區"
"244006","080-UY","2018/11/19 08:39:15","新北市林口區湖子11號","121.386973333333","25.0895483333333","6501700","林口區"
"244018","403-UM","2018/11/19 08:39:16","新北市林口區公園路120號","121.370338333333","25.07125","6501700","林口區"
"244012","KEA-2802","2018/11/19 08:39:06","新北市林口區中山路42號","121.395405","25.07834","6501700","林口區"
"244001","410-SL","2018/11/19 08:39:06","新北市林口區下福里28-1號","121.308703333333","25.111725","6501700","林口區"
"244016","485-VK","2018/11/19 08:39:19","新北市林口區文化二路一段260巷18號","121.371058333333","25.0724633333333","6501700","林口區"
"244008","656-BX","2018/11/19 08:39:19","新北市林口區竹林路582巷19號","121.385956666667","25.0833633333333","6501700","林口區"
"244010","701-TV","2018/11/19 08:39:17","新北市林口區中正路30巷8號","121.395935","25.0777683333333","6501700","林口區"
"244024","837-TS","2018/11/19 08:39:12","新北市林口區南勢六街18號","121.357125","25.07063","6501700","林口區"
"244020","838-TS","2018/11/19 08:39:24","新北市林口區自強一街17號","121.398115","25.078425","6501700","林口區"
"222005","289-BY","2018/11/19 08:39:11","新北市深坑區萬福路175號","121.615041666667","25.015125","6501800","深坑區"
"231007","189-VK","2018/11/19 08:39:11","新北市新店區新潭路二段112-2號","121.51353","24.924185","6500600","新店區"
"231008","192-VK","2018/11/19 08:39:15","新北市烏來區新烏路四段2號","121.548345","24.8923266666667","6500600","新店區"
"241020","413-TH","2018/11/19 08:39:19","新北市三重區重新路四段121號","121.485356666667","25.05204","6500200","三重區"
"235001","611-BX","2018/11/19 08:39:17","新北市中和區民安街53-12號","121.479716666667","24.9992583333333","6500300","中和區"
"226005","5620-A6","2018/11/19 08:39:14","新北市平溪區南山里南山坪125號","121.78601","25.0453266666667","6502400","平溪區"
"226001","7418-A5","2018/11/19 08:39:11","新北市平溪區東勢里火燒寮36-1號","121.76899","24.9856216666667","6502400","平溪區"
"226003","AGD-0702","2018/11/19 08:39:26","新北市平溪區靜安路三段331號","121.779235","25.0446183333333","6502400","平溪區"
"223006","022-BY","2018/11/19 08:37:09","新北市深坑區昇高坑路50號","121.628661666667","24.997995","6501900","石碇區"
"223002","KEA-2673","2018/11/19 08:39:09","新北市石碇區摸乳巷5號","121.659526666667","24.9842966666667","6501900","石碇區"
"223003","205-TH","2018/11/19 08:37:33","新北市石碇區北宜路六段柑腳巷2號","121.659608333333","24.93804","6501900","石碇區"
"223008","406-TH","2018/11/19 08:39:19","新北市石碇區靜安路一段197號","121.672723333333","25.0082516666667","6501900","石碇區"
"223004","437-BY","2018/11/19 08:39:19","新北市石碇區崩山3-2號","121.67531","24.9735066666667","6501900","石碇區"
"223001","592-UM","2018/11/19 08:39:03","新北市石碇區北宜路六段柑腳巷2號","121.659606666667","24.9380833333333","6501900","石碇區"
"223005","677-TV","2018/11/19 08:39:10","新北市石碇區崩山22號","121.677331666667","24.971685","6501900","石碇區"
"227005","282-VK","2018/11/19 08:39:24","新北市雙溪區外柑里三叉坑11-3號","121.82749","25.0058833333333","6502500","雙溪區"
"252006","073-UM","2018/11/19 08:39:19","新北市三芝區錫板里海尾15-11號","121.476835","25.25469","6502100","三芝區"
"252004","249-BX","2018/11/19 08:38:14","新北市三芝區興華里楓子林38號","121.49084","25.2078166666667","6502100","三芝區"
"237001","159-UY","2018/11/19 08:39:04","新北市三峽區大德路16號","121.377826666667","24.94254","6500900","三峽區"
"242035","AAC-296","2018/11/19 08:38:14","新北市新莊區後港一路65巷11弄5號","121.426028333333","25.027175","6500500","新莊區"
"242057","986-R7","2018/11/19 08:39:11","桃園市龜山區萬壽路一段38號","121.409071666667","25.0195483333333","6500500","新莊區"
"242055","751-BX","2018/11/19 08:39:08","新北市新莊區豐年街豐2巷3號","121.446845","25.0307983333333","6500500","新莊區"
"242028","705-TV","2018/11/19 08:39:16","新北市新莊區幸福路906號","121.44294","25.049","6500500","新莊區"
"242026","615-BX","2018/11/19 08:39:04","新北市新莊區幸福路567號","121.454176666667","25.049275","6500500","新莊區"
"242024","613-BX","2018/11/19 08:39:09","新北市新莊區五權一路78號","121.458913333333","25.06699","6500500","新莊區"
"242043","566-BX","2018/11/19 08:39:08","新北市新莊區雙鳳路135號","121.412891666667","25.0273583333333","6500500","新莊區"
"242047","497-BY","2018/11/19 08:39:04","新北市新莊區民安路49號","121.423898333333","25.0263066666667","6500500","新莊區"
"242040","442-UM","2018/11/19 08:39:11","新北市新莊區壽山路41號","121.414981666667","25.0304883333333","6500500","新莊區"
"242052","441-UM","2018/11/19 08:39:20","新北市新莊區西盛街395巷29弄9號","121.42847","25.0119833333333","6500500","新莊區"
"242038","415-TV","2018/11/19 08:39:15","新北市新莊區民安路298號","121.428151666667","25.0218016666667","6500500","新莊區"
"242008","413-TV","2018/11/19 08:39:24","新北市新莊區昌平街71巷15號","121.453731666667","25.053605","6500500","新莊區"
"242022","362-BY","2018/11/19 08:39:22","新北市新莊區化成路320號","121.465725","25.0485083333333","6500500","新莊區"
"242059","353-BY","2018/11/19 08:39:21","新北市新莊區新樹路69-4號","121.438663333333","25.0297333333333","6500500","新莊區"
"242010","132-UY","2018/11/19 08:39:13","新北市新莊區中港路605巷9號","121.450806666667","25.05284","6500500","新莊區"
"242045","135-UY","2018/11/19 08:39:24","新北市新莊區中正路649-8號","121.43034","25.030315","6500500","新莊區"
"242049","172-VK","2018/11/19 08:39:21","新北市新莊區民本街33巷16號","121.428855","25.01863","6500500","新莊區"
"242012","173-VK","2018/11/19 08:39:17","新北市新莊區中誠街95巷4號","121.45007","25.047525","6500500","新莊區"
"242018","175-VK","2018/11/19 08:39:15","新北市新莊區明智街21巷1號","121.454105","25.0412216666667","6500500","新莊區"
"242006","176-VK","2018/11/19 08:39:18","新北市新莊區思源路593巷5弄31號","121.457858333333","25.0593466666667","6500500","新莊區"
"242016","346-TH","2018/11/19 08:39:16","新北市新莊區中港路360號","121.452015","25.04692","6500500","新莊區"
"242030","348-TH","2018/11/19 08:39:20","新北市新莊區新泰路255巷3號","121.445855","25.0397333333333","6500500","新莊區"
"242003","349-TH","2018/11/19 08:39:16","新北市新莊區復興路三段2號","121.460493333333","25.0444066666667","6500500","新莊區"
"242020","350-TH","2018/11/19 08:39:21","新北市新莊區新興街22號","121.45072","25.0366083333333","6500500","新莊區"
"242014","351-TH","2018/11/19 08:39:16","新北市新莊區中平路184巷10弄5號","121.445441666667","25.0482283333333","6500500","新莊區"
"242001","281-VK","2018/11/19 08:39:17","新北市新莊區環漢路二段385號","121.4513","25.032735","6500500","新莊區"
"242033","280-VK","2018/11/19 08:39:22","新北市新莊區中正路344號","121.44428","25.0345016666667","6500500","新莊區"
