"lineid","car","time","location","longitude","latitude","cityid","cityname"
"248004","653-BX","2018/11/19 08:49:03","新北市五股區明德路12巷1號","121.43333","25.071715","6501500","五股區"
"232001","290-BY","2018/11/19 08:49:12","新北市坪林區虎寮潭1號","121.740896666667","24.9505016666667","6502000","坪林區"
"232012","291-BY","2018/11/19 08:49:08","新北市坪林區金瓜寮1號","121.68268","24.9211666666667","6502000","坪林區"
"232017","705-BZ","2018/11/19 08:49:17","新北市坪林區中心崙2-1號","121.78536","24.95293","6502000","坪林區"
"232005","758-BX","2018/11/19 08:49:06","新北市坪林區魚堀13-1號","121.705266666667","24.90874","6502000","坪林區"
"244022","069-UM","2018/11/19 08:49:08","新北市林口區興林路146號","121.388791666667","25.0721616666667","6501700","林口區"
"244006","080-UY","2018/11/19 08:49:15","新北市林口區林口路256號","121.38645","25.084345","6501700","林口區"
"244018","403-UM","2018/11/19 08:49:24","新北市林口區文化一路一段89-5號","121.371806666667","25.0704566666667","6501700","林口區"
"244012","KEA-2802","2018/11/19 08:49:15","新北市林口區中山路140-1號","121.391561666667","25.0786733333333","6501700","林口區"
"244001","410-SL","2018/11/19 08:49:06","新北市林口區下福131號","121.296368333333","25.1209216666667","6501700","林口區"
"244016","485-VK","2018/11/19 08:49:19","新北市林口區文化二路一段232號","121.369813333333","25.0724983333333","6501700","林口區"
"244008","656-BX","2018/11/19 08:49:19","新北市林口區竹林路616號","121.386598333333","25.0821983333333","6501700","林口區"
"244010","701-TV","2018/11/19 08:49:17","新北市林口區新生街5號","121.3943","25.0769316666667","6501700","林口區"
"244024","837-TS","2018/11/19 08:49:06","新北市林口區南勢四街224號","121.356476666667","25.073865","6501700","林口區"
"244020","838-TS","2018/11/19 08:49:24","新北市林口區自強二街30號","121.398213333333","25.0778033333333","6501700","林口區"
"222005","289-BY","2018/11/19 08:48:51","台北市南港區南深路52號","121.62335","25.02189","6501800","深坑區"
"231007","189-VK","2018/11/19 08:49:11","新北市新店區新潭路三段210號","121.506106666667","24.9048116666667","6500600","新店區"
"231008","192-VK","2018/11/19 08:49:21","新北市新店區松林路7號","121.54707","24.9113333333333","6500600","新店區"
"241020","413-TH","2018/11/19 08:49:18","新北市三重區重新路四段121號","121.485371666667","25.0520933333333","6500200","三重區"
"235001","611-BX","2018/11/19 08:49:17","新北市中和區莒光路84巷32號","121.471373333333","25.0024716666667","6500300","中和區"
"226005","5620-A6","2018/11/19 08:49:14","新北市平溪區十分里十分街106號","121.77682","25.0429083333333","6502400","平溪區"
"226001","7418-A5","2018/11/19 08:48:11","新北市平溪區東勢里東勢格41號","121.76173","24.9897166666667","6502400","平溪區"
"226003","AGD-0702","2018/11/19 08:49:06","新北市平溪區十分里十分街236號","121.778156666667","25.0440216666667","6502400","平溪區"
"223006","022-BY","2018/11/19 08:44:01","新北市深坑區昇高坑路51-1號","121.630536666667","24.994075","6501900","石碇區"
"223002","KEA-2673","2018/11/19 08:49:09","新北市石碇區員潭子坑14號","121.646205","24.9891933333333","6501900","石碇區"
"223003","205-TH","2018/11/19 08:48:55","新北市石碇區北宜路六段水底寮巷18號","121.662658333333","24.9417966666667","6501900","石碇區"
"223008","406-TH","2018/11/19 08:49:03","新北市石碇區串空湖7-1號","121.670748333333","25.00144","6501900","石碇區"
"223004","437-BY","2018/11/19 08:49:19","新北市石碇區崩山47-5號","121.6786","24.9699433333333","6501900","石碇區"
"223001","592-UM","2018/11/19 08:49:22","新北市石碇區北宜路六段水底寮巷12-1號","121.665165","24.9472316666667","6501900","石碇區"
"223005","677-TV","2018/11/19 08:49:10","新北市石碇區崩山42-2號","121.679981666667","24.9651833333333","6501900","石碇區"
"227005","282-VK","2018/11/19 08:49:24","新北市雙溪區外柑里四分子4號","121.842105","25.000105","6502500","雙溪區"
"252006","073-UM","2018/11/19 08:49:19","新北市三芝區古庄里四棧橋24號","121.486933333333","25.2604533333333","6502100","三芝區"
"252004","249-BX","2018/11/19 08:49:14","新北市三芝區興華里田心子16號","121.493351666667","25.2042816666667","6502100","三芝區"
"237001","159-UY","2018/11/19 08:49:24","新北市三峽區學勤路100號","121.374928333333","24.9454483333333","6500900","三峽區"
"242035","AAC-296","2018/11/19 08:49:09","新北市新莊區民安路181巷2弄12號","121.426421666667","25.0226683333333","6500500","新莊區"
"242057","986-R7","2018/11/19 08:49:11","新北市新莊區中正路891-45號","121.413793333333","25.0228366666667","6500500","新莊區"
"242055","751-BX","2018/11/19 08:49:07","新北市新莊區瓊林路51-3號","121.445155","25.0276066666667","6500500","新莊區"
"242028","705-TV","2018/11/19 08:49:21","新北市新莊區中榮街103號","121.444836666667","25.0527766666667","6500500","新莊區"
"242026","615-BX","2018/11/19 08:49:24","新北市新莊區立信五街5號","121.444318333333","25.05143","6500500","新莊區"
"242024","613-BX","2018/11/19 08:49:09","新北市新莊區五權一路12巷9弄21號","121.457971666667","25.06534","6500500","新莊區"
"242043","566-BX","2018/11/19 08:49:08","新北市新莊區鳳山街56巷27號","121.413861666667","25.0264633333333","6500500","新莊區"
"242047","497-BY","2018/11/19 08:49:04","新北市新莊區後港一路28巷14號","121.4256","25.0250516666667","6500500","新莊區"
"242040","442-UM","2018/11/19 08:49:11","新北市新莊區天祥街53號","121.415015","25.0304316666667","6500500","新莊區"
"242052","441-UM","2018/11/19 08:49:05","新北市新莊區民安西路410巷19號","121.427593333333","25.0092666666667","6500500","新莊區"
"242038","415-TV","2018/11/19 08:49:15","新北市新莊區民安路299巷55弄20號","121.428925","25.023665","6500500","新莊區"
"242008","413-TV","2018/11/19 08:49:04","新北市新莊區昌盛街35巷3弄2號","121.454086666667","25.05061","6500500","新莊區"
"242022","362-BY","2018/11/19 08:49:21","新北市新莊區化成路562號","121.466181666667","25.054055","6500500","新莊區"
"242059","353-BY","2018/11/19 08:49:21","新北市新莊區富國路178號","121.424256666667","25.0244333333333","6500500","新莊區"
"242010","132-UY","2018/11/19 08:49:14","新北市新莊區中港路615巷5號","121.45092","25.0533616666667","6500500","新莊區"
"242045","135-UY","2018/11/19 08:49:04","新北市新莊區民安路46號","121.422591666667","25.0275","6500500","新莊區"
"242049","172-VK","2018/11/19 08:49:21","新北市新莊區民安西路196巷3號","121.425643333333","25.01529","6500500","新莊區"
"242012","173-VK","2018/11/19 08:49:25","新北市新莊區幸福路678巷5號","121.450688333333","25.0497283333333","6500500","新莊區"
"242018","175-VK","2018/11/19 08:49:15","新北市新莊區民樂街78號","121.457908333333","25.04362","6500500","新莊區"
"242006","176-VK","2018/11/19 08:49:18","新北市新莊區福壽街164巷20號","121.459295","25.0527616666667","6500500","新莊區"
"242016","346-TH","2018/11/19 08:49:21","新北市新莊區中港一街140號","121.447905","25.0451333333333","6500500","新莊區"
"242030","348-TH","2018/11/19 08:49:20","新北市新莊區新泰路277巷43弄2號","121.444095","25.0399683333333","6500500","新莊區"
"242003","349-TH","2018/11/19 08:49:16","新北市新莊區化成路29巷95號","121.461135","25.044","6500500","新莊區"
"242020","350-TH","2018/11/19 08:49:17","新北市新莊區建中街16巷30號","121.449096666667","25.0387233333333","6500500","新莊區"
"242014","351-TH","2018/11/19 08:49:16","新北市新莊區復興路一段49號","121.447058333333","25.04227","6500500","新莊區"
"242001","281-VK","2018/11/19 08:49:17","新北市新莊區中正路219號","121.450896666667","25.0357666666667","6500500","新莊區"
"242033","280-VK","2018/11/19 08:49:22","新北市新莊區新泰路199巷19號","121.445618333333","25.0377016666667","6500500","新莊區"
