"lineid","car","time","location","longitude","latitude","cityid","cityname"
"248004","653-BX","2018/11/19 08:59:24","新北市五股區明德路8號","121.433415","25.0715516666667","6501500","五股區"
"232012","291-BY","2018/11/19 08:59:08","新北市坪林區北宜路七段338號","121.696863333333","24.9348566666667","6502000","坪林區"
"232017","705-BZ","2018/11/19 08:59:17","新北市坪林區鷺鶿岫4-1號","121.786915","24.956405","6502000","坪林區"
"232005","758-BX","2018/11/19 08:59:06","新北市坪林區魚堀9-1號","121.70836","24.9050683333333","6502000","坪林區"
"244022","069-UM","2018/11/19 08:59:08","新北市林口區東湖路41巷14號","121.386241666667","25.0733616666667","6501700","林口區"
"244006","080-UY","2018/11/19 08:59:15","新北市林口區林口路80號","121.389068333333","25.0806116666667","6501700","林口區"
"244018","403-UM","2018/11/19 08:59:24","新北市林口區忠孝路542巷8號","121.372506666667","25.06694","6501700","林口區"
"244012","KEA-2802","2018/11/19 08:59:15","新北市林口區佳林路101巷15號","121.386978333333","25.0800783333333","6501700","林口區"
"244001","410-SL","2018/11/19 08:58:46","新北市林口區寶斗厝坑67-5號","121.336853333333","25.11304","6501700","林口區"
"244016","485-VK","2018/11/19 08:59:19","新北市林口區忠孝路504巷8號","121.3703","25.0698433333333","6501700","林口區"
"244008","656-BX","2018/11/19 08:59:19","新北市林口區福林路54號","121.379201666667","25.0889933333333","6501700","林口區"
"244010","701-TV","2018/11/19 08:59:17","新北市林口區興林路17巷3弄2號","121.390241666667","25.0770016666667","6501700","林口區"
"244024","837-TS","2018/11/19 08:59:06","新北市林口區南勢街221巷38號","121.357536666667","25.0751816666667","6501700","林口區"
"244020","838-TS","2018/11/19 08:59:24","新北市林口區自強六街2號","121.399995","25.0768916666667","6501700","林口區"
"222005","289-BY","2018/11/19 08:59:11","新北市深坑區風格街31巷39號","121.627736666667","25.0179483333333","6501800","深坑區"
"231007","189-VK","2018/11/19 08:59:11","新北市新店區新潭路三段211號","121.504441666667","24.9044266666667","6500600","新店區"
"231008","192-VK","2018/11/19 08:59:15","新北市新店區廣興路66巷3號","121.538821666667","24.9137116666667","6500600","新店區"
"235001","611-BX","2018/11/19 08:59:17","新北市中和區華安街16巷12-5號","121.466075","24.9979216666667","6500300","中和區"
"226001","7418-A5","2018/11/19 08:48:11","新北市平溪區東勢里東勢格41號","121.76173","24.9897166666667","6502400","平溪區"
"226003","AGD-0702","2018/11/19 08:59:06","新北市平溪區十分里十分街236號","121.778141666667","25.04407","6502400","平溪區"
"223006","022-BY","2018/11/19 08:59:20","新北市深坑區昇高坑路15號","121.624211666667","25.0008233333333","6501900","石碇區"
"223003","205-TH","2018/11/19 08:59:12","新北市石碇區北宜路五段80號","121.646733333333","24.9513083333333","6501900","石碇區"
"223008","406-TH","2018/11/19 08:59:12","新北市石碇區番子坑56號","121.676371666667","25.010635","6501900","石碇區"
"223004","437-BY","2018/11/19 08:59:19","新北市石碇區碇坪路二段55號","121.683851666667","24.97119","6501900","石碇區"
"223001","592-UM","2018/11/19 08:59:22","新北市石碇區北宜路五段77號","121.645641666667","24.9520266666667","6501900","石碇區"
"223005","677-TV","2018/11/19 08:59:09","新北市石碇區崩山53號","121.683328333333","24.9687383333333","6501900","石碇區"
"227005","282-VK","2018/11/19 08:58:04","新北市雙溪區泰平里泰平15-6號","121.842595","24.981505","6502500","雙溪區"
"252006","073-UM","2018/11/19 08:59:19","新北市三芝區古庄里四棧橋18-3號","121.490061666667","25.2607383333333","6502100","三芝區"
"252004","249-BX","2018/11/19 08:59:14","新北市三芝區興華里田心子31號","121.488838333333","25.200455","6502100","三芝區"
"237001","159-UY","2018/11/19 08:59:24","新北市樹林區學勤路200號","121.37733","24.947075","6500900","三峽區"
"242035","AAC-296","2018/11/19 08:59:16","新北市新莊區民安路207巷30弄7號","121.428003333333","25.0239816666667","6500500","新莊區"
"242057","986-R7","2018/11/19 08:59:14","新北市新莊區八德街21號","121.425163333333","25.0225816666667","6500500","新莊區"
"242055","751-BX","2018/11/19 08:59:16","新北市新莊區新豐街59號","121.446685","25.0335883333333","6500500","新莊區"
"242028","705-TV","2018/11/19 08:59:16","新北市新莊區中原路319-1號","121.446663333333","25.0542733333333","6500500","新莊區"
"242026","615-BX","2018/11/19 08:59:20","新北市新莊區立信一街50號","121.44332","25.0495766666667","6500500","新莊區"
"242024","613-BX","2018/11/19 08:59:08","新北市新莊區五工二路86巷35號","121.460561666667","25.0672933333333","6500500","新莊區"
"242043","566-BX","2018/11/19 08:59:14","新北市新莊區龍安路71-5號","121.41592","25.0219166666667","6500500","新莊區"
"242047","497-BY","2018/11/19 08:59:24","新北市新莊區四維路3號","121.42401","25.02507","6500500","新莊區"
"242040","442-UM","2018/11/19 08:59:11","新北市新莊區青山路一段26號","121.410933333333","25.0275883333333","6500500","新莊區"
"242052","441-UM","2018/11/19 08:59:25","新北市新莊區西盛街384號","121.427923333333","25.0130283333333","6500500","新莊區"
"242038","415-TV","2018/11/19 08:59:15","新北市新莊區民安西路77號","121.427225","25.0195783333333","6500500","新莊區"
"242008","413-TV","2018/11/19 08:59:04","新北市新莊區昌隆街94號","121.456153333333","25.0507433333333","6500500","新莊區"
"242022","362-BY","2018/11/19 08:59:22","新北市新莊區化成路782號","121.46516","25.05916","6500500","新莊區"
"242059","353-BY","2018/11/19 08:59:21","新北市新莊區民安路186號","121.425413333333","25.0236333333333","6500500","新莊區"
"242010","132-UY","2018/11/19 08:59:13","新北市新莊區中信街66-18號","121.449311666667","25.05141","6500500","新莊區"
"242045","135-UY","2018/11/19 08:59:15","新北市新莊區中正路803巷40號","121.421758333333","25.0278916666667","6500500","新莊區"
"242049","172-VK","2018/11/19 08:59:21","新北市新莊區民安西路270號","121.425996666667","25.0129883333333","6500500","新莊區"
"242012","173-VK","2018/11/19 08:59:09","新北市新莊區中和街155巷2號","121.447185","25.0497783333333","6500500","新莊區"
"242018","175-VK","2018/11/19 08:59:15","新北市新莊區博愛路8巷2號","121.456133333333","25.0438616666667","6500500","新莊區"
"242006","176-VK","2018/11/19 08:59:18","新北市新莊區福壽街94巷6號","121.458651666667","25.049965","6500500","新莊區"
"242016","346-TH","2018/11/19 08:59:17","新北市新莊區中港三街75號","121.449696666667","25.04623","6500500","新莊區"
"242030","348-TH","2018/11/19 08:59:20","新北市新莊區新泰路225巷22弄19號","121.444181666667","25.039065","6500500","新莊區"
"242003","349-TH","2018/11/19 08:59:22","新北市新莊區化成路63巷105號","121.461598333333","25.0459216666667","6500500","新莊區"
"242020","350-TH","2018/11/19 08:59:17","新北市新莊區中興街23號","121.449148333333","25.0364583333333","6500500","新莊區"
"242014","351-TH","2018/11/19 08:59:22","新北市新莊區永樂街218號","121.446763333333","25.04449","6500500","新莊區"
"242001","281-VK","2018/11/19 08:59:17","新北市新莊區中正路143號","121.459706666667","25.0384016666667","6500500","新莊區"
"242033","280-VK","2018/11/19 08:59:22","新北市新莊區中正路318巷16號","121.446553333333","25.03596","6500500","新莊區"
