"lineid","car","time","location","longitude","latitude","cityid","cityname"
"248004","653-BX","2018/11/19 09:09:03","新北市五股區水碓路19號","121.433356666667","25.0726233333333","6501500","五股區"
"244022","069-UM","2018/11/19 09:09:08","新北市林口區東湖路93巷7號","121.38435","25.073005","6501700","林口區"
"244006","080-UY","2018/11/19 09:09:15","新北市林口區林口路214號","121.387106666667","25.0835316666667","6501700","林口區"
"244018","403-UM","2018/11/19 09:09:04","新北市林口區文化一路一段82號","121.372191666667","25.0700566666667","6501700","林口區"
"244012","KEA-2802","2018/11/19 09:09:21","新北市林口區佳林路104號","121.385171666667","25.07909","6501700","林口區"
"244001","410-SL","2018/11/19 09:09:06","新北市林口區寶林路170號","121.369531666667","25.0939816666667","6501700","林口區"
"244016","485-VK","2018/11/19 09:09:18","新北市林口區公園路3號","121.36627","25.0661383333333","6501700","林口區"
"244008","656-BX","2018/11/19 09:09:19","新北市林口區文林一街12巷52號","121.377806666667","25.0858533333333","6501700","林口區"
"244010","701-TV","2018/11/19 09:09:17","新北市林口區中正路57巷12弄2號","121.395233333333","25.0766516666667","6501700","林口區"
"244024","837-TS","2018/11/19 09:09:06","新北市林口區文化北路一段436號","121.365428333333","25.0770433333333","6501700","林口區"
"244020","838-TS","2018/11/19 09:04:28","新北市林口區粉寮路一段55號","121.396925","25.077805","6501700","林口區"
"222005","289-BY","2018/11/19 09:09:11","新北市深坑區土庫尖路75-1號","121.631176666667","25.0182933333333","6501800","深坑區"
"231007","189-VK","2018/11/19 09:09:11","新北市新店區新潭路三段215巷25號","121.508138333333","24.90407","6500600","新店區"
"231008","192-VK","2018/11/19 09:09:15","新北市新店區廣興路101-1號","121.536863333333","24.9120933333333","6500600","新店區"
"235001","611-BX","2018/11/19 09:09:17","新北市中和區莒光路213號","121.468905","24.9946216666667","6500300","中和區"
"226001","7418-A5","2018/11/19 08:48:11","新北市平溪區東勢里東勢格41號","121.76173","24.9897166666667","6502400","平溪區"
"226003","AGD-0702","2018/11/19 09:09:06","新北市平溪區望古里望古坑26號","121.763341666667","25.0344","6502400","平溪區"
"223006","022-BY","2018/11/19 09:09:19","新北市石碇區石碇東街141號","121.659121666667","24.9894783333333","6501900","石碇區"
"223003","205-TH","2018/11/19 09:09:12","新北市石碇區北宜路五段坑內巷1號","121.636905","24.9532033333333","6501900","石碇區"
"223008","406-TH","2018/11/19 09:09:12","新北市石碇區碇南路二段松柏崎巷12-1號","121.676118333333","25.01812","6501900","石碇區"
"223004","437-BY","2018/11/19 09:09:19","新北市石碇區磨石坑29號","121.690658333333","24.97031","6501900","石碇區"
"223001","592-UM","2018/11/19 09:09:22","新北市石碇區北宜路五段坑內巷1號","121.636951666667","24.953245","6501900","石碇區"
"223005","677-TV","2018/11/19 09:09:09","新北市石碇區磨石坑28-1號","121.690796666667","24.96871","6501900","石碇區"
"227005","282-VK","2018/11/19 09:09:24","新北市雙溪區泰平里料角坑13-1號","121.816678333333","24.9731916666667","6502500","雙溪區"
"252006","073-UM","2018/11/19 09:09:19","新北市三芝區埔坪里埔頭坑46號","121.504503333333","25.2626483333333","6502100","三芝區"
"252004","249-BX","2018/11/19 09:09:14","新北市三芝區興華里車埕70-1號","121.493303333333","25.1935066666667","6502100","三芝區"
"237001","159-UY","2018/11/19 09:09:04","新北市三峽區大學路192號","121.372461666667","24.946715","6500900","三峽區"
"242035","AAC-296","2018/11/19 09:09:08","新北市新莊區建安街25巷16號","121.429796666667","25.026225","6500500","新莊區"
"242057","986-R7","2018/11/19 09:09:11","新北市新莊區八德街135號","121.423823333333","25.0202283333333","6500500","新莊區"
"242055","751-BX","2018/11/19 09:09:07","新北市新莊區中正路347巷13號","121.447338333333","25.034535","6500500","新莊區"
"242028","705-TV","2018/11/19 09:09:19","新北市新莊區中華路二段209號","121.452176666667","25.0529466666667","6500500","新莊區"
"242026","615-BX","2018/11/19 09:09:24","新北市新莊區幸福路602-1號","121.452246666667","25.0493583333333","6500500","新莊區"
"242024","613-BX","2018/11/19 09:09:21","新北市新莊區五工路68巷11號","121.45859","25.06395","6500500","新莊區"
"242043","566-BX","2018/11/19 09:09:08","新北市新莊區雙鳳路38號","121.41637","25.0271033333333","6500500","新莊區"
"242047","497-BY","2018/11/19 09:09:07","新北市新莊區四維路182巷4號","121.422056666667","25.0217316666667","6500500","新莊區"
"242040","442-UM","2018/11/19 09:09:11","新北市新莊區壽山路55-7號","121.412453333333","25.0315033333333","6500500","新莊區"
"242052","441-UM","2018/11/19 09:09:25","新北市新莊區西盛街362巷3號","121.42763","25.013655","6500500","新莊區"
"242038","415-TV","2018/11/19 09:09:19","新北市新莊區成功街83巷9號","121.424386666667","25.0191016666667","6500500","新莊區"
"242008","413-TV","2018/11/19 09:09:04","新北市新莊區幸福路564巷2弄2號","121.45446","25.0495366666667","6500500","新莊區"
"242022","362-BY","2018/11/19 09:09:01","新北市新莊區化成路547號","121.465068333333","25.0648666666667","6500500","新莊區"
"242059","353-BY","2018/11/19 09:09:21","新北市新莊區瓊林路90號","121.44457","25.0279366666667","6500500","新莊區"
"242010","132-UY","2018/11/19 09:09:13","新北市新莊區中信街42號","121.449761666667","25.0508116666667","6500500","新莊區"
"242045","135-UY","2018/11/19 09:09:24","新北市新莊區富國路80號","121.420038333333","25.0257866666667","6500500","新莊區"
"242049","172-VK","2018/11/19 09:09:08","新北市新莊區民安西路173巷2弄2號","121.426351666667","25.0158616666667","6500500","新莊區"
"242012","173-VK","2018/11/19 09:09:04","新北市新莊區中和街191巷35號","121.447693333333","25.05124","6500500","新莊區"
"242018","175-VK","2018/11/19 09:09:15","新北市新莊區銘德街49巷13號","121.457353333333","25.0429183333333","6500500","新莊區"
"242006","176-VK","2018/11/19 09:09:20","新北市新莊區思源路287巷1弄1號","121.459381666667","25.0483183333333","6500500","新莊區"
"242030","348-TH","2018/11/19 09:09:20","新北市新莊區公園一路104號","121.443771666667","25.0375583333333","6500500","新莊區"
"242003","349-TH","2018/11/19 09:09:16","新北市新莊區頭前路137號","121.461371666667","25.052515","6500500","新莊區"
"242020","350-TH","2018/11/19 09:09:17","新北市新莊區復興路一段7號","121.445685","25.0415416666667","6500500","新莊區"
"242014","351-TH","2018/11/19 09:09:16","新北市新莊區中平路36巷29號","121.44596","25.0436316666667","6500500","新莊區"
"242001","281-VK","2018/11/19 09:09:23","新北市新莊區化成路31號","121.465165","25.04397","6500500","新莊區"
"242033","280-VK","2018/11/19 09:09:22","新北市新莊區建中街116巷3弄17號","121.44513","25.037085","6500500","新莊區"
