"lineid","car","time","location","longitude","latitude","cityid","cityname"
"248004","653-BX","2018/11/19 10:19:23","新北市五股區自強路76號","121.432918333333","25.0728233333333","6501500","五股區"
"244022","069-UM","2018/11/19 10:19:08","新北市林口區文化三路一段617巷88號","121.370411666667","25.0781683333333","6501700","林口區"
"244018","403-UM","2018/11/19 10:19:04","新北市林口區嘉寶里11鄰67號","121.339185","25.11002","6501700","林口區"
"231007","189-VK","2018/11/19 10:19:11","新北市新店區新潭路三段215巷25號","121.507983333333","24.904005","6500600","新店區"
"231008","192-VK","2018/11/19 10:19:14","新北市新店區松林路83號","121.547988333333","24.9083366666667","6500600","新店區"
"227005","282-VK","2018/11/19 10:07:44","新北市雙溪區泰平里灣潭路20-1號","121.81268","24.9290233333333","6502500","雙溪區"
"252006","AAC-283","2018/11/19 10:19:08","新北市三芝區新庄里番社后18號","121.496026666667","25.2748166666667","6502100","三芝區"
"237001","159-UY","2018/11/19 10:19:24","新北市三峽區國際一街55號","121.372128333333","24.9417616666667","6500900","三峽區"
"242003","349-TH","2018/11/19 10:19:15","新北市樹林區中山路三段214號","121.38036","24.9679683333333","6500500","新莊區"
