"lineid","car","time","location","longitude","latitude","cityid","cityname"
"234044","148-BY","2018/11/19 13:38:17","新北市永和區秀朗路二段114號","121.524435","25.0016266666667","6500400","永和區"
"234005","207-UY","2018/11/19 13:38:21","新北市永和區永和路一段125號","121.514035","25.0083333333333","6500400","永和區"
"234078","298-R6","2018/11/19 13:38:26","新北市永和區國中路104巷8弄2號","121.524718333333","25.00684","6500400","永和區"
"234036","336-UY","2018/11/19 13:38:31","新北市永和區民樂街29號","121.527801666667","25.001505","6500400","永和區"
"234062","337-UY","2018/11/19 13:38:29","新北市永和區秀朗路二段24巷28弄2號","121.519931666667","25.0018216666667","6500400","永和區"
"234084","338-UY","2018/11/19 13:38:20","新北市永和區永亨路165巷1-5號","121.526096666667","25.0041216666667","6500400","永和區"
"234068","552-UM","2018/11/19 13:38:19","新北市永和區永和路二段233號","121.515536666667","25.0141683333333","6500400","永和區"
"234015","745-BX","2018/11/19 13:38:26","新北市永和區永和路二段425巷51號","121.513793333333","25.0173466666667","6500400","永和區"
"234028","746-BX","2018/11/19 13:38:22","新北市永和區民權路1巷32號","121.521865","24.998185","6500400","永和區"
"234052","KEA-2590","2018/11/19 13:38:14","新北市永和區竹林路39巷15號","121.518555","25.0147316666667","6500400","永和區"
"234012","KEA-2591","2018/11/19 13:38:24","新北市永和區仁愛路230號","121.508661666667","25.0118866666667","6500400","永和區"
"234060","AAD-866","2018/11/19 13:38:23","新北市永和區中正路390號","121.51757","25.00152","6500400","永和區"
"234040","862-TW","2018/11/19 13:38:27","新北市永和區永貞路261號","121.511995","25.0046966666667","6500400","永和區"
"234048","863-TW","2018/11/19 13:38:27","新北市永和區保福路二段163巷2號","121.509385","25.0148416666667","6500400","永和區"
"234025","9371-KE","2018/11/19 13:38:29","新北市永和區永和路一段212號","121.514378333333","25.0094933333333","6500400","永和區"
"234010","9373-KE","2018/11/19 13:38:15","新北市永和區保福路二段15巷21號","121.510371666667","25.010965","6500400","永和區"
"248015","026-BX","2018/11/19 13:38:15","新北市五股區凌雲路一段149巷42號","121.44862","25.1009333333333","6501500","五股區"
"248005","077-UY","2018/11/19 13:38:13","新北市五股區中興路一段24號","121.46878","25.07252","6501500","五股區"
"248007","095-VK","2018/11/19 13:38:14","新北市五股區中興路一段151巷32號","121.465206666667","25.0727233333333","6501500","五股區"
"248019","225-UY","2018/11/19 13:38:21","新北市五股區孝義路98號","121.446028333333","25.1194866666667","6501500","五股區"
"248011","247-BX","2018/11/19 13:38:20","新北市五股區成泰路三段6-3號","121.441338333333","25.087235","6501500","五股區"
"248003","677-BX","2018/11/19 13:38:17","新北市五股區民義路一段255-29號","121.427725","25.090995","6501500","五股區"
"248001","678-BX","2018/11/19 13:38:26","新北市五股區西雲路221號","121.44882","25.096885","6501500","五股區"
"248009","682-TV","2018/11/19 13:38:31","新北市五股區水碓七路168號","121.430918333333","25.0740316666667","6501500","五股區"
"234022","9380-KE","2018/11/19 13:38:15","新北市永和區中正路702巷18號","121.516478333333","25.0104983333333","6500400","永和區"
"234076","969-R7","2018/11/19 13:38:16","新北市永和區得和路215號","121.519396666667","25.000175","6500400","永和區"
"234072","AAC-211","2018/11/19 13:38:24","新北市永和區竹林路213巷41號","121.523326666667","25.00921","6500400","永和區"
"234066","AAC-212","2018/11/19 13:38:15","新北市永和區永平路173巷9號","121.510103333333","25.0083883333333","6500400","永和區"
"234001","AAC-295","2018/11/19 13:38:24","新北市永和區秀朗路一段10巷2號","121.513846666667","25.0070333333333","6500400","永和區"
"244001","410-SL","2018/11/19 13:38:10","新北市林口區瑞平里8鄰56號","121.343891666667","25.1212966666667","6501700","林口區"
"243002","267-VK","2018/11/19 13:38:31","新北市泰山區犁頭窠6號","121.421225","25.0596983333333","6501600","泰山區"
"243005","AAD-798","2018/11/19 13:24:15","新北市泰山區明志路三段206巷3號","121.423291666667","25.037965","6501600","泰山區"
"243008","KEA-2801","2018/11/19 13:38:11","新北市泰山區黎明路2-5號","121.42078","25.0627466666667","6501600","泰山區"
"231027","0293-UT","2018/11/19 13:38:24","新北市新店區新店後街58號","121.537786666667","24.95399","6500600","新店區"
"231028","046-UY","2018/11/19 13:38:19","新北市新店區安康路一段353號","121.519186666667","24.96408","6500600","新店區"
"231001","047-UY","2018/11/19 13:38:27","新北市新店區中央路31號","121.53286","24.977925","6500600","新店區"
"231005","106-UY","2018/11/19 13:38:18","新北市新店區寶中路72號","121.548045","24.98062","6500600","新店區"
"231010","107-UY","2018/11/19 13:38:19","新北市新店區中正路330號","121.536875","24.97492","6500600","新店區"
"231019","108-UY","2018/11/19 13:38:31","新北市新店區永興路88-1號","121.544021666667","24.933695","6500600","新店區"
"231031","110-UY","2018/11/19 13:38:10","新北市新店區安康路一段299-3號","121.521026666667","24.96388","6500600","新店區"
"231011","187-VK","2018/11/19 13:38:27","新北市新店區德正街23巷5號","121.544286666667","24.9720633333333","6500600","新店區"
"231023","KEA-2219","2018/11/19 13:38:14","新北市新店區新店路94號","121.537183333333","24.9542883333333","6500600","新店區"
"231026","256-BX","2018/11/19 13:38:22","新北市新店區北新路一段339號","121.541875","24.9687833333333","6500600","新店區"
"231003","268-BY","2018/11/19 13:38:17","新北市新店區北新路一段128-1號","121.54267","24.9698516666667","6500600","新店區"
"231018","278-BY","2018/11/19 13:38:26","新北市新店區百忍街8號","121.535038333333","24.9755533333333","6500600","新店區"
"231014","AAD-862","2018/11/19 13:38:18","新北市新店區竹林路2巷27弄11號","121.550983333333","24.9508616666667","6500600","新店區"
"231038","3712-VJ","2018/11/19 13:38:18","新北市新店區安華路28-1號","121.51938","24.9607466666667","6500600","新店區"
"231037","4716-K9","2018/11/19 13:38:24","新北市新店區薏仁坑路57號","121.490478333333","24.9647666666667","6500600","新店區"
"231025","4715-K9","2018/11/19 13:38:26","新北市新店區中央五街33號","121.52882","24.9750733333333","6500600","新店區"
"231036","512-UM","2018/11/19 13:38:19","新北市新店區安祥路156巷70號","121.474365","24.9534816666667","6500600","新店區"
"231013","513-UM","2018/11/19 13:38:25","新北市新店區中正路454-5號","121.534451666667","24.9790316666667","6500600","新店區"
"231034","616-UM","2018/11/19 13:38:14","新北市新店區車子路117號","121.505406666667","24.95147","6500600","新店區"
"231002","618-UM","2018/11/19 13:38:10","新北市新店區中央三街127號","121.52411","24.97682","6500600","新店區"
"231030","619-UM","2018/11/19 13:38:16","新北市新店區安康路一段226-2號","121.52346","24.9636716666667","6500600","新店區"
"231029","897-TW","2018/11/19 13:38:13","新北市新店區安康路二段350-2號","121.50297","24.9576733333333","6500600","新店區"
"231006","898-TW","2018/11/19 13:38:20","新北市新店區光明街1-1號","121.538206666667","24.9591633333333","6500600","新店區"
"231004","899-TW","2018/11/19 13:38:24","新北市新店區北新路二段2號","121.54256","24.9706383333333","6500600","新店區"
"231024","AKT-0513","2018/11/19 13:38:30","新北市新店區華興街38巷5號","121.537105","24.9692866666667","6500600","新店區"
"235030","003-UY","2018/11/19 13:38:15","新北市中和區水源路7巷4號","121.50398","25.0035716666667","6500300","中和區"
"235028","005-UY","2018/11/19 13:38:28","新北市中和區連城路109巷79號","121.49738","24.997685","6500300","中和區"
"235027","006-UY","2018/11/19 13:38:13","新北市中和區連城路389巷7號","121.486636666667","24.9957116666667","6500300","中和區"
"235020","096-UM","2018/11/19 13:38:25","新北市中和區員山路466巷21弄24號","121.480963333333","25.0072366666667","6500300","中和區"
"235003","097-UM","2018/11/19 13:38:15","新北市中和區景平路278巷16弄24號","121.514495","24.99375","6500300","中和區"
"235029","098-UM","2018/11/19 13:38:27","新北市中和區莊敬路33巷36弄10號","121.500465","25.006455","6500300","中和區"
"235004","150-BY","2018/11/19 13:38:19","新北市中和區興南路一段19巷2號","121.511376666667","24.9907366666667","6500300","中和區"
"235022","151-BY","2018/11/19 13:38:20","新北市中和區圓通路296巷1號","121.487415","24.988235","6500300","中和區"
"235019","183-VK","2018/11/19 13:38:19","新北市中和區莒光路84巷22號","121.471603333333","25.0020916666667","6500300","中和區"
"235002","185-VK","2018/11/19 13:38:26","新北市中和區立人街14巷23號","121.51947","24.99519","6500300","中和區"
"235013","186-VK","2018/11/19 13:38:21","新北市中和區景平路512號","121.503673333333","24.9940866666667","6500300","中和區"
"235031","255-BX","2018/11/19 13:38:09","新北市中和區新生街220巷1弄11號","121.483375","24.9980583333333","6500300","中和區"
"235008","293-VK","2018/11/19 13:38:22","新北市中和區復興路267號","121.502675","24.9903183333333","6500300","中和區"
"235036","301-VK","2018/11/19 13:38:10","新北市中和區安邦街8號","121.495551666667","24.9981083333333","6500300","中和區"
"235007","352-BY","2018/11/19 13:38:26","新北市中和區景平路143號","121.51415","24.9921466666667","6500300","中和區"
"235006","KEA-2878","2018/11/19 13:38:31","新北市中和區成功路105號","121.526156666667","24.9912983333333","6500300","中和區"
"235014","4979-A6","2018/11/19 13:38:25","新北市中和區忠孝街115號","121.512478333333","24.98778","6500300","中和區"
"235034","558-UM","2018/11/19 13:38:24","新北市中和區南華路39-2號","121.503376666667","24.9962716666667","6500300","中和區"
"235009","565-BX","2018/11/19 13:38:28","新北市中和區南山路236巷32號","121.50539","24.9884783333333","6500300","中和區"
"235018","640-BX","2018/11/19 13:38:15","新北市中和區莒光路93號","121.472413333333","25.0031916666667","6500300","中和區"
"235024","647-TV","2018/11/19 13:38:19","新北市中和區中山路二段583號","121.480211666667","25.0057933333333","6500300","中和區"
"235011","732-UM","2018/11/19 13:38:32","新北市中和區南山路320巷10弄21號","121.506785","24.9867033333333","6500300","中和區"
"235035","783-BX","2018/11/19 13:38:25","新北市中和區立德街148巷2號","121.487546666667","25.00877","6500300","中和區"
"235026","800-TS","2018/11/19 13:38:10","新北市中和區中山路二段312巷6號","121.495616666667","25.0028216666667","6500300","中和區"
"235021","801-TS","2018/11/19 13:38:19","新北市中和區員山路327巷26號","121.480733333333","25.0015466666667","6500300","中和區"
"235005","802-TS","2018/11/19 13:38:20","新北市永和區中和路545號","121.51142","25.0032783333333","6500300","中和區"
"235016","805-TS","2018/11/19 13:38:28","新北市中和區興南路三段20巷28-2號","121.496876666667","24.9796483333333","6500300","中和區"
"235012","896-TW","2018/11/19 13:38:23","新北市中和區中正路81號","121.500686666667","24.9932716666667","6500300","中和區"
"235017","900-TW","2018/11/19 13:38:27","新北市中和區民享街490號","121.469613333333","24.9922666666667","6500300","中和區"
"235015","157-BY","2018/11/19 13:38:16","新北市中和區華新街143巷106弄33號","121.506901666667","24.9782266666667","6500300","中和區"
"235001","AAC-213","2018/11/19 13:38:25","新北市中和區景平路151巷39號","121.514633333333","24.9906516666667","6500300","中和區"
"235023","AAC-215","2018/11/19 13:38:24","新北市中和區中正路637巷52弄1號","121.485503333333","24.9934216666667","6500300","中和區"
"220013","072-UY","2018/11/19 13:38:15","新北市板橋區南雅南路二段11-5號","121.453951666667","25.0022383333333","6500100","板橋區"
"220034","073-UY","2018/11/19 13:38:29","新北市板橋區大仁街120號","121.452571666667","25.015805","6500100","板橋區"
"220017","AAD-861","2018/11/19 13:38:17","新北市板橋區華東街1-8號","121.447933333333","24.9948333333333","6500100","板橋區"
"247009","056-VK","2018/11/19 13:38:24","新北市五股區中興路三段2巷10號","121.449115","25.0812333333333","6501400","蘆洲區"
"247021","001-UY","2018/11/19 13:38:10","新北市五股區中興路三段163號","121.449021666667","25.080465","6501400","蘆洲區"
"253003","6232-TK","2018/11/19 13:38:18","新北市石門區內石門102號","121.568126666667","25.2752783333333","6502200","石門區"
"253004","6251-TK","2018/11/19 13:37:32","新北市石門區五爪崙8-2號","121.60669","25.2621216666667","6502200","石門區"
"253002","637-UY","2018/11/19 13:38:26","新北市石門區內石門80號","121.5662","25.2605233333333","6502200","石門區"
"253001","KEC-0718","2018/11/19 13:38:15","新北市石門區白沙灣別墅37號","121.509586666667","25.27847","6502200","石門區"
"207002","749-BX","2018/11/19 13:38:13","新北市萬里區崁腳里崁腳路166號","121.645051666667","25.155805","6502800","萬里區"
"252005","073-UM","2018/11/19 13:38:09","新北市三芝區圓山里內柑宅22-2號","121.537011666667","25.2175133333333","6502100","三芝區"
"207001","662-BX","2018/11/19 13:38:20","新北市萬里區大鵬里萬里加投51號","121.642791666667","25.2105033333333","6502800","萬里區"
"236032","271-VK","2018/11/19 13:38:25","新北市土城區城林路6巷80號","121.438513333333","24.9797883333333","6501300","土城區"
"236045","913-UM","2018/11/19 13:38:29","新北市土城區城林路6巷80號","121.438403333333","24.9797466666667","6501300","土城區"
"242049","172-VK","2018/11/19 13:38:31","新北市新莊區自由街8號","121.455875","25.04774","6500500","新莊區"
"221010","269-BY","2018/11/19 13:38:24","新北市汐止區康寧街467號","121.631736666667","25.0683533333333","6501100","汐止區"
"221032","280-BY","2018/11/19 13:38:25","新北市汐止區秀峰路57號","121.659625","25.0652866666667","6501100","汐止區"
"221033","647-BX","2018/11/19 13:38:12","新北市新店區車子路18-1號","121.506151666667","24.95466","6501100","汐止區"
"220027","145-BY","2018/11/19 13:38:18","新北市板橋區大智街71巷8弄11號","121.452723333333","25.0153616666667","6500100","板橋區"
"220028","200-UY","2018/11/19 13:38:30","新北市板橋區大觀路二段265巷76弄16號","121.441896666667","24.9966933333333","6500100","板橋區"
"220004","276-BY","2018/11/19 13:38:24","新北市土城區廣興街38號","121.453421666667","24.9915133333333","6500100","板橋區"
"220020","277-BY","2018/11/19 13:38:12","新北市板橋區大觀路三段6號","121.43487","24.99571","6500100","板橋區"
"220012","282-UM","2018/11/19 13:38:10","新北市板橋區民生路二段56-3號","121.471921666667","25.0170133333333","6500100","板橋區"
"220019","283-VK","2018/11/19 13:38:13","新北市板橋區四川路二段23-3號","121.454588333333","24.9956666666667","6500100","板橋區"
"220043","285-UM","2018/11/19 13:38:14","新北市板橋區民生路二段120號","121.470603333333","25.0199183333333","6500100","板橋區"
"220029","287-VK","2018/11/19 13:38:27","新北市板橋區大觀路288號","121.449335","24.9984333333333","6500100","板橋區"
"220032","296-UM","2018/11/19 13:38:30","新北市板橋區大觀路288號","121.449255","24.9984516666667","6500100","板橋區"
"220023","303-R5","2018/11/19 13:38:28","新北市板橋區華東街298號","121.452736666667","25.002765","6500100","板橋區"
"220010","305-R5","2018/11/19 13:38:25","新北市板橋區民生路二段120號","121.470475","25.0196066666667","6500100","板橋區"
"220047","317-R6","2018/11/19 13:38:16","新北市板橋區民生路二段120號","121.470836666667","25.019665","6500100","板橋區"
"220104","560-BX","2018/11/19 13:38:29","新北市板橋區南雅西路二段145巷10號","121.451568333333","25.0119616666667","6500100","板橋區"
"220052","561-BX","2018/11/19 13:38:21","新北市板橋區民生路二段161巷1號","121.469951666667","25.019745","6500100","板橋區"
"220031","568-UM","2018/11/19 13:38:18","新北市板橋區大觀路二段2號","121.446833333333","25.0038866666667","6500100","板橋區"
"220011","609-BX","2018/11/19 13:38:22","新北市板橋區民生路二段188號","121.470066666667","25.0202833333333","6500100","板橋區"
"220025","687-BX","2018/11/19 13:38:23","新北市板橋區大觀路三段212巷40號","121.429665","24.9932716666667","6500100","板橋區"
"220002","741-BX","2018/11/19 13:38:27","新北市板橋區南雅南路二段120-7號","121.452146666667","24.9995083333333","6500100","板橋區"
"220018","806-UM","2018/11/19 13:38:17","新北市板橋區大觀路二段266號","121.449093333333","24.9964383333333","6500100","板橋區"
"220003","827-TW","2018/11/19 13:38:18","新北市板橋區華東街1-10號","121.44869","24.9950583333333","6500100","板橋區"
"220037","833-TW","2018/11/19 13:38:13","新北市板橋區民生路二段171號","121.469868333333","25.02012","6500100","板橋區"
"220022","895-R6","2018/11/19 13:38:27","新北市板橋區南雅南路一段72號","121.455336666667","25.00514","6500100","板橋區"
"220021","985-R7","2018/11/19 13:38:25","新北市板橋區南雅南路二段116號","121.452488333333","25.0006016666667","6500100","板橋區"
"220030","AAC-253","2018/11/19 13:38:26","新北市板橋區大觀路三段50巷49號","121.432196666667","24.9959316666667","6500100","板橋區"
"235032","KEA-2873","2018/11/19 13:38:12","新北市中和區中正路211巷13弄1號","121.497078333333","24.9928383333333","6500300","中和區"
"235025","KEA-2875","2018/11/19 13:38:23","新北市中和區民享街114巷4號","121.474291666667","24.9993016666667","6500300","中和區"
