"lineid","car","time","location","longitude","latitude","cityid","cityname"
"234078","298-R6","2018/11/19 14:38:26","新北市永和區永貞路82號","121.520133333333","25.0050333333333","6500400","永和區"
"234052","KEA-2590","2018/11/19 14:38:13","新北市永和區博愛街45巷8-1號","121.519293333333","25.0162316666667","6500400","永和區"
"234048","863-TW","2018/11/19 14:38:27","新北市永和區保安路136號","121.508475","25.0153566666667","6500400","永和區"
"234025","9371-KE","2018/11/19 14:38:29","新北市永和區中和路501巷2號","121.510506666667","25.0025133333333","6500400","永和區"
"248015","026-BX","2018/11/19 14:38:15","新北市五股區成泰路四段24-5號","121.45353","25.1068116666667","6501500","五股區"
"248007","095-VK","2018/11/19 14:38:13","新北市五股區四維路118巷9號","121.468818333333","25.074375","6501500","五股區"
"248011","247-BX","2018/11/19 14:38:20","新北市五股區民義路一段84號","121.435986666667","25.0849766666667","6501500","五股區"
"248003","677-BX","2018/11/19 14:38:11","新北市五股區成泰路二段86號","121.437513333333","25.0824416666667","6501500","五股區"
"248001","678-BX","2018/11/19 14:38:26","新北市五股區成泰路三段369-2號","121.448846666667","25.0960216666667","6501500","五股區"
"248009","682-TV","2018/11/19 14:38:11","新北市五股區自強路161號","121.431293333333","25.0693366666667","6501500","五股區"
"234072","AAC-211","2018/11/19 14:38:24","新北市永和區竹林路75巷4弄34號","121.521545","25.0142383333333","6500400","永和區"
"234001","AAC-295","2018/11/19 14:38:24","新北市永和區中正路545號","121.516855","25.00802","6500400","永和區"
"244001","410-SL","2018/11/19 14:36:37","新北市林口區林口路76號","121.389716666667","25.0807233333333","6501700","林口區"
"243002","267-VK","2018/11/19 14:38:31","新北市泰山區明志路二段136巷48號","121.42623","25.052065","6501600","泰山區"
"243005","AAD-798","2018/11/19 14:35:37","新北市泰山區應化街7號","121.423891666667","25.04372","6501600","泰山區"
"243001","297-R6","2018/11/19 14:38:23","新北市泰山區明志路一段122巷6號","121.432565","25.06393","6501600","泰山區"
"243008","KEA-2801","2018/11/19 14:38:31","新北市新莊區新北大道七段120號","121.417416666667","25.0321783333333","6501600","泰山區"
"243007","421-VK","2018/11/19 14:38:25","新北市泰山區明志路二段214巷9號","121.426738333333","25.0489033333333","6501600","泰山區"
"243003","KEA-2215","2018/11/19 14:38:24","新北市泰山區明志路三段204巷10弄20號","121.423018333333","25.03878","6501600","泰山區"
"243004","646-TV","2018/11/19 14:38:13","新北市泰山區福興三街193號","121.433398333333","25.0573066666667","6501600","泰山區"
"243006","680-BX","2018/11/19 14:38:22","新北市泰山區泰林路二段181號","121.433538333333","25.0609116666667","6501600","泰山區"
"231027","0293-UT","2018/11/19 14:38:24","新北市新店區寶橋路31號","121.544273333333","24.9743466666667","6500600","新店區"
"231028","046-UY","2018/11/19 14:38:19","新北市新店區安成街6號","121.510846666667","24.9603333333333","6500600","新店區"
"231001","047-UY","2018/11/19 14:38:27","新北市新店區中正路6號","121.545663333333","24.9694133333333","6500600","新店區"
"231005","106-UY","2018/11/19 14:38:18","新北市新店區順安街51號","121.540786666667","24.9862266666667","6500600","新店區"
"231019","108-UY","2018/11/19 14:38:31","新北市新店區桂山路69號","121.566556666667","24.9006833333333","6500600","新店區"
"231011","187-VK","2018/11/19 14:38:27","新北市新店區中興路二段236巷6號","121.547998333333","24.975865","6500600","新店區"
"231023","KEA-2219","2018/11/19 14:38:34","新北市新店區檳榔路20號","121.541268333333","24.9642516666667","6500600","新店區"
"231003","268-BY","2018/11/19 14:38:16","新北市新店區中興路一段283號","121.545386666667","24.968465","6500600","新店區"
"231018","278-BY","2018/11/19 14:38:26","新北市新店區中央二街5巷1號","121.529171666667","24.9728083333333","6500600","新店區"
"231014","AAD-862","2018/11/19 14:38:18","新北市新店區北宜路二段617號","121.5712","24.9567316666667","6500600","新店區"
"231038","3712-VJ","2018/11/19 14:38:18","新北市新店區溪洲路143-2號","121.528796666667","24.9638983333333","6500600","新店區"
"231037","4716-K9","2018/11/19 14:38:24","新北市新店區安康路二段320巷6號","121.504898333333","24.9586333333333","6500600","新店區"
"231025","4715-K9","2018/11/19 14:38:26","新北市新店區民族路161號","121.537691666667","24.97675","6500600","新店區"
"231036","512-UM","2018/11/19 14:38:19","新北市新店區安祥路106巷18號","121.478091666667","24.962395","6500600","新店區"
"231013","513-UM","2018/11/19 14:38:25","新北市新店區明德路31號","121.541651666667","24.9773833333333","6500600","新店區"
"231034","616-UM","2018/11/19 14:38:14","新北市新店區黎明路55巷1號","121.502363333333","24.9483433333333","6500600","新店區"
"231002","618-UM","2018/11/19 14:38:30","新北市新店區民權路178號","121.534708333333","24.9827766666667","6500600","新店區"
"231030","619-UM","2018/11/19 14:38:16","新北市新店區安民街91號","121.516546666667","24.9680483333333","6500600","新店區"
"231029","897-TW","2018/11/19 14:38:13","新北市新店區安康路三段265號","121.486513333333","24.9518066666667","6500600","新店區"
"231006","898-TW","2018/11/19 14:38:20","新北市新店區北宜路二段82-2號","121.553705","24.9533583333333","6500600","新店區"
"231004","899-TW","2018/11/19 14:38:24","新北市新店區中正路283號","121.53745","24.9744333333333","6500600","新店區"
"231024","AKT-0513","2018/11/19 14:38:24","新北市新店區新生街5巷6號","121.539986666667","24.9658366666667","6500600","新店區"
"235030","003-UY","2018/11/19 14:38:15","新北市中和區景新街135號","121.505866666667","24.9970766666667","6500300","中和區"
"235028","005-UY","2018/11/19 14:38:28","新北市中和區南山路127巷18弄1號","121.503471666667","24.99743","6500300","中和區"
"235027","006-UY","2018/11/19 14:38:13","新北市中和區連城路263巷4號","121.492096666667","24.9960733333333","6500300","中和區"
"235020","096-UM","2018/11/19 14:38:22","新北市中和區員山路581巷31弄17-4號","121.476635","25.01029","6500300","中和區"
"235003","097-UM","2018/11/19 14:38:15","新北市中和區安平路158號","121.51259","24.9985583333333","6500300","中和區"
"235029","098-UM","2018/11/19 14:38:26","新北市中和區福祥路90巷7弄19號","121.499203333333","25.006605","6500300","中和區"
"235004","150-BY","2018/11/19 14:38:19","新北市中和區宜安路23巷21號","121.512323333333","24.99511","6500300","中和區"
"235022","151-BY","2018/11/19 14:38:20","新北市中和區員山路140號","121.481345","24.996515","6500300","中和區"
"235019","183-VK","2018/11/19 14:38:19","新北市中和區民生街35巷2弄2號","121.470293333333","25.0051716666667","6500300","中和區"
"235002","185-VK","2018/11/19 14:38:26","新北市中和區自立路20巷1號","121.522125","24.9933883333333","6500300","中和區"
"235013","186-VK","2018/11/19 14:38:17","新北市中和區景平路411號","121.502133333333","24.994865","6500300","中和區"
"235031","255-BX","2018/11/19 14:38:28","新北市中和區員山路148巷23弄9號","121.482171666667","24.9977033333333","6500300","中和區"
"235008","293-VK","2018/11/19 14:38:29","新北市中和區興南路一段164號","121.508161666667","24.9866333333333","6500300","中和區"
"235036","301-VK","2018/11/19 14:38:30","新北市中和區中山路二段3巷22弄1號","121.506333333333","25.0054066666667","6500300","中和區"
"235007","352-BY","2018/11/19 14:38:26","新北市中和區南山路82號","121.502676666667","24.9951666666667","6500300","中和區"
"235006","KEA-2878","2018/11/19 14:38:21","新北市中和區保健路46巷20弄2號","121.508938333333","24.99619","6500300","中和區"
"247011","KEA-2869","2018/11/19 14:38:19","新北市蘆洲區集賢路224巷46弄60-1號","121.480835","25.08796","6501400","蘆洲區"
"235014","4979-A6","2018/11/19 14:38:25","新北市中和區中正路67號","121.501248333333","24.993525","6500300","中和區"
"235034","558-UM","2018/11/19 14:38:24","新北市中和區景平路523號","121.49905","24.9989733333333","6500300","中和區"
"235009","565-BX","2018/11/19 14:38:27","新北市中和區安樂路30號","121.511805","24.9922616666667","6500300","中和區"
"235018","640-BX","2018/11/19 14:38:15","新北市中和區莒光路127號","121.472655","25.0020133333333","6500300","中和區"
"235024","647-TV","2018/11/19 14:38:22","新北市中和區員山路394巷4號","121.480975","25.0046066666667","6500300","中和區"
"235011","732-UM","2018/11/19 14:38:32","新北市中和區捷運路143號","121.506843333333","24.9909716666667","6500300","中和區"
"235010","733-UM","2018/11/19 14:38:17","新北市中和區忠孝街112巷2號","121.512216666667","24.9852216666667","6500300","中和區"
"235035","783-BX","2018/11/19 14:38:24","新北市中和區連城路367號","121.487363333333","24.9962766666667","6500300","中和區"
"235026","800-TS","2018/11/19 14:38:29","新北市中和區錦和路27號","121.4866","25.0027733333333","6500300","中和區"
"235021","801-TS","2018/11/19 14:38:27","新北市中和區員山路259號","121.48127","24.999025","6500300","中和區"
"235005","802-TS","2018/11/19 14:38:21","新北市中和區中和路250號","121.507375","24.99939","6500300","中和區"
"235016","805-TS","2018/11/19 14:38:28","新北市中和區華新街133號","121.506741666667","24.9817433333333","6500300","中和區"
"235012","896-TW","2018/11/19 14:38:23","新北市中和區四維街20號","121.51298","24.9872133333333","6500300","中和區"
"235017","900-TW","2018/11/19 14:38:24","新北市中和區國光街215巷55號","121.467485","24.99998","6500300","中和區"
"235015","157-BY","2018/11/19 14:38:16","新北市中和區中興街180巷50弄1號","121.49873","24.9890183333333","6500300","中和區"
"235001","AAC-213","2018/11/19 14:38:24","新北市中和區秀朗路三段50巷4弄4號","121.525708333333","24.9958533333333","6500300","中和區"
"235023","AAC-215","2018/11/19 14:38:24","新北市中和區圓通路262-2號","121.492916666667","24.99085","6500300","中和區"
"220016","013-TV","2018/11/19 14:38:21","新北市板橋區中山路二段531巷48號","121.482436666667","25.022805","6500100","板橋區"
"220013","072-UY","2018/11/19 14:38:15","新北市板橋區國泰街50號","121.467888333333","25.006615","6500100","板橋區"
"220034","073-UY","2018/11/19 14:38:29","新北市板橋區西門街18-1號","121.454578333333","25.0113016666667","6500100","板橋區"
"220105","075-UY","2018/11/19 14:38:14","新北市板橋區雙十路27號","121.470471666667","25.0312833333333","6500100","板橋區"
"220017","AAD-861","2018/11/19 14:38:20","新北市板橋區稚暉街54號","121.456668333333","25.004145","6500100","板橋區"
"247001","893-R6","2018/11/19 14:38:09","新北市蘆洲區長安街274巷4號","121.457721666667","25.086995","6501400","蘆洲區"
"247023","500-BY","2018/11/19 14:38:14","新北市蘆洲區中山二路222巷11號","121.46944","25.08012","6501400","蘆洲區"
"247013","339-TH","2018/11/19 14:38:19","新北市蘆洲區中正路50號","121.470873333333","25.0827366666667","6501400","蘆洲區"
"247005","337-TH","2018/11/19 14:38:27","新北市蘆洲區長安街68巷16號","121.463513333333","25.080685","6501400","蘆洲區"
"247019","057-VK","2018/11/19 14:38:21","新北市蘆洲區民族路488號","121.471126666667","25.0912766666667","6501400","蘆洲區"
"247009","056-VK","2018/11/19 14:38:24","新北市蘆洲區信義路222巷47號","121.48053","25.0855733333333","6501400","蘆洲區"
"247007","053-VK","2018/11/19 14:38:11","新北市蘆洲區信義路2號","121.473383333333","25.0791016666667","6501400","蘆洲區"
"247017","007-UY","2018/11/19 14:38:13","新北市蘆洲區民族路281號","121.475715","25.09094","6501400","蘆洲區"
"247003","002-UY","2018/11/19 14:38:19","新北市蘆洲區環堤大道28號","121.456651666667","25.0835933333333","6501400","蘆洲區"
"247021","001-UY","2018/11/19 14:38:30","新北市蘆洲區三民路236號","121.468263333333","25.0896733333333","6501400","蘆洲區"
"253003","6232-TK","2018/11/19 14:38:18","新北市石門區尖子鹿29號","121.581628333333","25.2627183333333","6502200","石門區"
"253004","6251-TK","2018/11/19 14:38:22","新北市石門區內阿里磅55號","121.578826666667","25.2495033333333","6502200","石門區"
"253002","637-UY","2018/11/19 14:38:26","新北市石門區七股12-6號","121.546451666667","25.265295","6502200","石門區"
"253001","KEC-0718","2018/11/19 14:38:25","新北市石門區八甲4-9號","121.521168333333","25.28281","6502200","石門區"
"207002","749-BX","2018/11/19 14:38:13","新北市萬里區溪底里富士坪路2號","121.625568333333","25.1599383333333","6502800","萬里區"
"252005","073-UM","2018/11/19 14:38:29","新北市三芝區埔坪里埔頭坑147號","121.510335","25.2498883333333","6502100","三芝區"
"207001","662-BX","2018/11/19 14:38:19","新北市萬里區磺潭里員潭路37號","121.644076666667","25.19503","6502800","萬里區"
"236064","105-UM","2018/11/19 14:38:10","新北市土城區永豐路282號","121.470745","24.9779766666667","6501300","土城區"
"236040","KED-0685","2018/11/19 14:38:16","新北市土城區學成路137巷18號","121.449258333333","24.9889916666667","6501300","土城區"
"236074","166-UM","2018/11/19 14:38:25","新北市土城區中央路四段52巷40弄1號","121.419368333333","24.9606816666667","6501300","土城區"
"236029","253-BX","2018/11/19 14:38:17","新北市土城區中華路二段181號","121.438431666667","24.9748466666667","6501300","土城區"
"236024","269-VK","2018/11/19 14:38:23","新北市土城區忠義路49號","121.440423333333","24.9691583333333","6501300","土城區"
"236012","270-VK","2018/11/19 14:38:21","新北市土城區清水路207巷23號","121.459813333333","24.9825416666667","6501300","土城區"
"236032","271-VK","2018/11/19 14:38:25","新北市土城區明德路一段291巷16號","121.460333333333","24.9765783333333","6501300","土城區"
"236016","401-BY","2018/11/19 14:38:22","新北市土城區延吉街327-1號","121.46542","24.9841416666667","6501300","土城區"
"236057","752-BX","2018/11/19 14:38:22","新北市土城區中央路四段3號","121.42568","24.9628016666667","6501300","土城區"
"236045","913-UM","2018/11/19 14:38:28","新北市土城區明德路一段101號","121.465576666667","24.9828116666667","6501300","土城區"
"236060","915-UM","2018/11/19 14:38:27","新北市土城區延壽路13巷38號","121.469986666667","24.99135","6501300","土城區"
"236054","AAC-216","2018/11/19 14:38:23","新北市土城區裕民路8號","121.446975","24.98904","6501300","土城區"
"221010","269-BY","2018/11/19 14:38:24","新北市汐止區長青路131巷2弄14號","121.605236666667","25.110435","6501100","汐止區"
"221033","647-BX","2018/11/19 14:38:12","新北市汐止區工建路202號","121.636538333333","25.0626083333333","6501100","汐止區"
"220027","145-BY","2018/11/19 14:37:58","新北市板橋區建國街98號","121.459856666667","25.0172466666667","6500100","板橋區"
"220028","200-UY","2018/11/19 14:38:10","新北市板橋區大觀路二段153巷46弄10號","121.44886","24.999685","6500100","板橋區"
"220050","245-BX","2018/11/19 14:37:53","新北市板橋區莊敬路220巷29弄1號","121.47267","25.0204166666667","6500100","板橋區"
"220040","267-BY","2018/11/19 14:38:30","新北市板橋區懷德街181巷22號","121.480335","25.0302483333333","6500100","板橋區"
"220004","276-BY","2018/11/19 14:38:32","新北市板橋區四川路二段47巷2弄1號","121.454096666667","24.9949533333333","6500100","板橋區"
"220020","277-BY","2018/11/19 14:38:12","新北市板橋區金門街215巷38號","121.433976666667","24.9890816666667","6500100","板橋區"
"220012","282-UM","2018/11/19 14:38:31","新北市板橋區公園街32號","121.462661666667","25.0084466666667","6500100","板橋區"
"220019","283-VK","2018/11/19 14:38:29","新北市板橋區信義路279巷13號","121.462926666667","24.9899233333333","6500100","板橋區"
"220043","285-UM","2018/11/19 14:38:31","新北市板橋區宏國路103號","121.470051666667","25.0322233333333","6500100","板橋區"
"220001","285-VK","2018/11/19 14:38:29","新北市板橋區富山街53巷1弄36號","121.47765","25.02007","6500100","板橋區"
"220029","287-VK","2018/11/19 14:38:27","新北市板橋區大觀路一段29巷137弄1號","121.450195","25.0054483333333","6500100","板橋區"
"220039","288-VK","2018/11/19 14:38:15","新北市板橋區裕民街151號","121.458618333333","25.027095","6500100","板橋區"
"220009","295-UM","2018/11/19 14:38:13","新北市板橋區漢生東路113巷25號","121.46832","25.0156383333333","6500100","板橋區"
"220032","296-UM","2018/11/19 14:38:30","新北市板橋區滿平二街7號","121.425403333333","24.9865666666667","6500100","板橋區"
"220023","303-R5","2018/11/19 14:38:30","新北市板橋區大勇街65號","121.453383333333","25.0167566666667","6500100","板橋區"
"220010","305-R5","2018/11/19 14:38:25","新北市板橋區三民路二段81巷26號","121.480431666667","25.016695","6500100","板橋區"
"220041","307-R5","2018/11/19 14:38:27","新北市板橋區文化路一段379號","121.46715","25.0215766666667","6500100","板橋區"
"220047","317-R6","2018/11/19 14:38:16","新北市板橋區四維路269巷64號","121.460738333333","25.0272233333333","6500100","板橋區"
"220038","487-VK","2018/11/19 14:38:29","新北市板橋區英士路49-1號","121.461128333333","25.0245066666667","6500100","板橋區"
"220104","560-BX","2018/11/19 14:38:29","新北市板橋區金華街147號","121.459746666667","25.020965","6500100","板橋區"
"220052","561-BX","2018/11/19 14:38:21","新北市板橋區文化路一段280-3號","121.467406666667","25.021395","6500100","板橋區"
"220031","568-UM","2018/11/19 14:38:24","新北市板橋區僑中二街10巷34號","121.445623333333","25.0111533333333","6500100","板橋區"
"220011","609-BX","2018/11/19 14:38:23","新北市板橋區三民路二段157號","121.479131666667","25.01482","6500100","板橋區"
"220005","686-BX","2018/11/19 14:38:26","新北市板橋區廣和街60號","121.461993333333","24.9938683333333","6500100","板橋區"
"220025","687-BX","2018/11/19 14:38:23","新北市板橋區僑中二街52號","121.446655","25.01008","6500100","板橋區"
"220042","689-BX","2018/11/19 14:38:23","新北市板橋區新海路362號","121.459715","25.025115","6500100","板橋區"
"220002","741-BX","2018/11/19 14:38:27","新北市板橋區實踐路63號","121.463866666667","25.0064733333333","6500100","板橋區"
"220018","806-UM","2018/11/19 14:38:17","新北市板橋區館前東路98-2號","121.462616666667","25.0076083333333","6500100","板橋區"
"220003","827-TW","2018/11/19 14:38:18","新北市板橋區國慶路167巷12號","121.462005","24.9967883333333","6500100","板橋區"
"220014","829-TW","2018/11/19 14:38:15","新北市板橋區長安街138巷1弄35號","121.473773333333","25.0101283333333","6500100","板橋區"
"220051","830-TW","2018/11/19 14:38:12","新北市板橋區松柏街36巷27號","121.47568","25.0292783333333","6500100","板橋區"
"220045","831-TW","2018/11/19 14:38:23","新北市板橋區文化路一段360號","121.468733333333","25.02375","6500100","板橋區"
"220037","833-TW","2018/11/19 14:38:19","新北市板橋區雙十路二段44號","121.475815","25.027565","6500100","板橋區"
"220022","895-R6","2018/11/19 14:38:27","新北市板橋區文化路一段52巷10號","121.460596666667","25.011695","6500100","板橋區"
"220021","985-R7","2018/11/19 14:38:27","新北市板橋區中正路278號","121.45513","25.0200133333333","6500100","板橋區"
"220097","AAC-210","2018/11/19 14:38:30","新北市板橋區新海路61號","121.461913333333","25.0214916666667","6500100","板橋區"
"220030","AAC-253","2018/11/19 14:38:13","新北市板橋區金門街111-3號","121.433078333333","24.9920816666667","6500100","板橋區"
"235032","KEA-2873","2018/11/19 14:38:12","新北市中和區景平路736巷1弄12號","121.497558333333","25.0040633333333","6500300","中和區"
"235025","KEA-2875","2018/11/19 14:38:23","新北市中和區員山路174巷24號","121.481825","24.999665","6500300","中和區"
