"lineid","car","time","location","longitude","latitude","cityid","cityname"
"234025","9371-KE","2018/11/19 15:06:36","新北市永和區永貞路330號","121.511235","25.0054133333333","6500400","永和區"
"248015","026-BX","2018/11/19 15:07:14","新北市五股區天乙路34號","121.448455","25.1034883333333","6501500","五股區"
"248007","095-VK","2018/11/19 15:06:21","新北市五股區中興路一段3號","121.469738333333","25.07205","6501500","五股區"
"248003","677-BX","2018/11/19 15:06:37","新北市五股區成泰路一段141號","121.435451666667","25.072925","6501500","五股區"
"244001","410-SL","2018/11/19 15:06:27","新北市林口區竹林路266號","121.38968","25.080775","6501700","林口區"
"243001","297-R6","2018/11/19 15:06:30","新北市泰山區忠孝街19巷2弄24號","121.429005","25.0655283333333","6501600","泰山區"
"243008","KEA-2801","2018/11/19 15:05:31","新北市泰山區明志路三段142巷2號","121.42472","25.0398833333333","6501600","泰山區"
"243007","421-VK","2018/11/19 15:05:05","新北市泰山區福興街26號","121.434438333333","25.0574383333333","6501600","泰山區"
"243003","KEA-2215","2018/11/19 15:05:24","新北市泰山區貴陽街36巷9號","121.422846666667","25.03189","6501600","泰山區"
"243004","646-TV","2018/11/19 15:06:33","新北市泰山區明志路一段82號","121.433418333333","25.0644016666667","6501600","泰山區"
"243006","680-BX","2018/11/19 15:06:22","新北市泰山區泰林路三段745巷145號","121.405903333333","25.068","6501600","泰山區"
"231028","046-UY","2018/11/19 15:06:59","新北市新店區安豐路54-1號","121.499781666667","24.9540983333333","6500600","新店區"
"231001","047-UY","2018/11/19 15:07:27","新北市新店區中正路255號","121.538926666667","24.9735166666667","6500600","新店區"
"231005","106-UY","2018/11/19 15:05:58","新北市新店區北新路三段165號","121.541078333333","24.9838816666667","6500600","新店區"
"231019","108-UY","2018/11/19 15:07:11","新北市新店區永福路54號","121.558098333333","24.9286616666667","6500600","新店區"
"231031","110-UY","2018/11/19 15:06:30","新北市新店區安泰路60巷134弄2號","121.484141666667","24.9442883333333","6500600","新店區"
"231011","187-VK","2018/11/19 15:07:27","新北市新店區中興路三段312號","121.542245","24.985735","6500600","新店區"
"231023","KEA-2219","2018/11/19 15:07:14","新北市新店區檳榔路109號","121.544536666667","24.9616983333333","6500600","新店區"
"231026","256-BX","2018/11/19 15:06:04","新北市新店區建國路85號","121.540476666667","24.976515","6500600","新店區"
"231003","268-BY","2018/11/19 15:06:21","新北市新店區中興路二段197號","121.548308333333","24.973625","6500600","新店區"
"231018","278-BY","2018/11/19 15:07:06","新北市新店區中央六街93號","121.526228333333","24.9768783333333","6500600","新店區"
"231014","AAD-862","2018/11/19 15:07:18","新北市新店區明山路45號","121.563833333333","24.9559983333333","6500600","新店區"
"231038","3712-VJ","2018/11/19 15:07:18","新北市新店區安華路28-1號","121.519545","24.9608466666667","6500600","新店區"
"231037","4716-K9","2018/11/19 15:07:24","新北市新店區安德街60巷5號","121.510083333333","24.9628833333333","6500600","新店區"
"231025","4715-K9","2018/11/19 15:05:26","新北市新店區民權路109-2號","121.536016666667","24.981965","6500600","新店區"
"231036","512-UM","2018/11/19 15:05:19","新北市新店區安祥路102巷117號","121.486383333333","24.9642816666667","6500600","新店區"
"231034","616-UM","2018/11/19 15:07:14","新北市新店區玫瑰路4-1號","121.493586666667","24.9514416666667","6500600","新店區"
"231002","618-UM","2018/11/19 15:05:10","新北市新店區中正路539-5號","121.533473333333","24.9865133333333","6500600","新店區"
"231030","619-UM","2018/11/19 15:07:16","新北市新店區安民街341-1號","121.516718333333","24.97491","6500600","新店區"
"231039","718-UY","2018/11/19 15:06:24","新北市新店區寶安街30號","121.542056666667","24.9823633333333","6500600","新店區"
"231029","897-TW","2018/11/19 15:07:33","新北市新店區安康路三段740號","121.473803333333","24.942005","6500600","新店區"
"231006","898-TW","2018/11/19 15:07:20","新北市新店區新坡一街18巷5弄8-1號","121.550743333333","24.96185","6500600","新店區"
"231004","899-TW","2018/11/19 15:06:04","新北市新店區明德路65巷20號","121.540545","24.9768183333333","6500600","新店區"
"231024","AKT-0513","2018/11/19 15:07:04","新北市新店區北新路一段297巷37號","121.540335","24.968445","6500600","新店區"
"235030","003-UY","2018/11/19 15:07:15","新北市中和區中山路二段3巷52號","121.507426666667","25.004845","6500300","中和區"
"235020","096-UM","2018/11/19 15:06:38","新北市中和區中山路三段168號","121.472921666667","25.006355","6500300","中和區"
"235003","097-UM","2018/11/19 15:06:35","新北市中和區安平路176號","121.512781666667","24.9988116666667","6500300","中和區"
"235029","098-UM","2018/11/19 15:05:26","新北市中和區永和路112號","121.496495","25.00591","6500300","中和區"
"235004","150-BY","2018/11/19 15:06:41","新北市中和區保健路19巷25號","121.50853","24.9987383333333","6500300","中和區"
"235013","186-VK","2018/11/19 15:07:17","新北市板橋區長江路二段75號","121.464171666667","25.03354","6500300","中和區"
"235007","352-BY","2018/11/19 15:06:46","新北市中和區興南路二段159巷10號","121.505041666667","24.98321","6500300","中和區"
"235006","KEA-2878","2018/11/19 15:07:01","新北市新店區安德街60巷19號","121.51037","24.9631516666667","6500300","中和區"
"247011","KEA-2869","2018/11/19 15:05:19","新北市五股區中直路15-2號","121.423568333333","25.11104","6501400","蘆洲區"
"235014","4979-A6","2018/11/19 15:07:25","新北市中和區安樂路37號","121.511806666667","24.9931266666667","6500300","中和區"
"235034","558-UM","2018/11/19 15:07:04","新北市中和區圓通路176-1號","121.49709","24.9945","6500300","中和區"
"235018","640-BX","2018/11/19 15:06:35","新北市中和區中山路二段678號","121.47992","25.0060516666667","6500300","中和區"
"235010","733-UM","2018/11/19 15:06:57","新北市中和區忠孝街60巷2弄6號","121.51157","24.9836683333333","6500300","中和區"
"235035","783-BX","2018/11/19 15:07:25","新北市中和區中板路47巷29號","121.48216","25.0107333333333","6500300","中和區"
"235012","896-TW","2018/11/19 15:07:03","新北市中和區華新街2-6號","121.507361666667","24.9851333333333","6500300","中和區"
"235001","AAC-213","2018/11/19 15:07:25","新北市中和區秀朗路三段128巷1弄1號","121.524726666667","24.9921666666667","6500300","中和區"
"235023","AAC-215","2018/11/19 15:06:37","新北市中和區圓通路335巷37弄31號","121.493841666667","24.9890416666667","6500300","中和區"
"220016","013-TV","2018/11/19 15:05:21","新北市板橋區中山路二段光榮巷30弄15號","121.4844","25.0203933333333","6500100","板橋區"
"220013","072-UY","2018/11/19 15:07:15","新北市板橋區中山路一段152號","121.464678333333","25.0113483333333","6500100","板橋區"
"220105","075-UY","2018/11/19 15:07:14","新北市板橋區文聖街11巷25號","121.476041666667","25.0329616666667","6500100","板橋區"
"220017","AAD-861","2018/11/19 15:07:17","新北市板橋區大明街18-8號","121.4588","25.002585","6500100","板橋區"
"253003","6232-TK","2018/11/19 15:04:55","新北市石門區尖子鹿101-2號","121.581173333333","25.2930416666667","6502200","石門區"
"253004","6251-TK","2018/11/19 15:07:22","新北市石門區坪林5號","121.591628333333","25.27645","6502200","石門區"
"253002","637-UY","2018/11/19 15:05:06","新北市石門區楓林47號","121.54176","25.27838","6502200","石門區"
"253001","KEC-0718","2018/11/19 15:06:49","新北市石門區崁子腳31-2號","121.537505","25.2851433333333","6502200","石門區"
"207002","749-BX","2018/11/19 15:04:53","新北市萬里區崁腳里崁腳路66號","121.648648333333","25.159685","6502800","萬里區"
"207001","662-BX","2018/11/19 15:06:59","新北市萬里區雙興里豐稟路4-1號","121.648341666667","25.185645","6502800","萬里區"
"236064","105-UM","2018/11/19 15:06:30","新北市土城區裕民路10號","121.447351666667","24.988865","6501300","土城區"
"236040","KED-0685","2018/11/19 15:05:33","新北市土城區學士路20號","121.453195","24.9827","6501300","土城區"
"236074","166-UM","2018/11/19 15:06:24","新北市土城區中州路1-7號","121.414273333333","24.957055","6501300","土城區"
"236029","253-BX","2018/11/19 15:05:57","新北市土城區福祥街42巷11號","121.44212","24.9807733333333","6501300","土城區"
"236024","269-VK","2018/11/19 15:06:03","新北市土城區中正路22號","121.443025","24.9751416666667","6501300","土城區"
"236012","270-VK","2018/11/19 15:07:01","新北市土城區青雲路8-2號","121.460168333333","24.9891383333333","6501300","土城區"
"236032","271-VK","2018/11/19 15:05:06","新北市土城區青雲路281巷13弄6號","121.459805","24.9804116666667","6501300","土城區"
"236016","401-BY","2018/11/19 15:04:22","新北市土城區延吉街217巷3弄1號","121.468728333333","24.984815","6501300","土城區"
"236057","752-BX","2018/11/19 15:06:34","新北市土城區金城路二段36號","121.451086666667","24.9788766666667","6501300","土城區"
"236045","913-UM","2018/11/19 15:06:28","新北市土城區清水路78號","121.456841666667","24.981775","6501300","土城區"
"236060","915-UM","2018/11/19 15:05:07","新北市土城區延平街4號","121.468383333333","24.9906283333333","6501300","土城區"
"236054","AAC-216","2018/11/19 15:06:03","新北市土城區學府路一段167號","121.45287","24.9856383333333","6501300","土城區"
"238002","755-BX","2018/11/19 15:07:00","新北市樹林區中山路二段202號","121.411283333333","24.9823233333333","6500700","樹林區"
"238010","601-UM","2018/11/19 15:07:20","新北市樹林區文化街91巷6號","121.415851666667","24.98961","6500700","樹林區"
"238006","599-UM","2018/11/19 15:07:08","新北市樹林區太平路273巷23號","121.421138333333","24.9762266666667","6500700","樹林區"
"238005","571-TV","2018/11/19 15:06:40","新北市板橋區大觀路三段85巷55號","121.435156666667","24.993765","6500700","樹林區"
"238011","5061-A6","2018/11/19 15:06:49","新北市樹林區中華路3號","121.424815","24.9838883333333","6500700","樹林區"
"238009","KEA-2213","2018/11/19 15:07:17","新北市樹林區國凱街140巷4號","121.423768333333","24.980555","6500700","樹林區"
"238008","KEA-2539","2018/11/19 15:06:48","新北市樹林區西圳街一段165巷20弄11號","121.39564","24.9601966666667","6500700","樹林區"
"238012","303-VK","2018/11/19 15:07:31","新北市樹林區中山路二段89號","121.411455","24.9828916666667","6500700","樹林區"
"238004","283-BY","2018/11/19 15:07:16","新北市樹林區八德街222號","121.415566666667","24.97189","6500700","樹林區"
"238001","282-BY","2018/11/19 15:07:01","新北市樹林區中山路二段222-2號","121.410421666667","24.9806083333333","6500700","樹林區"
"238013","172-UY","2018/11/19 15:07:17","新北市樹林區八德街222號","121.415841666667","24.972","6500700","樹林區"
"221010","269-BY","2018/11/19 15:07:24","新北市汐止區汐萬路一段256巷3號","121.65259","25.0745466666667","6501100","汐止區"
"220028","200-UY","2018/11/19 15:05:10","新北市板橋區大觀路二段187巷25號","121.446108333333","24.9993016666667","6500100","板橋區"
"220050","245-BX","2018/11/19 15:06:14","新北市板橋區縣民大道三段133巷35號","121.476696666667","25.02483","6500100","板橋區"
"220012","282-UM","2018/11/19 15:05:10","新北市板橋區長安街331巷78號","121.472451666667","25.012985","6500100","板橋區"
"220043","285-UM","2018/11/19 15:06:59","新北市板橋區陽明街25巷1號","121.46609","25.021725","6500100","板橋區"
"220001","285-VK","2018/11/19 15:04:40","新北市板橋區永豐街143號","121.475018333333","25.02003","6500100","板橋區"
"220029","287-VK","2018/11/19 15:06:07","新北市板橋區僑中一街124巷20弄18-2號","121.446831666667","25.0139533333333","6500100","板橋區"
"220039","288-VK","2018/11/19 15:04:35","新北市板橋區幸福路32巷39號","121.460696666667","25.0215916666667","6500100","板橋區"
"220009","295-UM","2018/11/19 15:06:33","新北市板橋區中山路二段17號","121.472211666667","25.0150016666667","6500100","板橋區"
"220041","307-R5","2018/11/19 15:06:27","新北市板橋區幸福路60巷61號","121.459991666667","25.02152","6500100","板橋區"
"220047","317-R6","2018/11/19 15:05:36","新北市板橋區新海路72巷5弄33號","121.46142","25.0231516666667","6500100","板橋區"
"220038","487-VK","2018/11/19 15:06:09","新北市板橋區龍泉街150號","121.457088333333","25.023825","6500100","板橋區"
"220052","561-BX","2018/11/19 15:05:21","新北市板橋區自由路24號","121.465736666667","25.0227466666667","6500100","板橋區"
"220031","568-UM","2018/11/19 15:06:43","新北市板橋區僑中二街106巷22-2號","121.44494","25.0077433333333","6500100","板橋區"
"220011","609-BX","2018/11/19 15:06:03","新北市板橋區中山路二段553巷16號","121.483351666667","25.022615","6500100","板橋區"
"220005","686-BX","2018/11/19 15:04:26","新北市板橋區四川路二段130巷20號","121.44967","24.9941433333333","6500100","板橋區"
"220025","687-BX","2018/11/19 15:05:43","新北市板橋區僑中一街124巷11弄2號","121.446018333333","25.01311","6500100","板橋區"
"220042","689-BX","2018/11/19 15:05:03","新北市板橋區長江路二段305號","121.47091","25.0333366666667","6500100","板橋區"
"220018","806-UM","2018/11/19 15:05:57","新北市板橋區成都街72-3號","121.463415","25.00522","6500100","板橋區"
"220003","827-TW","2018/11/19 15:05:58","新北市板橋區國慶路213巷23號","121.46261","24.9971483333333","6500100","板橋區"
"220014","829-TW","2018/11/19 15:07:13","新北市板橋區板新路115號","121.47239","25.0144866666667","6500100","板橋區"
"220051","830-TW","2018/11/19 15:07:12","新北市板橋區文聖街20-3號","121.476275","25.0315816666667","6500100","板橋區"
"220037","833-TW","2018/11/19 15:05:13","新北市板橋區懷德街189號","121.479791666667","25.0296433333333","6500100","板橋區"
"220097","AAC-210","2018/11/19 15:04:55","新北市板橋區光正街23巷5號","121.462346666667","25.0169033333333","6500100","板橋區"
"220030","AAC-253","2018/11/19 15:04:52","新北市板橋區篤行路二段129號","121.431311666667","24.990515","6500100","板橋區"
