"lineid","car","time","location","longitude","latitude","cityid","cityname"
"249005","172-UM","2018/11/19 17:28:27","新北市八里區荖阡里95-3號","121.409536666667","25.1269283333333","6502300","八里區"
"249001","173-UM","2018/11/19 17:28:18","新北市八里區中華路一段5-28號","121.420693333333","25.1573433333333","6502300","八里區"
"249002","305-UY","2018/11/19 17:28:20","新北市八里區龍米路一段398-1號","121.451245","25.13307","6502300","八里區"
"249003","593-UM","2018/11/19 17:28:19","新北市八里區中山路二段313號","121.400693333333","25.1478283333333","6502300","八里區"
"232011","375-UM","2018/11/19 17:28:22","新北市坪林區北宜路八段503號","121.706965","24.9195033333333","6502000","坪林區"
"244023","069-UM","2018/11/19 17:28:16","新北市林口區興林一街109巷26號","121.392223333333","25.0727716666667","6501700","林口區"
"244007","080-UY","2018/11/19 17:28:23","新北市林口區湖子7-11號","121.390151666667","25.09219","6501700","林口區"
"244019","403-UM","2018/11/19 17:28:24","新北市林口區文化一路一段83巷14弄23-1號","121.371948333333","25.07127","6501700","林口區"
"244013","KEA-2802","2018/11/19 17:28:27","新北市林口區粉寮路二段14號","121.401601666667","25.0853066666667","6501700","林口區"
"244017","485-VK","2018/11/19 17:28:24","新北市林口區文化一路一段223號","121.379308333333","25.0759766666667","6501700","林口區"
"244009","656-BX","2018/11/19 17:28:15","新北市林口區中北一街13號","121.385523333333","25.086905","6501700","林口區"
"244011","701-TV","2018/11/19 17:28:26","新北市林口區中正路349號","121.38789","25.0772866666667","6501700","林口區"
"244025","837-TS","2018/11/19 17:28:10","新北市林口區忠孝路53號","121.365213333333","25.074935","6501700","林口區"
"244021","838-TS","2018/11/19 17:28:19","新北市林口區粉寮路67-3號","121.40344","25.0908333333333","6501700","林口區"
"243012","646-TV","2018/11/19 17:18:57","新北市泰山區黎明路25號","121.422103333333","25.0608083333333","6501600","泰山區"
"231046","107-UY","2018/11/19 17:28:17","新北市新店區直潭路92號","121.530898333333","24.93761","6500600","新店區"
"241008","059-VK","2018/11/19 17:28:29","新北市三重區永福街124號","121.479356666667","25.0751216666667","6500200","三重區"
"241015","062-VK","2018/11/19 17:28:32","新北市三重區開元街1號","121.503505","25.0663483333333","6500200","三重區"
"241017","063-VK","2018/11/19 17:28:25","新北市三重區中正北路15號","121.492883333333","25.0617633333333","6500200","三重區"
"241024","065-VK","2018/11/19 17:28:25","新北市三重區中正北路193巷11弄50號","121.47909","25.0706083333333","6500200","三重區"
"241003","091-VK","2018/11/19 17:28:20","新北市三重區富福街3號","121.49001","25.0831033333333","6500200","三重區"
"251014","742-BX","2018/11/19 17:28:08","新北市淡水區公埔子20-3號","121.469453333333","25.2284983333333","6501000","淡水區"
"241005","262-UM","2018/11/19 17:28:23","新北市三重區永安北路二段43巷22號","121.483105","25.0827516666667","6500200","三重區"
"241016","266-UM","2018/11/19 17:28:14","新北市三重區信義西街51號","121.49514","25.063725","6500200","三重區"
"241018","268-UM","2018/11/19 17:28:29","新北市三重區安慶街226-2號","121.492556666667","25.068165","6500200","三重區"
"241032","269-UM","2018/11/19 17:28:26","新北市三重區名源街49號","121.482156666667","25.0598183333333","6500200","三重區"
"241013","270-UM","2018/11/19 17:28:22","新北市三重區仁愛街82巷10號","121.494933333333","25.0734016666667","6500200","三重區"
"241025","271-UM","2018/11/19 17:28:14","新北市三重區中正北路416號","121.475021666667","25.0708933333333","6500200","三重區"
"241007","398-BY","2018/11/19 17:28:28","新北市三重區三和路四段145巷75號","121.486118333333","25.0787683333333","6500200","三重區"
"241020","478-VK","2018/11/19 17:28:30","新北市三重區忠孝路一段171號","121.487643333333","25.0717566666667","6500200","三重區"
"241014","543-UM","2018/11/19 17:28:16","新北市三重區長壽街49號","121.500976666667","25.068305","6500200","三重區"
"241023","545-UM","2018/11/19 17:28:23","新北市三重區三民街146巷3弄2號","121.481696666667","25.0646316666667","6500200","三重區"
"241019","KEA-2593","2018/11/19 17:28:16","新北市三重區自強路二段40巷17號","121.48854","25.0692233333333","6500200","三重區"
"241030","743-BX","2018/11/19 17:28:29","新北市三重區新興路49號","121.491521666667","25.0537683333333","6500200","三重區"
"241012","941-UM","2018/11/19 17:28:22","新北市三重區公園街32號","121.498415","25.074265","6500200","三重區"
"241033","AAC-255","2018/11/19 17:28:25","新北市三重區中興北街153號","121.469161666667","25.0525016666667","6500200","三重區"
"235065","098-UM","2018/11/19 17:28:26","新北市中和區員山路36巷16-3號","121.485121666667","24.991125","6500300","中和區"
"247012","KEA-2869","2018/11/19 17:28:14","新北市蘆洲區民族路57號","121.47872","25.085755","6501400","蘆洲區"
"247002","893-R6","2018/11/19 17:28:20","新北市蘆洲區永樂街38巷57弄6號","121.458176666667","25.0902633333333","6501400","蘆洲區"
"247016","546-UM","2018/11/19 17:28:32","新北市蘆洲區光華路22巷40號","121.46833","25.0847466666667","6501400","蘆洲區"
"247024","500-BY","2018/11/19 17:28:09","新北市蘆洲區長榮路792號","121.461098333333","25.0928733333333","6501400","蘆洲區"
"247014","339-TH","2018/11/19 17:28:30","新北市蘆洲區三民路33號","121.475428333333","25.0829966666667","6501400","蘆洲區"
"247006","337-TH","2018/11/19 17:28:20","新北市蘆洲區長安街22巷31弄17號","121.464173333333","25.0804133333333","6501400","蘆洲區"
"247020","057-VK","2018/11/19 17:28:09","新北市蘆洲區水湳街413號","121.470615","25.094015","6501400","蘆洲區"
"247010","056-VK","2018/11/19 17:28:21","新北市蘆洲區中山一路120巷38號","121.478375","25.082095","6501400","蘆洲區"
"247008","053-VK","2018/11/19 17:28:12","新北市蘆洲區信義路34巷156號","121.47601","25.0760466666667","6501400","蘆洲區"
"247018","007-UY","2018/11/19 17:28:25","新北市蘆洲區民權路109號","121.472561666667","25.0894","6501400","蘆洲區"
"247004","002-UY","2018/11/19 17:28:20","新北市蘆洲區中原路23號","121.460303333333","25.0828316666667","6501400","蘆洲區"
"247022","001-UY","2018/11/19 17:28:21","新北市蘆洲區三民路293-2號","121.46593","25.0906533333333","6501400","蘆洲區"
"228003","097-TW","2018/11/19 17:28:20","新北市貢寮區仁理村研海街22號","121.927335","25.038455","6502600","貢寮區"
"228002","585-TW","2018/11/19 17:28:22","新北市貢寮區福隆里興隆街38號","121.940648333333","25.0177183333333","6502600","貢寮區"
"228001","670-TC","2018/11/19 17:28:17","新北市貢寮區仁理村仁愛路26號","121.924711666667","25.0532","6502600","貢寮區"
"224010","AGQ-8101","2018/11/19 17:28:23","新北市瑞芳區逢甲路15號","121.809751666667","25.1086633333333","6501200","瑞芳區"
"224006","676-BX","2018/11/19 17:28:13","新北市瑞芳區傑魚坑路93號","121.792513333333","25.1104066666667","6501200","瑞芳區"
"224008","285-BY","2018/11/19 17:28:22","新北市瑞芳區九芎橋路4號","121.83187","25.090595","6501200","瑞芳區"
"224009","273-VK","2018/11/19 17:28:25","新北市瑞芳區汽車路9-3號","121.845545","25.10984","6501200","瑞芳區"
"224005","271-BY","2018/11/19 17:28:11","新北市瑞芳區鼻頭路247號","121.912645","25.1239483333333","6501200","瑞芳區"
"227008","642-TC","2018/11/19 17:28:27","新北市雙溪區三貂里定福路1-2號","121.850743333333","25.0634533333333","6502500","雙溪區"
"227001","400-TW","2018/11/19 17:28:11","新北市雙溪區平林里外平林62號","121.844456666667","25.0345883333333","6502500","雙溪區"
"251009","008-UM","2018/11/19 17:28:17","新北市淡水區重建街1巷3號","121.43976","25.173455","6501000","淡水區"
"251005","010-UM","2018/11/19 17:28:09","新北市淡水區鄧公路31巷2號","121.451255","25.1707433333333","6501000","淡水區"
"251013","KEA-2871","2018/11/19 17:28:20","新北市淡水區水尾子2號","121.463021666667","25.1947483333333","6501000","淡水區"
"251016","179-VK","2018/11/19 17:28:18","新北市淡水區埤島63-3號","121.460166666667","25.1916816666667","6501000","淡水區"
"251008","181-VK","2018/11/19 17:28:30","新北市淡水區大同路124巷16號","121.463575","25.140085","6501000","淡水區"
"251015","182-VK","2018/11/19 17:28:20","新北市淡水區三空泉17-6號","121.473908333333","25.1658466666667","6501000","淡水區"
"251010","413-VK","2018/11/19 17:28:12","新北市淡水區中正路二段206號","121.426315","25.18908","6501000","淡水區"
"251012","441-VK","2018/11/19 17:28:24","新北市淡水區北新路126號","121.448138333333","25.1783333333333","6501000","淡水區"
"251004","443-VK","2018/11/19 17:09:58","新北市淡水區中正東路二段103號","121.459208333333","25.1513316666667","6501000","淡水區"
"251006","561-UM","2018/11/19 17:28:22","新北市淡水區中山路190號","121.441566666667","25.17455","6501000","淡水區"
"251007","577-R6","2018/11/19 17:28:09","新北市淡水區民生路60號","121.462055","25.1379466666667","6501000","淡水區"
"251011","650-BX","2018/11/19 17:28:25","新北市淡水區坪頂路712號","121.48252","25.1584666666667","6501000","淡水區"
"251002","672-BX","2018/11/19 17:28:20","新北市淡水區中正路32巷7號","121.430491666667","25.1752833333333","6501000","淡水區"
"251003","766-UM","2018/11/19 17:28:27","新北市淡水區文化路1號","121.440265","25.17236","6501000","淡水區"
"207003","550-UM","2018/11/19 17:28:16","新北市萬里區龜吼里美崙路95號","121.685208333333","25.1851633333333","6502800","萬里區"
"207004","225-TW","2018/11/19 17:28:17","新北市萬里區萬里里景美路16號","121.68691","25.173545","6502800","萬里區"
"252002","178-VK","2018/11/19 17:28:14","新北市三芝區忠孝街1-15號","121.505566666667","25.2539116666667","6502100","三芝區"
"252001","292-VK","2018/11/19 17:28:12","新北市三芝區長安街119號","121.498063333333","25.2596416666667","6502100","三芝區"
"237015","649-BX","2018/11/19 17:28:15","新北市三峽區中山路108號","121.365973333333","24.9356433333333","6500900","三峽區"
"242036","AAC-296","2018/11/19 17:28:10","新北市新莊區新樹路132-3號","121.435093333333","25.0240083333333","6500500","新莊區"
"242058","986-R7","2018/11/19 17:28:12","新北市新莊區中正路516-32號","121.432858333333","25.0322066666667","6500500","新莊區"
"242056","751-BX","2018/11/19 17:28:31","新北市新莊區環漢路二段2號","121.449913333333","25.0320983333333","6500500","新莊區"
"242029","705-TV","2018/11/19 17:28:25","新北市新莊區復興路二段186號","121.459055","25.04438","6500500","新莊區"
"242027","615-BX","2018/11/19 17:28:27","新北市新莊區思源路32號","121.460266666667","25.0404933333333","6500500","新莊區"
"242025","613-BX","2018/11/19 17:28:23","新北市新莊區復興路二段25號","121.453891666667","25.0439366666667","6500500","新莊區"
"242044","566-BX","2018/11/19 17:28:32","新北市新莊區富國路100號","121.421471666667","25.0255016666667","6500500","新莊區"
"242048","497-BY","2018/11/19 17:28:16","新北市新莊區龍安路232號","121.42056","25.019805","6500500","新莊區"
"242042","442-UM","2018/11/19 17:28:29","新北市新莊區新樹路113巷15號","121.438316666667","25.0267433333333","6500500","新莊區"
"242053","441-UM","2018/11/19 17:28:18","新北市新莊區瓊林南路305巷35號","121.43596","25.0051483333333","6500500","新莊區"
"242039","415-TV","2018/11/19 17:28:16","新北市新莊區民安路272號","121.427625","25.021335","6500500","新莊區"
"242009","413-TV","2018/11/19 17:28:20","新北市新莊區中原路143-1號","121.45434","25.054335","6500500","新莊區"
"242023","362-BY","2018/11/19 17:28:12","新北市新莊區中華路一段112號","121.452478333333","25.0403116666667","6500500","新莊區"
"242060","353-BY","2018/11/19 17:28:22","新北市新莊區瓊林南路12-5號","121.4362","25.0186466666667","6500500","新莊區"
"242011","132-UY","2018/11/19 17:28:20","新北市新莊區中華路二段81號","121.45254","25.04784","6500500","新莊區"
"242046","135-UY","2018/11/19 17:28:21","新北市新莊區新樹路69號","121.43894","25.0299816666667","6500500","新莊區"
"242050","172-VK","2018/11/19 17:28:25","新北市新莊區新樹路449巷8弄1號","121.43319","25.0136716666667","6500500","新莊區"
"242013","173-VK","2018/11/19 17:28:22","新北市新莊區中誠街181號","121.447568333333","25.0472216666667","6500500","新莊區"
"242019","175-VK","2018/11/19 17:28:21","新北市新莊區中港路100號","121.455465","25.0395683333333","6500500","新莊區"
"242007","176-VK","2018/11/19 17:28:10","新北市新莊區自強街28號","121.454745","25.0461516666667","6500500","新莊區"
"242017","346-TH","2018/11/19 17:28:30","新北市新莊區中華路一段103號","121.452703333333","25.043925","6500500","新莊區"
"242031","348-TH","2018/11/19 17:28:19","新北市新莊區新泰路401巷29-1號","121.442466666667","25.04392","6500500","新莊區"
"242004","349-TH","2018/11/19 17:28:17","新北市新莊區中港路280號","121.453051666667","25.0441283333333","6500500","新莊區"
"242021","350-TH","2018/11/19 17:28:23","新北市新莊區中正路136號","121.452468333333","25.03615","6500500","新莊區"
"242015","351-TH","2018/11/19 17:28:11","新北市新莊區新泰路152號","121.447716666667","25.037325","6500500","新莊區"
"238015","755-BX","2018/11/19 17:28:32","新北市樹林區大安路251號","121.41936","24.99414","6500700","樹林區"
"238023","601-UM","2018/11/19 17:28:19","新北市樹林區三福街114號","121.406465","25.0163233333333","6500700","樹林區"
"238019","599-UM","2018/11/19 17:28:23","新北市樹林區國凱街82-2號","121.421358333333","24.9791533333333","6500700","樹林區"
"238018","571-TV","2018/11/19 17:28:15","新北市樹林區鎮前街127號","121.424165","24.9895383333333","6500700","樹林區"
"238024","5061-A6","2018/11/19 17:28:31","新北市樹林區鎮前街148號","121.424613333333","24.9903716666667","6500700","樹林區"
"238022","KEA-2213","2018/11/19 17:28:21","新北市樹林區仁愛街16號","121.422133333333","24.98196","6500700","樹林區"
"238021","KEA-2539","2018/11/19 17:28:22","新北市樹林區西圳街一段203巷35號","121.39504","24.9576583333333","6500700","樹林區"
"238025","303-VK","2018/11/19 17:28:14","新北市樹林區保安街二段22號","121.415611666667","25.0015383333333","6500700","樹林區"
"238017","283-BY","2018/11/19 17:28:23","新北市樹林區中正路464號","121.412701666667","25.01261","6500700","樹林區"
"238014","282-BY","2018/11/19 17:28:22","","121.419803333333","24.99664","6500700","樹林區"
"238026","172-UY","2018/11/19 17:28:28","新北市樹林區味王街10-1號","121.402921666667","24.9761633333333","6500700","樹林區"
"238016","169-UY","2018/11/19 17:28:01","新北市樹林區長壽街28巷4弄1-2號","121.423218333333","24.9944666666667","6500700","樹林區"
"239007","AAC-297","2018/11/19 17:28:20","新北市鶯歌區忠孝街11號","121.35513","24.9564066666667","6500800","鶯歌區"
"239006","891-R6","2018/11/19 17:28:25","新北市鶯歌區鶯桃路472巷3號","121.332673333333","24.96569","6500800","鶯歌區"
"239008","527-UM","2018/11/19 17:28:20","新北市鶯歌區大湖路530巷2-2號","121.337526666667","24.9723816666667","6500800","鶯歌區"
"239005","526-UM","2018/11/19 17:28:23","新北市鶯歌區福隆一街14號","121.325745","24.9715","6500800","鶯歌區"
"239001","417-VK","2018/11/19 17:28:21","新北市鶯歌區中正三路39號","121.338903333333","24.9418733333333","6500800","鶯歌區"
"239003","360-BY","2018/11/19 17:28:21","新北市鶯歌區德昌街5-2號","121.333753333333","24.9604583333333","6500800","鶯歌區"
"239002","359-BY","2018/11/19 17:28:11","新北市鶯歌區建國路278號","121.346983333333","24.9534216666667","6500800","鶯歌區"
"239004","193-VK","2018/11/19 17:28:17","新北市三峽區復興路559號","121.356325","24.9406766666667","6500800","鶯歌區"
"221008","489-VK","2018/11/19 17:28:24","新北市汐止區康寧街901號","121.651408333333","25.0750666666667","6501100","汐止區"
"242002","281-VK","2018/11/19 17:28:12","新北市新莊區新莊路154號","121.45525","25.0354383333333","6500500","新莊區"
"242034","280-VK","2018/11/19 17:28:19","新北市新莊區新莊路388號","121.448925","25.0334183333333","6500500","新莊區"
