"lineid","car","time","location","longitude","latitude","cityid","cityname"
"234046","148-BY","2018/11/19 18:38:27","新北市永和區永元路68號","121.52257","25.0015433333333","6500400","永和區"
"234007","207-UY","2018/11/19 18:38:24","新北市永和區文化路170號","121.511765","25.01555","6500400","永和區"
"234081","298-R6","2018/11/19 18:38:12","新北市永和區永亨路127號","121.52442","25.004185","6500400","永和區"
"234038","336-UY","2018/11/19 18:38:18","新北市永和區福和路1號","121.526686666667","25.0101066666667","6500400","永和區"
"234064","337-UY","2018/11/19 18:38:28","新北市永和區福和路1號","121.526688333333","25.010105","6500400","永和區"
"234086","338-UY","2018/11/19 18:38:30","新北市永和區中正路70號","121.513556666667","24.9949916666667","6500400","永和區"
"234070","552-UM","2018/11/19 18:38:29","新北市永和區福和路1號","121.52575","25.0094683333333","6500400","永和區"
"234017","745-BX","2018/11/19 18:38:27","新北市永和區福和路1號","121.526306666667","25.00957","6500400","永和區"
"234030","746-BX","2018/11/19 18:38:31","新北市永和區環河東路三段50號","121.526798333333","25.0062966666667","6500400","永和區"
"234013","KEA-2591","2018/11/19 18:38:24","新北市永和區光復街60巷20弄2號","121.517678333333","25.0177583333333","6500400","永和區"
"234026","9371-KE","2018/11/19 18:38:29","新北市永和區永貞路415號","121.50734","25.00936","6500400","永和區"
"234011","9373-KE","2018/11/19 18:38:27","新北市永和區文化路9巷22弄77號","121.513813333333","25.014435","6500400","永和區"
"249005","172-UM","2018/11/19 18:38:27","新北市八里區中華路三段228號","121.388856666667","25.12517","6502300","八里區"
"249001","173-UM","2018/11/19 18:38:18","新北市八里區龍米路一段360號","121.451538333333","25.1313483333333","6502300","八里區"
"249002","305-UY","2018/11/19 18:38:20","新北市八里區龍形一街33巷6-1號","121.449246666667","25.1296033333333","6502300","八里區"
"248016","026-BX","2018/11/19 18:38:32","新北市五股區凌雲路一段149巷13-1號","121.448608333333","25.1008433333333","6501500","五股區"
"248008","095-VK","2018/11/19 18:38:17","新北市五股區中興路一段151巷1弄2號","121.465058333333","25.0731583333333","6501500","五股區"
"248018","225-UY","2018/11/19 18:38:23","新北市五股區民義路二段107號","121.404715","25.10981","6501500","五股區"
"248012","247-BX","2018/11/19 18:38:16","新北市五股區御成路10號","121.442","25.091115","6501500","五股區"
"248004","677-BX","2018/11/19 18:38:20","新北市五股區民義路一段206號","121.430283333333","25.0891083333333","6501500","五股區"
"248002","678-BX","2018/11/19 18:38:18","新北市五股區西雲路200號","121.447688333333","25.0955416666667","6501500","五股區"
"248009","682-TV","2018/11/19 18:38:13","新北市五股區水碓三路139號","121.431685","25.0736033333333","6501500","五股區"
"234023","9380-KE","2018/11/19 18:38:13","新北市永和區福和路76巷3號","121.52293","25.0084116666667","6500400","永和區"
"234077","969-R7","2018/11/19 18:38:12","新北市永和區中正路362號","121.517736666667","25.0007583333333","6500400","永和區"
"234067","AAC-212","2018/11/19 18:38:30","新北市永和區永貞路185號","121.514931666667","25.0037066666667","6500400","永和區"
"234003","AAC-295","2018/11/19 18:38:27","新北市永和區福和路1號","121.525908333333","25.0092016666667","6500400","永和區"
"244023","069-UM","2018/11/19 18:38:16","新北市林口區四維路156-2號","121.381205","25.0753466666667","6501700","林口區"
"244007","080-UY","2018/11/19 18:38:23","新北市林口區後湖18號","121.386846666667","25.0972216666667","6501700","林口區"
"244019","403-UM","2018/11/19 18:38:24","新北市林口區麗園二街42巷22號","121.381456666667","25.0669483333333","6501700","林口區"
"244013","KEA-2802","2018/11/19 18:38:27","新北市林口區文化一路一段223號","121.379321666667","25.075935","6501700","林口區"
"244017","485-VK","2018/11/19 18:38:24","新北市林口區文化二路一段22號","121.36472","25.0672266666667","6501700","林口區"
"244009","656-BX","2018/11/19 18:38:15","新北市林口區竹林路326巷80號","121.392701666667","25.0824683333333","6501700","林口區"
"244011","701-TV","2018/11/19 18:38:26","新北市林口區仁愛路一段619號","121.38977","25.076755","6501700","林口區"
"244025","837-TS","2018/11/19 18:38:10","新北市林口區南勢四街311號","121.356516666667","25.074555","6501700","林口區"
"244021","838-TS","2018/11/19 18:38:29","新北市林口區工六路2號","121.397536666667","25.0794","6501700","林口區"
"243013","AAD-798","2018/11/19 18:27:37","新北市泰山區明志路三段206巷3號","121.423263333333","25.0379166666667","6501600","泰山區"
"243016","KEA-2801","2018/11/19 18:38:25","新北市泰山區泰林路二段599巷1-1號","121.421301666667","25.063405","6501600","泰山區"
"243012","646-TV","2018/11/19 18:38:16","新北市泰山區泰林路二段83號","121.434916666667","25.0586533333333","6501600","泰山區"
"222003","436-BY","2018/11/19 18:38:22","新北市深坑區翠谷街37巷2號","121.626666666667","25.009465","6501800","深坑區"
"222002","659-BX","2018/11/19 18:38:24","新北市深坑區雲鄉路3號","121.621125","24.9996233333333","6501800","深坑區"
"231059","046-UY","2018/11/19 18:38:19","新北市新店區安華路28-1號","121.519678333333","24.9609716666667","6500600","新店區"
"231040","047-UY","2018/11/19 18:38:27","新北市新店區安華路28-1號","121.519078333333","24.9609116666667","6500600","新店區"
"231044","106-UY","2018/11/19 18:38:21","新北市新店區安康路一段355-3號","121.519791666667","24.9622533333333","6500600","新店區"
"231046","107-UY","2018/11/19 18:38:17","新北市新店區直潭二街1號","121.535526666667","24.9431783333333","6500600","新店區"
"231052","108-UY","2018/11/19 18:38:27","新北市新店區長興路1號","121.545775","24.9405533333333","6500600","新店區"
"231062","110-UY","2018/11/19 18:38:30","新北市新店區安一路一段1-1號","121.519223333333","24.9613383333333","6500600","新店區"
"231047","187-VK","2018/11/19 18:38:15","新北市新店區安一路一段1-1號","121.519771666667","24.9612083333333","6500600","新店區"
"231054","KEA-2219","2018/11/19 18:38:17","新北市新店區安一路一段1-1號","121.519896666667","24.9611933333333","6500600","新店區"
"231057","256-BX","2018/11/19 18:38:16","新北市新店區新烏路一段215號","121.549035","24.9314816666667","6500600","新店區"
"231042","268-BY","2018/11/19 18:38:21","新北市新店區安華路28-1號","121.519463333333","24.9606183333333","6500600","新店區"
"231051","278-BY","2018/11/19 18:38:09","新北市新店區環河路100號","121.53694","24.9639083333333","6500600","新店區"
"231050","AAD-862","2018/11/19 18:38:20","新北市新店區安華路28-1號","121.52002","24.9609566666667","6500600","新店區"
"231058","3713-VJ","2018/11/19 18:38:25","新北市新店區新店後街58號","121.537775","24.9540633333333","6500600","新店區"
"231066","4716-K9","2018/11/19 18:38:25","新北市新店區安一路一段1-1號","121.519473333333","24.9613116666667","6500600","新店區"
"231056","4715-K9","2018/11/19 18:38:22","新北市新店區自立街5號","121.538738333333","24.9782766666667","6500600","新店區"
"231067","4772-VM","2018/11/19 18:38:11","新北市新店區安華路1-1號","121.519251666667","24.9605366666667","6500600","新店區"
"231065","512-UM","2018/11/19 18:38:18","新北市新店區安一路一段1-1號","121.519476666667","24.9611933333333","6500600","新店區"
"231049","513-UM","2018/11/19 18:38:32","新北市新店區安康路一段235號","121.525251666667","24.963165","6500600","新店區"
"231063","616-UM","2018/11/19 18:38:17","新北市新店區安華路28-1號","121.519615","24.9606433333333","6500600","新店區"
"231041","618-UM","2018/11/19 18:25:06","新北市新店區安一路一段1-1號","121.519651666667","24.96129","6500600","新店區"
"231061","619-UM","2018/11/19 18:38:22","新北市新店區安華路28-1號","121.51971","24.9607583333333","6500600","新店區"
"231060","897-TW","2018/11/19 18:38:28","新北市新店區安華路28-1號","121.519656666667","24.9609466666667","6500600","新店區"
"231045","898-TW","2018/11/19 18:38:20","新北市新店區安華路28-1號","121.519468333333","24.960965","6500600","新店區"
"231043","899-TW","2018/11/19 18:38:26","新北市新店區安華路28-1號","121.519125","24.9608616666667","6500600","新店區"
"231055","AKT-0513","2018/11/19 18:38:10","新北市新店區中華路83巷67號","121.538378333333","24.967235","6500600","新店區"
"251014","742-BX","2018/11/19 18:38:28","新北市淡水區崙頂12-8號","121.49558","25.2171983333333","6501000","淡水區"
"235066","003-UY","2018/11/19 18:38:22","新北市中和區水源路20號","121.50422","25.00353","6500300","中和區"
"235064","005-UY","2018/11/19 18:38:24","新北市中和區連城路109巷20號","121.496666666667","24.9988133333333","6500300","中和區"
"235063","006-UY","2018/11/19 18:38:26","新北市中和區連城路347巷4弄9號","121.48792","24.9955483333333","6500300","中和區"
"235056","096-UM","2018/11/19 18:38:11","新北市中和區員山路611巷1號","121.477863333333","25.0111916666667","6500300","中和區"
"235039","097-UM","2018/11/19 18:38:17","新北市中和區宜安路18巷2號","121.513416666667","24.9959166666667","6500300","中和區"
"235065","098-UM","2018/11/19 18:38:26","新北市中和區莊敬路49巷29弄6號","121.501551666667","25.0063983333333","6500300","中和區"
"235040","150-BY","2018/11/19 18:38:20","新北市中和區安平路59號","121.509585","24.9951066666667","6500300","中和區"
"235058","151-BY","2018/11/19 18:38:16","新北市中和區員山路59號","121.480913333333","24.9931916666667","6500300","中和區"
"235055","183-VK","2018/11/19 18:38:13","新北市中和區中山路三段229巷57-1號","121.469096666667","25.00528","6500300","中和區"
"235038","185-VK","2018/11/19 18:38:16","新北市中和區立人街14巷40弄6號","121.5191","24.9957466666667","6500300","中和區"
"235049","186-VK","2018/11/19 18:38:13","新北市中和區景安路179-3號","121.505031666667","24.993905","6500300","中和區"
"235067","255-BX","2018/11/19 18:38:29","新北市中和區新生街32號","121.483151666667","25.0037616666667","6500300","中和區"
"235044","293-VK","2018/11/19 18:38:21","新北市中和區復興路280號","121.502258333333","24.990675","6500300","中和區"
"235072","301-VK","2018/11/19 18:38:27","新北市中和區中山路二段134-5號","121.502185","25.0032183333333","6500300","中和區"
"235043","352-BY","2018/11/19 18:38:14","新北市中和區景平路149號","121.51387","24.99217","6500300","中和區"
"235042","KEA-2878","2018/11/19 18:38:24","新北市中和區成功路107巷2號","121.526153333333","24.9912216666667","6500300","中和區"
"247012","KEA-2869","2018/11/19 18:38:14","新北市八里區中山路三段323號","121.377723333333","25.1414633333333","6501400","蘆洲區"
"235050","4979-A6","2018/11/19 18:38:18","新北市中和區忠孝街146號","121.512455","24.987235","6500300","中和區"
"235070","558-UM","2018/11/19 18:38:27","新北市中和區景平路590號","121.501038333333","24.9959833333333","6500300","中和區"
"235045","565-BX","2018/11/19 18:38:33","新北市中和區南山路236巷57號","121.504596666667","24.988135","6500300","中和區"
"235054","640-BX","2018/11/19 18:38:28","新北市中和區民享街93巷8號","121.475333333333","25.00067","6500300","中和區"
"235060","647-TV","2018/11/19 18:38:20","新北市中和區中山路二段479號","121.483051666667","25.00501","6500300","中和區"
"235047","732-UM","2018/11/19 18:38:19","新北市中和區南山路300號","121.50782","24.9870883333333","6500300","中和區"
"235046","733-UM","2018/11/19 18:38:17","新北市中和區忠孝街99-3號","121.511938333333","24.9861116666667","6500300","中和區"
"235062","800-TS","2018/11/19 18:38:29","新北市中和區景平路675號","121.496463333333","25.00282","6500300","中和區"
"235057","801-TS","2018/11/19 18:38:31","新北市中和區員山路327巷46-1號","121.480325","25.0017333333333","6500300","中和區"
"235041","802-TS","2018/11/19 18:38:11","新北市中和區宜安路142號","121.50963","24.9984466666667","6500300","中和區"
"235052","805-TS","2018/11/19 18:38:16","新北市中和區興南路三段20巷4號","121.497186666667","24.9795466666667","6500300","中和區"
"235048","896-TW","2018/11/19 18:38:23","新北市中和區南山路405號","121.506893333333","24.9898516666667","6500300","中和區"
"235053","900-TW","2018/11/19 18:38:20","新北市中和區民享街482號","121.46934","24.9924733333333","6500300","中和區"
"235051","157-BY","2018/11/19 18:38:33","新北市中和區華新街113巷2弄16號","121.506783333333","24.981635","6500300","中和區"
"235037","AAC-213","2018/11/19 18:38:11","新北市中和區景平路111巷65號","121.51514","24.990315","6500300","中和區"
"235059","AAC-215","2018/11/19 18:38:17","新北市中和區錦和路350-1號","121.490475","24.9934983333333","6500300","中和區"
"220065","072-UY","2018/11/19 18:38:24","新北市板橋區館前東路82號","121.462161666667","25.007485","6500100","板橋區"
"220086","073-UY","2018/11/19 18:38:22","新北市板橋區南雅西路二段192巷1弄11號","121.452173333333","25.0147283333333","6500100","板橋區"
"220069","AAD-861","2018/11/19 18:38:31","新北市板橋區華東街1-10號","121.448398333333","24.9950583333333","6500100","板橋區"
"226004","205-ST","2018/11/19 18:38:17","新北市平溪區石底里公園街18-3號","121.733413333333","25.025685","6502400","平溪區"
"228003","097-TW","2018/11/19 18:38:20","新北市貢寮區和美里龍洞街46號","121.913778333333","25.11228","6502600","貢寮區"
"228001","212-TW","2018/11/19 18:38:17","新北市貢寮區仁理村研海街12-1號","121.923758333333","25.0516583333333","6502600","貢寮區"
"228002","585-TW","2018/11/19 18:38:22","新北市貢寮區福隆里東興街6-11號","121.950745","25.0210466666667","6502600","貢寮區"
"224010","AGQ-8101","2018/11/19 18:38:23","新北市瑞芳區烏勢巷124號","121.84641","25.1083483333333","6501200","瑞芳區"
"224006","676-BX","2018/11/19 18:38:29","新北市瑞芳區明燈路三段81號","121.80518","25.1083183333333","6501200","瑞芳區"
"224008","285-BY","2018/11/19 18:38:34","新北市瑞芳區岳王路31號","121.807661666667","25.1111366666667","6501200","瑞芳區"
"224007","275-VK","2018/11/19 18:38:23","新北市瑞芳區大埔路167號","121.763781666667","25.101735","6501200","瑞芳區"
"224009","273-VK","2018/11/19 18:38:25","新北市瑞芳區祈堂路2號","121.859251666667","25.1111316666667","6501200","瑞芳區"
"224005","271-BY","2018/11/19 18:38:31","新北市瑞芳區永龍新村34號","121.81888","25.119325","6501200","瑞芳區"
"227008","642-TC","2018/11/19 18:38:27","新北市雙溪區牡丹里牡丹214號","121.850723333333","25.05664","6502500","雙溪區"
"227001","400-TW","2018/11/19 18:38:31","新北市雙溪區魚行里坤溪3-4號","121.876195","25.0206883333333","6502500","雙溪區"
"253006","032-BX","2018/11/19 18:38:08","新北市石門區楓林28-1號","121.542311666667","25.2894416666667","6502200","石門區"
"253005","295-VK","2018/11/19 18:38:28","新北市石門區石門街20號","121.56612","25.2906666666667","6502200","石門區"
"222001","KEA-2212","2018/11/19 18:38:26","新北市深坑區北深路一段91號","121.636","25.01067","6501800","深坑區"
"208002","KEA-2872","2018/11/19 18:38:12","新北市金山區忠孝一路19巷17號","121.637276666667","25.2175733333333","6502700","金山區"
"208003","665-BX","2018/11/19 18:38:21","新北市金山區中山路280號","121.634975","25.2243583333333","6502700","金山區"
"208001","761-BX","2018/11/19 18:38:27","新北市金山區文化三路42號","121.635346666667","25.2248766666667","6502700","金山區"
"251001","011-UM","2018/11/19 18:38:24","新北市淡水區自強路415巷2號","121.465476666667","25.1341583333333","6501000","淡水區"
"251013","KEA-2871","2018/11/19 18:38:20","新北市淡水區椿子林8號","121.486663333333","25.2036266666667","6501000","淡水區"
"251016","179-VK","2018/11/19 18:38:29","新北市淡水區下圭柔山72-3號","121.446101666667","25.2058483333333","6501000","淡水區"
"251008","181-VK","2018/11/19 18:38:10","新北市淡水區北投子17-1號","121.453968333333","25.1834983333333","6501000","淡水區"
"251015","182-VK","2018/11/19 18:38:19","新北市淡水區興福寮93號","121.485636666667","25.1625783333333","6501000","淡水區"
"251010","413-VK","2018/11/19 18:38:32","新北市淡水區沙崙路126號","121.423623333333","25.182755","6501000","淡水區"
"251012","441-VK","2018/11/19 18:38:04","新北市淡水區北新路117號","121.448923333333","25.1786083333333","6501000","淡水區"
"251004","443-VK","2018/11/19 18:38:26","新北市淡水區大同路7號","121.461836666667","25.1409883333333","6501000","淡水區"
"251006","561-UM","2018/11/19 18:38:21","新北市淡水區中山北路三段79號","121.444576666667","25.1920283333333","6501000","淡水區"
"251007","577-R6","2018/11/19 18:38:29","新北市淡水區中正東路二段153號","121.459583333333","25.1465116666667","6501000","淡水區"
"251011","650-BX","2018/11/19 18:38:25","新北市淡水區鄧公路30巷2弄42號","121.4542","25.1690033333333","6501000","淡水區"
"251002","672-BX","2018/11/19 18:38:20","新北市淡水區中正東路一段3巷14弄1號","121.450931666667","25.1641316666667","6501000","淡水區"
"251003","766-UM","2018/11/19 18:38:27","新北市淡水區北新路69巷26號","121.446791666667","25.1800683333333","6501000","淡水區"
"207003","550-UM","2018/11/19 18:38:16","新北市萬里區野柳里八斗60-1號","121.675333333333","25.2013666666667","6502800","萬里區"
"207004","225-TW","2018/11/19 18:38:24","新北市萬里區萬里里獅頭路12號","121.69229","25.1790766666667","6502800","萬里區"
"252002","178-VK","2018/11/19 18:38:14","新北市三芝區中正路二段37號","121.50394","25.2548616666667","6502100","三芝區"
"252003","249-BX","2018/11/19 18:38:13","新北市三芝區後厝里土地公坑54-5號","121.466723333333","25.2498033333333","6502100","三芝區"
"252001","292-VK","2018/11/19 18:38:12","新北市三芝區中興街二段208號","121.501365","25.253365","6502100","三芝區"
"237004","KEA-2597","2018/11/19 18:38:26","新北市三峽區五寮69號","121.35984","24.85921","6500900","三峽區"
"237007","153-BY","2018/11/19 18:38:23","新北市三峽區中正路三段170巷34號","121.352686666667","24.904515","6500900","三峽區"
"237009","210-TH","2018/11/19 18:38:20","新北市三峽區大同路208號","121.367143333333","24.9267466666667","6500900","三峽區"
"237013","252-BX","2018/11/19 18:38:21","新北市三峽區光明路69巷25號","121.376528333333","24.9292133333333","6500900","三峽區"
"237012","275-BY","2018/11/19 18:38:27","新北市三峽區三樹路212號","121.379498333333","24.9420766666667","6500900","三峽區"
"237008","302-VK","2018/11/19 18:38:11","新北市三峽區白雞79-1號","121.402026666667","24.91027","6500900","三峽區"
"237014","433-BY","2018/11/19 18:38:22","新北市三峽區復興路465號","121.361905","24.93862","6500900","三峽區"
"237006","5529-G3","2018/11/19 18:38:20","新北市三峽區溪東路473巷71號","121.415341666667","24.92912","6500900","三峽區"
"237011","KEA-2596","2018/11/19 18:38:11","新北市三峽區溪東路329號","121.410703333333","24.93016","6500900","三峽區"
"237015","649-BX","2018/11/19 18:38:15","新北市三峽區竹崙路59號","121.431203333333","24.92175","6500900","三峽區"
"237010","706-TV","2018/11/19 18:38:23","新北市三峽區復興路487號","121.361276666667","24.9384283333333","6500900","三峽區"
"237005","AKY-6261","2018/11/19 18:38:13","新北市三峽區清水街330號","121.371576666667","24.9339316666667","6500900","三峽區"
"236069","105-UM","2018/11/19 18:38:33","新北市土城區永豐路157巷29弄6-1號","121.46838","24.9814583333333","6501300","土城區"
"236042","KED-0685","2018/11/19 18:38:16","新北市土城區學成路108巷11號","121.450141666667","24.9896733333333","6501300","土城區"
"236078","166-UM","2018/11/19 18:38:26","新北市土城區中央路四段52巷4號","121.42029","24.9609983333333","6501300","土城區"
"236030","253-BX","2018/11/19 18:38:30","新北市土城區中央路二段278巷11-2號","121.439661666667","24.9749083333333","6501300","土城區"
"236026","269-VK","2018/11/19 18:38:32","新北市土城區忠義路55巷2號","121.44103","24.9685933333333","6501300","土城區"
"236014","270-VK","2018/11/19 18:38:15","新北市土城區青雲路183巷2號","121.45928","24.9826833333333","6501300","土城區"
"236039","271-VK","2018/11/19 18:38:19","新北市土城區明德路一段291巷5號","121.460308333333","24.976905","6501300","土城區"
"236020","401-BY","2018/11/19 18:38:16","新北市土城區延吉街327-1號","121.465545","24.984175","6501300","土城區"
"236059","752-BX","2018/11/19 18:38:26","新北市土城區中央路四段3號","121.425608333333","24.9628183333333","6501300","土城區"
"236048","913-UM","2018/11/19 18:38:15","新北市土城區明德路一段103號","121.465623333333","24.9827116666667","6501300","土城區"
"236063","915-UM","2018/11/19 18:38:26","新北市土城區延壽路55巷9弄7號","121.469696666667","24.99145","6501300","土城區"
"236055","AAC-216","2018/11/19 18:38:16","新北市土城區裕民路24號","121.447695","24.98863","6501300","土城區"
"242058","986-R7","2018/11/19 18:38:30","新北市新莊區中正路881-5號","121.417438333333","25.02551","6500500","新莊區"
"242025","613-BX","2018/11/19 18:38:23","新北市新莊區立信三街25-7號","121.442151666667","25.0500316666667","6500500","新莊區"
"242042","442-UM","2018/11/19 18:38:29","新北市新莊區天祥街92巷3-1號","121.415431666667","25.0300416666667","6500500","新莊區"
"242011","132-UY","2018/11/19 18:38:20","新北市新莊區中榮街132號","121.446096666667","25.0527616666667","6500500","新莊區"
"238015","755-BX","2018/11/19 18:35:24","新北市樹林區備內街121號","121.405945","24.989425","6500700","樹林區"
"238023","601-UM","2018/11/19 18:38:19","新北市樹林區三福街114號","121.406446666667","25.01645","6500700","樹林區"
"238018","571-TV","2018/11/19 18:38:15","新北市樹林區鎮前街78號","121.425498333333","24.99206","6500700","樹林區"
"238024","5061-A6","2018/11/19 18:38:31","新北市樹林區太順街79巷17號","121.417121666667","24.978055","6500700","樹林區"
"238022","KEA-2213","2018/11/19 18:38:17","新北市樹林區中華路190-1號","121.41138","24.9804933333333","6500700","樹林區"
"238025","303-VK","2018/11/19 18:38:14","新北市樹林區八德街1012號","121.391346666667","24.9684933333333","6500700","樹林區"
"238026","172-UY","2018/11/19 18:38:28","新北市樹林區育德街78-1號","121.388025","24.9681116666667","6500700","樹林區"
"238016","169-UY","2018/11/19 18:38:20","新北市樹林區中山路二段34號","121.417475","24.9849533333333","6500700","樹林區"
"239007","AAC-297","2018/11/19 18:38:20","新北市鶯歌區重慶街96號","121.348298333333","24.9522916666667","6500800","鶯歌區"
"239008","527-UM","2018/11/19 18:38:19","新北市鶯歌區國際一路179號","121.336261666667","24.9765283333333","6500800","鶯歌區"
"239005","526-UM","2018/11/19 18:38:02","新北市鶯歌區鳳吉二街37號","121.326201666667","24.9731233333333","6500800","鶯歌區"
"239001","417-VK","2018/11/19 18:38:21","新北市鶯歌區二甲路光照巷11弄2號","121.337851666667","24.9400933333333","6500800","鶯歌區"
"239003","360-BY","2018/11/19 18:38:21","新北市鶯歌區鶯桃路524號","121.331748333333","24.966935","6500800","鶯歌區"
"239004","193-VK","2018/11/19 18:38:17","新北市鶯歌區尖山路261號","121.340843333333","24.94353","6500800","鶯歌區"
"221008","489-VK","2018/11/19 18:38:24","新北市汐止區康寧街901號","121.651388333333","25.0750433333333","6501100","汐止區"
"221036","130-UY","2018/11/19 18:38:16","新北市汐止區水碓街59號","121.66512","25.0689833333333","6501100","汐止區"
"221015","131-UY","2018/11/19 18:38:10","新北市汐止區鄉友街10號","121.668235","25.0807966666667","6501100","汐止區"
"221010","269-BY","2018/11/19 18:38:19","新北市汐止區汐萬路三段235號","121.64367","25.1051866666667","6501100","汐止區"
"221012","278-VK","2018/11/19 18:38:15","新北市汐止區保長路151號","121.676563333333","25.0760883333333","6501100","汐止區"
"221023","279-VK","2018/11/19 18:37:16","新北市汐止區康寧街541巷9號","121.633828333333","25.06936","6501100","汐止區"
"221032","280-BY","2018/11/19 18:38:21","新北市汐止區民權街二段108號","121.618658333333","25.0466283333333","6501100","汐止區"
"221027","281-BY","2018/11/19 18:38:16","新北市汐止區汐萬路一段37號","121.655421666667","25.0685466666667","6501100","汐止區"
"221029","298-VK","2018/11/19 18:38:26","新北市汐止區樟樹一路150號","121.642221666667","25.06508","6501100","汐止區"
"221021","299-VK","2018/11/19 18:38:15","新北市汐止區新興路63-2號","121.657425","25.0625533333333","6501100","汐止區"
"221031","353-TW","2018/11/19 18:38:27","新北市汐止區福德一路274號","121.6321","25.0639816666667","6501100","汐止區"
"221035","622-UM","2018/11/19 18:38:14","新北市汐止區大同路二段124-1號","121.651145","25.0638","6501100","汐止區"
"221025","623-UM","2018/11/19 18:38:24","新北市汐止區仁愛路119巷1號","121.662568333333","25.063735","6501100","汐止區"
"221038","646-BX","2018/11/19 18:38:12","新北市汐止區汐萬路一段256巷3號","121.652085","25.074705","6501100","汐止區"
"221002","707-TV","2018/11/19 18:38:25","新北市汐止區中興路23號","121.636915","25.059585","6501100","汐止區"
"221018","753-BX","2018/11/19 18:38:26","新北市汐止區茄苳路250巷23號","121.671865","25.0676333333333","6501100","汐止區"
"220079","145-BY","2018/11/19 18:38:23","新北市板橋區大觀路二段12號","121.446845","25.003635","6500100","板橋區"
"220080","200-UY","2018/11/19 18:38:25","新北市板橋區大觀路二段265巷130弄32號","121.440968333333","24.9965583333333","6500100","板橋區"
"224002","257-TC","2018/11/19 18:38:17","新北市瑞芳區國中新村18號","121.817098333333","25.1074566666667","6501200","瑞芳區"
"220056","276-BY","2018/11/19 18:38:12","新北市板橋區四川路二段140巷18號","121.44935","24.9933383333333","6500100","板橋區"
"220072","277-BY","2018/11/19 18:38:25","新北市板橋區大觀路二段11-12號","121.447755","24.996725","6500100","板橋區"
"220064","282-UM","2018/11/19 18:38:20","新北市板橋區民生路二段89-4號","121.471023333333","25.0182916666667","6500100","板橋區"
"220071","283-VK","2018/11/19 18:38:18","新北市板橋區四川路二段140巷14號","121.44942","24.9932833333333","6500100","板橋區"
"220094","285-UM","2018/11/19 18:38:13","新北市板橋區民生路二段161巷5號","121.470165","25.0197566666667","6500100","板橋區"
"220083","286-VK","2018/11/19 18:38:11","新北市板橋區大觀路二段153巷44弄11號","121.446961666667","24.9992433333333","6500100","板橋區"
"220081","287-VK","2018/11/19 18:38:24","新北市板橋區華東街1-10號","121.448325","24.9949283333333","6500100","板橋區"
"220075","303-R5","2018/11/19 18:38:09","新北市板橋區大觀路二段11-12號","121.448801666667","24.9962416666667","6500100","板橋區"
"220035","560-BX","2018/11/19 18:38:20","新北市板橋區南雅西路二段145巷10號","121.451583333333","25.0119166666667","6500100","板橋區"
"220057","686-BX","2018/11/19 18:38:25","新北市板橋區華東街1-10號","121.448305","24.9949633333333","6500100","板橋區"
"220077","687-BX","2018/11/19 18:38:15","新北市板橋區大觀路二段265巷72弄35號","121.440998333333","24.996975","6500100","板橋區"
"220054","741-BX","2018/11/19 18:38:12","新北市板橋區南雅南路二段120-1號","121.45234","24.999705","6500100","板橋區"
"220055","827-TW","2018/11/19 18:38:22","新北市板橋區華東街11號","121.450658333333","24.9977483333333","6500100","板橋區"
"220067","829-TW","2018/11/19 18:38:24","新北市板橋區民生路二段120號","121.470423333333","25.0197616666667","6500100","板橋區"
"220074","895-R6","2018/11/19 18:38:31","新北市板橋區南門街52號","121.456896666667","25.0080716666667","6500100","板橋區"
"220073","985-R7","2018/11/19 18:38:21","新北市板橋區貴興路114號","121.455016666667","25.001925","6500100","板橋區"
"220082","AAC-253","2018/11/19 18:38:24","新北市板橋區大觀路三段32號","121.433968333333","24.9957366666667","6500100","板橋區"
"235068","KEA-2873","2018/11/19 18:38:18","新北市中和區板南路202號","121.499371666667","24.9930633333333","6500300","中和區"
"235061","KEA-2875","2018/11/19 18:38:29","新北市中和區民享街92巷5號","121.474373333333","24.99974","6500300","中和區"
