"lineid","car","time","location","longitude","latitude","cityid","cityname"
"234046","148-BY","2018/11/19 19:28:20","新北市永和區永元路2號","121.521961666667","24.9997566666667","6500400","永和區"
"234007","207-UY","2018/11/19 19:28:24","新北市永和區中山路一段9號","121.513981666667","25.0104233333333","6500400","永和區"
"234081","298-R6","2018/11/19 19:28:32","新北市永和區環河東路三段54號","121.52682","25.0062366666667","6500400","永和區"
"234038","336-UY","2018/11/19 19:28:18","新北市永和區成功路二段65號","121.527298333333","25.000095","6500400","永和區"
"234064","337-UY","2018/11/19 19:28:28","新北市永和區中正路368巷1弄59號","121.519703333333","25.0009783333333","6500400","永和區"
"234086","338-UY","2018/11/19 19:28:30","新北市永和區林森路74號","121.523615","25.0038933333333","6500400","永和區"
"234070","552-UM","2018/11/19 19:28:28","新北市永和區警光街5-1號","121.519761666667","25.0095216666667","6500400","永和區"
"234017","745-BX","2018/11/19 19:28:27","新北市永和區環河西路一段87號","121.512366666667","25.0178516666667","6500400","永和區"
"234030","746-BX","2018/11/19 19:28:31","新北市永和區民生路49號","121.522776666667","24.9978333333333","6500400","永和區"
"234054","KEA-2590","2018/11/19 19:28:31","新北市永和區復興街19巷9號","121.516073333333","25.0131866666667","6500400","永和區"
"234013","KEA-2591","2018/11/19 19:28:24","新北市永和區永和路二段127號","121.514921666667","25.012075","6500400","永和區"
"234061","AAD-866","2018/11/19 19:28:30","新北市永和區中正路568號","121.517186666667","25.0061666666667","6500400","永和區"
"234042","862-TW","2018/11/19 19:28:21","新北市永和區水源街39巷9號","121.510543333333","25.00388","6500400","永和區"
"234050","863-TW","2018/11/19 19:28:22","新北市永和區信義路120號","121.51236","25.0147183333333","6500400","永和區"
"234026","9371-KE","2018/11/19 19:28:29","新北市中和區安樂路185號","121.51486","24.9981483333333","6500400","永和區"
"234011","9373-KE","2018/11/19 19:28:27","新北市永和區保福路二段9巷9號","121.510608333333","25.0109166666667","6500400","永和區"
"249003","593-UM","2018/11/19 19:28:26","新北市八里區商港六路11號","121.396851666667","25.1481983333333","6502300","八里區"
"248016","026-BX","2018/11/19 19:28:32","新北市五股區成泰路三段476號","121.451823333333","25.1014166666667","6501500","五股區"
"248008","095-VK","2018/11/19 19:28:16","新北市五股區中興路一段95巷15號","121.466606666667","25.0722433333333","6501500","五股區"
"248018","225-UY","2018/11/19 19:28:23","新北市五股區壟路7-1號","121.416761666667","25.0915383333333","6501500","五股區"
"248012","247-BX","2018/11/19 19:28:16","新北市五股區成泰路二段156號","121.438358333333","25.083955","6501500","五股區"
"248004","677-BX","2018/11/19 19:28:20","新北市五股區五福路2號","121.433996666667","25.0874766666667","6501500","五股區"
"248002","678-BX","2018/11/19 19:28:18","新北市五股區凌雲路一段158巷6號","121.447828333333","25.1030066666667","6501500","五股區"
"248009","682-TV","2018/11/19 19:28:13","新北市五股區水碓一路23號","121.430571666667","25.071255","6501500","五股區"
"234023","9380-KE","2018/11/19 19:28:20","新北市永和區環河東路二段8-2號","121.521766666667","25.013285","6500400","永和區"
"234077","969-R7","2018/11/19 19:28:11","新北市永和區民治街29號","121.519666666667","24.997715","6500400","永和區"
"234074","AAC-211","2018/11/19 19:28:16","新北市永和區竹林路9號","121.516558333333","25.0149233333333","6500400","永和區"
"234067","AAC-212","2018/11/19 19:28:30","新北市永和區永貞路356號","121.510171666667","25.00651","6500400","永和區"
"234003","AAC-295","2018/11/19 19:28:27","新北市永和區永和路一段125號","121.513996666667","25.0082166666667","6500400","永和區"
"244023","069-UM","2018/11/19 19:28:16","新北市林口區民有街28號","121.372001666667","25.07658","6501700","林口區"
"243010","267-VK","2018/11/19 19:28:30","新北市泰山區民生路17巷49號","121.429376666667","25.0512733333333","6501600","泰山區"
"243013","AAD-798","2018/11/19 19:28:29","新北市泰山區明志路三段123巷1弄6號","121.42571","25.0407433333333","6501600","泰山區"
"243009","297-R6","2018/11/19 19:28:22","新北市泰山區半山雅3號","121.431388333333","25.0674216666667","6501600","泰山區"
"243016","KEA-2801","2018/11/19 19:28:25","新北市泰山區明志路三段197號","121.424176666667","25.0387466666667","6501600","泰山區"
"243015","421-VK","2018/11/19 19:28:15","新北市泰山區民權街20號","121.428398333333","25.0507583333333","6501600","泰山區"
"243011","KEA-2215","2018/11/19 19:28:19","新北市泰山區貴子路120號","121.428268333333","25.04063","6501600","泰山區"
"243012","646-TV","2018/11/19 19:28:17","新北市泰山區仁愛路132號","121.434306666667","25.0558466666667","6501600","泰山區"
"243014","680-BX","2018/11/19 19:28:16","新北市泰山區仁愛路60號","121.431921666667","25.0550083333333","6501600","泰山區"
"222003","436-BY","2018/11/19 19:28:22","新北市深坑區深南路88巷1號","121.620941666667","25.0116933333333","6501800","深坑區"
"222002","659-BX","2018/11/19 19:28:24","新北市深坑區北深路一段177號","121.632561666667","25.0108533333333","6501800","深坑區"
"231059","046-UY","2018/11/19 19:28:19","新北市新店區安和路三段14號","121.517943333333","24.9811083333333","6500600","新店區"
"231040","047-UY","2018/11/19 19:28:27","新北市新店區中華路9號","121.540656666667","24.9673516666667","6500600","新店區"
"231044","106-UY","2018/11/19 19:28:22","新北市新店區中興路三段163號","121.544275","24.9804683333333","6500600","新店區"
"231046","107-UY","2018/11/19 19:28:17","新北市新店區環河路114巷4-1號","121.537041666667","24.964885","6500600","新店區"
"231052","108-UY","2018/11/19 19:28:27","新北市新店區新烏路二段302號","121.548741666667","24.912725","6500600","新店區"
"231062","110-UY","2018/11/19 19:28:30","新北市新店區莒光路99號","121.521968333333","24.95343","6500600","新店區"
"231047","187-VK","2018/11/19 19:28:35","新北市新店區五峰路103號","121.545535","24.967085","6500600","新店區"
"231054","KEA-2219","2018/11/19 19:28:17","新北市新店區文中路40號","121.539618333333","24.956485","6500600","新店區"
"231057","256-BX","2018/11/19 19:28:26","新北市新店區花園一路四段41號","121.550676666667","24.93279","6500600","新店區"
"231042","268-BY","2018/11/19 19:28:21","新北市新店區北宜路一段3號","121.538616666667","24.958485","6500600","新店區"
"231051","278-BY","2018/11/19 19:28:29","新北市新店區中央五街70號","121.527083333333","24.9758","6500600","新店區"
"231050","AAD-862","2018/11/19 19:28:19","新北市新店區竹林路157-1號","121.55637","24.9479516666667","6500600","新店區"
"231058","3713-VJ","2018/11/19 19:28:25","新北市新店區北新路二段228巷13號","121.543436666667","24.9771166666667","6500600","新店區"
"231066","4716-K9","2018/11/19 19:28:25","新北市新店區安康路三段466-2號","121.484021666667","24.950855","6500600","新店區"
"231065","512-UM","2018/11/19 19:28:18","新北市新店區安祥路109巷1弄59號","121.478125","24.9608516666667","6500600","新店區"
"231049","513-UM","2018/11/19 19:28:12","新北市新店區北新路三段65巷12弄15號","121.54076","24.9815633333333","6500600","新店區"
"231063","616-UM","2018/11/19 19:28:16","新北市新店區達觀路16號","121.503051666667","24.9408083333333","6500600","新店區"
"231041","618-UM","2018/11/19 19:28:26","新北市新店區中正路692號","121.533998333333","24.990425","6500600","新店區"
"231061","619-UM","2018/11/19 19:28:22","新北市新店區安康路一段261號","121.524326666667","24.96336","6500600","新店區"
"231060","897-TW","2018/11/19 19:28:28","新北市新店區安康路二段109號","121.512571666667","24.9620316666667","6500600","新店區"
"231045","898-TW","2018/11/19 19:28:20","新北市新店區北宜路二段209號","121.553208333333","24.95325","6500600","新店區"
"231043","899-TW","2018/11/19 19:28:26","新北市新店區北新路二段226號","121.542888333333","24.97727","6500600","新店區"
"231055","AKT-0513","2018/11/19 19:28:29","新北市新店區溪園路395號","121.523598333333","24.9771983333333","6500600","新店區"
"241011","013-R5","2018/11/19 19:28:25","新北市三重區河邊北街124巷59號","121.502385","25.0711466666667","6500200","三重區"
"241028","022-UY","2018/11/19 19:28:21","新北市三重區中寮街70號","121.493048333333","25.0582866666667","6500200","三重區"
"241008","059-VK","2018/11/19 19:28:23","新北市三重區永福街135巷32弄7號","121.477028333333","25.07712","6500200","三重區"
"241031","061-VK","2018/11/19 19:28:20","新北市三重區集美街55號","121.488293333333","25.05493","6500200","三重區"
"241017","063-VK","2018/11/19 19:28:25","新北市三重區國隆路24號","121.492648333333","25.064115","6500200","三重區"
"241026","066-VK","2018/11/19 19:28:22","新北市三重區文化南路47巷9號","121.49981","25.061275","6500200","三重區"
"241003","091-VK","2018/11/19 19:28:23","新北市三重區五華街141巷58號","121.493541666667","25.0867566666667","6500200","三重區"
"251014","742-BX","2018/11/19 19:28:28","新北市淡水區小中寮19-7號","121.484748333333","25.229575","6501000","淡水區"
"241009","267-UM","2018/11/19 19:28:14","新北市三重區溪尾街242巷48號","121.486603333333","25.081565","6500200","三重區"
"241032","269-UM","2018/11/19 19:28:20","新北市三重區三陽路39號","121.485276666667","25.05881","6500200","三重區"
"241013","270-UM","2018/11/19 19:28:17","新北市三重區仁愛街88號","121.49561","25.0738716666667","6500200","三重區"
"241007","398-BY","2018/11/19 19:28:28","新北市三重區慈愛街143號","121.489216666667","25.07984","6500200","三重區"
"241035","KEA-2210","2018/11/19 19:28:15","新北市三重區正義北路86號","121.496851666667","25.06447","6500200","三重區"
"241004","475-VK","2018/11/19 19:28:21","新北市三重區五華街74號","121.493378333333","25.0819933333333","6500200","三重區"
"241020","478-VK","2018/11/19 19:28:29","新北市三重區三和路四段24號","121.490883333333","25.0741933333333","6500200","三重區"
"241006","AAD-863","2018/11/19 19:28:28","新北市三重區三和路四段95號","121.487921666667","25.0759833333333","6500200","三重區"
"241030","743-BX","2018/11/19 19:28:28","新北市三重區成功路41巷21號","121.490503333333","25.051875","6500200","三重區"
"241029","942-UM","2018/11/19 19:28:18","新北市三重區中正南路262號","121.493285","25.0527866666667","6500200","三重區"
"235066","003-UY","2018/11/19 19:28:22","新北市中和區中和路136號","121.503505","24.9993633333333","6500300","中和區"
"235064","005-UY","2018/11/19 19:28:24","新北市中和區南華路17-2號","121.502615","24.9956283333333","6500300","中和區"
"235063","006-UY","2018/11/19 19:28:26","新北市中和區連勝街145號","121.494661666667","24.996105","6500300","中和區"
"235056","096-UM","2018/11/19 19:28:31","新北市中和區中山路三段39-2號","121.47767","25.0055216666667","6500300","中和區"
"235039","097-UM","2018/11/19 19:28:32","新北市中和區秀峰街103巷6弄2號","121.52033","24.9898083333333","6500300","中和區"
"235065","098-UM","2018/11/19 19:28:26","新北市中和區中山路二段2巷13弄14號","121.503046666667","25.00645","6500300","中和區"
"235040","150-BY","2018/11/19 19:28:20","新北市中和區保健路46巷7號","121.509555","24.9968066666667","6500300","中和區"
"235058","151-BY","2018/11/19 19:28:16","新北市中和區連城路469-1號","121.483585","24.99574","6500300","中和區"
"235055","183-VK","2018/11/19 19:28:13","新北市中和區莒光路120巷17弄2號","121.471723333333","25.0009816666667","6500300","中和區"
"235038","185-VK","2018/11/19 19:28:16","新北市中和區立人街21號","121.521336666667","24.9940916666667","6500300","中和區"
"235049","186-VK","2018/11/19 19:28:13","新北市中和區景新街273巷20號","121.5103","24.9939516666667","6500300","中和區"
"235067","255-BX","2018/11/19 19:28:29","新北市中和區連城路336號","121.483118333333","24.9958283333333","6500300","中和區"
"235044","293-VK","2018/11/19 19:28:21","新北市中和區捷運路153號","121.506555","24.9911183333333","6500300","中和區"
"235072","301-VK","2018/11/19 19:28:26","新北市中和區連城路265巷10弄1號","121.49173","24.9952283333333","6500300","中和區"
"235043","352-BY","2018/11/19 19:28:14","新北市中和區南華路89號","121.50567","24.9973233333333","6500300","中和區"
"235042","KEA-2878","2018/11/19 19:28:20","新北市中和區中和路350巷15弄2號","121.51057","25.0008266666667","6500300","中和區"
"235050","4979-A6","2018/11/19 19:28:18","新北市中和區中正路406號","121.492538333333","24.9942116666667","6500300","中和區"
"235070","558-UM","2018/11/19 19:28:27","新北市中和區景平路624號","121.500615","24.9974633333333","6500300","中和區"
"235045","565-BX","2018/11/19 19:28:33","新北市中和區景新街385號","121.512436666667","24.9900683333333","6500300","中和區"
"235054","640-BX","2018/11/19 19:28:28","新北市中和區國光街112巷22弄20號","121.470628333333","25.002265","6500300","中和區"
"235060","647-TV","2018/11/19 19:28:20","新北市中和區新生街114巷37弄12號","121.48239","25.00181","6500300","中和區"
"235047","732-UM","2018/11/19 19:28:18","新北市中和區景平路239巷34號","121.508415","24.9923616666667","6500300","中和區"
"235046","733-UM","2018/11/19 19:28:17","新北市中和區忠孝街37巷20號","121.510995","24.9839483333333","6500300","中和區"
"235071","783-BX","2018/11/19 19:28:17","新北市中和區中正路637巷15弄6號","121.48495","24.9950833333333","6500300","中和區"
"235057","801-TS","2018/11/19 19:28:25","新北市中和區員山路390號","121.480471666667","25.0045733333333","6500300","中和區"
"235041","802-TS","2018/11/19 19:28:11","新北市中和區中安街122號","121.511176666667","25.0006116666667","6500300","中和區"
"235052","805-TS","2018/11/19 19:28:16","新北市中和區華新街143巷69弄26號","121.507825","24.9790083333333","6500300","中和區"
"235048","896-TW","2018/11/19 19:28:17","新北市中和區四維街40號","121.512358333333","24.9869516666667","6500300","中和區"
"235053","900-TW","2018/11/19 19:28:20","新北市中和區華順街55號","121.466553333333","24.998495","6500300","中和區"
"235051","157-BY","2018/11/19 19:28:13","新北市中和區景新街175號","121.506776666667","24.9953366666667","6500300","中和區"
"235037","AAC-213","2018/11/19 19:28:30","新北市中和區秀朗路三段10巷14弄18號","121.524905","24.9965716666667","6500300","中和區"
"235059","AAC-215","2018/11/19 19:28:17","新北市中和區圓通路252巷34號","121.492296666667","24.992715","6500300","中和區"
"220068","013-TV","2018/11/19 19:28:25","新北市板橋區林森街1巷30號","121.482791666667","25.0242766666667","6500100","板橋區"
"220065","072-UY","2018/11/19 19:28:24","新北市板橋區國泰街75巷28弄54號","121.467735","25.00481","6500100","板橋區"
"220086","073-UY","2018/11/19 19:28:21","新北市板橋區中正路240號","121.455671666667","25.0189933333333","6500100","板橋區"
"220106","075-UY","2018/11/19 19:28:18","新北市板橋區長江路三段64號","121.47372","25.0340416666667","6500100","板橋區"
"220069","AAD-861","2018/11/19 19:28:31","新北市板橋區稚暉街22號","121.455721666667","25.0043716666667","6500100","板橋區"
"247004","002-UY","2018/11/19 19:28:20","新北市蘆洲區長安街168號","121.45921","25.0832016666667","6501400","蘆洲區"
"226004","205-ST","2018/11/19 19:28:20","新北市平溪區十分里十分街118號","121.776966666667","25.0431366666667","6502400","平溪區"
"228003","097-TW","2018/11/19 19:28:20","新北市貢寮區和美里和美街19-2號","121.912806666667","25.0826033333333","6502600","貢寮區"
"228001","212-TW","2018/11/19 19:28:17","新北市貢寮區真理里大澳街60號","121.925448333333","25.0569083333333","6502600","貢寮區"
"228002","585-TW","2018/11/19 19:28:21","新北市貢寮區龍門里龍門街60-1號","121.932573333333","25.0266883333333","6502600","貢寮區"
"224010","AGQ-8101","2018/11/19 19:28:23","新北市瑞芳區基山街96號","121.84424","25.1086933333333","6501200","瑞芳區"
"227008","642-TC","2018/11/19 19:28:27","新北市雙溪區新基里新基北街43號","121.868211666667","25.0397233333333","6502500","雙溪區"
"227001","400-TW","2018/11/19 19:28:31","新北市雙溪區雙溪里光復街16號","121.86511","25.0354116666667","6502500","雙溪區"
"253006","032-BX","2018/11/19 19:28:28","新北市石門區崁子腳28-2號","121.540346666667","25.289745","6502200","石門區"
"222001","KEA-2212","2018/11/19 19:28:26","新北市深坑區北深路二段116號","121.616696666667","25.0032016666667","6501800","深坑區"
"208002","KEA-2872","2018/11/19 19:28:11","新北市金山區仁愛路78巷2號","121.63465","25.2215783333333","6502700","金山區"
"208003","665-BX","2018/11/19 19:28:21","新北市金山區中山路263巷14號","121.636355","25.2215966666667","6502700","金山區"
"208001","761-BX","2018/11/19 19:28:21","新北市金山區金包里街117號","121.637545","25.222545","6502700","金山區"
"251009","008-UM","2018/11/19 19:28:17","新北市淡水區大忠街5巷6號","121.443306666667","25.1764666666667","6501000","淡水區"
"251005","010-UM","2018/11/19 19:28:29","新北市淡水區水源街一段71巷11號","121.444433333333","25.172925","6501000","淡水區"
"251001","011-UM","2018/11/19 19:28:23","新北市淡水區民權路177號","121.459696666667","25.1353266666667","6501000","淡水區"
"251013","KEA-2871","2018/11/19 19:28:20","新北市淡水區安子內16-1號","121.477076666667","25.2190083333333","6501000","淡水區"
"251016","179-VK","2018/11/19 19:13:51","新北市淡水區下圭柔山119-51號","121.450758333333","25.2084316666667","6501000","淡水區"
"251008","181-VK","2018/11/19 19:28:30","新北市淡水區沙崙路1號","121.42032","25.1807883333333","6501000","淡水區"
"251015","182-VK","2018/11/19 19:28:20","新北市淡水區山子頂22-2號","121.492666666667","25.1894383333333","6501000","淡水區"
"251010","413-VK","2018/11/19 19:28:23","新北市淡水區淡海路242號","121.420136666667","25.186725","6501000","淡水區"
"251012","441-VK","2018/11/19 19:28:23","新北市淡水區下圭柔山91-4號","121.429025","25.2077433333333","6501000","淡水區"
"251007","577-R6","2018/11/19 19:28:29","新北市淡水區中正東路二段143巷6弄5號","121.461341666667","25.1465283333333","6501000","淡水區"
"207003","550-UM","2018/11/19 19:28:16","新北市萬里區大鵬里萬里加投193號","121.644463333333","25.2145316666667","6502800","萬里區"
"207004","225-TW","2018/11/19 19:28:17","新北市萬里區萬里里瑪鋉路67號","121.688146666667","25.176255","6502800","萬里區"
"252002","178-VK","2018/11/19 19:28:14","新北市三芝區淡金路二段18-1號","121.502693333333","25.259495","6502100","三芝區"
"252001","292-VK","2018/11/19 19:28:12","新北市三芝區長勤街50-1號","121.500268333333","25.2554583333333","6502100","三芝區"
"237004","KEA-2597","2018/11/19 19:28:18","新北市三峽區有木206號","121.439105","24.851445","6500900","三峽區"
"237007","153-BY","2018/11/19 19:28:23","新北市三峽區二鬮路136巷18弄42號","121.35899","24.9092466666667","6500900","三峽區"
"237009","210-TH","2018/11/19 19:28:20","新北市三峽區和平街43號","121.37035","24.935755","6500900","三峽區"
"237013","252-BX","2018/11/19 19:28:30","新北市三峽區介壽路一段286號","121.3795","24.93006","6500900","三峽區"
"237012","275-BY","2018/11/19 19:28:27","新北市三峽區三樹路5號","121.377415","24.93743","6500900","三峽區"
"237008","302-VK","2018/11/19 19:28:31","新北市三峽區光明路48號","121.374395","24.92956","6500900","三峽區"
"237014","433-BY","2018/11/19 19:28:31","新北市三峽區中山路287號","121.36167","24.9376633333333","6500900","三峽區"
"237006","5529-G3","2018/11/19 19:28:21","新北市三峽區介壽路二段101號","121.392276666667","24.9354933333333","6500900","三峽區"
"237011","KEA-2596","2018/11/19 19:28:31","新北市三峽區介壽路三段8號","121.395575","24.936205","6500900","三峽區"
"237015","649-BX","2018/11/19 19:28:15","新北市三峽區安坑11號","121.441761666667","24.9261816666667","6500900","三峽區"
"237010","706-TV","2018/11/19 19:28:23","新北市三峽區民生街50號","121.375361666667","24.9363583333333","6500900","三峽區"
"237005","AKY-6261","2018/11/19 19:28:12","新北市三峽區復興路367巷13號","121.363908333333","24.9376433333333","6500900","三峽區"
"236069","105-UM","2018/11/19 19:28:13","新北市土城區學成路1號","121.453498333333","24.9861933333333","6501300","土城區"
"236078","166-UM","2018/11/19 19:28:26","新北市土城區中州路24巷24號","121.415206666667","24.9577816666667","6501300","土城區"
"236026","269-VK","2018/11/19 19:28:24","新北市土城區中央路二段61巷26號","121.44327","24.9786816666667","6501300","土城區"
"236020","401-BY","2018/11/19 19:28:16","新北市土城區明峰街83號","121.468963333333","24.9873266666667","6501300","土城區"
"236059","752-BX","2018/11/19 19:28:27","新北市土城區中央路二段61巷20號","121.443123333333","24.9787483333333","6501300","土城區"
"236048","913-UM","2018/11/19 19:28:31","新北市土城區清水路172號","121.459828333333","24.981515","6501300","土城區"
"242023","362-BY","2018/11/19 19:28:30","新北市新莊區中平路116號","121.444848333333","25.046335","6500500","新莊區"
"242013","173-VK","2018/11/19 19:28:22","新北市新莊區三和路12-13號","121.442278333333","25.037165","6500500","新莊區"
"242007","176-VK","2018/11/19 19:28:30","新北市新莊區思源路593巷30號","121.457658333333","25.0597516666667","6500500","新莊區"
"242031","348-TH","2018/11/19 19:28:19","新北市新莊區新泰路225巷2號","121.445936666667","25.039225","6500500","新莊區"
"238023","601-UM","2018/11/19 19:28:19","新北市樹林區三福街42號","121.40797","25.0164566666667","6500700","樹林區"
"238024","5061-A6","2018/11/19 19:28:35","新北市樹林區中山路三段155巷3號","121.39565","24.972595","6500700","樹林區"
"238022","KEA-2213","2018/11/19 19:28:17","新北市樹林區國凱街66號","121.420696666667","24.9789883333333","6500700","樹林區"
"238021","KEA-2539","2018/11/19 19:28:34","新北市樹林區學林路148號","121.380046666667","24.94955","6500700","樹林區"
"238025","303-VK","2018/11/19 19:28:23","新北市樹林區中山路一段250號","121.420963333333","24.9873833333333","6500700","樹林區"
"238017","283-BY","2018/11/19 19:28:16","新北市樹林區光興街63巷5號","121.410866666667","25.0020833333333","6500700","樹林區"
"238014","282-BY","2018/11/19 19:28:21","新北市樹林區保安二街64巷15號","121.424398333333","24.9964616666667","6500700","樹林區"
"238026","172-UY","2018/11/19 19:28:27","新北市樹林區佳園路三段23號","121.388226666667","24.95467","6500700","樹林區"
"238016","169-UY","2018/11/19 19:28:17","新北市樹林區復興路446巷2弄6號","121.413761666667","24.984545","6500700","樹林區"
"239007","AAC-297","2018/11/19 19:28:20","新北市鶯歌區中山路138巷15號","121.351131666667","24.9592333333333","6500800","鶯歌區"
"239006","891-R6","2018/11/19 19:28:25","新北市鶯歌區永昌街192號","121.33918","24.9505033333333","6500800","鶯歌區"
"239005","526-UM","2018/11/19 19:28:22","新北市鶯歌區東湖路15-1號","121.354655","24.9720383333333","6500800","鶯歌區"
"239001","417-VK","2018/11/19 19:28:21","新北市鶯歌區建國路588號","121.339891666667","24.95237","6500800","鶯歌區"
"239003","360-BY","2018/11/19 19:28:21","新北市鶯歌區中正一路阿南巷501號","121.379948333333","24.96422","6500800","鶯歌區"
"239004","193-VK","2018/11/19 19:28:17","新北市鶯歌區二甲路中心巷9號","121.33741","24.9359433333333","6500800","鶯歌區"
"221008","489-VK","2018/11/19 19:28:24","新北市汐止區康寧街273號","121.625665","25.067015","6501100","汐止區"
"221036","130-UY","2018/11/19 19:28:16","新北市汐止區康寧街901號","121.651681666667","25.0748866666667","6501100","汐止區"
"221015","131-UY","2018/11/19 19:28:30","新北市汐止區康寧街901號","121.651416666667","25.0750033333333","6501100","汐止區"
"221010","269-BY","2018/11/19 19:28:12","新北市汐止區康寧街901號","121.651398333333","25.0750416666667","6501100","汐止區"
"221012","278-VK","2018/11/19 19:28:15","新北市汐止區大同路三段271號","121.674088333333","25.0756516666667","6501100","汐止區"
"221023","279-VK","2018/11/19 19:27:35","新北市汐止區康寧街901號","121.651735","25.0749366666667","6501100","汐止區"
"221027","281-BY","2018/11/19 19:28:16","新北市汐止區忠孝東路9號","121.658143333333","25.0658216666667","6501100","汐止區"
"221029","298-VK","2018/11/19 19:28:26","新北市汐止區康寧街901號","121.65157","25.07492","6501100","汐止區"
"221021","299-VK","2018/11/19 19:28:14","新北市汐止區康寧街901號","121.651526666667","25.0749866666667","6501100","汐止區"
"221031","353-TW","2018/11/19 19:28:27","新北市汐止區康寧街901號","121.650831666667","25.0752566666667","6501100","汐止區"
"221025","623-UM","2018/11/19 19:28:24","新北市汐止區汐萬路一段24號","121.655703333333","25.0679866666667","6501100","汐止區"
"221038","646-BX","2018/11/19 19:28:32","新北市汐止區汐萬路一段7號","121.65605","25.0674133333333","6501100","汐止區"
"221002","707-TV","2018/11/19 19:28:25","新北市汐止區大同路一段339-1號","121.638391666667","25.0596416666667","6501100","汐止區"
"220079","145-BY","2018/11/19 19:28:23","新北市板橋區中正路148號","121.456805","25.0163583333333","6500100","板橋區"
"220080","200-UY","2018/11/19 19:28:25","新北市板橋區大觀路二段37巷302號","121.450295","25.0021816666667","6500100","板橋區"
"220101","245-BX","2018/11/19 19:28:27","新北市板橋區萬板路192-3號","121.476551666667","25.0236183333333","6500100","板橋區"
"220091","267-BY","2018/11/19 19:28:28","新北市板橋區文聖街149巷18號","121.479271666667","25.0283433333333","6500100","板橋區"
"220056","276-BY","2018/11/19 19:28:26","新北市板橋區信義路1巷26弄44號","121.459105","24.9966516666667","6500100","板橋區"
"220072","277-BY","2018/11/19 19:28:25","新北市板橋區金門街253巷16弄2號","121.432766666667","24.9881766666667","6500100","板橋區"
"220064","282-UM","2018/11/19 19:28:19","新北市板橋區中山路一段51號","121.460915","25.009305","6500100","板橋區"
"220071","283-VK","2018/11/19 19:28:18","新北市板橋區四川路一段283巷4號","121.459575","25.001165","6500100","板橋區"
"220094","285-UM","2018/11/19 19:28:32","新北市板橋區吳鳳路50巷7號","121.467873333333","25.0304783333333","6500100","板橋區"
"220053","285-VK","2018/11/19 19:28:22","新北市板橋區富山街62巷16號","121.477328333333","25.0225266666667","6500100","板橋區"
"220083","286-VK","2018/11/19 19:28:31","新北市板橋區龍興街73巷19號","121.443041666667","25.0024783333333","6500100","板橋區"
"220081","287-VK","2018/11/19 19:28:24","新北市板橋區南雅西路一段63巷2號","121.452605","25.007625","6500100","板橋區"
"220090","288-VK","2018/11/19 19:28:20","新北市板橋區長江路一段106巷20弄11號","121.460165","25.0281966666667","6500100","板橋區"
"220061","295-UM","2018/11/19 19:28:26","新北市板橋區中山路二段291-11號","121.478221666667","25.0180366666667","6500100","板橋區"
"220084","296-UM","2018/11/19 19:28:22","新北市板橋區篤行路三段45號","121.428341666667","24.9862633333333","6500100","板橋區"
"220075","303-R5","2018/11/19 19:28:29","新北市板橋區大勇街10巷21號","121.453371666667","25.0174466666667","6500100","板橋區"
"220062","305-R5","2018/11/19 19:28:14","新北市板橋區三民路二段123巷31號","121.480575","25.0156683333333","6500100","板橋區"
"220092","307-R5","2018/11/19 19:28:30","新北市板橋區松江街72巷30號","121.469683333333","25.0278416666667","6500100","板橋區"
"220098","317-R6","2018/11/19 19:28:19","新北市板橋區四維路266巷2弄1號","121.463983333333","25.028705","6500100","板橋區"
"220089","487-VK","2018/11/19 19:28:23","新北市板橋區文化路一段37號","121.460388333333","25.013065","6500100","板橋區"
"220035","560-BX","2018/11/19 19:28:20","新北市板橋區中正路330號","121.454401666667","25.0217666666667","6500100","板橋區"
"220103","561-BX","2018/11/19 19:28:25","新北市板橋區文化路一段186號","121.465963333333","25.01964","6500100","板橋區"
"220063","609-BX","2018/11/19 19:28:22","新北市板橋區三民路一段31巷87弄1號","121.481525","25.023375","6500100","板橋區"
"220057","686-BX","2018/11/19 19:28:25","新北市板橋區和平路182號","121.463631666667","24.9957483333333","6500100","板橋區"
"220077","687-BX","2018/11/19 19:28:15","新北市板橋區僑中二街102巷2號","121.44607","25.0083283333333","6500100","板橋區"
"220093","689-BX","2018/11/19 19:28:29","新北市板橋區新海路174號","121.460828333333","25.0236783333333","6500100","板橋區"
"220054","741-BX","2018/11/19 19:28:12","新北市板橋區忠孝路52號","121.460863333333","25.0019666666667","6500100","板橋區"
"220070","806-UM","2018/11/19 19:28:26","新北市板橋區四川路一段105號","121.459846666667","25.0053616666667","6500100","板橋區"
"220055","827-TW","2018/11/19 19:28:23","新北市板橋區重慶路290巷22弄6號","121.46232","24.9991633333333","6500100","板橋區"
"220067","829-TW","2018/11/19 19:28:24","新北市中和區漢民路401號","121.472228333333","25.0072016666667","6500100","板橋區"
"220102","830-TW","2018/11/19 19:28:31","新北市板橋區松柏街1巷3號","121.473615","25.0294233333333","6500100","板橋區"
"220096","831-TW","2018/11/19 19:28:25","新北市板橋區大同街14-1號","121.477348333333","25.026865","6500100","板橋區"
"220088","833-TW","2018/11/19 19:28:21","新北市板橋區文化路二段318號","121.472431666667","25.0299616666667","6500100","板橋區"
"220074","895-R6","2018/11/19 19:28:18","新北市板橋區文化路一段7號","121.457823333333","25.00979","6500100","板橋區"
"220073","985-R7","2018/11/19 19:28:21","新北市板橋區中正路232號","121.455761666667","25.0186683333333","6500100","板橋區"
"220097","AAC-210","2018/11/19 19:28:33","新北市板橋區陽明街131號","121.463386666667","25.023785","6500100","板橋區"
"220082","AAC-253","2018/11/19 19:28:24","新北市板橋區金門街48號","121.433218333333","24.9931466666667","6500100","板橋區"
"235068","KEA-2873","2018/11/19 19:28:18","新北市中和區連勝街24號","121.498453333333","24.998075","6500300","中和區"
"235061","KEA-2875","2018/11/19 19:28:29","新北市中和區連城路448號","121.479363333333","24.994665","6500300","中和區"
