"lineid","car","time","location","longitude","latitude","cityid","cityname"
"231047","187-VK","2018/11/19 21:27:55","新北市新店區柴埕路116號","121.505138333333","24.960065","6500600","新店區"
"231063","616-UM","2018/11/19 21:27:57","新北市新店區如意街80號","121.49561","24.9469166666667","6500600","新店區"
"241011","013-R5","2018/11/19 21:28:05","新北市三重區龍濱路285號","121.501045","25.0734766666667","6500200","三重區"
"241017","063-VK","2018/11/19 21:28:05","新北市三重區中正北路25巷25弄1號","121.493143333333","25.062615","6500200","三重區"
"241024","065-VK","2018/11/19 21:28:00","新北市三重區中正北路145巷14號","121.484108333333","25.0677666666667","6500200","三重區"
"241026","066-VK","2018/11/19 21:27:59","新北市三重區中正南路96號","121.494351666667","25.0587233333333","6500200","三重區"
"241003","091-VK","2018/11/19 21:28:03","新北市三重區仁義街288號","121.493618333333","25.0863116666667","6500200","三重區"
"251014","742-BX","2018/11/19 21:28:07","新北市淡水區六塊厝2-1號","121.450145","25.24048","6501000","淡水區"
"241005","262-UM","2018/11/19 21:28:03","新北市三重區仁華街77號","121.485615","25.0829383333333","6500200","三重區"
"241016","266-UM","2018/11/19 21:27:54","新北市三重區自強路一段79號","121.496263333333","25.0663383333333","6500200","三重區"
"241007","398-BY","2018/11/19 21:28:08","新北市三重區正義北路113號","121.49689","25.0657433333333","6500200","三重區"
"247012","KEA-2869","2018/11/19 21:27:59","新北市蘆洲區中正路520巷10號","121.463858333333","25.09983","6501400","蘆洲區"
"247002","893-R6","2018/11/19 21:27:34","新北市五股區中直路13-7號","121.424696666667","25.1104966666667","6501400","蘆洲區"
"247008","053-VK","2018/11/19 21:28:08","新北市五股區更洲路32巷8弄13號","121.459863333333","25.0796733333333","6501400","蘆洲區"
"251009","008-UM","2018/11/19 21:27:57","新北市淡水區民族路33巷16-3號","121.463353333333","25.1360166666667","6501000","淡水區"
"251005","010-UM","2018/11/19 21:28:09","新北市淡水區水源街一段36號","121.443715","25.1722533333333","6501000","淡水區"
"251001","011-UM","2018/11/19 21:28:03","新北市淡水區濱海路一段221號","121.437896666667","25.1898983333333","6501000","淡水區"
"251013","KEA-2871","2018/11/19 21:28:00","新北市淡水區行忠路328號","121.46046","25.1995716666667","6501000","淡水區"
"251016","179-VK","2018/11/19 21:28:07","新北市淡水區前洲子20號","121.440918333333","25.2194433333333","6501000","淡水區"
"251008","181-VK","2018/11/19 21:28:12","新北市淡水區水源街二段144號","121.454058333333","25.1749783333333","6501000","淡水區"
"251010","413-VK","2018/11/19 21:27:52","新北市淡水區沙崙路25巷21號","121.420528333333","25.18242","6501000","淡水區"
"251012","441-VK","2018/11/19 21:28:03","新北市淡水區淡金路五段35巷46號","121.45248","25.2347433333333","6501000","淡水區"
"251004","443-VK","2018/11/19 21:28:10","新北市淡水區民族路27號","121.460796666667","25.1369033333333","6501000","淡水區"
"251006","561-UM","2018/11/19 21:28:01","新北市淡水區公明街35號","121.44319","25.168925","6501000","淡水區"
"251011","650-BX","2018/11/19 21:27:56","新北市淡水區新民街156號","121.43714","25.178265","6501000","淡水區"
"251003","766-UM","2018/11/19 21:28:07","新北市淡水區崁頂15-5號","121.439003333333","25.1858633333333","6501000","淡水區"
"220070","806-UM","2018/11/19 21:28:03","新北市五股區成泰路一段90號","121.43718","25.0701516666667","6500100","板橋區"
