"lineid","car","time","location","longitude","latitude","cityid","cityname"
"234044","148-BY","2018/02/08 12:49:27","新北市永和區秀朗路二段148巷12弄16號","121.524766666667","25.0011183333333","6500400","永和區"
"234005","207-UY","2018/02/08 12:49:21","新北市永和區文化路19-1號","121.515045","25.0149633333333","6500400","永和區"
"234078","298-R6","2018/02/08 12:49:20","新北市永和區永利路130號","121.52179","25.0030516666667","6500400","永和區"
"234036","336-UY","2018/02/08 12:49:26","新北市永和區成功路一段46號","121.52696","25.0042166666667","6500400","永和區"
"234062","337-UY","2018/02/08 12:49:17","新北市永和區福和路1號","121.525603333333","25.0094433333333","6500400","永和區"
"234084","338-UY","2018/02/08 12:49:26","新北市永和區中正路9號","121.514065","24.9956566666667","6500400","永和區"
"234068","552-UM","2018/02/08 12:49:26","新北市永和區竹林路96巷9號","121.519116666667","25.01207","6500400","永和區"
"234015","745-BX","2018/02/08 12:49:10","新北市永和區永和路二段395-1號","121.515478333333","25.016835","6500400","永和區"
"234028","746-BX","2018/02/08 12:49:16","新北市永和區得和路321號","121.523353333333","24.9995966666667","6500400","永和區"
"234052","KEA-2590","2018/02/08 12:49:28","新北市永和區環河東路一段122號","121.520423333333","25.0154333333333","6500400","永和區"
"234012","KEA-2591","2018/02/08 12:49:12","新北市永和區保福路二段133巷1號","121.509561666667","25.0137816666667","6500400","永和區"
"234060","AAD-866","2018/02/08 12:49:10","新北市永和區福和路307號","121.516253333333","25.0071316666667","6500400","永和區"
"234040","862-TW","2018/02/08 12:49:25","新北市永和區永貞路267號","121.51183","25.0047666666667","6500400","永和區"
"234048","863-TW","2018/02/08 12:49:25","新北市永和區保安路2號","121.510855","25.017395","6500400","永和區"
"234025","9371-KE","2018/02/08 12:49:11","新北市永和區中正路659號","121.51481","25.0102383333333","6500400","永和區"
"234010","9373-KE","2018/02/08 12:49:12","新北市永和區保福路二段158巷1號","121.509106666667","25.015025","6500400","永和區"
"248013","025-BX","2018/02/08 12:49:15","新北市五股區中興路二段83巷26-6號","121.460153333333","25.0752066666667","6501500","五股區"
"248015","026-BX","2018/02/08 12:49:12","新北市五股區中興路二段83巷26-6號","121.459995","25.075185","6501500","五股區"
"248007","095-VK","2018/02/08 12:49:17","新北市五股區中興路二段83巷26-6號","121.460033333333","25.075025","6501500","五股區"
"248009","682-TV","2018/02/08 12:49:17","新北市五股區中興路二段37巷26號","121.46029","25.0752133333333","6501500","五股區"
"234022","9380-KE","2018/02/08 12:49:13","新北市永和區竹林路119巷45號","121.521838333333","25.0118916666667","6500400","永和區"
"234076","969-R7","2018/02/08 12:49:19","新北市永和區中正路46-1號","121.512975","24.9944166666667","6500400","永和區"
"234072","AAC-211","2018/02/08 12:49:16","新北市永和區福和路1號","121.526363333333","25.0098683333333","6500400","永和區"
"234066","AAC-212","2018/02/08 12:49:15","新北市永和區中和路625號","121.512918333333","25.0048716666667","6500400","永和區"
"234001","AAC-295","2018/02/08 12:49:18","新北市永和區中正路513號","121.516991666667","25.0072666666667","6500400","永和區"
"243007","380-SR","2018/02/08 12:23:43","新北市泰山區犁頭窠12鄰3號","121.422708333333","25.059925","6501600","泰山區"
"231002","002-UM","2018/02/08 12:49:16","新北市新店區安華路28-1號","121.520001666667","24.9609833333333","6500600","新店區"
"231028","046-UY","2018/02/08 12:49:17","新北市新店區安華路28-1號","121.519691666667","24.9606983333333","6500600","新店區"
"231029","106-UY","2018/02/08 12:49:26","新北市新店區安華路28-1號","121.52006","24.96088","6500600","新店區"
"231018","107-UY","2018/02/08 12:49:23","新北市新店區安華路28-1號","121.51928","24.9614","6500600","新店區"
"231011","108-UY","2018/02/08 12:44:08","新北市新店區安華路28-1號","121.51955","24.9611966666667","6500600","新店區"
"231013","110-UY","2018/02/08 12:49:17","新北市新店區安華路28-1號","121.519368333333","24.9611983333333","6500600","新店區"
"231021","187-VK","2018/02/08 12:49:11","新北市新店區安華路28-1號","121.51963","24.9611933333333","6500600","新店區"
"231023","AAD-862","2018/02/08 12:42:42","新北市新店區安華路28-1號","121.519818333333","24.961205","6500600","新店區"
"231038","4715-K9","2018/02/08 12:49:27","新北市新店區安華路28-1號","121.51939","24.960555","6500600","新店區"
"231003","616-UM","2018/02/08 12:49:28","新北市新店區安華路28-1號","121.519341666667","24.96061","6500600","新店區"
"231001","619-UM","2018/02/08 12:49:10","新北市新店區安華路28-1號","121.519665","24.9608716666667","6500600","新店區"
"231036","719-UY","2018/02/08 12:49:10","新北市新店區安華路28-1號","121.519295","24.9612066666667","6500600","新店區"
"231031","720-UM","2018/02/08 12:49:20","新北市新店區安華路28-1號","121.518988333333","24.96127","6500600","新店區"
"231005","897-TW","2018/02/08 12:43:59","新北市新店區安華路1-1號","121.519411666667","24.9605316666667","6500600","新店區"
"231004","899-TW","2018/02/08 12:49:22","新北市新店區安華路28-1號","121.519215","24.96086","6500600","新店區"
"235002","185-VK","2018/02/08 12:49:26","新北市中和區景平路1號","121.525383333333","24.99014","6500300","中和區"
"235031","255-BX","2018/02/08 12:49:09","新北市中和區中山路二段568巷22號","121.48264","25.006285","6500300","中和區"
"235025","378-QA","2018/02/08 12:46:17","新北市中和區員山路36巷16-2號","121.48526","24.9916283333333","6500300","中和區"
"235001","611-BX","2018/02/08 12:49:16","新北市中和區中山路三段136巷125號","121.474316666667","25.0082966666667","6500300","中和區"
"228005","097-TW","2018/02/08 12:49:18","新北市貢寮區福連里福連街34-1號","121.988663333333","25.0111516666667","6502600","貢寮區"
"228004","212-TW","2018/02/08 12:49:30","新北市貢寮區吉林里內寮街20-1號","121.889801666667","24.994765","6502600","貢寮區"
"208004","AAC-292","2018/02/08 12:49:20","新北市金山區磺清路135號","121.639383333333","25.227765","6502700","金山區"
"207002","749-BX","2018/02/08 12:49:18","新北市萬里區雙興里二坪路30號","121.647028333333","25.1686533333333","6502800","萬里區"
"207001","662-BX","2018/02/08 12:49:18","新北市萬里區萬里里瑪鋉路261-1號","121.689746666667","25.1795033333333","6502800","萬里區"
"236005","498-BY","2018/02/08 12:49:11","新北市土城區永寧路20-1號","121.429798333333","24.9615266666667","6501300","土城區"
"221032","280-BY","2018/02/08 12:49:14","新北市汐止區汐萬路一段37號","121.655361666667","25.0685616666667","6501100","汐止區"
