"lineid","car","time","location","longitude","latitude","cityid","cityname"
"234044","148-BY","2018/02/08 13:39:27","新北市永和區秀朗路二段86號","121.523383333333","25.0016766666667","6500400","永和區"
"234005","207-UY","2018/02/08 13:39:21","新北市永和區中山路一段90號","121.511695","25.0108133333333","6500400","永和區"
"234078","298-R6","2018/02/08 13:39:39","新北市永和區林森路20巷7號","121.525868333333","25.0057233333333","6500400","永和區"
"234036","336-UY","2018/02/08 13:39:28","新北市永和區民樂街31巷6弄2號","121.52802","25.0012566666667","6500400","永和區"
"234062","337-UY","2018/02/08 13:39:37","新北市永和區秀朗路一段192巷6弄14號","121.519091666667","25.0022966666667","6500400","永和區"
"234084","338-UY","2018/02/08 13:39:26","新北市永和區成功路一段18巷15號","121.526263333333","25.0049216666667","6500400","永和區"
"234068","552-UM","2018/02/08 13:39:25","新北市永和區永和路二段192號","121.515673333333","25.013585","6500400","永和區"
"234015","745-BX","2018/02/08 13:39:30","新北市永和區文化路90巷32弄7號","121.513361666667","25.0169516666667","6500400","永和區"
"234028","746-BX","2018/02/08 13:39:36","新北市永和區民權路29巷19號","121.520966666667","24.9980133333333","6500400","永和區"
"234052","KEA-2590","2018/02/08 13:39:28","新北市永和區竹林路39巷22號","121.519003333333","25.0147383333333","6500400","永和區"
"234012","KEA-2591","2018/02/08 13:39:32","新北市永和區永平路226巷26號","121.509126666667","25.0112766666667","6500400","永和區"
"234060","AAD-866","2018/02/08 13:39:30","新北市永和區永貞路190號","121.516088333333","25.0041866666667","6500400","永和區"
"234040","862-TW","2018/02/08 13:39:25","新北市永和區中和路373號","121.508283333333","24.9997616666667","6500400","永和區"
"234048","863-TW","2018/02/08 13:39:25","新北市永和區保福路二段162巷2號","121.509016666667","25.015265","6500400","永和區"
"234025","9371-KE","2018/02/08 13:39:31","新北市永和區和平街95巷19號","121.511183333333","25.0091283333333","6500400","永和區"
"234010","9373-KE","2018/02/08 13:39:39","新北市永和區保福路二段23巷19號","121.510091666667","25.0111416666667","6500400","永和區"
"248013","025-BX","2018/02/08 13:39:35","新北市五股區中興路四段67-2號","121.436943333333","25.08339","6501500","五股區"
"248015","026-BX","2018/02/08 13:39:39","新北市五股區凌雲路一段149巷3號","121.44906","25.1019516666667","6501500","五股區"
"248005","077-UY","2018/02/08 13:39:34","新北市五股區中興路一段32號","121.468663333333","25.0724383333333","6501500","五股區"
"248007","095-VK","2018/02/08 13:39:37","新北市五股區中興路一段149號","121.465086666667","25.0734683333333","6501500","五股區"
"248017","225-UY","2018/02/08 13:39:19","新北市五股區民義路二段3-2號","121.410998333333","25.1054983333333","6501500","五股區"
"248011","247-BX","2018/02/08 13:39:23","新北市五股區成泰路三段6號","121.441135","25.0874533333333","6501500","五股區"
"248003","677-BX","2018/02/08 13:39:33","新北市五股區民義路一段236-6號","121.427456666667","25.0912583333333","6501500","五股區"
"248001","678-BX","2018/02/08 13:39:36","新北市五股區西雲路205號","121.448571666667","25.096515","6501500","五股區"
"248009","682-TV","2018/02/08 13:39:36","新北市五股區水碓七路168號","121.430783333333","25.0739283333333","6501500","五股區"
"234022","9380-KE","2018/02/08 13:39:33","新北市永和區豫溪街57巷8弄5號","121.517645","25.0104333333333","6500400","永和區"
"234076","969-R7","2018/02/08 13:39:38","新北市永和區得和路104巷4號","121.517946666667","24.9999216666667","6500400","永和區"
"234072","AAC-211","2018/02/08 13:39:36","新北市永和區福和路78號","121.522935","25.00809","6500400","永和區"
"234066","AAC-212","2018/02/08 13:39:35","新北市永和區中山路一段197號","121.50901","25.0088083333333","6500400","永和區"
"234001","AAC-295","2018/02/08 13:39:38","新北市永和區秀朗路一段15號","121.51386","25.00731","6500400","永和區"
"243004","AAD-798","2018/02/08 13:39:36","新北市泰山區泰林路二段330號","121.429875","25.063185","6501600","泰山區"
"243003","297-R6","2018/02/08 13:39:34","新北市泰山區黎明路25號","121.422026666667","25.060715","6501600","泰山區"
"243002","KEA-2215","2018/02/08 13:39:27","新北市泰山區黎明路26號","121.42125","25.0606133333333","6501600","泰山區"
"243001","KEA-2216","2018/02/08 13:39:24","新北市泰山區犁頭窠3-1號","121.422298333333","25.0605116666667","6501600","泰山區"
"243005","646-TV","2018/02/08 13:32:48","新北市泰山區明志路三段206巷3號","121.423253333333","25.0378916666667","6501600","泰山區"
"243008","680-BX","2018/02/08 13:39:25","新北市泰山區明志路二段135號","121.42776","25.050735","6501600","泰山區"
"231002","002-UM","2018/02/08 13:39:35","新北市新店區中央三街127號","121.524031666667","24.9769416666667","6500600","新店區"
"231025","0293-UT","2018/02/08 13:39:41","新北市新店區中央六街58號","121.527823333333","24.9757283333333","6500600","新店區"
"231028","046-UY","2018/02/08 13:39:37","新北市新店區安和路二段126號","121.519353333333","24.9715633333333","6500600","新店區"
"231030","047-UY","2018/02/08 13:39:33","新北市新店區秀山路68號","121.530861666667","24.96099","6500600","新店區"
"231029","106-UY","2018/02/08 13:39:26","新北市新店區安康路二段237號","121.508175","24.95859","6500600","新店區"
"231018","107-UY","2018/02/08 13:39:31","新北市新店區三民路189號","121.535361666667","24.9754866666667","6500600","新店區"
"231011","108-UY","2018/02/08 13:39:28","新北市新店區德正街27巷36號","121.545715","24.971545","6500600","新店區"
"231013","110-UY","2018/02/08 13:39:37","新北市新店區中正路454-5號","121.53449","24.97903","6500600","新店區"
"231021","187-VK","2018/02/08 13:39:30","新北市新店區永興路95-3號","121.54462","24.9321333333333","6500600","新店區"
"231035","189-VK","2018/02/08 13:39:30","新北市新店區安忠路90號","121.511536666667","24.9580733333333","6500600","新店區"
"231017","KEA-2219","2018/02/08 13:39:22","新北市新店區竹林路2巷29弄7號","121.550365","24.9503416666667","6500600","新店區"
"231026","256-BX","2018/02/08 13:39:37","新北市新店區中正路331號","121.535935","24.9750033333333","6500600","新店區"
"231010","278-BY","2018/02/08 13:39:38","新北市新店區中正路326號","121.536876666667","24.9748166666667","6500600","新店區"
"231023","AAD-862","2018/02/08 13:39:39","新北市新店區新店路169號","121.537063333333","24.95563","6500600","新店區"
"231027","3712-VJ","2018/02/08 13:39:41","新北市新店區北宜路一段115巷10號","121.54091","24.9547883333333","6500600","新店區"
"231024","4716-K9","2018/02/08 13:39:40","新北市新店區華中街4號","121.539528333333","24.9695366666667","6500600","新店區"
"231038","4715-K9","2018/02/08 13:39:27","新北市新店區安華路30巷1號","121.51958","24.9592766666667","6500600","新店區"
"231003","616-UM","2018/02/08 13:39:28","新北市新店區中正路12號","121.54538","24.96953","6500600","新店區"
"231005","618-UM","2018/02/08 13:39:32","新北市新店區寶中路72號","121.54784","24.9805566666667","6500600","新店區"
"231001","619-UM","2018/02/08 13:39:30","新北市新店區中正路376號","121.534895","24.9768766666667","6500600","新店區"
"231034","645-TV","2018/02/08 13:39:33","新北市新店區車子路121號","121.505281666667","24.95089","6500600","新店區"
"231036","719-UY","2018/02/08 13:39:30","新北市新店區安祥路142號","121.474236666667","24.95547","6500600","新店區"
"231031","720-UM","2018/02/08 13:39:40","新北市新店區莒光路44巷21弄11-3號","121.518513333333","24.9519866666667","6500600","新店區"
"231006","898-TW","2018/02/08 13:39:37","新北市新店區北宜路一段83號","121.538671666667","24.956055","6500600","新店區"
"231004","899-TW","2018/02/08 13:39:42","新北市新店區北新路二段1號","121.54269","24.9712666666667","6500600","新店區"
"231037","AKT-0513","2018/02/08 13:39:21","新北市新店區薏仁坑路26號","121.497855","24.960215","6500600","新店區"
"235030","003-UY","2018/02/08 13:39:39","新北市中和區水源路31號","121.504165","25.0035666666667","6500300","中和區"
"235028","005-UY","2018/02/08 13:39:27","新北市中和區連城路89巷3-1號","121.496983333333","24.9996133333333","6500300","中和區"
"235027","006-UY","2018/02/08 13:39:26","新北市中和區連城路389巷7號","121.486618333333","24.995605","6500300","中和區"
"235020","096-UM","2018/02/08 13:39:23","新北市中和區員山路466巷18號","121.480981666667","25.0064683333333","6500300","中和區"
"235003","097-UM","2018/02/08 13:39:23","新北市中和區景平路262號","121.514941666667","24.9930183333333","6500300","中和區"
"235029","098-UM","2018/02/08 13:39:40","新北市中和區莊敬路49巷29弄10號","121.501158333333","25.0064883333333","6500300","中和區"
"235004","150-BY","2018/02/08 13:39:36","新北市中和區安平路59號","121.509526666667","24.9952333333333","6500300","中和區"
"235022","151-BY","2018/02/08 13:39:30","新北市中和區圓通路369巷39號","121.489778333333","24.986165","6500300","中和區"
"235019","183-VK","2018/02/08 13:39:25","新北市中和區國光街8巷7號","121.471665","25.0007","6500300","中和區"
"235002","185-VK","2018/02/08 13:39:26","新北市中和區立人街14巷5號","121.519303333333","24.994825","6500300","中和區"
"235013","186-VK","2018/02/08 13:39:39","新北市中和區景安路138號","121.505135","24.994245","6500300","中和區"
"235031","255-BX","2018/02/08 13:39:29","新北市中和區連城路340巷14弄15號","121.483011666667","24.99713","6500300","中和區"
"235008","293-VK","2018/02/08 13:39:43","新北市中和區復興路280巷19號","121.502181666667","24.9915266666667","6500300","中和區"
"235007","352-BY","2018/02/08 13:39:35","新北市中和區景平路207號","121.51091","24.9926133333333","6500300","中和區"
"235032","377-QA","2018/02/08 13:39:31","新北市中和區中正路211巷13弄14號","121.497495","24.9931616666667","6500300","中和區"
"235025","378-QA","2018/02/08 13:39:32","新北市中和區民享街92巷2號","121.474828333333","25.000165","6500300","中和區"
"235035","269-TV","2018/02/08 13:39:32","新北市中和區光環路二段70號","121.484823333333","25.01449","6500300","中和區"
"235014","4979-A6","2018/02/08 13:39:38","新北市中和區忠孝街122-2號","121.512146666667","24.9861233333333","6500300","中和區"
"235033","4980-A6","2018/02/08 13:39:33","新北市中和區連城路99巷69號","121.497343333333","24.9983316666667","6500300","中和區"
"235006","551-UM","2018/02/08 13:39:22","新北市中和區成功路97巷7號","121.526506666667","24.9920583333333","6500300","中和區"
"235009","565-BX","2018/02/08 13:39:34","新北市中和區南山路236巷21號","121.505646666667","24.9885633333333","6500300","中和區"
"235018","640-BX","2018/02/08 13:39:36","新北市中和區莒光路129巷2弄24號","121.472993333333","25.0011566666667","6500300","中和區"
"235024","647-TV","2018/02/08 13:39:27","新北市中和區員山路477巷2號","121.480151666667","25.005155","6500300","中和區"
"235011","732-UM","2018/02/08 13:39:33","新北市中和區南山路322號","121.507936666667","24.98644","6500300","中和區"
"235026","800-TS","2018/02/08 13:39:31","新北市中和區中山路二段312巷1弄2號","121.495568333333","25.0027416666667","6500300","中和區"
"235021","801-TS","2018/02/08 13:39:28","新北市中和區員山路327巷39號","121.47966","25.0021266666667","6500300","中和區"
"235005","802-TS","2018/02/08 13:39:32","新北市中和區中和路390號","121.511253333333","25.0024616666667","6500300","中和區"
"235016","805-TS","2018/02/08 13:39:23","新北市中和區興南路三段42-3號","121.495795","24.97721","6500300","中和區"
"235012","896-TW","2018/02/08 13:39:32","新北市中和區中正路67號","121.501318333333","24.9934666666667","6500300","中和區"
"235017","900-TW","2018/02/08 13:39:25","新北市中和區華安街99號","121.468148333333","24.9964333333333","6500300","中和區"
"235063","911-UM","2018/02/08 13:39:38","新北市中和區永和路1-1號","121.499893333333","25.0029916666667","6500300","中和區"
"235015","157-BY","2018/02/08 13:39:29","新北市中和區興南路二段108號","121.50462","24.9840616666667","6500300","中和區"
"235001","AAC-213","2018/02/08 13:39:31","新北市中和區景平路111巷63號","121.515176666667","24.9903566666667","6500300","中和區"
"235023","AAC-215","2018/02/08 13:39:32","新北市中和區員山路36巷16-6號","121.485276666667","24.9920333333333","6500300","中和區"
"220016","013-TV","2018/02/08 13:39:31","新北市板橋區民生路二段120號","121.47038","25.01965","6500100","板橋區"
"220013","072-UY","2018/02/08 13:39:25","新北市板橋區漢生東路117號","121.467275","25.014905","6500100","板橋區"
"220034","073-UY","2018/02/08 13:39:32","新北市板橋區南雅西路二段192巷3號","121.452055","25.0144116666667","6500100","板橋區"
"247017","335-TH","2018/02/08 13:39:24","新北市蘆洲區中正路520巷9號","121.462511666667","25.09964","6501400","蘆洲區"
"247005","056-VK","2018/02/08 13:39:38","新北市五股區中興路二段182巷50號","121.45551","25.0815166666667","6501400","蘆洲區"
"228005","097-TW","2018/02/08 13:39:38","新北市貢寮區美豐里文秀坑8號","121.902563333333","25.0504416666667","6502600","貢寮區"
"228004","212-TW","2018/02/08 13:34:50","新北市貢寮區龍崗里石壁坑街23-1號","121.912286666667","24.997115","6502600","貢寮區"
"253003","6232-TK","2018/02/08 13:39:31","新北市石門區內石門17-1號","121.574443333333","25.2750866666667","6502200","石門區"
"253001","6251-TK","2018/02/08 13:39:36","新北市石門區白沙灣別墅3號","121.508633333333","25.2779683333333","6502200","石門區"
"253002","637-UY","2018/02/08 13:39:36","新北市石門區九芎林33-1號","121.56547","25.2577333333333","6502200","石門區"
"253004","8270-PC","2018/02/08 13:39:27","新北市石門區竹子湖11號","121.617228333333","25.2575116666667","6502200","石門區"
"208004","AAC-292","2018/02/08 13:38:00","新北市金山區重和里茅埔頭8號","121.603671666667","25.2163116666667","6502700","金山區"
"207002","749-BX","2018/02/08 13:39:38","新北市萬里區崁腳里崁腳路166號","121.645051666667","25.155855","6502800","萬里區"
"207001","662-BX","2018/02/08 13:39:38","新北市萬里區磺潭里公館崙23號","121.636375","25.2137783333333","6502800","萬里區"
"252005","AAC-283","2018/02/08 13:39:26","新北市三芝區圓山里內柑宅22-2號","121.536853333333","25.2176883333333","6502100","三芝區"
"236076","166-UM","2018/02/08 13:39:40","新北市土城區城林路6巷80號","121.438406666667","24.979735","6501300","土城區"
"236028","253-BX","2018/02/08 13:39:26","新北市土城區城林路6巷80號","121.438368333333","24.9797433333333","6501300","土城區"
"236005","498-BY","2018/02/08 13:39:31","新北市土城區慶祥街19號","121.436901666667","24.974285","6501300","土城區"
"236052","AAC-216","2018/02/08 13:39:24","新北市土城區城林路6巷80號","121.43844","24.97979","6501300","土城區"
"242045","172-VK","2018/02/08 13:39:41","新北市新莊區新樹路627號","121.433308333333","25.0032133333333","6500500","新莊區"
"221032","280-BY","2018/02/08 13:39:34","新北市汐止區仁愛路10號","121.659275","25.06362","6501100","汐止區"
"220027","145-BY","2018/02/08 13:39:34","新北市板橋區中正路199號","121.456266666667","25.017175","6500100","板橋區"
"220028","200-UY","2018/02/08 13:39:29","新北市板橋區大觀路二段431-1號","121.441368333333","24.9951116666667","6500100","板橋區"
"220030","610-BX","2018/02/08 13:39:30","新北市樹林區中正路6號","121.429811666667","24.9975233333333","6500100","板橋區"
"220004","276-BY","2018/02/08 13:39:24","新北市板橋區四川路二段245巷66號","121.453395","24.9914416666667","6500100","板橋區"
"220020","277-BY","2018/02/08 13:39:29","新北市板橋區大觀路三段59巷17弄6-1號","121.437681666667","24.9953466666667","6500100","板橋區"
"220050","280-UM","2018/02/08 13:39:32","新北市板橋區民生路二段161巷1號","121.470103333333","25.019815","6500100","板橋區"
"220019","283-VK","2018/02/08 13:39:39","新北市板橋區四川路二段140巷2號","121.449801666667","24.9930683333333","6500100","板橋區"
"220001","285-VK","2018/02/08 13:39:39","新北市板橋區民生路二段120號","121.470386666667","25.01981","6500100","板橋區"
"220031","286-VK","2018/02/08 13:39:28","新北市板橋區大觀路二段153巷44弄5號","121.446545","24.99947","6500100","板橋區"
"220029","287-VK","2018/02/08 13:39:22","新北市板橋區大觀路二段153巷44弄5號","121.446541666667","24.99943","6500100","板橋區"
"220009","293-UM","2018/02/08 13:39:31","新北市板橋區民生路二段161巷3號","121.470166666667","25.0197933333333","6500100","板橋區"
"220032","296-UM","2018/02/08 13:39:36","新北市板橋區大觀路二段187巷25號","121.44617","24.9993583333333","6500100","板橋區"
"220023","303-R5","2018/02/08 13:39:37","新北市板橋區南雅南路二段116號","121.45245","25.0004966666667","6500100","板橋區"
"220010","305-R5","2018/02/08 13:39:27","新北市板橋區民生路二段120號","121.47043","25.0197533333333","6500100","板橋區"
"220041","307-R5","2018/02/08 13:39:43","新北市板橋區民生路二段161巷9號","121.46983","25.019385","6500100","板橋區"
"220047","317-R6","2018/02/08 13:39:40","新北市板橋區民生路二段161巷11號","121.470195","25.0193383333333","6500100","板橋區"
"220012","486-VK","2018/02/08 13:39:34","新北市板橋區中山路一段55號","121.460578333333","25.009685","6500100","板橋區"
"220037","491-VK","2018/02/08 13:39:27","新北市板橋區民生路二段161巷1號","121.47019","25.020065","6500100","板橋區"
"220104","560-BX","2018/02/08 13:39:29","新北市板橋區南雅西路二段219號","121.451531666667","25.0139","6500100","板橋區"
"220025","687-BX","2018/02/08 13:39:25","新北市板橋區溪崑一街11-3號","121.430826666667","24.9923","6500100","板橋區"
"220002","741-BX","2018/02/08 13:39:39","新北市板橋區華東街1-9號","121.448088333333","24.994905","6500100","板橋區"
"220003","827-TW","2018/02/08 13:39:21","新北市板橋區華東街1-9號","121.448116666667","24.994915","6500100","板橋區"
"220014","829-TW","2018/02/08 13:39:31","新北市板橋區民生路二段120號","121.470496666667","25.0195533333333","6500100","板橋區"
"220045","830-TW","2018/02/08 13:39:32","新北市板橋區民生路二段120號","121.47059","25.0198133333333","6500100","板橋區"
"220042","833-TW","2018/02/08 13:39:39","新北市板橋區民生路二段89-6號","121.470701666667","25.019075","6500100","板橋區"
"220022","895-R6","2018/02/08 13:39:42","新北市板橋區南雅南路一段51號","121.455938333333","25.00617","6500100","板橋區"
"220021","985-R7","2018/02/08 13:39:28","新北市板橋區南雅南路二段116號","121.453221666667","25.0002066666667","6500100","板橋區"
"220018","AAC-253","2018/02/08 13:39:26","新北市板橋區華東街1-9號","121.448261666667","24.9948833333333","6500100","板橋區"
