"lineid","car","time","location","longitude","latitude","cityid","cityname"
"234044","148-BY","2018/02/08 13:49:27","新北市永和區永亨路205號","121.526105","25.002635","6500400","永和區"
"234005","207-UY","2018/02/08 13:49:41","新北市永和區永和路一段63號","121.513071666667","25.0069166666667","6500400","永和區"
"234078","298-R6","2018/02/08 13:49:41","新北市永和區林森路81號","121.523836666667","25.003945","6500400","永和區"
"234036","336-UY","2018/02/08 13:49:26","新北市永和區民樂街39巷18弄64號","121.528365","24.9987616666667","6500400","永和區"
"234062","337-UY","2018/02/08 13:49:37","新北市永和區中正路368巷29號","121.518568333333","25.000805","6500400","永和區"
"234084","338-UY","2018/02/08 13:49:25","新北市永和區永亨路133號","121.52487","25.0039666666667","6500400","永和區"
"234068","552-UM","2018/02/08 13:49:25","新北市永和區竹林路77號","121.519505","25.0126616666667","6500400","永和區"
"234015","745-BX","2018/02/08 13:49:30","新北市永和區永和路二段299號","121.516025","25.0161716666667","6500400","永和區"
"234028","746-BX","2018/02/08 13:49:36","新北市永和區民生路37巷11號","121.523913333333","24.9980616666667","6500400","永和區"
"234052","KEA-2590","2018/02/08 13:49:38","新北市永和區竹林路39巷28弄21號","121.51984","25.0144333333333","6500400","永和區"
"234012","KEA-2591","2018/02/08 13:49:32","新北市永和區永平路258號","121.508378333333","25.0115233333333","6500400","永和區"
"234060","AAD-866","2018/02/08 13:49:42","新北市永和區中正路59號","121.514661666667","24.9963766666667","6500400","永和區"
"234040","862-TW","2018/02/08 13:49:45","新北市永和區中和路389巷2-1號","121.508451666667","25.00038","6500400","永和區"
"234048","863-TW","2018/02/08 13:49:25","新北市永和區保安路144號","121.508478333333","25.01486","6500400","永和區"
"248013","025-BX","2018/02/08 13:49:35","新北市五股區民義路一段107巷23號","121.43215","25.0844966666667","6501500","五股區"
"248015","026-BX","2018/02/08 13:49:32","新北市五股區凌雲路一段149巷42號","121.448613333333","25.10095","6501500","五股區"
"248007","095-VK","2018/02/08 13:49:37","新北市五股區中興路一段151巷32號","121.464983333333","25.072865","6501500","五股區"
"248017","225-UY","2018/02/08 13:49:39","新北市五股區民義路二段48巷1-8號","121.414025","25.1030616666667","6501500","五股區"
"248011","247-BX","2018/02/08 13:49:43","新北市五股區成泰路二段195巷1號","121.440336666667","25.0873333333333","6501500","五股區"
"248003","677-BX","2018/02/08 13:49:33","新北市五股區民義路二段41-1號","121.411176666667","25.1037316666667","6501500","五股區"
"248001","678-BX","2018/02/08 13:49:36","新北市五股區成泰路三段454號","121.451391666667","25.1003783333333","6501500","五股區"
"248009","682-TV","2018/02/08 13:49:36","新北市五股區水碓九路11號","121.427835","25.0717616666667","6501500","五股區"
"234022","9380-KE","2018/02/08 13:49:33","新北市永和區中正路662巷12號","121.517641666667","25.0087783333333","6500400","永和區"
"234076","969-R7","2018/02/08 13:49:32","新北市永和區民族街33號","121.518645","24.9994333333333","6500400","永和區"
"234072","AAC-211","2018/02/08 13:49:36","新北市永和區豫溪街136巷5號","121.521306666667","25.009975","6500400","永和區"
"234066","AAC-212","2018/02/08 13:49:35","新北市永和區永貞路353號","121.509","25.0075233333333","6500400","永和區"
"234001","AAC-295","2018/02/08 13:49:38","新北市永和區永和路一段104號","121.513408333333","25.0071916666667","6500400","永和區"
"243004","AAD-798","2018/02/08 13:49:36","新北市泰山區福興三街13號","121.434415","25.0578","6501600","泰山區"
"243003","297-R6","2018/02/08 13:49:34","新北市泰山區犁頭窠18-3號","121.423385","25.0562883333333","6501600","泰山區"
"243007","380-SR","2018/02/08 13:49:40","新北市泰山區美寧街54號","121.430528333333","25.0644416666667","6501600","泰山區"
"243002","KEA-2215","2018/02/08 13:49:27","新北市泰山區辭修路48號","121.428505","25.0575066666667","6501600","泰山區"
"243001","KEA-2216","2018/02/08 13:49:24","新北市泰山區黎明路33號","121.421515","25.0602883333333","6501600","泰山區"
"243005","646-TV","2018/02/08 13:32:48","新北市泰山區明志路三段206巷3號","121.423253333333","25.0378916666667","6501600","泰山區"
"243008","680-BX","2018/02/08 13:49:25","新北市泰山區明志路二段135號","121.427663333333","25.0507566666667","6501600","泰山區"
"231002","002-UM","2018/02/08 13:49:35","新北市新店區溪園路393號","121.524306666667","24.9790766666667","6500600","新店區"
"231025","0293-UT","2018/02/08 13:49:21","新北市新店區中央五街1號","121.530111666667","24.9741283333333","6500600","新店區"
"231028","046-UY","2018/02/08 13:49:37","新北市新店區安業街1號","121.516745","24.9789766666667","6500600","新店區"
"231030","047-UY","2018/02/08 13:49:33","新北市新店區安康路一段258號","121.52082","24.963965","6500600","新店區"
"231029","106-UY","2018/02/08 13:49:26","新北市新店區安康路二段156號","121.51233","24.9608533333333","6500600","新店區"
"231018","107-UY","2018/02/08 13:49:43","新北市新店區中正路382巷36號","121.535726666667","24.9781583333333","6500600","新店區"
"231011","108-UY","2018/02/08 13:49:28","新北市新店區德正街29號","121.544655","24.9712883333333","6500600","新店區"
"231013","110-UY","2018/02/08 13:49:37","新北市新店區二十張路25巷18弄9號","121.539286666667","24.9815833333333","6500600","新店區"
"231021","187-VK","2018/02/08 13:49:30","新北市新店區新烏路二段40號","121.54483","24.9283233333333","6500600","新店區"
"231035","189-VK","2018/02/08 13:49:30","新北市新店區安忠路57巷1-8號","121.513505","24.9592383333333","6500600","新店區"
"231017","KEA-2219","2018/02/08 13:49:42","新北市新店區竹林路63號","121.552963333333","24.9513033333333","6500600","新店區"
"231026","256-BX","2018/02/08 13:49:37","新北市新店區三民路159巷19弄31號","121.532181666667","24.97313","6500600","新店區"
"231010","278-BY","2018/02/08 13:49:38","新北市新店區三民路60巷8號","121.535561666667","24.972665","6500600","新店區"
"231023","AAD-862","2018/02/08 13:49:39","新北市新店區國校路55號","121.538135","24.95448","6500600","新店區"
"231027","3712-VJ","2018/02/08 13:49:33","新北市新店區中興路一段24-2號","121.538515","24.9582466666667","6500600","新店區"
"231024","4716-K9","2018/02/08 13:49:40","新北市新店區中華路47巷2弄1號","121.539673333333","24.9675966666667","6500600","新店區"
"231038","4715-K9","2018/02/08 13:49:27","新北市新店區安康路一段291巷32-1號","121.522336666667","24.9625233333333","6500600","新店區"
"231003","616-UM","2018/02/08 13:49:29","新北市新店區中興路一段123號","121.541773333333","24.9632283333333","6500600","新店區"
"231005","618-UM","2018/02/08 13:49:32","新北市新店區寶中路135號","121.549785","24.9791816666667","6500600","新店區"
"231001","619-UM","2018/02/08 13:49:30","新北市新店區三民路64號","121.535106666667","24.972305","6500600","新店區"
"231034","645-TV","2018/02/08 13:49:33","新北市新店區達觀路16號","121.503013333333","24.941035","6500600","新店區"
"231036","719-UY","2018/02/08 13:49:30","新北市新店區安祥路145巷32號","121.475531666667","24.9566366666667","6500600","新店區"
"231031","720-UM","2018/02/08 13:49:40","新北市新店區莒光路44巷21弄11號","121.520293333333","24.952135","6500600","新店區"
"231006","898-TW","2018/02/08 13:49:37","新北市新店區北宜路一段248號","121.545146666667","24.9529183333333","6500600","新店區"
"231004","899-TW","2018/02/08 13:49:22","新北市新店區寶橋路132號","121.547366666667","24.9759733333333","6500600","新店區"
"231037","AKT-0513","2018/02/08 13:49:41","新北市新店區薏仁坑路9號","121.498706666667","24.959055","6500600","新店區"
"235030","003-UY","2018/02/08 13:49:39","新北市中和區水源路34巷1號","121.504915","25.0035083333333","6500300","中和區"
"235028","005-UY","2018/02/08 13:49:27","新北市中和區連城路115號","121.496316666667","24.9993916666667","6500300","中和區"
"235027","006-UY","2018/02/08 13:49:26","新北市中和區錦和路196巷1號","121.489861666667","24.994895","6500300","中和區"
"235020","096-UM","2018/02/08 13:49:43","新北市中和區立德街329號","121.481536666667","25.0104216666667","6500300","中和區"
"235003","097-UM","2018/02/08 13:49:43","新北市中和區大勇街25巷9弄2號","121.516636666667","24.9932916666667","6500300","中和區"
"235029","098-UM","2018/02/08 13:49:40","新北市中和區中山路二段2巷45弄22號","121.5016","25.0069983333333","6500300","中和區"
"235004","150-BY","2018/02/08 13:49:36","新北市中和區保健路48巷12號","121.509806666667","24.9967566666667","6500300","中和區"
"235022","151-BY","2018/02/08 13:49:30","新北市中和區連城路508號","121.476973333333","24.992","6500300","中和區"
"235019","183-VK","2018/02/08 13:49:25","新北市中和區德光路77巷1號","121.469493333333","25.0034783333333","6500300","中和區"
"235002","185-VK","2018/02/08 13:49:26","新北市中和區大勇街43巷13號","121.51703","24.99458","6500300","中和區"
"235013","186-VK","2018/02/08 13:49:27","新北市中和區明義街11巷12弄1號","121.503626666667","24.99465","6500300","中和區"
"235031","255-BX","2018/02/08 13:49:29","新北市中和區新生街220巷17號","121.482901666667","24.9984933333333","6500300","中和區"
"235008","293-VK","2018/02/08 13:49:40","新北市中和區中興街204號","121.499936666667","24.99024","6500300","中和區"
"235007","352-BY","2018/02/08 13:49:36","新北市中和區景平路21號","121.522683333333","24.9904683333333","6500300","中和區"
"235032","377-QA","2018/02/08 13:49:31","新北市中和區圓通路231號","121.496251666667","24.9942316666667","6500300","中和區"
"235025","378-QA","2018/02/08 13:49:24","新北市中和區民享街30巷2號","121.473746666667","25.00354","6500300","中和區"
"235035","269-TV","2018/02/08 13:49:32","新北市中和區立德街30號","121.489265","25.0070666666667","6500300","中和區"
"235014","4979-A6","2018/02/08 13:49:42","新北市中和區忠孝街62巷9弄10號","121.513135","24.98397","6500300","中和區"
"235033","4980-A6","2018/02/08 13:49:33","新北市中和區泰和街2號","121.500023333333","25.0011016666667","6500300","中和區"
"235006","551-UM","2018/02/08 13:49:42","新北市中和區秀朗路三段70巷36號","121.525455","24.994445","6500300","中和區"
"235009","565-BX","2018/02/08 13:49:34","新北市中和區復興路52號","121.504126666667","24.9901633333333","6500300","中和區"
"235018","640-BX","2018/02/08 13:49:36","新北市中和區莒光路129巷1弄3號","121.472938333333","25.0021333333333","6500300","中和區"
"235024","647-TV","2018/02/08 13:49:27","新北市中和區中山路二段583號","121.480235","25.0058866666667","6500300","中和區"
"235011","732-UM","2018/02/08 13:49:33","新北市中和區興南路二段34巷55弄2號","121.504823333333","24.9859883333333","6500300","中和區"
"235010","733-UM","2018/02/08 13:49:31","新北市中和區仁愛街36巷34號","121.511111666667","24.9867433333333","6500300","中和區"
"235026","800-TS","2018/02/08 13:49:31","新北市中和區景平路703巷2弄6號","121.496135","25.003745","6500300","中和區"
"235021","801-TS","2018/02/08 13:49:28","新北市中和區民安街42巷34弄1號","121.479315","25.0013966666667","6500300","中和區"
"235005","802-TS","2018/02/08 13:49:32","新北市中和區永貞路264號","121.513728333333","25.0037466666667","6500300","中和區"
"235016","805-TS","2018/02/08 13:49:23","新北市中和區興南路二段399巷38號","121.499243333333","24.97889","6500300","中和區"
"235012","896-TW","2018/02/08 13:49:32","新北市中和區南山路250巷2號","121.507733333333","24.9889566666667","6500300","中和區"
"235017","900-TW","2018/02/08 13:49:25","新北市中和區華福街42巷1弄1號","121.466396666667","24.9963383333333","6500300","中和區"
"235063","911-UM","2018/02/08 13:49:38","新北市永和區中山路一段336號","121.506008333333","25.00636","6500300","中和區"
"235015","157-BY","2018/02/08 13:49:29","新北市中和區華新街143巷46號","121.506015","24.9800233333333","6500300","中和區"
"235001","AAC-213","2018/02/08 13:49:31","新北市中和區秀朗路三段167號","121.524536666667","24.9917583333333","6500300","中和區"
"235023","AAC-215","2018/02/08 13:49:32","新北市中和區圓通路391號","121.49009","24.9892883333333","6500300","中和區"
"220016","013-TV","2018/02/08 13:49:31","新北市板橋區民生路二段123號","121.470763333333","25.01857","6500100","板橋區"
"220013","072-UY","2018/02/08 13:49:25","新北市板橋區漢生東路282號","121.471193333333","25.0090183333333","6500100","板橋區"
"220034","073-UY","2018/02/08 13:49:36","新北市板橋區大智街71巷5弄2號","121.453258333333","25.014805","6500100","板橋區"
"220105","075-UY","2018/02/08 13:49:29","新北市板橋區民生路二段120號","121.470361666667","25.0195016666667","6500100","板橋區"
"220017","AAD-861","2018/02/08 13:49:31","新北市板橋區縣民大道一段94巷2號","121.456291666667","25.0048283333333","6500100","板橋區"
"220046","120-SR","2018/02/08 13:49:39","新北市板橋區民生路二段89-6號","121.470831666667","25.01915","6500100","板橋區"
"247003","336-TH","2018/02/08 13:49:28","新北市蘆洲區中原路21巷5號","121.461038333333","25.082445","6501400","蘆洲區"
"247017","335-TH","2018/02/08 13:49:24","新北市蘆洲區民義街114號","121.474198333333","25.091085","6501400","蘆洲區"
"247005","056-VK","2018/02/08 13:49:38","新北市蘆洲區中山二路256號","121.46928","25.0789533333333","6501400","蘆洲區"
"228005","097-TW","2018/02/08 13:49:38","新北市雙溪區三港里雙澳路100號","121.889355","25.0559683333333","6502600","貢寮區"
"228004","212-TW","2018/02/08 13:41:30","新北市貢寮區龍崗里嵩陽街41號","121.905135","25.0135683333333","6502600","貢寮區"
"253003","6232-TK","2018/02/08 13:49:31","新北市石門區中山路62-20號","121.571473333333","25.2873133333333","6502200","石門區"
"253001","6251-TK","2018/02/08 13:49:36","新北市石門區八甲58-2號","121.522031666667","25.27424","6502200","石門區"
"253002","637-UY","2018/02/08 13:49:36","新北市石門區尖山湖55號","121.565365","25.249045","6502200","石門區"
"253004","8270-PC","2018/02/08 13:47:27","新北市石門區五爪崙8-10號","121.6074","25.261865","6502200","石門區"
"208004","AAC-292","2018/02/08 13:49:39","新北市金山區重和里三重橋1-1號","121.595865","25.1980816666667","6502700","金山區"
"207002","749-BX","2018/02/08 13:49:38","新北市萬里區崁腳里崁腳路166號","121.645018333333","25.1558666666667","6502800","萬里區"
"207001","662-BX","2018/02/08 13:49:38","新北市萬里區磺潭里公館崙49號","121.628721666667","25.2065416666667","6502800","萬里區"
"252005","AAC-283","2018/02/08 13:49:26","新北市三芝區圓山里內柑宅25-2號","121.53836","25.2269983333333","6502100","三芝區"
"236066","105-UM","2018/02/08 13:49:30","新北市土城區中正路22號","121.443086666667","24.9752483333333","6501300","土城區"
"236076","166-UM","2018/02/08 13:49:40","新北市土城區中央路三段121號","121.434015","24.9657016666667","6501300","土城區"
"236028","253-BX","2018/02/08 13:49:26","新北市土城區城林路6巷80號","121.438343333333","24.979775","6501300","土城區"
"236024","269-VK","2018/02/08 13:49:29","新北市土城區中華路二段26號","121.439248333333","24.97834","6501300","土城區"
"236012","270-VK","2018/02/08 13:49:33","新北市土城區城林路6巷80號","121.438383333333","24.97979","6501300","土城區"
"236033","271-VK","2018/02/08 13:49:28","新北市土城區城林路6巷80號","121.438418333333","24.979785","6501300","土城區"
"236018","401-BY","2018/02/08 13:49:39","新北市土城區城林路6巷80號","121.43845","24.9798216666667","6501300","土城區"
"236005","498-BY","2018/02/08 13:49:31","新北市土城區中華路二段61-1號","121.439963333333","24.9791566666667","6501300","土城區"
"236056","912-UM","2018/02/08 13:49:23","新北市土城區中華路二段61號","121.43933","24.97869","6501300","土城區"
"236047","913-UM","2018/02/08 13:49:42","新北市土城區城林路6巷80號","121.438341666667","24.97978","6501300","土城區"
"236060","915-UM","2018/02/08 13:49:36","新北市土城區城林路6巷80號","121.438555","24.979755","6501300","土城區"
"236052","AAC-216","2018/02/08 13:49:44","新北市土城區城林路6巷80號","121.438418333333","24.9797966666667","6501300","土城區"
"242045","172-VK","2018/02/08 13:49:41","新北市樹林區中正路7-1號","121.430498333333","24.9974316666667","6500500","新莊區"
"220027","145-BY","2018/02/08 13:49:34","新北市板橋區中正路79號","121.456366666667","25.0140666666667","6500100","板橋區"
"220028","200-UY","2018/02/08 13:49:29","新北市板橋區大觀路二段265巷66弄32號","121.441453333333","24.9970583333333","6500100","板橋區"
"220030","610-BX","2018/02/08 13:49:30","新北市板橋區篤行路二段103號","121.431506666667","24.9913466666667","6500100","板橋區"
"220052","257-TC","2018/02/08 13:49:28","新北市板橋區民生路二段120號","121.47032","25.0197","6500100","板橋區"
"220004","276-BY","2018/02/08 13:49:39","新北市板橋區信義路55號","121.457061666667","24.995725","6500100","板橋區"
"220020","277-BY","2018/02/08 13:49:29","新北市板橋區金門街47巷1號","121.4335","24.9934266666667","6500100","板橋區"
"220050","280-UM","2018/02/08 13:49:32","新北市板橋區民生路二段161巷5號","121.470141666667","25.0197166666667","6500100","板橋區"
"220019","283-VK","2018/02/08 13:49:39","新北市板橋區忠孝路176巷48號","121.465508333333","25.0017266666667","6500100","板橋區"
"220001","285-VK","2018/02/08 13:49:39","新北市板橋區民生路二段89-6號","121.47054","25.0188766666667","6500100","板橋區"
"220031","286-VK","2018/02/08 13:49:28","新北市板橋區大觀路二段22巷38-2號","121.44471","25.003755","6500100","板橋區"
"220029","287-VK","2018/02/08 13:49:22","新北市板橋區光華街13巷34號","121.45304","25.011285","6500100","板橋區"
"220039","288-VK","2018/02/08 13:49:39","新北市板橋區民生路二段123號","121.47068","25.01874","6500100","板橋區"
"220009","293-UM","2018/02/08 13:49:31","新北市板橋區太和街6巷2號","121.47385","25.0199116666667","6500100","板橋區"
"220032","296-UM","2018/02/08 13:49:36","新北市板橋區大觀路二段150巷65號","121.441486666667","25.0005066666667","6500100","板橋區"
"220023","303-R5","2018/02/08 13:49:37","新北市板橋區南雅西路一段174巷1弄16-1號","121.452945","25.0073566666667","6500100","板橋區"
"220010","305-R5","2018/02/08 13:49:29","新北市板橋區中山路二段40巷3號","121.473165","25.0150216666667","6500100","板橋區"
"220041","307-R5","2018/02/08 13:49:23","新北市板橋區民生路二段161巷9號","121.470086666667","25.0193766666667","6500100","板橋區"
"220047","317-R6","2018/02/08 13:49:41","新北市板橋區民生路二段161巷9號","121.470138333333","25.0195333333333","6500100","板橋區"
"220012","486-VK","2018/02/08 13:49:34","新北市板橋區觀光街12巷1弄2號","121.471978333333","25.0168433333333","6500100","板橋區"
"220038","487-VK","2018/02/08 13:49:35","新北市板橋區民生路二段161巷1號","121.46982","25.020035","6500100","板橋區"
"220037","491-VK","2018/02/08 13:49:27","新北市板橋區民生路二段120號","121.47061","25.0194916666667","6500100","板橋區"
"220104","560-BX","2018/02/08 13:49:29","新北市板橋區中正路325巷5弄9號","121.45372","25.0189516666667","6500100","板橋區"
"220011","609-BX","2018/02/08 13:49:40","新北市板橋區民生路二段123號","121.470575","25.0185666666667","6500100","板橋區"
"220025","687-BX","2018/02/08 13:49:42","新北市板橋區金門街55號","121.433243333333","24.99305","6500100","板橋區"
"220002","741-BX","2018/02/08 13:49:39","新北市板橋區館前西路58號","121.458293333333","25.0069066666667","6500100","板橋區"
"220003","827-TW","2018/02/08 13:49:41","新北市板橋區縣民大道一段193號","121.459111666667","25.0081083333333","6500100","板橋區"
"220014","829-TW","2018/02/08 13:49:31","新北市板橋區三民路二段正隆巷45號","121.476791666667","25.0133566666667","6500100","板橋區"
"220045","830-TW","2018/02/08 13:49:12","新北市板橋區民生路二段89-6號","121.47045","25.0193983333333","6500100","板橋區"
"220042","833-TW","2018/02/08 13:49:39","新北市板橋區民生路二段120號","121.470568333333","25.0194733333333","6500100","板橋區"
"220022","895-R6","2018/02/08 13:49:42","新北市板橋區府中路59號","121.458225","25.009245","6500100","板橋區"
"220021","985-R7","2018/02/08 13:49:28","新北市板橋區府中路32號","121.458493333333","25.0096116666667","6500100","板橋區"
"220018","AAC-253","2018/02/08 13:49:26","新北市板橋區館前西路4-1號","121.459141666667","25.0070783333333","6500100","板橋區"
