"lineid","car","time","location","longitude","latitude","cityid","cityname"
"234084","338-UY","2018/02/08 14:59:45","新北市五股區五工一路103號","121.458728333333","25.0692966666667","6500400","永和區"
"234028","746-BX","2018/02/08 14:59:36","新北市板橋區民生路二段236號","121.468168333333","25.022875","6500400","永和區"
"234048","863-TW","2018/02/08 14:59:45","新北市八里區商港路120號","121.392956666667","25.1499516666667","6500400","永和區"
"234025","9371-KE","2018/02/08 14:59:51","新北市永和區水源街21巷14弄4號","121.511403333333","25.00381","6500400","永和區"
"248013","025-BX","2018/02/08 14:59:51","新北市五股區成泰路三段23號","121.441815","25.088295","6501500","五股區"
"248015","026-BX","2018/02/08 14:59:51","新北市五股區凌雲路一段158巷57弄1號","121.447116666667","25.10446","6501500","五股區"
"248007","095-VK","2018/02/08 14:59:57","新北市五股區國道路三段7號","121.46958","25.07515","6501500","五股區"
"248017","225-UY","2018/02/08 14:59:53","新北市五股區登林路106巷11號","121.426653333333","25.0715483333333","6501500","五股區"
"248011","247-BX","2018/02/08 14:59:43","新北市五股區六合街107號","121.429736666667","25.09069","6501500","五股區"
"248003","677-BX","2018/02/08 14:59:53","新北市五股區成泰路一段32巷54號","121.434898333333","25.0671283333333","6501500","五股區"
"248009","682-TV","2018/02/08 14:59:36","新北市五股區成泰路一段7巷50號","121.432421666667","25.0674166666667","6501500","五股區"
"243004","AAD-798","2018/02/08 14:59:56","新北市泰山區楓江路89號","121.437","25.063665","6501600","泰山區"
"243003","297-R6","2018/02/08 14:59:34","新北市泰山區壽山路10號","121.421366666667","25.0290683333333","6501600","泰山區"
"243007","380-SR","2018/02/08 14:59:40","新北市泰山區明志路一段210號","121.432686666667","25.0615633333333","6501600","泰山區"
"243006","421-VK","2018/02/08 14:59:52","新北市泰山區泰林路二段328號","121.430128333333","25.0630716666667","6501600","泰山區"
"243002","KEA-2215","2018/02/08 14:59:47","新北市泰山區新生路31巷7號","121.42767","25.04588","6501600","泰山區"
"243001","KEA-2216","2018/02/08 14:59:47","新北市泰山區忠孝街19巷2弄24號","121.429021666667","25.06548","6501600","泰山區"
"243005","646-TV","2018/02/08 14:59:51","新北市泰山區新民路36號","121.427098333333","25.0444633333333","6501600","泰山區"
"243008","680-BX","2018/02/08 14:59:45","新北市泰山區明志路三段385號","121.42159","25.03454","6501600","泰山區"
"231002","002-UM","2018/02/08 14:59:35","新北市新店區民權路44號","121.540231666667","24.9829366666667","6500600","新店區"
"231025","0293-UT","2018/02/08 14:59:41","新北市新店區建國路193號","121.537993333333","24.9799133333333","6500600","新店區"
"231028","046-UY","2018/02/08 14:59:57","新北市新店區安豐路46號","121.500121666667","24.9549766666667","6500600","新店區"
"231030","047-UY","2018/02/08 14:59:53","新北市新店區安民街351號","121.51684","24.9754716666667","6500600","新店區"
"231029","106-UY","2018/02/08 14:59:47","新北市新店區錦秀路48號","121.479048333333","24.9434666666667","6500600","新店區"
"231018","107-UY","2018/02/08 14:59:43","新北市新店區中央六街5號","121.530308333333","24.97448","6500600","新店區"
"231011","108-UY","2018/02/08 14:59:48","新北市新店區寶橋路85巷5弄3號","121.54601","24.975635","6500600","新店區"
"231021","187-VK","2018/02/08 14:59:50","新北市新店區永福路51-1號","121.560388333333","24.9277166666667","6500600","新店區"
"231035","189-VK","2018/02/08 14:59:50","新北市新店區安和路三段61號","121.517958333333","24.9833516666667","6500600","新店區"
"231017","KEA-2219","2018/02/08 14:59:42","新北市新店區銀河路46號","121.574708333333","24.95739","6500600","新店區"
"231026","256-BX","2018/02/08 14:59:44","新北市新店區中正路160號","121.541406666667","24.9717816666667","6500600","新店區"
"231023","AAD-862","2018/02/08 14:59:39","新北市新店區檳榔路119號","121.544553333333","24.96133","6500600","新店區"
"231027","3712-VJ","2018/02/08 14:59:53","新北市新店區薏仁坑路自強巷6號","121.496603333333","24.95847","6500600","新店區"
"231024","4716-K9","2018/02/08 14:59:40","新北市新店區新生街5巷1號","121.540315","24.9658966666667","6500600","新店區"
"231038","4715-K9","2018/02/08 14:59:47","新北市新店區柴埕路52巷12號","121.512221666667","24.96443","6500600","新店區"
"231003","616-UM","2018/02/08 14:59:48","新北市新店區中興路二段224號","121.54796","24.9750483333333","6500600","新店區"
"231005","618-UM","2018/02/08 14:59:52","新北市新店區復興路59-1號","121.535563333333","24.98743","6500600","新店區"
"231001","619-UM","2018/02/08 14:59:50","新北市新店區中正路261號","121.53881","24.9735383333333","6500600","新店區"
"231034","645-TV","2018/02/08 14:59:52","新北市新店區玫瑰路4-1號","121.493601666667","24.9513733333333","6500600","新店區"
"231039","718-UY","2018/02/08 14:59:54","新北市新店區中興路三段88號","121.545351666667","24.9788316666667","6500600","新店區"
"231036","719-UY","2018/02/08 14:59:30","新北市新店區安祥路104-2號","121.48035","24.96237","6500600","新店區"
"231031","720-UM","2018/02/08 14:59:39","新北市新店區安泰路60巷134弄98號","121.48362","24.9434433333333","6500600","新店區"
"231006","898-TW","2018/02/08 14:59:37","新北市新店區新坡一街111號","121.547455","24.9637","6500600","新店區"
"231004","899-TW","2018/02/08 14:59:42","新北市新店區民族路11號","121.54157","24.9788233333333","6500600","新店區"
"231037","AKT-0513","2018/02/08 14:59:41","新北市新店區柴埕路2-1號","121.514626666667","24.9659","6500600","新店區"
"235030","003-UY","2018/02/08 14:59:47","新北市中和區中山路二段56號","121.50413","25.0047666666667","6500300","中和區"
"235020","096-UM","2018/02/08 14:59:23","新北市中和區漢民路419號","121.472446666667","25.0068366666667","6500300","中和區"
"235003","097-UM","2018/02/08 14:59:43","新北市永和區中正路5號","121.5138","24.9956116666667","6500300","中和區"
"235029","098-UM","2018/02/08 14:59:40","新北市中和區福美路252號","121.498395","25.00529","6500300","中和區"
"235004","150-BY","2018/02/08 14:59:36","新北市中和區保健路10巷12號","121.507643333333","24.9969133333333","6500300","中和區"
"235022","151-BY","2018/02/08 14:59:50","新北市中和區員山路163號","121.481175","24.9966333333333","6500300","中和區"
"235013","186-VK","2018/02/08 14:59:48","新北市中和區南華路17-2號","121.502606666667","24.995655","6500300","中和區"
"235031","255-BX","2018/02/08 14:59:49","新北市中和區新生街220巷17號","121.482868333333","24.9984983333333","6500300","中和區"
"235007","352-BY","2018/02/08 14:59:55","新北市中和區華新街149號","121.506296666667","24.9815533333333","6500300","中和區"
"235032","377-QA","2018/02/08 14:59:51","新北市中和區福祥路83號","121.499101666667","25.0057266666667","6500300","中和區"
"235025","378-QA","2018/02/08 14:59:44","新北市中和區員山路174巷20號","121.481995","24.999735","6500300","中和區"
"235035","269-TV","2018/02/08 14:59:52","新北市中和區建一路90號","121.48774","25.002285","6500300","中和區"
"235014","4979-A6","2018/02/08 14:59:42","新北市中和區景平路155巷2弄1號","121.513368333333","24.9919133333333","6500300","中和區"
"235033","4980-A6","2018/02/08 14:59:52","新北市中和區圓通路172號","121.497371666667","24.9946533333333","6500300","中和區"
"235018","640-BX","2018/02/08 14:59:36","新北市中和區民享街86巷31號","121.472753333333","25.0003","6500300","中和區"
"235010","733-UM","2018/02/08 14:59:51","新北市中和區興南路一段93巷58弄1號","121.510656666667","24.98593","6500300","中和區"
"235005","802-TS","2018/02/08 14:59:52","新北市中和區中正路788號","121.485045","25.0011033333333","6500300","中和區"
"235016","805-TS","2018/02/08 14:59:42","新北市中和區華新街192巷22弄9號","121.506605","24.9832","6500300","中和區"
"235012","896-TW","2018/02/08 14:59:52","新北市中和區忠孝街1巷2-1號","121.509128333333","24.983085","6500300","中和區"
"235017","900-TW","2018/02/08 14:59:45","新北市中和區民德路212號","121.468196666667","24.9982166666667","6500300","中和區"
"235063","911-UM","2018/02/08 14:59:38","新北市中和區連城路160-1號","121.494086666667","24.9980166666667","6500300","中和區"
"235015","157-BY","2018/02/08 14:59:49","新北市中和區中興街233巷10號","121.50148","24.9894533333333","6500300","中和區"
"235001","AAC-213","2018/02/08 14:59:50","新北市中和區自立路147號","121.522608333333","24.992995","6500300","中和區"
"235023","AAC-215","2018/02/08 14:59:51","新北市中和區圓通路365號","121.491406666667","24.9897083333333","6500300","中和區"
"220016","013-TV","2018/02/08 14:59:51","新北市板橋區中山路二段412巷23號","121.483583333333","25.0201133333333","6500100","板橋區"
"220013","072-UY","2018/02/08 14:59:44","新北市板橋區國泰街25巷8-2號","121.469193333333","25.006165","6500100","板橋區"
"220105","075-UY","2018/02/08 14:59:53","新北市板橋區民治街57巷22號","121.480086666667","25.0337883333333","6500100","板橋區"
"220017","AAD-861","2018/02/08 14:59:50","新北市板橋區南雅南路二段11-26號","121.453886666667","25.0018233333333","6500100","板橋區"
"220046","120-SR","2018/02/08 14:59:39","新北市板橋區漢生西路56號","121.463048333333","25.018795","6500100","板橋區"
"247007","341-TH","2018/02/08 14:59:40","新北市五股區中興路二段52巷15-8號","121.462896666667","25.0779083333333","6501400","蘆洲區"
"228004","212-TW","2018/02/08 14:59:50","新北市貢寮區雙玉里田寮洋街1號","121.928211666667","25.0181566666667","6502600","貢寮區"
"253003","6232-TK","2018/02/08 14:59:51","新北市石門區小坑9號","121.594316666667","25.2872783333333","6502200","石門區"
"253001","6251-TK","2018/02/08 14:58:56","新北市石門區崁子腳90-1號","121.53614","25.2705766666667","6502200","石門區"
"253002","637-UY","2018/02/08 14:59:36","新北市石門區楓林47號","121.540726666667","25.2783983333333","6502200","石門區"
"253004","8270-PC","2018/02/08 14:59:51","新北市石門區內阿里磅31-4號","121.588896666667","25.2418233333333","6502200","石門區"
"208004","AAC-292","2018/02/08 14:59:39","新北市金山區半嶺2號","121.618671666667","25.2326266666667","6502700","金山區"
"207002","749-BX","2018/02/08 14:59:45","新北市萬里區崁腳里崁腳路60-1號","121.648235","25.160205","6502800","萬里區"
"207001","662-BX","2018/02/08 14:59:50","新北市萬里區雙興里太和路27號","121.65495","25.1759533333333","6502800","萬里區"
"236066","105-UM","2018/02/08 14:59:50","新北市土城區裕生路85號","121.446818333333","24.98399","6501300","土城區"
"236040","107-UM","2018/02/08 14:59:35","新北市土城區裕民路214巷18弄10號","121.452316666667","24.98421","6501300","土城區"
"236076","166-UM","2018/02/08 14:59:40","新北市土城區中央路四段69號","121.417556666667","24.9579","6501300","土城區"
"236028","253-BX","2018/02/08 14:59:46","新北市土城區慶利街9號","121.439593333333","24.97363","6501300","土城區"
"236024","269-VK","2018/02/08 14:59:49","新北市土城區中正路58號","121.443943333333","24.9753583333333","6501300","土城區"
"236012","270-VK","2018/02/08 14:59:53","新北市土城區延和路13巷1號","121.46354","24.9884733333333","6501300","土城區"
"236033","271-VK","2018/02/08 14:59:47","新北市土城區仁愛路2號","121.459798333333","24.9812633333333","6501300","土城區"
"236018","401-BY","2018/02/08 14:59:44","新北市土城區延安街17號","121.467528333333","24.98555","6501300","土城區"
"236056","912-UM","2018/02/08 14:59:43","新北市土城區和平路51-1號","121.443455","24.9719733333333","6501300","土城區"
"236047","913-UM","2018/02/08 14:59:42","新北市土城區青雲路251號","121.459073333333","24.980995","6501300","土城區"
"236060","915-UM","2018/02/08 14:59:56","新北市土城區延和路41巷6弄8號","121.466256666667","24.9901133333333","6501300","土城區"
"236052","AAC-216","2018/02/08 14:59:44","新北市土城區學成路164號","121.44807","24.989115","6501300","土城區"
"238010","601-UM","2018/02/08 14:59:52","新北市樹林區八德街1022號","121.391091666667","24.9684766666667","6500700","樹林區"
"238018","571-TV","2018/02/08 14:59:45","新北市樹林區八德街365號","121.416838333333","24.9726266666667","6500700","樹林區"
"238009","KEA-2213","2018/02/08 14:59:43","新北市樹林區育德街78-1號","121.387911666667","24.9681116666667","6500700","樹林區"
"238003","KEA-2539","2018/02/08 14:59:54","新北市樹林區育德街78-1號","121.388285","24.9680716666667","6500700","樹林區"
"238012","303-VK","2018/02/08 14:59:53","新北市樹林區育德街78-1號","121.38844","24.9682366666667","6500700","樹林區"
"238001","282-BY","2018/02/08 14:59:47","新北市樹林區育德街78-1號","121.38767","24.9681366666667","6500700","樹林區"
"221032","280-BY","2018/02/08 14:59:34","新北市汐止區橫科路407巷30弄28號","121.62746","25.048485","6501100","汐止區"
"220027","145-BY","2018/02/08 14:59:54","新北市板橋區建國街76-2號","121.459353333333","25.01727","6500100","板橋區"
"220028","200-UY","2018/02/08 14:59:48","新北市樹林區柑園街一段1號","121.406315","24.9614966666667","6500100","板橋區"
"220030","610-BX","2018/02/08 14:59:50","新北市板橋區沙崙街19號","121.43164","24.9942133333333","6500100","板橋區"
"220029","256-TC","2018/02/08 14:59:43","新北市板橋區大觀路一段29巷131弄16號","121.450596666667","25.0049866666667","6500100","板橋區"
"220052","257-TC","2018/02/08 14:59:47","新北市板橋區自由路15號","121.465451666667","25.0227383333333","6500100","板橋區"
"220004","276-BY","2018/02/08 14:59:44","新北市板橋區四川路二段99巷3號","121.45273","24.994505","6500100","板橋區"
"220020","277-BY","2018/02/08 14:59:29","新北市板橋區金門街215巷109號","121.43347","24.9880433333333","6500100","板橋區"
"220050","280-UM","2018/02/08 14:59:52","新北市板橋區縣民大道三段103巷23號","121.475291666667","25.0227516666667","6500100","板橋區"
"220019","283-VK","2018/02/08 14:59:39","新北市板橋區五權街30巷12弄24號","121.463986666667","24.9942883333333","6500100","板橋區"
"220043","285-UM","2018/02/08 14:59:39","新北市板橋區雨農路17巷1號","121.462151666667","25.0247333333333","6500100","板橋區"
"220001","285-VK","2018/02/08 14:59:47","新北市板橋區永豐街67號","121.473805","25.0186116666667","6500100","板橋區"
"220031","286-VK","2018/02/08 14:59:48","新北市板橋區僑中二街12巷2號","121.446866666667","25.01063","6500100","板橋區"
"220039","288-VK","2018/02/08 14:59:38","新北市板橋區新海路138號","121.460806666667","25.0233666666667","6500100","板橋區"
"220009","293-UM","2018/02/08 14:59:51","新北市板橋區民生路二段56-2號","121.472005","25.01698","6500100","板橋區"
"220032","296-UM","2018/02/08 14:59:51","新北市板橋區溪崑二街111巷7號","121.426821666667","24.98856","6500100","板橋區"
"220023","303-R5","2018/02/08 14:59:37","新北市板橋區金華街3號","121.45551","25.0201066666667","6500100","板橋區"
"220010","305-R5","2018/02/08 14:59:47","新北市板橋區三民路二段29巷31弄1號","121.481395","25.0177233333333","6500100","板橋區"
"220041","307-R5","2018/02/08 14:59:51","新北市板橋區四維路259巷45號","121.46153","25.0272266666667","6500100","板橋區"
"220047","317-R6","2018/02/08 14:59:41","新北市板橋區新海路385巷12號","121.458436666667","25.0258766666667","6500100","板橋區"
"220012","486-VK","2018/02/08 14:59:54","新北市板橋區公園街34巷2號","121.4624","25.00842","6500100","板橋區"
"220038","487-VK","2018/02/08 14:59:55","新北市板橋區龍泉街71號","121.456523333333","25.0254716666667","6500100","板橋區"
"220037","491-VK","2018/02/08 14:59:55","新北市板橋區文聖街93號","121.477648333333","25.0297633333333","6500100","板橋區"
"220011","609-BX","2018/02/08 14:59:40","新北市板橋區中山路二段531巷28號","121.482903333333","25.0222516666667","6500100","板橋區"
"220040","637-BX","2018/02/08 14:59:52","新北市板橋區懷德街127巷21號","121.479471666667","25.0312466666667","6500100","板橋區"
"220005","686-BX","2018/02/08 14:59:41","新北市板橋區廣和街81號","121.462661666667","24.992025","6500100","板橋區"
"220025","687-BX","2018/02/08 14:59:44","新北市板橋區僑中三街39號","121.445043333333","25.0046783333333","6500100","板橋區"
"220002","741-BX","2018/02/08 14:59:39","新北市板橋區實踐路65巷41號","121.465093333333","25.006435","6500100","板橋區"
"220003","827-TW","2018/02/08 14:59:40","新北市板橋區仁愛路64號","121.459865","24.9994416666667","6500100","板橋區"
"220014","829-TW","2018/02/08 14:59:51","新北市板橋區漢生東路193巷62號","121.473053333333","25.0119583333333","6500100","板橋區"
"220045","830-TW","2018/02/08 14:59:52","新北市板橋區文化路二段124巷34弄26號","121.47041","25.0256783333333","6500100","板橋區"
"220042","833-TW","2018/02/08 14:59:39","新北市板橋區長江路二段245號","121.469085","25.03268","6500100","板橋區"
"220022","895-R6","2018/02/08 14:59:42","新北市板橋區文化路一段52巷29號","121.461496666667","25.011055","6500100","板橋區"
"220021","985-R7","2018/02/08 14:59:48","新北市板橋區大仁街55號","121.454535","25.0164216666667","6500100","板橋區"
"220018","AAC-253","2018/02/08 14:59:46","新北市板橋區民族路105號","121.466733333333","25.008245","6500100","板橋區"
