"lineid","car","time","location","longitude","latitude","cityid","cityname"
"234084","338-UY","2018/02/08 15:08:25","新北市八里區荖阡坑路16-8號","121.39859","25.1389816666667","6500400","永和區"
"234028","746-BX","2018/02/08 15:07:16","新北市五股區中興路三段5號","121.44972","25.078955","6500400","永和區"
"234048","863-TW","2018/02/08 15:08:25","新北市林口區太平里180號","121.368505","25.13386","6500400","永和區"
"234025","9371-KE","2018/02/08 15:07:31","新北市永和區保生路55-1號","121.504746666667","25.0115816666667","6500400","永和區"
"248015","026-BX","2018/02/08 15:03:51","新北市五股區凌雲路一段158巷44號","121.447096666667","25.1038483333333","6501500","五股區"
"248007","095-VK","2018/02/08 15:06:17","新北市五股區四維路155巷36弄8號","121.46693","25.0747683333333","6501500","五股區"
"248017","225-UY","2018/02/08 15:08:53","新北市五股區登林路101號","121.411146666667","25.0780816666667","6501500","五股區"
"248003","677-BX","2018/02/08 15:02:53","新北市五股區成泰路一段34巷1號","121.435113333333","25.0680883333333","6501500","五股區"
"243004","AAD-798","2018/02/08 15:02:56","新北市泰山區和平街27巷1號","121.434823333333","25.0645633333333","6501600","泰山區"
"243003","297-R6","2018/02/08 15:04:14","新北市泰山區壽山路160巷4號","121.416981666667","25.031055","6501600","泰山區"
"243007","380-SR","2018/02/08 15:02:31","新北市泰山區泰林路二段47號","121.43539","25.0573833333333","6501600","泰山區"
"243006","421-VK","2018/02/08 15:01:40","新北市泰山區泰林路二段353號","121.428223333333","25.0639016666667","6501600","泰山區"
"243002","KEA-2215","2018/02/08 15:04:27","新北市泰山區明志路二段255巷3弄1號","121.427965","25.047475","6501600","泰山區"
"243001","KEA-2216","2018/02/08 15:02:24","新北市泰山區忠孝街14-1號","121.427841666667","25.0650083333333","6501600","泰山區"
"243008","680-BX","2018/02/08 15:04:45","新北市泰山區明志路三段204巷2號","121.423873333333","25.0383983333333","6501600","泰山區"
"231002","002-UM","2018/02/08 15:04:56","新北市新店區民權路85號","121.538111666667","24.982845","6500600","新店區"
"231025","0293-UT","2018/02/08 15:06:01","新北市新店區大豐路58號","121.539653333333","24.97983","6500600","新店區"
"231028","046-UY","2018/02/08 15:06:57","新北市新店區僑信路70號","121.499428333333","24.9490133333333","6500600","新店區"
"231030","047-UY","2018/02/08 15:07:33","新北市新店區安民街341-1號","121.516886666667","24.9749133333333","6500600","新店區"
"231029","106-UY","2018/02/08 15:03:07","新北市新店區錦秀路18號","121.479246666667","24.9446166666667","6500600","新店區"
"231018","107-UY","2018/02/08 15:09:03","新北市新店區中央六街98號","121.52589","24.9770316666667","6500600","新店區"
"231011","108-UY","2018/02/08 15:07:08","新北市新店區中興路三段205巷7弄1號","121.543201666667","24.9815016666667","6500600","新店區"
"231021","187-VK","2018/02/08 15:08:10","新北市新店區湖興路97號","121.565701666667","24.932235","6500600","新店區"
"231035","189-VK","2018/02/08 15:04:50","新北市新店區永安街56巷22號","121.518913333333","24.9857166666667","6500600","新店區"
"231017","KEA-2219","2018/02/08 15:02:54","新北市新店區明山路26號","121.562726666667","24.9543616666667","6500600","新店區"
"231026","256-BX","2018/02/08 15:06:43","新北市新店區建國路68號","121.540625","24.9760216666667","6500600","新店區"
"231023","AAD-862","2018/02/08 15:05:59","新北市新店區檳榔路117號","121.544631666667","24.961405","6500600","新店區"
"231024","4716-K9","2018/02/08 15:04:20","新北市新店區力行路5號","121.539375","24.964555","6500600","新店區"
"231038","4715-K9","2018/02/08 15:03:47","新北市新店區安華路28-1號","121.519248333333","24.96063","6500600","新店區"
"231003","616-UM","2018/02/08 15:05:48","新北市新店區寶橋路156-1號","121.548591666667","24.9770016666667","6500600","新店區"
"231005","618-UM","2018/02/08 15:02:52","新北市新店區復興路48號","121.53819","24.986725","6500600","新店區"
"231001","619-UM","2018/02/08 15:07:30","新北市新店區中正路253號","121.53894","24.9734983333333","6500600","新店區"
"231034","645-TV","2018/02/08 15:06:33","新北市新店區玫瑰路4-1號","121.49361","24.9513633333333","6500600","新店區"
"231039","718-UY","2018/02/08 15:05:14","新北市新店區寶安街18號","121.542131666667","24.98193","6500600","新店區"
"231036","719-UY","2018/02/08 15:02:29","新北市新店區安祥路102巷32號","121.484115","24.9639316666667","6500600","新店區"
"231031","720-UM","2018/02/08 15:06:00","新北市新店區安泰路76號","121.485945","24.9457683333333","6500600","新店區"
"231006","898-TW","2018/02/08 15:08:57","新北市新店區新坡一街18巷5弄23號","121.550738333333","24.9618633333333","6500600","新店區"
"231004","899-TW","2018/02/08 15:03:22","新北市新店區建國路88號","121.540455","24.9771516666667","6500600","新店區"
"231037","AKT-0513","2018/02/08 15:04:00","新北市新店區柴埕路52巷17號","121.511171666667","24.9652266666667","6500600","新店區"
"235030","003-UY","2018/02/08 15:07:58","新北市中和區保平路300號","121.507843333333","25.0045116666667","6500300","中和區"
"235020","096-UM","2018/02/08 15:05:43","新北市中和區中山路三段168號","121.472885","25.0064316666667","6500300","中和區"
"235003","097-UM","2018/02/08 15:04:03","新北市中和區安樂路143巷7號","121.514036666667","24.9970516666667","6500300","中和區"
"235029","098-UM","2018/02/08 15:04:40","新北市中和區橋和路284號","121.496438333333","25.00668","6500300","中和區"
"235004","150-BY","2018/02/08 15:07:36","新北市中和區景安路20號","121.507553333333","24.9986916666667","6500300","中和區"
"235031","255-BX","2018/02/08 15:05:09","新北市中和區中正路751巷3弄12號","121.484373333333","24.99932","6500300","中和區"
"235007","352-BY","2018/02/08 15:08:55","新北市中和區興南路二段159巷7號","121.505296666667","24.9831416666667","6500300","中和區"
"235035","269-TV","2018/02/08 15:02:32","新北市中和區建康路6號","121.486213333333","25.0001416666667","6500300","中和區"
"235014","4979-A6","2018/02/08 15:02:22","新北市中和區景平路155號","121.513395","24.99196","6500300","中和區"
"235033","4980-A6","2018/02/08 15:04:13","新北市中和區圓通路30號","121.50086","24.9981683333333","6500300","中和區"
"235018","640-BX","2018/02/08 15:06:16","新北市中和區莒光路11號","121.471978333333","25.0058083333333","6500300","中和區"
"235010","733-UM","2018/02/08 15:05:31","新北市中和區忠孝街31巷42號","121.509913333333","24.9850583333333","6500300","中和區"
"235005","802-TS","2018/02/08 15:07:32","新北市板橋區中山路二段50-1號","121.473368333333","25.0155383333333","6500300","中和區"
"235016","805-TS","2018/02/08 15:03:02","新北市中和區忠孝街2-9號","121.509323333333","24.9829433333333","6500300","中和區"
"235012","896-TW","2018/02/08 15:06:32","新北市中和區華新街44號","121.5079","24.9842133333333","6500300","中和區"
"235063","911-UM","2018/02/08 15:08:18","新北市中和區中正路434號","121.49124","24.9942833333333","6500300","中和區"
"235015","157-BY","2018/02/08 15:06:49","新北市中和區景安路247巷16號","121.504325","24.9905233333333","6500300","中和區"
"235001","AAC-213","2018/02/08 15:03:50","新北市中和區自立路99巷22弄2號","121.523321666667","24.9944366666667","6500300","中和區"
"235023","AAC-215","2018/02/08 15:08:51","新北市中和區圓通路335巷3弄2號","121.492566666667","24.99007","6500300","中和區"
"220016","013-TV","2018/02/08 15:02:51","新北市板橋區中山路二段318巷20弄27號","121.481181666667","25.0192516666667","6500100","板橋區"
"220013","072-UY","2018/02/08 15:02:25","新北市中和區中山路三段229巷43號","121.46939","25.0056633333333","6500100","板橋區"
"220105","075-UY","2018/02/08 15:04:49","新北市板橋區民治街71巷1弄5號","121.480178333333","25.0327883333333","6500100","板橋區"
"220017","AAD-861","2018/02/08 15:06:50","新北市板橋區貴興路60號","121.456743333333","25.0029966666667","6500100","板橋區"
"220046","120-SR","2018/02/08 15:01:59","新北市板橋區復興街135號","121.461093333333","25.0180316666667","6500100","板橋區"
"247007","341-TH","2018/02/08 15:07:40","新北市五股區中直路13-7號","121.425536666667","25.1101783333333","6501400","蘆洲區"
"228004","212-TW","2018/02/08 15:05:30","新北市貢寮區雙玉里田寮洋街7-2號","121.925976666667","25.0221333333333","6502600","貢寮區"
"227010","400-TW","2018/02/08 15:07:26","新北市雙溪區三貂里政光路3-1號","121.850833333333","25.0632033333333","6502500","雙溪區"
"253003","6232-TK","2018/02/08 15:08:51","新北市石門區小坑9號","121.594436666667","25.2891916666667","6502200","石門區"
"253001","6251-TK","2018/02/08 15:05:56","新北市石門區崁子腳64-1號","121.539163333333","25.270995","6502200","石門區"
"253002","637-UY","2018/02/08 15:06:36","新北市石門區楓林37-2號","121.540051666667","25.28784","6502200","石門區"
"253004","8270-PC","2018/02/08 15:08:51","新北市石門區坪林31號","121.590386666667","25.2641333333333","6502200","石門區"
"208004","AAC-292","2018/02/08 15:02:58","新北市金山區西湖里尖山仔20-1號","121.616506666667","25.2442066666667","6502700","金山區"
"207002","749-BX","2018/02/08 15:05:25","新北市萬里區崁腳里崁腳路23號","121.652035","25.1606616666667","6502800","萬里區"
"207001","662-BX","2018/02/08 15:01:24","新北市萬里區雙興里麗水路2-1號","121.654111666667","25.1792583333333","6502800","萬里區"
"236066","105-UM","2018/02/08 15:02:30","新北市土城區中央路一段249巷29弄3號","121.446611666667","24.9855916666667","6501300","土城區"
"236040","107-UM","2018/02/08 15:07:15","新北市土城區學士路14號","121.453538333333","24.9828716666667","6501300","土城區"
"236076","166-UM","2018/02/08 15:05:12","新北市土城區中央路四段125巷9弄12號","121.416948333333","24.957495","6501300","土城區"
"236028","253-BX","2018/02/08 15:06:26","新北市土城區中央路二段14巷15-1號","121.442225","24.98077","6501300","土城區"
"236024","269-VK","2018/02/08 15:01:09","新北市土城區中正路74巷3弄2號","121.444855","24.9746666666667","6501300","土城區"
"236012","270-VK","2018/02/08 15:05:33","新北市土城區立德路13巷22號","121.461616666667","24.9887933333333","6501300","土城區"
"236033","271-VK","2018/02/08 15:04:27","新北市土城區清水路100號","121.45764","24.9815783333333","6501300","土城區"
"236018","401-BY","2018/02/08 15:04:59","新北市土城區金城路三段116巷11弄1號","121.46721","24.9869616666667","6501300","土城區"
"236056","912-UM","2018/02/08 15:04:03","新北市土城區金城路二段10號","121.449083333333","24.9771516666667","6501300","土城區"
"236047","913-UM","2018/02/08 15:07:02","新北市土城區清水路34號","121.455125","24.98066","6501300","土城區"
"236060","915-UM","2018/02/08 15:01:56","新北市土城區延和路88巷6號","121.466628333333","24.9891183333333","6501300","土城區"
"236052","AAC-216","2018/02/08 15:04:04","新北市土城區學成路29號","121.45288","24.9869566666667","6501300","土城區"
"238002","755-BX","2018/02/08 15:07:57","新北市樹林區八德街682號","121.3961","24.9688683333333","6500700","樹林區"
"238010","601-UM","2018/02/08 15:07:32","新北市樹林區中山路三段37號","121.401261666667","24.97537","6500700","樹林區"
"238001","599-UM","2018/02/08 15:08:17","新北市樹林區八德街426號","121.402815","24.9704216666667","6500700","樹林區"
"238005","571-TV","2018/02/08 15:05:45","新北市板橋區金門街215巷57弄62號","121.435091666667","24.9909966666667","6500700","樹林區"
"238011","5061-A6","2018/02/08 15:08:08","新北市樹林區八德街368號","121.408395","24.9696466666667","6500700","樹林區"
"238009","KEA-2213","2018/02/08 15:09:03","新北市樹林區八德街230號","121.413441666667","24.97063","6500700","樹林區"
"238003","KEA-2539","2018/02/08 15:07:14","新北市樹林區佳園路二段26號","121.391733333333","24.9632233333333","6500700","樹林區"
"238012","303-VK","2018/02/08 15:05:12","新北市樹林區八德街648號","121.396526666667","24.9691116666667","6500700","樹林區"
"238004","283-BY","2018/02/08 15:08:18","新北市樹林區八德街640號","121.39684","24.969295","6500700","樹林區"
"238001","282-BY","2018/02/08 15:08:07","新北市樹林區中洲街6號","121.397363333333","24.9727633333333","6500700","樹林區"
"238007","268-VK","2018/02/08 15:05:54","新北市樹林區八德街682號","121.39611","24.9689266666667","6500700","樹林區"
"238013","172-UY","2018/02/08 15:02:20","新北市樹林區育德街78號","121.387526666667","24.96836","6500700","樹林區"
"221032","280-BY","2018/02/08 15:07:34","新北市汐止區橫科路407巷30弄28號","121.627445","25.0484966666667","6501100","汐止區"
"220027","145-BY","2018/02/08 15:04:14","新北市板橋區中正路183巷44號","121.455015","25.0160383333333","6500100","板橋區"
"220028","200-UY","2018/02/08 15:05:09","新北市樹林區中山路三段206-1號","121.385108333333","24.967785","6500100","板橋區"
"220030","610-BX","2018/02/08 15:03:10","新北市板橋區溪崑一街54號","121.429585","24.9902416666667","6500100","板橋區"
"220029","256-TC","2018/02/08 15:01:03","新北市板橋區大觀路一段29巷91號","121.450481666667","25.006505","6500100","板橋區"
"220052","257-TC","2018/02/08 15:01:08","新北市板橋區自由路37號","121.465538333333","25.0231683333333","6500100","板橋區"
"220020","277-BY","2018/02/08 15:05:49","新北市板橋區金門街167號","121.432761666667","24.9899266666667","6500100","板橋區"
"220050","280-UM","2018/02/08 15:01:57","新北市板橋區縣民大道三段103巷12號","121.475938333333","25.02292","6500100","板橋區"
"220019","283-VK","2018/02/08 15:03:39","新北市板橋區和平路174巷19號","121.46451","24.9946616666667","6500100","板橋區"
"220043","285-UM","2018/02/08 15:02:58","新北市板橋區文德路38號","121.46218","25.0241216666667","6500100","板橋區"
"220001","285-VK","2018/02/08 15:02:40","新北市板橋區永豐街137號","121.474873333333","25.0199166666667","6500100","板橋區"
"220031","286-VK","2018/02/08 15:03:48","新北市板橋區僑中二街48巷14號","121.445681666667","25.0102366666667","6500100","板橋區"
"220039","288-VK","2018/02/08 15:01:45","新北市板橋區幸福路32巷2弄35號","121.460866666667","25.021955","6500100","板橋區"
"220009","293-UM","2018/02/08 15:07:31","新北市板橋區中山路一段120號","121.462915","25.01067","6500100","板橋區"
"220032","296-UM","2018/02/08 15:03:16","新北市板橋區滿平街2巷10號","121.425165","24.9894133333333","6500100","板橋區"
"220023","303-R5","2018/02/08 15:03:17","新北市板橋區金華街10巷25號","121.45679","25.0201733333333","6500100","板橋區"
"220010","305-R5","2018/02/08 15:08:07","新北市板橋區中山路二段416巷38弄29號","121.481753333333","25.01943","6500100","板橋區"
"220041","307-R5","2018/02/08 15:03:23","新北市板橋區四維路259巷68號","121.46036","25.0266516666667","6500100","板橋區"
"220047","317-R6","2018/02/08 15:02:21","新北市板橋區新海路385巷24號","121.45791","25.02564","6500100","板橋區"
"220012","486-VK","2018/02/08 15:01:54","新北市板橋區公園街64號","121.461971666667","25.0076516666667","6500100","板橋區"
"220038","487-VK","2018/02/08 15:04:55","新北市板橋區龍泉街108巷13號","121.456211666667","25.0242633333333","6500100","板橋區"
"220037","491-VK","2018/02/08 15:01:07","新北市板橋區文聖街137號","121.478308333333","25.028415","6500100","板橋區"
"220011","609-BX","2018/02/08 15:02:08","新北市板橋區萬安街27巷22號","121.483821666667","25.02286","6500100","板橋區"
"220040","637-BX","2018/02/08 15:05:32","新北市板橋區民治街81巷15號","121.480318333333","25.0322333333333","6500100","板橋區"
"220005","686-BX","2018/02/08 15:02:41","新北市板橋區廣權路9號","121.460646666667","24.9914166666667","6500100","板橋區"
"220025","687-BX","2018/02/08 15:05:05","新北市板橋區僑中一街122號","121.445881666667","25.0117466666667","6500100","板橋區"
"220002","741-BX","2018/02/08 15:08:18","新北市板橋區實踐路65巷43號","121.465208333333","25.0062866666667","6500100","板橋區"
"220003","827-TW","2018/02/08 15:02:01","新北市板橋區仁愛路76巷3弄1號","121.46061","24.9992366666667","6500100","板橋區"
"220014","829-TW","2018/02/08 15:01:31","新北市板橋區漢生東路193巷40號","121.472556666667","25.0116866666667","6500100","板橋區"
"220045","830-TW","2018/02/08 15:03:12","新北市板橋區莒光路16巷19號","121.469508333333","25.023905","6500100","板橋區"
"220042","833-TW","2018/02/08 15:02:04","新北市板橋區長江路二段320號","121.471646666667","25.0334833333333","6500100","板橋區"
"220022","895-R6","2018/02/08 15:01:02","新北市板橋區文化路一段32巷21弄5號","121.460198333333","25.0113883333333","6500100","板橋區"
"220021","985-R7","2018/02/08 15:03:28","新北市板橋區大仁街107號","121.452601666667","25.015685","6500100","板橋區"
"220018","AAC-253","2018/02/08 15:07:42","新北市板橋區成都街64-1號","121.463335","25.0052483333333","6500100","板橋區"
