"lineid","car","time","location","longitude","latitude","cityid","cityname"
"234028","746-BX","2018/02/08 15:28:16","新北市八里區中山路三段409號","121.368673333333","25.13465","6500400","永和區"
"248007","095-VK","2018/02/08 15:25:56","新北市五股區中興路一段1巷28號","121.469801666667","25.0703016666667","6501500","五股區"
"248003","677-BX","2018/02/08 15:12:53","新北市五股區成泰路一段210號","121.43613","25.0790783333333","6501500","五股區"
"243003","297-R6","2018/02/08 15:14:54","新北市泰山區新北大道六段315號","121.423806666667","25.033655","6501600","泰山區"
"243006","421-VK","2018/02/08 15:12:20","新北市泰山區橫窠雅2號","121.40209","25.0720666666667","6501600","泰山區"
"243001","KEA-2216","2018/02/08 15:21:04","新北市泰山區橫窠雅36號","121.403961666667","25.0729383333333","6501600","泰山區"
"243008","680-BX","2018/02/08 15:07:25","新北市泰山區明志路三段20號","121.424813333333","25.0431183333333","6501600","泰山區"
"231002","002-UM","2018/02/08 15:16:16","新北市新店區中正路543-4號","121.533665","24.987515","6500600","新店區"
"231025","0293-UT","2018/02/08 15:26:01","新北市新店區中央路236號","121.529343333333","24.9724933333333","6500600","新店區"
"231028","046-UY","2018/02/08 15:13:17","新北市新店區僑愛五路21號","121.499223333333","24.9442133333333","6500600","新店區"
"231030","047-UY","2018/02/08 15:24:53","新北市新店區安興路141號","121.516736666667","24.9792716666667","6500600","新店區"
"231029","106-UY","2018/02/08 15:27:46","新北市新店區安康路三段620號","121.479721666667","24.9466633333333","6500600","新店區"
"231018","107-UY","2018/02/08 15:23:03","新北市新店區中央八街96號","121.526591666667","24.9775766666667","6500600","新店區"
"231011","108-UY","2018/02/08 15:19:08","新北市新店區順安街74號","121.540981666667","24.986695","6500600","新店區"
"231021","187-VK","2018/02/08 15:25:11","新北市新店區花園二路一段6號","121.556291666667","24.9320333333333","6500600","新店區"
"231035","189-VK","2018/02/08 15:16:10","新北市新店區安和路三段111巷8弄2號","121.516471666667","24.9848616666667","6500600","新店區"
"231026","256-BX","2018/02/08 15:15:04","新北市新店區建國路33巷2號","121.540321666667","24.9743283333333","6500600","新店區"
"231023","AAD-862","2018/02/08 15:21:59","新北市新店區行政街14巷2號","121.543041666667","24.9663433333333","6500600","新店區"
"231024","4716-K9","2018/02/08 15:14:20","新北市新店區中華路48巷40號","121.54118","24.9695033333333","6500600","新店區"
"231003","616-UM","2018/02/08 15:15:48","新北市新店區寶高路83號","121.553313333333","24.97695","6500600","新店區"
"231005","618-UM","2018/02/08 15:15:32","新北市新店區北新路三段130號","121.541641666667","24.9819183333333","6500600","新店區"
"231001","619-UM","2018/02/08 15:15:10","新北市新店區北新路一段325號","121.541683333333","24.9682866666667","6500600","新店區"
"231034","645-TV","2018/02/08 15:20:13","新北市新店區如意街1巷2號","121.495743333333","24.9494333333333","6500600","新店區"
"231039","718-UY","2018/02/08 15:23:54","新北市新店區寶慶街47號","121.542605","24.9866266666667","6500600","新店區"
"231036","719-UY","2018/02/08 15:11:30","新北市新店區安祥路102巷121弄2號","121.486126666667","24.9645266666667","6500600","新店區"
"231031","720-UM","2018/02/08 15:23:00","新北市新店區和成街16巷31號","121.48875","24.9469283333333","6500600","新店區"
"231006","898-TW","2018/02/08 15:19:57","新北市新店區中興路一段175號","121.542933333333","24.9646233333333","6500600","新店區"
"231004","899-TW","2018/02/08 15:12:22","新北市新店區建國路6-1號","121.539886666667","24.9734416666667","6500600","新店區"
"231037","AKT-0513","2018/02/08 15:24:01","新北市新店區安興路85-59號","121.514236666667","24.97574","6500600","新店區"
"241028","022-UY","2018/02/08 15:25:35","新北市三重區重新路四段121號","121.48461","25.0523266666667","6500200","三重區"
"241017","063-VK","2018/02/08 15:26:59","新北市三重區重新路四段121號","121.485183333333","25.0519816666667","6500200","三重區"
"241033","AAC-255","2018/02/08 15:25:48","新北市三重區重新路四段121號","121.4849","25.0518133333333","6500200","三重區"
"235030","003-UY","2018/02/08 15:27:58","新北市中和區保平路362巷11號","121.505846666667","25.0040383333333","6500300","中和區"
"235003","097-UM","2018/02/08 15:20:23","新北市中和區安平路17號","121.50919","24.9941766666667","6500300","中和區"
"235029","098-UM","2018/02/08 15:17:40","新北市中和區永和路39巷20號","121.497223333333","25.005355","6500300","中和區"
"235007","352-BY","2018/02/08 15:27:15","新北市中和區南山路397號","121.506686666667","24.9901","6500300","中和區"
"235035","269-TV","2018/02/08 15:21:52","新北市中和區中正路904號","121.483716666667","25.006985","6500300","中和區"
"235014","4979-A6","2018/02/08 15:13:42","新北市中和區景新街323-3號","121.511343333333","24.9920533333333","6500300","中和區"
"235033","4980-A6","2018/02/08 15:20:53","新北市中和區景新街64巷12號","121.503933333333","24.99852","6500300","中和區"
"235005","802-TS","2018/02/08 15:26:32","新北市八里區中山路三段112號","121.38715","25.1461233333333","6500300","中和區"
"235012","896-TW","2018/02/08 15:22:32","新北市中和區景新街377號","121.512351666667","24.9903983333333","6500300","中和區"
"235063","911-UM","2018/02/08 15:17:18","新北市中和區員山路36巷12號","121.483876666667","24.9910533333333","6500300","中和區"
"235015","157-BY","2018/02/08 15:23:09","新北市新店區安和路三段21巷3號","121.517183333333","24.9809366666667","6500300","中和區"
"235023","AAC-215","2018/02/08 15:21:51","新北市中和區圓通路296巷1號","121.487753333333","24.9887383333333","6500300","中和區"
"220016","013-TV","2018/02/08 15:08:51","新北市板橋區中山路二段388-2號","121.482275","25.020515","6500100","板橋區"
"220013","072-UY","2018/02/08 15:10:44","新北市板橋區海山路45號","121.466871666667","25.0099533333333","6500100","板橋區"
"220105","075-UY","2018/02/08 15:15:09","新北市板橋區文化路二段548巷8弄15號","121.476226666667","25.0331016666667","6500100","板橋區"
"220017","AAD-861","2018/02/08 15:11:50","新北市板橋區大明街18-9號","121.458778333333","25.0026666666667","6500100","板橋區"
"220046","120-SR","2018/02/08 15:07:59","新北市板橋區光正街16巷3號","121.462995","25.0172983333333","6500100","板橋區"
"247007","341-TH","2018/02/08 15:19:59","新北市林口區汕頭32號","121.366406666667","25.1346166666667","6501400","蘆洲區"
"227010","400-TW","2018/02/08 15:14:41","新北市雙溪區三貂里政光路3-1號","121.850818333333","25.0631966666667","6502500","雙溪區"
"253003","6232-TK","2018/02/08 15:24:51","新北市石門區小坑9號","121.594358333333","25.28858","6502200","石門區"
"253001","6251-TK","2018/02/08 15:27:36","新北市石門區崁子腳31-2號","121.537381666667","25.2849866666667","6502200","石門區"
"253002","637-UY","2018/02/08 15:21:16","新北市石門區尖子鹿79號","121.572185","25.29598","6502200","石門區"
"253004","8270-PC","2018/02/08 15:27:01","新北市石門區茂林社區57號","121.592476666667","25.270075","6502200","石門區"
"208004","AAC-292","2018/02/08 15:19:39","新北市金山區六股里下六股9號","121.626248333333","25.2239383333333","6502700","金山區"
"207002","749-BX","2018/02/08 15:13:25","新北市萬里區崁腳里內中福路9-1號","121.665063333333","25.1639183333333","6502800","萬里區"
"207001","662-BX","2018/02/08 15:16:18","新北市萬里區磺潭里員潭路46號","121.645658333333","25.19282","6502800","萬里區"
"236066","105-UM","2018/02/08 15:13:10","新北市土城區學成路57號","121.451941666667","24.9877483333333","6501300","土城區"
"236040","107-UM","2018/02/08 15:14:35","新北市土城區金城路二段210號","121.455438333333","24.9821466666667","6501300","土城區"
"236076","166-UM","2018/02/08 15:28:20","新北市土城區中州路3巷43號","121.413326666667","24.956335","6501300","土城區"
"236028","253-BX","2018/02/08 15:08:26","新北市土城區中央路二段50巷14號","121.441745","24.9798083333333","6501300","土城區"
"236024","269-VK","2018/02/08 15:09:49","新北市土城區中央路二段177巷29號","121.44414","24.9761966666667","6501300","土城區"
"236012","270-VK","2018/02/08 15:14:53","新北市土城區學府路一段99巷23號","121.456828333333","24.986965","6501300","土城區"
"236033","271-VK","2018/02/08 15:04:27","新北市土城區清水路100號","121.45764","24.9815783333333","6501300","土城區"
"236018","401-BY","2018/02/08 15:12:59","新北市土城區延吉街215號","121.468436666667","24.9853033333333","6501300","土城區"
"236056","912-UM","2018/02/08 15:14:43","新北市土城區金城路二段246號","121.45685","24.9831416666667","6501300","土城區"
"236047","913-UM","2018/02/08 15:19:42","新北市土城區清水路330號","121.46392","24.9854783333333","6501300","土城區"
"236060","915-UM","2018/02/08 15:11:36","新北市土城區延平街22號","121.468263333333","24.99128","6501300","土城區"
"236052","AAC-216","2018/02/08 15:16:44","新北市土城區學府路一段252號","121.451493333333","24.9844883333333","6501300","土城區"
"238002","755-BX","2018/02/08 15:24:18","新北市樹林區復興路196號","121.420035","24.99103","6500700","樹林區"
"238010","601-UM","2018/02/08 15:27:31","新北市樹林區中正路439-1號","121.41515","25.0088","6500700","樹林區"
"238001","599-UM","2018/02/08 15:25:37","新北市樹林區太平路45號","121.419208333333","24.9830583333333","6500700","樹林區"
"238005","571-TV","2018/02/08 15:17:25","新北市樹林區樹新路215號","121.431043333333","25.0003033333333","6500700","樹林區"
"238011","5061-A6","2018/02/08 15:24:48","新北市樹林區鎮前街169巷21號","121.423341666667","24.9888066666667","6500700","樹林區"
"238009","KEA-2213","2018/02/08 15:19:23","新北市樹林區信義街66號","121.424668333333","24.9827716666667","6500700","樹林區"
"238003","KEA-2539","2018/02/08 15:27:07","新北市樹林區西圳街一段165巷20弄11號","121.395675","24.960195","6500700","樹林區"
"238012","303-VK","2018/02/08 15:19:13","新北市樹林區中山路一段249號","121.420418333333","24.9864433333333","6500700","樹林區"
"238004","283-BY","2018/02/08 15:28:57","新北市樹林區三多路123號","121.414035","25.0066483333333","6500700","樹林區"
"238001","282-BY","2018/02/08 15:20:47","新北市樹林區大安路145巷20號","121.422546666667","24.9964766666667","6500700","樹林區"
"238007","268-VK","2018/02/08 15:26:14","新北市樹林區俊英街160巷9-1號","121.42709","25.0067233333333","6500700","樹林區"
"238013","172-UY","2018/02/08 15:20:20","新北市樹林區味王街46巷32號","121.403018333333","24.9737366666667","6500700","樹林區"
"238003","169-UY","2018/02/08 15:27:05","新北市樹林區長壽街1號","121.424265","24.993045","6500700","樹林區"
"221032","280-BY","2018/02/08 15:27:14","新北市汐止區汐萬路一段39號","121.65485","25.0691733333333","6501100","汐止區"
"220027","145-BY","2018/02/08 15:17:34","新北市板橋區南雅西路二段130-1號","121.452035","25.01273","6500100","板橋區"
"220028","200-UY","2018/02/08 15:27:48","新北市板橋區大觀路二段265巷7-7號","121.443623333333","24.9939616666667","6500100","板橋區"
"220030","610-BX","2018/02/08 15:08:30","新北市板橋區溪北路45號","121.427605","24.9899133333333","6500100","板橋區"
"220010","255-TC","2018/02/08 15:23:32","新北市板橋區中山路二段416巷52-2號","121.482886666667","25.0192516666667","6500100","板橋區"
"220029","256-TC","2018/02/08 15:09:23","新北市板橋區大觀路一段28巷91-2號","121.450146666667","25.0115583333333","6500100","板橋區"
"220052","257-TC","2018/02/08 15:12:08","新北市板橋區英士路58巷7號","121.46069","25.0251316666667","6500100","板橋區"
"220050","280-UM","2018/02/08 15:09:52","新北市板橋區萬板路128號","121.475021666667","25.0234183333333","6500100","板橋區"
"220019","283-VK","2018/02/08 15:07:39","新北市板橋區和平路174巷36弄3號","121.465163333333","24.99409","6500100","板橋區"
"220043","285-UM","2018/02/08 15:06:59","新北市板橋區陽明街29-1號","121.465375","25.022025","6500100","板橋區"
"220001","285-VK","2018/02/08 15:06:39","新北市板橋區懷仁街68號","121.477096666667","25.018625","6500100","板橋區"
"220031","286-VK","2018/02/08 15:11:28","新北市板橋區僑中二街90巷15號","121.445596666667","25.0091966666667","6500100","板橋區"
"220032","296-UM","2018/02/08 15:06:56","新北市樹林區博愛街181號","121.42485","24.989025","6500100","板橋區"
"220023","303-R5","2018/02/08 15:07:17","新北市板橋區金華街10巷48弄59號","121.459073333333","25.0202216666667","6500100","板橋區"
"220010","305-R5","2018/02/08 15:24:47","新北市板橋區民生路二段56-6號","121.471226666667","25.0188866666667","6500100","板橋區"
"220041","307-R5","2018/02/08 15:16:43","新北市板橋區光正街45巷35號","121.461773333333","25.0158183333333","6500100","板橋區"
"220047","317-R6","2018/02/08 15:10:21","新北市板橋區新海路72巷48號","121.462116666667","25.0230066666667","6500100","板橋區"
"220012","486-VK","2018/02/08 15:11:34","新北市板橋區實踐路91號","121.464025","25.00539","6500100","板橋區"
"220038","487-VK","2018/02/08 15:11:15","新北市板橋區龍泉街56-1號","121.45709","25.0259833333333","6500100","板橋區"
"220037","491-VK","2018/02/08 15:10:47","新北市板橋區懷德街78巷1號","121.478261666667","25.0315633333333","6500100","板橋區"
"220011","609-BX","2018/02/08 15:08:00","新北市板橋區中山路二段385號","121.480128333333","25.0194","6500100","板橋區"
"220005","686-BX","2018/02/08 15:10:01","新北市板橋區四川路二段2號","121.456576666667","24.9966566666667","6500100","板橋區"
"220025","687-BX","2018/02/08 15:16:05","新北市板橋區僑中一街124巷20弄2號","121.446171666667","25.0139083333333","6500100","板橋區"
"220003","827-TW","2018/02/08 15:11:01","新北市板橋區國慶路149巷4弄16-4號","121.461878333333","24.99703","6500100","板橋區"
"220014","829-TW","2018/02/08 15:15:11","新北市板橋區中山路一段206巷74號","121.472496666667","25.013495","6500100","板橋區"
"220045","830-TW","2018/02/08 15:08:52","新北市板橋區莒光路79巷17號","121.472073333333","25.0247466666667","6500100","板橋區"
"220042","833-TW","2018/02/08 15:08:59","新北市板橋區文化路二段586號","121.476848333333","25.0347883333333","6500100","板橋區"
"220022","895-R6","2018/02/08 15:10:42","新北市板橋區明德街16號","121.459946666667","25.01053","6500100","板橋區"
"220021","985-R7","2018/02/08 15:08:28","新北市板橋區南雅西路二段156巷2號","121.45183","25.0134","6500100","板橋區"
"220018","AAC-253","2018/02/08 15:21:06","新北市板橋區四川路二段46號","121.453613333333","24.9952966666667","6500100","板橋區"
