"lineid","car","time","location","longitude","latitude","cityid","cityname"
"248007","095-VK","2018/02/08 15:30:17","新北市五股區中興路一段1巷26-1號","121.469446666667","25.0702233333333","6501500","五股區"
"248003","677-BX","2018/02/08 15:17:13","新北市五股區中興路四段25號","121.438733333333","25.08267","6501500","五股區"
"243006","421-VK","2018/02/08 15:29:20","新北市泰山區橫窠雅36號","121.403703333333","25.0709033333333","6501600","泰山區"
"243008","680-BX","2018/02/08 15:13:25","新北市泰山區新生路28號","121.429176666667","25.0445316666667","6501600","泰山區"
"231002","002-UM","2018/02/08 15:19:35","新北市新店區中正路700巷2號","121.533978333333","24.9910666666667","6500600","新店區"
"231025","0293-UT","2018/02/08 15:37:41","新北市新店區環河路172號","121.525423333333","24.975305","6500600","新店區"
"231028","046-UY","2018/02/08 15:18:57","新北市新店區僑信路90巷46號","121.498523333333","24.9473383333333","6500600","新店區"
"231030","047-UY","2018/02/08 15:33:33","新北市新店區新和街98號","121.520818333333","24.9860966666667","6500600","新店區"
"231029","106-UY","2018/02/08 15:33:26","新北市新店區安康路三段552-1號","121.48178","24.9485316666667","6500600","新店區"
"231018","107-UY","2018/02/08 15:37:43","新北市新店區民生路124號","121.529803333333","24.9826766666667","6500600","新店區"
"231011","108-UY","2018/02/08 15:25:48","新北市新店區寶慶街2-1號","121.543855","24.98683","6500600","新店區"
"231013","110-UY","2018/02/08 15:31:17","新北市新店區永業路81巷1弄1-1號","121.529521666667","24.94941","6500600","新店區"
"231021","187-VK","2018/02/08 15:36:30","新北市新店區新烏路一段127-1號","121.546876666667","24.937115","6500600","新店區"
"231035","189-VK","2018/02/08 15:35:10","新北市新店區安興路83號","121.515328333333","24.9753966666667","6500600","新店區"
"231026","256-BX","2018/02/08 15:23:04","新北市新店區中正路263巷2號","121.538468333333","24.97347","6500600","新店區"
"231023","AAD-862","2018/02/08 15:25:59","新北市新店區北新路一段88巷1號","121.541863333333","24.967725","6500600","新店區"
"231024","4716-K9","2018/02/08 15:26:20","新北市新店區新明街26巷11號","121.540998333333","24.9686716666667","6500600","新店區"
"231003","616-UM","2018/02/08 15:34:08","新北市新店區寶高路120巷1號","121.554571666667","24.9760066666667","6500600","新店區"
"231005","618-UM","2018/02/08 15:16:52","新北市新店區北新路三段98號","121.5419","24.9810383333333","6500600","新店區"
"231001","619-UM","2018/02/08 15:18:10","新北市新店區北新路一段38號","121.540926666667","24.9660066666667","6500600","新店區"
"231034","645-TV","2018/02/08 15:28:32","新北市新店區如意街26號","121.493978333333","24.9483733333333","6500600","新店區"
"231039","718-UY","2018/02/08 15:29:14","新北市新店區寶元路一段89號","121.543246666667","24.9851883333333","6500600","新店區"
"231036","719-UY","2018/02/08 15:14:30","新北市新店區安祥路102巷96弄1號","121.487301666667","24.9635666666667","6500600","新店區"
"231031","720-UM","2018/02/08 15:33:00","新北市新店區雙城路4巷3號","121.491053333333","24.9508066666667","6500600","新店區"
"231004","899-TW","2018/02/08 15:18:22","新北市新店區博愛街13巷24號","121.540265","24.9740733333333","6500600","新店區"
"231037","AKT-0513","2018/02/08 15:36:01","新北市新店區安興路112號","121.514615","24.9776766666667","6500600","新店區"
"241011","013-R5","2018/02/08 15:33:50","新北市三重區重新路一段12號","121.50433","25.0636483333333","6500200","三重區"
"241028","022-UY","2018/02/08 15:38:35","新北市三重區中寮街5-3號","121.492083333333","25.0594933333333","6500200","三重區"
"241017","063-VK","2018/02/08 15:38:50","新北市三重區重新路四段98號","121.487731666667","25.0572366666667","6500200","三重區"
"241005","262-UM","2018/02/08 15:37:45","新北市三重區重新路四段121號","121.484878333333","25.0518916666667","6500200","三重區"
"241007","398-BY","2018/02/08 15:36:58","新北市三重區重新路四段121號","121.485081666667","25.0520566666667","6500200","三重區"
"241029","942-UM","2018/02/08 15:35:21","新北市三重區環河南路125號","121.496966666667","25.055225","6500200","三重區"
"241033","AAC-255","2018/02/08 15:35:48","新北市三重區中興南街31-3號","121.470641666667","25.043915","6500200","三重區"
"235003","097-UM","2018/02/08 15:30:43","新北市中和區中正路860號","121.484241666667","25.005315","6500300","中和區"
"235007","352-BY","2018/02/08 15:38:35","新北市中和區中正路192號","121.497546666667","24.9939166666667","6500300","中和區"
"235035","269-TV","2018/02/08 15:25:12","新北市中和區環中路120號","121.481866666667","25.012365","6500300","中和區"
"235014","4979-A6","2018/02/08 15:28:22","新北市中和區景安路82巷8弄1號","121.504871666667","24.9963833333333","6500300","中和區"
"235033","4980-A6","2018/02/08 15:28:52","新北市中和區圓通路198巷2號","121.496198333333","24.9943266666667","6500300","中和區"
"235005","802-TS","2018/02/08 15:35:32","新北市八里區中山路三段409號","121.368713333333","25.1346916666667","6500300","中和區"
"235063","911-UM","2018/02/08 15:17:18","新北市中和區員山路36巷12號","121.483876666667","24.9910533333333","6500300","中和區"
"235023","AAC-215","2018/02/08 15:33:51","新北市中和區員山路28-5號","121.48206","24.986735","6500300","中和區"
"220016","013-TV","2018/02/08 15:10:11","新北市板橋區中山路二段398號","121.482538333333","25.0206916666667","6500100","板橋區"
"220013","072-UY","2018/02/08 15:16:44","新北市板橋區民族路67號","121.465348333333","25.0087433333333","6500100","板橋區"
"220105","075-UY","2018/02/08 15:25:49","新北市板橋區文聖街11巷24號","121.476148333333","25.03299","6500100","板橋區"
"220017","AAD-861","2018/02/08 15:16:10","新北市板橋區大明街25巷2弄17號","121.457556666667","25.0025466666667","6500100","板橋區"
"247007","341-TH","2018/02/08 15:32:59","新北市林口區太平里180號","121.366625","25.1345833333333","6501400","蘆洲區"
"227004","642-TC","2018/02/08 15:35:44","新北市雙溪區牡丹里聖南26號","121.856385","25.0534666666667","6502500","雙溪區"
"227010","400-TW","2018/02/08 15:38:32","新北市雙溪區三貂里政光路3-1號","121.850806666667","25.0631766666667","6502500","雙溪區"
"253001","6251-TK","2018/02/08 15:35:56","新北市石門區楓林28-2號","121.541868333333","25.289185","6502200","石門區"
"253002","637-UY","2018/02/08 15:31:16","新北市石門區小坑9號","121.594465","25.2891233333333","6502200","石門區"
"253004","8270-PC","2018/02/08 15:36:51","新北市石門區小坑32號","121.598008333333","25.26958","6502200","石門區"
"208004","AAC-292","2018/02/08 15:24:39","新北市金山區六股里下六股18-1號","121.624763333333","25.223965","6502700","金山區"
"207002","749-BX","2018/02/08 15:31:26","新北市萬里區萬里里獅頭路23號","121.693523333333","25.1781766666667","6502800","萬里區"
"207001","662-BX","2018/02/08 15:27:18","新北市萬里區大鵬里頂社14-6號","121.65571","25.2093166666667","6502800","萬里區"
"236066","105-UM","2018/02/08 15:17:30","新北市土城區裕民路185巷36弄10號","121.454363333333","24.9845516666667","6501300","土城區"
"236040","107-UM","2018/02/08 15:23:35","新北市土城區裕民路183號","121.453523333333","24.9845183333333","6501300","土城區"
"236076","166-UM","2018/02/08 15:32:20","新北市土城區中州路10號","121.414736666667","24.9571983333333","6501300","土城區"
"236028","253-BX","2018/02/08 15:18:07","新北市土城區中央路一段318巷4弄12號","121.443256666667","24.982385","6501300","土城區"
"236024","269-VK","2018/02/08 15:10:09","新北市土城區中央路二段177巷23號","121.443803333333","24.9762233333333","6501300","土城區"
"236012","270-VK","2018/02/08 15:17:33","新北市土城區學府路一段23巷23號","121.457705","24.9870166666667","6501300","土城區"
"236033","271-VK","2018/02/08 15:12:48","新北市土城區國際路158巷7號","121.468566666667","24.9763483333333","6501300","土城區"
"236018","401-BY","2018/02/08 15:14:19","新北市土城區延吉街217巷3弄1號","121.468685","24.98486","6501300","土城區"
"236056","912-UM","2018/02/08 15:21:23","新北市土城區學士路123號","121.44711","24.9758633333333","6501300","土城區"
"236047","913-UM","2018/02/08 15:24:22","新北市土城區明德路一段51號","121.465223333333","24.9848983333333","6501300","土城區"
"236060","915-UM","2018/02/08 15:17:36","新北市土城區延平街33巷7號","121.467553333333","24.9916083333333","6501300","土城區"
"236052","AAC-216","2018/02/08 15:21:44","新北市土城區學府路一段62號","121.457165","24.98835","6501300","土城區"
"238002","755-BX","2018/02/08 15:30:37","新北市樹林區復興路196號","121.419993333333","24.99109","6500700","樹林區"
"238010","601-UM","2018/02/08 15:33:31","新北市樹林區三福街13號","121.408861666667","25.0167983333333","6500700","樹林區"
"238001","599-UM","2018/02/08 15:38:57","新北市樹林區太平路196-1號","121.418416666667","24.9759516666667","6500700","樹林區"
"238005","571-TV","2018/02/08 15:24:45","新北市樹林區樹新路47號","121.427158333333","24.9947766666667","6500700","樹林區"
"238011","5061-A6","2018/02/08 15:33:28","新北市樹林區太平路270號","121.418131666667","24.9734366666667","6500700","樹林區"
"238009","KEA-2213","2018/02/08 15:25:03","新北市樹林區忠孝街26號","121.423545","24.9819616666667","6500700","樹林區"
"238003","KEA-2539","2018/02/08 15:33:44","新北市樹林區西圳街一段165巷20弄16號","121.39546","24.9604116666667","6500700","樹林區"
"238012","303-VK","2018/02/08 15:23:13","新北市樹林區中山路一段10號","121.42406","24.9927566666667","6500700","樹林區"
"238004","283-BY","2018/02/08 15:33:17","新北市樹林區保安街二段337巷19號","121.411135","25.0081816666667","6500700","樹林區"
"238001","282-BY","2018/02/08 15:25:47","新北市樹林區大安路37-1號","121.424341666667","24.999765","6500700","樹林區"
"238007","268-VK","2018/02/08 15:31:14","新北市樹林區俊英街116巷41弄19號","121.428621666667","25.006885","6500700","樹林區"
"238013","172-UY","2018/02/08 15:20:20","新北市樹林區味王街46巷32號","121.403018333333","24.9737366666667","6500700","樹林區"
"238003","169-UY","2018/02/08 15:32:05","新北市樹林區中山路一段2巷2號","121.424315","24.9939316666667","6500700","樹林區"
"221032","280-BY","2018/02/08 15:38:53","新北市汐止區汐萬路一段256巷3號","121.653355","25.0746783333333","6501100","汐止區"
"220028","200-UY","2018/02/08 15:31:48","新北市板橋區大觀路二段37巷322號","121.449673333333","25.0024166666667","6500100","板橋區"
"220030","610-BX","2018/02/08 15:33:56","新北市板橋區溪城路90-2號","121.42919","24.9804516666667","6500100","板橋區"
"220010","255-TC","2018/02/08 15:27:33","新北市板橋區中山路二段416巷57弄2號","121.483008333333","25.0189533333333","6500100","板橋區"
"220029","256-TC","2018/02/08 15:12:43","新北市板橋區僑中一街80巷5弄1-1號","121.447798333333","25.012435","6500100","板橋區"
"220052","257-TC","2018/02/08 15:19:48","新北市板橋區漢生西路77號","121.462895","25.0189516666667","6500100","板橋區"
"220050","280-UM","2018/02/08 15:16:12","新北市板橋區雙十路二段47巷4弄17號","121.474991666667","25.0263433333333","6500100","板橋區"
"220001","285-VK","2018/02/08 15:14:59","新北市板橋區中山路二段494號","121.485401666667","25.022165","6500100","板橋區"
"220031","286-VK","2018/02/08 15:18:08","新北市板橋區僑中二街100巷38號","121.444415","25.0087183333333","6500100","板橋區"
"220032","296-UM","2018/02/08 15:22:16","新北市新莊區瓊泰路63巷23弄9號","121.442493333333","25.027955","6500100","板橋區"
"220023","303-R5","2018/02/08 15:12:37","新北市板橋區金華街10巷99號","121.458778333333","25.0205583333333","6500100","板橋區"
"220010","305-R5","2018/02/08 15:24:47","新北市板橋區民生路二段56-6號","121.471226666667","25.0188866666667","6500100","板橋區"
"220041","307-R5","2018/02/08 15:20:23","新北市板橋區民權路170巷19號","121.460105","25.0134083333333","6500100","板橋區"
"220047","317-R6","2018/02/08 15:15:21","新北市板橋區新海路72巷11-2號","121.462361666667","25.02213","6500100","板橋區"
"220012","486-VK","2018/02/08 15:14:54","新北市板橋區實踐路116號","121.464128333333","25.0041466666667","6500100","板橋區"
"220038","487-VK","2018/02/08 15:16:35","新北市板橋區新海路392號","121.458933333333","25.0264433333333","6500100","板橋區"
"220037","491-VK","2018/02/08 15:15:07","新北市板橋區民治街53號","121.479371666667","25.0335066666667","6500100","板橋區"
"220055","568-UM","2018/02/08 15:39:02","新北市樹林區八德街445-1號","121.405003333333","24.9693833333333","6500100","板橋區"
"220011","609-BX","2018/02/08 15:10:20","新北市板橋區三民路一段199號","121.47935","25.0189433333333","6500100","板橋區"
"220005","686-BX","2018/02/08 15:11:01","新北市板橋區四川路二段61號","121.453516666667","24.9951333333333","6500100","板橋區"
"220025","687-BX","2018/02/08 15:20:05","新北市板橋區僑中一街124巷46-3號","121.446471666667","25.01525","6500100","板橋區"
"220003","827-TW","2018/02/08 15:12:01","新北市板橋區國慶路167巷13號","121.461865","24.9970466666667","6500100","板橋區"
"220014","829-TW","2018/02/08 15:20:31","新北市板橋區中山路一段206巷4弄1號","121.470328333333","25.0130033333333","6500100","板橋區"
"220045","830-TW","2018/02/08 15:21:52","新北市三重區光復路二段175號","121.472818333333","25.0616733333333","6500100","板橋區"
"220042","833-TW","2018/02/08 15:14:39","新北市板橋區長江路三段31號","121.472616666667","25.0337683333333","6500100","板橋區"
"220022","895-R6","2018/02/08 15:14:42","新北市板橋區府中路24號","121.459456666667","25.0097616666667","6500100","板橋區"
"220021","985-R7","2018/02/08 15:10:48","新北市板橋區南雅西路二段108-1號","121.452231666667","25.0120416666667","6500100","板橋區"
"220018","AAC-253","2018/02/08 15:23:26","新北市板橋區德興街13號","121.453428333333","24.9943966666667","6500100","板橋區"
