"lineid","car","time","location","longitude","latitude","cityid","cityname"
"248003","677-BX","2018/02/08 16:09:33","新北市五股區新五路三段256號","121.448263333333","25.0914266666667","6501500","五股區"
"243011","297-R6","2018/02/08 16:07:26","新北市泰山區黎明路25號","121.421926666667","25.0610033333333","6501600","泰山區"
"243016","680-BX","2018/02/08 16:07:34","新北市泰山區黎明路25號","121.422078333333","25.0606733333333","6501600","泰山區"
"231018","107-UY","2018/02/08 16:09:43","新北市新店區中正路694巷15號","121.535436666667","24.990865","6500600","新店區"
"231046","278-BY","2018/02/08 16:09:39","新北市新店區灣潭路2-27號","121.536551666667","24.9494066666667","6500600","新店區"
"231038","4715-K9","2018/02/08 16:09:27","新北市新店區薏仁坑路11號","121.498303333333","24.9590366666667","6500600","新店區"
"231034","645-TV","2018/02/08 16:09:32","新北市新店區富貴街20巷17號","121.493158333333","24.9476516666667","6500600","新店區"
"241011","013-R5","2018/02/08 16:09:30","新北市三重區正義北路374號","121.49355","25.0714733333333","6500200","三重區"
"241028","022-UY","2018/02/08 16:09:35","新北市三重區正義南路107號","121.498223333333","25.0585733333333","6500200","三重區"
"241008","059-VK","2018/02/08 16:09:38","新北市三重區永福街122-2號","121.479048333333","25.0753633333333","6500200","三重區"
"241015","062-VK","2018/02/08 16:09:35","新北市三重區福德南路61號","121.502865","25.06049","6500200","三重區"
"241017","063-VK","2018/02/08 16:09:30","新北市三重區大同北路148巷60號","121.490451666667","25.0645266666667","6500200","三重區"
"241024","065-VK","2018/02/08 16:09:37","新北市三重區力行路一段40號","121.486195","25.067815","6500200","三重區"
"241026","066-VK","2018/02/08 16:09:31","新北市三重區重新路二段78號","121.497201666667","25.0614633333333","6500200","三重區"
"241002","090-VK","2018/02/08 16:09:35","新北市三重區仁愛街255巷87號","121.495556666667","25.0794366666667","6500200","三重區"
"241014","156-TC","2018/02/08 16:09:39","新北市三重區福德南路59-4號","121.503023333333","25.0609616666667","6500200","三重區"
"241005","262-UM","2018/02/08 16:09:25","新北市三重區溪尾街300-2號","121.48746","25.0836833333333","6500200","三重區"
"241018","265-UM","2018/02/08 16:09:41","新北市三重區明志街55號","121.491385","25.0639333333333","6500200","三重區"
"241016","266-UM","2018/02/08 16:09:27","新北市三重區重新路三段94號","121.492786666667","25.0608183333333","6500200","三重區"
"241022","267-UM","2018/02/08 16:09:31","新北市三重區中正北路174-9號","121.483225","25.066615","6500200","三重區"
"241013","270-UM","2018/02/08 16:09:31","新北市三重區安樂街19號","121.496616666667","25.069805","6500200","三重區"
"241025","271-UM","2018/02/08 16:09:48","新北市三重區忠孝路三段40巷10號","121.482106666667","25.06632","6500200","三重區"
"241007","398-BY","2018/02/08 16:09:38","新北市三重區慈愛街8號","121.484471666667","25.07843","6500200","三重區"
"241020","413-TH","2018/02/08 16:09:45","新北市三重區車路頭街29號","121.483813333333","25.070725","6500200","三重區"
"241004","475-VK","2018/02/08 16:09:32","新北市三重區五華街74號","121.493491666667","25.08195","6500200","三重區"
"241030","480-VK","2018/02/08 16:09:48","新北市三重區重新路四段121號","121.484723333333","25.0524083333333","6500200","三重區"
"241023","545-UM","2018/02/08 16:09:35","新北市三重區力行路一段62號","121.484516666667","25.0692383333333","6500200","三重區"
"241001","547-UM","2018/02/08 16:09:30","新北市三重區自強路四段32-2號","121.48903","25.0769966666667","6500200","三重區"
"241019","KEA-2593","2018/02/08 16:09:27","新北市三重區重新路四段121號","121.48471","25.0523366666667","6500200","三重區"
"241006","AAD-863","2018/02/08 16:09:42","新北市三重區重陽路三段7號","121.488895","25.0662916666667","6500200","三重區"
"241003","887-TS","2018/02/08 16:09:46","新北市三重區自強路五段112號","121.496933333333","25.0836216666667","6500200","三重區"
"241012","941-UM","2018/02/08 16:09:33","新北市三重區正義北路113號","121.497056666667","25.065835","6500200","三重區"
"241029","942-UM","2018/02/08 16:09:41","新北市三重區同安街72號","121.495418333333","25.0566583333333","6500200","三重區"
"241033","AAC-255","2018/02/08 16:09:28","新北市三重區重新路五段408巷21號","121.475966666667","25.0455016666667","6500200","三重區"
"235035","269-TV","2018/02/08 15:45:32","新北市中和區中正路774號","121.485341666667","25.000125","6500300","中和區"
"235026","800-TS","2018/02/08 16:09:31","新北市中和區立德街13-9號","121.489701666667","25.0067116666667","6500300","中和區"
"235005","802-TS","2018/02/08 16:09:32","新北市板橋區長江路二段311巷18-1號","121.469725","25.035975","6500300","中和區"
"220013","072-UY","2018/02/08 16:09:44","新北市林口區太平里180號","121.3675","25.1338733333333","6500100","板橋區"
"224006","676-BX","2018/02/08 16:09:28","新北市瑞芳區大寮路356-1號","121.785035","25.1031066666667","6501200","瑞芳區"
"224008","275-VK","2018/02/08 16:09:32","新北市瑞芳區傑魚坑路322號","121.786381666667","25.1047216666667","6501200","瑞芳區"
"224007","273-VK","2018/02/08 16:09:34","新北市瑞芳區粗坑口路42號","121.762026666667","25.0991766666667","6501200","瑞芳區"
"224005","271-BY","2018/02/08 16:09:43","新北市瑞芳區明燈路二段66號","121.809425","25.1075016666667","6501200","瑞芳區"
"227004","642-TC","2018/02/08 16:09:44","新北市雙溪區上林里內平林47號","121.833303333333","25.03041","6502500","雙溪區"
"227010","400-TW","2018/02/08 16:09:32","新北市雙溪區三港里雙澳路81號","121.885108333333","25.0542916666667","6502500","雙溪區"
"251013","179-VK","2018/02/08 16:09:44","新北市淡水區淡金路三段2-1號","121.446913333333","25.1979033333333","6501000","淡水區"
"251008","181-VK","2018/02/08 16:09:40","新北市淡水區中正路1號","121.445388333333","25.16846","6501000","淡水區"
"236076","166-UM","2018/02/08 16:09:40","新北市土城區中州路35號","121.413406666667","24.957965","6501300","土城區"
"236056","912-UM","2018/02/08 16:09:43","新北市土城區中央路二段183號","121.442056666667","24.9757766666667","6501300","土城區"
"236060","915-UM","2018/02/08 16:09:36","新北市樹林區中山路三段214號","121.380401666667","24.9680533333333","6501300","土城區"
"242055","349-TH","2018/02/08 16:09:39","新北市新莊區三和路12-16號","121.441883333333","25.0374","6500500","新莊區"
"238002","755-BX","2018/02/08 16:09:37","新北市樹林區大安路323巷10弄8號","121.417523333333","24.9912566666667","6500700","樹林區"
"238010","601-UM","2018/02/08 16:09:31","新北市樹林區龍興街46巷30號","121.401956666667","25.015145","6500700","樹林區"
"238001","599-UM","2018/02/08 16:09:37","新北市樹林區中華路190-16號","121.411781666667","24.980625","6500700","樹林區"
"238005","571-TV","2018/02/08 16:09:45","新北市樹林區博愛街132號","121.42645","24.991325","6500700","樹林區"
"238011","5061-A6","2018/02/08 16:09:28","新北市樹林區育德街78-1號","121.38734","24.96815","6500700","樹林區"
"238009","KEA-2213","2018/02/08 16:09:43","新北市樹林區太平路176號","121.418351666667","24.9769066666667","6500700","樹林區"
"238003","KEA-2539","2018/02/08 16:09:40","新北市樹林區柑園街二段149巷27號","121.382583333333","24.95328","6500700","樹林區"
"238001","282-BY","2018/02/08 16:09:47","新北市樹林區中正路22-1號","121.42776","24.999425","6500700","樹林區"
"238007","268-VK","2018/02/08 16:09:35","新北市樹林區三俊街197號","121.420121666667","25.0158083333333","6500700","樹林區"
"238013","172-UY","2018/02/08 16:09:40","新北市樹林區佳園路一段75巷10-1號","121.395746666667","24.97069","6500700","樹林區"
"238003","169-UY","2018/02/08 16:09:25","新北市樹林區文化街25巷9號","121.418436666667","24.9868133333333","6500700","樹林區"
"220010","255-TC","2018/02/08 15:57:51","新北市板橋區民生路二段120號","121.470335","25.01965","6500100","板橋區"
"220012","486-VK","2018/02/08 16:09:34","新北市樹林區中華路1-6號","121.425763333333","24.9845566666667","6500100","板橋區"
