"lineid","car","time","location","longitude","latitude","cityid","cityname"
"234007","207-UY","2018/02/08 18:19:30","新北市永和區中山路一段238號","121.507326666667","25.007575","6500400","永和區"
"234081","298-R6","2018/02/08 18:19:25","新北市永和區福和路1號","121.52618","25.00952","6500400","永和區"
"234086","338-UY","2018/02/08 18:19:38","新北市永和區福和路1號","121.5265","25.009615","6500400","永和區"
"234017","745-BX","2018/02/08 18:19:38","新北市永和區福和路1號","121.52629","25.0094916666667","6500400","永和區"
"234030","746-BX","2018/02/08 18:19:30","新北市永和區福和路1號","121.526286666667","25.0095866666667","6500400","永和區"
"234013","KEA-2591","2018/02/08 18:19:21","新北市永和區福和路1號","121.526153333333","25.00948","6500400","永和區"
"234042","862-TW","2018/02/08 18:19:31","新北市永和區福和路1號","121.526076666667","25.0098233333333","6500400","永和區"
"234026","9371-KE","2018/02/08 18:19:35","新北市永和區豫溪街28巷6號","121.515165","25.009555","6500400","永和區"
"234011","9373-KE","2018/02/08 18:19:35","新北市永和區文化路208號","121.510231666667","25.01662","6500400","永和區"
"249005","172-UM","2018/02/08 18:19:42","新北市八里區荖阡坑路15-29號","121.400356666667","25.1404316666667","6502300","八里區"
"249001","173-UM","2018/02/08 18:19:20","新北市八里區龍米路一段318號","121.451391666667","25.1303283333333","6502300","八里區"
"249004","303-UY","2018/02/08 18:19:31","新北市八里區龍米路二段208號","121.433433333333","25.1585266666667","6502300","八里區"
"249002","305-UY","2018/02/08 18:19:35","新北市八里區龍形二街8號","121.45056","25.132405","6502300","八里區"
"248014","025-BX","2018/02/08 18:19:43","新北市五股區成泰路一段171巷15號","121.434218333333","25.0744916666667","6501500","五股區"
"248016","026-BX","2018/02/08 18:19:40","新北市五股區西雲路290號","121.449781666667","25.098995","6501500","五股區"
"248006","077-UY","2018/02/08 18:19:40","新北市五股區中興路一段181號","121.464315","25.0738316666667","6501500","五股區"
"248008","095-VK","2018/02/08 18:19:43","新北市五股區更洲路32巷8弄14號","121.459261666667","25.0795916666667","6501500","五股區"
"248020","225-UY","2018/02/08 18:19:36","新北市五股區孝義路47巷1號","121.454008333333","25.1103616666667","6501500","五股區"
"248012","247-BX","2018/02/08 18:19:38","新北市五股區御史路1巷101弄2號","121.441041666667","25.0911216666667","6501500","五股區"
"248004","677-BX","2018/02/08 18:19:33","新北市五股區成泰路二段101號","121.438236666667","25.0843066666667","6501500","五股區"
"248002","678-BX","2018/02/08 18:19:28","新北市五股區西雲路45號","121.443436666667","25.0908183333333","6501500","五股區"
"248010","682-TV","2018/02/08 18:19:24","新北市五股區成泰路一段187號","121.435055","25.0765166666667","6501500","五股區"
"232011","375-UM","2018/02/08 18:19:24","新北市坪林區坪雙路一段43號","121.711693333333","24.9424516666667","6502000","坪林區"
"244013","069-UM","2018/02/08 18:19:40","新北市林口區中山路160巷9號","121.39126","25.079515","6501700","林口區"
"244007","080-UY","2018/02/08 18:19:28","新北市林口區林口路130號","121.388311666667","25.0817816666667","6501700","林口區"
"244019","402-UM","2018/02/08 18:19:43","新北市林口區忠孝路551號","121.372473333333","25.068645","6501700","林口區"
"244009","410-SL","2018/02/08 18:19:41","新北市林口區文化三路二段315號","121.379306666667","25.0870116666667","6501700","林口區"
"244023","483-VK","2018/02/08 18:19:30","新北市林口區東湖路153巷135號","121.382128333333","25.073585","6501700","林口區"
"244017","485-VK","2018/02/08 18:19:26","新北市林口區八德路48巷1號","121.366788333333","25.0662783333333","6501700","林口區"
"244011","701-TV","2018/02/08 18:19:40","新北市林口區中正路32號","121.395623333333","25.077515","6501700","林口區"
"244025","837-TS","2018/02/08 18:19:39","新北市林口區文化北路一段259號","121.35834","25.0713533333333","6501700","林口區"
"244021","838-TS","2018/02/08 18:19:38","新北市林口區自強一街115號","121.400885","25.0764066666667","6501700","林口區"
"243013","646-TV","2018/02/08 18:19:29","新北市泰山區工專路65號","121.422178333333","25.040415","6501600","泰山區"
"222003","436-BY","2018/02/08 18:19:40","新北市深坑區旺耽路67號","121.626245","25.0029783333333","6501800","深坑區"
"222002","659-BX","2018/02/08 18:19:28","新北市深坑區雲鄉路3-1號","121.620995","25.0001533333333","6501800","深坑區"
"231059","046-UY","2018/02/08 18:19:29","新北市新店區安華路28-1號","121.519571666667","24.9607833333333","6500600","新店區"
"231061","047-UY","2018/02/08 18:19:34","新北市新店區安華路28-1號","121.519181666667","24.960895","6500600","新店區"
"231060","106-UY","2018/02/08 18:19:38","新北市新店區安華路28-1號","121.519526666667","24.960775","6500600","新店區"
"231051","107-UY","2018/02/08 18:19:35","新北市新店區安華路28-1號","121.519331666667","24.9612983333333","6500600","新店區"
"231047","108-UY","2018/02/08 18:19:34","新北市新店區安華路28-1號","121.519425","24.9609016666667","6500600","新店區"
"231049","110-UY","2018/02/08 18:19:32","新北市新店區安華路28-1號","121.51924","24.9609316666667","6500600","新店區"
"231052","187-VK","2018/02/08 18:19:39","新北市新店區光明街99號","121.538853333333","24.9612","6500600","新店區"
"231050","KEA-2219","2018/02/08 18:19:27","新北市新店區安華路28-1號","121.519901666667","24.9612333333333","6500600","新店區"
"221015","KEA-2785","2018/02/08 18:19:44","新北市汐止區鄉長路二段23巷5號","121.66739","25.0826083333333","6501100","汐止區"
"231057","256-BX","2018/02/08 18:19:28","新北市新店區安華路28-1號","121.5197","24.9610833333333","6500600","新店區"
"231046","278-BY","2018/02/08 18:19:39","新北市新店區直潭七街60號","121.532255","24.9398233333333","6500600","新店區"
"231054","AAD-862","2018/02/08 18:19:26","新北市新店區安華路28-1號","121.519871666667","24.96122","6500600","新店區"
"231058","3712-VJ","2018/02/08 18:19:35","新北市新店區環河路15-1號","121.53777","24.961365","6500600","新店區"
"231056","3713-VJ","2018/02/08 18:19:38","新北市新店區中央路232號","121.529423333333","24.972685","6500600","新店區"
"231055","4716-K9","2018/02/08 18:19:23","新北市新店區環河路2號","121.538501666667","24.9617266666667","6500600","新店區"
"231067","4772-VM","2018/02/08 18:19:24","新北市新店區安華路1-1號","121.519126666667","24.9604783333333","6500600","新店區"
"231042","616-UM","2018/02/08 18:19:23","新北市新店區安華路1-1號","121.519405","24.960435","6500600","新店區"
"231040","619-UM","2018/02/08 18:19:44","新北市新店區安華路28-1號","121.51926","24.9606416666667","6500600","新店區"
"231063","645-TV","2018/02/08 18:19:25","新北市新店區安華路1-1號","121.519241666667","24.9604716666667","6500600","新店區"
"231065","719-UY","2018/02/08 18:19:43","新北市新店區安康路一段355-3號","121.519385","24.9618933333333","6500600","新店區"
"231062","720-UM","2018/02/08 18:19:40","新北市新店區安華路28-1號","121.519338333333","24.9613816666667","6500600","新店區"
"231045","898-TW","2018/02/08 18:19:26","新北市新店區安華路28-1號","121.519305","24.9609066666667","6500600","新店區"
"231066","AKT-0513","2018/02/08 18:19:24","新北市新店區安華路1-1號","121.519363333333","24.9603516666667","6500600","新店區"
"241023","545-UM","2018/02/08 18:19:35","新北市三重區三民街146巷16號","121.481693333333","25.0645366666667","6500200","三重區"
"241024","743-BX","2018/02/08 18:19:24","新北市三重區中正北路193巷35弄7號","121.47649","25.07091","6500200","三重區"
"235066","003-UY","2018/02/08 18:19:34","新北市中和區連城路263-2號","121.491543333333","24.9964333333333","6500300","中和區"
"235064","005-UY","2018/02/08 18:19:40","新北市中和區圓通路167巷11號","121.497946666667","24.9948283333333","6500300","中和區"
"235063","006-UY","2018/02/08 18:19:33","新北市中和區中正路589巷1號","121.485808333333","24.9944016666667","6500300","中和區"
"235056","096-UM","2018/02/08 18:19:44","新北市板橋區民生路一段26-1號","121.477481666667","25.01186","6500300","中和區"
"235039","097-UM","2018/02/08 18:19:40","新北市中和區中正路2-1號","121.503036666667","24.99367","6500300","中和區"
"235065","098-UM","2018/02/08 18:19:29","新北市中和區莊敬路49巷18號","121.501663333333","25.0060833333333","6500300","中和區"
"235040","150-BY","2018/02/08 18:19:29","新北市中和區景安路66號","121.505833333333","24.9967483333333","6500300","中和區"
"235058","151-BY","2018/02/08 18:19:34","新北市中和區圓通路367巷29號","121.492093333333","24.9855783333333","6500300","中和區"
"235055","183-VK","2018/02/08 18:19:27","新北市中和區中正路637巷60弄61號","121.485421666667","24.9932983333333","6500300","中和區"
"235038","185-VK","2018/02/08 18:19:29","新北市中和區秀朗路三段128巷7弄1號","121.52457","24.9927283333333","6500300","中和區"
"235049","186-VK","2018/02/08 18:19:31","新北市中和區中正路637巷52弄1號","121.485463333333","24.99349","6500300","中和區"
"235043","352-BY","2018/02/08 18:19:26","新北市中和區景平路377號","121.504111666667","24.9933733333333","6500300","中和區"
"235068","377-QA","2018/02/08 18:19:29","新北市中和區員山路36巷16-3號","121.485058333333","24.9910766666667","6500300","中和區"
"235061","378-QA","2018/02/08 18:19:34","新北市中和區民享街97巷15號","121.47568","24.9999016666667","6500300","中和區"
"235050","4979-A6","2018/02/08 18:19:30","新北市中和區捷運路61巷9號","121.509163333333","24.9893833333333","6500300","中和區"
"235069","4980-A6","2018/02/08 18:19:28","新北市中和區錦和路85號","121.489966666667","24.9959066666667","6500300","中和區"
"235042","551-UM","2018/02/08 18:19:36","新北市中和區大仁街20巷25弄28號","121.519555","24.9936016666667","6500300","中和區"
"235045","565-BX","2018/02/08 18:19:35","新北市中和區景安路200巷2弄2號","121.50399","24.991355","6500300","中和區"
"235054","640-BX","2018/02/08 18:19:35","新北市中和區莒光路181號","121.472695","24.9992083333333","6500300","中和區"
"235060","647-TV","2018/02/08 18:19:27","新北市中和區員山路84號","121.480885","24.9941533333333","6500300","中和區"
"235047","732-UM","2018/02/08 18:19:25","新北市中和區復興路284號","121.502041666667","24.9902733333333","6500300","中和區"
"235046","733-UM","2018/02/08 18:19:39","新北市中和區員山路36巷13號","121.484161666667","24.9908316666667","6500300","中和區"
"235062","800-TS","2018/02/08 18:19:34","新北市中和區景平路999巷2號","121.495363333333","25.0059766666667","6500300","中和區"
"235057","801-TS","2018/02/08 18:19:39","新北市中和區民安街178號","121.476418333333","24.9998383333333","6500300","中和區"
"235041","802-TS","2018/02/08 18:19:28","新北市中和區中正路273號","121.495691666667","24.9937766666667","6500300","中和區"
"235052","805-TS","2018/02/08 18:19:32","新北市中和區南山路231號","121.503488333333","24.9932083333333","6500300","中和區"
"235048","896-TW","2018/02/08 18:19:45","新北市中和區錦和路350-1號","121.490341666667","24.9935516666667","6500300","中和區"
"235053","900-TW","2018/02/08 18:19:41","新北市中和區中正路637巷52弄11號","121.484845","24.9938033333333","6500300","中和區"
"235063","911-UM","2018/02/08 18:19:39","新北市中和區連城路237-1號","121.493715","24.9973733333333","6500300","中和區"
"235051","157-BY","2018/02/08 18:19:26","新北市中和區忠孝街108-4號","121.512171666667","24.9849316666667","6500300","中和區"
"235037","AAC-213","2018/02/08 18:19:31","新北市中和區景平路73-1號","121.51881","24.9914216666667","6500300","中和區"
"247012","402-BY","2018/02/08 18:19:27","新北市五股區新五路二段372巷20號","121.451716666667","25.0861366666667","6501400","蘆洲區"
"247004","336-TH","2018/02/08 18:19:37","新北市林口區太平里180號","121.368341666667","25.1343733333333","6501400","蘆洲區"
"247014","007-UY","2018/02/08 18:18:24","新北市五股區中直路21號","121.421343333333","25.1119066666667","6501400","蘆洲區"
"226004","312-R5","2018/02/08 18:19:35","新北市平溪區薯榔里一坑路67號","121.712998333333","25.0225","6502400","平溪區"
"228003","097-TW","2018/02/08 18:19:37","新北市貢寮區真理里美艷山街63-1號","121.920653333333","25.07213","6502600","貢寮區"
"228001","212-TW","2018/02/08 18:19:38","新北市貢寮區真理里新港街26巷55弄2-1號","121.927403333333","25.05287","6502600","貢寮區"
"228002","585-TW","2018/02/08 18:19:34","新北市貢寮區福連里馬崗街10號","122.00179","25.0137633333333","6502600","貢寮區"
"224006","676-BX","2018/02/08 18:19:39","新北市瑞芳區民權街3-2號","121.80807","25.1074116666667","6501200","瑞芳區"
"224002","639-TC","2018/02/08 18:19:38","新北市瑞芳區三爪子坑路109號","121.81072","25.1071166666667","6501200","瑞芳區"
"224009","285-BY","2018/02/08 18:19:39","新北市瑞芳區金光路151號","121.853436666667","25.1069316666667","6501200","瑞芳區"
"224008","275-VK","2018/02/08 18:19:32","新北市瑞芳區三爪子坑路2號","121.810206666667","25.10704","6501200","瑞芳區"
"224007","273-VK","2018/02/08 18:19:40","新北市瑞芳區大埔路63號","121.76422","25.1019266666667","6501200","瑞芳區"
"224005","271-BY","2018/02/08 18:19:36","新北市瑞芳區建基路二段23號","121.807145","25.1331733333333","6501200","瑞芳區"
"227004","642-TC","2018/02/08 18:19:24","新北市雙溪區共和里中山路2號","121.863806666667","25.0338016666667","6502500","雙溪區"
"227010","400-TW","2018/02/08 18:19:44","新北市雙溪區牡丹里牡丹161號","121.85181","25.0592166666667","6502500","雙溪區"
"253005","032-BX","2018/02/08 18:19:38","新北市石門區中央路13號","121.567836666667","25.2923766666667","6502200","石門區"
"253006","741-TV","2018/02/08 18:19:31","新北市石門區老梅路75號","121.546121666667","25.2892283333333","6502200","石門區"
"222001","KEA-2212","2018/02/08 18:19:28","新北市深坑區北深路二段51-1號","121.6191","25.0040583333333","6501800","深坑區"
"208002","742-BX","2018/02/08 18:19:34","新北市金山區清泉里清水路60巷20號","121.634753333333","25.234035","6502700","金山區"
"208003","665-BX","2018/02/08 18:19:34","新北市金山區民生路192號","121.646571666667","25.2225766666667","6502700","金山區"
"208001","761-BX","2018/02/08 18:19:27","新北市金山區中山路16號","121.641471666667","25.2176566666667","6502700","金山區"
"251004","009-UM","2018/02/08 18:19:30","新北市淡水區民族路45號","121.462726666667","25.1353566666667","6501000","淡水區"
"251005","010-UM","2018/02/08 18:19:26","新北市淡水區水源街一段122巷37號","121.447153333333","25.1704866666667","6501000","淡水區"
"251013","179-VK","2018/02/08 18:19:43","新北市淡水區行忠路897號","121.479686666667","25.20019","6501000","淡水區"
"251014","180-VK","2018/02/08 18:19:32","新北市淡水區崙頂16-3號","121.488078333333","25.22185","6501000","淡水區"
"251008","181-VK","2018/02/08 18:19:39","新北市淡水區淡金路12-1號","121.458068333333","25.1602433333333","6501000","淡水區"
"251015","182-VK","2018/02/08 18:19:33","新北市淡水區興福寮88巷1號","121.485596666667","25.1651333333333","6501000","淡水區"
"251010","413-VK","2018/02/08 18:19:34","新北市淡水區淡海路180巷12-3號","121.420436666667","25.1846366666667","6501000","淡水區"
"251012","441-VK","2018/02/08 18:19:28","新北市淡水區北新路二段77-5號","121.480521666667","25.1855733333333","6501000","淡水區"
"251016","442-VK","2018/02/08 18:19:38","新北市淡水區淡金路三段228巷35號","121.450063333333","25.2048183333333","6501000","淡水區"
"251001","559-UM","2018/02/08 18:19:33","新北市淡水區自強路307巷1號","121.462061666667","25.131755","6501000","淡水區"
"251006","561-UM","2018/02/08 18:19:37","新北市淡水區新民街76巷36弄1號","121.439423333333","25.1779733333333","6501000","淡水區"
"251011","650-BX","2018/02/08 18:19:38","新北市淡水區坪頂路49號","121.457781666667","25.16251","6501000","淡水區"
"251002","672-BX","2018/02/08 18:19:33","新北市淡水區中正東路一段69號","121.452701666667","25.16222","6501000","淡水區"
"251003","766-UM","2018/02/08 18:19:27","新北市淡水區北新路137號","121.44935","25.1789233333333","6501000","淡水區"
"207003","550-UM","2018/02/08 18:19:41","新北市萬里區野柳里港東路6號","121.686453333333","25.20308","6502800","萬里區"
"207004","225-TW","2018/02/08 18:19:33","新北市萬里區中幅里中福路39-2號","121.676856666667","25.1658316666667","6502800","萬里區"
"252001","292-VK","2018/02/08 18:19:26","新北市三芝區中興街二段2號","121.498356666667","25.2566183333333","6502100","三芝區"
"252003","702-TV","2018/02/08 18:19:30","新北市三芝區錫板里南勢崗5-3號","121.48007","25.2626483333333","6502100","三芝區"
"237004","KEA-2597","2018/02/08 18:19:27","新北市三峽區大埔230號","121.374285","24.8906816666667","6500900","三峽區"
"237007","153-BY","2018/02/08 18:19:43","新北市三峽區中正路二段407號","121.363595","24.9070333333333","6500900","三峽區"
"237009","210-TH","2018/02/08 18:19:34","新北市三峽區大勇路36巷15號","121.365885","24.93708","6500900","三峽區"
"237013","252-BX","2018/02/08 18:19:28","新北市三峽區永安街7號","121.37774","24.9300716666667","6500900","三峽區"
"237012","275-BY","2018/02/08 18:19:24","新北市三峽區民生街1巷5-42號","121.379025","24.935295","6500900","三峽區"
"237008","302-VK","2018/02/08 18:19:32","新北市三峽區白雞64-1號","121.385786666667","24.912585","6500900","三峽區"
"237014","433-BY","2018/02/08 18:19:29","新北市三峽區復興路110巷2弄4號","121.372861666667","24.9380066666667","6500900","三峽區"
"237006","5529-G3","2018/02/08 18:19:33","新北市三峽區溪東路473巷16號","121.414285","24.9287433333333","6500900","三峽區"
"237016","649-BX","2018/02/08 18:19:13","新北市三峽區紫新路1號","121.422643333333","24.920355","6500900","三峽區"
"237010","706-TV","2018/02/08 18:19:28","新北市三峽區民族街17號","121.369408333333","24.9308566666667","6500900","三峽區"
"237005","AKY-6261","2018/02/08 18:19:41","新北市三峽區忠孝街27-6號","121.371503333333","24.9344116666667","6500900","三峽區"
"236071","105-UM","2018/02/08 18:19:36","新北市土城區永豐路143號","121.466583333333","24.9834383333333","6501300","土城區"
"236042","107-UM","2018/02/08 18:19:31","新北市土城區樂利街3巷12號","121.448498333333","24.9862716666667","6501300","土城區"
"236078","166-UM","2018/02/08 18:19:33","新北市土城區永安街84號","121.431656666667","24.9637883333333","6501300","土城區"
"236030","253-BX","2018/02/08 18:19:37","新北市土城區順風路45號","121.440343333333","24.9769883333333","6501300","土城區"
"236026","269-VK","2018/02/08 18:19:26","新北市土城區承天路65號","121.439923333333","24.9635466666667","6501300","土城區"
"236014","270-VK","2018/02/08 18:19:40","新北市土城區青雲路39巷7號","121.460348333333","24.9873816666667","6501300","土城區"
"236037","271-VK","2018/02/08 18:19:33","新北市土城區青雲路451巷8弄10號","121.459475","24.9742533333333","6501300","土城區"
"236021","401-BY","2018/02/08 18:19:43","新北市土城區明德路二段8巷1號","121.45198","24.9805916666667","6501300","土城區"
"236058","912-UM","2018/02/08 18:19:39","新北市土城區中央路四段213號","121.413886666667","24.9558183333333","6501300","土城區"
"236051","913-UM","2018/02/08 18:19:27","新北市土城區明德路一段361-3號","121.456095","24.9777766666667","6501300","土城區"
"236062","915-UM","2018/02/08 18:19:15","新北市土城區金城路三段202-3號","121.469496666667","24.9885216666667","6501300","土城區"
"236053","AAC-216","2018/02/08 18:19:40","新北市土城區中華路二段106號","121.438036666667","24.9742266666667","6501300","土城區"
"242031","AAC-296","2018/02/08 18:19:15","新北市泰山區明志路一段421號","121.430873333333","25.0569583333333","6500500","新莊區"
"242029","986-R7","2018/02/08 18:19:32","新北市新莊區中平路200-2號","121.444785","25.04862","6500500","新莊區"
"242025","615-BX","2018/02/08 18:19:35","新北市新莊區五工一路98號","121.46048","25.068065","6500500","新莊區"
"242027","612-BX","2018/02/08 18:19:29","新北市新莊區中華路二段89號","121.452816666667","25.0492783333333","6500500","新莊區"
"242048","441-UM","2018/02/08 18:19:33","新北市新莊區富國路87號","121.420428333333","25.0258983333333","6500500","新莊區"
"242053","440-UM","2018/02/08 18:19:35","新北市新莊區民安西路410巷10弄2號","121.428323333333","25.0093766666667","6500500","新莊區"
"242004","413-TV","2018/02/08 18:19:27","新北市新莊區中平路92巷2號","121.44492","25.0453533333333","6500500","新莊區"
"242042","400-BY","2018/02/08 18:19:40","新北市新莊區壽山路41號","121.414873333333","25.0304716666667","6500500","新莊區"
"242061","362-BY","2018/02/08 18:19:32","新北市新莊區新樹路18號","121.438591666667","25.0297683333333","6500500","新莊區"
"242058","353-BY","2018/02/08 18:19:41","新北市新莊區新北大道七段842號","121.413693333333","25.0236433333333","6500500","新莊區"
"242007","132-UY","2018/02/08 18:19:41","新北市新莊區自立街79巷9號","121.45436","25.0458016666667","6500500","新莊區"
"242036","133-UY","2018/02/08 18:19:30","新北市新莊區後港一路33號","121.425316666667","25.0262733333333","6500500","新莊區"
"242021","135-UY","2018/02/08 18:19:41","新北市新莊區新興街22號","121.450695","25.0365816666667","6500500","新莊區"
"242046","172-VK","2018/02/08 18:19:42","新北市新莊區福營路364號","121.421045","25.0266633333333","6500500","新莊區"
"242009","173-VK","2018/02/08 18:19:41","新北市新莊區中華路二段250號","121.452676666667","25.052855","6500500","新莊區"
"242015","175-VK","2018/02/08 18:19:39","新北市新莊區中和街140號","121.447438333333","25.048235","6500500","新莊區"
"242002","176-VK","2018/02/08 18:19:33","新北市新莊區碧江街22號","121.454228333333","25.034005","6500500","新莊區"
"242051","347-TH","2018/02/08 18:19:41","新北市新莊區民本街11巷28號","121.428966666667","25.0202516666667","6500500","新莊區"
"242056","349-TH","2018/02/08 18:19:35","新北市新莊區豐年街53巷34號","121.447401666667","25.0317316666667","6500500","新莊區"
"242011","351-TH","2018/02/08 18:19:31","新北市新莊區中港路615巷21弄6號","121.449955","25.0529416666667","6500500","新莊區"
"238015","755-BX","2018/02/08 18:19:44","新北市樹林區文化街112巷2號","121.41691","24.990095","6500700","樹林區"
"238023","601-UM","2018/02/08 18:19:35","新北市樹林區三寶街3號","121.406503333333","25.01572","6500700","樹林區"
"238019","599-UM","2018/02/08 18:19:37","新北市樹林區國凱街102號","121.422308333333","24.97987","6500700","樹林區"
"238018","571-TV","2018/02/08 18:19:25","新北市樹林區保安街一段20巷8號","121.427678333333","24.9937333333333","6500700","樹林區"
"238024","5061-A6","2018/02/08 18:19:32","新北市樹林區豐林街64號","121.422121666667","24.998","6500700","樹林區"
"238003","KEA-2539","2018/02/08 18:19:27","新北市樹林區佳園路二段157-1號","121.389836666667","24.9569533333333","6500700","樹林區"
"238025","303-VK","2018/02/08 18:19:33","新北市樹林區保安街一段327號","121.417681666667","24.9983183333333","6500700","樹林區"
"238017","283-BY","2018/02/08 18:19:37","新北市樹林區保安街二段339號","121.412546666667","25.00855","6500700","樹林區"
"238014","282-BY","2018/02/08 18:19:30","新北市樹林區潭興街89號","121.424628333333","24.99834","6500700","樹林區"
"238026","172-UY","2018/02/08 18:19:39","新北市樹林區佳園路一段75巷102號","121.396533333333","24.970465","6500700","樹林區"
"238016","169-UY","2018/02/08 18:19:25","新北市樹林區文化街23號","121.419305","24.987625","6500700","樹林區"
"239007","AAC-297","2018/02/08 18:19:34","新北市鶯歌區正義新村15-1號","121.342858333333","24.9493316666667","6500800","鶯歌區"
"239006","891-R6","2018/02/08 18:19:37","新北市鶯歌區鶯桃路365巷116號","121.330331666667","24.9621916666667","6500800","鶯歌區"
"239008","527-UM","2018/02/08 18:19:35","新北市鶯歌區國際一路179號","121.33625","24.9764916666667","6500800","鶯歌區"
"239005","526-UM","2018/02/08 18:19:43","新北市鶯歌區鶯桃路668巷73號","121.329923333333","24.9717666666667","6500800","鶯歌區"
"239001","417-VK","2018/02/08 18:19:42","新北市鶯歌區國中街144號","121.339015","24.9397483333333","6500800","鶯歌區"
"239003","360-BY","2018/02/08 18:19:30","新北市鶯歌區福安街58號","121.335608333333","24.9651983333333","6500800","鶯歌區"
"221008","489-VK","2018/02/08 18:19:36","新北市汐止區康寧街706-2號","121.638513333333","25.07313","6501100","汐止區"
"221036","130-UY","2018/02/08 18:19:34","新北市汐止區長安路48號","121.668618333333","25.0782666666667","6501100","汐止區"
"221010","269-BY","2018/02/08 18:19:22","新北市汐止區祥雲街12號","121.646205","25.0898533333333","6501100","汐止區"
"221012","278-VK","2018/02/08 18:19:34","新北市汐止區長興街二段4巷21號","121.673143333333","25.0805216666667","6501100","汐止區"
"221023","279-VK","2018/02/08 18:19:33","新北市汐止區中興路201號","121.629213333333","25.0684383333333","6501100","汐止區"
"221032","280-BY","2018/02/08 18:19:41","新北市汐止區力行街52號","121.616433333333","25.049585","6501100","汐止區"
"221027","281-BY","2018/02/08 18:19:23","新北市汐止區和平街6巷8-1號","121.663548333333","25.0715833333333","6501100","汐止區"
"221002","297-VK","2018/02/08 18:19:32","新北市汐止區福德一路201巷25號","121.635978333333","25.0647733333333","6501100","汐止區"
"221029","298-VK","2018/02/08 18:19:26","新北市汐止區樟樹二路330巷72-1號","121.642925","25.0699016666667","6501100","汐止區"
"221021","299-VK","2018/02/08 18:19:36","新北市汐止區龍安路202巷47號","121.652621666667","25.0637266666667","6501100","汐止區"
"221031","353-TW","2018/02/08 18:19:30","新北市汐止區中興路108號","121.633485","25.06341","6501100","汐止區"
"221035","622-UM","2018/02/08 18:19:34","新北市汐止區龍安路202巷51號","121.652945","25.0641683333333","6501100","汐止區"
"221025","623-UM","2018/02/08 18:19:41","新北市汐止區勤進路12巷37號","121.659151666667","25.0626233333333","6501100","汐止區"
"221038","646-BX","2018/02/08 18:19:44","新北市汐止區仁愛路200巷2號","121.664978333333","25.06564","6501100","汐止區"
"221033","647-BX","2018/02/08 18:19:22","新北市汐止區宜興街59巷33-1號","121.621681666667","25.0427916666667","6501100","汐止區"
"221018","753-BX","2018/02/08 18:19:29","新北市汐止區茄苳路115號","121.667886666667","25.0705","6501100","汐止區"
"242044","280-VK","2018/02/08 18:19:28","新北市新莊區中正路726-14號","121.415215","25.02377","6500500","新莊區"
