"lineid","car","time","location","longitude","latitude","cityid","cityname"
"234046","148-BY","2018/02/08 18:39:14","新北市永和區永元路68號","121.522551666667","25.001555","6500400","永和區"
"234007","207-UY","2018/02/08 18:39:30","新北市永和區環河西路二段179號","121.5043","25.0128433333333","6500400","永和區"
"234081","298-R6","2018/02/08 18:39:25","新北市永和區永利路139號","121.524121666667","25.0037616666667","6500400","永和區"
"234038","336-UY","2018/02/08 18:39:21","新北市永和區福和路1號","121.526671666667","25.0102216666667","6500400","永和區"
"234064","337-UY","2018/02/08 18:39:13","新北市永和區福和路1號","121.526321666667","25.00985","6500400","永和區"
"234086","338-UY","2018/02/08 18:39:18","新北市永和區中正路399號","121.517268333333","25.00427","6500400","永和區"
"234017","745-BX","2018/02/08 18:39:18","新北市永和區福和路1號","121.526268333333","25.0095866666667","6500400","永和區"
"234030","746-BX","2018/02/08 18:39:30","新北市永和區得和路324號","121.523191666667","24.9996183333333","6500400","永和區"
"234013","KEA-2591","2018/02/08 18:39:21","新北市永和區保福路二段109巷2號","121.510176666667","25.0133716666667","6500400","永和區"
"234061","AAD-866","2018/02/08 18:39:24","新北市永和區福和路1號","121.525473333333","25.00951","6500400","永和區"
"234042","862-TW","2018/02/08 18:39:30","新北市永和區永貞路306號","121.511878333333","25.0048283333333","6500400","永和區"
"234026","9371-KE","2018/02/08 18:39:15","新北市永和區永貞路415號","121.507315","25.0094066666667","6500400","永和區"
"234011","9373-KE","2018/02/08 18:39:15","新北市永和區文化路9巷22弄32號","121.514483333333","25.014625","6500400","永和區"
"249005","172-UM","2018/02/08 18:39:22","新北市八里區中華路三段196號","121.38819","25.125665","6502300","八里區"
"249001","173-UM","2018/02/08 18:39:30","新北市八里區龍米路一段346號","121.451456666667","25.1308283333333","6502300","八里區"
"249004","303-UY","2018/02/08 18:39:11","新北市八里區觀海大道29號","121.42961","25.1604016666667","6502300","八里區"
"249002","305-UY","2018/02/08 18:39:15","新北市八里區龍形一街31號","121.449646666667","25.130365","6502300","八里區"
"248014","025-BX","2018/02/08 18:39:23","新北市五股區成泰路一段210號","121.436078333333","25.0790766666667","6501500","五股區"
"248016","026-BX","2018/02/08 18:39:30","新北市五股區凌雲路一段149巷9號","121.448853333333","25.10149","6501500","五股區"
"248008","095-VK","2018/02/08 18:39:23","新北市五股區中興路一段149號","121.465066666667","25.0734","6501500","五股區"
"248020","225-UY","2018/02/08 18:39:16","新北市五股區孝義路102號","121.445336666667","25.1196166666667","6501500","五股區"
"248012","247-BX","2018/02/08 18:39:18","新北市五股區成泰路三段2巷1-20號","121.441295","25.08662","6501500","五股區"
"248004","677-BX","2018/02/08 18:39:33","新北市五股區六合街3號","121.431906666667","25.0885516666667","6501500","五股區"
"248002","678-BX","2018/02/08 18:39:28","新北市五股區西雲路199號","121.44803","25.0962416666667","6501500","五股區"
"248010","682-TV","2018/02/08 18:39:24","新北市五股區明德路31號","121.4345","25.0713","6501500","五股區"
"234023","9380-KE","2018/02/08 18:39:21","新北市永和區福和路76巷5弄14號","121.522341666667","25.008365","6500400","永和區"
"234077","969-R7","2018/02/08 18:39:16","新北市永和區中正路281號","121.517533333333","25.0012383333333","6500400","永和區"
"234067","AAC-212","2018/02/08 18:39:31","新北市永和區永貞路131號","121.516693333333","25.0041816666667","6500400","永和區"
"234003","AAC-295","2018/02/08 18:39:15","新北市永和區福和路1號","121.52649","25.0099133333333","6500400","永和區"
"244013","069-UM","2018/02/08 18:39:20","新北市林口區佳林路130號","121.38479","25.0783183333333","6501700","林口區"
"244007","080-UY","2018/02/08 18:39:28","新北市林口區湖北里56號","121.384371666667","25.1067383333333","6501700","林口區"
"244019","402-UM","2018/02/08 18:39:23","新北市林口區忠孝路616巷7號","121.377245","25.0681066666667","6501700","林口區"
"244009","410-SL","2018/02/08 18:39:21","新北市林口區民生路46號","121.376368333333","25.08683","6501700","林口區"
"244023","483-VK","2018/02/08 18:39:30","新北市林口區文化一路二段92號","121.38168","25.078665","6501700","林口區"
"244017","485-VK","2018/02/08 18:39:26","新北市林口區文化二路一段84號","121.366308333333","25.0695133333333","6501700","林口區"
"244011","701-TV","2018/02/08 18:39:20","新北市林口區中山路73號","121.392895","25.078475","6501700","林口區"
"244025","837-TS","2018/02/08 18:39:29","新北市林口區南勢五街22號","121.356841666667","25.075315","6501700","林口區"
"244021","838-TS","2018/02/08 18:39:18","新北市林口區自強二街31號","121.398446666667","25.0777116666667","6501700","林口區"
"243012","AAD-798","2018/02/08 18:39:20","新北市泰山區明志路一段193號","121.432835","25.0617383333333","6501600","泰山區"
"243010","KEA-2215","2018/02/08 18:39:17","新北市泰山區黎明路31號","121.421496666667","25.0606466666667","6501600","泰山區"
"243013","646-TV","2018/02/08 18:31:07","新北市泰山區明志路三段206巷3號","121.423231666667","25.0379516666667","6501600","泰山區"
"243016","680-BX","2018/02/08 18:39:14","新北市泰山區黎明路25號","121.42205","25.0607033333333","6501600","泰山區"
"222003","436-BY","2018/02/08 18:39:20","新北市深坑區翠谷街37巷1號","121.626478333333","25.0093966666667","6501800","深坑區"
"222002","659-BX","2018/02/08 18:39:28","新北市深坑區雲鄉路28號","121.621461666667","24.9997383333333","6501800","深坑區"
"231041","002-UM","2018/02/08 18:39:28","新北市新店區安華路28-1號","121.519783333333","24.9609116666667","6500600","新店區"
"231059","046-UY","2018/02/08 18:39:29","新北市新店區安華路28-1號","121.519518333333","24.96078","6500600","新店區"
"231061","047-UY","2018/02/08 18:39:34","新北市新店區安華路28-1號","121.519185","24.9608966666667","6500600","新店區"
"231060","106-UY","2018/02/08 18:39:18","新北市新店區安華路28-1號","121.519655","24.96077","6500600","新店區"
"231051","107-UY","2018/02/08 18:39:15","新北市新店區環河路29巷1號","121.536856666667","24.961345","6500600","新店區"
"231047","108-UY","2018/02/08 18:39:15","新北市新店區安康路一段50號","121.53025","24.96113","6500600","新店區"
"231049","110-UY","2018/02/08 18:39:32","新北市新店區安康路一段65號","121.5304","24.9610683333333","6500600","新店區"
"231052","187-VK","2018/02/08 18:39:19","新北市新店區永興路34號","121.543531666667","24.9388366666667","6500600","新店區"
"231064","189-VK","2018/02/08 18:39:30","新北市新店區安華路28-1號","121.519461666667","24.96097","6500600","新店區"
"231050","KEA-2219","2018/02/08 18:39:27","新北市新店區安華路28-1號","121.520033333333","24.96126","6500600","新店區"
"221015","KEA-2785","2018/02/08 18:39:24","新北市汐止區吉祥街20號","121.668038333333","25.0805883333333","6501100","汐止區"
"231057","256-BX","2018/02/08 18:39:28","新北市新店區新烏路一段205-2號","121.54746","24.9327366666667","6500600","新店區"
"231046","278-BY","2018/02/08 18:39:19","新北市新店區直潭二街1號","121.535506666667","24.9432166666667","6500600","新店區"
"231054","AAD-862","2018/02/08 18:39:26","新北市新店區安華路28-1號","121.519876666667","24.9611983333333","6500600","新店區"
"231058","3712-VJ","2018/02/08 18:39:29","新北市新店區北宜路一段168號","121.540548333333","24.9530366666667","6500600","新店區"
"231056","3713-VJ","2018/02/08 18:39:18","新北市新店區二十張路131號","121.535953333333","24.9791616666667","6500600","新店區"
"231055","4716-K9","2018/02/08 18:39:31","新北市新店區華興街38巷3號","121.537201666667","24.9691416666667","6500600","新店區"
"231067","4772-VM","2018/02/08 18:39:24","新北市新店區安康路一段222號","121.523758333333","24.9635383333333","6500600","新店區"
"231042","616-UM","2018/02/08 18:39:23","新北市新店區安康路一段226-2號","121.523311666667","24.9636666666667","6500600","新店區"
"231044","618-UM","2018/02/08 18:39:26","新北市新店區中正路111號","121.542516666667","24.9706983333333","6500600","新店區"
"231040","619-UM","2018/02/08 18:39:24","新北市新店區安華路28-1號","121.519485","24.96089","6500600","新店區"
"231063","645-TV","2018/02/08 18:39:25","新北市新店區安華路1-1號","121.519346666667","24.9605083333333","6500600","新店區"
"231065","719-UY","2018/02/08 18:39:23","新北市新店區安華路28-1號","121.519373333333","24.961385","6500600","新店區"
"231062","720-UM","2018/02/08 18:39:20","新北市新店區安華路28-1號","121.519248333333","24.9610516666667","6500600","新店區"
"231045","898-TW","2018/02/08 18:39:26","新北市新店區安華路28-1號","121.519126666667","24.9609383333333","6500600","新店區"
"231043","899-TW","2018/02/08 18:39:15","新北市新店區安華路28-1號","121.5192","24.9608083333333","6500600","新店區"
"231066","AKT-0513","2018/02/08 18:39:24","新北市新店區安華路1-1號","121.519473333333","24.960375","6500600","新店區"
"241013","270-UM","2018/02/08 18:39:31","新北市三重區仁愛街109號","121.495666666667","25.0742","6500200","三重區"
"241023","545-UM","2018/02/08 18:39:14","新北市三重區頂崁街99號","121.47805","25.0638383333333","6500200","三重區"
"235066","003-UY","2018/02/08 18:39:14","新北市中和區水源路39號","121.504581666667","25.003585","6500300","中和區"
"235064","005-UY","2018/02/08 18:39:28","新北市中和區連城路126號","121.496138333333","24.9994016666667","6500300","中和區"
"235063","006-UY","2018/02/08 18:39:14","新北市中和區連城路353號","121.48795","24.9962","6500300","中和區"
"235056","096-UM","2018/02/08 18:39:24","新北市中和區員山路611巷5弄1號","121.477958333333","25.0112283333333","6500300","中和區"
"235039","097-UM","2018/02/08 18:39:20","新北市永和區中正路99號","121.514911666667","24.9976783333333","6500300","中和區"
"235065","098-UM","2018/02/08 18:39:29","新北市中和區莊敬路33巷36弄10號","121.500455","25.006435","6500300","中和區"
"235040","150-BY","2018/02/08 18:39:29","新北市中和區保健路76巷14弄2號","121.510935","24.995765","6500300","中和區"
"235058","151-BY","2018/02/08 18:39:13","新北市中和區圓通路447號","121.484761666667","24.986375","6500300","中和區"
"235055","183-VK","2018/02/08 18:39:27","新北市板橋區國泰街39巷7弄18號","121.4691","25.0056783333333","6500300","中和區"
"235038","185-VK","2018/02/08 18:39:29","新北市中和區立人街14巷40弄1號","121.518848333333","24.9956516666667","6500300","中和區"
"235049","186-VK","2018/02/08 18:39:31","新北市中和區景平路500巷7號","121.504476666667","24.9938766666667","6500300","中和區"
"235067","255-BX","2018/02/08 18:39:31","新北市中和區新生街2號","121.483043333333","25.0047216666667","6500300","中和區"
"235044","293-VK","2018/02/08 18:39:23","新北市中和區復興路280巷6號","121.502341666667","24.9910066666667","6500300","中和區"
"235043","352-BY","2018/02/08 18:39:26","新北市中和區景平路157號","121.513063333333","24.99245","6500300","中和區"
"235068","377-QA","2018/02/08 18:39:29","新北市中和區中正路122號","121.499756666667","24.9937316666667","6500300","中和區"
"235061","378-QA","2018/02/08 18:39:15","新北市中和區民享街97巷16號","121.475283333333","24.9997266666667","6500300","中和區"
"235050","4979-A6","2018/02/08 18:39:30","新北市中和區四維街40號","121.512458333333","24.98692","6500300","中和區"
"235069","4980-A6","2018/02/08 18:39:28","新北市中和區連城路99巷2號","121.496628333333","24.999625","6500300","中和區"
"235042","551-UM","2018/02/08 18:39:16","新北市中和區成功路97巷18弄11號","121.527025","24.99133","6500300","中和區"
"235045","565-BX","2018/02/08 18:39:11","新北市中和區南山路236巷23弄2號","121.505545","24.98851","6500300","中和區"
"235054","640-BX","2018/02/08 18:39:15","新北市中和區民享街86巷12號","121.473921666667","25.0008283333333","6500300","中和區"
"235060","647-TV","2018/02/08 18:39:27","新北市中和區中山路三段13號","121.479571666667","25.0060083333333","6500300","中和區"
"235047","732-UM","2018/02/08 18:39:25","新北市中和區南山路320巷10弄11號","121.506853333333","24.9865633333333","6500300","中和區"
"235046","733-UM","2018/02/08 18:39:19","新北市中和區捷運路8號","121.509826666667","24.98952","6500300","中和區"
"235062","800-TS","2018/02/08 18:39:14","新北市中和區景平路703巷11號","121.495768333333","25.00332","6500300","中和區"
"235057","801-TS","2018/02/08 18:39:19","新北市中和區員山路327巷82號","121.479468333333","25.0022866666667","6500300","中和區"
"235041","802-TS","2018/02/08 18:39:28","新北市中和區宜安路166號","121.509028333333","24.9989366666667","6500300","中和區"
"235052","805-TS","2018/02/08 18:39:12","新北市中和區興南路三段26號","121.49675","24.978815","6500300","中和區"
"235048","896-TW","2018/02/08 18:39:25","新北市中和區南山路417號","121.507171666667","24.9895766666667","6500300","中和區"
"235053","900-TW","2018/02/08 18:39:21","新北市中和區民德路264號","121.467966666667","24.99669","6500300","中和區"
"235063","911-UM","2018/02/08 18:39:20","新北市中和區中山路二段181號","121.500836666667","25.0027483333333","6500300","中和區"
"235051","157-BY","2018/02/08 18:39:26","新北市中和區華新街143巷48號","121.506128333333","24.9799166666667","6500300","中和區"
"235037","AAC-213","2018/02/08 18:39:26","新北市中和區景平路111巷60弄4號","121.515283333333","24.99057","6500300","中和區"
"220068","013-TV","2018/02/08 18:39:28","新北市板橋區民生路二段120號","121.470326666667","25.0196966666667","6500100","板橋區"
"220065","072-UY","2018/02/08 18:39:19","新北市板橋區區運路32號","121.465531666667","25.0099533333333","6500100","板橋區"
"220086","073-UY","2018/02/08 18:39:18","新北市板橋區南雅南路二段3號","121.454528333333","25.0030983333333","6500100","板橋區"
"220069","AAD-861","2018/02/08 18:39:14","新北市板橋區華東街1-10號","121.44832","24.995095","6500100","板橋區"
"247012","402-BY","2018/02/08 18:39:27","新北市五股區中興路三段163號","121.449388333333","25.0804733333333","6501400","蘆洲區"
"247004","336-TH","2018/02/08 18:39:17","新北市八里區荖阡坑路34-1號","121.400936666667","25.130525","6501400","蘆洲區"
"226004","312-R5","2018/02/08 18:39:14","新北市平溪區平溪里三坑路51號","121.73481","25.0294266666667","6502400","平溪區"
"228003","097-TW","2018/02/08 18:39:17","新北市貢寮區和美里龍洞街5-1號","121.918428333333","25.11183","6502600","貢寮區"
"228001","212-TW","2018/02/08 18:39:18","新北市貢寮區仁理村研海街12-1號","121.923755","25.0516833333333","6502600","貢寮區"
"228002","585-TW","2018/02/08 18:39:14","新北市貢寮區福隆里桂安街18號","121.95783","25.0196933333333","6502600","貢寮區"
"224010","AGQ-8101","2018/02/08 18:39:03","新北市瑞芳區烏勢巷108號","121.846141666667","25.1088383333333","6501200","瑞芳區"
"224006","676-BX","2018/02/08 18:39:19","新北市瑞芳區明燈路三段84號","121.80573","25.108295","6501200","瑞芳區"
"224002","639-TC","2018/02/08 18:39:18","新北市瑞芳區中山路266號","121.798806666667","25.1087016666667","6501200","瑞芳區"
"224009","285-BY","2018/02/08 18:39:20","新北市瑞芳區五號路308號","121.85684","25.1114766666667","6501200","瑞芳區"
"224008","275-VK","2018/02/08 18:39:19","新北市瑞芳區逢甲路224號","121.806393333333","25.1102116666667","6501200","瑞芳區"
"224007","273-VK","2018/02/08 18:39:20","新北市瑞芳區大埔路93號","121.763683333333","25.101315","6501200","瑞芳區"
"224005","271-BY","2018/02/08 18:39:23","新北市瑞芳區瑞濱路147-11號","121.818355","25.1183133333333","6501200","瑞芳區"
"227004","642-TC","2018/02/08 18:39:24","新北市雙溪區魚行里坤溪3-5號","121.876173333333","25.0208616666667","6502500","雙溪區"
"227010","400-TW","2018/02/08 18:39:24","新北市雙溪區牡丹里下坑11號","121.850888333333","25.05623","6502500","雙溪區"
"253005","032-BX","2018/02/08 18:39:18","新北市石門區石門街28號","121.566196666667","25.2905466666667","6502200","石門區"
"253006","741-TV","2018/02/08 18:39:31","新北市石門區楓林28-5號","121.542611666667","25.2898116666667","6502200","石門區"
"222001","KEA-2212","2018/02/08 18:39:28","新北市深坑區北深路一段82號","121.636315","25.0107833333333","6501800","深坑區"
"208002","742-BX","2018/02/08 18:39:34","新北市金山區龜子山路33號","121.63918","25.2174","6502700","金山區"
"208003","665-BX","2018/02/08 18:39:23","新北市金山區中山路276-8號","121.635096666667","25.2242416666667","6502700","金山區"
"208001","761-BX","2018/02/08 18:39:27","新北市金山區文化三路7號","121.635096666667","25.22504","6502700","金山區"
"251004","009-UM","2018/02/08 18:39:30","新北市淡水區民族路11號","121.46035","25.1370083333333","6501000","淡水區"
"251013","179-VK","2018/02/08 18:39:31","新北市淡水區雲廣坑10號","121.47614","25.213945","6501000","淡水區"
"251014","180-VK","2018/02/08 18:39:32","新北市淡水區崙頂12-5號","121.497563333333","25.2164583333333","6501000","淡水區"
"251008","181-VK","2018/02/08 18:39:20","新北市淡水區北投子69-1號","121.453918333333","25.18194","6501000","淡水區"
"251015","182-VK","2018/02/08 18:39:33","新北市淡水區樹林口52號","121.485081666667","25.1628466666667","6501000","淡水區"
"251010","413-VK","2018/02/08 18:39:34","新北市淡水區沙崙路122號","121.423346666667","25.18274","6501000","淡水區"
"251012","441-VK","2018/02/08 18:39:28","新北市淡水區北新路121號","121.448956666667","25.1786433333333","6501000","淡水區"
"251016","442-VK","2018/02/08 18:39:18","新北市淡水區下圭柔山84號","121.437705","25.2058416666667","6501000","淡水區"
"251001","559-UM","2018/02/08 18:39:33","新北市淡水區自強路415巷2號","121.465471666667","25.1342633333333","6501000","淡水區"
"251006","561-UM","2018/02/08 18:39:17","新北市淡水區中山北路二段375號","121.444128333333","25.1871316666667","6501000","淡水區"
"251011","650-BX","2018/02/08 18:39:18","新北市淡水區鄧公路36巷9號","121.456478333333","25.1691383333333","6501000","淡水區"
"251002","672-BX","2018/02/08 18:39:33","新北市淡水區中正東路一段3巷14弄1號","121.450898333333","25.1643766666667","6501000","淡水區"
"251003","766-UM","2018/02/08 18:39:27","新北市淡水區北新路69巷26號","121.446711666667","25.18021","6501000","淡水區"
"207003","550-UM","2018/02/08 18:39:20","新北市萬里區野柳里港東路162-11號","121.69025","25.2038716666667","6502800","萬里區"
"207004","225-TW","2018/02/08 18:39:13","新北市萬里區萬里里獅頭路10-1號","121.692071666667","25.17877","6502800","萬里區"
"252002","178-VK","2018/02/08 18:39:26","新北市三芝區民生街64巷9號","121.50361","25.2551483333333","6502100","三芝區"
"252001","292-VK","2018/02/08 18:39:26","新北市三芝區埔頭里埔頭14號","121.50057","25.25407","6502100","三芝區"
"252003","702-TV","2018/02/08 18:39:31","新北市三芝區後厝里大片頭90號","121.456406666667","25.2456166666667","6502100","三芝區"
"237004","KEA-2597","2018/02/08 18:39:27","新北市三峽區圳頭95號","121.380786666667","24.8763716666667","6500900","三峽區"
"237007","153-BY","2018/02/08 18:39:23","新北市三峽區中正路三段170巷1號","121.352493333333","24.9035916666667","6500900","三峽區"
"237013","252-BX","2018/02/08 18:39:28","新北市三峽區光明路69巷25號","121.376736666667","24.9292466666667","6500900","三峽區"
"237012","275-BY","2018/02/08 18:39:24","新北市三峽區三樹路212-1號","121.379381666667","24.9421516666667","6500900","三峽區"
"237008","302-VK","2018/02/08 18:39:12","新北市三峽區白雞68-303號","121.391433333333","24.9097883333333","6500900","三峽區"
"237014","433-BY","2018/02/08 18:39:29","新北市三峽區和平街91-3號","121.370213333333","24.937625","6500900","三峽區"
"237006","5529-G3","2018/02/08 18:39:33","新北市三峽區溪東路315巷3弄1號","121.410705","24.930905","6500900","三峽區"
"237016","649-BX","2018/02/08 18:39:33","新北市三峽區竹崙路79號","121.431948333333","24.9202333333333","6500900","三峽區"
"237010","706-TV","2018/02/08 18:39:28","新北市三峽區復興路361號","121.363738333333","24.9385666666667","6500900","三峽區"
"237005","AKY-6261","2018/02/08 18:39:21","新北市三峽區文化路1-1號","121.373456666667","24.93486","6500900","三峽區"
"236071","105-UM","2018/02/08 18:39:16","新北市土城區永豐路236號","121.467356666667","24.981005","6501300","土城區"
"236042","107-UM","2018/02/08 18:39:31","新北市土城區學成路108巷3號","121.449905","24.9894633333333","6501300","土城區"
"236078","166-UM","2018/02/08 18:39:13","新北市土城區大暖路20巷2號","121.423548333333","24.9599533333333","6501300","土城區"
"236030","253-BX","2018/02/08 18:39:26","新北市土城區慶利街30號","121.438948333333","24.97445","6501300","土城區"
"236026","269-VK","2018/02/08 18:39:26","新北市土城區千歲路28巷6號","121.441366666667","24.9687566666667","6501300","土城區"
"236014","270-VK","2018/02/08 18:39:22","新北市土城區清水路207巷25號","121.459655","24.9826466666667","6501300","土城區"
"236037","271-VK","2018/02/08 18:39:33","新北市土城區明德路一段291巷11弄22號","121.461031666667","24.9759816666667","6501300","土城區"
"236021","401-BY","2018/02/08 18:39:23","新北市土城區延吉街253巷4號","121.467578333333","24.984585","6501300","土城區"
"236058","912-UM","2018/02/08 18:39:19","新北市土城區中央路四段33號","121.423463333333","24.9620966666667","6501300","土城區"
"236051","913-UM","2018/02/08 18:39:26","新北市土城區明德路一段24號","121.465066666667","24.98487","6501300","土城區"
"236062","915-UM","2018/02/08 18:39:15","新北市土城區延壽路13巷40號","121.469948333333","24.9914166666667","6501300","土城區"
"236053","AAC-216","2018/02/08 18:39:20","新北市土城區中華路一段50號","121.44592","24.9887933333333","6501300","土城區"
"242042","400-BY","2018/02/08 18:39:20","新北市新莊區天祥街82巷3號","121.415563333333","25.0297466666667","6500500","新莊區"
"242061","362-BY","2018/02/08 18:39:12","新北市新莊區民安路186號","121.425316666667","25.0236366666667","6500500","新莊區"
"242058","353-BY","2018/02/08 18:39:21","新北市新莊區中正路887-3號","121.416816666667","25.024615","6500500","新莊區"
"242036","133-UY","2018/02/08 18:39:26","新北市新莊區環漢路三段532號","121.43505","25.00048","6500500","新莊區"
"242051","347-TH","2018/02/08 18:39:21","新北市新莊區新樹路603號","121.43307","25.0057083333333","6500500","新莊區"
"238015","755-BX","2018/02/08 18:39:24","新北市樹林區備內街166號","121.406035","24.9896283333333","6500700","樹林區"
"238023","601-UM","2018/02/08 18:39:31","新北市樹林區三福街114號","121.406426666667","25.016345","6500700","樹林區"
"238019","599-UM","2018/02/08 18:39:17","新北市樹林區中華路190-16號","121.41164","24.9807133333333","6500700","樹林區"
"238018","571-TV","2018/02/08 18:39:25","新北市樹林區樹新路66號","121.429083333333","24.9971583333333","6500700","樹林區"
"238024","5061-A6","2018/02/08 18:39:26","新北市樹林區中山路二段110-1號","121.41403","24.98328","6500700","樹林區"
"238003","KEA-2539","2018/02/08 18:39:27","新北市樹林區八德街828-2號","121.393925","24.967715","6500700","樹林區"
"238025","303-VK","2018/02/08 18:39:33","新北市樹林區中山路三段339號","121.390441666667","24.9711483333333","6500700","樹林區"
"238020","268-VK","2018/02/08 18:39:34","新北市樹林區俊興街277號","121.418325","25.018195","6500700","樹林區"
"238026","172-UY","2018/02/08 18:39:20","新北市樹林區信和街126-1號","121.387705","24.9733566666667","6500700","樹林區"
"238016","169-UY","2018/02/08 18:39:25","新北市樹林區文化街28-1號","121.419176666667","24.9879666666667","6500700","樹林區"
"239007","AAC-297","2018/02/08 18:39:14","新北市鶯歌區育英街53號","121.347105","24.95267","6500800","鶯歌區"
"239008","527-UM","2018/02/08 18:39:15","新北市鶯歌區國際一路14號","121.33619","24.97654","6500800","鶯歌區"
"239005","526-UM","2018/02/08 18:39:23","新北市鶯歌區鳳吉三街2號","121.325783333333","24.972825","6500800","鶯歌區"
"239001","417-VK","2018/02/08 18:39:23","新北市鶯歌區二橋街43號","121.336793333333","24.93894","6500800","鶯歌區"
"239003","360-BY","2018/02/08 18:39:30","新北市鶯歌區永和街99巷2號","121.333633333333","24.96838","6500800","鶯歌區"
"239004","193-VK","2018/02/08 18:39:22","新北市鶯歌區尖山路103-6號","121.348093333333","24.948785","6500800","鶯歌區"
"221008","489-VK","2018/02/08 18:36:16","新北市汐止區康寧街901號","121.651415","25.07504","6501100","汐止區"
"221036","130-UY","2018/02/08 18:39:31","新北市汐止區南昌街31號","121.663085","25.0692116666667","6501100","汐止區"
"221010","269-BY","2018/02/08 18:39:22","新北市汐止區瑞松街26號","121.64574","25.1054783333333","6501100","汐止區"
"221012","278-VK","2018/02/08 18:39:34","新北市汐止區長興街一段50號","121.670555","25.07924","6501100","汐止區"
"221023","279-VK","2018/02/08 18:39:33","新北市汐止區康寧街541巷16號","121.633728333333","25.06936","6501100","汐止區"
"221032","280-BY","2018/02/08 18:39:01","新北市汐止區福山街58巷15號","121.618185","25.0459816666667","6501100","汐止區"
"221027","281-BY","2018/02/08 18:39:23","新北市汐止區和平街84號","121.661336666667","25.0707866666667","6501100","汐止區"
"221002","297-VK","2018/02/08 18:39:12","新北市汐止區中興路25號","121.636898333333","25.0595966666667","6501100","汐止區"
"221029","298-VK","2018/02/08 18:39:26","新北市汐止區樟樹一路131號","121.642196666667","25.0650016666667","6501100","汐止區"
"221021","299-VK","2018/02/08 18:39:16","新北市汐止區復興路53巷2號","121.656888333333","25.06255","6501100","汐止區"
"221031","353-TW","2018/02/08 18:39:30","新北市汐止區大同路一段312號","121.637293333333","25.0588066666667","6501100","汐止區"
"221035","622-UM","2018/02/08 18:39:14","新北市汐止區大同路二段103巷2號","121.649275","25.063805","6501100","汐止區"
"221025","623-UM","2018/02/08 18:39:21","新北市汐止區仁愛路119巷10號","121.662398333333","25.064035","6501100","汐止區"
"221038","646-BX","2018/02/08 18:39:24","新北市汐止區大同路二段430號","121.65919","25.0671116666667","6501100","汐止區"
"221033","647-BX","2018/02/08 18:39:22","新北市汐止區南勢街1巷1號","121.62704","25.0374466666667","6501100","汐止區"
"221018","753-BX","2018/02/08 18:39:29","新北市汐止區茄苳路250巷13號","121.67161","25.0678083333333","6501100","汐止區"
"220079","145-BY","2018/02/08 18:39:29","新北市板橋區光華街1號","121.454168333333","25.0111566666667","6500100","板橋區"
"220080","200-UY","2018/02/08 18:39:27","新北市板橋區大觀路二段431-1號","121.441546666667","24.995055","6500100","板橋區"
"220056","276-BY","2018/02/08 18:39:22","新北市板橋區四川路二段253號","121.450203333333","24.993275","6500100","板橋區"
"220072","277-BY","2018/02/08 18:39:15","新北市板橋區大觀路二段443-2號","121.439166666667","24.9952283333333","6500100","板橋區"
"220101","280-UM","2018/02/08 18:39:31","新北市板橋區民生路二段161巷7號","121.470213333333","25.0196833333333","6500100","板橋區"
"220071","283-VK","2018/02/08 18:39:26","新北市板橋區四川路二段241號","121.450621666667","24.9937733333333","6500100","板橋區"
"220094","285-UM","2018/02/08 18:39:25","新北市板橋區民生路二段161巷1號","121.470053333333","25.019845","6500100","板橋區"
"220053","285-VK","2018/02/08 18:39:31","新北市板橋區民生路二段120號","121.470308333333","25.0199266666667","6500100","板橋區"
"220083","286-VK","2018/02/08 18:39:28","新北市板橋區大觀路二段153巷46弄11-7號","121.449191666667","24.9974633333333","6500100","板橋區"
"220090","288-VK","2018/02/08 18:39:28","新北市板橋區民生路二段161巷5號","121.470258333333","25.01973","6500100","板橋區"
"220061","293-UM","2018/02/08 18:39:27","新北市板橋區民生路二段120號","121.470383333333","25.0196983333333","6500100","板橋區"
"220084","296-UM","2018/02/08 18:39:33","新北市板橋區大觀路二段力行1巷3弄2號","121.445473333333","24.999135","6500100","板橋區"
"220075","303-R5","2018/02/08 18:39:23","新北市板橋區大觀路二段57號","121.4466","25.00277","6500100","板橋區"
"220098","317-R6","2018/02/08 18:39:30","新北市板橋區民生路二段161巷1號","121.470198333333","25.0199333333333","6500100","板橋區"
"220064","486-VK","2018/02/08 18:39:33","新北市板橋區縣民大道一段193號","121.459175","25.008235","6500100","板橋區"
"242044","280-VK","2018/02/08 18:39:28","新北市新莊區新北大道七段840號","121.413678333333","25.023795","6500500","新莊區"
"220088","491-VK","2018/02/08 18:39:30","新北市板橋區民生路二段175號","121.469825","25.0202533333333","6500100","板橋區"
"220035","560-BX","2018/02/08 18:39:24","新北市板橋區南雅西路二段145巷10號","121.451523333333","25.0120366666667","6500100","板橋區"
"220062","568-UM","2018/02/08 18:39:30","新北市板橋區華東街1-10號","121.448231666667","24.9949716666667","6500100","板橋區"
"220063","609-BX","2018/02/08 18:39:25","新北市板橋區民生路二段175號","121.469896666667","25.0202766666667","6500100","板橋區"
"220057","686-BX","2018/02/08 18:39:24","新北市板橋區華東街1-9號","121.448206666667","24.99492","6500100","板橋區"
"220077","687-BX","2018/02/08 18:39:27","新北市板橋區大觀路二段431-1號","121.441568333333","24.9950333333333","6500100","板橋區"
"220055","827-TW","2018/02/08 18:39:25","新北市板橋區華東街1-9號","121.448156666667","24.9948933333333","6500100","板橋區"
"220067","829-TW","2018/02/08 18:39:24","新北市板橋區民生路二段120號","121.470323333333","25.019725","6500100","板橋區"
"220074","895-R6","2018/02/08 18:39:24","新北市板橋區南雅南路二段144巷12號","121.45096","24.9958483333333","6500100","板橋區"
"220073","985-R7","2018/02/08 18:39:29","新北市板橋區貴興路73號","121.45699","25.0030533333333","6500100","板橋區"
"220070","AAC-253","2018/02/08 18:39:13","新北市板橋區華東街1-8號","121.447838333333","24.9948083333333","6500100","板橋區"
