"lineid","car","time","location","longitude","latitude","cityid","cityname"
"234046","148-BY","2018/02/08 19:19:32","新北市永和區得和路375號","121.52469","24.999405","6500400","永和區"
"234007","207-UY","2018/02/08 19:19:30","新北市永和區中山路一段305號","121.50654","25.0066766666667","6500400","永和區"
"234081","298-R6","2018/02/08 19:19:44","新北市永和區福和路7巷5弄5號","121.525405","25.0080516666667","6500400","永和區"
"234038","336-UY","2018/02/08 19:19:41","新北市永和區民樂街59巷1-1號","121.527695","24.998355","6500400","永和區"
"234064","337-UY","2018/02/08 19:19:34","新北市永和區永元路17巷6弄2號","121.521393333333","25.0006466666667","6500400","永和區"
"234086","338-UY","2018/02/08 19:19:38","新北市永和區永利路69號","121.519596666667","25.0048333333333","6500400","永和區"
"234070","552-UM","2018/02/08 19:19:36","新北市永和區中正路700號","121.516321666667","25.0099133333333","6500400","永和區"
"234017","745-BX","2018/02/08 19:19:38","新北市永和區文化路144巷31弄8號","121.512375","25.0167733333333","6500400","永和區"
"234030","746-BX","2018/02/08 19:19:43","新北市永和區厚德街64號","121.524171666667","24.99884","6500400","永和區"
"234054","KEA-2590","2018/02/08 19:19:43","新北市永和區中興街37號","121.516275","25.0117883333333","6500400","永和區"
"234013","KEA-2591","2018/02/08 19:19:41","新北市永和區信義路50號","121.51322","25.0124183333333","6500400","永和區"
"234061","AAD-866","2018/02/08 19:19:44","新北市永和區秀朗路一段175號","121.51696","25.0037066666667","6500400","永和區"
"234042","862-TW","2018/02/08 19:19:44","新北市永和區保平路151巷2弄1號","121.510086666667","25.0055766666667","6500400","永和區"
"234050","863-TW","2018/02/08 19:19:34","新北市永和區保福路二段88巷22號","121.511688333333","25.0135866666667","6500400","永和區"
"234026","9371-KE","2018/02/08 19:19:35","新北市永和區安樂路144巷29號","121.515183333333","24.9998266666667","6500400","永和區"
"234011","9373-KE","2018/02/08 19:19:15","新北市永和區保福路二段9巷7號","121.510655","25.0108133333333","6500400","永和區"
"249001","173-UM","2018/02/08 19:19:41","新北市八里區中華路二段103-1號","121.40923","25.1523216666667","6502300","八里區"
"249002","305-UY","2018/02/08 19:19:35","新北市八里區頂寮二街138號","121.449325","25.1294566666667","6502300","八里區"
"249003","593-UM","2018/02/08 19:19:31","新北市八里區中山路二段466巷3號","121.3988","25.1474233333333","6502300","八里區"
"248020","225-UY","2018/02/08 19:00:39","新北市五股區凌雲路三段57號","121.425273333333","25.125025","6501500","五股區"
"248012","247-BX","2018/02/08 19:19:38","新北市五股區中興路四段38巷9號","121.438838333333","25.0832233333333","6501500","五股區"
"248004","677-BX","2018/02/08 19:19:33","新北市五股區工商路148-5號","121.433556666667","25.0872783333333","6501500","五股區"
"248002","678-BX","2018/02/08 19:19:48","新北市五股區凌雲路一段158巷14-1號","121.447881666667","25.10343","6501500","五股區"
"248010","682-TV","2018/02/08 19:19:44","新北市五股區水碓一路23號","121.43062","25.0713566666667","6501500","五股區"
"234023","9380-KE","2018/02/08 19:19:43","新北市永和區竹林路126號","121.519861666667","25.01136","6500400","永和區"
"234077","969-R7","2018/02/08 19:19:38","新北市永和區民權路36巷19號","121.518878333333","24.99905","6500400","永和區"
"234074","AAC-211","2018/02/08 19:19:30","新北市永和區竹林路104號","121.519655","25.01193","6500400","永和區"
"234067","AAC-212","2018/02/08 19:19:31","新北市永和區保平路50巷1號","121.51122","25.0071516666667","6500400","永和區"
"234003","AAC-295","2018/02/08 19:19:34","新北市永和區永平路181號","121.510308333333","25.0093","6500400","永和區"
"244013","069-UM","2018/02/08 19:19:40","新北市林口區文化一路一段126號","121.37549","25.0722883333333","6501700","林口區"
"244019","402-UM","2018/02/08 19:19:43","新北市林口區文化二路一段472號","121.375858333333","25.0781166666667","6501700","林口區"
"244023","483-VK","2018/02/08 19:19:30","新北市林口區文化三路一段555巷50號","121.369816666667","25.0768733333333","6501700","林口區"
"244011","701-TV","2018/02/08 19:19:40","新北市林口區竹林路63號","121.387678333333","25.0784866666667","6501700","林口區"
"244025","837-TS","2018/02/08 19:19:38","新北市林口區文化北路一段542巷55弄1號","121.368858333333","25.0791133333333","6501700","林口區"
"243012","AAD-798","2018/02/08 19:19:40","新北市泰山區仁愛路98號","121.433283333333","25.0551533333333","6501600","泰山區"
"243011","297-R6","2018/02/08 19:19:46","新北市泰山區中央路11巷2號","121.426318333333","25.0427066666667","6501600","泰山區"
"243015","380-SR","2018/02/08 19:19:33","新北市泰山區公園路71號","121.426388333333","25.0554183333333","6501600","泰山區"
"243014","421-VK","2018/02/08 19:19:35","新北市泰山區泰林路二段21-17號","121.436478333333","25.05597","6501600","泰山區"
"243010","KEA-2215","2018/02/08 19:19:37","新北市泰山區明志路一段492巷6弄2號","121.429913333333","25.0548483333333","6501600","泰山區"
"243009","KEA-2216","2018/02/08 19:19:36","新北市泰山區明志路一段19巷7號","121.434118333333","25.06569","6501600","泰山區"
"243013","646-TV","2018/02/08 19:19:29","新北市泰山區明志路三段145巷2弄15號","121.425075","25.0393316666667","6501600","泰山區"
"243016","680-BX","2018/02/08 19:19:34","新北市泰山區工專路57號","121.422631666667","25.0403516666667","6501600","泰山區"
"222003","436-BY","2018/02/08 19:19:40","新北市深坑區深南路91號","121.626585","25.0159766666667","6501800","深坑區"
"222002","659-BX","2018/02/08 19:19:48","新北市深坑區紅葉街2號","121.63317","25.0112116666667","6501800","深坑區"
"231041","002-UM","2018/02/08 19:19:48","新北市新店區溪園路245-2號","121.525548333333","24.9834483333333","6500600","新店區"
"231059","046-UY","2018/02/08 19:19:44","新北市新店區安和路三段29-2號","121.517395","24.9812566666667","6500600","新店區"
"231061","047-UY","2018/02/08 19:19:34","新北市新店區安康路一段222號","121.523771666667","24.9635466666667","6500600","新店區"
"231060","106-UY","2018/02/08 19:19:45","新北市新店區安康路二段136號","121.512518333333","24.962035","6500600","新店區"
"231051","107-UY","2018/02/08 19:19:35","新北市新店區中央路99號","121.531068333333","24.9750833333333","6500600","新店區"
"231047","108-UY","2018/02/08 19:19:34","新北市新店區中興路二段79巷12號","121.546375","24.9713716666667","6500600","新店區"
"231049","110-UY","2018/02/08 19:19:32","新北市新店區明德路111號","121.541528333333","24.9794783333333","6500600","新店區"
"231052","187-VK","2018/02/08 19:19:38","新北市新店區自強路215號","121.546846666667","24.919545","6500600","新店區"
"231064","189-VK","2018/02/08 19:19:30","新北市新店區安忠路57巷26弄3號","121.513013333333","24.9587","6500600","新店區"
"231050","KEA-2219","2018/02/08 19:19:27","新北市新店區竹林路71-7號","121.55354","24.9513233333333","6500600","新店區"
"221015","KEA-2785","2018/02/08 19:19:45","新北市汐止區汐萬路一段256巷3號","121.653338333333","25.0746883333333","6501100","汐止區"
"231046","278-BY","2018/02/08 19:19:39","新北市新店區華城路36巷1-1號","121.528431666667","24.9553133333333","6500600","新店區"
"231054","AAD-862","2018/02/08 19:19:26","新北市新店區國校路20號","121.53787","24.9552216666667","6500600","新店區"
"231058","3712-VJ","2018/02/08 19:19:29","新北市新店區北新路二段94號","121.542938333333","24.9730366666667","6500600","新店區"
"231056","3713-VJ","2018/02/08 19:19:38","新北市新店區民權路107-2號","121.536485","24.98214","6500600","新店區"
"231067","4772-VM","2018/02/08 19:19:44","新北市新店區安康路二段414巷2號","121.495968333333","24.9577266666667","6500600","新店區"
"231042","616-UM","2018/02/08 19:19:43","新北市新店區中興路一段24-2號","121.53857","24.958335","6500600","新店區"
"231044","618-UM","2018/02/08 19:19:26","新北市新店區中興路三段309號","121.542013333333","24.9858783333333","6500600","新店區"
"231040","619-UM","2018/02/08 19:19:44","新北市新店區三民路24號","121.537065","24.9710433333333","6500600","新店區"
"231063","645-TV","2018/02/08 19:19:45","新北市新店區達觀路14巷8號","121.503168333333","24.9432633333333","6500600","新店區"
"231065","719-UY","2018/02/08 19:19:43","新北市新店區安祥路108巷53號","121.47434","24.957095","6500600","新店區"
"231062","720-UM","2018/02/08 19:19:40","新北市新店區莒光路59號","121.523416666667","24.958875","6500600","新店區"
"231045","898-TW","2018/02/08 19:19:46","新北市新店區北宜路一段193號","121.547251666667","24.952315","6500600","新店區"
"231043","899-TW","2018/02/08 19:19:43","新北市新店區北新路二段108號","121.542955","24.9743766666667","6500600","新店區"
"231066","AKT-0513","2018/02/08 19:19:44","新北市新店區安康路三段355巷20號","121.484866666667","24.949865","6500600","新店區"
"241011","013-R5","2018/02/08 19:19:30","新北市三重區秀江街213號","121.49746","25.0716433333333","6500200","三重區"
"241009","060-VK","2018/02/08 19:19:43","新北市三重區溪尾街230巷42-1號","121.486178333333","25.081175","6500200","三重區"
"241031","061-VK","2018/02/08 19:19:34","新北市三重區重新路四段190號","121.486175","25.0549233333333","6500200","三重區"
"241017","063-VK","2018/02/08 19:19:30","新北市三重區大同北路217號","121.491538333333","25.0659716666667","6500200","三重區"
"241026","066-VK","2018/02/08 19:19:33","新北市三重區大同南路200巷42號","121.497995","25.057015","6500200","三重區"
"241014","156-TC","2018/02/08 19:19:39","新北市三重區長元街98巷18弄7號","121.50223","25.0676183333333","6500200","三重區"
"241022","267-UM","2018/02/08 19:19:31","新北市三重區中正北路60號","121.486861666667","25.0643816666667","6500200","三重區"
"241032","269-UM","2018/02/08 19:19:35","新北市三重區新生街94號","121.483535","25.05928","6500200","三重區"
"241013","270-UM","2018/02/08 19:19:31","新北市三重區仁福街64巷19號","121.497751666667","25.075315","6500200","三重區"
"241025","271-UM","2018/02/08 19:19:45","新北市三重區中正北路404號","121.475388333333","25.07035","6500200","三重區"
"241007","398-BY","2018/02/08 19:19:38","新北市三重區慈愛街47號","121.485986666667","25.0790483333333","6500200","三重區"
"241020","413-TH","2018/02/08 19:19:45","新北市三重區大智街238-3號","121.48943","25.072785","6500200","三重區"
"241030","480-VK","2018/02/08 19:19:47","新北市三重區成功路41巷95號","121.491508333333","25.0531233333333","6500200","三重區"
"241001","547-UM","2018/02/08 19:19:30","新北市三重區三和路四段89巷16號","121.489718333333","25.0759333333333","6500200","三重區"
"241029","942-UM","2018/02/08 19:19:41","新北市三重區重安街39號","121.491285","25.0567683333333","6500200","三重區"
"235066","003-UY","2018/02/08 19:19:33","新北市中和區中和路101號","121.50146","25.0005133333333","6500300","中和區"
"235064","005-UY","2018/02/08 19:19:40","新北市中和區中和路33號","121.499971666667","25.0017683333333","6500300","中和區"
"235063","006-UY","2018/02/08 19:19:33","新北市中和區連城路249巷5號","121.493741666667","24.996815","6500300","中和區"
"235056","096-UM","2018/02/08 19:19:44","新北市中和區員山路529號","121.479703333333","25.0069333333333","6500300","中和區"
"235039","097-UM","2018/02/08 19:19:40","新北市中和區自立路58巷4號","121.523458333333","24.9915183333333","6500300","中和區"
"235065","098-UM","2018/02/08 19:19:29","新北市中和區中山路二段136巷6弄8號","121.502221666667","25.0040616666667","6500300","中和區"
"235040","150-BY","2018/02/08 19:19:29","新北市中和區保健路50巷41號","121.509826666667","24.9958916666667","6500300","中和區"
"235058","151-BY","2018/02/08 19:19:33","新北市中和區連城路523巷13弄18號","121.482118333333","24.9936883333333","6500300","中和區"
"235055","183-VK","2018/02/08 19:19:27","新北市中和區德光路53號","121.470071666667","25.0039766666667","6500300","中和區"
"235038","185-VK","2018/02/08 19:19:49","新北市中和區大仁街10巷48-6號","121.520266666667","24.992535","6500300","中和區"
"235049","186-VK","2018/02/08 19:19:31","新北市中和區景新街229號","121.507963333333","24.9946433333333","6500300","中和區"
"235067","255-BX","2018/02/08 19:19:43","新北市中和區新生街177巷5號","121.484095","25.0007166666667","6500300","中和區"
"235044","293-VK","2018/02/08 19:19:43","新北市中和區復興路312號","121.501063333333","24.9904266666667","6500300","中和區"
"235043","352-BY","2018/02/08 19:19:46","新北市中和區景平路336號","121.511848333333","24.99287","6500300","中和區"
"235068","377-QA","2018/02/08 19:19:49","新北市中和區安邦街95號","121.497221666667","24.9960983333333","6500300","中和區"
"235061","378-QA","2018/02/08 19:19:34","新北市中和區中山路三段63巷9號","121.477193333333","25.0042633333333","6500300","中和區"
"235071","269-TV","2018/02/08 19:19:45","新北市中和區中正路657號","121.484885","24.995965","6500300","中和區"
"235050","4979-A6","2018/02/08 19:19:30","新北市中和區景安路208巷44號","121.502351666667","24.9921383333333","6500300","中和區"
"235069","4980-A6","2018/02/08 19:19:27","新北市中和區廣福路116號","121.501923333333","25.001135","6500300","中和區"
"235042","551-UM","2018/02/08 19:19:36","新北市中和區大勇街60巷14弄6號","121.51844","24.9945883333333","6500300","中和區"
"235045","565-BX","2018/02/08 19:19:31","新北市中和區景新街423巷26號","121.514365","24.9896916666667","6500300","中和區"
"235054","640-BX","2018/02/08 19:19:35","新北市中和區國光街111號","121.469945","25.0004616666667","6500300","中和區"
"235060","647-TV","2018/02/08 19:19:47","新北市中和區員山路469巷1號","121.480321666667","25.0044966666667","6500300","中和區"
"235047","732-UM","2018/02/08 19:14:47","新北市中和區和平街38巷20號","121.509675","24.9909933333333","6500300","中和區"
"235046","733-UM","2018/02/08 19:19:39","新北市中和區忠孝街2巷11弄2號","121.510398333333","24.981965","6500300","中和區"
"235057","801-TS","2018/02/08 19:19:39","新北市中和區民利街1號","121.481003333333","24.999185","6500300","中和區"
"235041","802-TS","2018/02/08 19:19:28","新北市中和區景安路9號","121.508013333333","24.99894","6500300","中和區"
"235052","805-TS","2018/02/08 19:19:32","新北市中和區華新街151號","121.506153333333","24.9816066666667","6500300","中和區"
"235048","896-TW","2018/02/08 19:19:45","新北市中和區忠孝街99-3號","121.512003333333","24.9860783333333","6500300","中和區"
"235053","900-TW","2018/02/08 19:19:44","新北市中和區民德路197號","121.468308333333","24.9981766666667","6500300","中和區"
"235063","911-UM","2018/02/08 19:15:20","新北市中和區連城路265巷1號","121.491353333333","24.996455","6500300","中和區"
"235051","157-BY","2018/02/08 19:19:46","新北市中和區興南路一段56巷5號","121.510436666667","24.99125","6500300","中和區"
"235037","AAC-213","2018/02/08 19:19:45","新北市中和區秀朗路三段50巷29弄1號","121.524076666667","24.9951533333333","6500300","中和區"
"235059","AAC-215","2018/02/08 19:19:41","新北市中和區圓通路365號","121.491331666667","24.9895333333333","6500300","中和區"
"220068","013-TV","2018/02/08 19:19:48","新北市板橋區翠華街6巷42號","121.481495","25.024645","6500100","板橋區"
"220065","072-UY","2018/02/08 19:19:39","新北市板橋區民族路170巷1號","121.46745","25.0075883333333","6500100","板橋區"
"220086","073-UY","2018/02/08 19:19:47","新北市板橋區國光路179號","121.46074","25.0184666666667","6500100","板橋區"
"220106","075-UY","2018/02/08 19:19:42","新北市板橋區雙十路三段15號","121.471045","25.03114","6500100","板橋區"
"220069","AAD-861","2018/02/08 19:19:41","新北市板橋區四川路一段102號","121.459573333333","25.00472","6500100","板橋區"
"247012","402-BY","2018/02/08 19:19:27","新北市五股區中興路三段5號","121.44946","25.08044","6501400","蘆洲區"
"247004","336-TH","2018/02/08 19:19:27","新北市五股區中興路三段163號","121.449315","25.080835","6501400","蘆洲區"
"226004","312-R5","2018/02/08 19:19:14","新北市平溪區十分里十分街106號","121.776851666667","25.04288","6502400","平溪區"
"228003","097-TW","2018/02/08 19:19:37","新北市貢寮區和美里和美街22-1號","121.912805","25.0826366666667","6502600","貢寮區"
"228001","212-TW","2018/02/08 19:19:38","新北市貢寮區真理里新港街10號","121.925483333333","25.0543866666667","6502600","貢寮區"
"228002","585-TW","2018/02/08 19:19:33","新北市貢寮區雙玉里田寮洋街21號","121.927918333333","25.023535","6502600","貢寮區"
"224006","676-BX","2018/02/08 19:19:41","新北市瑞芳區中山路202號","121.800991666667","25.1067833333333","6501200","瑞芳區"
"224009","285-BY","2018/02/08 19:19:39","新北市瑞芳區洞頂路101巷56號","121.860498333333","25.1219233333333","6501200","瑞芳區"
"224008","275-VK","2018/02/08 19:19:32","新北市瑞芳區明燈路三段263號","121.798945","25.1120366666667","6501200","瑞芳區"
"224005","271-BY","2018/02/08 19:19:43","新北市瑞芳區三爪子坑路63號","121.812676666667","25.1073533333333","6501200","瑞芳區"
"227004","642-TC","2018/02/08 19:19:44","新北市雙溪區平林里梅竹蹊66-1號","121.860125","25.035845","6502500","雙溪區"
"227010","400-TW","2018/02/08 19:19:44","新北市雙溪區新基里新基北街40號","121.868525","25.0380483333333","6502500","雙溪區"
"253005","032-BX","2018/02/08 19:19:38","新北市石門區阿里荖5-4號","121.609656666667","25.2798066666667","6502200","石門區"
"253006","741-TV","2018/02/08 19:19:31","新北市石門區崁子腳18-9號","121.534303333333","25.2901483333333","6502200","石門區"
"222001","KEA-2212","2018/02/08 19:19:28","新北市深坑區北深路二段84號","121.617538333333","25.0034783333333","6501800","深坑區"
"208002","742-BX","2018/02/08 19:19:34","新北市金山區中正路67號","121.633878333333","25.221695","6502700","金山區"
"208003","665-BX","2018/02/08 19:19:43","新北市金山區中山路141號","121.639071666667","25.220155","6502700","金山區"
"208001","761-BX","2018/02/08 19:19:27","新北市金山區慈護街25號","121.639495","25.2200666666667","6502700","金山區"
"251009","008-UM","2018/02/08 19:19:46","新北市淡水區中正路30號","121.444148333333","25.1691266666667","6501000","淡水區"
"251005","010-UM","2018/02/08 19:19:37","新北市淡水區水源街一段29號","121.443218333333","25.1724516666667","6501000","淡水區"
"251013","179-VK","2018/02/08 19:19:43","新北市淡水區安子內12號","121.481588333333","25.2190833333333","6501000","淡水區"
"251014","180-VK","2018/02/08 19:19:32","新北市淡水區小中寮19-7號","121.484731666667","25.22968","6501000","淡水區"
"251008","181-VK","2018/02/08 19:19:39","新北市淡水區中正路二段31號","121.419148333333","25.1817216666667","6501000","淡水區"
"251015","182-VK","2018/02/08 19:19:33","新北市淡水區山子邊16巷2號","121.48573","25.18301","6501000","淡水區"
"251010","413-VK","2018/02/08 19:19:34","新北市淡水區沙崙路28號","121.421455","25.1814433333333","6501000","淡水區"
"251012","441-VK","2018/02/08 19:19:28","新北市淡水區崁頂132號","121.431355","25.205355","6501000","淡水區"
"251016","442-VK","2018/02/08 19:19:38","新北市淡水區淡金路三段350巷18號","121.450808333333","25.20838","6501000","淡水區"
"251001","559-UM","2018/02/08 19:19:33","新北市淡水區自強路283-3號","121.461251666667","25.1281283333333","6501000","淡水區"
"251006","561-UM","2018/02/08 19:19:37","新北市淡水區大信街33號","121.441955","25.1773183333333","6501000","淡水區"
"251007","577-R6","2018/02/08 19:19:40","新北市淡水區民生路117巷22號","121.465035","25.1393483333333","6501000","淡水區"
"251003","766-UM","2018/02/08 19:19:47","新北市淡水區大義街3號","121.443756666667","25.1779166666667","6501000","淡水區"
"207003","550-UM","2018/02/08 19:19:40","新北市萬里區大鵬里萬里加投79號","121.647141666667","25.2122233333333","6502800","萬里區"
"207004","225-TW","2018/02/08 19:19:33","新北市萬里區萬里里成功新村44號","121.687703333333","25.1746283333333","6502800","萬里區"
"252002","178-VK","2018/02/08 19:19:46","新北市三芝區淡金路二段18-1號","121.502643333333","25.25952","6502100","三芝區"
"252001","292-VK","2018/02/08 19:19:46","新北市三芝區長勤街9巷9弄2號","121.501778333333","25.2549116666667","6502100","三芝區"
"237004","KEA-2597","2018/02/08 19:19:47","新北市三峽區有木205-1號","121.43905","24.8515666666667","6500900","三峽區"
"237007","153-BY","2018/02/08 19:19:43","新北市三峽區麻園13-2號","121.362616666667","24.9156216666667","6500900","三峽區"
"237009","210-TH","2018/02/08 19:19:34","新北市三峽區民生街186號","121.370856666667","24.93488","6500900","三峽區"
"237013","252-BX","2018/02/08 19:19:28","新北市三峽區光明路75巷20號","121.377528333333","24.9281233333333","6500900","三峽區"
"237012","275-BY","2018/02/08 19:19:44","新北市三峽區三樹路222巷236弄23號","121.391366666667","24.943045","6500900","三峽區"
"237008","302-VK","2018/02/08 19:19:32","新北市三峽區大同路103號","121.374498333333","24.9269733333333","6500900","三峽區"
"237014","433-BY","2018/02/08 19:19:29","新北市三峽區中山路277巷17號","121.36175","24.9367983333333","6500900","三峽區"
"237006","5529-G3","2018/02/08 19:19:33","新北市三峽區橫溪路95號","121.398483333333","24.935415","6500900","三峽區"
"237010","706-TV","2018/02/08 19:19:48","新北市三峽區復興路49號","121.373345","24.9370233333333","6500900","三峽區"
"237005","AKY-6261","2018/02/08 19:19:41","新北市三峽區中山路459巷42號","121.356885","24.93719","6500900","三峽區"
"236071","105-UM","2018/02/08 19:19:36","新北市土城區中華路一段23號","121.446966666667","24.989115","6501300","土城區"
"236042","107-UM","2018/02/08 19:19:30","新北市土城區學府路一段276號","121.45011","24.9830866666667","6501300","土城區"
"236078","166-UM","2018/02/08 19:18:13","新北市土城區龍泉路41-1號","121.416133333333","24.9434316666667","6501300","土城區"
"236026","269-VK","2018/02/08 19:19:45","新北市土城區中央路二段177巷15號","121.443498333333","24.9762933333333","6501300","土城區"
"236014","270-VK","2018/02/08 19:19:40","新北市土城區學府路一段23巷25弄44號","121.4574","24.9861633333333","6501300","土城區"
"236021","401-BY","2018/02/08 19:19:43","新北市土城區峰廷街3號","121.469088333333","24.987335","6501300","土城區"
"236058","912-UM","2018/02/08 19:19:39","新北市土城區金城路一段131號","121.444823333333","24.9736883333333","6501300","土城區"
"236051","913-UM","2018/02/08 19:19:45","新北市土城區明德路一段398-1號","121.453648333333","24.9790883333333","6501300","土城區"
"242036","133-UY","2018/02/08 19:19:46","新北市樹林區中正路106-8號","121.424671666667","25.0015833333333","6500500","新莊區"
"238015","755-BX","2018/02/08 19:19:36","新北市樹林區備內街3號","121.413081666667","24.986795","6500700","樹林區"
"238023","601-UM","2018/02/08 19:19:31","新北市樹林區三興路41號","121.395885","25.01463","6500700","樹林區"
"238019","599-UM","2018/02/08 19:19:37","新北市樹林區東榮街54號","121.417025","24.9831","6500700","樹林區"
"238018","571-TV","2018/02/08 19:19:25","新北市樹林區中華路271號","121.417655","24.98025","6500700","樹林區"
"238024","5061-A6","2018/02/08 19:19:46","新北市樹林區福德街3號","121.4017","24.9757583333333","6500700","樹林區"
"238022","KEA-2213","2018/02/08 19:19:43","新北市樹林區中山路二段151巷6弄1號","121.40662","24.9785316666667","6500700","樹林區"
"238003","KEA-2539","2018/02/08 19:19:47","新北市樹林區柑園街二段342巷37號","121.371548333333","24.9518566666667","6500700","樹林區"
"238025","303-VK","2018/02/08 19:19:33","新北市樹林區中山路三段127號","121.396453333333","24.9732433333333","6500700","樹林區"
"238017","283-BY","2018/02/08 19:19:37","新北市樹林區光興街125號","121.408411666667","25.00244","6500700","樹林區"
"238014","282-BY","2018/02/08 19:19:27","新北市樹林區中正路22-1號","121.427726666667","24.9994933333333","6500700","樹林區"
"238020","268-VK","2018/02/08 19:19:34","新北市樹林區俊英街125巷12號","121.42355","25.0107916666667","6500700","樹林區"
"238026","172-UY","2018/02/08 19:19:39","新北市樹林區佳園路三段12號","121.38804","24.9544166666667","6500700","樹林區"
"238016","169-UY","2018/02/08 19:19:45","新北市樹林區中山路二段76巷10號","121.415085","24.98452","6500700","樹林區"
"239007","AAC-297","2018/02/08 19:19:34","新北市鶯歌區中正一路建德巷38號","121.364471666667","24.9577666666667","6500800","鶯歌區"
"239006","891-R6","2018/02/08 19:19:37","新北市鶯歌區鶯桃路242巷4號","121.336453333333","24.9597016666667","6500800","鶯歌區"
"239008","527-UM","2018/02/08 19:19:35","新北市鶯歌區國際二路6巷12號","121.338803333333","24.9737133333333","6500800","鶯歌區"
"239005","526-UM","2018/02/08 19:19:43","新北市鶯歌區中湖街88號","121.34833","24.9728166666667","6500800","鶯歌區"
"239001","417-VK","2018/02/08 19:19:42","新北市鶯歌區鶯桃路95巷17號","121.33844","24.9534233333333","6500800","鶯歌區"
"239003","360-BY","2018/02/08 19:19:30","新北市鶯歌區德昌街21號","121.333498333333","24.9599016666667","6500800","鶯歌區"
"239004","193-VK","2018/02/08 19:19:43","新北市鶯歌區中正三路156巷1號","121.334063333333","24.9391116666667","6500800","鶯歌區"
"221008","489-VK","2018/02/08 19:19:42","新北市汐止區康寧街338號","121.627736666667","25.0674533333333","6501100","汐止區"
"221036","130-UY","2018/02/08 19:19:31","新北市汐止區大同路二段339號","121.656361666667","25.06717","6501100","汐止區"
"221010","269-BY","2018/02/08 19:19:42","新北市汐止區康寧街901號","121.65155","25.0749666666667","6501100","汐止區"
"221012","278-VK","2018/02/08 19:19:34","新北市汐止區汐萬路一段273號","121.650478333333","25.074485","6501100","汐止區"
"221023","279-VK","2018/02/08 19:19:32","新北市汐止區康寧街901號","121.650953333333","25.0750983333333","6501100","汐止區"
"221027","281-BY","2018/02/08 19:19:43","新北市汐止區汐萬路一段273號","121.650423333333","25.0745633333333","6501100","汐止區"
"221002","297-VK","2018/02/08 19:19:32","新北市汐止區大同路一段319號","121.637991666667","25.0591366666667","6501100","汐止區"
"221029","298-VK","2018/02/08 19:19:46","新北市汐止區汐萬路一段256巷1號","121.651723333333","25.0748466666667","6501100","汐止區"
"221031","353-TW","2018/02/08 19:19:30","新北市汐止區福德三路127號","121.633633333333","25.0675383333333","6501100","汐止區"
"221025","623-UM","2018/02/08 19:19:40","新北市汐止區康寧街901號","121.65078","25.0753083333333","6501100","汐止區"
"221038","646-BX","2018/02/08 19:19:44","新北市汐止區汐萬路一段312號","121.650631666667","25.07532","6501100","汐止區"
"221033","647-BX","2018/02/08 19:19:42","新北市汐止區南勢街1巷1號","121.626993333333","25.0374416666667","6501100","汐止區"
"220079","145-BY","2018/02/08 19:19:38","新北市板橋區民權路202巷17弄7號","121.460421666667","25.016525","6500100","板橋區"
"220080","200-UY","2018/02/08 19:19:27","新北市板橋區大觀路二段1巷40號","121.450083333333","25.0037316666667","6500100","板橋區"
"220082","610-BX","2018/02/08 19:19:34","新北市板橋區滿平街84巷106號","121.426816666667","24.9865583333333","6500100","板橋區"
"220103","257-TC","2018/02/08 19:19:39","新北市板橋區文化路一段188巷7弄13號","121.46757","25.01974","6500100","板橋區"
"220091","267-BY","2018/02/08 19:19:43","新北市板橋區萬板路406號","121.478928333333","25.0253466666667","6500100","板橋區"
"220056","276-BY","2018/02/08 19:19:46","新北市板橋區信義路233-1號","121.459903333333","24.9911283333333","6500100","板橋區"
"220072","277-BY","2018/02/08 19:19:35","新北市板橋區金門街301號","121.430071666667","24.986435","6500100","板橋區"
"220101","280-UM","2018/02/08 19:19:31","新北市板橋區莊敬路220巷1號","121.472533333333","25.021375","6500100","板橋區"
"220071","283-VK","2018/02/08 19:19:26","新北市板橋區重慶路269巷31-3號","121.464266666667","24.9992316666667","6500100","板橋區"
"220094","285-UM","2018/02/08 19:19:45","新北市板橋區吳鳳路82號","121.466926666667","25.0313216666667","6500100","板橋區"
"220053","285-VK","2018/02/08 19:19:31","新北市板橋區富山街5號","121.478556666667","25.0215833333333","6500100","板橋區"
"220083","286-VK","2018/02/08 19:19:28","新北市板橋區大觀路二段174巷163弄2號","121.441766666667","25.0032733333333","6500100","板橋區"
"220090","288-VK","2018/02/08 19:19:28","新北市板橋區長江路一段156巷9弄2號","121.461488333333","25.02982","6500100","板橋區"
"220061","293-UM","2018/02/08 19:19:27","新北市板橋區中山路二段318巷17號","121.480413333333","25.0187183333333","6500100","板橋區"
"220062","295-UM","2018/02/08 19:19:38","新北市板橋區三民路二段245巷44號","121.480961666667","25.0124533333333","6500100","板橋區"
"220084","296-UM","2018/02/08 19:19:33","新北市板橋區溪崑二街22巷9號","121.428211666667","24.9915033333333","6500100","板橋區"
"220075","303-R5","2018/02/08 19:19:43","新北市板橋區南雅西路一段74號","121.453566666667","25.005255","6500100","板橋區"
"220092","307-R5","2018/02/08 19:19:32","新北市板橋區文化路二段225巷60弄20號","121.469213333333","25.0289116666667","6500100","板橋區"
"220098","317-R6","2018/02/08 19:19:35","新北市板橋區四維路100號","121.46573","25.0243733333333","6500100","板橋區"
"220064","486-VK","2018/02/08 19:19:33","新北市板橋區民生路一段33號","121.476141666667","25.0121016666667","6500100","板橋區"
"220089","487-VK","2018/02/08 19:19:45","新北市板橋區文化路一段322-1號","121.468053333333","25.02256","6500100","板橋區"
"220088","491-VK","2018/02/08 19:19:41","新北市板橋區雙十路一段20號","121.477991666667","25.024225","6500100","板橋區"
"220035","560-BX","2018/02/08 19:19:47","新北市板橋區中正路360巷57號","121.456478333333","25.02275","6500100","板橋區"
"220081","568-UM","2018/02/08 19:19:30","新北市板橋區南雅西路二段126號","121.452108333333","25.0125533333333","6500100","板橋區"
"220063","609-BX","2018/02/08 19:19:45","新北市板橋區三民路二段191號","121.479171666667","25.014055","6500100","板橋區"
"220057","686-BX","2018/02/08 19:19:44","新北市板橋區重慶路293號","121.46346","24.99929","6500100","板橋區"
"220077","687-BX","2018/02/08 19:19:47","新北市板橋區大觀路一段28巷40號","121.449913333333","25.0097666666667","6500100","板橋區"
"220054","741-BX","2018/02/08 19:19:37","新北市板橋區重慶路67巷28號","121.462745","25.00721","6500100","板橋區"
"220055","827-TW","2018/02/08 19:19:45","新北市板橋區新民街9號","121.463848333333","25.0098016666667","6500100","板橋區"
"220067","829-TW","2018/02/08 19:19:44","新北市板橋區長安街138巷3弄37號","121.473941666667","25.0096766666667","6500100","板橋區"
"220096","830-TW","2018/02/08 19:19:42","新北市板橋區大同街8巷4號","121.477058333333","25.0265616666667","6500100","板橋區"
"220093","833-TW","2018/02/08 19:19:46","新北市板橋區民生路三段21號","121.467326666667","25.0240583333333","6500100","板橋區"
"220074","895-R6","2018/02/08 19:19:44","新北市板橋區中正路自強新村45-1號","121.454755","25.0139116666667","6500100","板橋區"
"220073","985-R7","2018/02/08 19:19:39","新北市板橋區新生街32號","121.456338333333","25.0211616666667","6500100","板橋區"
"220097","AAC-210","2018/02/08 19:19:46","新北市板橋區漢生西路89巷3弄15號","121.461255","25.0196883333333","6500100","板橋區"
"220070","AAC-253","2018/02/08 19:19:32","新北市板橋區忠孝路56號","121.460983333333","25.0018916666667","6500100","板橋區"
