"lineid","car","time","location","longitude","latitude","cityid","cityname"
"234046","148-BY","2018/02/08 19:49:32","新北市永和區永利路163號","121.525016666667","25.0034416666667","6500400","永和區"
"234007","207-UY","2018/02/08 19:49:30","新北市中和區南工路22巷2號","121.505515","25.0006383333333","6500400","永和區"
"234081","298-R6","2018/02/08 19:49:25","新北市永和區國中路4號","121.52446","25.0043366666667","6500400","永和區"
"234038","336-UY","2018/02/08 19:49:41","新北市永和區民樂街59巷3號","121.527875","24.99848","6500400","永和區"
"234064","337-UY","2018/02/08 19:49:38","新北市永和區中正路368巷12號","121.51824","25.0008183333333","6500400","永和區"
"234086","338-UY","2018/02/08 19:49:38","新北市永和區永亨路31號","121.519755","25.0061333333333","6500400","永和區"
"234070","552-UM","2018/02/08 19:49:36","新北市永和區竹林路86號","121.519373333333","25.012685","6500400","永和區"
"234017","745-BX","2018/02/08 19:49:38","新北市永和區永和路二段299號","121.516075","25.0162416666667","6500400","永和區"
"234030","746-BX","2018/02/08 19:49:30","新北市永和區民生路67巷26號","121.524015","24.99724","6500400","永和區"
"234054","KEA-2590","2018/02/08 19:49:36","新北市永和區竹林路72巷2號","121.518925","25.013145","6500400","永和區"
"234013","KEA-2591","2018/02/08 19:49:29","新北市永和區永平路286-1號","121.507656666667","25.0120266666667","6500400","永和區"
"234061","AAD-866","2018/02/08 19:49:24","新北市永和區中正路164號","121.515046666667","24.9967116666667","6500400","永和區"
"234042","862-TW","2018/02/08 19:49:30","新北市永和區中和路305巷16弄1號","121.507488333333","25.00135","6500400","永和區"
"234050","863-TW","2018/02/08 19:49:35","新北市永和區保安路73號","121.508745","25.014985","6500400","永和區"
"234026","9371-KE","2018/02/08 19:49:35","新北市永和區雙和街52巷1號","121.508936666667","25.0031983333333","6500400","永和區"
"234011","9373-KE","2018/02/08 19:49:35","新北市永和區仁愛路335號","121.503093333333","25.0074466666667","6500400","永和區"
"249001","173-UM","2018/02/08 19:49:31","新北市八里區中華路二段203號","121.405406666667","25.1495883333333","6502300","八里區"
"249004","303-UY","2018/02/08 19:49:31","新北市八里區忠孝路488-1號","121.41437","25.1615166666667","6502300","八里區"
"249002","305-UY","2018/02/08 19:49:35","新北市八里區頂寮五街17號","121.45156","25.1261166666667","6502300","八里區"
"249003","593-UM","2018/02/08 19:49:31","新北市八里區中華路二段560巷7號","121.398498333333","25.1449966666667","6502300","八里區"
"248014","025-BX","2018/02/08 19:49:28","新北市五股區五福路42巷9號","121.434208333333","25.0896216666667","6501500","五股區"
"248016","026-BX","2018/02/08 19:49:38","新北市五股區成泰路四段16號","121.453561666667","25.1066933333333","6501500","五股區"
"248008","095-VK","2018/02/08 19:49:23","新北市五股區四維路171巷15號","121.46707","25.0752683333333","6501500","五股區"
"248020","225-UY","2018/02/08 19:49:39","新北市五股區中直路65-3號","121.418396666667","25.1180083333333","6501500","五股區"
"248012","247-BX","2018/02/08 19:49:38","新北市五股區蓬萊路24號","121.433863333333","25.0799283333333","6501500","五股區"
"248004","677-BX","2018/02/08 19:49:33","新北市五股區成泰路一段222號","121.436635","25.080075","6501500","五股區"
"248002","678-BX","2018/02/08 19:49:28","新北市五股區成泰路四段14號","121.45339","25.1067616666667","6501500","五股區"
"248010","682-TV","2018/02/08 19:49:24","新北市五股區登林路貿商巷2弄2號","121.43054","25.0695783333333","6501500","五股區"
"234077","969-R7","2018/02/08 19:49:36","新北市永和區中正路173號","121.516658333333","24.9986216666667","6500400","永和區"
"234074","AAC-211","2018/02/08 19:49:30","新北市永和區竹林路213巷27號","121.522588333333","25.0090483333333","6500400","永和區"
"234067","AAC-212","2018/02/08 19:49:31","新北市永和區永貞路414號","121.50887","25.0079483333333","6500400","永和區"
"234003","AAC-295","2018/02/08 19:49:34","新北市永和區福和路338號","121.515333333333","25.0072133333333","6500400","永和區"
"244011","701-TV","2018/02/08 19:49:40","新北市林口區瑞樹坑63號","121.344426666667","25.126675","6501700","林口區"
"243012","AAD-798","2018/02/08 19:49:41","新北市泰山區全興路87號","121.433248333333","25.0575166666667","6501600","泰山區"
"243011","297-R6","2018/02/08 19:49:26","新北市泰山區明志路三段196巷21弄20號","121.422748333333","25.0386316666667","6501600","泰山區"
"243015","380-SR","2018/02/08 19:49:33","新北市泰山區文程路18巷7號","121.428398333333","25.0489083333333","6501600","泰山區"
"243014","421-VK","2018/02/08 19:49:35","新北市泰山區泰林路二段33-8號","121.43516","25.0564316666667","6501600","泰山區"
"243010","KEA-2215","2018/02/08 19:49:37","新北市泰山區民生路33號","121.43068","25.0521683333333","6501600","泰山區"
"243009","KEA-2216","2018/02/08 19:49:36","新北市泰山區美寧街76號","121.431531666667","25.0647366666667","6501600","泰山區"
"243013","646-TV","2018/02/08 19:49:29","新北市泰山區應化街7號","121.423858333333","25.0437416666667","6501600","泰山區"
"243016","680-BX","2018/02/08 19:49:34","新北市泰山區中山路三段114號","121.417978333333","25.032305","6501600","泰山區"
"222003","436-BY","2018/02/08 19:31:44","新北市深坑區深南路51-1號","121.621158333333","25.00998","6501800","深坑區"
"222002","659-BX","2018/02/08 19:49:28","新北市深坑區北深路二段2巷1號","121.621336666667","25.0046066666667","6501800","深坑區"
"231041","002-UM","2018/02/08 19:49:28","新北市新店區中央路226號","121.529618333333","24.9727516666667","6500600","新店區"
"231059","046-UY","2018/02/08 19:49:29","新北市新店區吉安街2號","121.517315","24.96568","6500600","新店區"
"231061","047-UY","2018/02/08 19:49:34","新北市新店區安民街301號","121.517585","24.9737783333333","6500600","新店區"
"231060","106-UY","2018/02/08 19:49:38","新北市新店區安康路二段179號","121.509663333333","24.9591416666667","6500600","新店區"
"231051","107-UY","2018/02/08 19:49:35","新北市新店區中央二街42號","121.527525","24.9740933333333","6500600","新店區"
"231047","108-UY","2018/02/08 19:49:34","新北市新店區寶興路65巷2號","121.55086","24.9717066666667","6500600","新店區"
"231049","110-UY","2018/02/08 19:49:32","新北市新店區民權路127巷21號","121.535311666667","24.98182","6500600","新店區"
"231052","187-VK","2018/02/08 19:49:39","新北市新店區新烏路三段140號","121.552098333333","24.9028183333333","6500600","新店區"
"231064","189-VK","2018/02/08 19:49:30","新北市新店區安和路二段113巷1弄2號","121.518298333333","24.9702283333333","6500600","新店區"
"231050","KEA-2219","2018/02/08 19:49:07","新北市新店區北宜路二段579巷1-1號","121.565455","24.9535033333333","6500600","新店區"
"221015","KEA-2785","2018/02/08 19:49:24","新北市汐止區中正路311號","121.655951666667","25.0676883333333","6501100","汐止區"
"231057","256-BX","2018/02/08 19:49:28","新北市新店區梅崗三路1號","121.558343333333","24.93128","6500600","新店區"
"231046","278-BY","2018/02/08 19:49:39","新北市新店區三民路159巷19弄46號","121.532198333333","24.973235","6500600","新店區"
"231054","AAD-862","2018/02/08 19:49:26","新北市新店區光明街100號","121.53905","24.9605166666667","6500600","新店區"
"231058","3712-VJ","2018/02/08 19:49:30","新北市新店區光華街29號","121.515523333333","24.9697233333333","6500600","新店區"
"231055","4716-K9","2018/02/08 19:49:23","新北市新店區新生街1號","121.540361666667","24.965645","6500600","新店區"
"231067","4772-VM","2018/02/08 19:49:43","新北市新店區精忠路10-1號","121.532626666667","24.9590766666667","6500600","新店區"
"231042","616-UM","2018/02/08 19:49:23","新北市新店區中興路一段267-4號","121.545133333333","24.9679066666667","6500600","新店區"
"231044","618-UM","2018/02/08 19:49:26","新北市新店區復興路48號","121.538186666667","24.9867633333333","6500600","新店區"
"231040","619-UM","2018/02/08 19:49:24","新北市新店區北新路一段96巷23號","121.542953333333","24.9688383333333","6500600","新店區"
"231063","645-TV","2018/02/08 19:49:25","新北市新店區黎明路3號","121.503555","24.952435","6500600","新店區"
"231068","718-UY","2018/02/08 19:49:25","新北市新店區安華路28-1號","121.519323333333","24.9612616666667","6500600","新店區"
"231065","719-UY","2018/02/08 19:49:23","新北市新店區安祥路109巷90弄90號","121.47584","24.9581033333333","6500600","新店區"
"231062","720-UM","2018/02/08 19:49:40","新北市新店區永業路101號","121.528693333333","24.9486733333333","6500600","新店區"
"231045","898-TW","2018/02/08 19:49:26","新北市新店區北宜路二段382號","121.564423333333","24.9530516666667","6500600","新店區"
"231043","899-TW","2018/02/08 19:49:30","新北市新店區中正路245號","121.539101666667","24.9733516666667","6500600","新店區"
"241011","013-R5","2018/02/08 19:49:30","新北市三重區秀江街255號","121.49589","25.0716133333333","6500200","三重區"
"241028","022-UY","2018/02/08 19:49:25","新北市三重區中正南路200號","121.493871666667","25.0559283333333","6500200","三重區"
"241008","059-VK","2018/02/08 19:49:37","新北市三重區永福街147-7號","121.478733333333","25.0762883333333","6500200","三重區"
"241009","060-VK","2018/02/08 19:49:43","新北市三重區三和路四段398-1號","121.481388333333","25.0792416666667","6500200","三重區"
"241031","061-VK","2018/02/08 19:49:34","新北市三重區重新路四段244巷10號","121.48623","25.0535483333333","6500200","三重區"
"241015","062-VK","2018/02/08 19:49:37","新北市三重區三和路一段2號","121.503886666667","25.0642816666667","6500200","三重區"
"241017","063-VK","2018/02/08 19:49:30","新北市三重區重陽路三段5巷8弄14號","121.489515","25.0665116666667","6500200","三重區"
"241024","065-VK","2018/02/08 19:49:37","新北市三重區大勇街82巷17號","121.479538333333","25.07191","6500200","三重區"
"241026","066-VK","2018/02/08 19:49:33","新北市三重區文化南路42號","121.500376666667","25.0602816666667","6500200","三重區"
"241005","262-UM","2018/02/08 19:49:25","新北市三重區溪尾街314號","121.487686666667","25.0843366666667","6500200","三重區"
"241018","265-UM","2018/02/08 19:49:29","新北市三重區雙園街57巷34弄38號","121.493526666667","25.0681233333333","6500200","三重區"
"241016","266-UM","2018/02/08 19:49:27","新北市三重區正義北路16巷33號","121.496385","25.06283","6500200","三重區"
"241022","267-UM","2018/02/08 19:49:31","新北市三重區重新路三段115巷2號","121.490496666667","25.0599033333333","6500200","三重區"
"241032","269-UM","2018/02/08 19:49:35","新北市三重區重陽路一段44巷7號","121.48609","25.0577383333333","6500200","三重區"
"241025","271-UM","2018/02/08 19:49:25","新北市三重區忠孝路三段52號","121.480676666667","25.06564","6500200","三重區"
"241007","398-BY","2018/02/08 19:49:38","新北市三重區三和路四段125巷8號","121.485136666667","25.0780416666667","6500200","三重區"
"241020","413-TH","2018/02/08 19:49:25","新北市三重區三和路四段3號","121.49156","25.0739883333333","6500200","三重區"
"241035","462-BY","2018/02/08 19:49:16","新北市三重區信義西街4號","121.499088333333","25.06478","6500200","三重區"
"241004","475-VK","2018/02/08 19:49:32","新北市三重區五華街74號","121.493485","25.0819766666667","6500200","三重區"
"241030","480-VK","2018/02/08 19:49:27","新北市三重區環河南路254巷22號","121.49025","25.0509916666667","6500200","三重區"
"241019","KEA-2593","2018/02/08 19:49:27","新北市三重區自強路二段74巷23-1號","121.487785","25.069605","6500200","三重區"
"241006","AAD-863","2018/02/08 19:49:41","新北市三重區永福街273號","121.48214","25.0743016666667","6500200","三重區"
"241003","887-TS","2018/02/08 19:49:39","新北市三重區五華街93巷61號","121.493311666667","25.0844283333333","6500200","三重區"
"241012","941-UM","2018/02/08 19:49:33","新北市三重區仁興街56巷46號","121.498081666667","25.0754","6500200","三重區"
"241029","942-UM","2018/02/08 19:49:41","新北市三重區光明路11號","121.490963333333","25.0587533333333","6500200","三重區"
"241033","AAC-255","2018/02/08 19:49:33","新北市三重區中興南街58號","121.47046","25.0441683333333","6500200","三重區"
"235066","003-UY","2018/02/08 19:49:33","新北市中和區南工路40號","121.505893333333","25.0013066666667","6500300","中和區"
"235064","005-UY","2018/02/08 19:49:40","新北市中和區南山路81巷61-1號","121.504145","24.997865","6500300","中和區"
"235063","006-UY","2018/02/08 19:49:33","新北市中和區連城路176號","121.493178333333","24.996985","6500300","中和區"
"235056","096-UM","2018/02/08 19:49:24","新北市中和區民富街4號","121.47705","25.00601","6500300","中和區"
"235039","097-UM","2018/02/08 19:49:40","新北市中和區景德街3號","121.519136666667","24.99124","6500300","中和區"
"235065","098-UM","2018/02/08 19:49:29","新北市中和區永和路8巷19號","121.500666666667","25.0034566666667","6500300","中和區"
"235040","150-BY","2018/02/08 19:49:29","新北市中和區安平路31號","121.509496666667","24.9948716666667","6500300","中和區"
"235058","151-BY","2018/02/08 19:49:33","新北市中和區員山路124巷17號","121.482108333333","24.996015","6500300","中和區"
"235055","183-VK","2018/02/08 19:49:27","新北市中和區德光路27巷1弄1號","121.470853333333","25.00399","6500300","中和區"
"235038","185-VK","2018/02/08 19:49:36","新北市中和區自強路48號","121.520155","24.994965","6500300","中和區"
"235049","186-VK","2018/02/08 19:49:41","新北市中和區中正路2-1號","121.503226666667","24.993705","6500300","中和區"
"235067","255-BX","2018/02/08 19:49:31","新北市中和區新生街184號","121.483695","24.9996866666667","6500300","中和區"
"235044","293-VK","2018/02/08 19:49:23","新北市中和區景安路209號","121.504548333333","24.9918383333333","6500300","中和區"
"235043","352-BY","2018/02/08 19:49:26","新北市中和區華新街228號","121.50609","24.981785","6500300","中和區"
"235068","377-QA","2018/02/08 19:49:29","新北市中和區廟美街54號","121.50029","25.0023516666667","6500300","中和區"
"235061","378-QA","2018/02/08 19:49:34","新北市中和區民利街56號","121.479155","24.9986216666667","6500300","中和區"
"235071","269-TV","2018/02/08 19:49:25","新北市中和區中正路839巷29號","121.483561666667","25.0024133333333","6500300","中和區"
"235050","4979-A6","2018/02/08 19:49:30","新北市中和區和平街164巷4號","121.506035","24.9923833333333","6500300","中和區"
"235042","551-UM","2018/02/08 19:49:36","新北市中和區景安路79巷37弄24號","121.507751666667","24.9963833333333","6500300","中和區"
"235045","565-BX","2018/02/08 19:49:31","新北市中和區安樂路33號","121.511733333333","24.9923433333333","6500300","中和區"
"235054","640-BX","2018/02/08 19:49:35","新北市中和區民德路8-1號","121.468746666667","25.0028466666667","6500300","中和區"
"235060","647-TV","2018/02/08 19:49:27","新北市中和區員山路356號","121.480991666667","25.0036033333333","6500300","中和區"
"235047","732-UM","2018/02/08 19:25:25","新北市中和區景平路241巷7號","121.509396666667","24.992595","6500300","中和區"
"235046","733-UM","2018/02/08 19:49:39","新北市中和區仁愛街70號","121.511276666667","24.9876883333333","6500300","中和區"
"235057","801-TS","2018/02/08 19:49:39","新北市中和區員山路150-17號","121.481413333333","24.99782","6500300","中和區"
"235041","802-TS","2018/02/08 19:49:28","新北市中和區中安街18號","121.51337","25.0031666666667","6500300","中和區"
"235052","805-TS","2018/02/08 19:49:32","新北市中和區興南路二段121號","121.505608333333","24.98417","6500300","中和區"
"235048","896-TW","2018/02/08 19:49:25","新北市中和區興南路一段147號","121.508766666667","24.98731","6500300","中和區"
"235053","900-TW","2018/02/08 19:49:41","新北市中和區國光街189巷12弄2號","121.467466666667","25.00138","6500300","中和區"
"235063","911-UM","2018/02/08 19:49:39","新北市中和區員山路36巷13號","121.484405","24.9907366666667","6500300","中和區"
"235051","157-BY","2018/02/08 19:49:26","新北市中和區中興街127號","121.499961666667","24.9917183333333","6500300","中和區"
"235037","AAC-213","2018/02/08 19:49:26","新北市中和區秀朗路三段128巷1弄1號","121.524621666667","24.99215","6500300","中和區"
"235059","AAC-215","2018/02/08 19:49:41","新北市中和區圓通路305巷29弄2號","121.495053333333","24.9891","6500300","中和區"
"220068","013-TV","2018/02/08 19:49:28","新北市板橋區中山路二段412巷5號","121.483241666667","25.02081","6500100","板橋區"
"220065","072-UY","2018/02/08 19:49:39","新北市中和區中山路三段229巷43號","121.469401666667","25.0056066666667","6500100","板橋區"
"220086","073-UY","2018/02/08 19:49:38","新北市板橋區國光路39號","121.457595","25.017715","6500100","板橋區"
"220106","075-UY","2018/02/08 19:49:30","新北市板橋區文化路二段608巷35號","121.478508333333","25.03473","6500100","板橋區"
"220069","AAD-861","2018/02/08 19:49:34","新北市板橋區貴興路82號","121.456163333333","25.002845","6500100","板橋區"
"247008","341-TH","2018/02/08 19:49:29","新北市蘆洲區信義路135號","121.479165","25.08033","6501400","蘆洲區"
"247002","337-TH","2018/02/08 19:49:27","新北市蘆洲區永平街32巷12弄18號","121.460016666667","25.0909783333333","6501400","蘆洲區"
"247004","336-TH","2018/02/08 19:49:27","新北市蘆洲區永康街63號","121.456358333333","25.085205","6501400","蘆洲區"
"247016","056-VK","2018/02/08 19:49:27","新北市蘆洲區中正路351號","121.46543","25.0896616666667","6501400","蘆洲區"
"247006","053-VK","2018/02/08 19:49:33","新北市蘆洲區永安南路二段44-2號","121.466226666667","25.077545","6501400","蘆洲區"
"247014","007-UY","2018/02/08 19:49:36","新北市蘆洲區復興路11號","121.472015","25.0853483333333","6501400","蘆洲區"
"226004","312-R5","2018/02/08 19:49:35","新北市平溪區十分里十分街282號","121.779416666667","25.045495","6502400","平溪區"
"228003","097-TW","2018/02/08 19:49:37","新北市貢寮區真理里美艷山街3-1號","121.925583333333","25.059495","6502600","貢寮區"
"228001","212-TW","2018/02/08 19:49:38","新北市貢寮區真理里新港街74號","121.927118333333","25.0560216666667","6502600","貢寮區"
"224002","639-TC","2018/02/08 19:49:38","新北市瑞芳區員山子路員山巷21-1號","121.817115","25.1045583333333","6501200","瑞芳區"
"227004","642-TC","2018/02/08 19:49:24","新北市雙溪區雙溪里內挖路47號","121.86324","25.0367933333333","6502500","雙溪區"
"227010","400-TW","2018/02/08 19:49:24","新北市雙溪區新基里朝陽街18號","121.86592","25.0386766666667","6502500","雙溪區"
"222001","KEA-2212","2018/02/08 19:49:28","新北市深坑區北深路三段57號","121.607586666667","25.0012783333333","6501800","深坑區"
"208002","742-BX","2018/02/08 19:49:34","新北市金山區中華路366-1號","121.633258333333","25.2245216666667","6502700","金山區"
"208003","665-BX","2018/02/08 19:49:23","新北市金山區環金路378號","121.631528333333","25.2226783333333","6502700","金山區"
"208001","761-BX","2018/02/08 19:49:27","新北市金山區重和里六股林口20號","121.60304","25.2190333333333","6502700","金山區"
"251009","008-UM","2018/02/08 19:49:26","新北市淡水區中正路38-1號","121.443703333333","25.1692716666667","6501000","淡水區"
"251004","009-UM","2018/02/08 19:49:20","新北市淡水區民權路187巷19號","121.460563333333","25.1336583333333","6501000","淡水區"
"251005","010-UM","2018/02/08 19:49:37","新北市淡水區水源街一段2號","121.442515","25.172395","6501000","淡水區"
"251013","179-VK","2018/02/08 19:49:23","新北市淡水區頂田寮2-1號","121.460345","25.2132716666667","6501000","淡水區"
"251014","180-VK","2018/02/08 19:49:32","新北市淡水區番社前3號","121.470858333333","25.23722","6501000","淡水區"
"251008","181-VK","2018/02/08 19:49:39","新北市淡水區中正路二段24巷2-1號","121.426743333333","25.1769866666667","6501000","淡水區"
"251015","182-VK","2018/02/08 19:49:33","新北市淡水區北新路三段52-1號","121.484763333333","25.1875983333333","6501000","淡水區"
"251012","441-VK","2018/02/08 19:49:28","新北市淡水區中山北路三段156號","121.445835","25.1956683333333","6501000","淡水區"
"251016","442-VK","2018/02/08 19:49:38","新北市淡水區三塊厝3-2號","121.455196666667","25.2094116666667","6501000","淡水區"
"251001","559-UM","2018/02/08 19:49:33","新北市淡水區中正東路二段37號","121.45924","25.156225","6501000","淡水區"
"251006","561-UM","2018/02/08 19:49:37","新北市淡水區中山北路一段166號","121.444121666667","25.1784283333333","6501000","淡水區"
"251007","577-R6","2018/02/08 19:49:40","新北市淡水區竿蓁一街102巷1號","121.454361666667","25.1662816666667","6501000","淡水區"
"251011","650-BX","2018/02/08 19:49:27","新北市淡水區淡金路二段108-1號","121.44799","25.18427","6501000","淡水區"
"251002","672-BX","2018/02/08 19:49:33","新北市淡水區濱海路三段148巷50弄76號","121.430953333333","25.19093","6501000","淡水區"
"207003","550-UM","2018/02/08 19:49:40","新北市萬里區大鵬里萬里加投202號","121.642715","25.2162416666667","6502800","萬里區"
"207004","225-TW","2018/02/08 19:49:39","新北市萬里區萬里里瑪鋉路219號","121.690103333333","25.1795583333333","6502800","萬里區"
"252002","178-VK","2018/02/08 19:49:26","新北市三芝區三民街33-1號","121.50466","25.2585166666667","6502100","三芝區"
"252001","292-VK","2018/02/08 19:49:26","新北市三芝區公正街9號","121.499766666667","25.257475","6502100","三芝區"
"237004","KEA-2597","2018/02/08 19:49:27","新北市三峽區圳頭119-1號","121.379898333333","24.8813433333333","6500900","三峽區"
"237007","153-BY","2018/02/08 19:49:23","新北市三峽區二鬮路136巷24弄65號","121.357358333333","24.910505","6500900","三峽區"
"237009","210-TH","2018/02/08 19:49:34","新北市三峽區民權街65號","121.369618333333","24.9332366666667","6500900","三峽區"
"237013","252-BX","2018/02/08 19:49:28","新北市三峽區三樹路172號","121.378655","24.94103","6500900","三峽區"
"237012","275-BY","2018/02/08 19:49:24","新北市三峽區中華路40-1號","121.373025","24.9316516666667","6500900","三峽區"
"237008","302-VK","2018/02/08 19:49:32","新北市三峽區永安街127號","121.373856666667","24.9284716666667","6500900","三峽區"
"237014","433-BY","2018/02/08 19:49:29","新北市三峽區添福14-49號","121.373855","24.9003583333333","6500900","三峽區"
"237006","5529-G3","2018/02/08 19:49:33","新北市三峽區中正路一段330-6號","121.370006666667","24.9250083333333","6500900","三峽區"
"237016","649-BX","2018/02/08 19:31:55","新北市三峽區安坑40-2號","121.455178333333","24.9322483333333","6500900","三峽區"
"237005","AKY-6261","2018/02/08 19:49:30","新北市三峽區長泰街20號","121.378788333333","24.931805","6500900","三峽區"
"236071","105-UM","2018/02/08 19:49:36","新北市土城區水源街29-2號","121.440905","24.9753983333333","6501300","土城區"
"236042","107-UM","2018/02/08 19:49:30","新北市土城區裕民路233巷5號","121.454813333333","24.9835083333333","6501300","土城區"
"236078","166-UM","2018/02/08 19:49:32","新北市土城區中州路65號","121.41251","24.9578333333333","6501300","土城區"
"236030","253-BX","2018/02/08 19:49:26","新北市土城區中央路一段290號","121.443353333333","24.9824166666667","6501300","土城區"
"236026","269-VK","2018/02/08 19:49:26","新北市土城區中央路二段61巷40號","121.443801666667","24.978705","6501300","土城區"
"236037","271-VK","2018/02/08 19:49:33","新北市土城區國際路158巷39號","121.468385","24.9755366666667","6501300","土城區"
"236021","401-BY","2018/02/08 19:49:37","新北市土城區金城路三段198號","121.468456666667","24.98803","6501300","土城區"
"236058","912-UM","2018/02/08 19:49:39","新北市土城區中央路一段289-2號","121.444161666667","24.98405","6501300","土城區"
"236051","913-UM","2018/02/08 19:49:25","新北市土城區青雲路309號","121.45906","24.97916","6501300","土城區"
"236062","915-UM","2018/02/08 19:49:35","新北市土城區延和路105巷5弄1號","121.467271666667","24.991085","6501300","土城區"
"236053","AAC-216","2018/02/08 19:49:40","新北市土城區延和路57號","121.466585","24.9896616666667","6501300","土城區"
"242031","AAC-296","2018/02/08 19:49:38","新北市新莊區公園一路115號","121.445155","25.0380166666667","6500500","新莊區"
"242029","986-R7","2018/02/08 19:49:32","新北市新莊區中平路283號","121.444723333333","25.05026","6500500","新莊區"
"242023","613-BX","2018/02/08 19:49:31","新北市新莊區化成路172號","121.465621666667","25.0455366666667","6500500","新莊區"
"242027","612-BX","2018/02/08 19:49:26","新北市新莊區中平路282號","121.44483","25.0507816666667","6500500","新莊區"
"242048","441-UM","2018/02/08 19:49:33","新北市新莊區建安街76巷5弄15號","121.425628333333","25.02502","6500500","新莊區"
"242034","415-TV","2018/02/08 19:49:27","新北市新莊區公園一路110號","121.444351666667","25.03735","6500500","新莊區"
"242004","413-TV","2018/02/08 19:49:30","新北市新莊區化成路63巷15號","121.464463333333","25.045855","6500500","新莊區"
"242061","362-BY","2018/02/08 19:49:27","新北市新莊區中正路473-1號","121.441963333333","25.0331333333333","6500500","新莊區"
"242058","353-BY","2018/02/08 19:49:21","新北市新莊區八德街5號","121.425425","25.022655","6500500","新莊區"
"242036","133-UY","2018/02/08 19:49:26","新北市新莊區建安街101巷1弄1號","121.426913333333","25.02408","6500500","新莊區"
"242021","135-UY","2018/02/08 19:49:39","新北市新莊區新泰路157號","121.447793333333","25.036845","6500500","新莊區"
"242013","346-TH","2018/02/08 19:49:32","新北市新莊區中港路391號","121.451325","25.0469733333333","6500500","新莊區"
"242051","347-TH","2018/02/08 19:49:34","新北市新莊區民安路298號","121.428221666667","25.02182","6500500","新莊區"
"242019","348-TH","2018/02/08 19:49:32","新北市新莊區明智街1號","121.454795","25.04138","6500500","新莊區"
"242017","350-TH","2018/02/08 19:49:28","新北市新莊區中華路一段226號","121.452631666667","25.0429716666667","6500500","新莊區"
"242011","351-TH","2018/02/08 19:49:25","新北市新莊區中榮街124號","121.446571666667","25.05273","6500500","新莊區"
"238015","755-BX","2018/02/08 19:49:36","新北市樹林區樹德街12號","121.422883333333","24.9915016666667","6500700","樹林區"
"238023","601-UM","2018/02/08 19:49:31","新北市樹林區三福街127巷2號","121.404473333333","25.0160816666667","6500700","樹林區"
"238024","5061-A6","2018/02/08 19:49:26","新北市樹林區育德街78-1號","121.38825","24.9681833333333","6500700","樹林區"
"238022","KEA-2213","2018/02/08 19:49:23","新北市樹林區國凱街50巷3號","121.420526666667","24.9785433333333","6500700","樹林區"
"238003","KEA-2539","2018/02/08 19:49:27","新北市樹林區大雅路278號","121.379573333333","24.948015","6500700","樹林區"
"238025","303-VK","2018/02/08 19:49:35","新北市樹林區中山路二段34號","121.41744","24.9849616666667","6500700","樹林區"
"238017","283-BY","2018/02/08 19:49:37","新北市樹林區保安街二段107巷1弄5號","121.415116666667","25.000955","6500700","樹林區"
"238014","282-BY","2018/02/08 19:49:27","新北市樹林區千歲街70巷3弄2號","121.426873333333","24.9971133333333","6500700","樹林區"
"238020","268-VK","2018/02/08 19:49:34","新北市樹林區中正路241號","121.430228333333","24.9986883333333","6500700","樹林區"
"239007","AAC-297","2018/02/08 19:49:34","新北市鶯歌區中山路177號","121.348078333333","24.9570016666667","6500800","鶯歌區"
"239006","891-R6","2018/02/08 19:49:37","新北市鶯歌區永昌街1號","121.343106666667","24.9497833333333","6500800","鶯歌區"
"239003","360-BY","2018/02/08 19:49:29","新北市鶯歌區中正一路阿南巷501號","121.379383333333","24.9638766666667","6500800","鶯歌區"
"239004","193-VK","2018/02/08 19:49:22","新北市鶯歌區中正三路388巷1弄3號","121.32649","24.9348733333333","6500800","鶯歌區"
"221008","489-VK","2018/02/08 19:49:22","新北市汐止區康寧街141巷1弄1號","121.621421666667","25.06706","6501100","汐止區"
"221036","130-UY","2018/02/08 19:49:31","新北市汐止區汐萬路一段39號","121.65511","25.0689783333333","6501100","汐止區"
"221010","269-BY","2018/02/08 19:49:42","新北市汐止區汐萬路一段345號","121.650143333333","25.076945","6501100","汐止區"
"221012","278-VK","2018/02/08 19:49:34","新北市汐止區保長路271巷2號","121.680876666667","25.0742966666667","6501100","汐止區"
"221023","279-VK","2018/02/08 19:49:32","新北市汐止區民族三街42號","121.629585","25.0701333333333","6501100","汐止區"
"221032","280-BY","2018/02/08 19:49:41","新北市汐止區橫科路119號","121.620251666667","25.0502833333333","6501100","汐止區"
"221027","281-BY","2018/02/08 19:49:23","新北市汐止區忠孝東路9號","121.658325","25.065945","6501100","汐止區"
"221029","298-VK","2018/02/08 19:49:25","新北市汐止區康寧街901號","121.650828333333","25.0752633333333","6501100","汐止區"
"221021","299-VK","2018/02/08 19:49:42","新北市汐止區新興路84巷2號","121.657861666667","25.061535","6501100","汐止區"
"221031","353-TW","2018/02/08 19:49:30","新北市汐止區福德一路86巷18號","121.637315","25.0693283333333","6501100","汐止區"
"221035","622-UM","2018/02/08 19:49:34","新北市汐止區長江街13巷5弄2號","121.654658333333","25.07172","6501100","汐止區"
"221025","623-UM","2018/02/08 19:49:40","新北市汐止區秀峰路81巷15弄2號","121.660788333333","25.064395","6501100","汐止區"
"221038","646-BX","2018/02/08 19:49:24","新北市汐止區忠孝東路357號","121.665621666667","25.070655","6501100","汐止區"
"221033","647-BX","2018/02/08 19:49:22","新北市汐止區東勢街76巷100-1號","121.636366666667","25.03903","6501100","汐止區"
"221018","753-BX","2018/02/08 19:49:29","新北市汐止區汐萬路一段37號","121.655425","25.068465","6501100","汐止區"
"220079","145-BY","2018/02/08 19:49:26","新北市板橋區建國街54巷40號","121.459951666667","25.016985","6500100","板橋區"
"220080","200-UY","2018/02/08 19:49:27","新北市板橋區大觀路二段431-1號","121.441365","24.9950516666667","6500100","板橋區"
"220082","610-BX","2018/02/08 19:49:27","新北市板橋區溪崑一街56號","121.429535","24.9902516666667","6500100","板橋區"
"220103","257-TC","2018/02/08 19:49:39","新北市板橋區陽明街23巷8弄24號","121.465161666667","25.0210166666667","6500100","板橋區"
"220091","267-BY","2018/02/08 19:49:43","新北市板橋區民治街81巷15號","121.480381666667","25.03221","6500100","板橋區"
"220056","276-BY","2018/02/08 19:49:42","新北市板橋區德興街37巷10號","121.45382","24.9938033333333","6500100","板橋區"
"220072","277-BY","2018/02/08 19:49:35","新北市板橋區金門街253巷10弄5號","121.43301","24.9884116666667","6500100","板橋區"
"220101","280-UM","2018/02/08 19:49:40","新北市板橋區莊敬路247號","121.473181666667","25.0216633333333","6500100","板橋區"
"220071","283-VK","2018/02/08 19:49:26","新北市板橋區信義路237號","121.459923333333","24.99108","6500100","板橋區"
"220094","285-UM","2018/02/08 19:49:25","新北市板橋區長江路一段124號","121.460165","25.0299033333333","6500100","板橋區"
"220053","285-VK","2018/02/08 19:49:31","新北市板橋區中山路二段60巷1弄16號","121.474858333333","25.015535","6500100","板橋區"
"220083","286-VK","2018/02/08 19:49:28","新北市板橋區龍興街65巷44號","121.442703333333","25.0017966666667","6500100","板橋區"
"220090","288-VK","2018/02/08 19:49:31","新北市板橋區龍泉街54巷8弄10號","121.457343333333","25.02688","6500100","板橋區"
"220061","293-UM","2018/02/08 19:49:27","新北市板橋區漢生東路113巷22號","121.468166666667","25.015465","6500100","板橋區"
"220062","295-UM","2018/02/08 19:49:38","新北市板橋區三民路二段81巷28號","121.480585","25.01655","6500100","板橋區"
"220084","296-UM","2018/02/08 19:49:36","新北市板橋區滿平二街7號","121.425408333333","24.986585","6500100","板橋區"
"220075","303-R5","2018/02/08 19:49:35","新北市板橋區大勇街1巷4號","121.455153333333","25.0174116666667","6500100","板橋區"
"220092","307-R5","2018/02/08 19:49:32","新北市板橋區陽明街46-6號","121.465601666667","25.022165","6500100","板橋區"
"220098","317-R6","2018/02/08 19:49:30","新北市板橋區裕民街101號","121.460021666667","25.0278416666667","6500100","板橋區"
"220064","486-VK","2018/02/08 19:49:33","新北市板橋區民權路3號","121.46288","25.009855","6500100","板橋區"
"220089","487-VK","2018/02/08 19:49:25","新北市板橋區龍泉街84-3號","121.45638","25.0254983333333","6500100","板橋區"
"242044","280-VK","2018/02/08 19:49:28","新北市新莊區建國一路7號","121.433725","25.0318316666667","6500500","新莊區"
"220088","491-VK","2018/02/08 19:49:30","新北市板橋區懷德街55號","121.477318333333","25.0327583333333","6500100","板橋區"
"220035","560-BX","2018/02/08 19:49:24","新北市板橋區金華街86號","121.45799","25.0206533333333","6500100","板橋區"
"220081","568-UM","2018/02/08 19:49:30","新北市板橋區大觀路一段29巷179弄12號","121.448985","25.00481","6500100","板橋區"
"220063","609-BX","2018/02/08 19:49:42","新北市板橋區中山路二段379號","121.479958333333","25.0193966666667","6500100","板橋區"
"220057","686-BX","2018/02/08 19:49:24","新北市板橋區和平路101巷27號","121.46193","24.995515","6500100","板橋區"
"220077","687-BX","2018/02/08 19:49:27","新北市板橋區僑中一街150號","121.444655","25.01209","6500100","板橋區"
"220054","741-BX","2018/02/08 19:49:38","新北市板橋區忠孝路239巷17號","121.466383333333","25.0032083333333","6500100","板橋區"
"220055","827-TW","2018/02/08 19:49:41","新北市板橋區國慶路149巷3弄1號","121.46125","24.996735","6500100","板橋區"
"220067","829-TW","2018/02/08 19:49:24","新北市板橋區長安街138巷1弄294號","121.474921666667","25.01132","6500100","板橋區"
"220096","830-TW","2018/02/08 19:49:42","新北市板橋區文化路一段370-5號","121.469671666667","25.0233116666667","6500100","板橋區"
"220093","833-TW","2018/02/08 19:49:29","新北市板橋區長江路二段138號","121.466083333333","25.031665","6500100","板橋區"
"220074","895-R6","2018/02/08 19:49:39","新北市板橋區福德街2-1號","121.456111666667","25.0091216666667","6500100","板橋區"
"220073","985-R7","2018/02/08 19:49:39","新北市板橋區大仁街57-1號","121.454433333333","25.016375","6500100","板橋區"
"220097","AAC-210","2018/02/08 19:49:26","新北市板橋區漢生西路102號","121.462663333333","25.01985","6500100","板橋區"
"220070","AAC-253","2018/02/08 19:49:32","新北市板橋區民族路257號","121.470395","25.006875","6500100","板橋區"
