"lineid","car","time","location","longitude","latitude","cityid","cityname"
"234007","207-UY","2018/02/08 20:29:09","新北市永和區環河西路二段229巷1號","121.501325","25.0099583333333","6500400","永和區"
"234081","298-R6","2018/02/08 20:29:25","新北市永和區福和路137號","121.521158333333","25.0077866666667","6500400","永和區"
"234038","336-UY","2018/02/08 20:29:21","新北市永和區民樂街31巷17弄6號","121.528536666667","25.0019116666667","6500400","永和區"
"234064","337-UY","2018/02/08 20:29:13","新北市永和區中正路433號","121.51718","25.0050583333333","6500400","永和區"
"234086","338-UY","2018/02/08 20:29:18","新北市永和區光復街21號","121.516538333333","25.017445","6500400","永和區"
"234070","552-UM","2018/02/08 20:29:16","新北市永和區永亨路7號","121.51945","25.0056916666667","6500400","永和區"
"234030","746-BX","2018/02/08 20:29:10","新北市永和區民族街81巷3號","121.518746666667","24.9966366666667","6500400","永和區"
"234054","KEA-2590","2018/02/08 20:29:23","新北市永和區光復街60巷25號","121.51778","25.01757","6500400","永和區"
"234013","KEA-2591","2018/02/08 20:29:21","新北市板橋區萬安街85巷18-1號","121.484333333333","25.0258783333333","6500400","永和區"
"234061","AAD-866","2018/02/08 20:29:23","新北市永和區安樂路194巷39弄6號","121.51637","25.0014683333333","6500400","永和區"
"234042","862-TW","2018/02/08 20:29:11","新北市永和區安樂路429號","121.514405","25.0041666666667","6500400","永和區"
"234050","863-TW","2018/02/08 20:29:16","新北市永和區新生路60號","121.507743333333","25.0153033333333","6500400","永和區"
"249001","173-UM","2018/02/08 20:29:10","新北市八里區下罟子5-11號","121.386918333333","25.1423483333333","6502300","八里區"
"249004","303-UY","2018/02/08 20:29:11","新北市八里區中山路一段129巷19-1號","121.41394","25.1585966666667","6502300","八里區"
"249002","305-UY","2018/02/08 20:29:15","新北市八里區龍米路二段125巷23號","121.445768333333","25.1454983333333","6502300","八里區"
"249003","593-UM","2018/02/08 20:28:52","新北市八里區華峰一街26號","121.39904","25.14666","6502300","八里區"
"234023","9380-KE","2018/02/08 20:29:21","新北市永和區勵行街5號","121.51614","25.0145616666667","6500400","永和區"
"234074","AAC-211","2018/02/08 20:29:10","新北市永和區豫溪街156號","121.522888333333","25.0099283333333","6500400","永和區"
"234067","AAC-212","2018/02/08 20:29:26","新北市永和區保平路292巷13弄16號","121.506585","25.0058466666667","6500400","永和區"
"234003","AAC-295","2018/02/08 20:29:15","新北市永和區大新街47號","121.515648333333","25.0085716666667","6500400","永和區"
"243012","AAD-798","2018/02/08 20:29:20","新北市泰山區忠孝街19巷1弄2號","121.427513333333","25.0657316666667","6501600","泰山區"
"243011","297-R6","2018/02/08 20:29:06","新北市泰山區貴陽街16巷5弄13號","121.422771666667","25.031935","6501600","泰山區"
"243015","380-SR","2018/02/08 20:29:13","新北市泰山區仁德路88號","121.433311666667","25.056335","6501600","泰山區"
"243014","421-VK","2018/02/08 20:29:15","新北市泰山區泰林路二段528號","121.423885","25.0638333333333","6501600","泰山區"
"243010","KEA-2215","2018/02/08 20:29:17","新北市泰山區新生路33-7號","121.42774","25.0457583333333","6501600","泰山區"
"243009","KEA-2216","2018/02/08 20:29:16","新北市泰山區泰林路二段521號","121.423951666667","25.0637883333333","6501600","泰山區"
"243016","680-BX","2018/02/08 20:29:24","新北市泰山區明志路二段201號","121.427506666667","25.0490916666667","6501600","泰山區"
"222003","436-BY","2018/02/08 20:29:09","新北市深坑區深坑街41號","121.615475","25.0018666666667","6501800","深坑區"
"222002","659-BX","2018/02/08 20:29:20","新北市深坑區萬福路16巷16號","121.606676666667","25.0077466666667","6501800","深坑區"
"231041","002-UM","2018/02/08 20:29:28","新北市新店區中正路501-4號","121.533706666667","24.983815","6500600","新店區"
"231059","046-UY","2018/02/08 20:29:09","新北市新店區安豐路49號","121.500048333333","24.9549016666667","6500600","新店區"
"231061","047-UY","2018/02/08 20:29:14","新北市新店區新和街34號","121.519158333333","24.9847916666667","6500600","新店區"
"231060","106-UY","2018/02/08 20:29:18","新北市新店區錦秀路53號","121.479131666667","24.9433733333333","6500600","新店區"
"231051","107-UY","2018/02/08 20:29:15","新北市新店區中央七街71-1號","121.527521666667","24.9765333333333","6500600","新店區"
"231047","108-UY","2018/02/08 20:29:14","新北市新店區寶慶街58巷21-1號","121.541988333333","24.9873016666667","6500600","新店區"
"231049","110-UY","2018/02/08 20:29:12","新北市新店區永業路81巷60號","121.52923","24.9479816666667","6500600","新店區"
"231052","187-VK","2018/02/08 20:29:19","新北市新店區松林路36號","121.546221666667","24.9102516666667","6500600","新店區"
"231064","189-VK","2018/02/08 20:29:09","新北市新店區新和街75號","121.520526666667","24.9860166666667","6500600","新店區"
"231050","KEA-2219","2018/02/08 20:29:19","新北市新店區建興街4號","121.540075","24.9765233333333","6500600","新店區"
"221015","KEA-2785","2018/02/08 20:29:24","新北市汐止區建成路142巷19弄1號","121.662228333333","25.0738383333333","6501100","汐止區"
"231057","256-BX","2018/02/08 20:29:28","新北市新店區花園五路二段3號","121.553593333333","24.9342083333333","6500600","新店區"
"231054","AAD-862","2018/02/08 20:29:06","新北市新店區檳榔路113號","121.544538333333","24.9614466666667","6500600","新店區"
"231058","3712-VJ","2018/02/08 20:29:10","新北市新店區自由街35號","121.534793333333","24.9740816666667","6500600","新店區"
"231056","3713-VJ","2018/02/08 20:29:18","新北市新店區中正路275巷35號","121.536736666667","24.9727983333333","6500600","新店區"
"231067","4772-VM","2018/02/08 20:29:23","新北市新店區安華路28-1號","121.51968","24.961205","6500600","新店區"
"231042","616-UM","2018/02/08 20:29:23","新北市新店區寶高路120巷1-1號","121.554656666667","24.9759566666667","6500600","新店區"
"231044","618-UM","2018/02/08 20:29:26","新北市新店區二十張路59號","121.53768","24.9806683333333","6500600","新店區"
"231040","619-UM","2018/02/08 20:29:24","新北市新店區中正路348號","121.536278333333","24.9753433333333","6500600","新店區"
"231063","645-TV","2018/02/08 20:29:25","新北市新店區玫瑰路4-1號","121.493583333333","24.9514033333333","6500600","新店區"
"231068","718-UY","2018/02/08 20:29:25","新北市新店區中興路三段226號","121.543503333333","24.982965","6500600","新店區"
"231065","719-UY","2018/02/08 20:29:23","新北市新店區安祥路102巷32號","121.484133333333","24.9639583333333","6500600","新店區"
"231062","720-UM","2018/02/08 20:29:20","新北市新店區安泰路60巷85號","121.484118333333","24.94452","6500600","新店區"
"231045","898-TW","2018/02/08 20:29:28","新北市新店區新坡一街2號","121.548246666667","24.9606566666667","6500600","新店區"
"231043","899-TW","2018/02/08 20:29:15","新北市新店區民族路45-1號","121.540455","24.9786716666667","6500600","新店區"
"231066","AKT-0513","2018/02/08 20:29:24","新北市新店區安興路112號","121.514645","24.9775416666667","6500600","新店區"
"241011","013-R5","2018/02/08 20:29:09","新北市三重區龍門路88號","121.497266666667","25.0727366666667","6500200","三重區"
"241028","022-UY","2018/02/08 20:29:25","新北市三重區光興街89號","121.497488333333","25.0599466666667","6500200","三重區"
"241008","059-VK","2018/02/08 20:29:17","新北市三重區永福街256號","121.48431","25.0748166666667","6500200","三重區"
"241009","060-VK","2018/02/08 20:29:23","新北市三重區三和路四段360號","121.483258333333","25.0783283333333","6500200","三重區"
"241031","061-VK","2018/02/08 20:29:13","新北市三重區三寧街18號","121.489441666667","25.0598516666667","6500200","三重區"
"241015","062-VK","2018/02/08 20:29:17","新北市三重區正義北路107巷68號","121.498695","25.0659583333333","6500200","三重區"
"241017","063-VK","2018/02/08 20:29:30","新北市三重區自強路一段207號","121.491535","25.0684183333333","6500200","三重區"
"241024","065-VK","2018/02/08 20:29:16","新北市三重區三民街270號","121.478951666667","25.0681116666667","6500200","三重區"
"241026","066-VK","2018/02/08 20:29:13","新北市三重區環河南路30號","121.503348333333","25.0620583333333","6500200","三重區"
"241002","090-VK","2018/02/08 20:29:14","新北市三重區仁義街211巷9號","121.497236666667","25.0820733333333","6500200","三重區"
"241005","262-UM","2018/02/08 20:29:25","新北市三重區五華街133號","121.491035","25.0844083333333","6500200","三重區"
"241018","265-UM","2018/02/08 20:29:15","新北市三重區自強路一段236號","121.493296666667","25.06706","6500200","三重區"
"241016","266-UM","2018/02/08 20:29:07","新北市三重區正義北路188號","121.496325","25.0669266666667","6500200","三重區"
"241022","267-UM","2018/02/08 20:29:11","新北市三重區重陽路二段19巷2號","121.487445","25.0624833333333","6500200","三重區"
"241032","269-UM","2018/02/08 20:29:14","新北市三重區重陽路一段120巷35號","121.485103333333","25.060185","6500200","三重區"
"241013","270-UM","2018/02/08 20:29:11","新北市三重區三和路三段117號","121.493011666667","25.0730916666667","6500200","三重區"
"241025","271-UM","2018/02/08 20:29:24","新北市三重區頂崁街210巷27號","121.47579","25.068205","6500200","三重區"
"241007","398-BY","2018/02/08 20:29:18","新北市三重區溪尾街108巷11號","121.488948333333","25.0786916666667","6500200","三重區"
"241020","413-TH","2018/02/08 20:29:25","新北市三重區三和路三段144巷3號","121.492973333333","25.0725416666667","6500200","三重區"
"241035","462-BY","2018/02/08 20:29:16","新北市三重區重新路二段48號","121.498348333333","25.0621266666667","6500200","三重區"
"241004","475-VK","2018/02/08 20:29:12","新北市三重區溪尾街188號","121.488341666667","25.0809333333333","6500200","三重區"
"241030","480-VK","2018/02/08 20:29:07","新北市三重區成功路70號","121.488515","25.05098","6500200","三重區"
"241023","545-UM","2018/02/08 20:29:14","新北市三重區自由街19號","121.479808333333","25.0665916666667","6500200","三重區"
"241019","KEA-2593","2018/02/08 20:29:27","新北市三重區忠孝路一段38號","121.491275","25.071885","6500200","三重區"
"241003","887-TS","2018/02/08 20:29:19","新北市三重區富華街151號","121.493076666667","25.0848716666667","6500200","三重區"
"241012","941-UM","2018/02/08 20:29:12","新北市三重區龍濱路190號","121.501131666667","25.0733033333333","6500200","三重區"
"241029","942-UM","2018/02/08 20:29:21","新北市三重區集美街219號","121.491796666667","25.0547933333333","6500200","三重區"
"241033","AAC-255","2018/02/08 20:29:08","新北市三重區五谷王北街139號","121.47614","25.0520583333333","6500200","三重區"
"235066","003-UY","2018/02/08 20:29:13","新北市中和區光華街31巷22弄6號","121.505533333333","25.004625","6500300","中和區"
"235039","097-UM","2018/02/08 20:29:20","新北市中和區大勇街27巷10號","121.517015","24.9938566666667","6500300","中和區"
"235065","098-UM","2018/02/08 20:29:29","新北市中和區永和路69-6號","121.496438333333","25.0059933333333","6500300","中和區"
"235050","4979-A6","2018/02/08 20:29:14","新北市中和區景安路82巷6弄1號","121.505143333333","24.99629","6500300","中和區"
"235069","4980-A6","2018/02/08 20:29:27","新北市中和區中正路446號","121.490965","24.9942016666667","6500300","中和區"
"235026","800-TS","2018/02/08 20:29:14","新北市中和區員山路36巷13號","121.484331666667","24.9906966666667","6500300","中和區"
"235059","AAC-215","2018/02/08 20:29:21","新北市中和區員山路28-29號","121.480896666667","24.9869816666667","6500300","中和區"
"220106","075-UY","2018/02/08 20:28:22","新北市五股區中直路15號","121.423513333333","25.1109966666667","6500100","板橋區"
"247022","893-R6","2018/02/08 20:29:21","新北市蘆洲區中正路252號","121.46566","25.0893216666667","6501400","蘆洲區"
"247012","546-UM","2018/02/08 20:29:10","新北市蘆洲區復興路173號","121.47876","25.089295","6501400","蘆洲區"
"247020","500-BY","2018/02/08 20:29:08","新北市蘆洲區仁愛街134號","121.469025","25.0944916666667","6501400","蘆洲區"
"247008","341-TH","2018/02/08 20:29:09","新北市蘆洲區重陽街95號","121.482423333333","25.085415","6501400","蘆洲區"
"247010","339-TH","2018/02/08 20:29:21","新北市蘆洲區信義路222巷2號","121.479251666667","25.085255","6501400","蘆洲區"
"247002","337-TH","2018/02/08 20:29:27","新北市蘆洲區長安街347巷17號","121.456246666667","25.0870083333333","6501400","蘆洲區"
"247004","336-TH","2018/02/08 20:29:07","新北市蘆洲區永康街29號","121.457536666667","25.0853","6501400","蘆洲區"
"247018","335-TH","2018/02/08 20:29:23","新北市蘆洲區民族路327巷52號","121.474475","25.0908266666667","6501400","蘆洲區"
"247016","057-VK","2018/02/08 20:29:15","新北市蘆洲區光華路111號","121.467035","25.0822933333333","6501400","蘆洲區"
"247006","056-VK","2018/02/08 20:29:27","新北市蘆洲區九芎街90巷10號","121.465723333333","25.08056","6501400","蘆洲區"
"247006","053-VK","2018/02/08 20:29:22","新北市蘆洲區光華路173號","121.464788333333","25.08175","6501400","蘆洲區"
"247024","002-UY","2018/02/08 20:29:21","新北市蘆洲區光復路70巷16號","121.464633333333","25.085155","6501400","蘆洲區"
"222001","KEA-2212","2018/02/08 20:29:28","新北市深坑區北深路三段329號","121.597268333333","25.0050016666667","6501800","深坑區"
"208002","742-BX","2018/02/08 20:29:14","新北市金山區磺清路135號","121.639396666667","25.22758","6502700","金山區"
"251013","179-VK","2018/02/08 20:29:23","新北市淡水區奎柔山路413號","121.463428333333","25.2045983333333","6501000","淡水區"
"251014","180-VK","2018/02/08 20:29:12","新北市淡水區石頭厝8-9號","121.460456666667","25.2377066666667","6501000","淡水區"
"251008","181-VK","2018/02/08 20:29:19","新北市淡水區淡海路208巷25號","121.421628333333","25.185935","6501000","淡水區"
"251015","182-VK","2018/02/08 20:29:13","新北市淡水區興仁路162號","121.451593333333","25.2207516666667","6501000","淡水區"
"251010","413-VK","2018/02/08 20:29:14","新北市淡水區沙崙路181巷15號","121.423943333333","25.184325","6501000","淡水區"
"251012","441-VK","2018/02/08 20:29:28","新北市淡水區頂田寮路39號","121.456398333333","25.216055","6501000","淡水區"
"251016","442-VK","2018/02/08 20:29:18","新北市淡水區後洲子19號","121.450223333333","25.2238516666667","6501000","淡水區"
"251001","559-UM","2018/02/08 20:29:13","新北市淡水區新市一路三段8號","121.445113333333","25.1828916666667","6501000","淡水區"
"251006","561-UM","2018/02/08 20:29:17","新北市淡水區商工路306號","121.461203333333","25.1858783333333","6501000","淡水區"
"251011","650-BX","2018/02/08 20:29:27","新北市淡水區崁頂三路113號","121.433771666667","25.1995216666667","6501000","淡水區"
"251002","672-BX","2018/02/08 20:29:26","新北市淡水區中正路58號","121.443203333333","25.169635","6501000","淡水區"
"251003","766-UM","2018/02/08 20:29:26","新北市淡水區新生街39號","121.440125","25.1748","6501000","淡水區"
"252002","178-VK","2018/02/08 20:29:26","新北市三芝區淡金路二段10號","121.50255","25.2594616666667","6502100","三芝區"
"252001","292-VK","2018/02/08 20:29:25","新北市三芝區中山路一段14號","121.500798333333","25.2580016666667","6502100","三芝區"
"237013","252-BX","2018/02/08 20:29:28","新北市三峽區溪北街21號","121.396563333333","24.936275","6500900","三峽區"
"237016","649-BX","2018/02/08 20:28:33","新北市鶯歌區中正一路113-1號","121.37006","24.9584433333333","6500900","三峽區"
"236037","271-VK","2018/02/08 20:29:13","新北市土城區勝利街3號","121.427808333333","24.96973","6501300","土城區"
"236021","401-BY","2018/02/08 20:29:23","新北市土城區金城路三段206巷1號","121.471486666667","24.9896866666667","6501300","土城區"
"242031","AAC-296","2018/02/08 20:29:18","新北市新莊區三和路20-6號","121.439488333333","25.0374483333333","6500500","新莊區"
"242029","986-R7","2018/02/08 20:29:12","新北市新莊區中華路二段179號","121.452595","25.0521516666667","6500500","新莊區"
"242025","615-BX","2018/02/08 20:29:25","新北市新莊區五工一路80巷1號","121.461831666667","25.067325","6500500","新莊區"
"242023","613-BX","2018/02/08 20:29:25","新北市新莊區化成路996號","121.465183333333","25.0644416666667","6500500","新莊區"
"242027","612-BX","2018/02/08 20:29:26","新北市新莊區幸福路38號","121.458048333333","25.049515","6500500","新莊區"
"242039","566-BX","2018/02/08 20:29:25","新北市新莊區成功街37號","121.425385","25.0210933333333","6500500","新莊區"
"242048","441-UM","2018/02/08 20:29:13","新北市新莊區龍安路212號","121.41994","25.019955","6500500","新莊區"
"242053","440-UM","2018/02/08 20:29:27","新北市新莊區民安西路245巷1號","121.426296666667","25.0137266666667","6500500","新莊區"
"242034","415-TV","2018/02/08 20:29:27","新北市新莊區中正路222號","121.448806666667","25.0355816666667","6500500","新莊區"
"242004","413-TV","2018/02/08 20:29:29","新北市新莊區頭前路60-1號","121.466946666667","25.0526033333333","6500500","新莊區"
"242042","400-BY","2018/02/08 20:29:16","新北市新莊區中正路694巷12號","121.418331666667","25.0285666666667","6500500","新莊區"
"242061","362-BY","2018/02/08 20:29:27","新北市新莊區民安東路40號","121.428975","25.020865","6500500","新莊區"
"242058","353-BY","2018/02/08 20:29:21","新北市新莊區四維路183號","121.422125","25.0210983333333","6500500","新莊區"
"242007","132-UY","2018/02/08 20:29:21","新北市新莊區福壽街94巷2號","121.458485","25.0500483333333","6500500","新莊區"
"242036","133-UY","2018/02/08 20:29:26","新北市新莊區建安街62巷2號","121.427068333333","25.0248283333333","6500500","新莊區"
"242021","135-UY","2018/02/08 20:29:19","新北市新莊區公園路10巷2號","121.44778","25.0388683333333","6500500","新莊區"
"242046","172-VK","2018/02/08 20:29:26","新北市新莊區裕民街72巷16號","121.417808333333","25.02439","6500500","新莊區"
"242009","173-VK","2018/02/08 20:29:21","新北市新莊區昌盛街81巷2弄1號","121.455568333333","25.050335","6500500","新莊區"
"242015","175-VK","2018/02/08 20:29:16","新北市新莊區中平路46巷32號","121.446065","25.04383","6500500","新莊區"
"242002","176-VK","2018/02/08 20:29:26","新北市新莊區中正路145號","121.459488333333","25.03841","6500500","新莊區"
"242013","346-TH","2018/02/08 20:29:12","新北市新莊區中平路292巷1弄3號","121.445448333333","25.0516733333333","6500500","新莊區"
"242051","347-TH","2018/02/08 20:29:13","新北市新莊區民安西路252巷31號","121.425181666667","25.0136566666667","6500500","新莊區"
"242019","348-TH","2018/02/08 20:29:25","新北市新莊區民樂街87巷9號","121.457418333333","25.0433566666667","6500500","新莊區"
"242056","349-TH","2018/02/08 20:29:15","新北市新莊區新莊路649巷26弄33號","121.444385","25.0320083333333","6500500","新莊區"
"242017","350-TH","2018/02/08 20:29:08","新北市新莊區中港三街7號","121.451165","25.0464266666667","6500500","新莊區"
"242011","351-TH","2018/02/08 20:29:25","新北市新莊區中義街35號","121.450038333333","25.0511316666667","6500500","新莊區"
"238003","KEA-2539","2018/02/08 20:29:27","新北市樹林區田尾街242號","121.397876666667","24.9488016666667","6500700","樹林區"
"239004","193-VK","2018/02/08 20:29:22","新北市鶯歌區二甲路83-5號","121.340091666667","24.932045","6500800","鶯歌區"
"221008","489-VK","2018/02/08 20:29:23","新北市汐止區康寧街459號","121.631573333333","25.06831","6501100","汐止區"
"221036","130-UY","2018/02/08 20:29:11","新北市汐止區新台五路二段116巷16號","121.66323","25.065595","6501100","汐止區"
"221010","269-BY","2018/02/08 20:29:22","新北市汐止區八連路二段610巷17號","121.624078333333","25.1115133333333","6501100","汐止區"
"221012","278-VK","2018/02/08 20:29:14","新北市汐止區保新街39號","121.684916666667","25.07293","6501100","汐止區"
"221023","279-VK","2018/02/08 20:29:13","新北市汐止區湖東街60號","121.634591666667","25.0728483333333","6501100","汐止區"
"221032","280-BY","2018/02/08 20:29:21","新北市汐止區弘道街53巷12號","121.61875","25.0489633333333","6501100","汐止區"
"221027","281-BY","2018/02/08 20:29:23","新北市汐止區中正路225號","121.657978333333","25.0688016666667","6501100","汐止區"
"221002","297-VK","2018/02/08 20:29:14","新北市汐止區福德二路18號","121.635185","25.06827","6501100","汐止區"
"221029","298-VK","2018/02/08 20:29:25","新北市汐止區樟樹一路119巷30號","121.640431666667","25.0644033333333","6501100","汐止區"
"221021","299-VK","2018/02/08 20:29:16","新北市汐止區水源路一段280號","121.654166666667","25.0583316666667","6501100","汐止區"
"221031","353-TW","2018/02/08 20:29:10","新北市汐止區中興路110巷10號","121.633756666667","25.064145","6501100","汐止區"
"221035","622-UM","2018/02/08 20:29:14","新北市汐止區長江街101-5號","121.658685","25.07323","6501100","汐止區"
"221025","623-UM","2018/02/08 20:29:20","新北市汐止區水源路二段110巷1號","121.656638333333","25.0553983333333","6501100","汐止區"
"221038","646-BX","2018/02/08 20:29:24","新北市汐止區忠孝東路292號","121.663998333333","25.0684716666667","6501100","汐止區"
"221033","647-BX","2018/02/08 20:29:22","新北市汐止區林森街73巷7號","121.623551666667","25.0409666666667","6501100","汐止區"
"221018","753-BX","2018/02/08 20:29:29","新北市汐止區茄苳路209巷14號","121.671068333333","25.069625","6501100","汐止區"
"220080","200-UY","2018/02/08 20:29:27","新北市板橋區大觀路二段37巷268號","121.44974","25.0014933333333","6500100","板橋區"
"220103","257-TC","2018/02/08 20:29:19","新北市板橋區漢生西路71號","121.462948333333","25.0186833333333","6500100","板橋區"
"220101","280-UM","2018/02/08 20:29:10","新北市板橋區雙十路二段143號","121.474876666667","25.028135","6500100","板橋區"
"220083","286-VK","2018/02/08 20:29:28","新北市板橋區僑中二街100巷16號","121.445341666667","25.0085933333333","6500100","板橋區"
"220061","293-UM","2018/02/08 20:29:07","新北市板橋區文華街2號","121.458253333333","25.0003283333333","6500100","板橋區"
"220062","295-UM","2018/02/08 20:29:18","新北市五股區孝義路14-1號","121.452055","25.10639","6500100","板橋區"
"220089","487-VK","2018/02/08 20:29:25","新北市板橋區四維路137巷25號","121.463948333333","25.0247083333333","6500100","板橋區"
"242044","280-VK","2018/02/08 20:29:27","新北市新莊區中正路新建巷55號","121.414696666667","25.0213566666667","6500500","新莊區"
"220081","568-UM","2018/02/08 20:29:10","新北市板橋區僑中一街102巷7弄1號","121.446818333333","25.0128483333333","6500100","板橋區"
"220055","827-TW","2018/02/08 20:29:25","新北市板橋區仁愛路25號","121.45898","24.99943","6500100","板橋區"
"220097","AAC-210","2018/02/08 20:29:26","新北市板橋區民權路182號","121.459463333333","25.01356","6500100","板橋區"
"220070","AAC-253","2018/02/08 20:29:13","新北市板橋區四川路二段245巷30號","121.451356666667","24.9927383333333","6500100","板橋區"
