"lineid","car","time","location","longitude","latitude","cityid","cityname"
"234013","KEA-2591","2018/02/08 21:39:41","新北市永和區環河西路二段179號","121.504003333333","25.0125516666667","6500400","永和區"
"231063","645-TV","2018/02/08 21:39:45","新北市新店區富貴街10巷1號","121.494128333333","24.9494433333333","6500600","新店區"
"241026","066-VK","2018/02/08 21:39:53","新北市五股區孝義路9-18號","121.449505","25.1069883333333","6500200","三重區"
"241014","156-TC","2018/02/08 21:39:46","新北市三重區萬全街63號","121.501243333333","25.0702333333333","6500200","三重區"
"241005","262-UM","2018/02/08 21:39:45","新北市三重區仁愛街687號","121.48344","25.0809966666667","6500200","三重區"
"247008","341-TH","2018/02/08 21:39:49","新北市八里區荖阡坑路34-1號","121.40042","25.1315983333333","6501400","蘆洲區"
"251009","008-UM","2018/02/08 21:39:46","新北市淡水區民族路29巷2弄2號","121.462718333333","25.137375","6501000","淡水區"
"251004","009-UM","2018/02/08 21:39:40","新北市淡水區民生路3號","121.460366666667","25.1378766666667","6501000","淡水區"
"251005","010-UM","2018/02/08 21:39:37","新北市淡水區水源街一段62巷7號","121.44487","25.1718666666667","6501000","淡水區"
"251014","180-VK","2018/02/08 21:39:51","新北市淡水區淡金路四段507號","121.451556666667","25.2283566666667","6501000","淡水區"
"251008","181-VK","2018/02/08 21:39:39","新北市淡水區水源街二段22號","121.449805","25.173635","6501000","淡水區"
"251010","413-VK","2018/02/08 21:39:54","新北市淡水區沙崙路216巷56號","121.426246666667","25.18415","6501000","淡水區"
"251012","441-VK","2018/02/08 21:39:48","新北市淡水區淡金路四段546號","121.451741666667","25.2270483333333","6501000","淡水區"
"251016","442-VK","2018/02/08 21:39:38","新北市淡水區崁頂61號","121.44007","25.2007966666667","6501000","淡水區"
"251001","559-UM","2018/02/08 21:39:33","新北市淡水區新市二路三段152號","121.435473333333","25.1949116666667","6501000","淡水區"
"251006","561-UM","2018/02/08 21:39:37","新北市淡水區中正路119號","121.439436666667","25.1697616666667","6501000","淡水區"
"251011","650-BX","2018/02/08 21:39:47","新北市淡水區新民街322巷2號","121.435391666667","25.183615","6501000","淡水區"
"251002","672-BX","2018/02/08 21:39:53","新北市淡水區學府路152號","121.44637","25.17425","6501000","淡水區"
"251003","766-UM","2018/02/08 21:39:46","新北市淡水區新春街46號","121.43757","25.181585","6501000","淡水區"
"237012","275-BY","2018/02/08 21:33:32","新北市三峽區中山路459巷137號","121.349906666667","24.9339683333333","6500900","三峽區"
"242034","415-TV","2018/02/08 21:39:47","新北市新莊區新泰路357巷3弄57號","121.441983333333","25.0393366666667","6500500","新莊區"
"242046","172-VK","2018/02/08 21:39:45","新北市新莊區三和路12-21號","121.44202","25.03879","6500500","新莊區"
"220070","AAC-253","2018/02/08 21:39:52","新北市五股區天乙路102-22號","121.448045","25.1069883333333","6500100","板橋區"
