"lineid","car","time","location","longitude","latitude","cityid","cityname"
"248005","653-BX","2018/02/09 07:09:38","新北市五股區新五路二段57-1號","121.436523333333","25.0720066666667","6501500","五股區"
"232003","290-BY","2018/02/09 07:09:42","新北市坪林區大粗坑30-2號","121.710946666667","24.966895","6502000","坪林區"
"232015","291-BY","2018/02/09 07:09:30","新北市坪林區北宜路七段172號","121.684175","24.9364433333333","6502000","坪林區"
"232019","705-BZ","2018/02/09 07:09:41","新北市坪林區九芎坑3-4號","121.727541666667","24.96292","6502000","坪林區"
"232008","758-BX","2018/02/09 07:09:40","新北市坪林區鶯子瀨2-1號","121.709243333333","24.9128533333333","6502000","坪林區"
"244004","248-BX","2018/02/09 07:09:39","新北市林口區粉寮路二段160巷28號","121.405146666667","25.09072","6501700","林口區"
"222005","289-BY","2018/02/09 07:08:22","新北市深坑區萬福路52號","121.605388333333","25.01352","6501800","深坑區"
"235001","611-BX","2018/02/09 07:09:37","新北市中和區圓通路367巷4號","121.491381666667","24.9892466666667","6500300","中和區"
"226005","5620-A6","2018/02/09 07:09:24","新北市平溪區菁桐里菁桐街12號","121.72683","25.0239766666667","6502400","平溪區"
"226001","8452-VL","2018/02/09 07:09:34","新北市平溪區石底里公園街18-3號","121.733473333333","25.0256116666667","6502400","平溪區"
"226003","AGD-0702","2018/02/09 07:09:27","新北市平溪區菁桐里菁桐街20號","121.72605","25.0238033333333","6502400","平溪區"
"223006","022-BY","2018/02/09 07:09:35","新北市石碇區崩山24-2號","121.679705","24.9679483333333","6501900","石碇區"
"223001","205-TH","2018/02/09 07:09:44","新北市石碇區烏塗窟29-1號","121.655835","24.9749616666667","6501900","石碇區"
"223008","406-TH","2018/02/09 07:09:29","新北市石碇區靜安路一段252號","121.677375","25.010545","6501900","石碇區"
"223001","437-BY","2018/02/09 07:09:35","新北市石碇區烏塗窟8-3號","121.65579","24.975295","6501900","石碇區"
"223004","660-BX","2018/02/09 07:09:39","新北市石碇區碇坪路一段10號","121.651673333333","25.00599","6501900","石碇區"
"223007","661-BX","2018/02/09 07:09:43","新北市石碇區靜安路一段252號","121.676963333333","25.0107133333333","6501900","石碇區"
"223005","677-TV","2018/02/09 07:09:43","新北市石碇區碇坪路一段18號","121.651726666667","25.00588","6501900","石碇區"
"227005","282-VK","2018/02/09 07:09:28","新北市雙溪區新基里自強路5號","121.866311666667","25.0389883333333","6502500","雙溪區"
"237001","159-UY","2018/02/09 07:09:41","新北市三峽區中山路459巷163-1號","121.349315","24.9334116666667","6500900","三峽區"
"236010","165-UM","2018/02/09 07:09:40","新北市土城區中華路二段101號","121.439193333333","24.97734","6501300","土城區"
"236004","339-SR","2018/02/09 07:09:35","新北市土城區承天路78號","121.442266666667","24.9618316666667","6501300","土城區"
"220064","282-UM","2018/02/09 07:04:50","新北市板橋區國光路51號","121.458025","25.0180216666667","6500100","板橋區"
