"lineid","car","time","location","longitude","latitude","cityid","cityname"
"248005","653-BX","2018/04/09 08:29:23","新北市五股區明德路12巷6號","121.43335","25.0718316666667","6501500","五股區"
"232001","290-BY","2018/04/09 08:29:30","新北市坪林區大粗坑6-1號","121.732221666667","24.948255","6502000","坪林區"
"232012","291-BY","2018/04/09 08:29:31","新北市坪林區金瓜寮36號","121.672971666667","24.89791","6502000","坪林區"
"232017","705-BZ","2018/04/09 08:28:38","新北市坪林區柑腳坑15號","121.772776666667","24.9468583333333","6502000","坪林區"
"232005","758-BX","2018/04/09 08:29:34","新北市坪林區鶯子瀨2號","121.707446666667","24.9158","6502000","坪林區"
"244012","069-UM","2018/04/09 08:29:37","新北市林口區中正路398號","121.384821666667","25.0778516666667","6501700","林口區"
"244006","080-UY","2018/04/09 08:29:32","新北市林口區湖子10-2號","121.387726666667","25.0903233333333","6501700","林口區"
"244001","248-BX","2018/04/09 08:29:26","新北市林口區下福里157-3號","121.302128333333","25.115175","6501700","林口區"
"244024","742-UY","2018/04/09 08:29:24","新北市林口區忠孝三路13號","121.361173333333","25.0692716666667","6501700","林口區"
"244008","410-SL","2018/04/09 08:29:38","新北市林口區寶林路269號","121.384346666667","25.0848516666667","6501700","林口區"
"244022","483-VK","2018/04/09 08:29:23","新北市林口區東明一街1巷8號","121.393356666667","25.0724816666667","6501700","林口區"
"244016","485-VK","2018/04/09 08:29:28","新北市林口區文化二路一段260巷1-1號","121.371396666667","25.0733533333333","6501700","林口區"
"244018","657-BX","2018/04/09 08:29:32","新北市林口區公園路120-1號","121.370563333333","25.071305","6501700","林口區"
"244010","701-TV","2018/04/09 08:29:38","新北市林口區中正路160號","121.392468333333","25.077375","6501700","林口區"
"244020","838-TS","2018/04/09 08:29:22","新北市林口區東林街14號","121.396235","25.07894","6501700","林口區"
"222005","289-BY","2018/04/09 08:29:37","新北市深坑區萬福路126號","121.617141666667","25.0142466666667","6501800","深坑區"
"231007","189-VK","2018/04/09 08:29:34","新北市新店區新潭路二段61號","121.521916666667","24.9262233333333","6500600","新店區"
"231008","192-VK","2018/04/09 08:29:44","新北市新店區桂山路87號","121.55421","24.9040216666667","6500600","新店區"
"235001","611-BX","2018/04/09 08:29:28","新北市中和區連城路314號","121.483581666667","24.99617","6500300","中和區"
"226005","5620-A6","2018/04/09 08:29:39","新北市平溪區南山里六分3號","121.794176666667","25.0490666666667","6502400","平溪區"
"226001","7418-A5","2018/04/09 08:29:35","新北市平溪區東勢里芊蓁林61號","121.750423333333","25.0051566666667","6502400","平溪區"
"226003","AGD-0702","2018/04/09 08:29:34","新北市平溪區新寮里新寮路1號","121.793005","25.0592933333333","6502400","平溪區"
"223006","022-BY","2018/04/09 08:29:35","新北市深坑區昇高坑路51-1號","121.630253333333","24.994125","6501900","石碇區"
"223002","KEA-2673","2018/04/09 08:29:42","新北市石碇區碇格路二段15號","121.641566666667","24.9546016666667","6501900","石碇區"
"223001","205-TH","2018/04/09 08:29:38","新北市石碇區北宜路六段塗潭巷9號","121.646465","24.9325483333333","6501900","石碇區"
"223008","406-TH","2018/04/09 08:29:43","新北市石碇區十八重溪6號","121.678013333333","25.0112683333333","6501900","石碇區"
"223001","592-UM","2018/04/09 08:29:23","新北市石碇區北宜路六段塗潭巷9號","121.646531666667","24.93252","6501900","石碇區"
"223004","660-BX","2018/04/09 08:29:26","新北市石碇區碇坪路一段226號","121.674761666667","24.9809833333333","6501900","石碇區"
"223007","661-BX","2018/04/09 08:29:31","新北市石碇區十八重溪6號","121.677998333333","25.011245","6501900","石碇區"
"223005","677-TV","2018/04/09 08:29:31","新北市石碇區碇坪路一段135號","121.673331666667","24.98147","6501900","石碇區"
"227005","030-BX","2018/04/09 08:29:24","新北市雙溪區外柑里三叉坑8號","121.8277","25.0083116666667","6502500","雙溪區"
"252006","073-UM","2018/04/09 08:29:29","新北市三芝區蘭陽街13-1號","121.473533333333","25.2423816666667","6502100","三芝區"
"252002","178-VK","2018/04/09 08:29:33","新北市三芝區中山路二段50號","121.503251666667","25.254405","6502100","三芝區"
"252004","249-BX","2018/04/09 08:29:23","新北市三芝區興華里楓子林45-3號","121.501445","25.204585","6502100","三芝區"
"237001","159-UY","2018/04/09 08:29:23","新北市三峽區大德路38號","121.37777","24.9425966666667","6500900","三峽區"
"236007","165-UM","2018/04/09 08:29:38","新北市土城區石門路95號","121.46862","24.9597266666667","6501300","土城區"
"236001","339-SR","2018/04/09 08:29:23","新北市土城區中州路30巷39號","121.413015","24.95961","6501300","土城區"
"236005","498-BY","2018/04/09 08:29:29","新北市土城區大暖路10號","121.4234","24.96053","6501300","土城區"
"242033","AAC-296","2018/04/09 08:29:24","新北市新莊區福海街23號","121.445075","25.0337533333333","6500500","新莊區"
"242057","986-R7","2018/04/09 08:29:26","新北市新莊區新北大道七段233號","121.413183333333","25.0299233333333","6500500","新莊區"
"242052","751-BX","2018/04/09 08:29:28","新北市新莊區民安西路468號","121.431566666667","25.007945","6500500","新莊區"
"242028","705-TV","2018/04/09 08:29:22","新北市新莊區中平路110巷4-1號","121.4455","25.045975","6500500","新莊區"
"242026","615-BX","2018/04/09 08:29:35","新北市新莊區思源路349號","121.45985","25.0503416666667","6500500","新莊區"
"242040","566-BX","2018/04/09 08:29:24","新北市新莊區天祥街120巷3弄2號","121.414805","25.03044","6500500","新莊區"
"242008","497-BY","2018/04/09 08:29:28","新北市新莊區昌平街59巷11弄5號","121.453888333333","25.053085","6500500","新莊區"
"242045","442-UM","2018/04/09 08:29:30","新北市新莊區中正路651-8號","121.429975","25.0301133333333","6500500","新莊區"
"242049","441-UM","2018/04/09 08:29:32","新北市新莊區民本街25巷15號","121.429075","25.0195366666667","6500500","新莊區"
"242055","440-UM","2018/04/09 08:29:34","新北市新莊區豐年街100巷2號","121.446261666667","25.0308","6500500","新莊區"
"242035","415-TV","2018/04/09 08:29:36","新北市新莊區後港一路65巷1號","121.426411666667","25.026645","6500500","新莊區"
"242006","413-TV","2018/04/09 08:29:35","新北市新莊區中央路281號","121.45343","25.05881","6500500","新莊區"
"242043","400-BY","2018/04/09 08:29:20","新北市新莊區雙鳳路121號","121.413373333333","25.0279783333333","6500500","新莊區"
"242022","362-BY","2018/04/09 08:29:35","新北市新莊區化成路306號","121.465688333333","25.0481083333333","6500500","新莊區"
"242059","353-BY","2018/04/09 08:29:41","新北市新莊區新樹路259號","121.43466","25.0215516666667","6500500","新莊區"
"242038","133-UY","2018/04/09 08:29:35","新北市新莊區民安西路38巷19號","121.426768333333","25.0205983333333","6500500","新莊區"
"242047","172-VK","2018/04/09 08:29:30","新北市新莊區萬安街87巷17弄5號","121.421895","25.0236016666667","6500500","新莊區"
"242010","173-VK","2018/04/09 08:28:08","新北市新莊區中港路中慶巷34號","121.449196666667","25.0537483333333","6500500","新莊區"
"242016","175-VK","2018/04/09 08:29:36","新北市新莊區永樂街169號","121.448773333333","25.0446566666667","6500500","新莊區"
"242003","176-VK","2018/04/09 08:29:23","新北市新莊區自由街12號","121.455788333333","25.047615","6500500","新莊區"
"242014","346-TH","2018/04/09 08:29:32","新北市新莊區中和街59巷10弄2號","121.446893333333","25.0469933333333","6500500","新莊區"
"242020","348-TH","2018/04/09 08:29:28","新北市新莊區建興街54號","121.450008333333","25.0384816666667","6500500","新莊區"
"242001","349-TH","2018/04/09 08:29:27","新北市新莊區新莊路16-3號","121.45888","25.0374766666667","6500500","新莊區"
"242018","350-TH","2018/04/09 08:29:27","新北市新莊區明中街49巷15號","121.456745","25.0389416666667","6500500","新莊區"
"242012","351-TH","2018/04/09 08:29:37","新北市新莊區中泰街106號","121.448918333333","25.04671","6500500","新莊區"
"220077","282-UM","2018/04/09 08:29:24","新北市樹林區環河路600-1號","121.403646666667","24.96929","6500100","板橋區"
"242030","280-VK","2018/04/09 08:29:38","新北市新莊區新泰路277巷61號","121.443316666667","25.0400183333333","6500500","新莊區"
