"lineid","car","time","location","longitude","latitude","cityid","cityname"
"234044","148-BY","2018/04/09 13:39:16","新北市永和區永元路95巷4號","121.522538333333","25.0020366666667","6500400","永和區"
"234068","149-BY","2018/04/09 13:39:22","新北市永和區永和路二段233號","121.515615","25.0141616666667","6500400","永和區"
"234005","207-UY","2018/04/09 13:39:22","新北市永和區永和路一段100號","121.513441666667","25.0068483333333","6500400","永和區"
"234078","298-R6","2018/04/09 13:39:30","新北市永和區林森路24號","121.52589","25.005295","6500400","永和區"
"234036","336-UY","2018/04/09 13:39:23","新北市永和區民樂街31巷10弄2號","121.528156666667","25.0007116666667","6500400","永和區"
"234062","337-UY","2018/04/09 13:39:23","新北市永和區秀朗路一段192巷6弄20號","121.51934","25.002085","6500400","永和區"
"234066","553-UM","2018/04/09 13:39:25","新北市永和區中山路一段191巷9弄2號","121.509738333333","25.008035","6500400","永和區"
"234015","745-BX","2018/04/09 13:39:20","新北市永和區文化路90巷32弄7號","121.513418333333","25.016965","6500400","永和區"
"234028","746-BX","2018/04/09 13:39:18","新北市永和區四維街119號","121.523233333333","24.99814","6500400","永和區"
"234052","KEA-2590","2018/04/09 13:39:30","新北市永和區竹林路39巷26號","121.519041666667","25.014755","6500400","永和區"
"234012","KEA-2591","2018/04/09 13:39:16","新北市永和區永平路238巷7號","121.509275","25.0115266666667","6500400","永和區"
"234060","AAD-866","2018/04/09 13:39:24","新北市永和區中正路446號","121.517456666667","25.002875","6500400","永和區"
"234084","847-RS","2018/04/09 13:39:28","新北市永和區永亨路165巷1-4號","121.526198333333","25.004195","6500400","永和區"
"234040","862-TW","2018/04/09 13:39:18","新北市永和區中和路597巷4號","121.512186666667","25.0045783333333","6500400","永和區"
"234048","863-TW","2018/04/09 13:39:31","新北市永和區保安路116號","121.509373333333","25.0157383333333","6500400","永和區"
"234025","9371-KE","2018/04/09 13:39:15","新北市永和區中山路一段9號","121.51416","25.0103316666667","6500400","永和區"
"234010","9373-KE","2018/04/09 13:39:23","新北市永和區保福路二段23巷19號","121.510131666667","25.0111783333333","6500400","永和區"
"248013","025-BX","2018/04/09 13:39:19","新北市五股區中興路四段67-2號","121.436953333333","25.0833666666667","6501500","五股區"
"248015","026-BX","2018/04/09 13:39:28","新北市五股區凌雲路一段149巷42號","121.448605","25.1008983333333","6501500","五股區"
"248005","077-UY","2018/04/09 13:39:12","新北市五股區中興路一段56號","121.467878333333","25.0726","6501500","五股區"
"248007","095-VK","2018/04/09 13:39:23","新北市五股區中興路一段150巷21號","121.464668333333","25.0746316666667","6501500","五股區"
"248019","225-UY","2018/04/09 13:38:18","新北市五股區凌雲路三段田埔巷35-1號","121.439721666667","25.1223983333333","6501500","五股區"
"248011","247-BX","2018/04/09 13:39:26","新北市五股區成泰路三段2巷1-20號","121.441228333333","25.08664","6501500","五股區"
"248003","677-BX","2018/04/09 13:39:20","新北市五股區民義路一段206號","121.430315","25.0890966666667","6501500","五股區"
"248001","678-BX","2018/04/09 13:39:14","新北市五股區西雲路272號","121.44928","25.0976916666667","6501500","五股區"
"248009","682-TV","2018/04/09 13:39:21","新北市五股區水碓一路61號","121.431776666667","25.0724033333333","6501500","五股區"
"234076","969-R7","2018/04/09 13:39:18","新北市永和區得和路229號","121.519861666667","25.0001183333333","6500400","永和區"
"234072","AAC-211","2018/04/09 13:39:24","新北市永和區竹林路225巷41號","121.52314","25.00886","6500400","永和區"
"234001","AAC-295","2018/04/09 13:39:26","新北市永和區秀朗路一段28號","121.514098333333","25.00671","6500400","永和區"
"244001","248-BX","2018/04/09 13:39:22","新北市林口區瑞平里8鄰56號","121.343171666667","25.1214066666667","6501700","林口區"
"243004","AAD-798","2018/04/09 13:39:21","新北市泰山區泰林路二段282號","121.431283333333","25.06251","6501600","泰山區"
"243005","539-UM","2018/04/09 13:39:12","新北市泰山區明志路三段206巷3號","121.42326","25.037935","6501600","泰山區"
"243008","680-BX","2018/04/09 13:39:13","新北市泰山區泰林路二段599巷1-1號","121.421301666667","25.0633616666667","6501600","泰山區"
"231002","002-UM","2018/04/09 13:39:20","新北市新店區溪園路509號","121.524093333333","24.976965","6500600","新店區"
"231027","0293-UT","2018/04/09 13:39:16","新北市新店區北宜路一段105巷4弄7號","121.540216666667","24.9555333333333","6500600","新店區"
"231028","046-UY","2018/04/09 13:39:22","新北市新店區安和路一段52巷2-1號","121.517755","24.9666416666667","6500600","新店區"
"231001","047-UY","2018/04/09 13:39:15","新北市新店區中正路397號","121.534566666667","24.9773616666667","6500600","新店區"
"231005","106-UY","2018/04/09 13:39:21","新北市新店區寶中路72號","121.547896666667","24.9806","6500600","新店區"
"231019","108-UY","2018/04/09 13:39:17","新北市新店區永興路132-3號","121.544805","24.9317016666667","6500600","新店區"
"231011","187-VK","2018/04/09 13:39:18","新北市新店區德正街25巷2號","121.544355","24.97159","6500600","新店區"
"231010","188-VK","2018/04/09 13:39:13","新北市新店區三民路98-5號","121.534156666667","24.9732783333333","6500600","新店區"
"231026","256-BX","2018/04/09 13:39:13","新北市新店區北新路一段273號","121.541113333333","24.9667583333333","6500600","新店區"
"231018","278-BY","2018/04/09 13:39:18","新北市新店區百忍街33號","121.533688333333","24.97578","6500600","新店區"
"231014","AAD-862","2018/04/09 13:39:29","新北市新店區竹林路28號","121.551646666667","24.951195","6500600","新店區"
"231038","3713-VJ","2018/04/09 13:39:22","新北市新店區安華路30巷1號","121.519558333333","24.9592633333333","6500600","新店區"
"231037","4716-K9","2018/04/09 13:39:16","新北市新店區薏仁坑路23號","121.497948333333","24.9591933333333","6500600","新店區"
"231025","4715-K9","2018/04/09 13:39:22","新北市新店區中央六街58號","121.527888333333","24.9758233333333","6500600","新店區"
"231036","512-UM","2018/04/09 13:39:25","新北市新店區安祥路147巷46號","121.4766","24.95686","6500600","新店區"
"231013","513-UM","2018/04/09 13:39:21","新北市新店區中正路454-5號","121.53442","24.9790483333333","6500600","新店區"
"231030","619-UM","2018/04/09 13:39:23","新北市新店區安康路一段293號","121.522795","24.9636833333333","6500600","新店區"
"231034","641-BX","2018/04/09 13:39:19","新北市新店區達觀路10號","121.50335","24.9437833333333","6500600","新店區"
"231003","645-TV","2018/04/09 13:39:27","新北市新店區中興路一段289號","121.545588333333","24.9686416666667","6500600","新店區"
"231035","719-UM","2018/04/09 13:39:28","新北市新店區安忠路56巷6號","121.512943333333","24.9594166666667","6500600","新店區"
"231023","719-UY","2018/04/09 13:39:26","新北市新店區新店路140號","121.537216666667","24.955235","6500600","新店區"
"231031","720-UM","2018/04/09 13:39:18","新北市新店區安華路1-1號","121.519498333333","24.96031","6500600","新店區"
"231029","897-TW","2018/04/09 13:39:14","新北市新店區安康路二段350-1號","121.502813333333","24.9576333333333","6500600","新店區"
"231006","898-TW","2018/04/09 13:39:20","新北市新店區北宜路一段76號","121.538583333333","24.9558783333333","6500600","新店區"
"231004","899-TW","2018/04/09 13:39:14","新北市新店區北新路二段9號","121.542641666667","24.9714","6500600","新店區"
"231024","AKT-0513","2018/04/09 13:39:14","新北市新店區華興街38巷5號","121.53702","24.96921","6500600","新店區"
"235030","003-UY","2018/04/09 13:39:27","新北市中和區水源路35號","121.504381666667","25.0035483333333","6500300","中和區"
"235028","005-UY","2018/04/09 13:39:27","新北市中和區連城路127巷31號","121.49743","24.99749","6500300","中和區"
"235027","006-UY","2018/04/09 13:39:16","新北市中和區連城路401號","121.486173333333","24.9960166666667","6500300","中和區"
"235020","096-UM","2018/04/09 13:39:11","新北市中和區員山路466巷17弄7號","121.480578333333","25.0069333333333","6500300","中和區"
"235029","098-UM","2018/04/09 13:39:21","新北市中和區莊敬路33巷13號","121.500251666667","25.0068433333333","6500300","中和區"
"235004","150-BY","2018/04/09 13:39:18","新北市中和區保健路50巷68號","121.509178333333","24.9951966666667","6500300","中和區"
"235022","151-BY","2018/04/09 13:39:28","新北市中和區圓通路369巷39號","121.489765","24.9859416666667","6500300","中和區"
"235019","183-VK","2018/04/09 13:39:15","新北市中和區莒光路120巷44號","121.471613333333","25.0011683333333","6500300","中和區"
"235002","185-VK","2018/04/09 13:39:29","新北市中和區立人街30號","121.518551666667","24.9941333333333","6500300","中和區"
"235013","186-VK","2018/04/09 13:39:12","新北市中和區明義街11巷16號","121.503546666667","24.994505","6500300","中和區"
"235031","255-BX","2018/04/09 13:29:08","新北市中和區員山路146巷19號","121.482506666667","24.9969166666667","6500300","中和區"
"235008","293-VK","2018/04/09 13:39:18","新北市中和區復興路280巷15號","121.502323333333","24.9913866666667","6500300","中和區"
"235036","301-VK","2018/04/09 13:39:24","新北市中和區中山路二段193號","121.499938333333","25.0026283333333","6500300","中和區"
"235007","352-BY","2018/04/09 13:39:20","新北市中和區景平路165號","121.51232","24.9924066666667","6500300","中和區"
"235032","377-QA","2018/04/09 13:39:25","新北市中和區中正路211巷13弄5號","121.497163333333","24.9930983333333","6500300","中和區"
"235025","378-QA","2018/04/09 13:39:33","新北市中和區民享街114巷13號","121.474001666667","24.9993366666667","6500300","中和區"
"235014","4979-A6","2018/04/09 13:39:26","新北市中和區景新街496巷28-1號","121.51346","24.9856566666667","6500300","中和區"
"235033","4980-A6","2018/04/09 13:39:25","新北市中和區連城路87號","121.496971666667","25.00042","6500300","中和區"
"235006","551-UM","2018/04/09 13:39:24","新北市中和區秀朗路三段175巷23號","121.525763333333","24.9908233333333","6500300","中和區"
"235034","558-UM","2018/04/09 13:39:23","新北市中和區安和路159號","121.506035","24.997305","6500300","中和區"
"235009","565-BX","2018/04/09 13:39:17","新北市中和區南山路236號","121.506375","24.98953","6500300","中和區"
"235018","640-BX","2018/04/09 13:39:14","新北市中和區民享街32巷9號","121.473315","25.003175","6500300","中和區"
"235011","732-UM","2018/04/09 13:39:27","新北市中和區南山路320巷1號","121.50778","24.9865116666667","6500300","中和區"
"235035","783-BX","2018/04/09 13:39:16","新北市中和區永和路512號","121.482351666667","25.0122","6500300","中和區"
"235026","800-TS","2018/04/09 13:28:52","新北市中和區景平路731號","121.496291666667","25.0042266666667","6500300","中和區"
"235021","801-TS","2018/04/09 13:39:29","新北市中和區員山路327巷45號","121.479438333333","25.0022766666667","6500300","中和區"
"235005","802-TS","2018/04/09 13:39:23","新北市中和區中安街80巷3號","121.511958333333","25.002025","6500300","中和區"
"235016","805-TS","2018/04/09 13:39:32","新北市中和區興南路三段52巷1-3號","121.494018333333","24.9760233333333","6500300","中和區"
"235012","896-TW","2018/04/09 13:39:19","新北市中和區中正路81號","121.500706666667","24.9934216666667","6500300","中和區"
"235017","900-TW","2018/04/09 13:39:16","新北市中和區華安街98-1號","121.468478333333","24.9958483333333","6500300","中和區"
"235024","911-UM","2018/04/09 13:39:28","新北市中和區中山路二段537號","121.48137","25.00542","6500300","中和區"
"235015","157-BY","2018/04/09 13:39:17","新北市中和區華新街143巷106弄7號","121.506105","24.9788566666667","6500300","中和區"
"235001","AAC-213","2018/04/09 13:39:12","新北市中和區景德街141號","121.514563333333","24.9910433333333","6500300","中和區"
"235023","AAC-215","2018/04/09 13:39:26","新北市中和區員山路36巷16-3號","121.485115","24.9914216666667","6500300","中和區"
"220004","015-TV","2018/04/09 13:39:16","新北市板橋區華東街1-9號","121.448201666667","24.9949983333333","6500100","板橋區"
"220013","072-UY","2018/04/09 13:39:24","新北市板橋區三民路二段188號","121.479068333333","25.0148633333333","6500100","板橋區"
"220034","073-UY","2018/04/09 13:39:24","新北市板橋區南雅西路二段192巷3號","121.452066666667","25.01444","6500100","板橋區"
"220014","075-UY","2018/04/09 13:39:10","新北市板橋區民生路二段120號","121.47036","25.019775","6500100","板橋區"
"220017","AAD-861","2018/04/09 13:39:09","新北市板橋區華東街1-10號","121.44869","24.9950166666667","6500100","板橋區"
"247007","056-VK","2018/04/09 13:39:13","新北市蘆洲區國道路二段103號","121.470555","25.07486","6501400","蘆洲區"
"247019","001-UY","2018/04/09 13:39:11","新北市五股區成泰路三段436號","121.451968333333","25.0992233333333","6501400","蘆洲區"
"235003","251-BX","2018/04/09 13:39:25","新北市中和區大勇街25巷29弄4號","121.515165","24.9938766666667","6500300","中和區"
"253003","6232-TK","2018/04/09 13:39:20","新北市石門區尖子鹿5-1號","121.57189","25.2813133333333","6502200","石門區"
"253001","6251-TK","2018/04/09 13:39:27","新北市石門區白沙灣別墅39-1號","121.509398333333","25.2785766666667","6502200","石門區"
"253002","637-UY","2018/04/09 13:38:25","新北市石門區九芎林16-1號","121.565038333333","25.2596166666667","6502200","石門區"
"253004","8270-PC","2018/04/09 13:39:27","新北市石門區阿里荖60-1號","121.607341666667","25.2712666666667","6502200","石門區"
"207002","749-BX","2018/04/09 13:39:22","新北市萬里區崁腳里崁腳路166號","121.645046666667","25.1558216666667","6502800","萬里區"
"252005","073-UM","2018/04/09 13:39:28","新北市三芝區圓山里木屐寮30號","121.53316","25.2222966666667","6502100","三芝區"
"207001","662-BX","2018/04/09 13:39:30","新北市萬里區大鵬里萬里加投63號","121.640625","25.2132","6502800","萬里區"
"236064","105-UM","2018/04/09 13:39:21","新北市土城區城林路6巷80號","121.438766666667","24.9796416666667","6501300","土城區"
"236040","107-UM","2018/04/09 13:39:15","新北市土城區城林路6巷80號","121.438493333333","24.9797716666667","6501300","土城區"
"236074","166-UM","2018/04/09 13:39:20","新北市土城區中央路二段276號","121.440903333333","24.9741416666667","6501300","土城區"
"236029","253-BX","2018/04/09 13:39:28","新北市土城區城林路6巷80號","121.438436666667","24.9797933333333","6501300","土城區"
"236012","270-VK","2018/04/09 13:39:21","新北市土城區城林路6巷80號","121.438595","24.9797233333333","6501300","土城區"
"236005","498-BY","2018/04/09 13:39:24","新北市土城區慶祥街82號","121.436126666667","24.9734183333333","6501300","土城區"
"242047","172-VK","2018/04/09 13:39:11","新北市樹林區中山路三段214號","121.38023","24.967965","6500500","新莊區"
"221032","280-BY","2018/04/09 13:39:26","新北市汐止區仁愛路1-2號","121.658948333333","25.0647083333333","6501100","汐止區"
"220027","145-BY","2018/04/09 13:39:30","新北市板橋區南雅西路二段180巷12號","121.452171666667","25.013935","6500100","板橋區"
"220028","200-UY","2018/04/09 13:39:27","新北市板橋區大觀路二段431-1號","121.441405","24.9950666666667","6500100","板橋區"
"220030","610-BX","2018/04/09 13:39:16","新北市板橋區華東街1-8號","121.44768","24.994795","6500100","板橋區"
"220020","277-BY","2018/04/09 13:39:21","新北市板橋區大觀路二段11-12號","121.447858333333","24.9965783333333","6500100","板橋區"
"220019","283-VK","2018/04/09 13:39:20","新北市板橋區四川路二段橋頭9號","121.448238333333","24.9934516666667","6500100","板橋區"
"220031","286-VK","2018/04/09 13:39:23","新北市板橋區大觀路二段153巷39弄1號","121.447103333333","25.0006783333333","6500100","板橋區"
"220029","287-VK","2018/04/09 13:39:18","新北市板橋區大觀路二段153巷39弄1號","121.446965","25.0004566666667","6500100","板橋區"
"220039","288-VK","2018/04/09 13:39:21","新北市板橋區民生路二段120號","121.470808333333","25.0200683333333","6500100","板橋區"
"220009","293-UM","2018/04/09 13:39:25","新北市板橋區民生路二段120號","121.470425","25.019765","6500100","板橋區"
"220023","303-R5","2018/04/09 13:39:18","新北市板橋區南雅南路二段120-12號","121.452175","24.9994516666667","6500100","板橋區"
"220010","305-R5","2018/04/09 13:39:20","新北市板橋區民生路二段120號","121.470486666667","25.0197316666667","6500100","板橋區"
"220047","317-R6","2018/04/09 13:39:13","新北市板橋區民生路二段120號","121.470726666667","25.0196866666667","6500100","板橋區"
"220104","560-BX","2018/04/09 13:39:12","新北市板橋區南雅西路二段145巷6號","121.451626666667","25.0117483333333","6500100","板橋區"
"220052","561-BX","2018/04/09 13:39:24","新北市板橋區民生路二段161巷9號","121.470275","25.0195466666667","6500100","板橋區"
"220032","568-UM","2018/04/09 13:39:21","新北市板橋區大觀路二段153巷44弄53號","121.446005","24.9989583333333","6500100","板橋區"
"220003","630-UY","2018/04/09 13:39:19","新北市板橋區華東街1-9號","121.448176666667","24.9949416666667","6500100","板橋區"
"220005","686-BX","2018/04/09 13:39:25","新北市板橋區華東街1-9號","121.448195","24.99492","6500100","板橋區"
"220042","689-BX","2018/04/09 13:39:29","新北市板橋區民生路二段161巷1號","121.470108333333","25.0201283333333","6500100","板橋區"
"220002","741-BX","2018/04/09 13:39:28","新北市板橋區華東街1-9號","121.448103333333","24.9949466666667","6500100","板橋區"
"220021","985-R7","2018/04/09 13:39:14","新北市板橋區南雅南路二段11-23號","121.453936666667","25.002195","6500100","板橋區"
"220025","AAC-253","2018/04/09 13:39:20","新北市板橋區大觀路三段212巷72號","121.429776666667","24.9934383333333","6500100","板橋區"
