"lineid","car","time","location","longitude","latitude","cityid","cityname"
"234044","148-BY","2018/04/09 13:49:16","新北市永和區永利路163號","121.524993333333","25.0034683333333","6500400","永和區"
"234068","149-BY","2018/04/09 13:49:22","新北市永和區竹林路88號","121.519398333333","25.0126","6500400","永和區"
"234005","207-UY","2018/04/09 13:49:22","新北市中和區中和路452號","121.512281666667","25.0036083333333","6500400","永和區"
"234078","298-R6","2018/04/09 13:49:30","新北市永和區永利路81巷21號","121.522226666667","25.003885","6500400","永和區"
"234036","336-UY","2018/04/09 13:49:23","新北市永和區民樂街57巷6號","121.52801","24.9985283333333","6500400","永和區"
"234062","337-UY","2018/04/09 13:49:13","新北市永和區中正路368巷2號","121.51795","25.000805","6500400","永和區"
"234066","553-UM","2018/04/09 13:49:24","新北市永和區保平路236巷29號","121.507943333333","25.00695","6500400","永和區"
"234015","745-BX","2018/04/09 13:49:20","新北市永和區永和路二段290號","121.516085","25.0157866666667","6500400","永和區"
"234028","746-BX","2018/04/09 13:49:18","新北市永和區民生路67巷22號","121.523805","24.9971366666667","6500400","永和區"
"234052","KEA-2590","2018/04/09 13:49:30","新北市永和區竹林路39巷28弄11號","121.519561666667","25.0144383333333","6500400","永和區"
"234012","KEA-2591","2018/04/09 13:49:26","新北市永和區永平路280號","121.507873333333","25.0117733333333","6500400","永和區"
"234060","AAD-866","2018/04/09 13:49:24","新北市中和區安樂路139號","121.51453","24.9967266666667","6500400","永和區"
"234084","847-RS","2018/04/09 13:49:28","新北市永和區永利路40號","121.51871","25.0055033333333","6500400","永和區"
"234040","862-TW","2018/04/09 13:49:24","新北市永和區中和路389巷4號","121.508153333333","25.0007316666667","6500400","永和區"
"234048","863-TW","2018/04/09 13:49:11","新北市永和區保福路二段163巷12號","121.508833333333","25.014825","6500400","永和區"
"234010","9373-KE","2018/04/09 13:49:23","新北市永和區保安路254號","121.506261666667","25.0124933333333","6500400","永和區"
"248015","026-BX","2018/04/09 13:49:28","新北市五股區凌雲路一段149巷42號","121.448583333333","25.100905","6501500","五股區"
"248007","095-VK","2018/04/09 13:49:23","新北市五股區中興路一段145號","121.465243333333","25.0735383333333","6501500","五股區"
"248019","225-UY","2018/04/09 13:49:18","新北市五股區凌雲路三段45-2號","121.4278","25.12029","6501500","五股區"
"248011","247-BX","2018/04/09 13:49:26","新北市五股區成泰路二段195巷1號","121.440335","25.0873566666667","6501500","五股區"
"248003","677-BX","2018/04/09 13:49:20","新北市五股區民義路一段314-1號","121.422158333333","25.0956783333333","6501500","五股區"
"248001","678-BX","2018/04/09 13:49:14","新北市五股區成泰路三段454號","121.451373333333","25.1004066666667","6501500","五股區"
"248009","682-TV","2018/04/09 13:49:21","新北市五股區水碓五路81號","121.429973333333","25.07193","6501500","五股區"
"234076","969-R7","2018/04/09 13:49:32","新北市永和區民族街27巷17號","121.519886666667","24.9995033333333","6500400","永和區"
"234072","AAC-211","2018/04/09 13:49:20","新北市永和區竹林路179巷38號","121.522118333333","25.0101916666667","6500400","永和區"
"234001","AAC-295","2018/04/09 13:49:26","新北市永和區永和路一段45號","121.512855","25.006485","6500400","永和區"
"244001","248-BX","2018/04/09 13:49:22","新北市林口區太平里15號","121.362053333333","25.133255","6501700","林口區"
"243004","AAD-798","2018/04/09 13:49:21","新北市泰山區福興三街13號","121.434461666667","25.0577933333333","6501600","泰山區"
"243005","539-UM","2018/04/09 13:49:12","新北市泰山區明志路三段206巷3號","121.42325","25.0379533333333","6501600","泰山區"
"243002","KEA-2215","2018/04/09 13:49:17","新北市泰山區辭修路24號","121.429","25.0581316666667","6501600","泰山區"
"243001","KEA-2216","2018/04/09 13:49:11","新北市泰山區黎明路25號","121.42188","25.06075","6501600","泰山區"
"243008","680-BX","2018/04/09 13:49:13","新北市泰山區明志路二段137號","121.427696666667","25.0506783333333","6501600","泰山區"
"231002","002-UM","2018/04/09 13:49:20","新北市新店區溪園路393號","121.524266666667","24.9790666666667","6500600","新店區"
"231027","0293-UT","2018/04/09 13:49:16","新北市新店區光明街138巷13弄1號","121.540358333333","24.96108","6500600","新店區"
"231028","046-UY","2018/04/09 13:49:21","新北市新店區安和路二段211號","121.51766","24.9754283333333","6500600","新店區"
"231001","047-UY","2018/04/09 13:49:18","新北市新店區三民路62號","121.535125","24.9721666666667","6500600","新店區"
"231005","106-UY","2018/04/09 13:49:21","新北市新店區寶中路123號","121.549643333333","24.9793866666667","6500600","新店區"
"231019","108-UY","2018/04/09 13:49:17","新北市新店區新烏路二段50巷3號","121.547801666667","24.9276183333333","6500600","新店區"
"231011","187-VK","2018/04/09 13:49:15","新北市新店區德正街27巷29弄145號","121.545696666667","24.9734116666667","6500600","新店區"
"231010","188-VK","2018/04/09 13:49:13","新北市新店區平等街41號","121.536486666667","24.9732166666667","6500600","新店區"
"231026","256-BX","2018/04/09 13:49:26","新北市新店區三民路82號","121.53464","24.9727016666667","6500600","新店區"
"231018","278-BY","2018/04/09 13:49:22","新北市新店區中正路398號","121.534683333333","24.9774866666667","6500600","新店區"
"231014","AAD-862","2018/04/09 13:49:16","新北市新店區竹林路94號","121.553818333333","24.9502433333333","6500600","新店區"
"231038","3713-VJ","2018/04/09 13:49:22","新北市新店區安康路一段228號","121.523173333333","24.9636483333333","6500600","新店區"
"231037","4716-K9","2018/04/09 13:49:16","新北市新店區安康路三段359巷12弄2號","121.484516666667","24.9500233333333","6500600","新店區"
"231025","4715-K9","2018/04/09 13:49:21","新北市新店區中央五街1號","121.530121666667","24.9740483333333","6500600","新店區"
"231036","512-UM","2018/04/09 13:49:25","新北市新店區安祥路110巷30弄15號","121.474275","24.957065","6500600","新店區"
"231013","513-UM","2018/04/09 13:49:21","新北市新店區二十張路19號","121.539293333333","24.9821683333333","6500600","新店區"
"231030","619-UM","2018/04/09 13:49:27","新北市新店區安康路一段44號","121.530678333333","24.9610116666667","6500600","新店區"
"231034","641-BX","2018/04/09 13:49:19","新北市新店區達觀路16號","121.502885","24.9410883333333","6500600","新店區"
"231003","645-TV","2018/04/09 13:49:27","新北市新店區中興路一段162號","121.542613333333","24.96401","6500600","新店區"
"231035","719-UM","2018/04/09 13:49:28","新北市新店區安忠路57巷2號","121.513383333333","24.9592583333333","6500600","新店區"
"231023","719-UY","2018/04/09 13:49:26","新北市新店區國校路65巷1號","121.5384","24.95409","6500600","新店區"
"231031","720-UM","2018/04/09 13:49:18","新北市新店區莒光路44巷21弄11-3號","121.518351666667","24.9522416666667","6500600","新店區"
"231029","897-TW","2018/04/09 13:49:14","新北市新店區安康路二段125-1號","121.512441666667","24.9608766666667","6500600","新店區"
"231006","898-TW","2018/04/09 13:49:20","新北市新店區北宜路一段250號","121.545288333333","24.9528983333333","6500600","新店區"
"231004","899-TW","2018/04/09 13:49:14","新北市新店區寶橋路48號","121.545693333333","24.97481","6500600","新店區"
"231024","AKT-0513","2018/04/09 13:49:14","新北市新店區新生街11號","121.540036666667","24.966165","6500600","新店區"
"235030","003-UY","2018/04/09 13:49:28","新北市中和區水源路7巷2號","121.503948333333","25.0036883333333","6500300","中和區"
"235028","005-UY","2018/04/09 13:49:27","新北市中和區連城路75巷13號","121.498505","24.99837","6500300","中和區"
"235027","006-UY","2018/04/09 13:49:16","新北市中和區連城路319巷12號","121.48915","24.995105","6500300","中和區"
"235020","096-UM","2018/04/09 13:49:32","新北市中和區立德街329號","121.48152","25.0104566666667","6500300","中和區"
"235029","098-UM","2018/04/09 13:49:31","新北市中和區中山路二段2巷45弄26-9號","121.501081666667","25.0069966666667","6500300","中和區"
"235004","150-BY","2018/04/09 13:49:18","新北市中和區保健路48巷3號","121.510018333333","24.9969066666667","6500300","中和區"
"235022","151-BY","2018/04/09 13:49:28","新北市中和區員山路107號","121.480861666667","24.9945766666667","6500300","中和區"
"235019","183-VK","2018/04/09 13:49:15","新北市中和區德光路77巷6弄4號","121.469718333333","25.0034583333333","6500300","中和區"
"235002","185-VK","2018/04/09 13:49:29","新北市中和區立人街24-5號","121.518858333333","24.99418","6500300","中和區"
"235013","186-VK","2018/04/09 13:49:13","新北市中和區景安路175-1號","121.505221666667","24.9942916666667","6500300","中和區"
"235031","255-BX","2018/04/09 13:49:28","新北市中和區新生街220巷17號","121.482885","24.9985283333333","6500300","中和區"
"235008","293-VK","2018/04/09 13:49:13","新北市中和區中興街137號","121.500021666667","24.9913516666667","6500300","中和區"
"235036","301-VK","2018/04/09 13:49:24","新北市中和區中山路二段47號","121.504471666667","25.00485","6500300","中和區"
"235007","352-BY","2018/04/09 13:49:20","新北市中和區景平路1號","121.525838333333","24.98999","6500300","中和區"
"235032","377-QA","2018/04/09 13:49:25","新北市中和區圓通路293-1號","121.495026666667","24.9926166666667","6500300","中和區"
"235025","378-QA","2018/04/09 13:49:12","新北市中和區自治街16號","121.474566666667","25.0029666666667","6500300","中和區"
"235014","4979-A6","2018/04/09 13:49:26","新北市中和區忠孝街62巷5號","121.512691666667","24.9835783333333","6500300","中和區"
"235033","4980-A6","2018/04/09 13:49:25","新北市中和區南山路51-1號","121.50208","24.99843","6500300","中和區"
"235006","551-UM","2018/04/09 13:49:24","新北市中和區秀朗路三段135巷18弄2號","121.52533","24.991985","6500300","中和區"
"235034","558-UM","2018/04/09 13:49:23","新北市中和區南山路24號","121.501958333333","24.9982016666667","6500300","中和區"
"235009","565-BX","2018/04/09 13:49:17","新北市中和區復興路37號","121.505221666667","24.989905","6500300","中和區"
"235018","640-BX","2018/04/09 13:49:14","新北市中和區民享街38-2號","121.473955","25.0029533333333","6500300","中和區"
"235011","732-UM","2018/04/09 13:49:27","新北市中和區興南路二段34巷57弄1號","121.504855","24.98591","6500300","中和區"
"235010","733-UM","2018/04/09 13:49:19","新北市中和區仁愛街36巷45號","121.51132","24.9865666666667","6500300","中和區"
"235035","783-BX","2018/04/09 13:49:16","新北市板橋區光復街172巷31弄5-2號","121.486483333333","25.0191516666667","6500300","中和區"
"235026","800-TS","2018/04/09 13:28:52","新北市中和區景平路731號","121.496291666667","25.0042266666667","6500300","中和區"
"235021","801-TS","2018/04/09 13:49:09","新北市中和區民安街42巷34弄6號","121.479328333333","25.0012833333333","6500300","中和區"
"235005","802-TS","2018/04/09 13:49:23","新北市中和區永貞路280號","121.513125","25.00399","6500300","中和區"
"235016","805-TS","2018/04/09 13:49:28","新北市中和區興南路二段399巷22號","121.499128333333","24.9789166666667","6500300","中和區"
"235012","896-TW","2018/04/09 13:49:19","新北市中和區南山路198號","121.506021666667","24.9905333333333","6500300","中和區"
"235017","900-TW","2018/04/09 13:49:16","新北市中和區華福街40號","121.466431666667","24.9965966666667","6500300","中和區"
"235024","911-UM","2018/04/09 13:49:28","新北市中和區中山路三段41號","121.477371666667","25.0054716666667","6500300","中和區"
"235015","157-BY","2018/04/09 13:49:17","新北市中和區華新街111號","121.508566666667","24.98165","6500300","中和區"
"235001","AAC-213","2018/04/09 13:49:32","新北市中和區秀朗路三段175巷4號","121.524721666667","24.9913683333333","6500300","中和區"
"235023","AAC-215","2018/04/09 13:49:26","新北市中和區錦和路201號","121.49068","24.9904983333333","6500300","中和區"
"220004","015-TV","2018/04/09 13:49:16","新北市板橋區四川路二段91巷12號","121.453063333333","24.9945016666667","6500100","板橋區"
"220013","072-UY","2018/04/09 13:49:24","新北市板橋區漢生東路282號","121.471293333333","25.0089333333333","6500100","板橋區"
"220034","073-UY","2018/04/09 13:49:24","新北市板橋區大智街27號","121.454888333333","25.0151","6500100","板橋區"
"220014","075-UY","2018/04/09 13:49:29","新北市板橋區中山路二段37號","121.473073333333","25.0156666666667","6500100","板橋區"
"220017","AAD-861","2018/04/09 13:49:30","新北市板橋區縣民大道一段114號","121.457351666667","25.0060666666667","6500100","板橋區"
"247005","336-TH","2018/04/09 13:49:17","新北市蘆洲區中山二路256號","121.469291666667","25.0789733333333","6501400","蘆洲區"
"247007","056-VK","2018/04/09 13:49:13","新北市蘆洲區集賢路281號","121.481228333333","25.0828883333333","6501400","蘆洲區"
"247019","001-UY","2018/04/09 13:49:30","新北市蘆洲區民族路408巷46號","121.474793333333","25.0931966666667","6501400","蘆洲區"
"235003","251-BX","2018/04/09 13:49:25","新北市中和區大勇街25巷11弄1號","121.516478333333","24.9933866666667","6500300","中和區"
"253003","6232-TK","2018/04/09 13:49:20","新北市石門區尖子鹿8-1號","121.575211666667","25.2799333333333","6502200","石門區"
"253001","6251-TK","2018/04/09 13:49:27","新北市石門區下員坑16-20號","121.508986666667","25.2795783333333","6502200","石門區"
"253002","637-UY","2018/04/09 13:44:05","新北市石門區內石門78-1號","121.568616666667","25.2561533333333","6502200","石門區"
"253004","8270-PC","2018/04/09 13:49:27","新北市石門區草埔尾34號","121.60342","25.2697833333333","6502200","石門區"
"207002","749-BX","2018/04/09 13:49:22","新北市萬里區崁腳里崁腳路166號","121.645046666667","25.1558183333333","6502800","萬里區"
"252005","073-UM","2018/04/09 13:49:28","新北市三芝區圓山里內柑宅25-1號","121.536218333333","25.22351","6502100","三芝區"
"207001","662-BX","2018/04/09 13:49:30","新北市萬里區磺潭里公館崙58號","121.6287","25.2055766666667","6502800","萬里區"
"236064","105-UM","2018/04/09 13:49:21","新北市土城區員福街50號","121.440561666667","24.979045","6501300","土城區"
"236040","107-UM","2018/04/09 13:49:15","新北市土城區城林路6巷80號","121.438473333333","24.97976","6501300","土城區"
"236074","166-UM","2018/04/09 13:49:16","新北市土城區中央路三段122號","121.435125","24.96615","6501300","土城區"
"236029","253-BX","2018/04/09 13:49:28","新北市土城區城林路6巷80號","121.438383333333","24.9797766666667","6501300","土城區"
"236012","270-VK","2018/04/09 13:49:21","新北市土城區城林路6巷80號","121.43861","24.9797666666667","6501300","土城區"
"236016","401-BY","2018/04/09 13:49:28","新北市土城區城林路6巷80號","121.43854","24.9797716666667","6501300","土城區"
"236005","498-BY","2018/04/09 13:49:20","新北市土城區中華路二段67號","121.439405","24.9784266666667","6501300","土城區"
"236057","912-UM","2018/04/09 13:49:24","新北市土城區中華路二段62號","121.438986666667","24.9769166666667","6501300","土城區"
"236045","913-UM","2018/04/09 13:49:22","新北市土城區城林路6巷80號","121.438696666667","24.9796883333333","6501300","土城區"
"236060","915-UM","2018/04/09 13:49:29","新北市土城區城林路6巷80號","121.438456666667","24.9798033333333","6501300","土城區"
"236054","AAC-216","2018/04/09 13:49:21","新北市土城區城林路6巷80號","121.438723333333","24.97964","6501300","土城區"
"242047","172-VK","2018/04/09 13:49:31","新北市樹林區中山路三段210-2號","121.381468333333","24.965585","6500500","新莊區"
"220027","145-BY","2018/04/09 13:49:30","新北市板橋區大仁街41號","121.454866666667","25.01659","6500100","板橋區"
"220028","200-UY","2018/04/09 13:49:27","新北市板橋區大觀路二段365巷13號","121.441118333333","24.9980383333333","6500100","板橋區"
"220105","KEA-2550","2018/04/09 13:49:11","新北市板橋區民生路二段161巷1號","121.470203333333","25.0199533333333","6500100","板橋區"
"220030","610-BX","2018/04/09 13:49:16","新北市板橋區篤行路二段8-3號","121.431761666667","24.992815","6500100","板橋區"
"220020","277-BY","2018/04/09 13:49:21","新北市板橋區金門街31巷13號","121.434051666667","24.9940483333333","6500100","板橋區"
"220018","282-UM","2018/04/09 13:49:28","新北市板橋區四川路一段93號","121.45969","25.0054966666667","6500100","板橋區"
"220019","283-VK","2018/04/09 13:49:01","新北市板橋區忠孝路176巷23號","121.465175","25.0017883333333","6500100","板橋區"
"220043","285-UM","2018/04/09 13:49:27","新北市板橋區民生路二段161巷5號","121.470143333333","25.0197233333333","6500100","板橋區"
"220001","285-VK","2018/04/09 13:49:29","新北市板橋區永豐街55巷48號","121.472081666667","25.0185466666667","6500100","板橋區"
"220031","286-VK","2018/04/09 13:49:23","新北市板橋區大觀路一段38巷156弄141號","121.443628333333","25.0087366666667","6500100","板橋區"
"220029","287-VK","2018/04/09 13:49:18","新北市板橋區光華街13巷19號","121.453396666667","25.0112883333333","6500100","板橋區"
"220039","288-VK","2018/04/09 13:49:21","新北市板橋區民生路二段161巷3號","121.470283333333","25.0198083333333","6500100","板橋區"
"220009","293-UM","2018/04/09 13:49:34","新北市板橋區太和街4巷3號","121.474003333333","25.0198833333333","6500100","板橋區"
"220023","303-R5","2018/04/09 13:49:18","新北市板橋區南雅西路一段174巷1弄16-1號","121.452955","25.0073733333333","6500100","板橋區"
"220010","305-R5","2018/04/09 13:49:20","新北市板橋區中山路二段28號","121.472673333333","25.0151083333333","6500100","板橋區"
"220041","307-R5","2018/04/09 13:49:27","新北市板橋區民生路二段120號","121.47033","25.019705","6500100","板橋區"
"220047","317-R6","2018/04/09 13:49:33","新北市板橋區民生路二段120號","121.470656666667","25.019855","6500100","板橋區"
"220012","486-VK","2018/04/09 13:49:25","新北市板橋區民生路二段36-1號","121.472103333333","25.016725","6500100","板橋區"
"220037","491-VK","2018/04/09 13:49:24","新北市板橋區民生路二段171號","121.46987","25.02014","6500100","板橋區"
"220104","560-BX","2018/04/09 13:49:12","新北市板橋區中正路325巷41號","121.453398333333","25.0193416666667","6500100","板橋區"
"220052","561-BX","2018/04/09 13:49:24","新北市板橋區民生路二段161巷9號","121.470286666667","25.019495","6500100","板橋區"
"220032","568-UM","2018/04/09 13:49:30","新北市板橋區大觀路二段148巷1-1號","121.441681666667","24.99911","6500100","板橋區"
"220011","609-BX","2018/04/09 13:49:11","新北市板橋區中山路二段40巷3號","121.473271666667","25.0150866666667","6500100","板橋區"
"220003","630-UY","2018/04/09 13:49:19","新北市板橋區縣民大道一段187號","121.45853","25.0076633333333","6500100","板橋區"
"220005","686-BX","2018/04/09 13:49:25","新北市板橋區南雅南路二段120-2號","121.452421666667","25.0000883333333","6500100","板橋區"
"220042","689-BX","2018/04/09 13:49:29","新北市板橋區民生路二段161巷1號","121.470175","25.0201866666667","6500100","板橋區"
"220002","741-BX","2018/04/09 13:49:28","新北市板橋區縣民大道一段110號","121.457046666667","25.00579","6500100","板橋區"
"220051","KEA-2699","2018/04/09 13:49:26","新北市板橋區民生路二段120號","121.470656666667","25.0195266666667","6500100","板橋區"
"220016","830-TW","2018/04/09 13:49:28","新北市板橋區縣民大道三段33巷9弄20號","121.473406666667","25.0209733333333","6500100","板橋區"
"220038","833-TW","2018/04/09 13:49:22","新北市板橋區民生路二段171號","121.469825","25.0201433333333","6500100","板橋區"
"220022","895-R6","2018/04/09 13:49:26","新北市板橋區南門街35號","121.457405","25.0088116666667","6500100","板橋區"
"220021","985-R7","2018/04/09 13:49:14","新北市板橋區府中路67號","121.4582","25.0095133333333","6500100","板橋區"
"220025","AAC-253","2018/04/09 13:49:20","新北市板橋區金門街86-2號","121.433145","24.9927616666667","6500100","板橋區"
