"lineid","car","time","location","longitude","latitude","cityid","cityname"
"234025","9371-KE","2018/04/09 14:59:15","新北市永和區水源街33巷5號","121.510843333333","25.0042066666667","6500400","永和區"
"248013","025-BX","2018/04/09 14:59:18","新北市五股區成泰路三段93號","121.443965","25.0901816666667","6501500","五股區"
"248015","026-BX","2018/04/09 14:59:28","新北市五股區凌雲路一段158巷50弄3號","121.44731","25.10454","6501500","五股區"
"248007","095-VK","2018/04/09 14:59:31","新北市五股區四維路30巷15號","121.468288333333","25.0715216666667","6501500","五股區"
"248011","247-BX","2018/04/09 14:59:26","新北市五股區民義路一段206號","121.430523333333","25.0891783333333","6501500","五股區"
"248003","677-BX","2018/04/09 14:59:20","新北市五股區成泰路一段10號","121.434508333333","25.0673333333333","6501500","五股區"
"248009","682-TV","2018/04/09 14:59:21","新北市五股區成泰路一段7巷12號","121.433235","25.066795","6501500","五股區"
"243004","AAD-798","2018/04/09 14:59:21","新北市泰山區楓江路127-3號","121.43916","25.0646916666667","6501600","泰山區"
"243003","297-R6","2018/04/09 14:59:16","新北市泰山區壽山路120號","121.41812","25.0303183333333","6501600","泰山區"
"243007","380-SR","2018/04/09 14:59:15","新北市泰山區仁愛路100巷14號","121.433058333333","25.05486","6501600","泰山區"
"243006","421-VK","2018/04/09 14:59:28","新北市泰山區泰林路二段330號","121.429783333333","25.0632566666667","6501600","泰山區"
"243005","539-UM","2018/04/09 14:59:24","新北市泰山區新民路14巷1號","121.42671","25.0446683333333","6501600","泰山區"
"243002","KEA-2215","2018/04/09 14:59:17","新北市泰山區明志路二段205號","121.427443333333","25.048905","6501600","泰山區"
"243001","KEA-2216","2018/04/09 14:59:31","新北市泰山區泰林路二段116巷1弄2號","121.434868333333","25.0594566666667","6501600","泰山區"
"243008","680-BX","2018/04/09 14:59:33","新北市泰山區明志路二段383號","121.42504","25.04377","6501600","泰山區"
"231002","002-UM","2018/04/09 14:59:25","新北市新店區民權路64號","121.538476666667","24.9829733333333","6500600","新店區"
"231028","046-UY","2018/04/09 14:59:20","新北市新店區安豐路5號","121.501746666667","24.957305","6500600","新店區"
"231001","047-UY","2018/04/09 14:59:15","新北市新店區中正路278號","121.538713333333","24.9737316666667","6500600","新店區"
"231005","106-UY","2018/04/09 14:59:21","新北市新店區復興路67-1號","121.535338333333","24.9875533333333","6500600","新店區"
"231019","108-UY","2018/04/09 14:59:17","新北市新店區永福路54號","121.558295","24.92846","6500600","新店區"
"231011","187-VK","2018/04/09 14:59:35","新北市新店區中興路三段205巷7弄1號","121.543236666667","24.9815533333333","6500600","新店區"
"231026","256-BX","2018/04/09 14:59:20","新北市新店區博愛街21號","121.541273333333","24.9736483333333","6500600","新店區"
"231018","278-BY","2018/04/09 14:59:18","新北市新店區中央六街9號","121.530138333333","24.9746316666667","6500600","新店區"
"231014","AAD-862","2018/04/09 14:59:16","新北市新店區銀河路86-1號","121.580818333333","24.9586983333333","6500600","新店區"
"231038","3713-VJ","2018/04/09 14:59:22","新北市新店區安康路二段414巷2號","121.49581","24.9578433333333","6500600","新店區"
"231037","4716-K9","2018/04/09 14:59:15","新北市新店區薏仁坑路6號","121.500273333333","24.9580066666667","6500600","新店區"
"231025","4715-K9","2018/04/09 14:59:21","新北市新店區大同街28號","121.539103333333","24.9803666666667","6500600","新店區"
"231036","512-UM","2018/04/09 14:59:25","新北市新店區安祥路102巷46弄19號","121.485335","24.963875","6500600","新店區"
"231013","513-UM","2018/04/09 14:59:21","新北市新店區北新路一段311號","121.541521666667","24.9679983333333","6500600","新店區"
"231030","619-UM","2018/04/09 14:59:23","新北市新店區安民街369號","121.516548333333","24.975955","6500600","新店區"
"231034","641-BX","2018/04/09 14:59:19","新北市新店區玫瑰路4-1號","121.493625","24.9513966666667","6500600","新店區"
"231003","645-TV","2018/04/09 14:59:27","新北市新店區中興路二段41號","121.546296666667","24.9700383333333","6500600","新店區"
"231039","718-UY","2018/04/09 14:59:25","新北市新店區寶安街30-1號","121.542126666667","24.9823416666667","6500600","新店區"
"231035","719-UM","2018/04/09 14:59:28","新北市新店區永安街74巷24號","121.519148333333","24.9860483333333","6500600","新店區"
"231023","719-UY","2018/04/09 14:59:26","新北市新店區檳榔路109號","121.544293333333","24.961645","6500600","新店區"
"231031","720-UM","2018/04/09 14:59:18","新北市新店區安泰路42號","121.485171666667","24.9479733333333","6500600","新店區"
"231029","897-TW","2018/04/09 14:59:34","新北市新店區錦秀路48號","121.479073333333","24.9434133333333","6500600","新店區"
"231006","898-TW","2018/04/09 14:59:19","新北市新店區新坡一街102號","121.548305","24.9638416666667","6500600","新店區"
"231004","899-TW","2018/04/09 14:59:33","新北市新店區民族路49號","121.540268333333","24.978555","6500600","新店區"
"231024","AKT-0513","2018/04/09 14:59:14","新北市新店區中華路83巷15號","121.538691666667","24.9681816666667","6500600","新店區"
"235030","003-UY","2018/04/09 14:59:27","新北市中和區中山路二段67號","121.50401","25.0044983333333","6500300","中和區"
"235020","096-UM","2018/04/09 14:59:32","新北市中和區漢民路415號","121.472325","25.0068633333333","6500300","中和區"
"235029","098-UM","2018/04/09 14:59:31","新北市中和區永和路69-9號","121.4965","25.0062133333333","6500300","中和區"
"235004","150-BY","2018/04/09 14:59:18","新北市中和區保健路10巷23弄2號","121.508058333333","24.9966133333333","6500300","中和區"
"235022","151-BY","2018/04/09 14:59:28","新北市中和區員山路150-19號","121.48127","24.9978716666667","6500300","中和區"
"235013","186-VK","2018/04/09 14:59:32","新北市中和區南華路13號","121.502281666667","24.9957416666667","6500300","中和區"
"235031","255-BX","2018/04/09 14:59:28","新北市中和區中正路872號","121.484495","25.0062583333333","6500300","中和區"
"235007","352-BY","2018/04/09 14:59:20","新北市中和區華新街230號","121.506103333333","24.9816583333333","6500300","中和區"
"235032","377-QA","2018/04/09 14:59:25","新北市中和區勝利路35巷1弄15號","121.49953","25.0076683333333","6500300","中和區"
"235014","4979-A6","2018/04/09 14:59:26","新北市中和區景平路155巷2弄1號","121.513375","24.99177","6500300","中和區"
"235033","4980-A6","2018/04/09 14:59:25","新北市中和區圓通路83號","121.499778333333","24.996845","6500300","中和區"
"235034","558-UM","2018/04/09 14:59:22","新北市中和區景平路624-1號","121.500315","24.997585","6500300","中和區"
"235018","640-BX","2018/04/09 14:59:14","新北市中和區民享街27巷1號","121.47405","25.00478","6500300","中和區"
"235010","733-UM","2018/04/09 14:59:19","新北市中和區興南路一段93巷61號","121.510356666667","24.9871416666667","6500300","中和區"
"235035","783-BX","2018/04/09 14:59:22","新北市中和區建一路245號","121.488046666667","24.9970466666667","6500300","中和區"
"235016","805-TS","2018/04/09 14:59:28","新北市中和區忠孝街2-11號","121.509386666667","24.9828916666667","6500300","中和區"
"235012","896-TW","2018/04/09 14:59:19","新北市中和區忠孝街1巷2-1號","121.509203333333","24.9830633333333","6500300","中和區"
"235017","900-TW","2018/04/09 14:59:16","新北市中和區民德路242號","121.468061666667","24.9973766666667","6500300","中和區"
"235015","157-BY","2018/04/09 14:59:17","新北市中和區景安路220巷16號","121.502823333333","24.9913966666667","6500300","中和區"
"235001","AAC-213","2018/04/09 14:59:32","新北市中和區自立路99巷22弄27號","121.523265","24.9938533333333","6500300","中和區"
"235023","AAC-215","2018/04/09 14:59:26","新北市中和區圓通路365號","121.491348333333","24.9897433333333","6500300","中和區"
"220013","072-UY","2018/04/09 14:59:24","新北市板橋區海山路41號","121.467163333333","25.009775","6500100","板橋區"
"220014","075-UY","2018/04/09 14:59:29","新北市板橋區長安街138巷1弄85號","121.474843333333","25.0113533333333","6500100","板橋區"
"220017","AAD-861","2018/04/09 14:59:29","新北市板橋區大明街33號","121.458158333333","25.002675","6500100","板橋區"
"247021","500-BY","2018/04/09 14:59:13","新北市蘆洲區中正路505號","121.461631666667","25.09714","6501400","蘆洲區"
"235003","251-BX","2018/04/09 14:59:26","新北市中和區安樂路137號","121.514285","24.9966933333333","6500300","中和區"
"227008","400-TW","2018/04/09 14:59:16","新北市雙溪區三貂里政光路3-1號","121.85088","25.0631816666667","6502500","雙溪區"
"253003","6232-TK","2018/04/09 14:59:20","新北市石門區阿里磅1號","121.586648333333","25.291835","6502200","石門區"
"253001","6251-TK","2018/04/09 14:59:27","新北市石門區崁子腳34號","121.536561666667","25.2786316666667","6502200","石門區"
"253002","637-UY","2018/04/09 14:59:25","新北市石門區楓林43號","121.540646666667","25.2820916666667","6502200","石門區"
"253004","8270-PC","2018/04/09 14:59:32","新北市石門區茂林社區1-1號","121.591203333333","25.2723133333333","6502200","石門區"
"207002","749-BX","2018/04/09 14:59:21","新北市萬里區崁腳里崁腳路73號","121.647618333333","25.1595516666667","6502800","萬里區"
"207001","662-BX","2018/04/09 14:59:30","新北市萬里區雙興里豐稟路4-1號","121.648363333333","25.185585","6502800","萬里區"
"236064","105-UM","2018/04/09 14:59:21","新北市土城區裕生路84巷16號","121.446556666667","24.9856966666667","6501300","土城區"
"236040","107-UM","2018/04/09 14:59:34","新北市土城區學府路一段226號","121.452026666667","24.9850916666667","6501300","土城區"
"236074","166-UM","2018/04/09 14:59:16","新北市土城區中州路3巷43號","121.413363333333","24.956335","6501300","土城區"
"236029","253-BX","2018/04/09 14:59:28","新北市土城區慶利街18號","121.439616666667","24.9736816666667","6501300","土城區"
"236024","269-VK","2018/04/09 14:59:30","新北市土城區中正路76號","121.444643333333","24.97548","6501300","土城區"
"236012","270-VK","2018/04/09 14:59:21","新北市土城區永豐路31巷15號","121.463708333333","24.9883066666667","6501300","土城區"
"236032","271-VK","2018/04/09 14:59:33","新北市土城區仁愛路8號","121.459941666667","24.981125","6501300","土城區"
"236016","401-BY","2018/04/09 14:59:28","新北市土城區延吉街166號","121.468403333333","24.9854166666667","6501300","土城區"
"236057","912-UM","2018/04/09 14:59:24","新北市土城區清水路25巷25號","121.453068333333","24.9804133333333","6501300","土城區"
"236045","913-UM","2018/04/09 14:59:32","新北市土城區青雲路309號","121.458998333333","24.9791583333333","6501300","土城區"
"236060","915-UM","2018/04/09 14:59:29","新北市土城區延和路41巷6弄2號","121.465983333333","24.9900216666667","6501300","土城區"
"236054","AAC-216","2018/04/09 14:59:21","新北市土城區學成路164號","121.448041666667","24.9891333333333","6501300","土城區"
"238010","601-UM","2018/04/09 14:59:29","新北市樹林區八德街224號","121.415505","24.9719166666667","6500700","樹林區"
"238008","KEA-2539","2018/04/09 14:59:31","新北市樹林區育德街78-1號","121.387801666667","24.968145","6500700","樹林區"
"238012","303-VK","2018/04/09 14:59:32","新北市樹林區育德街78號","121.38755","24.96868","6500700","樹林區"
"238001","283-BY","2018/04/09 14:59:29","新北市樹林區育德街78-1號","121.388341666667","24.96824","6500700","樹林區"
"238001","282-BY","2018/04/09 14:59:19","新北市樹林區育德街78-1號","121.387513333333","24.968215","6500700","樹林區"
"221032","280-BY","2018/04/09 14:59:26","新北市汐止區汐萬路二段275巷3弄3號","121.645318333333","25.0885616666667","6501100","汐止區"
"221002","707-TV","2018/04/09 14:59:29","新北市汐止區新興路120號","121.657985","25.0609433333333","6501100","汐止區"
"220027","145-BY","2018/04/09 14:59:30","新北市板橋區建國街97號","121.459746666667","25.017425","6500100","板橋區"
"220028","200-UY","2018/04/09 14:59:27","新北市板橋區大觀路二段163巷20號","121.446166666667","25.000185","6500100","板橋區"
"220105","KEA-2550","2018/04/09 14:59:31","新北市板橋區懷德街11號","121.476753333333","25.0330116666667","6500100","板橋區"
"220030","610-BX","2018/04/09 14:59:28","新北市板橋區大觀路三段199號","121.431975","24.9935166666667","6500100","板橋區"
"220050","245-BX","2018/04/09 14:59:27","新北市板橋區縣民大道三段35號","121.473898333333","25.0207083333333","6500100","板橋區"
"220020","277-BY","2018/04/09 14:59:21","新北市板橋區金門街208-4號","121.432466666667","24.9900533333333","6500100","板橋區"
"220018","282-UM","2018/04/09 14:59:28","新北市板橋區民族路67號","121.46546","25.008585","6500100","板橋區"
"220019","283-VK","2018/04/09 14:59:31","新北市板橋區五權街30巷24弄28號","121.463735","24.9941516666667","6500100","板橋區"
"220043","285-UM","2018/04/09 14:59:27","新北市板橋區文德路38號","121.462105","25.0241933333333","6500100","板橋區"
"220001","285-VK","2018/04/09 14:59:23","新北市板橋區中山路二段60巷1弄2號","121.474431666667","25.0152633333333","6500100","板橋區"
"220031","286-VK","2018/04/09 14:59:23","新北市板橋區僑中二街102巷24號","121.445125","25.0084433333333","6500100","板橋區"
"220029","287-VK","2018/04/09 14:59:18","新北市板橋區僑中一街124巷20弄37號","121.447685","25.0139316666667","6500100","板橋區"
"220039","288-VK","2018/04/09 14:59:21","新北市板橋區龍泉街90巷3號","121.456165","25.0247966666667","6500100","板橋區"
"220009","293-UM","2018/04/09 14:59:25","新北市板橋區觀光街2-2號","121.47232","25.01542","6500100","板橋區"
"220023","303-R5","2018/04/09 14:59:27","新北市板橋區金華街10巷111號","121.459375","25.0205816666667","6500100","板橋區"
"220010","305-R5","2018/04/09 14:59:28","新北市板橋區光復街33巷17號","121.48204","25.0190966666667","6500100","板橋區"
"220041","307-R5","2018/04/09 14:59:27","新北市板橋區裕民街133巷1-1號","121.459086666667","25.0271516666667","6500100","板橋區"
"220047","317-R6","2018/04/09 14:59:33","新北市板橋區漢生西路165巷14號","121.462715","25.0233466666667","6500100","板橋區"
"220012","486-VK","2018/04/09 14:59:25","新北市板橋區館前東路63-9號","121.464023333333","25.007965","6500100","板橋區"
"220037","491-VK","2018/04/09 14:59:23","新北市板橋區仁化街189號","121.478401666667","25.03401","6500100","板橋區"
"220104","560-BX","2018/04/09 14:59:32","新北市板橋區新生街29巷2弄1號","121.456498333333","25.0215216666667","6500100","板橋區"
"220052","561-BX","2018/04/09 14:59:29","新北市板橋區陽明街29巷1弄2號","121.465053333333","25.02147","6500100","板橋區"
"220032","568-UM","2018/04/09 14:59:31","新北市板橋區溪崑二街112巷4號","121.426201666667","24.9887666666667","6500100","板橋區"
"220011","609-BX","2018/04/09 14:59:25","新北市板橋區中山路二段505巷34號","121.482141666667","25.0224183333333","6500100","板橋區"
"220003","630-UY","2018/04/09 14:59:19","新北市板橋區仁愛路76巷3弄2號","121.460686666667","24.9990816666667","6500100","板橋區"
"220040","637-BX","2018/04/09 14:59:25","新北市板橋區文聖街101巷29號","121.47854","25.02991","6500100","板橋區"
"220005","686-BX","2018/04/09 14:59:25","新北市板橋區四川路二段4巷4號","121.45653","24.9966683333333","6500100","板橋區"
"220042","689-BX","2018/04/09 14:59:29","新北市板橋區長江路二段223號","121.468263333333","25.0324366666667","6500100","板橋區"
"220002","741-BX","2018/04/09 14:59:27","新北市板橋區忠孝路忠義巷7號","121.465495","25.0036633333333","6500100","板橋區"
"220051","KEA-2699","2018/04/09 14:59:26","新北市板橋區仁化街66號","121.475793333333","25.0318116666667","6500100","板橋區"
"220016","830-TW","2018/04/09 14:59:28","新北市板橋區光復街39號","121.481738333333","25.0188633333333","6500100","板橋區"
"220045","831-TW","2018/04/09 14:59:30","新北市板橋區文化路二段124巷34弄8號","121.471063333333","25.0254","6500100","板橋區"
"220038","833-TW","2018/04/09 14:59:21","新北市板橋區龍泉街75號","121.456555","25.02526","6500100","板橋區"
"220022","895-R6","2018/04/09 14:59:26","新北市板橋區府中路24號","121.45974","25.0097616666667","6500100","板橋區"
"220021","985-R7","2018/04/09 14:59:18","新北市板橋區南雅西路二段11號","121.452976666667","25.00936","6500100","板橋區"
"220046","AAC-210","2018/04/09 14:59:26","新北市板橋區光正街40號","121.46194","25.0172933333333","6500100","板橋區"
"220025","AAC-253","2018/04/09 14:59:20","新北市板橋區僑中一街96號","121.446893333333","25.0117583333333","6500100","板橋區"
