"lineid","car","time","location","longitude","latitude","cityid","cityname"
"248010","682-TV","2018/04/09 15:50:16","新北市五股區中興路二段63巷17號","121.460296666667","25.07544","6501500","五股區"
"243016","680-BX","2018/04/09 15:56:24","新北市泰山區黎明路25號","121.421938333333","25.0606466666667","6501600","泰山區"
"231019","108-UY","2018/04/09 15:59:17","新北市新店區安康路一段86號","121.528053333333","24.96198","6500600","新店區"
"231011","187-VK","2018/04/09 15:59:14","新北市新店區民生路164-1號","121.527858333333","24.980795","6500600","新店區"
"231046","188-VK","2018/04/09 15:59:28","新北市新店區安華路28-1號","121.51976","24.9614783333333","6500600","新店區"
"231018","278-BY","2018/04/09 15:59:18","新北市新店區中正路663巷7弄15號","121.533005","24.9900933333333","6500600","新店區"
"231014","AAD-862","2018/04/09 15:59:16","新北市新店區中正路284巷4弄3號","121.538325","24.9747933333333","6500600","新店區"
"231038","3713-VJ","2018/04/09 15:59:22","新北市新店區安康路二段320巷6號","121.504545","24.9595983333333","6500600","新店區"
"231037","4716-K9","2018/04/09 15:59:15","新北市新店區安光路10-1號","121.513895","24.9641866666667","6500600","新店區"
"231030","619-UM","2018/04/09 15:59:27","新北市新店區永平街60號","121.516181666667","24.984735","6500600","新店區"
"231034","641-BX","2018/04/09 15:59:19","新北市新店區如意街55號","121.493485","24.9472766666667","6500600","新店區"
"231003","645-TV","2018/04/09 15:59:27","新北市新店區寶興路60巷4號","121.549806666667","24.9719033333333","6500600","新店區"
"231035","719-UM","2018/04/09 15:59:28","新北市新店區安民街303巷9弄2號","121.516883333333","24.9734016666667","6500600","新店區"
"231029","897-TW","2018/04/09 15:59:14","新北市新店區安豐路54號","121.499585","24.9542966666667","6500600","新店區"
"241011","013-R5","2018/04/09 15:59:20","新北市三重區雙園街42號","121.496746666667","25.06797","6500200","三重區"
"241028","022-UY","2018/04/09 15:59:27","新北市三重區大同南路117巷3-1號","121.495786666667","25.058275","6500200","三重區"
"241008","059-VK","2018/04/09 15:59:12","新北市三重區重新路四段121號","121.484701666667","25.0520066666667","6500200","三重區"
"241015","062-VK","2018/04/09 15:59:19","新北市三重區重新路四段121號","121.485095","25.0520616666667","6500200","三重區"
"241017","063-VK","2018/04/09 15:59:25","新北市三重區大仁街48巷10號","121.491175","25.0644816666667","6500200","三重區"
"241024","065-VK","2018/04/09 15:59:28","新北市三重區力行路一段38巷27號","121.485475","25.06702","6500200","三重區"
"241026","066-VK","2018/04/09 15:59:30","新北市三重區重新路三段82號","121.493305","25.0607816666667","6500200","三重區"
"241005","262-UM","2018/04/09 15:59:12","新北市三重區溪尾街305號","121.487498333333","25.0837483333333","6500200","三重區"
"241016","265-UM","2018/04/09 15:59:14","新北市三重區重新路四段121號","121.485181666667","25.052115","6500200","三重區"
"241018","268-UM","2018/04/09 15:59:20","新北市三重區中正北路35號","121.49142","25.0626716666667","6500200","三重區"
"241013","270-UM","2018/04/09 15:59:16","新北市三重區三和路三段14號","121.496805","25.0701433333333","6500200","三重區"
"241025","271-UM","2018/04/09 15:59:09","新北市三重區三民街206號","121.480986666667","25.06625","6500200","三重區"
"241007","398-BY","2018/04/09 15:59:21","新北市三重區力行路二段145號","121.483523333333","25.0774533333333","6500200","三重區"
"241020","478-VK","2018/04/09 15:59:21","新北市三重區車路頭街4巷23號","121.483095","25.0702016666667","6500200","三重區"
"241014","543-UM","2018/04/09 15:59:17","新北市三重區介壽路39巷252號","121.503713333333","25.07113","6500200","三重區"
"241023","545-UM","2018/04/09 15:59:28","新北市三重區中正北路174-6號","121.483501666667","25.066765","6500200","三重區"
"241001","547-UM","2018/04/09 15:59:20","新北市三重區新北大道一段250號","121.479863333333","25.0614183333333","6500200","三重區"
"241006","AAD-863","2018/04/09 15:57:23","新北市三重區重安街1號","121.489555","25.0584516666667","6500200","三重區"
"241022","887-TS","2018/04/09 15:59:20","新北市三重區忠孝路三段40巷22弄4號","121.482731666667","25.066105","6500200","三重區"
"241012","941-UM","2018/04/09 15:59:27","新北市三重區文化北路118巷59號","121.497345","25.066205","6500200","三重區"
"241029","942-UM","2018/04/09 15:59:16","新北市三重區大同南路212巷42號","121.497841666667","25.056735","6500200","三重區"
"241033","AAC-255","2018/04/09 15:59:21","新北市三重區重新路五段454號","121.474515","25.0472983333333","6500200","三重區"
"235026","800-TS","2018/04/09 15:59:12","新北市中和區板南路472-1號","121.488763333333","25.0063416666667","6500300","中和區"
"247006","336-TH","2018/04/09 15:38:26","新北市五股區中興路三段163號","121.449143333333","25.0806866666667","6501400","蘆洲區"
"224007","275-VK","2018/04/09 15:59:11","新北市瑞芳區大埔路52號","121.769138333333","25.1042466666667","6501200","瑞芳區"
"227001","642-TC","2018/04/09 15:59:16","新北市雙溪區平林里外平林70號","121.842976666667","25.0350316666667","6502500","雙溪區"
"227008","400-TW","2018/04/09 15:59:16","新北市雙溪區三港里雙澳路38號","121.872001666667","25.0510533333333","6502500","雙溪區"
"236057","912-UM","2018/04/09 15:59:24","新北市土城區中央路二段223-2號","121.440715","24.9735766666667","6501300","土城區"
"238002","755-BX","2018/04/09 15:59:12","新北市樹林區文德街4巷19號","121.419363333333","24.9921333333333","6500700","樹林區"
"238010","601-UM","2018/04/09 15:59:10","新北市樹林區龍興街46巷4號","121.40276","25.0154816666667","6500700","樹林區"
"238006","599-UM","2018/04/09 15:59:19","新北市樹林區忠孝街113巷2號","121.424793333333","24.9804","6500700","樹林區"
"238005","571-TV","2018/04/09 15:59:24","新北市樹林區鎮前街124號","121.424893333333","24.990935","6500700","樹林區"
"238011","5061-A6","2018/04/09 15:59:28","新北市樹林區中山路三段245號","121.392765","24.9722116666667","6500700","樹林區"
"238009","KEA-2213","2018/04/09 15:59:16","新北市樹林區太平路150巷16號","121.417805","24.9776916666667","6500700","樹林區"
"238008","KEA-2539","2018/04/09 15:59:27","新北市樹林區柑園街二段30巷12號","121.387243333333","24.9561066666667","6500700","樹林區"
"238012","303-VK","2018/04/09 15:59:12","新北市樹林區保安二街59號","121.424496666667","24.9945316666667","6500700","樹林區"
"238001","283-BY","2018/04/09 15:59:29","新北市樹林區保安街一段258號","121.419906666667","24.99678","6500700","樹林區"
"238001","282-BY","2018/04/09 15:59:19","新北市樹林區保安二街64巷1弄2號","121.42428","24.995595","6500700","樹林區"
"238013","172-UY","2018/04/09 15:59:28","新北市樹林區佳園路一段73號","121.39376","24.970185","6500700","樹林區"
"238003","169-UY","2018/04/09 15:59:23","新北市樹林區文化街12號","121.42004","24.9873083333333","6500700","樹林區"
"220030","610-BX","2018/04/09 15:59:16","新北市八里區中山路三段409號","121.368795","25.1342616666667","6500100","板橋區"
"220023","303-R5","2018/04/09 15:58:18","新北市八里區荖阡坑路34-1號","121.400261666667","25.131735","6500100","板橋區"
