"lineid","car","time","location","longitude","latitude","cityid","cityname"
"234046","148-BY","2018/04/09 18:29:45","新北市永和區福和路1號","121.52599","25.0095083333333","6500400","永和區"
"234007","207-UY","2018/04/09 18:29:47","新北市永和區仁愛路302號","121.50347","25.0079866666667","6500400","永和區"
"234081","298-R6","2018/04/09 18:29:46","新北市永和區福和路1號","121.525055","25.0090383333333","6500400","永和區"
"234086","338-UY","2018/04/09 18:29:48","新北市永和區福和路1號","121.526326666667","25.0097716666667","6500400","永和區"
"234030","746-BX","2018/04/09 18:29:40","新北市永和區福和路8巷1號","121.525013333333","25.009025","6500400","永和區"
"234013","KEA-2591","2018/04/09 18:29:33","新北市永和區文化路210號","121.510185","25.01667","6500400","永和區"
"234026","9371-KE","2018/04/09 18:29:42","新北市永和區中山路一段98-2號","121.51148","25.01077","6500400","永和區"
"234011","9373-KE","2018/04/09 18:29:42","新北市永和區保福路二段156號","121.50919","25.0149783333333","6500400","永和區"
"249005","172-UM","2018/04/09 18:29:44","新北市八里區中華路三段98號","121.39275","25.1379033333333","6502300","八里區"
"249001","173-UM","2018/04/09 18:29:47","新北市八里區龍米路一段132號","121.45307","25.1254566666667","6502300","八里區"
"249004","303-UY","2018/04/09 18:29:29","新北市八里區忠孝路70號","121.426355","25.1603683333333","6502300","八里區"
"249002","305-UY","2018/04/09 18:29:46","新北市八里區龍形三街26號","121.447981666667","25.1316516666667","6502300","八里區"
"249003","593-UM","2018/04/09 18:29:43","新北市林口區太平里180號","121.367655","25.134","6502300","八里區"
"248014","025-BX","2018/04/09 18:29:36","新北市五股區自強路90巷45號","121.431585","25.0714966666667","6501500","五股區"
"248016","026-BX","2018/04/09 18:29:47","新北市五股區凌雲路一段83巷34號","121.449293333333","25.1010016666667","6501500","五股區"
"248006","077-UY","2018/04/09 18:29:37","新北市五股區四維路23號","121.467063333333","25.0705766666667","6501500","五股區"
"248008","095-VK","2018/04/09 18:29:50","新北市五股區四維路185巷46號","121.463356666667","25.07731","6501500","五股區"
"248018","225-UY","2018/04/09 18:29:30","新北市五股區御史路241號","121.427175","25.1034266666667","6501500","五股區"
"248012","247-BX","2018/04/09 18:29:45","新北市五股區御史路28號","121.442078333333","25.0915716666667","6501500","五股區"
"248004","677-BX","2018/04/09 18:29:45","新北市五股區工商路150號","121.433161666667","25.0873816666667","6501500","五股區"
"248002","678-BX","2018/04/09 18:29:39","新北市五股區西雲路163號","121.446268333333","25.0944383333333","6501500","五股區"
"248010","682-TV","2018/04/09 18:29:40","新北市五股區水碓路16巷9號","121.433911666667","25.0729166666667","6501500","五股區"
"234023","9380-KE","2018/04/09 18:29:46","新北市永和區福和路1號","121.5257","25.00937","6500400","永和區"
"234077","969-R7","2018/04/09 18:29:31","新北市永和區福和路1號","121.526443333333","25.0099083333333","6500400","永和區"
"244013","069-UM","2018/04/09 18:29:33","新北市林口區中山路248號","121.386661666667","25.07942","6501700","林口區"
"244007","080-UY","2018/04/09 18:29:43","新北市林口區後湖5-5號","121.38943","25.097835","6501700","林口區"
"244025","742-UY","2018/04/09 18:29:31","新北市林口區南勢五街302-10號","121.357068333333","25.0755833333333","6501700","林口區"
"244009","410-SL","2018/04/09 18:29:38","新北市林口區文林一街115巷11號","121.378811666667","25.087715","6501700","林口區"
"244023","483-VK","2018/04/09 18:29:46","新北市林口區四維路156-2號","121.381056666667","25.0756016666667","6501700","林口區"
"244016","485-VK","2018/04/09 18:29:31","新北市林口區八德路78號","121.365618333333","25.065615","6501700","林口區"
"244019","657-BX","2018/04/09 18:29:48","新北市林口區忠孝路594巷13號","121.376156666667","25.06705","6501700","林口區"
"244011","701-TV","2018/04/09 18:29:30","新北市林口區中正路103號","121.394005","25.0772683333333","6501700","林口區"
"244021","838-TS","2018/04/09 18:29:30","新北市林口區自強二街1號","121.39742","25.0785166666667","6501700","林口區"
"243013","539-UM","2018/04/09 18:29:31","新北市泰山區明志路三段206巷3號","121.42324","25.0379283333333","6501600","泰山區"
"222003","436-BY","2018/04/09 18:29:35","新北市深坑區文山路一段28-1號","121.630898333333","25.0053866666667","6501800","深坑區"
"222002","659-BX","2018/04/09 18:29:30","新北市深坑區雲鄉路163號","121.621588333333","24.9980633333333","6501800","深坑區"
"231041","002-UM","2018/04/09 18:29:41","新北市新店區安華路28-1號","121.51974","24.96078","6500600","新店區"
"231059","046-UY","2018/04/09 18:29:42","新北市新店區安華路28-1號","121.51956","24.96074","6500600","新店區"
"231040","047-UY","2018/04/09 18:29:46","新北市新店區安華路28-1號","121.519163333333","24.9609283333333","6500600","新店區"
"231044","106-UY","2018/04/09 18:29:44","新北市新店區安華路28-1號","121.519663333333","24.9607483333333","6500600","新店區"
"231052","108-UY","2018/04/09 18:29:47","新北市新店區新烏路一段26巷37-2號","121.545121666667","24.951005","6500600","新店區"
"231047","187-VK","2018/04/09 18:29:39","新北市新店區安華路28-1號","121.519558333333","24.961085","6500600","新店區"
"231046","188-VK","2018/04/09 18:29:48","新北市新店區直潭七街60號","121.532261666667","24.939815","6500600","新店區"
"231057","256-BX","2018/04/09 18:29:47","新北市新店區環河路29巷1號","121.536308333333","24.9611683333333","6500600","新店區"
"231051","278-BY","2018/04/09 18:29:45","新北市新店區安華路28-1號","121.519803333333","24.9610233333333","6500600","新店區"
"231050","AAD-862","2018/04/09 18:29:23","新北市新店區安華路28-1號","121.519785","24.9610416666667","6500600","新店區"
"231058","3713-VJ","2018/04/09 18:29:30","新北市新店區新店後街86號","121.537646666667","24.95483","6500600","新店區"
"231066","4716-K9","2018/04/09 18:29:42","新北市新店區安華路28-1號","121.519206666667","24.9611533333333","6500600","新店區"
"231056","4715-K9","2018/04/09 18:29:48","新北市新店區二十張路105巷11號","121.536845","24.9792833333333","6500600","新店區"
"231067","4772-VM","2018/04/09 18:29:42","新北市新店區安華路1-1號","121.519205","24.960555","6500600","新店區"
"231065","512-UM","2018/04/09 18:29:31","新北市新店區安華路28-1號","121.519346666667","24.961195","6500600","新店區"
"231049","513-UM","2018/04/09 18:29:39","新北市新店區安華路28-1號","121.519696666667","24.9610816666667","6500600","新店區"
"231061","619-UM","2018/04/09 18:29:49","新北市新店區安華路28-1號","121.519418333333","24.9606983333333","6500600","新店區"
"231063","641-BX","2018/04/09 18:29:31","新北市新店區安華路1-1號","121.519535","24.9603616666667","6500600","新店區"
"231042","645-TV","2018/04/09 18:29:36","新北市新店區安華路28-1號","121.519333333333","24.960625","6500600","新店區"
"231064","719-UM","2018/04/09 18:29:32","新北市新店區安華路28-1號","121.519538333333","24.9613433333333","6500600","新店區"
"231054","719-UY","2018/04/09 18:29:34","新北市新店區安華路28-1號","121.519653333333","24.96055","6500600","新店區"
"231062","720-UM","2018/04/09 18:29:40","新北市新店區安華路28-1號","121.519086666667","24.9611416666667","6500600","新店區"
"231060","897-TW","2018/04/09 18:29:37","新北市新店區安華路1-1號","121.519595","24.96049","6500600","新店區"
"231045","898-TW","2018/04/09 18:29:39","新北市新店區安華路28-1號","121.519393333333","24.960855","6500600","新店區"
"231055","AKT-0513","2018/04/09 18:29:46","新北市新店區北新路二段29巷1弄20號","121.542005","24.9722783333333","6500600","新店區"
"235066","003-UY","2018/04/09 18:29:38","新北市中和區中山路二段122號","121.502643333333","25.0037066666667","6500300","中和區"
"235064","005-UY","2018/04/09 18:29:47","新北市中和區圓通路154號","121.49798","24.995665","6500300","中和區"
"235063","006-UY","2018/04/09 18:29:42","新北市中和區連城路389巷10弄1號","121.486568333333","24.9954633333333","6500300","中和區"
"235056","096-UM","2018/04/09 18:29:31","新北市中和區員山路611巷1號","121.477871666667","25.0112616666667","6500300","中和區"
"235065","098-UM","2018/04/09 18:29:34","新北市中和區莊敬路49巷20弄30號","121.50322","25.0052433333333","6500300","中和區"
"235040","150-BY","2018/04/09 18:29:38","新北市中和區安平路38號","121.509795","24.9949533333333","6500300","中和區"
"235058","151-BY","2018/04/09 18:29:42","新北市中和區圓通路369巷30弄14號","121.489476666667","24.984905","6500300","中和區"
"235055","183-VK","2018/04/09 18:29:43","新北市土城區金城路三段287巷1號","121.473306666667","24.9911833333333","6500300","中和區"
"235038","185-VK","2018/04/09 18:29:46","新北市中和區立人街14巷49號","121.519008333333","24.9955616666667","6500300","中和區"
"235049","186-VK","2018/04/09 18:29:33","新北市中和區景安路120巷3號","121.505215","24.9946966666667","6500300","中和區"
"235067","255-BX","2018/04/09 18:29:47","新北市中和區員山路36巷16-8號","121.485486666667","24.9922416666667","6500300","中和區"
"235044","293-VK","2018/04/09 18:29:43","新北市中和區復興路301巷2弄1號","121.501511666667","24.9898816666667","6500300","中和區"
"235072","301-VK","2018/04/09 18:29:33","新北市中和區連城路97號","121.496625","24.99993","6500300","中和區"
"235043","352-BY","2018/04/09 18:29:47","新北市中和區景平路293號","121.507125","24.992995","6500300","中和區"
"235068","377-QA","2018/04/09 18:29:36","新北市中和區圓通路282號","121.491598333333","24.9905933333333","6500300","中和區"
"235061","378-QA","2018/04/09 18:29:37","新北市中和區民享街116巷27弄1號","121.473513333333","24.9990116666667","6500300","中和區"
"235050","4979-A6","2018/04/09 18:29:50","新北市中和區興南路一段57號","121.510635","24.9900233333333","6500300","中和區"
"235069","4980-A6","2018/04/09 18:29:34","新北市中和區連城路127巷1號","121.496271666667","24.9990816666667","6500300","中和區"
"235042","551-UM","2018/04/09 18:29:29","新北市中和區自立路56巷15號","121.522815","24.9916816666667","6500300","中和區"
"235070","558-UM","2018/04/09 18:29:42","新北市中和區景平路576號","121.501501666667","24.9954933333333","6500300","中和區"
"235045","565-BX","2018/04/09 18:29:33","新北市中和區南山路236巷22弄23號","121.504968333333","24.9892983333333","6500300","中和區"
"235054","640-BX","2018/04/09 18:29:48","新北市中和區民享街89巷4弄2號","121.475006666667","25.00168","6500300","中和區"
"235047","732-UM","2018/04/09 18:29:43","新北市中和區南山路300號","121.507791666667","24.9871683333333","6500300","中和區"
"235046","733-UM","2018/04/09 18:29:34","新北市中和區中正路271號","121.4958","24.9936633333333","6500300","中和區"
"235062","800-TS","2018/04/09 18:29:45","新北市中和區景平路675號","121.496636666667","25.0027816666667","6500300","中和區"
"235057","801-TS","2018/04/09 18:29:46","新北市中和區民安街148號","121.477408333333","24.9998616666667","6500300","中和區"
"235041","802-TS","2018/04/09 18:29:40","新北市中和區景安路44號","121.506975","24.9980966666667","6500300","中和區"
"235052","805-TS","2018/04/09 18:29:45","新北市中和區興南路二段108號","121.504713333333","24.9839983333333","6500300","中和區"
"235048","896-TW","2018/04/09 18:29:43","新北市中和區中正路83號","121.500676666667","24.9934566666667","6500300","中和區"
"235053","900-TW","2018/04/09 18:29:34","新北市土城區金城路三段283號","121.47336","24.990885","6500300","中和區"
"235060","911-UM","2018/04/09 18:29:44","新北市中和區員山路437-3號","121.480681666667","25.0038983333333","6500300","中和區"
"235051","157-BY","2018/04/09 18:29:35","新北市中和區興南路二段142巷16號","121.5029","24.984145","6500300","中和區"
"235037","AAC-213","2018/04/09 18:29:40","新北市中和區景德街113號","121.515263333333","24.990995","6500300","中和區"
"220065","072-UY","2018/04/09 18:29:30","新北市板橋區南雅南路二段18號","121.454653333333","25.003555","6500100","板橋區"
"220086","073-UY","2018/04/09 18:29:40","新北市板橋區四川路二段130巷38號","121.44978","24.9947333333333","6500100","板橋區"
"247020","001-UY","2018/04/09 18:29:32","新北市八里區中山路三段409號","121.368785","25.1347583333333","6501400","蘆洲區"
"226004","312-R5","2018/04/09 18:29:39","新北市平溪區靜安路二段294巷6號","121.735655","25.02371","6502400","平溪區"
"235039","251-BX","2018/04/09 18:29:31","新北市中和區安平路117號","121.511631666667","24.99758","6500300","中和區"
"228003","097-TW","2018/04/09 18:29:28","新北市貢寮區和美里和美街32-5號","121.91342","25.0842566666667","6502600","貢寮區"
"228002","585-TW","2018/04/09 18:29:31","新北市貢寮區福連里福連街37號","121.988961666667","25.0107166666667","6502600","貢寮區"
"228001","670-TC","2018/04/09 18:29:48","新北市貢寮區仁理村仁和路76號","121.922748333333","25.0500866666667","6502600","貢寮區"
"224010","AGQ-8101","2018/04/09 18:29:35","新北市瑞芳區烏勢巷108號","121.846323333333","25.1087516666667","6501200","瑞芳區"
"224006","676-BX","2018/04/09 18:29:39","新北市瑞芳區明燈路二段55號","121.811068333333","25.1080366666667","6501200","瑞芳區"
"224002","639-TC","2018/04/09 18:29:45","新北市瑞芳區三爪子坑路91巷29號","121.811901666667","25.1064466666667","6501200","瑞芳區"
"224008","285-BY","2018/04/09 18:29:34","新北市瑞芳區岳王路1巷15號","121.8062","25.110485","6501200","瑞芳區"
"224007","275-VK","2018/04/09 18:29:46","新北市瑞芳區大埔路吉慶公園城18號","121.764931666667","25.1000083333333","6501200","瑞芳區"
"224009","273-VK","2018/04/09 18:29:47","新北市瑞芳區祈堂路184號","121.857716666667","25.1095166666667","6501200","瑞芳區"
"224005","271-BY","2018/04/09 18:29:50","新北市瑞芳區建基路一段74號","121.81603","25.1280966666667","6501200","瑞芳區"
"227001","642-TC","2018/04/09 18:29:36","新北市雙溪區魚行里坤溪21-1號","121.870656666667","25.0276733333333","6502500","雙溪區"
"227008","400-TW","2018/04/09 18:29:36","新北市雙溪區牡丹里牡丹131號","121.85091","25.05929","6502500","雙溪區"
"253005","032-BX","2018/04/09 18:29:36","新北市石門區老崩山9號","121.553076666667","25.2912283333333","6502200","石門區"
"253006","295-VK","2018/04/09 18:29:37","新北市石門區公地20號","121.545763333333","25.290225","6502200","石門區"
"222001","KEA-2212","2018/04/09 18:29:43","新北市深坑區北深路一段199號","121.630805","25.0095916666667","6501800","深坑區"
"208002","KEA-2872","2018/04/09 18:29:30","新北市金山區磺港里磺港路171-1號","121.643686666667","25.2236733333333","6502700","金山區"
"208003","665-BX","2018/04/09 18:29:44","新北市金山區中山路198號","121.637656666667","25.2216333333333","6502700","金山區"
"251004","009-UM","2018/04/09 18:29:47","新北市淡水區民族路31巷56號","121.462781666667","25.136455","6501000","淡水區"
"251001","011-UM","2018/04/09 18:29:36","新北市淡水區自強路369號","121.464381666667","25.1331566666667","6501000","淡水區"
"251002","012-UM","2018/04/09 18:29:49","新北市淡水區中正東路一段21巷11號","121.451965","25.1638916666667","6501000","淡水區"
"251013","179-VK","2018/04/09 18:29:51","新北市淡水區椿子林8號","121.4868","25.2033733333333","6501000","淡水區"
"251014","180-VK","2018/04/09 18:29:37","新北市淡水區番社前25-1號","121.494718333333","25.21458","6501000","淡水區"
"251008","181-VK","2018/04/09 18:29:31","新北市淡水區北投子85號","121.468573333333","25.1787816666667","6501000","淡水區"
"251015","182-VK","2018/04/09 18:29:42","新北市淡水區興福寮88巷216號","121.485976666667","25.1665616666667","6501000","淡水區"
"251010","413-VK","2018/04/09 18:29:33","新北市淡水區沙崙路181巷1號","121.42412","25.18419","6501000","淡水區"
"251012","441-VK","2018/04/09 18:29:41","新北市淡水區北新路一段129-1號","121.457691666667","25.1821283333333","6501000","淡水區"
"251016","442-VK","2018/04/09 18:29:52","新北市淡水區下圭柔山115-10號","121.44627","25.2125466666667","6501000","淡水區"
"251006","561-UM","2018/04/09 18:29:43","新北市淡水區新生街51巷35號","121.440753333333","25.1759333333333","6501000","淡水區"
"251011","650-BX","2018/04/09 18:29:31","新北市淡水區中正東路一段45號","121.452116666667","25.163125","6501000","淡水區"
"251003","766-UM","2018/04/09 18:29:13","新北市淡水區北新路169巷16號","121.449815","25.1800816666667","6501000","淡水區"
"207003","550-UM","2018/04/09 18:29:36","新北市萬里區野柳里港東路151-2號","121.688451666667","25.2050883333333","6502800","萬里區"
"207004","225-TW","2018/04/09 18:29:45","新北市萬里區萬里里瑪鋉路134號","121.690486666667","25.1793033333333","6502800","萬里區"
"252002","178-VK","2018/04/09 18:29:36","新北市三芝區中山路二段39號","121.502896666667","25.2551466666667","6502100","三芝區"
"252003","249-BX","2018/04/09 18:29:45","新北市三芝區後厝里北勢子43號","121.471863333333","25.252565","6502100","三芝區"
"252001","292-VK","2018/04/09 18:29:48","新北市三芝區中興街二段2號","121.498358333333","25.25667","6502100","三芝區"
"237004","KEA-2597","2018/04/09 18:29:42","新北市三峽區五寮100號","121.3648","24.8625083333333","6500900","三峽區"
"237007","153-BY","2018/04/09 18:29:36","新北市三峽區中正路三段124號","121.35456","24.903595","6500900","三峽區"
"237009","210-TH","2018/04/09 18:29:42","新北市三峽區民族街75號","121.36952","24.92944","6500900","三峽區"
"237013","252-BX","2018/04/09 18:29:30","新北市三峽區光明路69巷25號","121.376738333333","24.9292866666667","6500900","三峽區"
"237012","275-BY","2018/04/09 18:29:33","新北市三峽區三樹路168巷21號","121.37928","24.9406283333333","6500900","三峽區"
"237008","302-VK","2018/04/09 18:29:26","新北市三峽區白雞127號","121.39505","24.9088433333333","6500900","三峽區"
"237006","5529-G3","2018/04/09 18:29:42","新北市三峽區溪東路371巷2弄2號","121.411926666667","24.9295466666667","6500900","三峽區"
"237010","706-TV","2018/04/09 18:29:41","新北市三峽區中山路222-1號","121.362946666667","24.937215","6500900","三峽區"
"237005","AKY-6261","2018/04/09 18:29:29","新北市三峽區民族街5巷23號","121.369743333333","24.9319116666667","6500900","三峽區"
"236069","105-UM","2018/04/09 18:29:35","新北市土城區永豐路255巷23弄1號","121.475198333333","24.9733716666667","6501300","土城區"
"236042","107-UM","2018/04/09 18:29:43","新北市土城區裕民路67巷18號","121.449946666667","24.988195","6501300","土城區"
"236078","166-UM","2018/04/09 18:29:49","新北市土城區中央路四段45-1號","121.422341666667","24.9618416666667","6501300","土城區"
"236030","253-BX","2018/04/09 18:29:41","新北市土城區水源街81巷16號","121.439408333333","24.9760216666667","6501300","土城區"
"236026","269-VK","2018/04/09 18:29:46","新北市土城區南天母路135巷12號","121.44783","24.954395","6501300","土城區"
"236014","270-VK","2018/04/09 18:29:43","新北市土城區青雲路39巷7號","121.460326666667","24.9874166666667","6501300","土城區"
"236039","271-VK","2018/04/09 18:29:44","新北市土城區青雲路453號","121.458853333333","24.9745866666667","6501300","土城區"
"236020","401-BY","2018/04/09 18:29:44","新北市土城區延吉街280號","121.465106666667","24.9841966666667","6501300","土城區"
"236059","912-UM","2018/04/09 18:29:34","新北市土城區中央路四段187號","121.414893333333","24.9566616666667","6501300","土城區"
"236048","913-UM","2018/04/09 18:29:52","新北市土城區青雲路364號","121.45867","24.97392","6501300","土城區"
"236063","915-UM","2018/04/09 18:29:49","新北市土城區延壽路77巷6弄9號","121.4685","24.9927383333333","6501300","土城區"
"236055","AAC-216","2018/04/09 18:29:50","新北市土城區中華路二段63號","121.439401666667","24.978545","6501300","土城區"
"242058","986-R7","2018/04/09 18:29:36","新北市新莊區中正路899巷2號","121.41156","25.021605","6500500","新莊區"
"242053","751-BX","2018/04/09 18:29:36","新北市新莊區樹新路120巷24號","121.43032","24.996355","6500500","新莊區"
"242025","613-BX","2018/04/09 18:29:52","新北市新莊區中央路232號","121.454678333333","25.0594083333333","6500500","新莊區"
"242042","566-BX","2018/04/09 18:29:40","新北市新莊區天祥街53號","121.415001666667","25.0303933333333","6500500","新莊區"
"242046","497-BY","2018/04/09 18:29:49","新北市新莊區福營路370號","121.420935","25.0264683333333","6500500","新莊區"
"242056","440-UM","2018/04/09 18:29:36","新北市新莊區瓊泰路77巷16號","121.442586666667","25.0290516666667","6500500","新莊區"
"242044","400-BY","2018/04/09 18:29:45","新北市新莊區中正路新旺巷4號","121.415715","25.0235416666667","6500500","新莊區"
"242060","353-BY","2018/04/09 18:29:34","新北市新莊區民安路188巷4號","121.425231666667","25.023545","6500500","新莊區"
"242011","173-VK","2018/04/09 18:29:29","新北市新莊區中港路597號","121.451375","25.05287","6500500","新莊區"
"242002","349-TH","2018/04/09 18:29:09","新北市新莊區瓊林路46-5號","121.447178333333","25.0294216666667","6500500","新莊區"
"238015","755-BX","2018/04/09 18:29:46","新北市樹林區啟智街172號","121.414866666667","24.987","6500700","樹林區"
"238023","601-UM","2018/04/09 18:29:49","新北市樹林區三福街47巷24號","121.407555","25.0150083333333","6500700","樹林區"
"238019","599-UM","2018/04/09 18:29:30","新北市樹林區中華路190號","121.411946666667","24.9804416666667","6500700","樹林區"
"238018","571-TV","2018/04/09 18:29:46","新北市樹林區樹新路113號","121.428148333333","24.9959183333333","6500700","樹林區"
"238024","5061-A6","2018/04/09 18:29:48","新北市樹林區中山路一段406號","121.418105","24.9853516666667","6500700","樹林區"
"238025","303-VK","2018/04/09 18:29:49","新北市樹林區東興街2號","121.40902","24.980295","6500700","樹林區"
"238017","283-BY","2018/04/09 18:29:49","新北市樹林區保安街二段136號","121.413376666667","25.0041516666667","6500700","樹林區"
"238026","172-UY","2018/04/09 18:29:46","新北市樹林區育德街78-1號","121.388021666667","24.9681016666667","6500700","樹林區"
"238016","169-UY","2018/04/09 18:29:39","新北市樹林區文化街23號","121.41927","24.98763","6500700","樹林區"
"239007","AAC-297","2018/04/09 18:29:42","新北市鶯歌區重慶街101號","121.347611666667","24.9523066666667","6500800","鶯歌區"
"239008","527-UM","2018/04/09 18:29:48","新北市鶯歌區國際一路179號","121.336228333333","24.976485","6500800","鶯歌區"
"239005","526-UM","2018/04/09 18:29:34","桃園市八德區桃鶯路130號","121.328418333333","24.9696966666667","6500800","鶯歌區"
"239001","417-VK","2018/04/09 18:29:35","新北市鶯歌區國中街197號","121.338265","24.9391416666667","6500800","鶯歌區"
"239003","360-BY","2018/04/09 18:29:40","新北市鶯歌區鶯桃路390號","121.333766666667","24.9635816666667","6500800","鶯歌區"
"239002","359-BY","2018/04/09 18:29:35","新北市鶯歌區中正一路460號","121.364705","24.956435","6500800","鶯歌區"
"239004","193-VK","2018/04/09 18:29:47","新北市鶯歌區尖山路174巷35弄18號","121.343861666667","24.9484033333333","6500800","鶯歌區"
"221008","489-VK","2018/04/09 18:29:43","新北市汐止區康寧街901號","121.651438333333","25.075075","6501100","汐止區"
"221036","130-UY","2018/04/09 18:29:51","新北市汐止區忠孝東路473巷18號","121.665278333333","25.0734283333333","6501100","汐止區"
"221015","131-UY","2018/04/09 18:29:48","新北市汐止區鄉友街72號","121.669746666667","25.0820783333333","6501100","汐止區"
"221010","269-BY","2018/04/09 18:29:40","新北市汐止區汐萬路三段21號","121.643158333333","25.091865","6501100","汐止區"
"221012","278-VK","2018/04/09 18:29:49","新北市汐止區保長路51巷3號","121.673458333333","25.078865","6501100","汐止區"
"221023","279-VK","2018/04/09 18:29:41","新北市汐止區康寧街474巷7-2號","121.63234","25.0679033333333","6501100","汐止區"
"221032","280-BY","2018/04/09 18:29:46","新北市汐止區民權街二段109巷36號","121.620056666667","25.0461033333333","6501100","汐止區"
"221027","281-BY","2018/04/09 18:29:32","新北市汐止區建成路37巷8號","121.662666666667","25.0724116666667","6501100","汐止區"
"221029","298-VK","2018/04/09 18:29:32","新北市汐止區樟樹二路345號","121.641891666667","25.07337","6501100","汐止區"
"221021","299-VK","2018/04/09 18:29:47","新北市汐止區新台五路一段91-2號","121.650015","25.0613866666667","6501100","汐止區"
"221035","622-UM","2018/04/09 18:29:40","新北市汐止區大同路二段11號","121.647155","25.0629083333333","6501100","汐止區"
"221025","623-UM","2018/04/09 18:29:39","新北市汐止區秀峰路142號","121.660123333333","25.0626616666667","6501100","汐止區"
"221038","646-BX","2018/04/09 18:29:43","新北市汐止區秀峰路57號","121.66","25.0652133333333","6501100","汐止區"
"221033","647-BX","2018/04/09 18:29:44","新北市汐止區宜興街51號","121.622483333333","25.04263","6501100","汐止區"
"221002","707-TV","2018/04/09 18:29:42","新北市汐止區福德一路162號","121.636168333333","25.066425","6501100","汐止區"
"221018","753-BX","2018/04/09 18:29:45","新北市汐止區茄苳路225巷2號","121.671053333333","25.0686616666667","6501100","汐止區"
"220079","145-BY","2018/04/09 18:29:38","新北市板橋區板城路407號","121.447448333333","24.9951383333333","6500100","板橋區"
"220071","283-VK","2018/04/09 18:29:35","新北市板橋區華東街1-9號","121.448065","24.9948666666667","6500100","板橋區"
"242009","281-VK","2018/04/09 18:29:39","新北市新莊區中正路179號","121.45394","25.03649","6500500","新莊區"
"220064","486-VK","2018/04/09 18:29:37","新北市板橋區華東街1-10號","121.44838","24.995015","6500100","板橋區"
"220035","560-BX","2018/04/09 18:29:34","新北市板橋區南雅西路一段7巷7號","121.454353333333","25.004","6500100","板橋區"
