"lineid","car","time","location","longitude","latitude","cityid","cityname"
"234046","148-BY","2018/04/09 18:39:05","新北市永和區永元路68號","121.522511666667","25.0016316666667","6500400","永和區"
"234007","207-UY","2018/04/09 18:39:07","新北市永和區環河西路二段217巷1號","121.501413333333","25.0101166666667","6500400","永和區"
"234081","298-R6","2018/04/09 18:39:07","新北市永和區林森路68號","121.523815","25.0039866666667","6500400","永和區"
"234064","337-UY","2018/04/09 18:39:03","新北市永和區福和路1號","121.52656","25.0100533333333","6500400","永和區"
"234086","338-UY","2018/04/09 18:39:08","新北市永和區永貞路149號","121.515768333333","25.0040933333333","6500400","永和區"
"234067","553-UM","2018/04/09 18:39:09","新北市永和區豫溪街217巷7號","121.52468","25.00956","6500400","永和區"
"234017","745-BX","2018/04/09 18:39:08","新北市永和區福和路1號","121.526416666667","25.0096333333333","6500400","永和區"
"234030","746-BX","2018/04/09 18:39:00","新北市永和區得和路321號","121.52337","24.9995683333333","6500400","永和區"
"234013","KEA-2591","2018/04/09 18:39:13","新北市永和區仁愛路148號","121.510685","25.0133383333333","6500400","永和區"
"234061","AAD-866","2018/04/09 18:39:19","新北市永和區福和路1號","121.525835","25.00957","6500400","永和區"
"234042","862-TW","2018/04/09 18:39:00","新北市永和區環河東路二段98號","121.52414","25.0103733333333","6500400","永和區"
"234026","9371-KE","2018/04/09 18:39:22","新北市永和區永貞路431號","121.507003333333","25.0098133333333","6500400","永和區"
"234011","9373-KE","2018/04/09 18:39:02","新北市永和區文化路9巷22弄46號","121.514086666667","25.0145333333333","6500400","永和區"
"249005","172-UM","2018/04/09 18:39:04","新北市八里區中華路三段232號","121.388511666667","25.1247583333333","6502300","八里區"
"249001","173-UM","2018/04/09 18:39:19","新北市八里區龍米路一段346號","121.451505","25.130815","6502300","八里區"
"249004","303-UY","2018/04/09 18:39:09","新北市八里區中山路一段18-1號","121.423041666667","25.1589933333333","6502300","八里區"
"249002","305-UY","2018/04/09 18:39:06","新北市八里區頂寮二街138號","121.449295","25.1294216666667","6502300","八里區"
"249003","593-UM","2018/04/09 18:39:03","新北市八里區中山路二段453號","121.396481666667","25.145605","6502300","八里區"
"248014","025-BX","2018/04/09 18:39:16","新北市五股區成泰路一段219-5號","121.435401666667","25.0775016666667","6501500","五股區"
"248016","026-BX","2018/04/09 18:39:07","新北市五股區凌雲路一段149巷13-1號","121.448578333333","25.1008766666667","6501500","五股區"
"248008","095-VK","2018/04/09 18:39:10","新北市五股區中興路一段148號","121.464618333333","25.073975","6501500","五股區"
"248018","225-UY","2018/04/09 18:39:10","新北市五股區民義路二段52巷27號","121.410743333333","25.1133016666667","6501500","五股區"
"248012","247-BX","2018/04/09 18:39:05","新北市五股區御成路6號","121.442033333333","25.0909683333333","6501500","五股區"
"248004","677-BX","2018/04/09 18:39:12","新北市五股區民義路一段255-29號","121.427781666667","25.0910233333333","6501500","五股區"
"248002","678-BX","2018/04/09 18:39:11","新北市五股區西雲路205號","121.448521666667","25.0965116666667","6501500","五股區"
"248010","682-TV","2018/04/09 18:39:00","新北市五股區自強路76號","121.432973333333","25.072785","6501500","五股區"
"234023","9380-KE","2018/04/09 18:37:46","新北市永和區福和路1號","121.525743333333","25.009415","6500400","永和區"
"234077","969-R7","2018/04/09 18:39:11","新北市永和區中正路416號","121.51751","25.0020883333333","6500400","永和區"
"234003","AAC-295","2018/04/09 18:38:58","新北市永和區福和路1號","121.526541666667","25.0099816666667","6500400","永和區"
"244013","069-UM","2018/04/09 18:39:13","新北市林口區中正路478號","121.382683333333","25.07747","6501700","林口區"
"244007","080-UY","2018/04/09 18:39:03","新北市林口區中湖62號","121.38453","25.100945","6501700","林口區"
"244025","742-UY","2018/04/09 18:39:11","新北市林口區南勢街221巷50號","121.357411666667","25.074965","6501700","林口區"
"244009","410-SL","2018/04/09 18:39:19","新北市林口區民生路154號","121.379333333333","25.0879683333333","6501700","林口區"
"244023","483-VK","2018/04/09 18:39:06","新北市林口區中山路557號","121.380815","25.081165","6501700","林口區"
"244016","485-VK","2018/04/09 18:39:11","新北市林口區文化二路一段92號","121.366495","25.0697983333333","6501700","林口區"
"244019","657-BX","2018/04/09 18:39:08","新北市林口區忠孝路646巷6號","121.37903","25.0680733333333","6501700","林口區"
"244011","701-TV","2018/04/09 18:39:10","新北市林口區興林路17巷6號","121.390403333333","25.0769933333333","6501700","林口區"
"244021","838-TS","2018/04/09 18:39:10","新北市林口區自強二街28號","121.398118333333","25.0779033333333","6501700","林口區"
"243012","AAD-798","2018/04/09 18:39:07","新北市泰山區泰林路二段203號","121.433133333333","25.061545","6501600","泰山區"
"243013","539-UM","2018/04/09 18:39:11","新北市泰山區明志路三段206巷3號","121.423256666667","25.0379266666667","6501600","泰山區"
"243010","KEA-2215","2018/04/09 18:39:02","新北市泰山區黎明路25號","121.421893333333","25.0606866666667","6501600","泰山區"
"243009","KEA-2216","2018/04/09 18:39:00","新北市泰山區黎明路31號","121.421736666667","25.0608416666667","6501600","泰山區"
"243016","680-BX","2018/04/09 18:39:18","新北市泰山區泰林路二段478-1號","121.42525","25.0640033333333","6501600","泰山區"
"222003","436-BY","2018/04/09 18:39:15","新北市深坑區翠谷街36號","121.627178333333","25.009255","6501800","深坑區"
"222002","659-BX","2018/04/09 18:39:10","新北市深坑區雲鄉路25巷2號","121.622311666667","24.9997716666667","6501800","深坑區"
"231041","002-UM","2018/04/09 18:39:01","新北市新店區安華路28-1號","121.519826666667","24.960815","6500600","新店區"
"231059","046-UY","2018/04/09 18:39:01","新北市新店區安華路28-1號","121.519543333333","24.9606966666667","6500600","新店區"
"231040","047-UY","2018/04/09 18:39:06","新北市新店區安華路28-1號","121.519183333333","24.960935","6500600","新店區"
"231044","106-UY","2018/04/09 18:39:04","新北市新店區安康路一段75號","121.530211666667","24.9610916666667","6500600","新店區"
"231052","108-UY","2018/04/09 18:39:07","新北市新店區長興路21號","121.546501666667","24.9399183333333","6500600","新店區"
"231047","187-VK","2018/04/09 18:39:19","新北市新店區安華路28-1號","121.519571666667","24.96118","6500600","新店區"
"231046","188-VK","2018/04/09 18:39:08","新北市新店區直潭二街1號","121.535518333333","24.94317","6500600","新店區"
"231057","256-BX","2018/04/09 18:39:07","新北市新店區新烏路一段159-1號","121.546693333333","24.9322133333333","6500600","新店區"
"231051","278-BY","2018/04/09 18:39:05","新北市新店區安華路28-1號","121.519731666667","24.9610716666667","6500600","新店區"
"231050","AAD-862","2018/04/09 18:39:03","新北市新店區安華路28-1號","121.519985","24.9609033333333","6500600","新店區"
"231058","3713-VJ","2018/04/09 18:39:10","新北市新店區北宜路一段168號","121.540363333333","24.9529183333333","6500600","新店區"
"231066","4716-K9","2018/04/09 18:39:02","新北市新店區安華路30巷1號","121.519013333333","24.95917","6500600","新店區"
"231056","4715-K9","2018/04/09 18:39:08","新北市新店區自立街56號","121.53783","24.97926","6500600","新店區"
"231067","4772-VM","2018/04/09 18:39:02","新北市新店區安康路一段164-1號","121.525898333333","24.9630416666667","6500600","新店區"
"231065","512-UM","2018/04/09 18:39:11","新北市新店區安華路28-1號","121.519608333333","24.9610816666667","6500600","新店區"
"231049","513-UM","2018/04/09 18:39:19","新北市新店區安華路28-1號","121.519678333333","24.9610533333333","6500600","新店區"
"231061","619-UM","2018/04/09 18:39:09","新北市新店區安華路28-1號","121.51951","24.9608083333333","6500600","新店區"
"231063","641-BX","2018/04/09 18:39:11","新北市新店區安華路1-1號","121.51965","24.9604066666667","6500600","新店區"
"231042","645-TV","2018/04/09 18:39:16","新北市新店區安華路1-1號","121.519506666667","24.96051","6500600","新店區"
"231064","719-UM","2018/04/09 18:39:12","新北市新店區安華路28-1號","121.519463333333","24.9613033333333","6500600","新店區"
"231054","719-UY","2018/04/09 18:39:14","新北市新店區安康路一段77號","121.529983333333","24.9611983333333","6500600","新店區"
"231062","720-UM","2018/04/09 18:39:00","新北市新店區安華路28-1號","121.51933","24.961065","6500600","新店區"
"231060","897-TW","2018/04/09 18:39:17","新北市新店區安華路28-1號","121.519621666667","24.960555","6500600","新店區"
"231045","898-TW","2018/04/09 18:39:19","新北市新店區安華路28-1號","121.519361666667","24.96085","6500600","新店區"
"231055","AKT-0513","2018/04/09 18:39:06","新北市新店區華興街42號","121.536871666667","24.9691","6500600","新店區"
"235066","003-UY","2018/04/09 18:39:19","新北市中和區水源路20號","121.504133333333","25.0035066666667","6500300","中和區"
"235064","005-UY","2018/04/09 18:39:12","新北市中和區連城路121號","121.496198333333","24.999375","6500300","中和區"
"235063","006-UY","2018/04/09 18:39:22","新北市中和區連城路401號","121.486206666667","24.9960983333333","6500300","中和區"
"235056","096-UM","2018/04/09 18:39:11","新北市中和區員山路611巷1號","121.477886666667","25.011265","6500300","中和區"
"235065","098-UM","2018/04/09 18:39:14","新北市中和區莊敬路49巷27號","121.501525","25.006165","6500300","中和區"
"235040","150-BY","2018/04/09 18:39:18","新北市中和區宜安路47巷2號","121.51167","24.996495","6500300","中和區"
"235058","151-BY","2018/04/09 18:39:18","新北市中和區員山路24-1號","121.48368","24.985485","6500300","中和區"
"235055","183-VK","2018/04/09 18:39:20","新北市中和區民生街91號","121.468581666667","25.0047616666667","6500300","中和區"
"235038","185-VK","2018/04/09 18:39:12","新北市中和區自強路60號","121.519811666667","24.9945216666667","6500300","中和區"
"235049","186-VK","2018/04/09 18:39:13","新北市中和區景安路163號","121.505331666667","24.9945766666667","6500300","中和區"
"235067","255-BX","2018/04/09 18:39:07","新北市中和區新生街115號","121.483508333333","25.0017633333333","6500300","中和區"
"235044","293-VK","2018/04/09 18:39:11","新北市中和區復興路280巷5號","121.502241666667","24.9909216666667","6500300","中和區"
"235072","301-VK","2018/04/09 18:39:13","新北市中和區中山路二段134-5號","121.502251666667","25.003265","6500300","中和區"
"235043","352-BY","2018/04/09 18:39:07","新北市中和區景平路155巷2弄2號","121.513215","24.9922416666667","6500300","中和區"
"235068","377-QA","2018/04/09 18:39:16","新北市中和區中正路128號","121.499636666667","24.9936883333333","6500300","中和區"
"235061","378-QA","2018/04/09 18:39:16","新北市中和區民享街90巷21號","121.473835","25.0001033333333","6500300","中和區"
"235050","4979-A6","2018/04/09 18:39:10","新北市中和區景新街418巷37號","121.512428333333","24.9882816666667","6500300","中和區"
"235069","4980-A6","2018/04/09 18:39:14","新北市中和區連城路99巷1號","121.49671","24.9995233333333","6500300","中和區"
"235042","551-UM","2018/04/09 18:39:09","新北市中和區成功路97巷18弄13號","121.526896666667","24.9912433333333","6500300","中和區"
"235070","558-UM","2018/04/09 18:39:02","新北市中和區南華路55號","121.504178333333","24.9968816666667","6500300","中和區"
"235045","565-BX","2018/04/09 18:39:13","新北市中和區南山路236巷21號","121.505593333333","24.9885916666667","6500300","中和區"
"235054","640-BX","2018/04/09 18:39:18","新北市中和區莒光路132號","121.472523333333","25.0014333333333","6500300","中和區"
"235047","732-UM","2018/04/09 18:39:04","新北市中和區南山路320巷10弄11號","121.506866666667","24.9865966666667","6500300","中和區"
"235046","733-UM","2018/04/09 18:39:14","新北市中和區仁愛街61號","121.511455","24.98775","6500300","中和區"
"235062","800-TS","2018/04/09 18:39:05","新北市中和區中山路二段312巷33弄27號","121.494751666667","25.0042683333333","6500300","中和區"
"235057","801-TS","2018/04/09 18:39:06","新北市中和區員山路327巷46-1號","121.480331666667","25.0017333333333","6500300","中和區"
"235041","802-TS","2018/04/09 18:39:20","新北市中和區宜安路161號","121.508896666667","24.99898","6500300","中和區"
"235052","805-TS","2018/04/09 18:39:05","新北市中和區興南路三段73巷8號","121.492271666667","24.9744066666667","6500300","中和區"
"235048","896-TW","2018/04/09 18:39:03","新北市中和區南山路162號","121.504696666667","24.99161","6500300","中和區"
"235053","900-TW","2018/04/09 18:39:14","新北市土城區延壽路115巷2號","121.46907","24.9942216666667","6500300","中和區"
"235060","911-UM","2018/04/09 18:39:03","新北市中和區中山路二段585號","121.480183333333","25.00575","6500300","中和區"
"235051","157-BY","2018/04/09 18:39:16","新北市中和區華新街143巷47號","121.506253333333","24.9803216666667","6500300","中和區"
"235037","AAC-213","2018/04/09 18:39:00","新北市中和區景德街67號","121.516956666667","24.99141","6500300","中和區"
"235059","AAC-215","2018/04/09 18:39:18","新北市中和區錦和路350-1號","121.490448333333","24.9935166666667","6500300","中和區"
"220056","015-TV","2018/04/09 18:39:15","新北市板橋區四川路二段140巷16弄28號","121.44882","24.9946633333333","6500100","板橋區"
"220065","072-UY","2018/04/09 18:39:10","新北市板橋區區運路11號","121.465385","25.0097016666667","6500100","板橋區"
"220086","073-UY","2018/04/09 18:39:21","新北市板橋區南雅西路二段192巷1弄3號","121.452036666667","25.014495","6500100","板橋區"
"220067","075-UY","2018/04/09 18:39:16","新北市板橋區民生路二段120號","121.47039","25.0197583333333","6500100","板橋區"
"220069","AAD-861","2018/04/09 18:39:05","新北市板橋區華東街1-10號","121.44835","24.995095","6500100","板橋區"
"226004","312-R5","2018/04/09 18:39:19","新北市平溪區平溪里三坑路35號","121.735","25.0315","6502400","平溪區"
"235039","251-BX","2018/04/09 18:39:11","新北市中和區安樂路195號","121.514695","24.99836","6500300","中和區"
"228003","097-TW","2018/04/09 18:39:09","新北市貢寮區和美里龍洞街38-1號","121.915666666667","25.1116333333333","6502600","貢寮區"
"228002","585-TW","2018/04/09 18:39:12","新北市貢寮區福隆里桂安街17號","121.964683333333","25.021425","6502600","貢寮區"
"228001","670-TC","2018/04/09 18:39:08","新北市貢寮區仁理村研海街12-1號","121.923748333333","25.0516683333333","6502600","貢寮區"
"224010","AGQ-8101","2018/04/09 18:35:16","新北市瑞芳區烏勢巷145號","121.847863333333","25.1091933333333","6501200","瑞芳區"
"224006","676-BX","2018/04/09 18:39:13","新北市瑞芳區明燈路三段98號","121.805358333333","25.10835","6501200","瑞芳區"
"224002","639-TC","2018/04/09 18:39:05","新北市瑞芳區三爪子坑路29巷42號","121.81373","25.10668","6501200","瑞芳區"
"224008","285-BY","2018/04/09 18:39:14","新北市瑞芳區岳王路162號","121.80796","25.1113783333333","6501200","瑞芳區"
"224007","275-VK","2018/04/09 18:39:11","新北市瑞芳區大埔路167號","121.763791666667","25.1018283333333","6501200","瑞芳區"
"224009","273-VK","2018/04/09 18:39:07","新北市瑞芳區五號路215號","121.855963333333","25.110365","6501200","瑞芳區"
"224005","271-BY","2018/04/09 18:39:10","新北市瑞芳區瑞濱路139-1號","121.819646666667","25.11984","6501200","瑞芳區"
"227001","642-TC","2018/04/09 18:39:16","新北市雙溪區魚行里坤溪3-5號","121.87621","25.020735","6502500","雙溪區"
"227008","400-TW","2018/04/09 18:39:16","新北市雙溪區牡丹里下坑11號","121.851006666667","25.0561733333333","6502500","雙溪區"
"253005","032-BX","2018/04/09 18:39:16","新北市石門區中山路33號","121.567056666667","25.2907466666667","6502200","石門區"
"253006","295-VK","2018/04/09 18:39:20","新北市石門區楓林28-5號","121.542561666667","25.28978","6502200","石門區"
"222001","KEA-2212","2018/04/09 18:39:03","新北市深坑區北深路一段84號","121.636273333333","25.010655","6501800","深坑區"
"208002","KEA-2872","2018/04/09 18:39:10","新北市金山區環金路110號","121.63868","25.2174483333333","6502700","金山區"
"208003","665-BX","2018/04/09 18:39:13","新北市金山區中山路332號","121.633756666667","25.2250583333333","6502700","金山區"
"251004","009-UM","2018/04/09 18:39:07","新北市淡水區中正東路二段161巷8弄13號","121.462408333333","25.1448","6501000","淡水區"
"251001","011-UM","2018/04/09 18:39:16","新北市淡水區自強路415巷2號","121.465453333333","25.1342083333333","6501000","淡水區"
"251002","012-UM","2018/04/09 18:39:09","新北市淡水區中正東路一段3巷14弄1號","121.450958333333","25.1641966666667","6501000","淡水區"
"251013","179-VK","2018/04/09 18:39:11","新北市淡水區雲廣坑6號","121.473136666667","25.2158866666667","6501000","淡水區"
"251014","180-VK","2018/04/09 18:39:17","新北市淡水區番社前25-1號","121.494711666667","25.2145816666667","6501000","淡水區"
"251008","181-VK","2018/04/09 18:39:11","新北市淡水區北投子20號","121.454005","25.1837516666667","6501000","淡水區"
"251015","182-VK","2018/04/09 18:39:02","新北市淡水區興福寮66巷579號","121.48438","25.1632916666667","6501000","淡水區"
"251010","413-VK","2018/04/09 18:39:13","新北市淡水區沙崙路141號","121.423258333333","25.1829183333333","6501000","淡水區"
"251012","441-VK","2018/04/09 18:39:01","新北市淡水區北新路117號","121.448915","25.178635","6501000","淡水區"
"251016","442-VK","2018/04/09 18:39:12","新北市淡水區下圭柔山76號","121.442738333333","25.205275","6501000","淡水區"
"251006","561-UM","2018/04/09 18:39:03","新北市淡水區崁頂37-11號","121.438673333333","25.194275","6501000","淡水區"
"251011","650-BX","2018/04/09 18:39:12","新北市淡水區鄧公路15號","121.448835","25.1694166666667","6501000","淡水區"
"251003","766-UM","2018/04/09 18:39:13","新北市淡水區北新路69巷26號","121.446808333333","25.18006","6501000","淡水區"
"207003","550-UM","2018/04/09 18:39:15","新北市萬里區大鵬里頂社2-1號","121.66036","25.207135","6502800","萬里區"
"207004","225-TW","2018/04/09 18:39:13","新北市萬里區萬里里獅頭路7號","121.691968333333","25.1782383333333","6502800","萬里區"
"252002","178-VK","2018/04/09 18:39:16","新北市三芝區民生街64巷8號","121.503591666667","25.255235","6502100","三芝區"
"252003","249-BX","2018/04/09 18:39:05","新北市三芝區後厝里土地公坑54-18號","121.465318333333","25.24937","6502100","三芝區"
"252001","292-VK","2018/04/09 18:39:08","新北市三芝區中興街二段260號","121.501903333333","25.252875","6502100","三芝區"
"237004","KEA-2597","2018/04/09 18:39:02","新北市三峽區插角6號","121.399785","24.873525","6500900","三峽區"
"237007","153-BY","2018/04/09 18:39:16","新北市三峽區柑樹路2巷76號","121.361785","24.904675","6500900","三峽區"
"237009","210-TH","2018/04/09 18:39:01","新北市三峽區大同路240巷45弄2號","121.365443333333","24.9262333333333","6500900","三峽區"
"237013","252-BX","2018/04/09 18:39:10","新北市三峽區光明路69巷25號","121.37672","24.929225","6500900","三峽區"
"237012","275-BY","2018/04/09 18:39:13","新北市三峽區三樹路360號","121.38348","24.943695","6500900","三峽區"
"237008","302-VK","2018/04/09 18:39:06","新北市三峽區白雞41號","121.381403333333","24.9118683333333","6500900","三峽區"
"237006","5529-G3","2018/04/09 18:39:02","新北市三峽區溪東路309號","121.410211666667","24.93052","6500900","三峽區"
"237010","706-TV","2018/04/09 18:39:01","新北市三峽區復興路361號","121.363716666667","24.9386433333333","6500900","三峽區"
"237005","AKY-6261","2018/04/09 18:39:09","新北市三峽區民生街104巷15號","121.373578333333","24.9360516666667","6500900","三峽區"
"236069","105-UM","2018/04/09 18:39:15","新北市土城區永豐路157巷29弄6-1號","121.468596666667","24.9814783333333","6501300","土城區"
"236042","107-UM","2018/04/09 18:39:16","新北市土城區學成路108巷8-2號","121.450223333333","24.9896516666667","6501300","土城區"
"236078","166-UM","2018/04/09 18:39:09","新北市土城區中央路四段52巷10號","121.419996666667","24.9609133333333","6501300","土城區"
"236030","253-BX","2018/04/09 18:39:01","新北市土城區福仁街55號","121.439586666667","24.97475","6501300","土城區"
"236026","269-VK","2018/04/09 18:39:06","新北市土城區千歲路27號","121.442006666667","24.9685566666667","6501300","土城區"
"236014","270-VK","2018/04/09 18:39:03","新北市土城區青雲路185號","121.459385","24.9825783333333","6501300","土城區"
"236039","271-VK","2018/04/09 18:39:09","新北市土城區明德路一段313巷3弄10號","121.459901666667","24.97641","6501300","土城區"
"236020","401-BY","2018/04/09 18:39:10","新北市土城區延吉街327-1號","121.465538333333","24.9841833333333","6501300","土城區"
"236059","912-UM","2018/04/09 18:39:14","新北市土城區中央路四段27巷4號","121.425028333333","24.9625366666667","6501300","土城區"
"236048","913-UM","2018/04/09 18:39:07","新北市土城區明德路一段95號","121.46554","24.98302","6501300","土城區"
"236063","915-UM","2018/04/09 18:39:09","新北市土城區延壽路13巷17號","121.469981666667","24.9913283333333","6501300","土城區"
"236055","AAC-216","2018/04/09 18:39:10","新北市土城區中華路一段43-1號","121.445903333333","24.98843","6501300","土城區"
"242058","986-R7","2018/04/09 18:39:16","新北市新莊區中正路887-6號","121.416625","25.0244983333333","6500500","新莊區"
"242025","613-BX","2018/04/09 18:39:12","新北市新莊區立信一街37號","121.442166666667","25.0492833333333","6500500","新莊區"
"242046","497-BY","2018/04/09 18:39:21","新北市新莊區中正路803巷40號","121.42175","25.0279","6500500","新莊區"
"238023","601-UM","2018/04/09 18:39:09","新北市樹林區三福街114號","121.406476666667","25.01628","6500700","樹林區"
"238019","599-UM","2018/04/09 18:39:10","新北市樹林區中華路190號","121.411946666667","24.9804566666667","6500700","樹林區"
"238018","571-TV","2018/04/09 18:39:05","新北市樹林區樹新路81號","121.427666666667","24.9952483333333","6500700","樹林區"
"238024","5061-A6","2018/04/09 18:39:20","新北市樹林區太順街49巷20弄22號","121.417688333333","24.9783216666667","6500700","樹林區"
"238022","KEA-2213","2018/04/09 18:39:16","新北市樹林區中華路190-1號","121.411363333333","24.9804866666667","6500700","樹林區"
"238025","303-VK","2018/04/09 18:39:09","新北市樹林區中山路三段214號","121.3805","24.96658","6500700","樹林區"
"238026","172-UY","2018/04/09 18:39:06","新北市樹林區信和街126-1號","121.387631666667","24.9734466666667","6500700","樹林區"
"238016","169-UY","2018/04/09 18:39:19","新北市樹林區文化街23號","121.419325","24.987575","6500700","樹林區"
"239007","AAC-297","2018/04/09 18:39:02","新北市鶯歌區中正一路478號","121.367071666667","24.956485","6500800","鶯歌區"
"239008","527-UM","2018/04/09 18:39:08","新北市鶯歌區國際一路179號","121.33622","24.9765133333333","6500800","鶯歌區"
"239005","526-UM","2018/04/09 18:39:14","新北市鶯歌區鳳吉二街128號","121.328115","24.9746033333333","6500800","鶯歌區"
"239001","417-VK","2018/04/09 18:39:14","新北市鶯歌區中正三路193巷55號","121.336686666667","24.938205","6500800","鶯歌區"
"239003","360-BY","2018/04/09 18:39:00","新北市鶯歌區永和街181號","121.335863333333","24.9702416666667","6500800","鶯歌區"
"239004","193-VK","2018/04/09 18:39:07","新北市鶯歌區尖山路293巷13號","121.341566666667","24.9442683333333","6500800","鶯歌區"
"221008","489-VK","2018/04/09 18:31:00","新北市汐止區康寧街901號","121.651438333333","25.0750766666667","6501100","汐止區"
"221036","130-UY","2018/04/09 18:39:11","新北市汐止區水碓街49號","121.665175","25.069445","6501100","汐止區"
"221015","131-UY","2018/04/09 18:39:08","新北市汐止區吉祥街26號","121.667801666667","25.0811066666667","6501100","汐止區"
"221010","269-BY","2018/04/09 18:39:15","新北市汐止區瑞松街46號","121.645248333333","25.106045","6501100","汐止區"
"221012","278-VK","2018/04/09 18:38:58","新北市汐止區鄉友街26號","121.66867","25.081155","6501100","汐止區"
"221023","279-VK","2018/04/09 18:39:21","新北市汐止區湖前街1號","121.63268","25.0688166666667","6501100","汐止區"
"221032","280-BY","2018/04/09 18:39:06","新北市汐止區福山街60巷4號","121.617788333333","25.046455","6501100","汐止區"
"221027","281-BY","2018/04/09 18:39:12","新北市汐止區大同路二段585號","121.663605","25.0704916666667","6501100","汐止區"
"221029","298-VK","2018/04/09 18:39:12","新北市汐止區樟樹一路142號","121.64224","25.065035","6501100","汐止區"
"221021","299-VK","2018/04/09 18:39:07","新北市汐止區復興路67號","121.657191666667","25.06211","6501100","汐止區"
"221035","622-UM","2018/04/09 18:39:20","新北市汐止區大同路二段276號","121.654798333333","25.0662433333333","6501100","汐止區"
"221025","623-UM","2018/04/09 18:39:19","新北市汐止區福安街39號","121.662938333333","25.0647433333333","6501100","汐止區"
"221038","646-BX","2018/04/09 18:38:43","新北市汐止區汐萬路一段256巷3號","121.652423333333","25.0746133333333","6501100","汐止區"
"221033","647-BX","2018/04/09 18:39:18","新北市汐止區南勢街3號","121.627038333333","25.0372966666667","6501100","汐止區"
"221002","707-TV","2018/04/09 18:39:02","新北市汐止區中興路25號","121.636925","25.0596083333333","6501100","汐止區"
"221018","753-BX","2018/04/09 18:39:20","新北市汐止區茄苳路255號","121.671986666667","25.0681916666667","6501100","汐止區"
"220079","145-BY","2018/04/09 18:39:18","新北市板橋區南雅西路二段180巷14號","121.452276666667","25.0138883333333","6500100","板橋區"
"220080","200-UY","2018/04/09 18:39:13","新北市板橋區大觀路二段431-1號","121.44147","24.9950516666667","6500100","板橋區"
"220106","KEA-2550","2018/04/09 18:39:04","新北市板橋區民生路二段161巷1號","121.470138333333","25.0199183333333","6500100","板橋區"
"220082","610-BX","2018/04/09 18:39:18","新北市板橋區華東街1-8號","121.447611666667","24.9949133333333","6500100","板橋區"
"220091","267-BY","2018/04/09 18:39:11","新北市板橋區民生路二段161巷1號","121.470116666667","25.0202083333333","6500100","板橋區"
"220072","277-BY","2018/04/09 18:39:03","新北市板橋區大觀路二段443-2號","121.440471666667","24.995085","6500100","板橋區"
"220070","282-UM","2018/04/09 18:39:12","新北市板橋區華東街1-9號","121.448215","24.9948833333333","6500100","板橋區"
"220071","283-VK","2018/04/09 18:39:15","新北市板橋區華東街1-9號","121.448158333333","24.9948966666667","6500100","板橋區"
"220094","285-UM","2018/04/09 18:39:03","新北市板橋區民生路二段161巷3號","121.470058333333","25.01973","6500100","板橋區"
"220053","285-VK","2018/04/09 18:39:18","新北市板橋區民生路二段120號","121.47048","25.0200116666667","6500100","板橋區"
"220083","286-VK","2018/04/09 18:39:06","新北市板橋區大觀路二段力行3巷49-5號","121.44748","24.9990816666667","6500100","板橋區"
"220081","287-VK","2018/04/09 18:39:10","新北市板橋區板城路421號","121.44812","24.9962133333333","6500100","板橋區"
"220061","293-UM","2018/04/09 18:39:08","新北市板橋區民生路二段120號","121.470391666667","25.01973","6500100","板橋區"
"220075","303-R5","2018/04/09 18:39:02","新北市板橋區南雅南路二段120-2號","121.452331666667","24.9999816666667","6500100","板橋區"
"220062","305-R5","2018/04/09 18:39:05","新北市板橋區民生路二段120號","121.470366666667","25.0197","6500100","板橋區"
"220098","317-R6","2018/04/09 18:39:08","新北市板橋區民生路二段161巷9號","121.470251666667","25.0196233333333","6500100","板橋區"
"220064","486-VK","2018/04/09 18:39:17","新北市板橋區中山路一段3-1號","121.459041666667","25.00787","6500100","板橋區"
"220035","560-BX","2018/04/09 18:39:14","新北市板橋區南雅西路二段175巷2號","121.451521666667","25.0125233333333","6500100","板橋區"
"220084","568-UM","2018/04/09 18:39:14","新北市板橋區大觀路二段153巷44弄11號","121.446871666667","24.99926","6500100","板橋區"
"220057","686-BX","2018/04/09 18:39:16","新北市板橋區華東街1-9號","121.44821","24.99493","6500100","板橋區"
"220054","741-BX","2018/04/09 18:39:12","新北市板橋區華東街1-9號","121.44812","24.9949166666667","6500100","板橋區"
"220068","830-TW","2018/04/09 18:39:01","新北市板橋區民生路二段120號","121.470385","25.01954","6500100","板橋區"
"220074","895-R6","2018/04/09 18:39:03","新北市板橋區南雅南路二段146號","121.45158","24.996175","6500100","板橋區"
"220073","985-R7","2018/04/09 18:39:01","新北市板橋區南雅南路二段140號","121.451696666667","24.9962833333333","6500100","板橋區"
"220077","AAC-253","2018/04/09 18:39:04","新北市板橋區大觀路二段435號","121.441666666667","24.9950216666667","6500100","板橋區"
