"lineid","car","time","location","longitude","latitude","cityid","cityname"
"234046","148-BY","2018/04/09 19:19:25","新北市永和區得和路373巷10號","121.524941666667","25.00004","6500400","永和區"
"234070","149-BY","2018/04/09 19:19:28","新北市永和區豫溪街76-1號","121.517393333333","25.0099316666667","6500400","永和區"
"234007","207-UY","2018/04/09 19:19:27","新北市中和區中山路二段41號","121.504563333333","25.0050383333333","6500400","永和區"
"234081","298-R6","2018/04/09 19:19:27","新北市永和區福和路7巷14弄2號","121.525453333333","25.00731","6500400","永和區"
"234038","336-UY","2018/04/09 19:19:35","新北市永和區民樂街59巷7號","121.527978333333","24.9982866666667","6500400","永和區"
"234064","337-UY","2018/04/09 19:19:23","新北市永和區永元路17巷6弄4號","121.521341666667","25.0006216666667","6500400","永和區"
"234086","338-UY","2018/04/09 19:19:28","新北市永和區永利路38號","121.518658333333","25.0054983333333","6500400","永和區"
"234067","553-UM","2018/04/09 19:19:29","新北市永和區保平路30巷2號","121.511986666667","25.007305","6500400","永和區"
"234017","745-BX","2018/04/09 19:19:28","新北市永和區文化路144巷31弄1號","121.512386666667","25.01668","6500400","永和區"
"234030","746-BX","2018/04/09 19:19:25","新北市永和區厚德街14號","121.525803333333","24.9980066666667","6500400","永和區"
"234054","KEA-2590","2018/04/09 19:19:34","新北市永和區中興街31號","121.516133333333","25.0118833333333","6500400","永和區"
"234013","KEA-2591","2018/04/09 19:19:33","新北市永和區信義路77號","121.512455","25.0132433333333","6500400","永和區"
"234061","AAD-866","2018/04/09 19:19:19","新北市永和區秀朗路一段120號","121.517075","25.003585","6500400","永和區"
"234042","862-TW","2018/04/09 19:19:20","新北市永和區保平路151巷3號","121.5101","25.0056216666667","6500400","永和區"
"234050","863-TW","2018/04/09 19:19:25","新北市永和區保福路二段88巷29號","121.511945","25.0137316666667","6500400","永和區"
"234026","9371-KE","2018/04/09 19:19:22","新北市永和區安樂路144巷24號","121.515043333333","24.9995783333333","6500400","永和區"
"234011","9373-KE","2018/04/09 19:19:21","新北市永和區保福路二段23巷19號","121.51015","25.0111216666667","6500400","永和區"
"249001","173-UM","2018/04/09 19:19:26","新北市八里區中華路一段333-1號","121.412948333333","25.1542466666667","6502300","八里區"
"249003","593-UM","2018/04/09 19:19:23","新北市八里區中山路二段468號","121.398865","25.1472583333333","6502300","八里區"
"248018","225-UY","2018/04/09 19:19:30","新北市五股區民義路一段220巷32號","121.428476666667","25.0940533333333","6501500","五股區"
"248012","247-BX","2018/04/09 19:19:25","新北市五股區中興路四段48巷16號","121.438626666667","25.0834333333333","6501500","五股區"
"248004","677-BX","2018/04/09 19:19:25","新北市五股區五福路49號","121.432948333333","25.0895833333333","6501500","五股區"
"248002","678-BX","2018/04/09 19:19:31","新北市五股區凌雲路一段158巷14號","121.447805","25.103405","6501500","五股區"
"248010","682-TV","2018/04/09 19:19:20","新北市五股區水碓一路23號","121.430661666667","25.071345","6501500","五股區"
"234023","9380-KE","2018/04/09 19:19:26","新北市永和區竹林路124巷31號","121.518286666667","25.0112","6500400","永和區"
"234077","969-R7","2018/04/09 19:19:31","新北市永和區民族街44號","121.518426666667","24.998765","6500400","永和區"
"234074","AAC-211","2018/04/09 19:19:26","新北市永和區竹林路100-1號","121.51959","25.0119833333333","6500400","永和區"
"234003","AAC-295","2018/04/09 19:19:18","新北市永和區中山路一段151號","121.510051666667","25.0093583333333","6500400","永和區"
"244013","069-UM","2018/04/09 19:19:33","新北市林口區麗園一街4巷1號","121.376055","25.0710533333333","6501700","林口區"
"244023","483-VK","2018/04/09 19:19:26","新北市林口區民有街66號","121.372713333333","25.0770383333333","6501700","林口區"
"244016","485-VK","2018/04/09 19:19:31","新北市林口區寶林路118-2號","121.372915","25.091455","6501700","林口區"
"244019","657-BX","2018/04/09 19:19:31","新北市林口區文化二路一段555號","121.37472","25.0773166666667","6501700","林口區"
"244011","701-TV","2018/04/09 19:19:30","新北市林口區中正路270號","121.389278333333","25.07781","6501700","林口區"
"243012","AAD-798","2018/04/09 19:19:27","新北市泰山區仁愛路78號","121.432788333333","25.0552533333333","6501600","泰山區"
"243011","297-R6","2018/04/09 19:19:27","新北市泰山區中央路11巷3號","121.426333333333","25.0427833333333","6501600","泰山區"
"243015","380-SR","2018/04/09 19:19:30","新北市泰山區公園路71號","121.42629","25.0554333333333","6501600","泰山區"
"243014","421-VK","2018/04/09 19:19:22","新北市泰山區泰林路二段81號","121.434958333333","25.0586233333333","6501600","泰山區"
"243013","539-UM","2018/04/09 19:19:28","新北市泰山區明志路三段145巷2弄15號","121.425118333333","25.0393216666667","6501600","泰山區"
"243010","KEA-2215","2018/04/09 19:19:22","新北市泰山區明志路一段492巷4弄1號","121.429933333333","25.0548483333333","6501600","泰山區"
"243009","KEA-2216","2018/04/09 19:19:20","新北市泰山區和平街13巷11號","121.434396666667","25.0651516666667","6501600","泰山區"
"243016","680-BX","2018/04/09 19:19:20","新北市泰山區工專路22號","121.423628333333","25.039765","6501600","泰山區"
"222003","436-BY","2018/04/09 19:19:35","新北市深坑區深南路204號","121.626616666667","25.0160316666667","6501800","深坑區"
"222002","659-BX","2018/04/09 19:19:30","新北市深坑區北深路一段177號","121.632561666667","25.0109066666667","6501800","深坑區"
"231041","002-UM","2018/04/09 19:19:21","新北市新店區溪園路245-6號","121.525423333333","24.9832933333333","6500600","新店區"
"231059","046-UY","2018/04/09 19:19:22","新北市新店區安和路二段175號","121.518516666667","24.97472","6500600","新店區"
"231040","047-UY","2018/04/09 19:19:26","新北市新店區三民路31-10號","121.537801666667","24.9704616666667","6500600","新店區"
"231044","106-UY","2018/04/09 19:19:24","新北市新店區中興路三段301號","121.5422","24.9853683333333","6500600","新店區"
"231052","108-UY","2018/04/09 19:19:27","新北市新店區自強路239號","121.54751","24.9187483333333","6500600","新店區"
"231047","187-VK","2018/04/09 19:19:19","新北市新店區德正街27巷26號","121.545428333333","24.9710666666667","6500600","新店區"
"231046","188-VK","2018/04/09 19:19:28","新北市新店區華城路36巷1-1號","121.528455","24.955385","6500600","新店區"
"231051","278-BY","2018/04/09 19:19:28","新北市新店區中央路133巷2號","121.53045","24.97364","6500600","新店區"
"231050","AAD-862","2018/04/09 19:19:23","新北市新店區竹林路30巷1號","121.552271666667","24.9513066666667","6500600","新店區"
"231058","3713-VJ","2018/04/09 19:19:30","新北市新店區中正路117巷5號","121.542313333333","24.9702783333333","6500600","新店區"
"231066","4716-K9","2018/04/09 19:19:22","新北市新店區安康路三段456號","121.484301666667","24.9510966666667","6500600","新店區"
"231056","4715-K9","2018/04/09 19:19:28","新北市新店區民生路277號","121.52508","24.978955","6500600","新店區"
"231065","512-UM","2018/04/09 19:19:31","新北市新店區安祥路110巷26號","121.474308333333","24.9563366666667","6500600","新店區"
"231049","513-UM","2018/04/09 19:19:19","新北市新店區明德路64號","121.541565","24.979385","6500600","新店區"
"231061","619-UM","2018/04/09 19:19:28","新北市新店區安康路一段20號","121.531035","24.9610383333333","6500600","新店區"
"231063","641-BX","2018/04/09 19:19:31","新北市新店區達觀路14巷1號","121.503585","24.9410133333333","6500600","新店區"
"231042","645-TV","2018/04/09 19:19:36","新北市新店區中興路一段90號","121.539871666667","24.96047","6500600","新店區"
"231064","719-UM","2018/04/09 19:19:32","新北市新店區安忠路57巷26弄3號","121.513038333333","24.9587566666667","6500600","新店區"
"231054","719-UY","2018/04/09 19:19:14","新北市新店區國校路45-1號","121.537928333333","24.9549516666667","6500600","新店區"
"231062","720-UM","2018/04/09 19:19:20","新北市新店區莒光路38巷3號","121.522436666667","24.9588916666667","6500600","新店區"
"231060","897-TW","2018/04/09 19:19:17","新北市新店區安康路二段115號","121.512486666667","24.9616683333333","6500600","新店區"
"231045","898-TW","2018/04/09 19:19:19","新北市新店區北宜路二段4號","121.54766","24.9518666666667","6500600","新店區"
"231043","899-TW","2018/04/09 19:19:17","新北市新店區北新路二段107號","121.542843333333","24.97446","6500600","新店區"
"241009","060-VK","2018/04/09 19:19:33","新北市三重區溪尾街230巷65號","121.486205","25.0811866666667","6500200","三重區"
"241031","061-VK","2018/04/09 19:19:29","新北市三重區重新路四段242-1號","121.485745","25.053765","6500200","三重區"
"241017","063-VK","2018/04/09 19:19:25","新北市三重區大同北路217號","121.491566666667","25.066055","6500200","三重區"
"241026","066-VK","2018/04/09 19:19:30","新北市三重區中正南路216號","121.493883333333","25.0550883333333","6500200","三重區"
"241032","269-UM","2018/04/09 19:19:28","新北市三重區新生街96號","121.483333333333","25.0593033333333","6500200","三重區"
"241025","271-UM","2018/04/09 19:19:31","新北市三重區中正北路408巷2號","121.475366666667","25.0703233333333","6500200","三重區"
"241007","398-BY","2018/04/09 19:19:21","新北市三重區慈愛街47號","121.486015","25.079125","6500200","三重區"
"241035","KEA-2210","2018/04/09 19:19:19","新北市三重區信義西街138號","121.49546","25.06432","6500200","三重區"
"241020","478-VK","2018/04/09 19:19:31","新北市三重區大智街179巷2號","121.48969","25.0726883333333","6500200","三重區"
"241030","480-VK","2018/04/09 19:19:19","新北市三重區新興路42號","121.49139","25.053345","6500200","三重區"
"241006","AAD-863","2018/04/09 19:19:35","新北市三重區車路頭街182號","121.483715","25.07712","6500200","三重區"
"241022","887-TS","2018/04/09 19:19:32","新北市三重區中正北路58號","121.486903333333","25.064345","6500200","三重區"
"241029","942-UM","2018/04/09 19:19:26","新北市三重區重安街27號","121.491168333333","25.0570016666667","6500200","三重區"
"235066","003-UY","2018/04/09 19:19:19","新北市中和區景新街2號","121.502593333333","24.9997916666667","6500300","中和區"
"235064","005-UY","2018/04/09 19:19:27","新北市中和區連城路21號","121.498851666667","25.0020216666667","6500300","中和區"
"235063","006-UY","2018/04/09 19:19:22","新北市中和區連勝街121巷18弄5號","121.495006666667","24.9943566666667","6500300","中和區"
"235056","096-UM","2018/04/09 19:19:31","新北市中和區中正路1171號","121.48134","25.0092966666667","6500300","中和區"
"235065","098-UM","2018/04/09 19:19:34","新北市中和區中山路二段2巷3弄2號","121.504765","25.0061933333333","6500300","中和區"
"235040","150-BY","2018/04/09 19:19:18","新北市中和區保健路71-3號","121.510501666667","24.9968716666667","6500300","中和區"
"235058","151-BY","2018/04/09 19:19:23","新北市中和區連城路523巷13弄1號","121.481715","24.9938433333333","6500300","中和區"
"235055","183-VK","2018/04/09 19:19:23","新北市中和區德光路79號","121.469343333333","25.0036633333333","6500300","中和區"
"235038","185-VK","2018/04/09 19:19:32","新北市中和區大仁街10巷41號","121.519721666667","24.9924116666667","6500300","中和區"
"235049","186-VK","2018/04/09 19:19:32","新北市中和區景新街235號","121.508091666667","24.9945633333333","6500300","中和區"
"235067","255-BX","2018/04/09 19:11:13","新北市中和區新生街186巷14號","121.48294","24.999795","6500300","中和區"
"235044","293-VK","2018/04/09 19:19:23","新北市中和區中興街263-1號","121.50008","24.9888066666667","6500300","中和區"
"235072","301-VK","2018/04/09 19:19:33","新北市中和區連城路263巷4弄12號","121.491806666667","24.9952733333333","6500300","中和區"
"235043","352-BY","2018/04/09 19:19:27","新北市中和區景平路404號","121.509115","24.9932","6500300","中和區"
"235068","377-QA","2018/04/09 19:19:16","新北市中和區連勝街38巷16號","121.49784","24.997925","6500300","中和區"
"235061","378-QA","2018/04/09 19:19:29","新北市中和區員山路238號","121.48143","25.0013","6500300","中和區"
"235050","4979-A6","2018/04/09 19:19:30","新北市中和區景安路208巷21號","121.502491666667","24.9919016666667","6500300","中和區"
"235069","4980-A6","2018/04/09 19:19:34","新北市中和區中和路165巷1號","121.502875","25.0001416666667","6500300","中和區"
"235042","551-UM","2018/04/09 19:19:29","新北市中和區大勇街78號","121.517925","24.9955366666667","6500300","中和區"
"235070","558-UM","2018/04/09 19:19:22","新北市中和區連城路53號","121.497856666667","25.0015616666667","6500300","中和區"
"235045","565-BX","2018/04/09 19:19:33","新北市中和區景新街423巷49號","121.514793333333","24.9898066666667","6500300","中和區"
"235054","640-BX","2018/04/09 19:19:28","新北市中和區國光街109巷2弄3號","121.469641666667","25.0004133333333","6500300","中和區"
"235047","732-UM","2018/04/09 19:19:23","新北市中和區和平街54巷9號","121.508966666667","24.9916766666667","6500300","中和區"
"235046","733-UM","2018/04/09 19:19:34","新北市中和區忠孝街2巷19弄1號","121.510846666667","24.9814483333333","6500300","中和區"
"235071","783-BX","2018/04/09 19:19:32","新北市中和區中正路637巷52弄3號","121.485296666667","24.9936983333333","6500300","中和區"
"235057","801-TS","2018/04/09 19:19:26","新北市中和區員山路325-2號","121.481243333333","25.0007166666667","6500300","中和區"
"235041","802-TS","2018/04/09 19:19:20","新北市中和區景安路9號","121.507988333333","24.998955","6500300","中和區"
"235052","805-TS","2018/04/09 19:19:25","新北市中和區興南路二段149號","121.504858333333","24.98376","6500300","中和區"
"235048","896-TW","2018/04/09 19:19:23","新北市中和區忠孝街64號","121.511911666667","24.9839683333333","6500300","中和區"
"235053","900-TW","2018/04/09 19:19:14","新北市中和區華安街30巷16-1號","121.46689","24.99733","6500300","中和區"
"235060","911-UM","2018/04/09 19:19:23","新北市中和區員山路300號","121.481423333333","25.002635","6500300","中和區"
"235051","157-BY","2018/04/09 19:19:35","新北市中和區興南路一段56巷26號","121.510391666667","24.9912716666667","6500300","中和區"
"235037","AAC-213","2018/04/09 19:19:16","新北市中和區秀朗路三段10巷37弄13號","121.524135","24.995725","6500300","中和區"
"235059","AAC-215","2018/04/09 19:19:17","新北市中和區錦和路195巷8號","121.491131666667","24.9908","6500300","中和區"
"220056","015-TV","2018/04/09 19:18:35","新北市板橋區信義路186號","121.459621666667","24.9913016666667","6500100","板橋區"
"220065","072-UY","2018/04/09 19:19:30","新北市板橋區國泰街76巷21號","121.467028333333","25.0070883333333","6500100","板橋區"
"220086","073-UY","2018/04/09 19:19:20","新北市板橋區中正路216巷22號","121.45673","25.018595","6500100","板橋區"
"220067","075-UY","2018/04/09 19:19:15","新北市板橋區長安街263號","121.47391","25.01134","6500100","板橋區"
"220069","AAD-861","2018/04/09 19:19:29","新北市板橋區貴興路35號","121.457653333333","25.00387","6500100","板橋區"
"226004","312-R5","2018/04/09 19:19:19","新北市平溪區靜安路三段355號","121.780056666667","25.04518","6502400","平溪區"
"235039","251-BX","2018/04/09 19:19:33","新北市中和區景平路64巷14弄22號","121.522875","24.991285","6500300","中和區"
"228003","097-TW","2018/04/09 19:19:28","新北市貢寮區和美里和美街22-1號","121.912765","25.082645","6502600","貢寮區"
"228002","585-TW","2018/04/09 19:19:31","新北市貢寮區雙玉里田寮洋街21號","121.926915","25.024115","6502600","貢寮區"
"228001","670-TC","2018/04/09 19:19:28","新北市貢寮區真理里新港街10號","121.925508333333","25.0543733333333","6502600","貢寮區"
"224010","AGQ-8101","2018/04/09 19:16:35","新北市瑞芳區汽車路7-3號","121.848023333333","25.1093683333333","6501200","瑞芳區"
"224006","676-BX","2018/04/09 19:19:32","新北市瑞芳區中山路154號","121.80228","25.1065466666667","6501200","瑞芳區"
"224008","285-BY","2018/04/09 19:19:33","新北市瑞芳區明燈路三段143號","121.80327","25.109315","6501200","瑞芳區"
"224009","273-VK","2018/04/09 19:19:27","新北市瑞芳區洞頂路148號","121.859368333333","25.11803","6501200","瑞芳區"
"224005","271-BY","2018/04/09 19:19:30","新北市瑞芳區蛇子形路6號","121.82582","25.10482","6501200","瑞芳區"
"227001","642-TC","2018/04/09 19:19:16","新北市雙溪區平林里梅竹蹊66-1號","121.860165","25.0358266666667","6502500","雙溪區"
"227008","400-TW","2018/04/09 19:19:16","新北市雙溪區新基里新基北街40-1號","121.868141666667","25.0377233333333","6502500","雙溪區"
"253005","032-BX","2018/04/09 19:19:35","新北市石門區阿里荖5號","121.610485","25.2797216666667","6502200","石門區"
"253006","295-VK","2018/04/09 19:19:16","新北市石門區楓林19號","121.536605","25.29095","6502200","石門區"
"222001","KEA-2212","2018/04/09 19:19:23","新北市深坑區北深路二段97號","121.617588333333","25.0035033333333","6501800","深坑區"
"208002","KEA-2872","2018/04/09 19:19:30","新北市金山區中正路73號","121.633716666667","25.2216466666667","6502700","金山區"
"208003","665-BX","2018/04/09 19:19:33","新北市金山區中山路130號","121.63908","25.220155","6502700","金山區"
"251001","011-UM","2018/04/09 19:19:36","新北市淡水區自強路279-1號","121.461463333333","25.1276616666667","6501000","淡水區"
"251013","179-VK","2018/04/09 19:17:30","新北市淡水區安子內12號","121.481533333333","25.21908","6501000","淡水區"
"251014","180-VK","2018/04/09 19:19:17","新北市淡水區小中寮19-7號","121.48476","25.22965","6501000","淡水區"
"251015","182-VK","2018/04/09 19:19:22","新北市淡水區南勢埔49號","121.484798333333","25.1813633333333","6501000","淡水區"
"251010","413-VK","2018/04/09 19:19:13","新北市淡水區沙崙路28號","121.421475","25.18141","6501000","淡水區"
"251012","441-VK","2018/04/09 19:19:21","新北市淡水區崁頂133號","121.431206666667","25.2053783333333","6501000","淡水區"
"251016","442-VK","2018/04/09 19:19:32","新北市淡水區淡金路三段350巷18號","121.450796666667","25.2083733333333","6501000","淡水區"
"251005","443-VK","2018/04/09 19:19:16","新北市淡水區水源街一段27巷1號","121.443141666667","25.1725183333333","6501000","淡水區"
"251006","561-UM","2018/04/09 19:19:22","新北市淡水區大信街33號","121.442023333333","25.1773216666667","6501000","淡水區"
"251009","575-R6","2018/04/09 19:19:23","新北市淡水區大忠街5巷9號","121.443348333333","25.1765416666667","6501000","淡水區"
"251007","577-R6","2018/04/09 19:19:32","新北市淡水區民生路117巷27號","121.464896666667","25.13954","6501000","淡水區"
"251011","650-BX","2018/04/09 19:06:56","新北市淡水區中正東路二段143巷2弄1號","121.460678333333","25.1473666666667","6501000","淡水區"
"251003","766-UM","2018/04/09 19:19:33","新北市淡水區中山北路一段33號","121.441533333333","25.1751816666667","6501000","淡水區"
"207003","550-UM","2018/04/09 19:19:15","新北市萬里區大鵬里萬里加投79-3號","121.647338333333","25.2123833333333","6502800","萬里區"
"207004","225-TW","2018/04/09 19:19:20","新北市萬里區萬里里成功新村44號","121.68771","25.17464","6502800","萬里區"
"252002","178-VK","2018/04/09 19:19:36","新北市三芝區淡金路二段18-1號","121.502706666667","25.2595216666667","6502100","三芝區"
"252001","292-VK","2018/04/09 19:19:28","新北市三芝區長勤街9巷11弄3號","121.501891666667","25.254695","6502100","三芝區"
"237004","KEA-2597","2018/04/09 19:19:21","新北市三峽區有木206號","121.439118333333","24.8515033333333","6500900","三峽區"
"237007","153-BY","2018/04/09 19:19:26","新北市三峽區二鬮路128號","121.35988","24.908165","6500900","三峽區"
"237009","210-TH","2018/04/09 19:19:21","新北市三峽區民生街156號","121.371861666667","24.9349666666667","6500900","三峽區"
"237013","252-BX","2018/04/09 19:19:30","新北市三峽區光明路75巷6號","121.377283333333","24.9279366666667","6500900","三峽區"
"237012","275-BY","2018/04/09 19:19:13","新北市三峽區三樹路222巷236弄23號","121.39139","24.943065","6500900","三峽區"
"237008","302-VK","2018/04/09 19:19:26","新北市三峽區光明路106巷93號","121.374481666667","24.9263866666667","6500900","三峽區"
"237006","5529-G3","2018/04/09 19:19:22","新北市三峽區大同路40-7號","121.376201666667","24.9278266666667","6500900","三峽區"
"237010","706-TV","2018/04/09 19:19:21","新北市三峽區復興路45號","121.3735","24.93695","6500900","三峽區"
"237005","AKY-6261","2018/04/09 19:19:29","新北市鶯歌區三鶯路5號","121.356896666667","24.9407133333333","6500900","三峽區"
"236069","105-UM","2018/04/09 19:19:15","新北市土城區學成路76巷2-1號","121.451381666667","24.9884266666667","6501300","土城區"
"236078","166-UM","2018/04/09 19:19:29","新北市土城區中央路四段321巷26號","121.411303333333","24.9512766666667","6501300","土城區"
"236026","269-VK","2018/04/09 19:19:26","新北市土城區中央路二段177巷23號","121.44391","24.9762566666667","6501300","土城區"
"236014","270-VK","2018/04/09 19:19:22","新北市土城區學府路一段23巷25弄7號","121.458011666667","24.9866883333333","6501300","土城區"
"236020","401-BY","2018/04/09 19:19:24","新北市土城區峰廷街3號","121.469213333333","24.9874666666667","6501300","土城區"
"236059","912-UM","2018/04/09 19:19:15","新北市土城區中央路二段227號","121.440355","24.9725983333333","6501300","土城區"
"236048","913-UM","2018/04/09 19:19:27","新北市土城區明德路一段398-1號","121.453645","24.9790766666667","6501300","土城區"
"242048","172-VK","2018/04/09 19:19:26","新北市新莊區後港一路13號","121.424173333333","25.0263466666667","6500500","新莊區"
"238015","755-BX","2018/04/09 19:19:33","新北市樹林區備內街3號","121.41312","24.98686","6500700","樹林區"
"238023","601-UM","2018/04/09 19:19:29","新北市樹林區三興路77號","121.392783333333","25.014555","6500700","樹林區"
"238019","599-UM","2018/04/09 19:19:30","新北市樹林區鎮前街347巷2弄1號","121.416721666667","24.9836416666667","6500700","樹林區"
"238018","571-TV","2018/04/09 19:19:27","新北市樹林區中華路185-2號","121.420261666667","24.9817216666667","6500700","樹林區"
"238024","5061-A6","2018/04/09 19:19:28","新北市樹林區福德街48-10號","121.398943333333","24.974545","6500700","樹林區"
"238022","KEA-2213","2018/04/09 19:19:16","新北市樹林區中山路二段121-1號","121.40826","24.9799083333333","6500700","樹林區"
"238021","KEA-2539","2018/04/09 19:19:31","新北市樹林區柑園街二段455號","121.363326666667","24.9461916666667","6500700","樹林區"
"238025","303-VK","2018/04/09 19:19:31","新北市樹林區中山路二段249巷1號","121.402121666667","24.9758233333333","6500700","樹林區"
"238017","283-BY","2018/04/09 19:19:28","新北市樹林區保安街二段179-1號","121.415283333333","25.0030216666667","6500700","樹林區"
"238014","282-BY","2018/04/09 19:19:19","新北市樹林區保安二街69號","121.424635","24.994995","6500700","樹林區"
"238026","172-UY","2018/04/09 19:19:26","新北市樹林區佳園路三段83號","121.387626666667","24.9525166666667","6500700","樹林區"
"238016","169-UY","2018/04/09 19:19:21","新北市樹林區復興路462號","121.413333333333","24.9836766666667","6500700","樹林區"
"239007","AAC-297","2018/04/09 19:19:22","新北市鶯歌區中山路129號","121.349456666667","24.95696","6500800","鶯歌區"
"239006","891-R6","2018/04/09 19:19:30","新北市鶯歌區鶯桃路91巷12號","121.338891666667","24.9532433333333","6500800","鶯歌區"
"239008","527-UM","2018/04/09 19:19:27","新北市鶯歌區國際二路12巷11號","121.338035","24.9745666666667","6500800","鶯歌區"
"239005","526-UM","2018/04/09 19:19:34","新北市鶯歌區三界公坑30-1號","121.352915","24.9712133333333","6500800","鶯歌區"
"239001","417-VK","2018/04/09 19:19:35","新北市鶯歌區鶯桃路95巷27號","121.338271666667","24.9533183333333","6500800","鶯歌區"
"239003","360-BY","2018/04/09 19:19:20","新北市鶯歌區中正二路155-1號","121.345451666667","24.9498466666667","6500800","鶯歌區"
"239004","193-VK","2018/04/09 19:19:27","新北市鶯歌區中正三路鄭厝巷16-2號","121.334441666667","24.9343933333333","6500800","鶯歌區"
"221008","489-VK","2018/04/09 19:19:31","新北市汐止區康寧街362號","121.628381666667","25.067575","6501100","汐止區"
"221036","130-UY","2018/04/09 19:19:31","新北市汐止區汐萬路一段256巷1號","121.651741666667","25.0748983333333","6501100","汐止區"
"221015","131-UY","2018/04/09 19:19:28","新北市汐止區康寧街901號","121.651671666667","25.0749433333333","6501100","汐止區"
"221010","269-BY","2018/04/09 19:19:15","新北市汐止區康寧街901號","121.65137","25.0749383333333","6501100","汐止區"
"221012","278-VK","2018/04/09 19:19:17","新北市汐止區汐萬路一段312號","121.65057","25.0754316666667","6501100","汐止區"
"221023","279-VK","2018/04/09 19:19:21","新北市汐止區康寧街901號","121.650973333333","25.07523","6501100","汐止區"
"221032","280-BY","2018/04/09 19:19:26","新北市汐止區橫科路241-5號","121.622483333333","25.0487116666667","6501100","汐止區"
"221027","281-BY","2018/04/09 19:19:32","新北市汐止區汐萬路一段312號","121.650555","25.0753833333333","6501100","汐止區"
"221029","298-VK","2018/04/09 19:19:32","新北市汐止區康寧街901號","121.651798333333","25.0750783333333","6501100","汐止區"
"221025","623-UM","2018/04/09 19:19:19","新北市汐止區汐萬路一段39-3號","121.654861666667","25.0696133333333","6501100","汐止區"
"221038","646-BX","2018/04/09 19:19:23","新北市汐止區汐萬路一段312號","121.650661666667","25.075285","6501100","汐止區"
"221002","707-TV","2018/04/09 19:19:22","新北市汐止區大同路一段321號","121.638026666667","25.0591416666667","6501100","汐止區"
"221018","753-BX","2018/04/09 19:19:25","新北市汐止區康寧街901號","121.651561666667","25.0749266666667","6501100","汐止區"
"220079","145-BY","2018/04/09 19:19:18","新北市板橋區民權路306號","121.457163333333","25.0161333333333","6500100","板橋區"
"220080","200-UY","2018/04/09 19:19:23","新北市板橋區大觀路二段19巷103號","121.449978333333","25.002745","6500100","板橋區"
"220106","KEA-2550","2018/04/09 19:19:24","新北市板橋區雙十路三段15號","121.471011666667","25.03105","6500100","板橋區"
"220082","610-BX","2018/04/09 19:19:18","新北市板橋區大觀路三段269號","121.428896666667","24.9924266666667","6500100","板橋區"
"220101","245-BX","2018/04/09 19:19:22","新北市板橋區莊敬路25巷4弄12號","121.473703333333","25.0272316666667","6500100","板橋區"
"220091","267-BY","2018/04/09 19:19:31","新北市板橋區大同街55號","121.478751666667","25.027535","6500100","板橋區"
"220072","277-BY","2018/04/09 19:19:23","新北市板橋區金門街337巷7弄23號","121.430543333333","24.98525","6500100","板橋區"
"220070","282-UM","2018/04/09 19:19:32","新北市板橋區忠孝路58號","121.461168333333","25.001915","6500100","板橋區"
"220071","283-VK","2018/04/09 19:19:35","新北市板橋區大豐街110號","121.461501666667","25.0012866666667","6500100","板橋區"
"220094","285-UM","2018/04/09 19:19:23","新北市板橋區吳鳳路82號","121.466935","25.0313033333333","6500100","板橋區"
"220053","285-VK","2018/04/09 19:19:21","新北市板橋區富山街53巷1弄2號","121.477493333333","25.0206383333333","6500100","板橋區"
"220083","286-VK","2018/04/09 19:19:26","新北市板橋區龍興街95巷3號","121.443816666667","25.0023266666667","6500100","板橋區"
"220081","287-VK","2018/04/09 19:19:30","新北市板橋區南雅西路一段116號","121.452763333333","25.0065616666667","6500100","板橋區"
"220090","288-VK","2018/04/09 19:19:26","新北市板橋區長江路一段106巷13弄32號","121.461348333333","25.0296416666667","6500100","板橋區"
"220061","293-UM","2018/04/09 19:19:28","新北市板橋區中山路二段326號","121.48099","25.01953","6500100","板橋區"
"220075","303-R5","2018/04/09 19:19:22","新北市板橋區中正路275巷93號","121.45057","25.0179916666667","6500100","板橋區"
"220062","305-R5","2018/04/09 19:19:25","新北市板橋區三民路二段居仁巷1弄55-1號","121.481123333333","25.01386","6500100","板橋區"
"220092","307-R5","2018/04/09 19:19:14","新北市板橋區光武街36巷21號","121.468093333333","25.0264433333333","6500100","板橋區"
"220098","317-R6","2018/04/09 19:19:28","新北市板橋區民有街71號","121.4651","25.0270566666667","6500100","板橋區"
"220064","486-VK","2018/04/09 19:19:17","新北市板橋區縣民大道二段66號","121.462945","25.0125366666667","6500100","板橋區"
"220088","491-VK","2018/04/09 19:19:30","新北市板橋區三民路一段129-2號","121.479348333333","25.0207933333333","6500100","板橋區"
"220035","560-BX","2018/04/09 19:19:34","新北市板橋區中正路433巷23號","121.453323333333","25.0235966666667","6500100","板橋區"
"220103","561-BX","2018/04/09 19:19:28","新北市板橋區介壽街29號","121.46838","25.0199033333333","6500100","板橋區"
"220084","568-UM","2018/04/09 19:19:34","新北市板橋區溪北路73巷5號","121.428353333333","24.989845","6500100","板橋區"
"220063","609-BX","2018/04/09 19:19:14","新北市板橋區三民路二段120號","121.479181666667","25.0164633333333","6500100","板橋區"
"220055","630-UY","2018/04/09 19:19:27","新北市板橋區館前東路156巷17號","121.464293333333","25.0070183333333","6500100","板橋區"
"220057","686-BX","2018/04/09 19:19:21","新北市板橋區重慶路306號","121.463715","24.9981616666667","6500100","板橋區"
"220093","689-BX","2018/04/09 19:19:35","新北市板橋區文化路一段110號","121.464833333333","25.0182833333333","6500100","板橋區"
"220054","741-BX","2018/04/09 19:19:32","新北市板橋區校前街38號","121.461003333333","25.0031783333333","6500100","板橋區"
"220102","KEA-2699","2018/04/09 19:19:16","新北市板橋區田單街2巷38號","121.481905","25.02748","6500100","板橋區"
"220068","830-TW","2018/04/09 19:19:21","新北市板橋區三民路一段1巷49-1號","121.480828333333","25.0248466666667","6500100","板橋區"
"220096","831-TW","2018/04/09 19:19:28","新北市板橋區大同街26巷3號","121.478046666667","25.027145","6500100","板橋區"
"220089","833-TW","2018/04/09 19:19:30","新北市板橋區文化路一段413號","121.46754","25.0223016666667","6500100","板橋區"
"220074","895-R6","2018/04/09 19:19:23","新北市板橋區中正路39巷15號","121.454923333333","25.013105","6500100","板橋區"
"220073","985-R7","2018/04/09 19:19:21","新北市板橋區新生街45號","121.457128333333","25.0210833333333","6500100","板橋區"
"220097","AAC-210","2018/04/09 19:19:29","新北市板橋區幸福路60巷49號","121.460321666667","25.0213166666667","6500100","板橋區"
"220077","AAC-253","2018/04/09 19:19:24","新北市板橋區大觀路一段28巷66號","121.449821666667","25.0105133333333","6500100","板橋區"
