"lineid","car","time","location","longitude","latitude","cityid","cityname"
"234064","337-UY","2018/04/09 20:39:43","新北市永和區環河西路二段215號","121.501225","25.0105066666667","6500400","永和區"
"234061","AAD-866","2018/04/09 20:39:39","新北市永和區秀朗路一段120號","121.51698","25.00359","6500400","永和區"
"234050","863-TW","2018/04/09 20:39:41","新北市永和區保福路三段22號","121.507996666667","25.0159966666667","6500400","永和區"
"249001","173-UM","2018/04/09 20:39:39","新北市八里區下罟子23號","121.377041666667","25.1388066666667","6502300","八里區"
"249004","303-UY","2018/04/09 20:39:37","新北市八里區中山路一段157巷31號","121.413036666667","25.1581666666667","6502300","八里區"
"234023","9380-KE","2018/04/09 20:39:26","新北市永和區光復街2巷16弄23號","121.517951666667","25.0163283333333","6500400","永和區"
"234074","AAC-211","2018/04/09 20:39:26","新北市永和區竹林路119巷16號","121.521003333333","25.0114733333333","6500400","永和區"
"243010","KEA-2215","2018/04/09 20:39:42","新北市泰山區黎明路23-1號","121.42125","25.0615116666667","6501600","泰山區"
"222003","436-BY","2018/04/09 20:39:29","新北市深坑區深坑街163號","121.612855","25.0010266666667","6501800","深坑區"
"222002","659-BX","2018/04/09 20:39:30","新北市深坑區萬福路45號","121.59948","25.0067983333333","6501800","深坑區"
"231041","002-UM","2018/04/09 20:39:41","新北市新店區中正路547號","121.533761666667","24.98778","6500600","新店區"
"231059","046-UY","2018/04/09 20:39:42","新北市新店區僑愛一路1號","121.49989","24.94485","6500600","新店區"
"231040","047-UY","2018/04/09 20:39:46","新北市新店區中正路253號","121.538931666667","24.973485","6500600","新店區"
"231044","106-UY","2018/04/09 20:39:44","新北市新店區建國路293巷1號","121.536698333333","24.9861333333333","6500600","新店區"
"231052","108-UY","2018/04/09 20:39:35","新北市新店區廣興路7-6號","121.54604","24.9115866666667","6500600","新店區"
"231047","187-VK","2018/04/09 20:39:39","新北市新店區寶慶街34號","121.543105","24.9868016666667","6500600","新店區"
"231057","256-BX","2018/04/09 20:39:42","新北市新店區花園六路二段1-12號","121.553551666667","24.9332683333333","6500600","新店區"
"231051","278-BY","2018/04/09 20:39:45","新北市新店區中央八街86號","121.527036666667","24.9773266666667","6500600","新店區"
"231050","AAD-862","2018/04/09 20:39:23","新北市新店區建安街15巷1號","121.539718333333","24.9754333333333","6500600","新店區"
"231058","3713-VJ","2018/04/09 20:39:30","新北市新店區平等街37號","121.536523333333","24.973385","6500600","新店區"
"231066","4716-K9","2018/04/09 20:39:42","新北市新店區安民街341號","121.516948333333","24.97498","6500600","新店區"
"231056","4715-K9","2018/04/09 20:39:28","新北市新店區中央七街61巷10號","121.528693333333","24.9763083333333","6500600","新店區"
"231067","4772-VM","2018/04/09 20:39:42","新北市新店區安華路28-1號","121.519538333333","24.96083","6500600","新店區"
"231065","512-UM","2018/04/09 20:39:31","新北市新店區安祥路102巷140號","121.486666666667","24.9645966666667","6500600","新店區"
"231049","513-UM","2018/04/09 20:39:39","新北市新店區永業路81巷7弄21號","121.530948333333","24.9494316666667","6500600","新店區"
"231061","619-UM","2018/04/09 20:39:28","新北市新店區新和街34號","121.519255","24.9848366666667","6500600","新店區"
"231063","641-BX","2018/04/09 20:39:37","新北市新店區玫瑰路16號","121.494991666667","24.950285","6500600","新店區"
"231042","645-TV","2018/04/09 20:39:36","新北市新店區寶橋路238號","121.551578333333","24.97899","6500600","新店區"
"231068","718-UY","2018/04/09 20:39:38","新北市新店區寶慶街35巷1弄2號","121.543135","24.9863016666667","6500600","新店區"
"231064","719-UM","2018/04/09 20:39:42","新北市新店區安和路三段175號","121.515676666667","24.986235","6500600","新店區"
"231054","719-UY","2018/04/09 20:39:40","新北市新店區行政街26號","121.542853333333","24.9656116666667","6500600","新店區"
"231062","720-UM","2018/04/09 20:39:40","新北市新店區安泰路60巷55弄86號","121.484726666667","24.9455983333333","6500600","新店區"
"231060","897-TW","2018/04/09 20:39:37","新北市新店區安康路三段545號","121.47795","24.9454583333333","6500600","新店區"
"231045","898-TW","2018/04/09 20:39:39","新北市新店區長春路44號","121.550538333333","24.9576366666667","6500600","新店區"
"231043","899-TW","2018/04/09 20:39:37","新北市新店區建國路35巷1號","121.540436666667","24.97443","6500600","新店區"
"241011","013-R5","2018/04/09 20:39:39","新北市三重區龍濱路285號","121.501081666667","25.0733616666667","6500200","三重區"
"241028","022-UY","2018/04/09 20:39:37","新北市三重區光興街26號","121.49747","25.05986","6500200","三重區"
"241008","059-VK","2018/04/09 20:39:37","新北市三重區下竹圍街42號","121.481058333333","25.0749666666667","6500200","三重區"
"241009","060-VK","2018/04/09 20:39:33","新北市三重區碧華街57號","121.484736666667","25.08127","6500200","三重區"
"241031","061-VK","2018/04/09 20:39:29","新北市三重區重陽路一段113巷1弄47號","121.487941666667","25.0585616666667","6500200","三重區"
"241015","062-VK","2018/04/09 20:39:33","新北市三重區文化北路105號","121.49784","25.0684683333333","6500200","三重區"
"241017","063-VK","2018/04/09 20:39:25","新北市三重區大同北路273號","121.490841666667","25.067465","6500200","三重區"
"241024","065-VK","2018/04/09 20:39:25","新北市三重區三民街206巷2號","121.480613333333","25.0667533333333","6500200","三重區"
"241026","066-VK","2018/04/09 20:39:30","新北市三重區文化南路3號","121.499983333333","25.0623933333333","6500200","三重區"
"241002","090-VK","2018/04/09 20:39:37","新北市三重區仁義街167巷38弄2號","121.49864","25.08261","6500200","三重區"
"241003","091-VK","2018/04/09 20:39:42","新北市三重區五華街141巷58號","121.493535","25.0867816666667","6500200","三重區"
"241005","262-UM","2018/04/09 20:39:32","新北市三重區碧華街396號","121.49164","25.0847466666667","6500200","三重區"
"241016","265-UM","2018/04/09 20:39:41","新北市三重區自強路一段143號","121.494658333333","25.0668633333333","6500200","三重區"
"241018","268-UM","2018/04/09 20:39:25","新北市三重區自強路一段101號","121.49566","25.066365","6500200","三重區"
"241032","269-UM","2018/04/09 20:39:27","新北市三重區重陽路一段120巷48號","121.484998333333","25.0601833333333","6500200","三重區"
"241013","270-UM","2018/04/09 20:39:41","新北市三重區三和路四段83號","121.489261666667","25.075495","6500200","三重區"
"241025","271-UM","2018/04/09 20:39:31","新北市三重區頂崁街210巷28弄22號","121.475703333333","25.066905","6500200","三重區"
"241007","398-BY","2018/04/09 20:39:40","新北市三重區自強路四段22號","121.488636666667","25.0765566666667","6500200","三重區"
"241035","KEA-2210","2018/04/09 20:39:39","新北市三重區正義北路268號","121.495843333333","25.0689216666667","6500200","三重區"
"241020","478-VK","2018/04/09 20:39:39","新北市三重區忠孝路一段87號","121.489811666667","25.0720983333333","6500200","三重區"
"241030","480-VK","2018/04/09 20:39:39","新北市三重區成功路73巷13號","121.489476666667","25.0519783333333","6500200","三重區"
"241014","543-UM","2018/04/09 20:39:37","新北市三重區萬壽街14號","121.499378333333","25.0694333333333","6500200","三重區"
"241023","545-UM","2018/04/09 20:39:27","新北市三重區自由街39巷4號","121.478586666667","25.06694","6500200","三重區"
"241001","547-UM","2018/04/09 20:39:28","新北市三重區聯華街126號","121.484961666667","25.0748333333333","6500200","三重區"
"241019","KEA-2593","2018/04/09 20:39:45","新北市三重區重陽路四段126巷50號","121.49131","25.070815","6500200","三重區"
"241006","AAD-863","2018/04/09 20:39:35","新北市三重區車路頭街139巷14號","121.48431","25.0763733333333","6500200","三重區"
"241022","887-TS","2018/04/09 20:39:39","新北市三重區新北大道一段46巷15號","121.487855","25.0622116666667","6500200","三重區"
"241012","941-UM","2018/04/09 20:39:27","新北市三重區秀江街1號","121.502973333333","25.073235","6500200","三重區"
"241029","942-UM","2018/04/09 20:39:28","新北市三重區集美街210-5號","121.491453333333","25.0546316666667","6500200","三重區"
"241033","AAC-255","2018/04/09 20:39:43","新北市三重區光復路二段87巷45號","121.474873333333","25.0580066666667","6500200","三重區"
"235069","4980-A6","2018/04/09 20:39:34","新北市中和區連城路347巷18弄1-1號","121.487808333333","24.9948333333333","6500300","中和區"
"235026","800-TS","2018/04/09 20:17:35","新北市中和區員山路36巷16號","121.484708333333","24.9918883333333","6500300","中和區"
"235053","900-TW","2018/04/09 20:39:33","新北市八里區中山路三段409號","121.368748333333","25.13572","6500300","中和區"
"247024","893-R6","2018/04/09 20:39:26","新北市蘆洲區長樂路38-2號","121.463555","25.0856633333333","6501400","蘆洲區"
"247022","500-BY","2018/04/09 20:39:39","新北市蘆洲區中正路243巷7弄31號","121.467985","25.0853083333333","6501400","蘆洲區"
"247010","341-TH","2018/04/09 20:39:31","新北市蘆洲區集賢路226-1號","121.482273333333","25.0864883333333","6501400","蘆洲區"
"247012","339-TH","2018/04/09 20:39:44","新北市蘆洲區集賢路224巷41號","121.480468333333","25.0884483333333","6501400","蘆洲區"
"247004","337-TH","2018/04/09 20:39:40","新北市蘆洲區長安街295號","121.458066666667","25.0847183333333","6501400","蘆洲區"
"247006","336-TH","2018/04/09 20:39:26","新北市蘆洲區和平路146號","121.466778333333","25.08093","6501400","蘆洲區"
"247008","056-VK","2018/04/09 20:39:42","新北市蘆洲區重陽街16號","121.480748333333","25.0815266666667","6501400","蘆洲區"
"247014","053-VK","2018/04/09 20:39:26","新北市蘆洲區中山一路211號","121.473856666667","25.080855","6501400","蘆洲區"
"247016","007-UY","2018/04/09 20:39:35","新北市蘆洲區中山二路209號","121.47058","25.0805066666667","6501400","蘆洲區"
"247002","002-UY","2018/04/09 20:39:38","新北市蘆洲區長安街369號","121.457293333333","25.0876616666667","6501400","蘆洲區"
"247020","001-UY","2018/04/09 20:39:42","新北市蘆洲區民族路331號","121.473783333333","25.0918016666667","6501400","蘆洲區"
"222001","KEA-2212","2018/04/09 20:39:43","新北市深坑區北深路三段205號","121.600701666667","25.0037933333333","6501800","深坑區"
"208002","KEA-2872","2018/04/09 20:39:30","新北市金山區磺清路121號","121.639818333333","25.2282633333333","6502700","金山區"
"251001","011-UM","2018/04/09 20:39:39","新北市淡水區淡金路73號","121.456071666667","25.16164","6501000","淡水區"
"251002","012-UM","2018/04/09 20:39:29","新北市淡水區中正路36號","121.44376","25.16921","6501000","淡水區"
"251013","179-VK","2018/04/09 20:39:34","新北市淡水區番子厝12-3號","121.459775","25.20143","6501000","淡水區"
"251014","180-VK","2018/04/09 20:39:36","新北市淡水區桂竹圍10-1號","121.471026666667","25.2318433333333","6501000","淡水區"
"251008","181-VK","2018/04/09 20:39:31","新北市淡水區中正路二段397號","121.42563","25.1913716666667","6501000","淡水區"
"251010","413-VK","2018/04/09 20:39:33","新北市淡水區沙崙路181巷1號","121.424011666667","25.184305","6501000","淡水區"
"251012","441-VK","2018/04/09 20:39:41","新北市淡水區興仁路108號","121.45165","25.2181966666667","6501000","淡水區"
"251016","442-VK","2018/04/09 20:39:32","新北市淡水區後洲子8-2號","121.449571666667","25.2240266666667","6501000","淡水區"
"251006","561-UM","2018/04/09 20:39:42","新北市淡水區商工路186巷35號","121.451118333333","25.18652","6501000","淡水區"
"251011","650-BX","2018/04/09 20:39:27","新北市淡水區新市一路一段361號","121.436365","25.1861716666667","6501000","淡水區"
"251003","766-UM","2018/04/09 20:39:33","新北市淡水區新民街152巷6弄22號","121.438721666667","25.1786133333333","6501000","淡水區"
"252002","178-VK","2018/04/09 20:39:35","新北市三芝區淡金路二段47-2號","121.503708333333","25.2604916666667","6502100","三芝區"
"242034","AAC-296","2018/04/09 20:39:34","新北市新莊區中正路334巷25弄2號","121.445448333333","25.03588","6500500","新莊區"
"242058","986-R7","2018/04/09 20:39:33","新北市新莊區民安路106號","121.424085","25.0254733333333","6500500","新莊區"
"242053","751-BX","2018/04/09 20:39:35","新北市新莊區西盛街323巷24號","121.428833333333","25.01468","6500500","新莊區"
"242029","705-TV","2018/04/09 20:39:32","新北市新莊區昌隆街10號","121.453175","25.0508783333333","6500500","新莊區"
"242027","615-BX","2018/04/09 20:39:31","新北市新莊區思源路153號","121.45976","25.0442616666667","6500500","新莊區"
"242025","613-BX","2018/04/09 20:39:35","新北市新莊區化成路579巷1號","121.464301666667","25.0660483333333","6500500","新莊區"
"242042","566-BX","2018/04/09 20:39:40","新北市新莊區中正路694巷3弄7號","121.41805","25.0280783333333","6500500","新莊區"
"242046","497-BY","2018/04/09 20:39:37","新北市新莊區裕民街14號","121.419201666667","25.0256666666667","6500500","新莊區"
"242050","441-UM","2018/04/09 20:39:30","新北市新莊區民安西路173巷4號","121.426615","25.0159183333333","6500500","新莊區"
"242056","440-UM","2018/04/09 20:39:31","新北市新莊區瓊泰路64號","121.443346666667","25.0286783333333","6500500","新莊區"
"242036","415-TV","2018/04/09 20:39:27","新北市新莊區建安街16號","121.428738333333","25.0264716666667","6500500","新莊區"
"242007","413-TV","2018/04/09 20:39:46","新北市新莊區思源路287巷2弄9號","121.4593","25.04867","6500500","新莊區"
"242044","400-BY","2018/04/09 20:39:28","新北市新莊區中正路新生巷85弄1號","121.417088333333","25.021785","6500500","新莊區"
"242023","362-BY","2018/04/09 20:39:33","新北市新莊區化成路536號","121.466293333333","25.0530633333333","6500500","新莊區"
"242060","353-BY","2018/04/09 20:39:34","新北市新莊區新樹路258巷3號","121.432116666667","25.0155616666667","6500500","新莊區"
"242039","133-UY","2018/04/09 20:39:37","新北市新莊區瓊林南路1號","121.4386","25.02079","6500500","新莊區"
"242048","172-VK","2018/04/09 20:39:26","新北市新莊區中正路701號","121.4256","25.0297666666667","6500500","新莊區"
"242011","173-VK","2018/04/09 20:39:09","新北市新莊區中信街89巷8號","121.447346666667","25.0531666666667","6500500","新莊區"
"242017","175-VK","2018/04/09 20:39:40","新北市新莊區中港三街141號","121.448108333333","25.04597","6500500","新莊區"
"242015","346-TH","2018/04/09 20:39:42","新北市新莊區中和街32號","121.448301666667","25.0438383333333","6500500","新莊區"
"242021","348-TH","2018/04/09 20:39:27","新北市新莊區中華路一段73號","121.452256666667","25.04016","6500500","新莊區"
"242002","349-TH","2018/04/09 20:39:40","新北市新莊區中港路48巷25號","121.456938333333","25.0382783333333","6500500","新莊區"
"242019","350-TH","2018/04/09 20:39:36","新北市新莊區銘德街49巷2弄1號","121.457215","25.0433066666667","6500500","新莊區"
"242013","351-TH","2018/04/09 20:39:42","新北市新莊區中和街175巷11號","121.447163333333","25.0504966666667","6500500","新莊區"
"221008","489-VK","2018/04/09 20:39:40","新北市汐止區康寧街706-2號","121.638451666667","25.0730233333333","6501100","汐止區"
"221036","130-UY","2018/04/09 20:39:39","新北市汐止區南昌街16號","121.662951666667","25.0682933333333","6501100","汐止區"
"221015","131-UY","2018/04/09 20:39:28","新北市汐止區建成路35號","121.663856666667","25.072725","6501100","汐止區"
"221010","269-BY","2018/04/09 20:39:35","新北市汐止區八連路一段134號","121.642835","25.0795933333333","6501100","汐止區"
"221023","279-VK","2018/04/09 20:39:40","新北市汐止區民族二街30巷20號","121.633968333333","25.0717533333333","6501100","汐止區"
"221032","280-BY","2018/04/09 20:39:26","新北市汐止區弘道街53巷21號","121.618705","25.0495916666667","6501100","汐止區"
"221027","281-BY","2018/04/09 20:39:32","新北市汐止區大同路二段567號","121.66299","25.0699","6501100","汐止區"
"221029","298-VK","2018/04/09 20:39:37","新北市汐止區大同路一段415號","121.642285","25.0610216666667","6501100","汐止區"
"221021","299-VK","2018/04/09 20:39:27","新北市汐止區水源路一段282巷2號","121.654055","25.0583416666667","6501100","汐止區"
"221035","622-UM","2018/04/09 20:39:31","新北市汐止區長江街101-5號","121.658741666667","25.07314","6501100","汐止區"
"221025","623-UM","2018/04/09 20:39:39","新北市汐止區水源路二段175號","121.657753333333","25.0538283333333","6501100","汐止區"
"221038","646-BX","2018/04/09 20:39:23","新北市汐止區汐萬路一段188號","121.652228333333","25.0721316666667","6501100","汐止區"
"221033","647-BX","2018/04/09 20:39:44","新北市汐止區合順街18巷8弄5號","121.620336666667","25.0418633333333","6501100","汐止區"
"221018","753-BX","2018/04/09 20:39:45","新北市汐止區茄苳路70號","121.666625","25.07059","6501100","汐止區"
"220070","282-UM","2018/04/09 20:39:32","新北市八里區商港路92號","121.394576666667","25.1474816666667","6500100","板橋區"
"242009","281-VK","2018/04/09 20:39:31","新北市新莊區福壽街99巷8弄15號","121.456733333333","25.0506983333333","6500500","新莊區"
"220075","303-R5","2018/04/09 20:39:02","新北市樹林區中山路三段214號","121.380008333333","24.9678483333333","6500100","板橋區"
"242031","280-VK","2018/04/09 20:39:28","新北市新莊區三泰路58號","121.433803333333","25.0376583333333","6500500","新莊區"
"220103","561-BX","2018/04/09 20:39:44","新北市板橋區漢生東路73巷28號","121.467235","25.016995","6500100","板橋區"
